{"data": {"bikes": [{"name": "9c0c185c566a11a56d6bf25d58667483", "lat": 38.85507033333333, "type": "electric_scooter", "is_disabled": 0, "fusion_lon": 0.0, "fusion_lat": 0.0, "lon": -76.986375, "is_reserved": 0, "rental_uris": {"android": "https://dc.lft.to/lastmile_qr_scan", "ios": "https://dc.lft.to/lastmile_qr_scan"}, "bike_id": "9c0c185c566a11a56d6bf25d58667483"}, {"name": "99dd8b5b6f7e47dd3f64aa3fa8c52700", "lat": 38.907738333333334, "type": "electric_scooter", "is_disabled": 0, "fusion_lon": 0.0, "fusion_lat": 0.0, "lon": -77.02425916666667, "is_reserved": 0, "rental_uris": {"android": "https://dc.lft.to/lastmile_qr_scan", "ios": "https://dc.lft.to/lastmile_qr_scan"}, "bike_id": "99dd8b5b6f7e47dd3f64aa3fa8c52700"}, {"name": "582f3aaad7a7561a53c08d128fd5c39e", "lat": 38.899555, "type": "electric_scooter", "is_disabled": 0, "fusion_lon": 0.0, "fusion_lat": 0.0, "lon": -77.044947, "is_reserved": 0, "rental_uris": {"android": "https://dc.lft.to/lastmile_qr_scan", "ios": "https://dc.lft.to/lastmile_qr_scan"}, "bike_id": "582f3aaad7a7561a53c08d128fd5c39e"}, {"name": "6bf06413b41b3cc51bd076d037152c30", "lat": 38.918934666666665, "type": "electric_scooter", "is_disabled": 0, "fusion_lon": 0.0, "fusion_lat": 0.0, "lon": -77.03453616666667, "is_reserved": 0, "rental_uris": {"android": "https://dc.lft.to/lastmile_qr_scan", "ios": "https://dc.lft.to/lastmile_qr_scan"}, "bike_id": "6bf06413b41b3cc51bd076d037152c30"}, {"name": "efc623520dea30ec24e44a9b214282ca", "lat": 38.8744955, "type": "electric_scooter", "is_disabled": 0, "fusion_lon": 0.0, "fusion_lat": 0.0, "lon": -77.00923166666666, "is_reserved": 0, "rental_uris": {"android": "https://dc.lft.to/lastmile_qr_scan", "ios": "https://dc.lft.to/lastmile_qr_scan"}, "bike_id": "efc623520dea30ec24e44a9b214282ca"}, {"name": "2f1f78f42be6dd411159d831f1020c57", "lat": 38.9031395, "type": "electric_scooter", "is_disabled": 0, "fusion_lon": 0.0, "fusion_lat": 0.0, "lon": -77.0189985, "is_reserved": 0, "rental_uris": {"android": "https://dc.lft.to/lastmile_qr_scan", "ios": "https://dc.lft.to/lastmile_qr_scan"}, "bike_id": "2f1f78f42be6dd411159d831f1020c57"}, {"name": "358ab8e28b440ae43bdf5269b8510ac8", "lat": 38.926855833333335, "type": "electric_scooter", "is_disabled": 0, "fusion_lon": 0.0, "fusion_lat": 0.0, "lon": -77.01567766666666, "is_reserved": 0, "rental_uris": {"android": "https://dc.lft.to/lastmile_qr_scan", "ios": "https://dc.lft.to/lastmile_qr_scan"}, "bike_id": "358ab8e28b440ae43bdf5269b8510ac8"}, {"name": "12e51aa80202a5c67f83a6644dccd832", "lat": 38.89546133333333, "type": "electric_scooter", "is_disabled": 0, "fusion_lon": 0.0, "fusion_lat": 0.0, "lon": -76.98239866666667, "is_reserved": 0, "rental_uris": {"android": "https://dc.lft.to/lastmile_qr_scan", "ios": "https://dc.lft.to/lastmile_qr_scan"}, "bike_id": "12e51aa80202a5c67f83a6644dccd832"}, {"name": "3dc42d27b260458aa2d7340fa58abec6", "lat": 38.9119335, "type": "electric_scooter", "is_disabled": 0, "fusion_lon": 0.0, "fusion_lat": 0.0, "lon": -77.03208116666667, "is_reserved": 0, "rental_uris": {"android": "https://dc.lft.to/lastmile_qr_scan", "ios": "https://dc.lft.to/lastmile_qr_scan"}, "bike_id": "3dc42d27b260458aa2d7340fa58abec6"}, {"name": "f35856b96ef4b8f75b0cb239e91752a6", "lat": 38.8954185, "type": "electric_scooter", "is_disabled": 0, "fusion_lon": 0.0, "fusion_lat": 0.0, "lon": -77.00915033333334, "is_reserved": 0, "rental_uris": {"android": "https://dc.lft.to/lastmile_qr_scan", "ios": "https://dc.lft.to/lastmile_qr_scan"}, "bike_id": "f35856b96ef4b8f75b0cb239e91752a6"}, {"name": "44b51b94ca9310d9b736fde60e8f2328", "lat": 38.92362466666667, "type": "electric_scooter", "is_disabled": 0, "fusion_lon": 0.0, "fusion_lat": 0.0, "lon": -77.05041483333333, "is_reserved": 0, "rental_uris": {"android": "https://dc.lft.to/lastmile_qr_scan", "ios": "https://dc.lft.to/lastmile_qr_scan"}, "bike_id": "44b51b94ca9310d9b736fde60e8f2328"}, {"name": "9f4ac750375957ff7f1d76a6987ce418", "lat": 38.897293833333336, "type": "electric_scooter", "is_disabled": 0, "fusion_lon": 0.0, "fusion_lat": 0.0, "lon": -76.92583316666666, "is_reserved": 0, "rental_uris": {"android": "https://dc.lft.to/lastmile_qr_scan", "ios": "https://dc.lft.to/lastmile_qr_scan"}, "bike_id": "9f4ac750375957ff7f1d76a6987ce418"}, {"name": "b5f958828b0457aae6ff1b34becafbfb", "lat": 38.9151405, "type": "electric_scooter", "is_disabled": 0, "fusion_lon": 0.0, "fusion_lat": 0.0, "lon": -77.03465833333334, "is_reserved": 0, "rental_uris": {"android": "https://dc.lft.to/lastmile_qr_scan", "ios": "https://dc.lft.to/lastmile_qr_scan"}, "bike_id": "b5f958828b0457aae6ff1b34becafbfb"}, {"name": "bd67cac97b9a9560e7ebc7697d2811a0", "lat": 38.894994, "type": "electric_scooter", "is_disabled": 0, "fusion_lon": 0.0, "fusion_lat": 0.0, "lon": -76.94872266666667, "is_reserved": 0, "rental_uris": {"android": "https://dc.lft.to/lastmile_qr_scan", "ios": "https://dc.lft.to/lastmile_qr_scan"}, "bike_id": "bd67cac97b9a9560e7ebc7697d2811a0"}, {"name": "32b1c54a6212e9044ea8f96c8ed92040", "lat": 38.941842666666666, "type": "electric_scooter", "is_disabled": 0, "fusion_lon": 0.0, "fusion_lat": 0.0, "lon": -77.02409366666667, "is_reserved": 0, "rental_uris": {"android": "https://dc.lft.to/lastmile_qr_scan", "ios": "https://dc.lft.to/lastmile_qr_scan"}, "bike_id": "32b1c54a6212e9044ea8f96c8ed92040"}, {"name": "c5e63fab04b156aed3ef76d88b9ab4d7", "lat": 38.86513216666667, "type": "electric_bike", "is_disabled": 0, "fusion_lon": 0.0, "fusion_lat": 0.0, "lon": -76.97317866666667, "is_reserved": 0, "rental_uris": {"android": "https://dc.lft.to/lastmile_qr_scan", "ios": "https://dc.lft.to/lastmile_qr_scan"}, "bike_id": "c5e63fab04b156aed3ef76d88b9ab4d7"}, {"name": "312e75dff69104fb7c51b7991ecdfa8e", "lat": 38.92969983333333, "type": "electric_scooter", "is_disabled": 0, "fusion_lon": 0.0, "fusion_lat": 0.0, "lon": -77.05501183333334, "is_reserved": 0, "rental_uris": {"android": "https://dc.lft.to/lastmile_qr_scan", "ios": "https://dc.lft.to/lastmile_qr_scan"}, "bike_id": "312e75dff69104fb7c51b7991ecdfa8e"}, {"name": "937ae245ef26af54dae9eacf1c97cdc0", "lat": 38.898266, "type": "electric_scooter", "is_disabled": 0, "fusion_lon": 0.0, "fusion_lat": 0.0, "lon": -77.0461015, "is_reserved": 0, "rental_uris": {"android": "https://dc.lft.to/lastmile_qr_scan", "ios": "https://dc.lft.to/lastmile_qr_scan"}, "bike_id": "937ae245ef26af54dae9eacf1c97cdc0"}, {"name": "9784abe72db7414acf0a69e622162dd5", "lat": 38.902377333333334, "type": "electric_scooter", "is_disabled": 0, "fusion_lon": 0.0, "fusion_lat": 0.0, "lon": -77.00201433333334, "is_reserved": 0, "rental_uris": {"android": "https://dc.lft.to/lastmile_qr_scan", "ios": "https://dc.lft.to/lastmile_qr_scan"}, "bike_id": "9784abe72db7414acf0a69e622162dd5"}, {"name": "1397e56549fc8a00818608b7fe44ba98", "lat": 38.923615166666664, "type": "electric_scooter", "is_disabled": 0, "fusion_lon": 0.0, "fusion_lat": 0.0, "lon": -77.05037516666667, "is_reserved": 0, "rental_uris": {"android": "https://dc.lft.to/lastmile_qr_scan", "ios": "https://dc.lft.to/lastmile_qr_scan"}, "bike_id": "1397e56549fc8a00818608b7fe44ba98"}, {"name": "4a5ecf639260e74bdb6548ba53ebd7b2", "lat": 38.877401166666665, "type": "electric_bike", "is_disabled": 0, "fusion_lon": 0.0, "fusion_lat": 0.0, "lon": -77.14867583333333, "is_reserved": 0, "rental_uris": {"android": "https://dc.lft.to/lastmile_qr_scan", "ios": "https://dc.lft.to/lastmile_qr_scan"}, "bike_id": "4a5ecf639260e74bdb6548ba53ebd7b2"}, {"name": "7eef7ce9ee0bb8ecf16b79b0679be08c", "lat": 38.89356083333333, "type": "electric_scooter", "is_disabled": 0, "fusion_lon": 0.0, "fusion_lat": 0.0, "lon": -77.00344583333333, "is_reserved": 0, "rental_uris": {"android": "https://dc.lft.to/lastmile_qr_scan", "ios": "https://dc.lft.to/lastmile_qr_scan"}, "bike_id": "7eef7ce9ee0bb8ecf16b79b0679be08c"}, {"name": "b590ad749e1bac177539960aa92ad08b", "lat": 38.918748666666666, "type": "electric_scooter", "is_disabled": 0, "fusion_lon": 0.0, "fusion_lat": 0.0, "lon": -77.04193266666667, "is_reserved": 0, "rental_uris": {"android": "https://dc.lft.to/lastmile_qr_scan", "ios": "https://dc.lft.to/lastmile_qr_scan"}, "bike_id": "b590ad749e1bac177539960aa92ad08b"}, {"name": "4a959743922ad5ffd1308a2f944b2875", "lat": 38.88122083333333, "type": "electric_scooter", "is_disabled": 0, "fusion_lon": 0.0, "fusion_lat": 0.0, "lon": -76.99344583333334, "is_reserved": 0, "rental_uris": {"android": "https://dc.lft.to/lastmile_qr_scan", "ios": "https://dc.lft.to/lastmile_qr_scan"}, "bike_id": "4a959743922ad5ffd1308a2f944b2875"}, {"name": "919f15a6224389a952f5d1cbeb194ec3", "lat": 38.9361835, "type": "electric_scooter", "is_disabled": 0, "fusion_lon": 0.0, "fusion_lat": 0.0, "lon": -77.03280633333334, "is_reserved": 0, "rental_uris": {"android": "https://dc.lft.to/lastmile_qr_scan", "ios": "https://dc.lft.to/lastmile_qr_scan"}, "bike_id": "919f15a6224389a952f5d1cbeb194ec3"}, {"name": "48b0c8a4364744c632faef09ae9bf2e4", "lat": 38.8972235, "type": "electric_scooter", "is_disabled": 0, "fusion_lon": 0.0, "fusion_lat": 0.0, "lon": -76.98357616666667, "is_reserved": 0, "rental_uris": {"android": "https://dc.lft.to/lastmile_qr_scan", "ios": "https://dc.lft.to/lastmile_qr_scan"}, "bike_id": "48b0c8a4364744c632faef09ae9bf2e4"}, {"name": "322d198e4e43f773a52d7a9c9e649dc7", "lat": 38.92238483333333, "type": "electric_scooter", "is_disabled": 0, "fusion_lon": 0.0, "fusion_lat": 0.0, "lon": -77.03363316666666, "is_reserved": 0, "rental_uris": {"android": "https://dc.lft.to/lastmile_qr_scan", "ios": "https://dc.lft.to/lastmile_qr_scan"}, "bike_id": "322d198e4e43f773a52d7a9c9e649dc7"}, {"name": "1a4c00fc23c56c64e1e5db4b8ebbe854", "lat": 38.88735116666667, "type": "electric_scooter", "is_disabled": 0, "fusion_lon": 0.0, "fusion_lat": 0.0, "lon": -77.01623633333334, "is_reserved": 0, "rental_uris": {"android": "https://dc.lft.to/lastmile_qr_scan", "ios": "https://dc.lft.to/lastmile_qr_scan"}, "bike_id": "1a4c00fc23c56c64e1e5db4b8ebbe854"}, {"name": "7d77d671c7c2008d44ac8a4481ec3afa", "lat": 38.87628633333333, "type": "electric_scooter", "is_disabled": 0, "fusion_lon": 0.0, "fusion_lat": 0.0, "lon": -77.00954066666667, "is_reserved": 0, "rental_uris": {"android": "https://dc.lft.to/lastmile_qr_scan", "ios": "https://dc.lft.to/lastmile_qr_scan"}, "bike_id": "7d77d671c7c2008d44ac8a4481ec3afa"}, {"name": "eaec87522fd87a6561fab1242d203e51", "lat": 38.9235835, "type": "electric_scooter", "is_disabled": 0, "fusion_lon": 0.0, "fusion_lat": 0.0, "lon": -77.03406116666666, "is_reserved": 0, "rental_uris": {"android": "https://dc.lft.to/lastmile_qr_scan", "ios": "https://dc.lft.to/lastmile_qr_scan"}, "bike_id": "eaec87522fd87a6561fab1242d203e51"}, {"name": "248b0aee62490db1f2fb442dbe1b9c51", "lat": 38.90147316666667, "type": "electric_scooter", "is_disabled": 0, "fusion_lon": 0.0, "fusion_lat": 0.0, "lon": -77.05927866666667, "is_reserved": 0, "rental_uris": {"android": "https://dc.lft.to/lastmile_qr_scan", "ios": "https://dc.lft.to/lastmile_qr_scan"}, "bike_id": "248b0aee62490db1f2fb442dbe1b9c51"}, {"name": "041c1e08da4d0b4e384148b3292aaa23", "lat": 38.91, "type": "electric_scooter", "is_disabled": 0, "fusion_lon": 0.0, "fusion_lat": 0.0, "lon": -77.04006033333333, "is_reserved": 0, "rental_uris": {"android": "https://dc.lft.to/lastmile_qr_scan", "ios": "https://dc.lft.to/lastmile_qr_scan"}, "bike_id": "041c1e08da4d0b4e384148b3292aaa23"}, {"name": "5405665b221b1d68bc5cdc9ec03af23f", "lat": 38.91486966666667, "type": "electric_scooter", "is_disabled": 0, "fusion_lon": 0.0, "fusion_lat": 0.0, "lon": -77.0456235, "is_reserved": 0, "rental_uris": {"android": "https://dc.lft.to/lastmile_qr_scan", "ios": "https://dc.lft.to/lastmile_qr_scan"}, "bike_id": "5405665b221b1d68bc5cdc9ec03af23f"}, {"name": "1a981dfe090d13dd0ea4f37c0945fde7", "lat": 38.89546833333333, "type": "electric_scooter", "is_disabled": 0, "fusion_lon": 0.0, "fusion_lat": 0.0, "lon": -77.00910816666666, "is_reserved": 0, "rental_uris": {"android": "https://dc.lft.to/lastmile_qr_scan", "ios": "https://dc.lft.to/lastmile_qr_scan"}, "bike_id": "1a981dfe090d13dd0ea4f37c0945fde7"}, {"name": "83954195c0577c2d41c531cd369b5c79", "lat": 38.90694516666667, "type": "electric_bike", "is_disabled": 0, "fusion_lon": 0.0, "fusion_lat": 0.0, "lon": -76.95250266666666, "is_reserved": 0, "rental_uris": {"android": "https://dc.lft.to/lastmile_qr_scan", "ios": "https://dc.lft.to/lastmile_qr_scan"}, "bike_id": "83954195c0577c2d41c531cd369b5c79"}, {"name": "ae3e7e4e591ad27ee1ab03ee5b000fba", "lat": 38.90056833333333, "type": "electric_scooter", "is_disabled": 0, "fusion_lon": 0.0, "fusion_lat": 0.0, "lon": -77.0298865, "is_reserved": 0, "rental_uris": {"android": "https://dc.lft.to/lastmile_qr_scan", "ios": "https://dc.lft.to/lastmile_qr_scan"}, "bike_id": "ae3e7e4e591ad27ee1ab03ee5b000fba"}, {"name": "50d5ac89ad83355295ecc40aa0cf7dff", "lat": 38.92659366666667, "type": "electric_scooter", "is_disabled": 0, "fusion_lon": 0.0, "fusion_lat": 0.0, "lon": -76.99547033333333, "is_reserved": 0, "rental_uris": {"android": "https://dc.lft.to/lastmile_qr_scan", "ios": "https://dc.lft.to/lastmile_qr_scan"}, "bike_id": "50d5ac89ad83355295ecc40aa0cf7dff"}, {"name": "9df410d4d31ec9e0bba236d13086c52c", "lat": 38.91183183333333, "type": "electric_scooter", "is_disabled": 0, "fusion_lon": 0.0, "fusion_lat": 0.0, "lon": -77.00732, "is_reserved": 0, "rental_uris": {"android": "https://dc.lft.to/lastmile_qr_scan", "ios": "https://dc.lft.to/lastmile_qr_scan"}, "bike_id": "9df410d4d31ec9e0bba236d13086c52c"}, {"name": "0c71958e307be709ef07b22d9fde1c6b", "lat": 38.92652483333333, "type": "electric_scooter", "is_disabled": 0, "fusion_lon": 0.0, "fusion_lat": 0.0, "lon": -77.02416716666667, "is_reserved": 0, "rental_uris": {"android": "https://dc.lft.to/lastmile_qr_scan", "ios": "https://dc.lft.to/lastmile_qr_scan"}, "bike_id": "0c71958e307be709ef07b22d9fde1c6b"}, {"name": "eb3739997476eb99fbeb89641a9939a8", "lat": 38.86549083333333, "type": "electric_bike", "is_disabled": 0, "fusion_lon": 0.0, "fusion_lat": 0.0, "lon": -76.97351783333333, "is_reserved": 0, "rental_uris": {"android": "https://dc.lft.to/lastmile_qr_scan", "ios": "https://dc.lft.to/lastmile_qr_scan"}, "bike_id": "eb3739997476eb99fbeb89641a9939a8"}, {"name": "e2070efd3134790c7c65bae5e8d201f5", "lat": 38.923157, "type": "electric_scooter", "is_disabled": 0, "fusion_lon": 0.0, "fusion_lat": 0.0, "lon": -77.02904, "is_reserved": 0, "rental_uris": {"android": "https://dc.lft.to/lastmile_qr_scan", "ios": "https://dc.lft.to/lastmile_qr_scan"}, "bike_id": "e2070efd3134790c7c65bae5e8d201f5"}, {"name": "25e0aae66cde0907595d3025334630c0", "lat": 38.921601333333335, "type": "electric_scooter", "is_disabled": 0, "fusion_lon": 0.0, "fusion_lat": 0.0, "lon": -77.04696833333334, "is_reserved": 0, "rental_uris": {"android": "https://dc.lft.to/lastmile_qr_scan", "ios": "https://dc.lft.to/lastmile_qr_scan"}, "bike_id": "25e0aae66cde0907595d3025334630c0"}, {"name": "6064af35367777f3c7e72af13743973f", "lat": 38.9358515, "type": "electric_scooter", "is_disabled": 0, "fusion_lon": 0.0, "fusion_lat": 0.0, "lon": -77.02446283333333, "is_reserved": 0, "rental_uris": {"android": "https://dc.lft.to/lastmile_qr_scan", "ios": "https://dc.lft.to/lastmile_qr_scan"}, "bike_id": "6064af35367777f3c7e72af13743973f"}, {"name": "b2a3bfc4b689129807736d2693ea1c1e", "lat": 38.9166635, "type": "electric_scooter", "is_disabled": 0, "fusion_lon": 0.0, "fusion_lat": 0.0, "lon": -77.03846333333334, "is_reserved": 0, "rental_uris": {"android": "https://dc.lft.to/lastmile_qr_scan", "ios": "https://dc.lft.to/lastmile_qr_scan"}, "bike_id": "b2a3bfc4b689129807736d2693ea1c1e"}, {"name": "2cd33f6ba491094137d737cc1dcd2edd", "lat": 38.87279633333333, "type": "electric_bike", "is_disabled": 0, "fusion_lon": 0.0, "fusion_lat": 0.0, "lon": -77.23322833333333, "is_reserved": 0, "rental_uris": {"android": "https://dc.lft.to/lastmile_qr_scan", "ios": "https://dc.lft.to/lastmile_qr_scan"}, "bike_id": "2cd33f6ba491094137d737cc1dcd2edd"}, {"name": "d2bc1b03e3fbeb515e512d5de4eaf91f", "lat": 38.887342, "type": "electric_scooter", "is_disabled": 0, "fusion_lon": 0.0, "fusion_lat": 0.0, "lon": -77.01527166666666, "is_reserved": 0, "rental_uris": {"android": "https://dc.lft.to/lastmile_qr_scan", "ios": "https://dc.lft.to/lastmile_qr_scan"}, "bike_id": "d2bc1b03e3fbeb515e512d5de4eaf91f"}, {"name": "39742123d9eda275d048a02edd1d2cbe", "lat": 38.859042333333335, "type": "electric_bike", "is_disabled": 0, "fusion_lon": 0.0, "fusion_lat": 0.0, "lon": -77.09556366666666, "is_reserved": 0, "rental_uris": {"android": "https://dc.lft.to/lastmile_qr_scan", "ios": "https://dc.lft.to/lastmile_qr_scan"}, "bike_id": "39742123d9eda275d048a02edd1d2cbe"}, {"name": "d4b0c3b042c977e2f698f16b4f34d096", "lat": 38.892347666666666, "type": "electric_scooter", "is_disabled": 0, "fusion_lon": 0.0, "fusion_lat": 0.0, "lon": -77.027898, "is_reserved": 0, "rental_uris": {"android": "https://dc.lft.to/lastmile_qr_scan", "ios": "https://dc.lft.to/lastmile_qr_scan"}, "bike_id": "d4b0c3b042c977e2f698f16b4f34d096"}, {"name": "4001a73c2de5f52b0e37d47dffede4ad", "lat": 38.89528416666667, "type": "electric_scooter", "is_disabled": 0, "fusion_lon": 0.0, "fusion_lat": 0.0, "lon": -77.03349716666666, "is_reserved": 0, "rental_uris": {"android": "https://dc.lft.to/lastmile_qr_scan", "ios": "https://dc.lft.to/lastmile_qr_scan"}, "bike_id": "4001a73c2de5f52b0e37d47dffede4ad"}, {"name": "5cf4822ea8218431eef8ba840a5ef24b", "lat": 38.876483, "type": "electric_scooter", "is_disabled": 0, "fusion_lon": 0.0, "fusion_lat": 0.0, "lon": -77.00742433333333, "is_reserved": 0, "rental_uris": {"android": "https://dc.lft.to/lastmile_qr_scan", "ios": "https://dc.lft.to/lastmile_qr_scan"}, "bike_id": "5cf4822ea8218431eef8ba840a5ef24b"}, {"name": "34d053a7aae61f5207af8e1fd6da3cd3", "lat": 38.899929666666665, "type": "electric_scooter", "is_disabled": 0, "fusion_lon": 0.0, "fusion_lat": 0.0, "lon": -77.02239116666667, "is_reserved": 0, "rental_uris": {"android": "https://dc.lft.to/lastmile_qr_scan", "ios": "https://dc.lft.to/lastmile_qr_scan"}, "bike_id": "34d053a7aae61f5207af8e1fd6da3cd3"}, {"name": "891d13266872ac05b24de0c855cba455", "lat": 38.89085083333333, "type": "electric_bike", "is_disabled": 0, "fusion_lon": 0.0, "fusion_lat": 0.0, "lon": -77.18301733333334, "is_reserved": 0, "rental_uris": {"android": "https://dc.lft.to/lastmile_qr_scan", "ios": "https://dc.lft.to/lastmile_qr_scan"}, "bike_id": "891d13266872ac05b24de0c855cba455"}, {"name": "56c9ab0c93c4f71521e4ffd6ab53103e", "lat": 38.91919683333333, "type": "electric_scooter", "is_disabled": 0, "fusion_lon": 0.0, "fusion_lat": 0.0, "lon": -77.0449225, "is_reserved": 0, "rental_uris": {"android": "https://dc.lft.to/lastmile_qr_scan", "ios": "https://dc.lft.to/lastmile_qr_scan"}, "bike_id": "56c9ab0c93c4f71521e4ffd6ab53103e"}, {"name": "ac4f1ec33f68a3d6ab6ea541e833d103", "lat": 38.926015166666666, "type": "electric_scooter", "is_disabled": 0, "fusion_lon": 0.0, "fusion_lat": 0.0, "lon": -77.02152666666667, "is_reserved": 0, "rental_uris": {"android": "https://dc.lft.to/lastmile_qr_scan", "ios": "https://dc.lft.to/lastmile_qr_scan"}, "bike_id": "ac4f1ec33f68a3d6ab6ea541e833d103"}, {"name": "4673849d5211ca7962de50b1da92d206", "lat": 38.90176, "type": "electric_scooter", "is_disabled": 0, "fusion_lon": 0.0, "fusion_lat": 0.0, "lon": -77.04361066666667, "is_reserved": 0, "rental_uris": {"android": "https://dc.lft.to/lastmile_qr_scan", "ios": "https://dc.lft.to/lastmile_qr_scan"}, "bike_id": "4673849d5211ca7962de50b1da92d206"}, {"name": "e2399a15c6377a9dbd308755ed3f24e4", "lat": 38.91105566666667, "type": "electric_scooter", "is_disabled": 0, "fusion_lon": 0.0, "fusion_lat": 0.0, "lon": -77.02423183333333, "is_reserved": 0, "rental_uris": {"android": "https://dc.lft.to/lastmile_qr_scan", "ios": "https://dc.lft.to/lastmile_qr_scan"}, "bike_id": "e2399a15c6377a9dbd308755ed3f24e4"}, {"name": "44eefd7ca3366758c9e26d2c8fe0ed4d", "lat": 38.89223116666667, "type": "electric_scooter", "is_disabled": 0, "fusion_lon": 0.0, "fusion_lat": 0.0, "lon": -77.02179283333334, "is_reserved": 0, "rental_uris": {"android": "https://dc.lft.to/lastmile_qr_scan", "ios": "https://dc.lft.to/lastmile_qr_scan"}, "bike_id": "44eefd7ca3366758c9e26d2c8fe0ed4d"}, {"name": "45e52c5101273afd8aabad3bcbc806a7", "lat": 38.9034765, "type": "electric_scooter", "is_disabled": 0, "fusion_lon": 0.0, "fusion_lat": 0.0, "lon": -76.92941450000001, "is_reserved": 0, "rental_uris": {"android": "https://dc.lft.to/lastmile_qr_scan", "ios": "https://dc.lft.to/lastmile_qr_scan"}, "bike_id": "45e52c5101273afd8aabad3bcbc806a7"}, {"name": "5f0bb9f5ac847583bcdbf83b4be04420", "lat": 38.90867433333333, "type": "electric_scooter", "is_disabled": 0, "fusion_lon": 0.0, "fusion_lat": 0.0, "lon": -77.0716715, "is_reserved": 0, "rental_uris": {"android": "https://dc.lft.to/lastmile_qr_scan", "ios": "https://dc.lft.to/lastmile_qr_scan"}, "bike_id": "5f0bb9f5ac847583bcdbf83b4be04420"}, {"name": "2e1aebaf4a97ff6fa680d32995bc8857", "lat": 38.9192245, "type": "electric_scooter", "is_disabled": 0, "fusion_lon": 0.0, "fusion_lat": 0.0, "lon": -77.03418483333333, "is_reserved": 0, "rental_uris": {"android": "https://dc.lft.to/lastmile_qr_scan", "ios": "https://dc.lft.to/lastmile_qr_scan"}, "bike_id": "2e1aebaf4a97ff6fa680d32995bc8857"}, {"name": "821a9030afab7b6742b7fbedfc7f0e7d", "lat": 38.91770016666667, "type": "electric_scooter", "is_disabled": 0, "fusion_lon": 0.0, "fusion_lat": 0.0, "lon": -77.04769366666666, "is_reserved": 0, "rental_uris": {"android": "https://dc.lft.to/lastmile_qr_scan", "ios": "https://dc.lft.to/lastmile_qr_scan"}, "bike_id": "821a9030afab7b6742b7fbedfc7f0e7d"}, {"name": "4b04c93654feeb968e5db2c83d78833d", "lat": 38.876991333333336, "type": "electric_scooter", "is_disabled": 0, "fusion_lon": 0.0, "fusion_lat": 0.0, "lon": -77.0029875, "is_reserved": 0, "rental_uris": {"android": "https://dc.lft.to/lastmile_qr_scan", "ios": "https://dc.lft.to/lastmile_qr_scan"}, "bike_id": "4b04c93654feeb968e5db2c83d78833d"}, {"name": "185b6bf8449e8694be080228a71479d9", "lat": 38.9013215, "type": "electric_scooter", "is_disabled": 0, "fusion_lon": 0.0, "fusion_lat": 0.0, "lon": -77.017918, "is_reserved": 0, "rental_uris": {"android": "https://dc.lft.to/lastmile_qr_scan", "ios": "https://dc.lft.to/lastmile_qr_scan"}, "bike_id": "185b6bf8449e8694be080228a71479d9"}, {"name": "c35aff3f92f35e8da5aefb71e021a972", "lat": 38.92474583333333, "type": "electric_scooter", "is_disabled": 0, "fusion_lon": 0.0, "fusion_lat": 0.0, "lon": -77.02232933333333, "is_reserved": 0, "rental_uris": {"android": "https://dc.lft.to/lastmile_qr_scan", "ios": "https://dc.lft.to/lastmile_qr_scan"}, "bike_id": "c35aff3f92f35e8da5aefb71e021a972"}, {"name": "34dc265fbcfb5942d57513f07718df36", "lat": 38.90370583333333, "type": "electric_scooter", "is_disabled": 0, "fusion_lon": 0.0, "fusion_lat": 0.0, "lon": -77.04526383333334, "is_reserved": 0, "rental_uris": {"android": "https://dc.lft.to/lastmile_qr_scan", "ios": "https://dc.lft.to/lastmile_qr_scan"}, "bike_id": "34dc265fbcfb5942d57513f07718df36"}, {"name": "d8cbc690226368c130c28bdc57d6a9bf", "lat": 38.90955666666667, "type": "electric_scooter", "is_disabled": 0, "fusion_lon": 0.0, "fusion_lat": 0.0, "lon": -77.0117865, "is_reserved": 0, "rental_uris": {"android": "https://dc.lft.to/lastmile_qr_scan", "ios": "https://dc.lft.to/lastmile_qr_scan"}, "bike_id": "d8cbc690226368c130c28bdc57d6a9bf"}, {"name": "91d7732c03d520a8312804870a1e9943", "lat": 38.89722583333333, "type": "electric_scooter", "is_disabled": 0, "fusion_lon": 0.0, "fusion_lat": 0.0, "lon": -77.03227416666667, "is_reserved": 0, "rental_uris": {"android": "https://dc.lft.to/lastmile_qr_scan", "ios": "https://dc.lft.to/lastmile_qr_scan"}, "bike_id": "91d7732c03d520a8312804870a1e9943"}, {"name": "f995767120e11cf181183a0b9f24512a", "lat": 38.80054916666667, "type": "electric_bike", "is_disabled": 0, "fusion_lon": 0.0, "fusion_lat": 0.0, "lon": -77.12839033333333, "is_reserved": 0, "rental_uris": {"android": "https://dc.lft.to/lastmile_qr_scan", "ios": "https://dc.lft.to/lastmile_qr_scan"}, "bike_id": "f995767120e11cf181183a0b9f24512a"}, {"name": "02b67ce8a8135624b9eebc0ae998e33a", "lat": 38.92495683333333, "type": "electric_scooter", "is_disabled": 0, "fusion_lon": 0.0, "fusion_lat": 0.0, "lon": -77.03924233333333, "is_reserved": 0, "rental_uris": {"android": "https://dc.lft.to/lastmile_qr_scan", "ios": "https://dc.lft.to/lastmile_qr_scan"}, "bike_id": "02b67ce8a8135624b9eebc0ae998e33a"}, {"name": "f117dfdc9fd3816614ec2414e635d4c7", "lat": 38.9524745, "type": "electric_scooter", "is_disabled": 0, "fusion_lon": 0.0, "fusion_lat": 0.0, "lon": -77.00789383333333, "is_reserved": 0, "rental_uris": {"android": "https://dc.lft.to/lastmile_qr_scan", "ios": "https://dc.lft.to/lastmile_qr_scan"}, "bike_id": "f117dfdc9fd3816614ec2414e635d4c7"}, {"name": "291dc3ac46d9e711c030000128133a07", "lat": 38.906435333333334, "type": "electric_scooter", "is_disabled": 0, "fusion_lon": 0.0, "fusion_lat": 0.0, "lon": -77.01135933333333, "is_reserved": 0, "rental_uris": {"android": "https://dc.lft.to/lastmile_qr_scan", "ios": "https://dc.lft.to/lastmile_qr_scan"}, "bike_id": "291dc3ac46d9e711c030000128133a07"}, {"name": "816ca8f00d688ff2a6c4834d4edcf98b", "lat": 38.90410383333333, "type": "electric_scooter", "is_disabled": 0, "fusion_lon": 0.0, "fusion_lat": 0.0, "lon": -77.062867, "is_reserved": 0, "rental_uris": {"android": "https://dc.lft.to/lastmile_qr_scan", "ios": "https://dc.lft.to/lastmile_qr_scan"}, "bike_id": "816ca8f00d688ff2a6c4834d4edcf98b"}, {"name": "45fc59a221baea75d8fe38219114ba49", "lat": 38.9082345, "type": "electric_scooter", "is_disabled": 0, "fusion_lon": 0.0, "fusion_lat": 0.0, "lon": -76.994584, "is_reserved": 0, "rental_uris": {"android": "https://dc.lft.to/lastmile_qr_scan", "ios": "https://dc.lft.to/lastmile_qr_scan"}, "bike_id": "45fc59a221baea75d8fe38219114ba49"}, {"name": "34be2d1e613b2c61103c61da86e774ea", "lat": 38.88749383333333, "type": "electric_scooter", "is_disabled": 0, "fusion_lon": 0.0, "fusion_lat": 0.0, "lon": -77.03146416666667, "is_reserved": 0, "rental_uris": {"android": "https://dc.lft.to/lastmile_qr_scan", "ios": "https://dc.lft.to/lastmile_qr_scan"}, "bike_id": "34be2d1e613b2c61103c61da86e774ea"}, {"name": "66ab76e9947479781fd4fb5811dc2fe9", "lat": 38.84419466666667, "type": "electric_scooter", "is_disabled": 0, "fusion_lon": 0.0, "fusion_lat": 0.0, "lon": -76.98854866666667, "is_reserved": 0, "rental_uris": {"android": "https://dc.lft.to/lastmile_qr_scan", "ios": "https://dc.lft.to/lastmile_qr_scan"}, "bike_id": "66ab76e9947479781fd4fb5811dc2fe9"}, {"name": "3974034980bdf34c1d620c0b052c4cdf", "lat": 38.9244365, "type": "electric_scooter", "is_disabled": 0, "fusion_lon": 0.0, "fusion_lat": 0.0, "lon": -77.033171, "is_reserved": 0, "rental_uris": {"android": "https://dc.lft.to/lastmile_qr_scan", "ios": "https://dc.lft.to/lastmile_qr_scan"}, "bike_id": "3974034980bdf34c1d620c0b052c4cdf"}, {"name": "d6f56e541b62e69abf96213f87c76ebf", "lat": 38.9039935, "type": "electric_scooter", "is_disabled": 0, "fusion_lon": 0.0, "fusion_lat": 0.0, "lon": -77.06819266666666, "is_reserved": 0, "rental_uris": {"android": "https://dc.lft.to/lastmile_qr_scan", "ios": "https://dc.lft.to/lastmile_qr_scan"}, "bike_id": "d6f56e541b62e69abf96213f87c76ebf"}, {"name": "e5e048105edbb39626db8d37682b6982", "lat": 38.9164785, "type": "electric_scooter", "is_disabled": 0, "fusion_lon": 0.0, "fusion_lat": 0.0, "lon": -77.02892, "is_reserved": 0, "rental_uris": {"android": "https://dc.lft.to/lastmile_qr_scan", "ios": "https://dc.lft.to/lastmile_qr_scan"}, "bike_id": "e5e048105edbb39626db8d37682b6982"}, {"name": "7dff1248a70f41c32f9c02c2490b1d2e", "lat": 38.910171166666665, "type": "electric_scooter", "is_disabled": 0, "fusion_lon": 0.0, "fusion_lat": 0.0, "lon": -77.0385705, "is_reserved": 0, "rental_uris": {"android": "https://dc.lft.to/lastmile_qr_scan", "ios": "https://dc.lft.to/lastmile_qr_scan"}, "bike_id": "7dff1248a70f41c32f9c02c2490b1d2e"}, {"name": "2c21d11371d103bc9a9ab7e54ec3deaa", "lat": 38.90623983333333, "type": "electric_scooter", "is_disabled": 0, "fusion_lon": 0.0, "fusion_lat": 0.0, "lon": -77.03707083333333, "is_reserved": 0, "rental_uris": {"android": "https://dc.lft.to/lastmile_qr_scan", "ios": "https://dc.lft.to/lastmile_qr_scan"}, "bike_id": "2c21d11371d103bc9a9ab7e54ec3deaa"}, {"name": "796920eb54b81c4d10a22642895da6c5", "lat": 38.924709666666665, "type": "electric_scooter", "is_disabled": 0, "fusion_lon": 0.0, "fusion_lat": 0.0, "lon": -77.02986716666666, "is_reserved": 0, "rental_uris": {"android": "https://dc.lft.to/lastmile_qr_scan", "ios": "https://dc.lft.to/lastmile_qr_scan"}, "bike_id": "796920eb54b81c4d10a22642895da6c5"}, {"name": "9028bbef9a262a1984c1752e8a64e6c7", "lat": 38.88585166666667, "type": "electric_scooter", "is_disabled": 0, "fusion_lon": 0.0, "fusion_lat": 0.0, "lon": -77.01991766666667, "is_reserved": 0, "rental_uris": {"android": "https://dc.lft.to/lastmile_qr_scan", "ios": "https://dc.lft.to/lastmile_qr_scan"}, "bike_id": "9028bbef9a262a1984c1752e8a64e6c7"}, {"name": "9e2273d2cc65ce80b1bc90cd2ac98d88", "lat": 38.9393285, "type": "electric_scooter", "is_disabled": 0, "fusion_lon": 0.0, "fusion_lat": 0.0, "lon": -77.0257705, "is_reserved": 0, "rental_uris": {"android": "https://dc.lft.to/lastmile_qr_scan", "ios": "https://dc.lft.to/lastmile_qr_scan"}, "bike_id": "9e2273d2cc65ce80b1bc90cd2ac98d88"}, {"name": "9676526cdf94770ef16d68407d76f49e", "lat": 38.9004135, "type": "electric_scooter", "is_disabled": 0, "fusion_lon": 0.0, "fusion_lat": 0.0, "lon": -76.98835283333334, "is_reserved": 0, "rental_uris": {"android": "https://dc.lft.to/lastmile_qr_scan", "ios": "https://dc.lft.to/lastmile_qr_scan"}, "bike_id": "9676526cdf94770ef16d68407d76f49e"}, {"name": "c4c975b5ef31bc750c8a8269c84d109c", "lat": 38.89026916666667, "type": "electric_scooter", "is_disabled": 0, "fusion_lon": 0.0, "fusion_lat": 0.0, "lon": -76.94462316666667, "is_reserved": 0, "rental_uris": {"android": "https://dc.lft.to/lastmile_qr_scan", "ios": "https://dc.lft.to/lastmile_qr_scan"}, "bike_id": "c4c975b5ef31bc750c8a8269c84d109c"}, {"name": "1bd20f1d3948518758fe5d74365ffa05", "lat": 38.922189833333334, "type": "electric_scooter", "is_disabled": 0, "fusion_lon": 0.0, "fusion_lat": 0.0, "lon": -77.0181785, "is_reserved": 0, "rental_uris": {"android": "https://dc.lft.to/lastmile_qr_scan", "ios": "https://dc.lft.to/lastmile_qr_scan"}, "bike_id": "1bd20f1d3948518758fe5d74365ffa05"}, {"name": "85103786e49f8b7431482bc0d9f0448c", "lat": 38.9168685, "type": "electric_scooter", "is_disabled": 0, "fusion_lon": 0.0, "fusion_lat": 0.0, "lon": -77.03776833333333, "is_reserved": 0, "rental_uris": {"android": "https://dc.lft.to/lastmile_qr_scan", "ios": "https://dc.lft.to/lastmile_qr_scan"}, "bike_id": "85103786e49f8b7431482bc0d9f0448c"}, {"name": "b8bee2aded283433cde30c819e5a840f", "lat": 38.91279216666667, "type": "electric_scooter", "is_disabled": 0, "fusion_lon": 0.0, "fusion_lat": 0.0, "lon": -77.0787365, "is_reserved": 0, "rental_uris": {"android": "https://dc.lft.to/lastmile_qr_scan", "ios": "https://dc.lft.to/lastmile_qr_scan"}, "bike_id": "b8bee2aded283433cde30c819e5a840f"}, {"name": "ec50fbeae0368488a391ace42d1fb649", "lat": 38.88680733333333, "type": "electric_scooter", "is_disabled": 0, "fusion_lon": 0.0, "fusion_lat": 0.0, "lon": -77.00196383333333, "is_reserved": 0, "rental_uris": {"android": "https://dc.lft.to/lastmile_qr_scan", "ios": "https://dc.lft.to/lastmile_qr_scan"}, "bike_id": "ec50fbeae0368488a391ace42d1fb649"}, {"name": "fa355d26eb9952f81c129e053d50a093", "lat": 38.89658166666667, "type": "electric_scooter", "is_disabled": 0, "fusion_lon": 0.0, "fusion_lat": 0.0, "lon": -77.02403916666667, "is_reserved": 0, "rental_uris": {"android": "https://dc.lft.to/lastmile_qr_scan", "ios": "https://dc.lft.to/lastmile_qr_scan"}, "bike_id": "fa355d26eb9952f81c129e053d50a093"}, {"name": "b6fbe37e2282f9aefc9e39e817b96116", "lat": 38.9002165, "type": "electric_scooter", "is_disabled": 0, "fusion_lon": 0.0, "fusion_lat": 0.0, "lon": -76.99856816666667, "is_reserved": 0, "rental_uris": {"android": "https://dc.lft.to/lastmile_qr_scan", "ios": "https://dc.lft.to/lastmile_qr_scan"}, "bike_id": "b6fbe37e2282f9aefc9e39e817b96116"}, {"name": "873bb165039cbbdd11561aec4bad2904", "lat": 38.9179425, "type": "electric_scooter", "is_disabled": 0, "fusion_lon": 0.0, "fusion_lat": 0.0, "lon": -77.02110116666667, "is_reserved": 0, "rental_uris": {"android": "https://dc.lft.to/lastmile_qr_scan", "ios": "https://dc.lft.to/lastmile_qr_scan"}, "bike_id": "873bb165039cbbdd11561aec4bad2904"}, {"name": "308615e40cf1418c113942df86ab0f0c", "lat": 38.9002575, "type": "electric_scooter", "is_disabled": 0, "fusion_lon": 0.0, "fusion_lat": 0.0, "lon": -76.99865566666666, "is_reserved": 0, "rental_uris": {"android": "https://dc.lft.to/lastmile_qr_scan", "ios": "https://dc.lft.to/lastmile_qr_scan"}, "bike_id": "308615e40cf1418c113942df86ab0f0c"}, {"name": "868a6ffeda8f71497a1dfb7c47e40f40", "lat": 38.90210783333333, "type": "electric_scooter", "is_disabled": 0, "fusion_lon": 0.0, "fusion_lat": 0.0, "lon": -77.0479955, "is_reserved": 0, "rental_uris": {"android": "https://dc.lft.to/lastmile_qr_scan", "ios": "https://dc.lft.to/lastmile_qr_scan"}, "bike_id": "868a6ffeda8f71497a1dfb7c47e40f40"}, {"name": "b9266ec512d1cd6f50df1cfa03a71698", "lat": 38.88962933333333, "type": "electric_scooter", "is_disabled": 0, "fusion_lon": 0.0, "fusion_lat": 0.0, "lon": -76.98031516666667, "is_reserved": 0, "rental_uris": {"android": "https://dc.lft.to/lastmile_qr_scan", "ios": "https://dc.lft.to/lastmile_qr_scan"}, "bike_id": "b9266ec512d1cd6f50df1cfa03a71698"}, {"name": "6646acb6d78e7e1b54c7adbe043c31b4", "lat": 38.914424, "type": "electric_scooter", "is_disabled": 0, "fusion_lon": 0.0, "fusion_lat": 0.0, "lon": -77.02280383333333, "is_reserved": 0, "rental_uris": {"android": "https://dc.lft.to/lastmile_qr_scan", "ios": "https://dc.lft.to/lastmile_qr_scan"}, "bike_id": "6646acb6d78e7e1b54c7adbe043c31b4"}, {"name": "e4fd5fcfd8f887d6ba0d027aee723c7b", "lat": 38.93202816666667, "type": "electric_scooter", "is_disabled": 0, "fusion_lon": 0.0, "fusion_lat": 0.0, "lon": -77.0412465, "is_reserved": 0, "rental_uris": {"android": "https://dc.lft.to/lastmile_qr_scan", "ios": "https://dc.lft.to/lastmile_qr_scan"}, "bike_id": "e4fd5fcfd8f887d6ba0d027aee723c7b"}, {"name": "35d7ed787e5b9471a9bfaca248394ccb", "lat": 38.894354166666666, "type": "electric_scooter", "is_disabled": 0, "fusion_lon": 0.0, "fusion_lat": 0.0, "lon": -77.0238835, "is_reserved": 0, "rental_uris": {"android": "https://dc.lft.to/lastmile_qr_scan", "ios": "https://dc.lft.to/lastmile_qr_scan"}, "bike_id": "35d7ed787e5b9471a9bfaca248394ccb"}, {"name": "b516f3edc20472599cbc48c62eadf123", "lat": 38.9213165, "type": "electric_scooter", "is_disabled": 0, "fusion_lon": 0.0, "fusion_lat": 0.0, "lon": -77.04234666666666, "is_reserved": 0, "rental_uris": {"android": "https://dc.lft.to/lastmile_qr_scan", "ios": "https://dc.lft.to/lastmile_qr_scan"}, "bike_id": "b516f3edc20472599cbc48c62eadf123"}, {"name": "223bd18249f54d2e7b350bd72c646173", "lat": 38.91690666666667, "type": "electric_scooter", "is_disabled": 0, "fusion_lon": 0.0, "fusion_lat": 0.0, "lon": -77.02870716666666, "is_reserved": 0, "rental_uris": {"android": "https://dc.lft.to/lastmile_qr_scan", "ios": "https://dc.lft.to/lastmile_qr_scan"}, "bike_id": "223bd18249f54d2e7b350bd72c646173"}, {"name": "1375b3022707c131922fa9664bdd6799", "lat": 38.9086855, "type": "electric_scooter", "is_disabled": 0, "fusion_lon": 0.0, "fusion_lat": 0.0, "lon": -77.06989683333333, "is_reserved": 0, "rental_uris": {"android": "https://dc.lft.to/lastmile_qr_scan", "ios": "https://dc.lft.to/lastmile_qr_scan"}, "bike_id": "1375b3022707c131922fa9664bdd6799"}, {"name": "b175acf39e681b76968a072dc0f1618f", "lat": 38.89786483333334, "type": "electric_scooter", "is_disabled": 0, "fusion_lon": 0.0, "fusion_lat": 0.0, "lon": -77.00762983333334, "is_reserved": 0, "rental_uris": {"android": "https://dc.lft.to/lastmile_qr_scan", "ios": "https://dc.lft.to/lastmile_qr_scan"}, "bike_id": "b175acf39e681b76968a072dc0f1618f"}, {"name": "fd98ec41b29129c0445ee2c1a8cbb31e", "lat": 38.896035, "type": "electric_scooter", "is_disabled": 0, "fusion_lon": 0.0, "fusion_lat": 0.0, "lon": -77.04686866666667, "is_reserved": 0, "rental_uris": {"android": "https://dc.lft.to/lastmile_qr_scan", "ios": "https://dc.lft.to/lastmile_qr_scan"}, "bike_id": "fd98ec41b29129c0445ee2c1a8cbb31e"}, {"name": "378f081205450f77b473d139d22c8ee3", "lat": 38.908347166666665, "type": "electric_scooter", "is_disabled": 0, "fusion_lon": 0.0, "fusion_lat": 0.0, "lon": -77.03201016666667, "is_reserved": 0, "rental_uris": {"android": "https://dc.lft.to/lastmile_qr_scan", "ios": "https://dc.lft.to/lastmile_qr_scan"}, "bike_id": "378f081205450f77b473d139d22c8ee3"}, {"name": "1f4baa6cfcbf772c9982d5caa634e20d", "lat": 38.897302333333336, "type": "electric_scooter", "is_disabled": 0, "fusion_lon": 0.0, "fusion_lat": 0.0, "lon": -77.02403783333334, "is_reserved": 0, "rental_uris": {"android": "https://dc.lft.to/lastmile_qr_scan", "ios": "https://dc.lft.to/lastmile_qr_scan"}, "bike_id": "1f4baa6cfcbf772c9982d5caa634e20d"}, {"name": "018cc7d3edce99cc90acb6334922c5f1", "lat": 38.9217825, "type": "electric_scooter", "is_disabled": 0, "fusion_lon": 0.0, "fusion_lat": 0.0, "lon": -77.03530533333333, "is_reserved": 0, "rental_uris": {"android": "https://dc.lft.to/lastmile_qr_scan", "ios": "https://dc.lft.to/lastmile_qr_scan"}, "bike_id": "018cc7d3edce99cc90acb6334922c5f1"}, {"name": "00de80176ba50171926b170396d38a51", "lat": 38.9233905, "type": "electric_scooter", "is_disabled": 0, "fusion_lon": 0.0, "fusion_lat": 0.0, "lon": -77.0091645, "is_reserved": 0, "rental_uris": {"android": "https://dc.lft.to/lastmile_qr_scan", "ios": "https://dc.lft.to/lastmile_qr_scan"}, "bike_id": "00de80176ba50171926b170396d38a51"}, {"name": "5ad8ff30284269b6266d83ccf656c9ea", "lat": 38.91932883333333, "type": "electric_scooter", "is_disabled": 0, "fusion_lon": 0.0, "fusion_lat": 0.0, "lon": -77.04497733333334, "is_reserved": 0, "rental_uris": {"android": "https://dc.lft.to/lastmile_qr_scan", "ios": "https://dc.lft.to/lastmile_qr_scan"}, "bike_id": "5ad8ff30284269b6266d83ccf656c9ea"}, {"name": "babba7e2e68254284ed7e1d727866926", "lat": 38.914143, "type": "electric_scooter", "is_disabled": 0, "fusion_lon": 0.0, "fusion_lat": 0.0, "lon": -77.013335, "is_reserved": 0, "rental_uris": {"android": "https://dc.lft.to/lastmile_qr_scan", "ios": "https://dc.lft.to/lastmile_qr_scan"}, "bike_id": "babba7e2e68254284ed7e1d727866926"}, {"name": "d10dcd6f07240634eb3a45f240cd6173", "lat": 38.89498283333333, "type": "electric_scooter", "is_disabled": 0, "fusion_lon": 0.0, "fusion_lat": 0.0, "lon": -76.9487015, "is_reserved": 0, "rental_uris": {"android": "https://dc.lft.to/lastmile_qr_scan", "ios": "https://dc.lft.to/lastmile_qr_scan"}, "bike_id": "d10dcd6f07240634eb3a45f240cd6173"}, {"name": "1eeb62734d581124e9ad5fa83de0497f", "lat": 38.91117916666666, "type": "electric_scooter", "is_disabled": 0, "fusion_lon": 0.0, "fusion_lat": 0.0, "lon": -77.03249533333333, "is_reserved": 0, "rental_uris": {"android": "https://dc.lft.to/lastmile_qr_scan", "ios": "https://dc.lft.to/lastmile_qr_scan"}, "bike_id": "1eeb62734d581124e9ad5fa83de0497f"}, {"name": "2086400e0b9d1c3595a251f396c83dad", "lat": 38.90305583333333, "type": "electric_scooter", "is_disabled": 0, "fusion_lon": 0.0, "fusion_lat": 0.0, "lon": -77.03661383333333, "is_reserved": 0, "rental_uris": {"android": "https://dc.lft.to/lastmile_qr_scan", "ios": "https://dc.lft.to/lastmile_qr_scan"}, "bike_id": "2086400e0b9d1c3595a251f396c83dad"}, {"name": "ad96316fc877dcc45f500911b41bdd3d", "lat": 38.90037133333333, "type": "electric_scooter", "is_disabled": 0, "fusion_lon": 0.0, "fusion_lat": 0.0, "lon": -77.04886683333334, "is_reserved": 0, "rental_uris": {"android": "https://dc.lft.to/lastmile_qr_scan", "ios": "https://dc.lft.to/lastmile_qr_scan"}, "bike_id": "ad96316fc877dcc45f500911b41bdd3d"}, {"name": "a02a764eb1208a1931af43aab6244d11", "lat": 38.92837516666667, "type": "electric_scooter", "is_disabled": 0, "fusion_lon": 0.0, "fusion_lat": 0.0, "lon": -77.01408966666666, "is_reserved": 0, "rental_uris": {"android": "https://dc.lft.to/lastmile_qr_scan", "ios": "https://dc.lft.to/lastmile_qr_scan"}, "bike_id": "a02a764eb1208a1931af43aab6244d11"}, {"name": "567af5d02de4cac904d5750b62c39412", "lat": 38.92474883333333, "type": "electric_scooter", "is_disabled": 0, "fusion_lon": 0.0, "fusion_lat": 0.0, "lon": -77.0213445, "is_reserved": 0, "rental_uris": {"android": "https://dc.lft.to/lastmile_qr_scan", "ios": "https://dc.lft.to/lastmile_qr_scan"}, "bike_id": "567af5d02de4cac904d5750b62c39412"}, {"name": "ef5a41841d9ba4ef6b153a2ab01c09bd", "lat": 38.871713666666665, "type": "electric_scooter", "is_disabled": 0, "fusion_lon": 0.0, "fusion_lat": 0.0, "lon": -77.00623866666666, "is_reserved": 0, "rental_uris": {"android": "https://dc.lft.to/lastmile_qr_scan", "ios": "https://dc.lft.to/lastmile_qr_scan"}, "bike_id": "ef5a41841d9ba4ef6b153a2ab01c09bd"}, {"name": "47f2e4306edf5f6718213559530e2635", "lat": 38.88436183333334, "type": "electric_scooter", "is_disabled": 0, "fusion_lon": 0.0, "fusion_lat": 0.0, "lon": -77.00140383333333, "is_reserved": 0, "rental_uris": {"android": "https://dc.lft.to/lastmile_qr_scan", "ios": "https://dc.lft.to/lastmile_qr_scan"}, "bike_id": "47f2e4306edf5f6718213559530e2635"}, {"name": "c8d3f5159fded6122ab1ea08b77d025e", "lat": 38.909935833333336, "type": "electric_scooter", "is_disabled": 0, "fusion_lon": 0.0, "fusion_lat": 0.0, "lon": -77.040087, "is_reserved": 0, "rental_uris": {"android": "https://dc.lft.to/lastmile_qr_scan", "ios": "https://dc.lft.to/lastmile_qr_scan"}, "bike_id": "c8d3f5159fded6122ab1ea08b77d025e"}, {"name": "1d616c6dd07050321d87082f5edb495a", "lat": 38.905173833333336, "type": "electric_scooter", "is_disabled": 0, "fusion_lon": 0.0, "fusion_lat": 0.0, "lon": -77.0434585, "is_reserved": 0, "rental_uris": {"android": "https://dc.lft.to/lastmile_qr_scan", "ios": "https://dc.lft.to/lastmile_qr_scan"}, "bike_id": "1d616c6dd07050321d87082f5edb495a"}, {"name": "3ab94e2b57436f5c6679d0b4297792b5", "lat": 38.8864755, "type": "electric_scooter", "is_disabled": 0, "fusion_lon": 0.0, "fusion_lat": 0.0, "lon": -77.00091083333334, "is_reserved": 0, "rental_uris": {"android": "https://dc.lft.to/lastmile_qr_scan", "ios": "https://dc.lft.to/lastmile_qr_scan"}, "bike_id": "3ab94e2b57436f5c6679d0b4297792b5"}, {"name": "2469cebce7a0d33c812fbfde45376e25", "lat": 38.88124716666667, "type": "electric_scooter", "is_disabled": 0, "fusion_lon": 0.0, "fusion_lat": 0.0, "lon": -77.0166065, "is_reserved": 0, "rental_uris": {"android": "https://dc.lft.to/lastmile_qr_scan", "ios": "https://dc.lft.to/lastmile_qr_scan"}, "bike_id": "2469cebce7a0d33c812fbfde45376e25"}, {"name": "78d6e783fedab68b61cd2e5e8fd7e77e", "lat": 38.879674333333334, "type": "electric_scooter", "is_disabled": 0, "fusion_lon": 0.0, "fusion_lat": 0.0, "lon": -76.98743133333333, "is_reserved": 0, "rental_uris": {"android": "https://dc.lft.to/lastmile_qr_scan", "ios": "https://dc.lft.to/lastmile_qr_scan"}, "bike_id": "78d6e783fedab68b61cd2e5e8fd7e77e"}, {"name": "b92e6a80e6f9833da091597d0797fd24", "lat": 38.89196233333333, "type": "electric_scooter", "is_disabled": 0, "fusion_lon": 0.0, "fusion_lat": 0.0, "lon": -76.98839733333334, "is_reserved": 0, "rental_uris": {"android": "https://dc.lft.to/lastmile_qr_scan", "ios": "https://dc.lft.to/lastmile_qr_scan"}, "bike_id": "b92e6a80e6f9833da091597d0797fd24"}, {"name": "e2ea424629fbfed4ad3fd5060627b3ef", "lat": 38.93826516666667, "type": "electric_scooter", "is_disabled": 0, "fusion_lon": 0.0, "fusion_lat": 0.0, "lon": -76.9861695, "is_reserved": 0, "rental_uris": {"android": "https://dc.lft.to/lastmile_qr_scan", "ios": "https://dc.lft.to/lastmile_qr_scan"}, "bike_id": "e2ea424629fbfed4ad3fd5060627b3ef"}, {"name": "973e640a5765e1cbf645e4d46d92ce65", "lat": 38.923181, "type": "electric_scooter", "is_disabled": 0, "fusion_lon": 0.0, "fusion_lat": 0.0, "lon": -77.02793233333334, "is_reserved": 0, "rental_uris": {"android": "https://dc.lft.to/lastmile_qr_scan", "ios": "https://dc.lft.to/lastmile_qr_scan"}, "bike_id": "973e640a5765e1cbf645e4d46d92ce65"}, {"name": "0201ed27daf1ad975f845ac4acdca144", "lat": 38.87894033333333, "type": "electric_scooter", "is_disabled": 0, "fusion_lon": 0.0, "fusion_lat": 0.0, "lon": -77.01386733333334, "is_reserved": 0, "rental_uris": {"android": "https://dc.lft.to/lastmile_qr_scan", "ios": "https://dc.lft.to/lastmile_qr_scan"}, "bike_id": "0201ed27daf1ad975f845ac4acdca144"}, {"name": "7972c46f2bc1a8573ec6db0d88a2f16c", "lat": 38.876051333333336, "type": "electric_scooter", "is_disabled": 0, "fusion_lon": 0.0, "fusion_lat": 0.0, "lon": -77.02091916666667, "is_reserved": 0, "rental_uris": {"android": "https://dc.lft.to/lastmile_qr_scan", "ios": "https://dc.lft.to/lastmile_qr_scan"}, "bike_id": "7972c46f2bc1a8573ec6db0d88a2f16c"}, {"name": "a40f8ee4a4c5be13b6cde7550e69f501", "lat": 38.8789535, "type": "electric_bike", "is_disabled": 0, "fusion_lon": 0.0, "fusion_lat": 0.0, "lon": -77.00772583333334, "is_reserved": 0, "rental_uris": {"android": "https://dc.lft.to/lastmile_qr_scan", "ios": "https://dc.lft.to/lastmile_qr_scan"}, "bike_id": "a40f8ee4a4c5be13b6cde7550e69f501"}, {"name": "7be6ffec915b1d555be36936f1025bee", "lat": 38.88136, "type": "electric_scooter", "is_disabled": 0, "fusion_lon": 0.0, "fusion_lat": 0.0, "lon": -76.99620883333333, "is_reserved": 0, "rental_uris": {"android": "https://dc.lft.to/lastmile_qr_scan", "ios": "https://dc.lft.to/lastmile_qr_scan"}, "bike_id": "7be6ffec915b1d555be36936f1025bee"}, {"name": "62af9250dbd6e05aed48669ca3e82846", "lat": 38.912662, "type": "electric_scooter", "is_disabled": 0, "fusion_lon": 0.0, "fusion_lat": 0.0, "lon": -77.02404066666666, "is_reserved": 0, "rental_uris": {"android": "https://dc.lft.to/lastmile_qr_scan", "ios": "https://dc.lft.to/lastmile_qr_scan"}, "bike_id": "62af9250dbd6e05aed48669ca3e82846"}, {"name": "ed2f293c051f30ce72793b85733be660", "lat": 38.916888666666665, "type": "electric_scooter", "is_disabled": 0, "fusion_lon": 0.0, "fusion_lat": 0.0, "lon": -77.03779116666666, "is_reserved": 0, "rental_uris": {"android": "https://dc.lft.to/lastmile_qr_scan", "ios": "https://dc.lft.to/lastmile_qr_scan"}, "bike_id": "ed2f293c051f30ce72793b85733be660"}, {"name": "da1621fae0b14dae241488ecf25a207f", "lat": 38.875573833333334, "type": "electric_scooter", "is_disabled": 0, "fusion_lon": 0.0, "fusion_lat": 0.0, "lon": -77.00595533333333, "is_reserved": 0, "rental_uris": {"android": "https://dc.lft.to/lastmile_qr_scan", "ios": "https://dc.lft.to/lastmile_qr_scan"}, "bike_id": "da1621fae0b14dae241488ecf25a207f"}, {"name": "f0e3ae34638c3f08bdb36b6185fd8646", "lat": 38.879229333333335, "type": "electric_bike", "is_disabled": 0, "fusion_lon": 0.0, "fusion_lat": 0.0, "lon": -76.9952395, "is_reserved": 0, "rental_uris": {"android": "https://dc.lft.to/lastmile_qr_scan", "ios": "https://dc.lft.to/lastmile_qr_scan"}, "bike_id": "f0e3ae34638c3f08bdb36b6185fd8646"}, {"name": "9efaec0da061b06f3b004b78de7b31ec", "lat": 38.93629383333333, "type": "electric_scooter", "is_disabled": 0, "fusion_lon": 0.0, "fusion_lat": 0.0, "lon": -77.03662083333333, "is_reserved": 0, "rental_uris": {"android": "https://dc.lft.to/lastmile_qr_scan", "ios": "https://dc.lft.to/lastmile_qr_scan"}, "bike_id": "9efaec0da061b06f3b004b78de7b31ec"}, {"name": "20c670f65cb056533e7a55e9d4bd911f", "lat": 38.89899883333333, "type": "electric_bike", "is_disabled": 0, "fusion_lon": 0.0, "fusion_lat": 0.0, "lon": -76.9896025, "is_reserved": 0, "rental_uris": {"android": "https://dc.lft.to/lastmile_qr_scan", "ios": "https://dc.lft.to/lastmile_qr_scan"}, "bike_id": "20c670f65cb056533e7a55e9d4bd911f"}, {"name": "78e90a2f05e7b2b972668e3a35ff5374", "lat": 38.86031583333333, "type": "electric_scooter", "is_disabled": 0, "fusion_lon": 0.0, "fusion_lat": 0.0, "lon": -76.98373983333333, "is_reserved": 0, "rental_uris": {"android": "https://dc.lft.to/lastmile_qr_scan", "ios": "https://dc.lft.to/lastmile_qr_scan"}, "bike_id": "78e90a2f05e7b2b972668e3a35ff5374"}, {"name": "913400ae0481103f62f2b5096cf3d849", "lat": 38.904603333333334, "type": "electric_scooter", "is_disabled": 0, "fusion_lon": 0.0, "fusion_lat": 0.0, "lon": -77.0281605, "is_reserved": 0, "rental_uris": {"android": "https://dc.lft.to/lastmile_qr_scan", "ios": "https://dc.lft.to/lastmile_qr_scan"}, "bike_id": "913400ae0481103f62f2b5096cf3d849"}, {"name": "885c9dc20e777a6e8d03156fc1831b52", "lat": 38.91538716666667, "type": "electric_scooter", "is_disabled": 0, "fusion_lon": 0.0, "fusion_lat": 0.0, "lon": -77.04422983333333, "is_reserved": 0, "rental_uris": {"android": "https://dc.lft.to/lastmile_qr_scan", "ios": "https://dc.lft.to/lastmile_qr_scan"}, "bike_id": "885c9dc20e777a6e8d03156fc1831b52"}, {"name": "8b98aa73914e922832465e381979d32b", "lat": 38.892197333333336, "type": "electric_scooter", "is_disabled": 0, "fusion_lon": 0.0, "fusion_lat": 0.0, "lon": -77.0237025, "is_reserved": 0, "rental_uris": {"android": "https://dc.lft.to/lastmile_qr_scan", "ios": "https://dc.lft.to/lastmile_qr_scan"}, "bike_id": "8b98aa73914e922832465e381979d32b"}, {"name": "a670f57842b3a7e0302f19e87078e2fa", "lat": 38.90701816666667, "type": "electric_scooter", "is_disabled": 0, "fusion_lon": 0.0, "fusion_lat": 0.0, "lon": -76.98696166666667, "is_reserved": 0, "rental_uris": {"android": "https://dc.lft.to/lastmile_qr_scan", "ios": "https://dc.lft.to/lastmile_qr_scan"}, "bike_id": "a670f57842b3a7e0302f19e87078e2fa"}, {"name": "bbae0ce308d849e91c5e81d8de4c2260", "lat": 38.912606833333335, "type": "electric_scooter", "is_disabled": 0, "fusion_lon": 0.0, "fusion_lat": 0.0, "lon": -77.031475, "is_reserved": 0, "rental_uris": {"android": "https://dc.lft.to/lastmile_qr_scan", "ios": "https://dc.lft.to/lastmile_qr_scan"}, "bike_id": "bbae0ce308d849e91c5e81d8de4c2260"}, {"name": "cfaf7a36112aca4584b7087e50eee1d1", "lat": 38.90546166666667, "type": "electric_scooter", "is_disabled": 0, "fusion_lon": 0.0, "fusion_lat": 0.0, "lon": -77.00607416666666, "is_reserved": 0, "rental_uris": {"android": "https://dc.lft.to/lastmile_qr_scan", "ios": "https://dc.lft.to/lastmile_qr_scan"}, "bike_id": "cfaf7a36112aca4584b7087e50eee1d1"}, {"name": "7d8f97ccc3477062c3ce8df734331d70", "lat": 38.877036833333335, "type": "electric_scooter", "is_disabled": 0, "fusion_lon": 0.0, "fusion_lat": 0.0, "lon": -77.00299166666667, "is_reserved": 0, "rental_uris": {"android": "https://dc.lft.to/lastmile_qr_scan", "ios": "https://dc.lft.to/lastmile_qr_scan"}, "bike_id": "7d8f97ccc3477062c3ce8df734331d70"}, {"name": "c427661d9b27c746d5019f7161e0e1c3", "lat": 38.922987666666664, "type": "electric_scooter", "is_disabled": 0, "fusion_lon": 0.0, "fusion_lat": 0.0, "lon": -77.04143916666666, "is_reserved": 0, "rental_uris": {"android": "https://dc.lft.to/lastmile_qr_scan", "ios": "https://dc.lft.to/lastmile_qr_scan"}, "bike_id": "c427661d9b27c746d5019f7161e0e1c3"}, {"name": "dce830e91a1d067e1a7a0e9f81b5e1ab", "lat": 38.89952983333333, "type": "electric_scooter", "is_disabled": 0, "fusion_lon": 0.0, "fusion_lat": 0.0, "lon": -77.0487265, "is_reserved": 0, "rental_uris": {"android": "https://dc.lft.to/lastmile_qr_scan", "ios": "https://dc.lft.to/lastmile_qr_scan"}, "bike_id": "dce830e91a1d067e1a7a0e9f81b5e1ab"}, {"name": "aa8d00db52f1d168b77afb5c3ea58a64", "lat": 38.91923216666667, "type": "electric_scooter", "is_disabled": 0, "fusion_lon": 0.0, "fusion_lat": 0.0, "lon": -77.02480166666666, "is_reserved": 0, "rental_uris": {"android": "https://dc.lft.to/lastmile_qr_scan", "ios": "https://dc.lft.to/lastmile_qr_scan"}, "bike_id": "aa8d00db52f1d168b77afb5c3ea58a64"}, {"name": "af963d527a8315a4b0d1b8aa572e5e28", "lat": 38.86888183333333, "type": "electric_scooter", "is_disabled": 0, "fusion_lon": 0.0, "fusion_lat": 0.0, "lon": -76.9822495, "is_reserved": 0, "rental_uris": {"android": "https://dc.lft.to/lastmile_qr_scan", "ios": "https://dc.lft.to/lastmile_qr_scan"}, "bike_id": "af963d527a8315a4b0d1b8aa572e5e28"}, {"name": "a374ffac33a9ff0b440b63d9f58c56e9", "lat": 38.922581, "type": "electric_scooter", "is_disabled": 0, "fusion_lon": 0.0, "fusion_lat": 0.0, "lon": -77.03511833333333, "is_reserved": 0, "rental_uris": {"android": "https://dc.lft.to/lastmile_qr_scan", "ios": "https://dc.lft.to/lastmile_qr_scan"}, "bike_id": "a374ffac33a9ff0b440b63d9f58c56e9"}, {"name": "c130f6d37de277946c88816f564b2da0", "lat": 38.936831833333336, "type": "electric_bike", "is_disabled": 0, "fusion_lon": 0.0, "fusion_lat": 0.0, "lon": -77.026053, "is_reserved": 0, "rental_uris": {"android": "https://dc.lft.to/lastmile_qr_scan", "ios": "https://dc.lft.to/lastmile_qr_scan"}, "bike_id": "c130f6d37de277946c88816f564b2da0"}, {"name": "27854f9435956cfb5d9e10ea570aa9ec", "lat": 38.9096135, "type": "electric_scooter", "is_disabled": 0, "fusion_lon": 0.0, "fusion_lat": 0.0, "lon": -77.03275216666667, "is_reserved": 0, "rental_uris": {"android": "https://dc.lft.to/lastmile_qr_scan", "ios": "https://dc.lft.to/lastmile_qr_scan"}, "bike_id": "27854f9435956cfb5d9e10ea570aa9ec"}, {"name": "2b875eca0246756c8f2ddffd26d3add2", "lat": 38.8986835, "type": "electric_scooter", "is_disabled": 0, "fusion_lon": 0.0, "fusion_lat": 0.0, "lon": -76.94665816666667, "is_reserved": 0, "rental_uris": {"android": "https://dc.lft.to/lastmile_qr_scan", "ios": "https://dc.lft.to/lastmile_qr_scan"}, "bike_id": "2b875eca0246756c8f2ddffd26d3add2"}, {"name": "48b712478047a8f522fa8a19477f4880", "lat": 38.904958, "type": "electric_scooter", "is_disabled": 0, "fusion_lon": 0.0, "fusion_lat": 0.0, "lon": -77.02594316666666, "is_reserved": 0, "rental_uris": {"android": "https://dc.lft.to/lastmile_qr_scan", "ios": "https://dc.lft.to/lastmile_qr_scan"}, "bike_id": "48b712478047a8f522fa8a19477f4880"}, {"name": "fe2191152b1c279135351831fb5611a1", "lat": 38.917451, "type": "electric_scooter", "is_disabled": 0, "fusion_lon": 0.0, "fusion_lat": 0.0, "lon": -77.031995, "is_reserved": 0, "rental_uris": {"android": "https://dc.lft.to/lastmile_qr_scan", "ios": "https://dc.lft.to/lastmile_qr_scan"}, "bike_id": "fe2191152b1c279135351831fb5611a1"}, {"name": "a6cdf8ce9e780eb1521cb9c62ab55778", "lat": 38.89813733333333, "type": "electric_scooter", "is_disabled": 0, "fusion_lon": 0.0, "fusion_lat": 0.0, "lon": -77.01353616666667, "is_reserved": 0, "rental_uris": {"android": "https://dc.lft.to/lastmile_qr_scan", "ios": "https://dc.lft.to/lastmile_qr_scan"}, "bike_id": "a6cdf8ce9e780eb1521cb9c62ab55778"}, {"name": "7b40590c492ec1f3cb05e3662667ef5e", "lat": 38.91684383333333, "type": "electric_scooter", "is_disabled": 0, "fusion_lon": 0.0, "fusion_lat": 0.0, "lon": -77.0294715, "is_reserved": 0, "rental_uris": {"android": "https://dc.lft.to/lastmile_qr_scan", "ios": "https://dc.lft.to/lastmile_qr_scan"}, "bike_id": "7b40590c492ec1f3cb05e3662667ef5e"}, {"name": "437c49e1241f667cdc789831e86bffa7", "lat": 38.91908133333333, "type": "electric_scooter", "is_disabled": 0, "fusion_lon": 0.0, "fusion_lat": 0.0, "lon": -77.02136516666667, "is_reserved": 0, "rental_uris": {"android": "https://dc.lft.to/lastmile_qr_scan", "ios": "https://dc.lft.to/lastmile_qr_scan"}, "bike_id": "437c49e1241f667cdc789831e86bffa7"}, {"name": "2d64263c66cb12b9d518dd5f7908cf0a", "lat": 38.89991716666667, "type": "electric_scooter", "is_disabled": 0, "fusion_lon": 0.0, "fusion_lat": 0.0, "lon": -77.02801466666666, "is_reserved": 0, "rental_uris": {"android": "https://dc.lft.to/lastmile_qr_scan", "ios": "https://dc.lft.to/lastmile_qr_scan"}, "bike_id": "2d64263c66cb12b9d518dd5f7908cf0a"}, {"name": "633b684e244a57c9eca9938b1a2d1122", "lat": 38.906169, "type": "electric_scooter", "is_disabled": 0, "fusion_lon": 0.0, "fusion_lat": 0.0, "lon": -76.99329166666666, "is_reserved": 0, "rental_uris": {"android": "https://dc.lft.to/lastmile_qr_scan", "ios": "https://dc.lft.to/lastmile_qr_scan"}, "bike_id": "633b684e244a57c9eca9938b1a2d1122"}, {"name": "36287508c9252dc95293ac8f657160bd", "lat": 38.92357, "type": "electric_scooter", "is_disabled": 0, "fusion_lon": 0.0, "fusion_lat": 0.0, "lon": -77.0205495, "is_reserved": 0, "rental_uris": {"android": "https://dc.lft.to/lastmile_qr_scan", "ios": "https://dc.lft.to/lastmile_qr_scan"}, "bike_id": "36287508c9252dc95293ac8f657160bd"}, {"name": "21528a7eadf4c8282df617a57e9a39bc", "lat": 38.863521666666664, "type": "electric_bike", "is_disabled": 0, "fusion_lon": 0.0, "fusion_lat": 0.0, "lon": -77.084171, "is_reserved": 0, "rental_uris": {"android": "https://dc.lft.to/lastmile_qr_scan", "ios": "https://dc.lft.to/lastmile_qr_scan"}, "bike_id": "21528a7eadf4c8282df617a57e9a39bc"}, {"name": "081d303a0a09d5e3a1c598c2611e8500", "lat": 38.905321666666666, "type": "electric_scooter", "is_disabled": 0, "fusion_lon": 0.0, "fusion_lat": 0.0, "lon": -77.04337733333334, "is_reserved": 0, "rental_uris": {"android": "https://dc.lft.to/lastmile_qr_scan", "ios": "https://dc.lft.to/lastmile_qr_scan"}, "bike_id": "081d303a0a09d5e3a1c598c2611e8500"}, {"name": "be2a61fbbffa5a23ebe25d2726b2bdb0", "lat": 38.9268775, "type": "electric_scooter", "is_disabled": 0, "fusion_lon": 0.0, "fusion_lat": 0.0, "lon": -77.02568433333333, "is_reserved": 0, "rental_uris": {"android": "https://dc.lft.to/lastmile_qr_scan", "ios": "https://dc.lft.to/lastmile_qr_scan"}, "bike_id": "be2a61fbbffa5a23ebe25d2726b2bdb0"}, {"name": "d41e0cd4916c97d109918da920df3f20", "lat": 38.898163, "type": "electric_scooter", "is_disabled": 0, "fusion_lon": 0.0, "fusion_lat": 0.0, "lon": -77.0240385, "is_reserved": 0, "rental_uris": {"android": "https://dc.lft.to/lastmile_qr_scan", "ios": "https://dc.lft.to/lastmile_qr_scan"}, "bike_id": "d41e0cd4916c97d109918da920df3f20"}, {"name": "fff3035949dc505aad6d70b7bfb0d637", "lat": 38.93517116666666, "type": "electric_scooter", "is_disabled": 0, "fusion_lon": 0.0, "fusion_lat": 0.0, "lon": -77.0254775, "is_reserved": 0, "rental_uris": {"android": "https://dc.lft.to/lastmile_qr_scan", "ios": "https://dc.lft.to/lastmile_qr_scan"}, "bike_id": "fff3035949dc505aad6d70b7bfb0d637"}, {"name": "20ad61be8a7bde2595e61df6685da2fe", "lat": 38.923624, "type": "electric_scooter", "is_disabled": 0, "fusion_lon": 0.0, "fusion_lat": 0.0, "lon": -77.02058383333333, "is_reserved": 0, "rental_uris": {"android": "https://dc.lft.to/lastmile_qr_scan", "ios": "https://dc.lft.to/lastmile_qr_scan"}, "bike_id": "20ad61be8a7bde2595e61df6685da2fe"}, {"name": "12759079c0f3d5502171a454f5cec0e8", "lat": 38.88338316666667, "type": "electric_scooter", "is_disabled": 0, "fusion_lon": 0.0, "fusion_lat": 0.0, "lon": -77.02173133333334, "is_reserved": 0, "rental_uris": {"android": "https://dc.lft.to/lastmile_qr_scan", "ios": "https://dc.lft.to/lastmile_qr_scan"}, "bike_id": "12759079c0f3d5502171a454f5cec0e8"}, {"name": "51299b46821a899e98c9f57038141ea1", "lat": 38.922495166666664, "type": "electric_scooter", "is_disabled": 0, "fusion_lon": 0.0, "fusion_lat": 0.0, "lon": -77.01957533333334, "is_reserved": 0, "rental_uris": {"android": "https://dc.lft.to/lastmile_qr_scan", "ios": "https://dc.lft.to/lastmile_qr_scan"}, "bike_id": "51299b46821a899e98c9f57038141ea1"}, {"name": "4cfd797a6873e09d741f1fba5bf70705", "lat": 38.931908166666666, "type": "electric_scooter", "is_disabled": 0, "fusion_lon": 0.0, "fusion_lat": 0.0, "lon": -77.02499216666666, "is_reserved": 0, "rental_uris": {"android": "https://dc.lft.to/lastmile_qr_scan", "ios": "https://dc.lft.to/lastmile_qr_scan"}, "bike_id": "4cfd797a6873e09d741f1fba5bf70705"}, {"name": "88067befb1ac4d19e2d925f55cdad77c", "lat": 38.8888455, "type": "electric_scooter", "is_disabled": 0, "fusion_lon": 0.0, "fusion_lat": 0.0, "lon": -77.0196875, "is_reserved": 0, "rental_uris": {"android": "https://dc.lft.to/lastmile_qr_scan", "ios": "https://dc.lft.to/lastmile_qr_scan"}, "bike_id": "88067befb1ac4d19e2d925f55cdad77c"}, {"name": "19a9e1987ab3db20d20dce83b9e618c3", "lat": 38.901099, "type": "electric_scooter", "is_disabled": 0, "fusion_lon": 0.0, "fusion_lat": 0.0, "lon": -77.040979, "is_reserved": 0, "rental_uris": {"android": "https://dc.lft.to/lastmile_qr_scan", "ios": "https://dc.lft.to/lastmile_qr_scan"}, "bike_id": "19a9e1987ab3db20d20dce83b9e618c3"}, {"name": "21ea3bcfa976b14d2b8565b1aa2decc5", "lat": 38.9281905, "type": "electric_scooter", "is_disabled": 0, "fusion_lon": 0.0, "fusion_lat": 0.0, "lon": -77.02722866666667, "is_reserved": 0, "rental_uris": {"android": "https://dc.lft.to/lastmile_qr_scan", "ios": "https://dc.lft.to/lastmile_qr_scan"}, "bike_id": "21ea3bcfa976b14d2b8565b1aa2decc5"}, {"name": "dcd7d1784f50092ea436209c8d1ff7e0", "lat": 38.90961333333333, "type": "electric_scooter", "is_disabled": 0, "fusion_lon": 0.0, "fusion_lat": 0.0, "lon": -77.04877416666666, "is_reserved": 0, "rental_uris": {"android": "https://dc.lft.to/lastmile_qr_scan", "ios": "https://dc.lft.to/lastmile_qr_scan"}, "bike_id": "dcd7d1784f50092ea436209c8d1ff7e0"}, {"name": "2bdecf56663cd1e77618e7f1a4b7ee0b", "lat": 38.925623, "type": "electric_scooter", "is_disabled": 0, "fusion_lon": 0.0, "fusion_lat": 0.0, "lon": -77.03221266666667, "is_reserved": 0, "rental_uris": {"android": "https://dc.lft.to/lastmile_qr_scan", "ios": "https://dc.lft.to/lastmile_qr_scan"}, "bike_id": "2bdecf56663cd1e77618e7f1a4b7ee0b"}, {"name": "725b1da7dad17db64048ced2be0b62d5", "lat": 38.92656183333333, "type": "electric_scooter", "is_disabled": 0, "fusion_lon": 0.0, "fusion_lat": 0.0, "lon": -77.02286466666666, "is_reserved": 0, "rental_uris": {"android": "https://dc.lft.to/lastmile_qr_scan", "ios": "https://dc.lft.to/lastmile_qr_scan"}, "bike_id": "725b1da7dad17db64048ced2be0b62d5"}, {"name": "02a4439f0b7a56908d8b3f941f744cf8", "lat": 38.909739, "type": "electric_scooter", "is_disabled": 0, "fusion_lon": 0.0, "fusion_lat": 0.0, "lon": -77.0088295, "is_reserved": 0, "rental_uris": {"android": "https://dc.lft.to/lastmile_qr_scan", "ios": "https://dc.lft.to/lastmile_qr_scan"}, "bike_id": "02a4439f0b7a56908d8b3f941f744cf8"}, {"name": "f7dff403004011969332c52003fffd5e", "lat": 38.909863333333334, "type": "electric_scooter", "is_disabled": 0, "fusion_lon": 0.0, "fusion_lat": 0.0, "lon": -77.064741, "is_reserved": 0, "rental_uris": {"android": "https://dc.lft.to/lastmile_qr_scan", "ios": "https://dc.lft.to/lastmile_qr_scan"}, "bike_id": "f7dff403004011969332c52003fffd5e"}, {"name": "1ccb30c872b3453ac9188128ce0070eb", "lat": 38.915840833333334, "type": "electric_scooter", "is_disabled": 0, "fusion_lon": 0.0, "fusion_lat": 0.0, "lon": -76.98393183333333, "is_reserved": 0, "rental_uris": {"android": "https://dc.lft.to/lastmile_qr_scan", "ios": "https://dc.lft.to/lastmile_qr_scan"}, "bike_id": "1ccb30c872b3453ac9188128ce0070eb"}, {"name": "b6eb7eb7b6369ac430a629cbeb7f5c04", "lat": 38.847222333333335, "type": "electric_scooter", "is_disabled": 0, "fusion_lon": 0.0, "fusion_lat": 0.0, "lon": -76.96810366666666, "is_reserved": 0, "rental_uris": {"android": "https://dc.lft.to/lastmile_qr_scan", "ios": "https://dc.lft.to/lastmile_qr_scan"}, "bike_id": "b6eb7eb7b6369ac430a629cbeb7f5c04"}, {"name": "b236be24fb4ebc133f13ef23d5890b75", "lat": 38.875777666666664, "type": "electric_bike", "is_disabled": 0, "fusion_lon": 0.0, "fusion_lat": 0.0, "lon": -77.23413183333334, "is_reserved": 0, "rental_uris": {"android": "https://dc.lft.to/lastmile_qr_scan", "ios": "https://dc.lft.to/lastmile_qr_scan"}, "bike_id": "b236be24fb4ebc133f13ef23d5890b75"}, {"name": "d484d53f390125677b411ff6607b21c7", "lat": 38.900416, "type": "electric_scooter", "is_disabled": 0, "fusion_lon": 0.0, "fusion_lat": 0.0, "lon": -76.9883925, "is_reserved": 0, "rental_uris": {"android": "https://dc.lft.to/lastmile_qr_scan", "ios": "https://dc.lft.to/lastmile_qr_scan"}, "bike_id": "d484d53f390125677b411ff6607b21c7"}, {"name": "deae15c63028130fccd5dbdef18ee894", "lat": 38.900355166666664, "type": "electric_scooter", "is_disabled": 0, "fusion_lon": 0.0, "fusion_lat": 0.0, "lon": -77.00209083333333, "is_reserved": 0, "rental_uris": {"android": "https://dc.lft.to/lastmile_qr_scan", "ios": "https://dc.lft.to/lastmile_qr_scan"}, "bike_id": "deae15c63028130fccd5dbdef18ee894"}, {"name": "a941803dd3fbe60706989fae8c0a12fb", "lat": 38.888609, "type": "electric_scooter", "is_disabled": 0, "fusion_lon": 0.0, "fusion_lat": 0.0, "lon": -76.97907333333333, "is_reserved": 0, "rental_uris": {"android": "https://dc.lft.to/lastmile_qr_scan", "ios": "https://dc.lft.to/lastmile_qr_scan"}, "bike_id": "a941803dd3fbe60706989fae8c0a12fb"}, {"name": "4ffe6e8511279d673adb881f1a54924f", "lat": 38.90125583333333, "type": "electric_scooter", "is_disabled": 0, "fusion_lon": 0.0, "fusion_lat": 0.0, "lon": -77.0114795, "is_reserved": 0, "rental_uris": {"android": "https://dc.lft.to/lastmile_qr_scan", "ios": "https://dc.lft.to/lastmile_qr_scan"}, "bike_id": "4ffe6e8511279d673adb881f1a54924f"}, {"name": "ff6bc5539d2ca79a17be630789539ea6", "lat": 38.921068166666664, "type": "electric_bike", "is_disabled": 0, "fusion_lon": 0.0, "fusion_lat": 0.0, "lon": -77.03184333333333, "is_reserved": 0, "rental_uris": {"android": "https://dc.lft.to/lastmile_qr_scan", "ios": "https://dc.lft.to/lastmile_qr_scan"}, "bike_id": "ff6bc5539d2ca79a17be630789539ea6"}, {"name": "9d8255d5d133ebf6aa8a68636cae7ffa", "lat": 38.9203205, "type": "electric_scooter", "is_disabled": 0, "fusion_lon": 0.0, "fusion_lat": 0.0, "lon": -77.02586883333333, "is_reserved": 0, "rental_uris": {"android": "https://dc.lft.to/lastmile_qr_scan", "ios": "https://dc.lft.to/lastmile_qr_scan"}, "bike_id": "9d8255d5d133ebf6aa8a68636cae7ffa"}, {"name": "12b518cccaf7d2091bc4b9b37734aae3", "lat": 38.924226, "type": "electric_scooter", "is_disabled": 0, "fusion_lon": 0.0, "fusion_lat": 0.0, "lon": -77.05181633333333, "is_reserved": 0, "rental_uris": {"android": "https://dc.lft.to/lastmile_qr_scan", "ios": "https://dc.lft.to/lastmile_qr_scan"}, "bike_id": "12b518cccaf7d2091bc4b9b37734aae3"}, {"name": "e712431f132287a45cada900c7c26985", "lat": 38.89553333333333, "type": "electric_scooter", "is_disabled": 0, "fusion_lon": 0.0, "fusion_lat": 0.0, "lon": -77.01104583333333, "is_reserved": 0, "rental_uris": {"android": "https://dc.lft.to/lastmile_qr_scan", "ios": "https://dc.lft.to/lastmile_qr_scan"}, "bike_id": "e712431f132287a45cada900c7c26985"}, {"name": "acc7009be09c53d0b50b77c87541a3f2", "lat": 38.92141683333333, "type": "electric_scooter", "is_disabled": 0, "fusion_lon": 0.0, "fusion_lat": 0.0, "lon": -77.04508483333333, "is_reserved": 0, "rental_uris": {"android": "https://dc.lft.to/lastmile_qr_scan", "ios": "https://dc.lft.to/lastmile_qr_scan"}, "bike_id": "acc7009be09c53d0b50b77c87541a3f2"}, {"name": "50771961972cfb043d9088ae77c187d3", "lat": 38.950870333333334, "type": "electric_bike", "is_disabled": 0, "fusion_lon": 0.0, "fusion_lat": 0.0, "lon": -77.01227466666667, "is_reserved": 0, "rental_uris": {"android": "https://dc.lft.to/lastmile_qr_scan", "ios": "https://dc.lft.to/lastmile_qr_scan"}, "bike_id": "50771961972cfb043d9088ae77c187d3"}, {"name": "011af38e473d22222f13874bdf807480", "lat": 38.90362783333333, "type": "electric_scooter", "is_disabled": 0, "fusion_lon": 0.0, "fusion_lat": 0.0, "lon": -76.98072133333334, "is_reserved": 0, "rental_uris": {"android": "https://dc.lft.to/lastmile_qr_scan", "ios": "https://dc.lft.to/lastmile_qr_scan"}, "bike_id": "011af38e473d22222f13874bdf807480"}, {"name": "25f42d755aacab0cf71cce1cd76cdd3b", "lat": 38.8737955, "type": "electric_scooter", "is_disabled": 0, "fusion_lon": 0.0, "fusion_lat": 0.0, "lon": -77.00132233333333, "is_reserved": 0, "rental_uris": {"android": "https://dc.lft.to/lastmile_qr_scan", "ios": "https://dc.lft.to/lastmile_qr_scan"}, "bike_id": "25f42d755aacab0cf71cce1cd76cdd3b"}, {"name": "7c4d1eb2e4636941269d9da77ca931f2", "lat": 38.9838055, "type": "electric_bike", "is_disabled": 0, "fusion_lon": 0.0, "fusion_lat": 0.0, "lon": -76.94722933333334, "is_reserved": 0, "rental_uris": {"android": "https://dc.lft.to/lastmile_qr_scan", "ios": "https://dc.lft.to/lastmile_qr_scan"}, "bike_id": "7c4d1eb2e4636941269d9da77ca931f2"}, {"name": "d620330ef0962caab0346a6d234d373c", "lat": 38.8862895, "type": "electric_bike", "is_disabled": 0, "fusion_lon": 0.0, "fusion_lat": 0.0, "lon": -77.02242933333333, "is_reserved": 0, "rental_uris": {"android": "https://dc.lft.to/lastmile_qr_scan", "ios": "https://dc.lft.to/lastmile_qr_scan"}, "bike_id": "d620330ef0962caab0346a6d234d373c"}, {"name": "da886a8dcc3032aad00164b7f94f023d", "lat": 38.9060715, "type": "electric_scooter", "is_disabled": 0, "fusion_lon": 0.0, "fusion_lat": 0.0, "lon": -77.04363183333334, "is_reserved": 0, "rental_uris": {"android": "https://dc.lft.to/lastmile_qr_scan", "ios": "https://dc.lft.to/lastmile_qr_scan"}, "bike_id": "da886a8dcc3032aad00164b7f94f023d"}, {"name": "abd84ddd0f38ad54793b469336b737e8", "lat": 38.9196575, "type": "electric_scooter", "is_disabled": 0, "fusion_lon": 0.0, "fusion_lat": 0.0, "lon": -77.0385035, "is_reserved": 0, "rental_uris": {"android": "https://dc.lft.to/lastmile_qr_scan", "ios": "https://dc.lft.to/lastmile_qr_scan"}, "bike_id": "abd84ddd0f38ad54793b469336b737e8"}, {"name": "51157631c7d9789656c2b57b3a0ea4e4", "lat": 38.91006616666667, "type": "electric_scooter", "is_disabled": 0, "fusion_lon": 0.0, "fusion_lat": 0.0, "lon": -76.993903, "is_reserved": 0, "rental_uris": {"android": "https://dc.lft.to/lastmile_qr_scan", "ios": "https://dc.lft.to/lastmile_qr_scan"}, "bike_id": "51157631c7d9789656c2b57b3a0ea4e4"}, {"name": "293a3e4e08f56f9f9d791ee56a023902", "lat": 38.9222895, "type": "electric_scooter", "is_disabled": 0, "fusion_lon": 0.0, "fusion_lat": 0.0, "lon": -77.0444385, "is_reserved": 0, "rental_uris": {"android": "https://dc.lft.to/lastmile_qr_scan", "ios": "https://dc.lft.to/lastmile_qr_scan"}, "bike_id": "293a3e4e08f56f9f9d791ee56a023902"}, {"name": "5ea3a8a5ce5224a8144f7861201b9d8e", "lat": 38.909032, "type": "electric_bike", "is_disabled": 0, "fusion_lon": 0.0, "fusion_lat": 0.0, "lon": -77.0899755, "is_reserved": 0, "rental_uris": {"android": "https://dc.lft.to/lastmile_qr_scan", "ios": "https://dc.lft.to/lastmile_qr_scan"}, "bike_id": "5ea3a8a5ce5224a8144f7861201b9d8e"}, {"name": "271ec2aa3267d249b34ffe491e09a23d", "lat": 38.931079833333335, "type": "electric_scooter", "is_disabled": 0, "fusion_lon": 0.0, "fusion_lat": 0.0, "lon": -77.02819366666667, "is_reserved": 0, "rental_uris": {"android": "https://dc.lft.to/lastmile_qr_scan", "ios": "https://dc.lft.to/lastmile_qr_scan"}, "bike_id": "271ec2aa3267d249b34ffe491e09a23d"}, {"name": "c3ef6b4300376267394bca7906456800", "lat": 38.89845616666667, "type": "electric_scooter", "is_disabled": 0, "fusion_lon": 0.0, "fusion_lat": 0.0, "lon": -76.94253266666666, "is_reserved": 0, "rental_uris": {"android": "https://dc.lft.to/lastmile_qr_scan", "ios": "https://dc.lft.to/lastmile_qr_scan"}, "bike_id": "c3ef6b4300376267394bca7906456800"}, {"name": "c3e6dc8178b59269d2325aac2c5ac788", "lat": 38.920212166666666, "type": "electric_scooter", "is_disabled": 0, "fusion_lon": 0.0, "fusion_lat": 0.0, "lon": -77.07129166666667, "is_reserved": 0, "rental_uris": {"android": "https://dc.lft.to/lastmile_qr_scan", "ios": "https://dc.lft.to/lastmile_qr_scan"}, "bike_id": "c3e6dc8178b59269d2325aac2c5ac788"}, {"name": "201e9633948ce408bb5d558f677aa257", "lat": 38.96219816666667, "type": "electric_scooter", "is_disabled": 0, "fusion_lon": 0.0, "fusion_lat": 0.0, "lon": -77.02769716666667, "is_reserved": 0, "rental_uris": {"android": "https://dc.lft.to/lastmile_qr_scan", "ios": "https://dc.lft.to/lastmile_qr_scan"}, "bike_id": "201e9633948ce408bb5d558f677aa257"}, {"name": "0a2668220bdb5e11b363c7cb25c2412a", "lat": 38.909756333333334, "type": "electric_scooter", "is_disabled": 0, "fusion_lon": 0.0, "fusion_lat": 0.0, "lon": -77.046227, "is_reserved": 0, "rental_uris": {"android": "https://dc.lft.to/lastmile_qr_scan", "ios": "https://dc.lft.to/lastmile_qr_scan"}, "bike_id": "0a2668220bdb5e11b363c7cb25c2412a"}, {"name": "439632cafe0f1b9ffe99219b367c78bd", "lat": 38.922106666666664, "type": "electric_scooter", "is_disabled": 0, "fusion_lon": 0.0, "fusion_lat": 0.0, "lon": -77.02026316666667, "is_reserved": 0, "rental_uris": {"android": "https://dc.lft.to/lastmile_qr_scan", "ios": "https://dc.lft.to/lastmile_qr_scan"}, "bike_id": "439632cafe0f1b9ffe99219b367c78bd"}, {"name": "9b772a50c986311366fc07b60ba1bd64", "lat": 38.924132, "type": "electric_scooter", "is_disabled": 0, "fusion_lon": 0.0, "fusion_lat": 0.0, "lon": -77.02132283333333, "is_reserved": 0, "rental_uris": {"android": "https://dc.lft.to/lastmile_qr_scan", "ios": "https://dc.lft.to/lastmile_qr_scan"}, "bike_id": "9b772a50c986311366fc07b60ba1bd64"}, {"name": "f287662b6bab34d2fec351ec7159293a", "lat": 38.924686, "type": "electric_scooter", "is_disabled": 0, "fusion_lon": 0.0, "fusion_lat": 0.0, "lon": -77.03059966666666, "is_reserved": 0, "rental_uris": {"android": "https://dc.lft.to/lastmile_qr_scan", "ios": "https://dc.lft.to/lastmile_qr_scan"}, "bike_id": "f287662b6bab34d2fec351ec7159293a"}, {"name": "6adfcfdd446670662a4a52cf40195335", "lat": 38.8974245, "type": "electric_scooter", "is_disabled": 0, "fusion_lon": 0.0, "fusion_lat": 0.0, "lon": -77.0245785, "is_reserved": 0, "rental_uris": {"android": "https://dc.lft.to/lastmile_qr_scan", "ios": "https://dc.lft.to/lastmile_qr_scan"}, "bike_id": "6adfcfdd446670662a4a52cf40195335"}, {"name": "b8ef07df7e7e7c31831501e5fe594e25", "lat": 38.9530225, "type": "electric_scooter", "is_disabled": 0, "fusion_lon": 0.0, "fusion_lat": 0.0, "lon": -77.02768133333333, "is_reserved": 0, "rental_uris": {"android": "https://dc.lft.to/lastmile_qr_scan", "ios": "https://dc.lft.to/lastmile_qr_scan"}, "bike_id": "b8ef07df7e7e7c31831501e5fe594e25"}, {"name": "f6ea1941a8e85ee49f7b1e01403905d8", "lat": 38.93939483333333, "type": "electric_scooter", "is_disabled": 0, "fusion_lon": 0.0, "fusion_lat": 0.0, "lon": -77.032678, "is_reserved": 0, "rental_uris": {"android": "https://dc.lft.to/lastmile_qr_scan", "ios": "https://dc.lft.to/lastmile_qr_scan"}, "bike_id": "f6ea1941a8e85ee49f7b1e01403905d8"}, {"name": "a3e3af1363174a5d17e31333e48fc5fb", "lat": 38.89261716666667, "type": "electric_scooter", "is_disabled": 0, "fusion_lon": 0.0, "fusion_lat": 0.0, "lon": -76.98369016666666, "is_reserved": 0, "rental_uris": {"android": "https://dc.lft.to/lastmile_qr_scan", "ios": "https://dc.lft.to/lastmile_qr_scan"}, "bike_id": "a3e3af1363174a5d17e31333e48fc5fb"}, {"name": "fdb14eefaf6e161b93376df87a8e95ce", "lat": 38.841878, "type": "electric_bike", "is_disabled": 0, "fusion_lon": 0.0, "fusion_lat": 0.0, "lon": -77.07752866666667, "is_reserved": 0, "rental_uris": {"android": "https://dc.lft.to/lastmile_qr_scan", "ios": "https://dc.lft.to/lastmile_qr_scan"}, "bike_id": "fdb14eefaf6e161b93376df87a8e95ce"}, {"name": "c628a0f05de13797c7d00da2f9437fa4", "lat": 38.930576333333335, "type": "electric_scooter", "is_disabled": 0, "fusion_lon": 0.0, "fusion_lat": 0.0, "lon": -77.0394395, "is_reserved": 0, "rental_uris": {"android": "https://dc.lft.to/lastmile_qr_scan", "ios": "https://dc.lft.to/lastmile_qr_scan"}, "bike_id": "c628a0f05de13797c7d00da2f9437fa4"}, {"name": "8a7cb4ce2e960dbfa196a0b95381497e", "lat": 38.92670016666667, "type": "electric_scooter", "is_disabled": 0, "fusion_lon": 0.0, "fusion_lat": 0.0, "lon": -77.040533, "is_reserved": 0, "rental_uris": {"android": "https://dc.lft.to/lastmile_qr_scan", "ios": "https://dc.lft.to/lastmile_qr_scan"}, "bike_id": "8a7cb4ce2e960dbfa196a0b95381497e"}, {"name": "2adf86ab815dc45faf4104addb61d44d", "lat": 38.899081, "type": "electric_scooter", "is_disabled": 0, "fusion_lon": 0.0, "fusion_lat": 0.0, "lon": -77.05001233333333, "is_reserved": 0, "rental_uris": {"android": "https://dc.lft.to/lastmile_qr_scan", "ios": "https://dc.lft.to/lastmile_qr_scan"}, "bike_id": "2adf86ab815dc45faf4104addb61d44d"}, {"name": "58ac75bc2b405cc58ea67581ab3790c8", "lat": 38.9019965, "type": "electric_scooter", "is_disabled": 0, "fusion_lon": 0.0, "fusion_lat": 0.0, "lon": -77.03848883333333, "is_reserved": 0, "rental_uris": {"android": "https://dc.lft.to/lastmile_qr_scan", "ios": "https://dc.lft.to/lastmile_qr_scan"}, "bike_id": "58ac75bc2b405cc58ea67581ab3790c8"}, {"name": "14328fddf9c53daa07329db5d8a12a6b", "lat": 38.924726666666665, "type": "electric_scooter", "is_disabled": 0, "fusion_lon": 0.0, "fusion_lat": 0.0, "lon": -77.03382516666667, "is_reserved": 0, "rental_uris": {"android": "https://dc.lft.to/lastmile_qr_scan", "ios": "https://dc.lft.to/lastmile_qr_scan"}, "bike_id": "14328fddf9c53daa07329db5d8a12a6b"}, {"name": "602548f5d07909e937a2cdc551049c5a", "lat": 38.90855966666667, "type": "electric_scooter", "is_disabled": 0, "fusion_lon": 0.0, "fusion_lat": 0.0, "lon": -77.02423433333334, "is_reserved": 0, "rental_uris": {"android": "https://dc.lft.to/lastmile_qr_scan", "ios": "https://dc.lft.to/lastmile_qr_scan"}, "bike_id": "602548f5d07909e937a2cdc551049c5a"}, {"name": "fd9b1f192b0eb4eaab7194479b55cda5", "lat": 38.91629366666667, "type": "electric_scooter", "is_disabled": 0, "fusion_lon": 0.0, "fusion_lat": 0.0, "lon": -77.035023, "is_reserved": 0, "rental_uris": {"android": "https://dc.lft.to/lastmile_qr_scan", "ios": "https://dc.lft.to/lastmile_qr_scan"}, "bike_id": "fd9b1f192b0eb4eaab7194479b55cda5"}, {"name": "6a544ebc9486645c8cbc325ed9ed797d", "lat": 38.894148, "type": "electric_scooter", "is_disabled": 0, "fusion_lon": 0.0, "fusion_lat": 0.0, "lon": -77.02178116666667, "is_reserved": 0, "rental_uris": {"android": "https://dc.lft.to/lastmile_qr_scan", "ios": "https://dc.lft.to/lastmile_qr_scan"}, "bike_id": "6a544ebc9486645c8cbc325ed9ed797d"}, {"name": "31f97407ab54e35d4d307715950c98af", "lat": 38.90466166666667, "type": "electric_scooter", "is_disabled": 0, "fusion_lon": 0.0, "fusion_lat": 0.0, "lon": -77.01707416666666, "is_reserved": 0, "rental_uris": {"android": "https://dc.lft.to/lastmile_qr_scan", "ios": "https://dc.lft.to/lastmile_qr_scan"}, "bike_id": "31f97407ab54e35d4d307715950c98af"}, {"name": "59e835f0911f45530fcaf8f71045463f", "lat": 38.910494666666665, "type": "electric_scooter", "is_disabled": 0, "fusion_lon": 0.0, "fusion_lat": 0.0, "lon": -77.043458, "is_reserved": 0, "rental_uris": {"android": "https://dc.lft.to/lastmile_qr_scan", "ios": "https://dc.lft.to/lastmile_qr_scan"}, "bike_id": "59e835f0911f45530fcaf8f71045463f"}, {"name": "370b78ad1a75c559f267341141a4656e", "lat": 38.880849166666664, "type": "electric_scooter", "is_disabled": 0, "fusion_lon": 0.0, "fusion_lat": 0.0, "lon": -76.99506233333334, "is_reserved": 0, "rental_uris": {"android": "https://dc.lft.to/lastmile_qr_scan", "ios": "https://dc.lft.to/lastmile_qr_scan"}, "bike_id": "370b78ad1a75c559f267341141a4656e"}, {"name": "ca6999d8d4afb92e2e568299f15ca707", "lat": 38.915828166666664, "type": "electric_scooter", "is_disabled": 0, "fusion_lon": 0.0, "fusion_lat": 0.0, "lon": -76.983956, "is_reserved": 0, "rental_uris": {"android": "https://dc.lft.to/lastmile_qr_scan", "ios": "https://dc.lft.to/lastmile_qr_scan"}, "bike_id": "ca6999d8d4afb92e2e568299f15ca707"}, {"name": "fc523e536741cd35c20a4223b52cc283", "lat": 38.92072533333333, "type": "electric_scooter", "is_disabled": 0, "fusion_lon": 0.0, "fusion_lat": 0.0, "lon": -77.025344, "is_reserved": 0, "rental_uris": {"android": "https://dc.lft.to/lastmile_qr_scan", "ios": "https://dc.lft.to/lastmile_qr_scan"}, "bike_id": "fc523e536741cd35c20a4223b52cc283"}, {"name": "881f42dd72f4d54ce929106deb0a12f8", "lat": 38.92162833333333, "type": "electric_scooter", "is_disabled": 0, "fusion_lon": 0.0, "fusion_lat": 0.0, "lon": -77.03373666666667, "is_reserved": 0, "rental_uris": {"android": "https://dc.lft.to/lastmile_qr_scan", "ios": "https://dc.lft.to/lastmile_qr_scan"}, "bike_id": "881f42dd72f4d54ce929106deb0a12f8"}, {"name": "6f71c7860ae091b445238ae5a8749c38", "lat": 38.93096233333333, "type": "electric_scooter", "is_disabled": 0, "fusion_lon": 0.0, "fusion_lat": 0.0, "lon": -77.0909705, "is_reserved": 0, "rental_uris": {"android": "https://dc.lft.to/lastmile_qr_scan", "ios": "https://dc.lft.to/lastmile_qr_scan"}, "bike_id": "6f71c7860ae091b445238ae5a8749c38"}, {"name": "301450b09b28dcc00d2e68b284bb97c5", "lat": 38.887336833333336, "type": "electric_scooter", "is_disabled": 0, "fusion_lon": 0.0, "fusion_lat": 0.0, "lon": -77.02576833333333, "is_reserved": 0, "rental_uris": {"android": "https://dc.lft.to/lastmile_qr_scan", "ios": "https://dc.lft.to/lastmile_qr_scan"}, "bike_id": "301450b09b28dcc00d2e68b284bb97c5"}, {"name": "02cc30a6bea542d2a7c0f4fea1a50fe5", "lat": 38.90020616666666, "type": "electric_scooter", "is_disabled": 0, "fusion_lon": 0.0, "fusion_lat": 0.0, "lon": -77.0334795, "is_reserved": 0, "rental_uris": {"android": "https://dc.lft.to/lastmile_qr_scan", "ios": "https://dc.lft.to/lastmile_qr_scan"}, "bike_id": "02cc30a6bea542d2a7c0f4fea1a50fe5"}, {"name": "4352d419e7513c1015d5763c119e44ff", "lat": 38.8986995, "type": "electric_scooter", "is_disabled": 0, "fusion_lon": 0.0, "fusion_lat": 0.0, "lon": -76.94661633333334, "is_reserved": 0, "rental_uris": {"android": "https://dc.lft.to/lastmile_qr_scan", "ios": "https://dc.lft.to/lastmile_qr_scan"}, "bike_id": "4352d419e7513c1015d5763c119e44ff"}, {"name": "56fb945cb17a436bcb5912807efb18c9", "lat": 38.89226033333333, "type": "electric_scooter", "is_disabled": 0, "fusion_lon": 0.0, "fusion_lat": 0.0, "lon": -77.0280145, "is_reserved": 0, "rental_uris": {"android": "https://dc.lft.to/lastmile_qr_scan", "ios": "https://dc.lft.to/lastmile_qr_scan"}, "bike_id": "56fb945cb17a436bcb5912807efb18c9"}, {"name": "a3b813597c06bdc46bd2a69ac9267a44", "lat": 38.924055, "type": "electric_scooter", "is_disabled": 0, "fusion_lon": 0.0, "fusion_lat": 0.0, "lon": -77.02087133333333, "is_reserved": 0, "rental_uris": {"android": "https://dc.lft.to/lastmile_qr_scan", "ios": "https://dc.lft.to/lastmile_qr_scan"}, "bike_id": "a3b813597c06bdc46bd2a69ac9267a44"}, {"name": "9852f9f9c75e817f04d612ee14502ea9", "lat": 38.9118245, "type": "electric_scooter", "is_disabled": 0, "fusion_lon": 0.0, "fusion_lat": 0.0, "lon": -77.04458783333334, "is_reserved": 0, "rental_uris": {"android": "https://dc.lft.to/lastmile_qr_scan", "ios": "https://dc.lft.to/lastmile_qr_scan"}, "bike_id": "9852f9f9c75e817f04d612ee14502ea9"}, {"name": "c27d0880ef0345c4967b57b3efd8186e", "lat": 38.9002835, "type": "electric_scooter", "is_disabled": 0, "fusion_lon": 0.0, "fusion_lat": 0.0, "lon": -76.9940805, "is_reserved": 0, "rental_uris": {"android": "https://dc.lft.to/lastmile_qr_scan", "ios": "https://dc.lft.to/lastmile_qr_scan"}, "bike_id": "c27d0880ef0345c4967b57b3efd8186e"}, {"name": "81ff49d2bfc16d257efacfd71c7bd5ac", "lat": 38.99831316666667, "type": "electric_bike", "is_disabled": 0, "fusion_lon": 0.0, "fusion_lat": 0.0, "lon": -76.99788433333333, "is_reserved": 0, "rental_uris": {"android": "https://dc.lft.to/lastmile_qr_scan", "ios": "https://dc.lft.to/lastmile_qr_scan"}, "bike_id": "81ff49d2bfc16d257efacfd71c7bd5ac"}, {"name": "6a94b6d8b48f6601f6a4865f8e84a463", "lat": 38.924930833333335, "type": "electric_scooter", "is_disabled": 0, "fusion_lon": 0.0, "fusion_lat": 0.0, "lon": -77.02179233333334, "is_reserved": 0, "rental_uris": {"android": "https://dc.lft.to/lastmile_qr_scan", "ios": "https://dc.lft.to/lastmile_qr_scan"}, "bike_id": "6a94b6d8b48f6601f6a4865f8e84a463"}, {"name": "6af2096af8f2986d64d4ee7566213cf9", "lat": 38.92213866666667, "type": "electric_scooter", "is_disabled": 0, "fusion_lon": 0.0, "fusion_lat": 0.0, "lon": -77.01826366666667, "is_reserved": 0, "rental_uris": {"android": "https://dc.lft.to/lastmile_qr_scan", "ios": "https://dc.lft.to/lastmile_qr_scan"}, "bike_id": "6af2096af8f2986d64d4ee7566213cf9"}, {"name": "b006fb09a06ab445a2950e720b04ef11", "lat": 38.8990005, "type": "electric_scooter", "is_disabled": 0, "fusion_lon": 0.0, "fusion_lat": 0.0, "lon": -77.0328005, "is_reserved": 0, "rental_uris": {"android": "https://dc.lft.to/lastmile_qr_scan", "ios": "https://dc.lft.to/lastmile_qr_scan"}, "bike_id": "b006fb09a06ab445a2950e720b04ef11"}, {"name": "995d8e09d39e2ec047fa596834f48625", "lat": 38.91833483333333, "type": "electric_scooter", "is_disabled": 0, "fusion_lon": 0.0, "fusion_lat": 0.0, "lon": -77.03446683333334, "is_reserved": 0, "rental_uris": {"android": "https://dc.lft.to/lastmile_qr_scan", "ios": "https://dc.lft.to/lastmile_qr_scan"}, "bike_id": "995d8e09d39e2ec047fa596834f48625"}, {"name": "7fa10bd37355fb9ab3dd7b4bd3b28574", "lat": 38.92149366666666, "type": "electric_scooter", "is_disabled": 0, "fusion_lon": 0.0, "fusion_lat": 0.0, "lon": -77.02095816666667, "is_reserved": 0, "rental_uris": {"android": "https://dc.lft.to/lastmile_qr_scan", "ios": "https://dc.lft.to/lastmile_qr_scan"}, "bike_id": "7fa10bd37355fb9ab3dd7b4bd3b28574"}, {"name": "89363dde27f381c6c65134fc4b469d93", "lat": 38.92260266666667, "type": "electric_scooter", "is_disabled": 0, "fusion_lon": 0.0, "fusion_lat": 0.0, "lon": -77.0319425, "is_reserved": 0, "rental_uris": {"android": "https://dc.lft.to/lastmile_qr_scan", "ios": "https://dc.lft.to/lastmile_qr_scan"}, "bike_id": "89363dde27f381c6c65134fc4b469d93"}, {"name": "57aa3427aa2d6cad5018d79bfd304bee", "lat": 38.906567, "type": "electric_scooter", "is_disabled": 0, "fusion_lon": 0.0, "fusion_lat": 0.0, "lon": -76.98593883333334, "is_reserved": 0, "rental_uris": {"android": "https://dc.lft.to/lastmile_qr_scan", "ios": "https://dc.lft.to/lastmile_qr_scan"}, "bike_id": "57aa3427aa2d6cad5018d79bfd304bee"}, {"name": "debc71251c439969274bd99fcdea3bc7", "lat": 38.90549716666666, "type": "electric_scooter", "is_disabled": 0, "fusion_lon": 0.0, "fusion_lat": 0.0, "lon": -77.042879, "is_reserved": 0, "rental_uris": {"android": "https://dc.lft.to/lastmile_qr_scan", "ios": "https://dc.lft.to/lastmile_qr_scan"}, "bike_id": "debc71251c439969274bd99fcdea3bc7"}, {"name": "9aa20b97a4c3110262b1df55bde1c921", "lat": 38.8956315, "type": "electric_scooter", "is_disabled": 0, "fusion_lon": 0.0, "fusion_lat": 0.0, "lon": -77.0273045, "is_reserved": 0, "rental_uris": {"android": "https://dc.lft.to/lastmile_qr_scan", "ios": "https://dc.lft.to/lastmile_qr_scan"}, "bike_id": "9aa20b97a4c3110262b1df55bde1c921"}, {"name": "fadbaaa0672e59320bec0cc1f5375e7f", "lat": 38.9067035, "type": "electric_scooter", "is_disabled": 0, "fusion_lon": 0.0, "fusion_lat": 0.0, "lon": -77.07332133333334, "is_reserved": 0, "rental_uris": {"android": "https://dc.lft.to/lastmile_qr_scan", "ios": "https://dc.lft.to/lastmile_qr_scan"}, "bike_id": "fadbaaa0672e59320bec0cc1f5375e7f"}, {"name": "6d8e7f2168bf4ec98d2be39eb460fecd", "lat": 38.9233215, "type": "electric_scooter", "is_disabled": 0, "fusion_lon": 0.0, "fusion_lat": 0.0, "lon": -77.022888, "is_reserved": 0, "rental_uris": {"android": "https://dc.lft.to/lastmile_qr_scan", "ios": "https://dc.lft.to/lastmile_qr_scan"}, "bike_id": "6d8e7f2168bf4ec98d2be39eb460fecd"}, {"name": "9200ddd20d087b1b7b12c0813d79315a", "lat": 38.89365866666667, "type": "electric_scooter", "is_disabled": 0, "fusion_lon": 0.0, "fusion_lat": 0.0, "lon": -77.047731, "is_reserved": 0, "rental_uris": {"android": "https://dc.lft.to/lastmile_qr_scan", "ios": "https://dc.lft.to/lastmile_qr_scan"}, "bike_id": "9200ddd20d087b1b7b12c0813d79315a"}, {"name": "8cfa4dc53fbfc1e1f7e5306fccff8989", "lat": 38.902180333333334, "type": "electric_scooter", "is_disabled": 0, "fusion_lon": 0.0, "fusion_lat": 0.0, "lon": -77.02320716666667, "is_reserved": 0, "rental_uris": {"android": "https://dc.lft.to/lastmile_qr_scan", "ios": "https://dc.lft.to/lastmile_qr_scan"}, "bike_id": "8cfa4dc53fbfc1e1f7e5306fccff8989"}, {"name": "88de061a3b0df8ad754f0e0071cead01", "lat": 38.89222483333333, "type": "electric_scooter", "is_disabled": 0, "fusion_lon": 0.0, "fusion_lat": 0.0, "lon": -77.04496983333334, "is_reserved": 0, "rental_uris": {"android": "https://dc.lft.to/lastmile_qr_scan", "ios": "https://dc.lft.to/lastmile_qr_scan"}, "bike_id": "88de061a3b0df8ad754f0e0071cead01"}, {"name": "dcd579e43a79518ca2cdad89ba380ae9", "lat": 38.89961533333334, "type": "electric_scooter", "is_disabled": 0, "fusion_lon": 0.0, "fusion_lat": 0.0, "lon": -77.0225865, "is_reserved": 0, "rental_uris": {"android": "https://dc.lft.to/lastmile_qr_scan", "ios": "https://dc.lft.to/lastmile_qr_scan"}, "bike_id": "dcd579e43a79518ca2cdad89ba380ae9"}, {"name": "1831a48caad1e6eb0ac2ff13ac0229be", "lat": 38.91671266666667, "type": "electric_scooter", "is_disabled": 0, "fusion_lon": 0.0, "fusion_lat": 0.0, "lon": -77.0346255, "is_reserved": 0, "rental_uris": {"android": "https://dc.lft.to/lastmile_qr_scan", "ios": "https://dc.lft.to/lastmile_qr_scan"}, "bike_id": "1831a48caad1e6eb0ac2ff13ac0229be"}, {"name": "3624bc8a3ea0f367ca70ad3790cff44c", "lat": 38.923255166666664, "type": "electric_scooter", "is_disabled": 0, "fusion_lon": 0.0, "fusion_lat": 0.0, "lon": -77.04307583333333, "is_reserved": 0, "rental_uris": {"android": "https://dc.lft.to/lastmile_qr_scan", "ios": "https://dc.lft.to/lastmile_qr_scan"}, "bike_id": "3624bc8a3ea0f367ca70ad3790cff44c"}, {"name": "1429408849a49cf23a5acca02850e456", "lat": 38.90259666666667, "type": "electric_scooter", "is_disabled": 0, "fusion_lon": 0.0, "fusion_lat": 0.0, "lon": -77.0394965, "is_reserved": 0, "rental_uris": {"android": "https://dc.lft.to/lastmile_qr_scan", "ios": "https://dc.lft.to/lastmile_qr_scan"}, "bike_id": "1429408849a49cf23a5acca02850e456"}, {"name": "0a9772743a09bad68cc51dbc976b8dd4", "lat": 38.91417716666667, "type": "electric_scooter", "is_disabled": 0, "fusion_lon": 0.0, "fusion_lat": 0.0, "lon": -77.0316975, "is_reserved": 0, "rental_uris": {"android": "https://dc.lft.to/lastmile_qr_scan", "ios": "https://dc.lft.to/lastmile_qr_scan"}, "bike_id": "0a9772743a09bad68cc51dbc976b8dd4"}, {"name": "719f5e70493a0248ca995482a629d0e2", "lat": 38.924023, "type": "electric_scooter", "is_disabled": 0, "fusion_lon": 0.0, "fusion_lat": 0.0, "lon": -77.02979866666666, "is_reserved": 0, "rental_uris": {"android": "https://dc.lft.to/lastmile_qr_scan", "ios": "https://dc.lft.to/lastmile_qr_scan"}, "bike_id": "719f5e70493a0248ca995482a629d0e2"}, {"name": "22020628bccd070c959b5d2a4788977e", "lat": 38.87173833333333, "type": "electric_bike", "is_disabled": 0, "fusion_lon": 0.0, "fusion_lat": 0.0, "lon": -77.23388133333333, "is_reserved": 0, "rental_uris": {"android": "https://dc.lft.to/lastmile_qr_scan", "ios": "https://dc.lft.to/lastmile_qr_scan"}, "bike_id": "22020628bccd070c959b5d2a4788977e"}, {"name": "9ead91895f513f6ae5d62c7e25701be3", "lat": 38.903166666666664, "type": "electric_scooter", "is_disabled": 0, "fusion_lon": 0.0, "fusion_lat": 0.0, "lon": -76.99262616666667, "is_reserved": 0, "rental_uris": {"android": "https://dc.lft.to/lastmile_qr_scan", "ios": "https://dc.lft.to/lastmile_qr_scan"}, "bike_id": "9ead91895f513f6ae5d62c7e25701be3"}, {"name": "bd2947d31a64a4fef7420f7cb7d4b1e1", "lat": 38.87542833333333, "type": "electric_scooter", "is_disabled": 0, "fusion_lon": 0.0, "fusion_lat": 0.0, "lon": -77.00602933333333, "is_reserved": 0, "rental_uris": {"android": "https://dc.lft.to/lastmile_qr_scan", "ios": "https://dc.lft.to/lastmile_qr_scan"}, "bike_id": "bd2947d31a64a4fef7420f7cb7d4b1e1"}, {"name": "1122a2a9f619e19da959ab4c78ae33cc", "lat": 38.807425333333335, "type": "electric_bike", "is_disabled": 0, "fusion_lon": 0.0, "fusion_lat": 0.0, "lon": -77.09681466666666, "is_reserved": 0, "rental_uris": {"android": "https://dc.lft.to/lastmile_qr_scan", "ios": "https://dc.lft.to/lastmile_qr_scan"}, "bike_id": "1122a2a9f619e19da959ab4c78ae33cc"}, {"name": "4c5d10523b99477ab9351901033268a3", "lat": 38.9253655, "type": "electric_scooter", "is_disabled": 0, "fusion_lon": 0.0, "fusion_lat": 0.0, "lon": -77.033937, "is_reserved": 0, "rental_uris": {"android": "https://dc.lft.to/lastmile_qr_scan", "ios": "https://dc.lft.to/lastmile_qr_scan"}, "bike_id": "4c5d10523b99477ab9351901033268a3"}, {"name": "0180d8c70d12866ed03b2abbdd69465d", "lat": 38.900533333333335, "type": "electric_scooter", "is_disabled": 0, "fusion_lon": 0.0, "fusion_lat": 0.0, "lon": -76.98509916666667, "is_reserved": 0, "rental_uris": {"android": "https://dc.lft.to/lastmile_qr_scan", "ios": "https://dc.lft.to/lastmile_qr_scan"}, "bike_id": "0180d8c70d12866ed03b2abbdd69465d"}, {"name": "3a8b481b7fa8e3cac58cd5f1ab1a4d16", "lat": 38.9026705, "type": "electric_scooter", "is_disabled": 0, "fusion_lon": 0.0, "fusion_lat": 0.0, "lon": -77.0385645, "is_reserved": 0, "rental_uris": {"android": "https://dc.lft.to/lastmile_qr_scan", "ios": "https://dc.lft.to/lastmile_qr_scan"}, "bike_id": "3a8b481b7fa8e3cac58cd5f1ab1a4d16"}, {"name": "02c516d89ab2e2fcbc8faa17985fe5f5", "lat": 38.9212375, "type": "electric_scooter", "is_disabled": 0, "fusion_lon": 0.0, "fusion_lat": 0.0, "lon": -77.02128583333334, "is_reserved": 0, "rental_uris": {"android": "https://dc.lft.to/lastmile_qr_scan", "ios": "https://dc.lft.to/lastmile_qr_scan"}, "bike_id": "02c516d89ab2e2fcbc8faa17985fe5f5"}, {"name": "87cd756189b10626ad851e68bc689bba", "lat": 38.92362166666667, "type": "electric_scooter", "is_disabled": 0, "fusion_lon": 0.0, "fusion_lat": 0.0, "lon": -77.03402383333334, "is_reserved": 0, "rental_uris": {"android": "https://dc.lft.to/lastmile_qr_scan", "ios": "https://dc.lft.to/lastmile_qr_scan"}, "bike_id": "87cd756189b10626ad851e68bc689bba"}, {"name": "6b6deaf175a70b229067add579cce87b", "lat": 38.915707833333336, "type": "electric_scooter", "is_disabled": 0, "fusion_lon": 0.0, "fusion_lat": 0.0, "lon": -77.034606, "is_reserved": 0, "rental_uris": {"android": "https://dc.lft.to/lastmile_qr_scan", "ios": "https://dc.lft.to/lastmile_qr_scan"}, "bike_id": "6b6deaf175a70b229067add579cce87b"}, {"name": "67fa63df1d38f3d53478775591ffe5e4", "lat": 38.87276833333333, "type": "electric_scooter", "is_disabled": 0, "fusion_lon": 0.0, "fusion_lat": 0.0, "lon": -77.01517383333334, "is_reserved": 0, "rental_uris": {"android": "https://dc.lft.to/lastmile_qr_scan", "ios": "https://dc.lft.to/lastmile_qr_scan"}, "bike_id": "67fa63df1d38f3d53478775591ffe5e4"}, {"name": "db5778da2fdef24a9890b9559b7c7e31", "lat": 38.94411683333333, "type": "electric_scooter", "is_disabled": 0, "fusion_lon": 0.0, "fusion_lat": 0.0, "lon": -77.01904, "is_reserved": 0, "rental_uris": {"android": "https://dc.lft.to/lastmile_qr_scan", "ios": "https://dc.lft.to/lastmile_qr_scan"}, "bike_id": "db5778da2fdef24a9890b9559b7c7e31"}, {"name": "5177d875422bc3d6289795aa119f0809", "lat": 38.892807, "type": "electric_scooter", "is_disabled": 0, "fusion_lon": 0.0, "fusion_lat": 0.0, "lon": -77.05039166666667, "is_reserved": 0, "rental_uris": {"android": "https://dc.lft.to/lastmile_qr_scan", "ios": "https://dc.lft.to/lastmile_qr_scan"}, "bike_id": "5177d875422bc3d6289795aa119f0809"}, {"name": "25d74fcdbcae4549cede5f8cc7203b65", "lat": 38.921785, "type": "electric_scooter", "is_disabled": 0, "fusion_lon": 0.0, "fusion_lat": 0.0, "lon": -77.03528733333333, "is_reserved": 0, "rental_uris": {"android": "https://dc.lft.to/lastmile_qr_scan", "ios": "https://dc.lft.to/lastmile_qr_scan"}, "bike_id": "25d74fcdbcae4549cede5f8cc7203b65"}, {"name": "12b4e9a5b9afd0c4db74092b88ad5057", "lat": 38.89800566666667, "type": "electric_scooter", "is_disabled": 0, "fusion_lon": 0.0, "fusion_lat": 0.0, "lon": -77.046166, "is_reserved": 0, "rental_uris": {"android": "https://dc.lft.to/lastmile_qr_scan", "ios": "https://dc.lft.to/lastmile_qr_scan"}, "bike_id": "12b4e9a5b9afd0c4db74092b88ad5057"}, {"name": "f7c313e3907cad9d023803de771a565e", "lat": 38.912965666666665, "type": "electric_scooter", "is_disabled": 0, "fusion_lon": 0.0, "fusion_lat": 0.0, "lon": -77.03842883333333, "is_reserved": 0, "rental_uris": {"android": "https://dc.lft.to/lastmile_qr_scan", "ios": "https://dc.lft.to/lastmile_qr_scan"}, "bike_id": "f7c313e3907cad9d023803de771a565e"}, {"name": "f2ad88b33ce473a3548d403483c4f6df", "lat": 38.924418833333334, "type": "electric_scooter", "is_disabled": 0, "fusion_lon": 0.0, "fusion_lat": 0.0, "lon": -77.0194325, "is_reserved": 0, "rental_uris": {"android": "https://dc.lft.to/lastmile_qr_scan", "ios": "https://dc.lft.to/lastmile_qr_scan"}, "bike_id": "f2ad88b33ce473a3548d403483c4f6df"}, {"name": "10b588eeb05f998d7b5eca19ebf1cc1e", "lat": 38.894975333333335, "type": "electric_scooter", "is_disabled": 0, "fusion_lon": 0.0, "fusion_lat": 0.0, "lon": -76.94872283333333, "is_reserved": 0, "rental_uris": {"android": "https://dc.lft.to/lastmile_qr_scan", "ios": "https://dc.lft.to/lastmile_qr_scan"}, "bike_id": "10b588eeb05f998d7b5eca19ebf1cc1e"}, {"name": "68d48aaf4b775eb0c5edecaadafa73bd", "lat": 38.920519666666664, "type": "electric_scooter", "is_disabled": 0, "fusion_lon": 0.0, "fusion_lat": 0.0, "lon": -77.04238083333334, "is_reserved": 0, "rental_uris": {"android": "https://dc.lft.to/lastmile_qr_scan", "ios": "https://dc.lft.to/lastmile_qr_scan"}, "bike_id": "68d48aaf4b775eb0c5edecaadafa73bd"}, {"name": "936cd0c1d3f73d0f05fbbca610169517", "lat": 38.917063166666665, "type": "electric_scooter", "is_disabled": 0, "fusion_lon": 0.0, "fusion_lat": 0.0, "lon": -77.0387235, "is_reserved": 0, "rental_uris": {"android": "https://dc.lft.to/lastmile_qr_scan", "ios": "https://dc.lft.to/lastmile_qr_scan"}, "bike_id": "936cd0c1d3f73d0f05fbbca610169517"}, {"name": "407174d2d63eb456d6e16556147b257c", "lat": 38.9346945, "type": "electric_scooter", "is_disabled": 0, "fusion_lon": 0.0, "fusion_lat": 0.0, "lon": -76.98870466666666, "is_reserved": 0, "rental_uris": {"android": "https://dc.lft.to/lastmile_qr_scan", "ios": "https://dc.lft.to/lastmile_qr_scan"}, "bike_id": "407174d2d63eb456d6e16556147b257c"}, {"name": "d32f93cd77e4a728ddbf192386ebed84", "lat": 38.89603183333333, "type": "electric_scooter", "is_disabled": 0, "fusion_lon": 0.0, "fusion_lat": 0.0, "lon": -77.0225275, "is_reserved": 0, "rental_uris": {"android": "https://dc.lft.to/lastmile_qr_scan", "ios": "https://dc.lft.to/lastmile_qr_scan"}, "bike_id": "d32f93cd77e4a728ddbf192386ebed84"}, {"name": "63b81ebd85d68d1bf54de39306af3690", "lat": 38.90561266666667, "type": "electric_scooter", "is_disabled": 0, "fusion_lon": 0.0, "fusion_lat": 0.0, "lon": -77.04240266666666, "is_reserved": 0, "rental_uris": {"android": "https://dc.lft.to/lastmile_qr_scan", "ios": "https://dc.lft.to/lastmile_qr_scan"}, "bike_id": "63b81ebd85d68d1bf54de39306af3690"}, {"name": "e2af8722c5c3beed34d91c0a386c4282", "lat": 38.897502833333334, "type": "electric_scooter", "is_disabled": 0, "fusion_lon": 0.0, "fusion_lat": 0.0, "lon": -77.029627, "is_reserved": 0, "rental_uris": {"android": "https://dc.lft.to/lastmile_qr_scan", "ios": "https://dc.lft.to/lastmile_qr_scan"}, "bike_id": "e2af8722c5c3beed34d91c0a386c4282"}, {"name": "af0015eb2576910ebffe126ef8e776a1", "lat": 38.921686, "type": "electric_scooter", "is_disabled": 0, "fusion_lon": 0.0, "fusion_lat": 0.0, "lon": -77.0267925, "is_reserved": 0, "rental_uris": {"android": "https://dc.lft.to/lastmile_qr_scan", "ios": "https://dc.lft.to/lastmile_qr_scan"}, "bike_id": "af0015eb2576910ebffe126ef8e776a1"}, {"name": "b5e23b12fa97e15405e045c5b9f71fb1", "lat": 38.916885, "type": "electric_scooter", "is_disabled": 0, "fusion_lon": 0.0, "fusion_lat": 0.0, "lon": -77.0295115, "is_reserved": 0, "rental_uris": {"android": "https://dc.lft.to/lastmile_qr_scan", "ios": "https://dc.lft.to/lastmile_qr_scan"}, "bike_id": "b5e23b12fa97e15405e045c5b9f71fb1"}, {"name": "cc5d84d6e44a1922117551e86b1a9935", "lat": 38.881038833333335, "type": "electric_scooter", "is_disabled": 0, "fusion_lon": 0.0, "fusion_lat": 0.0, "lon": -77.0265385, "is_reserved": 0, "rental_uris": {"android": "https://dc.lft.to/lastmile_qr_scan", "ios": "https://dc.lft.to/lastmile_qr_scan"}, "bike_id": "cc5d84d6e44a1922117551e86b1a9935"}, {"name": "be6fbc29a451e1963f2697d6df06cf55", "lat": 38.902629, "type": "electric_scooter", "is_disabled": 0, "fusion_lon": 0.0, "fusion_lat": 0.0, "lon": -77.028026, "is_reserved": 0, "rental_uris": {"android": "https://dc.lft.to/lastmile_qr_scan", "ios": "https://dc.lft.to/lastmile_qr_scan"}, "bike_id": "be6fbc29a451e1963f2697d6df06cf55"},