{"data": {"bikes": [{"is_disabled": 0, "fusion_lon": 0.0, "fusion_lat": 0.0, "lat": 38.9256015, "type": "electric_scooter", "lon": -77.02565666666666, "bike_id": "f0d2ed3d2476a2d886b2db91be27c586", "rental_uris": {"android": "https://dc.lft.to/lastmile_qr_scan", "ios": "https://dc.lft.to/lastmile_qr_scan"}, "name": "f0d2ed3d2476a2d886b2db91be27c586", "is_reserved": 0}, {"is_disabled": 0, "fusion_lon": 0.0, "fusion_lat": 0.0, "lat": 38.918140666666666, "type": "electric_scooter", "lon": -77.02394183333334, "bike_id": "884830cdaaced95fe89b41e2bbebafba", "rental_uris": {"android": "https://dc.lft.to/lastmile_qr_scan", "ios": "https://dc.lft.to/lastmile_qr_scan"}, "name": "884830cdaaced95fe89b41e2bbebafba", "is_reserved": 0}, {"is_disabled": 0, "fusion_lon": 0.0, "fusion_lat": 0.0, "lat": 38.92824933333333, "type": "electric_scooter", "lon": -77.0225455, "bike_id": "33c57fc6e6154fc88af175847c60a689", "rental_uris": {"android": "https://dc.lft.to/lastmile_qr_scan", "ios": "https://dc.lft.to/lastmile_qr_scan"}, "name": "33c57fc6e6154fc88af175847c60a689", "is_reserved": 0}, {"is_disabled": 0, "fusion_lon": 0.0, "fusion_lat": 0.0, "lat": 38.906698, "type": "electric_scooter", "lon": -77.0271975, "bike_id": "843a404dac81015b922cc78596fde772", "rental_uris": {"android": "https://dc.lft.to/lastmile_qr_scan", "ios": "https://dc.lft.to/lastmile_qr_scan"}, "name": "843a404dac81015b922cc78596fde772", "is_reserved": 0}, {"is_disabled": 0, "fusion_lon": 0.0, "fusion_lat": 0.0, "lat": 38.86963983333333, "type": "electric_scooter", "lon": -76.97933633333334, "bike_id": "066a67b66b36333599fd04ac6a8b1a68", "rental_uris": {"android": "https://dc.lft.to/lastmile_qr_scan", "ios": "https://dc.lft.to/lastmile_qr_scan"}, "name": "066a67b66b36333599fd04ac6a8b1a68", "is_reserved": 0}, {"is_disabled": 0, "fusion_lon": 0.0, "fusion_lat": 0.0, "lat": 38.928452666666665, "type": "electric_scooter", "lon": -77.05629383333333, "bike_id": "62705811edcfc8419df6a99473c4b4ef", "rental_uris": {"android": "https://dc.lft.to/lastmile_qr_scan", "ios": "https://dc.lft.to/lastmile_qr_scan"}, "name": "62705811edcfc8419df6a99473c4b4ef", "is_reserved": 0}, {"is_disabled": 0, "fusion_lon": 0.0, "fusion_lat": 0.0, "lat": 38.91853916666667, "type": "electric_bike", "lon": -76.96087833333333, "bike_id": "93cd7f393817bd1fc10dfbdcc459ff5c", "rental_uris": {"android": "https://dc.lft.to/lastmile_qr_scan", "ios": "https://dc.lft.to/lastmile_qr_scan"}, "name": "93cd7f393817bd1fc10dfbdcc459ff5c", "is_reserved": 0}, {"is_disabled": 0, "fusion_lon": 0.0, "fusion_lat": 0.0, "lat": 38.91700633333333, "type": "electric_scooter", "lon": -77.04302633333333, "bike_id": "5ff14ce14c712feb180f17a671f7ed54", "rental_uris": {"android": "https://dc.lft.to/lastmile_qr_scan", "ios": "https://dc.lft.to/lastmile_qr_scan"}, "name": "5ff14ce14c712feb180f17a671f7ed54", "is_reserved": 0}, {"is_disabled": 0, "fusion_lon": 0.0, "fusion_lat": 0.0, "lat": 38.9454985, "type": "electric_scooter", "lon": -77.04245033333333, "bike_id": "1ab770a05442f8f3d3473a3fb986001a", "rental_uris": {"android": "https://dc.lft.to/lastmile_qr_scan", "ios": "https://dc.lft.to/lastmile_qr_scan"}, "name": "1ab770a05442f8f3d3473a3fb986001a", "is_reserved": 0}, {"is_disabled": 0, "fusion_lon": 0.0, "fusion_lat": 0.0, "lat": 38.917986166666665, "type": "electric_scooter", "lon": -77.034537, "bike_id": "1f8950eec28b4564796e165a8324d28c", "rental_uris": {"android": "https://dc.lft.to/lastmile_qr_scan", "ios": "https://dc.lft.to/lastmile_qr_scan"}, "name": "1f8950eec28b4564796e165a8324d28c", "is_reserved": 0}, {"is_disabled": 0, "fusion_lon": 0.0, "fusion_lat": 0.0, "lat": 38.90489866666667, "type": "electric_scooter", "lon": -77.02732483333334, "bike_id": "98f3cbcd4aafffd172dcfd818cc0a349", "rental_uris": {"android": "https://dc.lft.to/lastmile_qr_scan", "ios": "https://dc.lft.to/lastmile_qr_scan"}, "name": "98f3cbcd4aafffd172dcfd818cc0a349", "is_reserved": 0}, {"is_disabled": 0, "fusion_lon": 0.0, "fusion_lat": 0.0, "lat": 38.910871, "type": "electric_bike", "lon": -77.00496333333334, "bike_id": "7f244ccf46e430d5272889935b8f135d", "rental_uris": {"android": "https://dc.lft.to/lastmile_qr_scan", "ios": "https://dc.lft.to/lastmile_qr_scan"}, "name": "7f244ccf46e430d5272889935b8f135d", "is_reserved": 0}, {"is_disabled": 0, "fusion_lon": 0.0, "fusion_lat": 0.0, "lat": 38.929606166666666, "type": "electric_scooter", "lon": -77.02339166666667, "bike_id": "b8872e9b27f3c522f56ccd00b286a56e", "rental_uris": {"android": "https://dc.lft.to/lastmile_qr_scan", "ios": "https://dc.lft.to/lastmile_qr_scan"}, "name": "b8872e9b27f3c522f56ccd00b286a56e", "is_reserved": 0}, {"is_disabled": 0, "fusion_lon": 0.0, "fusion_lat": 0.0, "lat": 38.92745566666667, "type": "electric_scooter", "lon": -77.025319, "bike_id": "3d83bf1f00ac50ae2f141fc846215aff", "rental_uris": {"android": "https://dc.lft.to/lastmile_qr_scan", "ios": "https://dc.lft.to/lastmile_qr_scan"}, "name": "3d83bf1f00ac50ae2f141fc846215aff", "is_reserved": 0}, {"is_disabled": 0, "fusion_lon": 0.0, "fusion_lat": 0.0, "lat": 38.87678866666667, "type": "electric_scooter", "lon": -77.01788233333333, "bike_id": "b77321563c92c40fe79235df68e594ea", "rental_uris": {"android": "https://dc.lft.to/lastmile_qr_scan", "ios": "https://dc.lft.to/lastmile_qr_scan"}, "name": "b77321563c92c40fe79235df68e594ea", "is_reserved": 0}, {"is_disabled": 0, "fusion_lon": 0.0, "fusion_lat": 0.0, "lat": 38.914989, "type": "electric_scooter", "lon": -76.98367, "bike_id": "3e6284b55b369fbb8b6a14bb6915d1e9", "rental_uris": {"android": "https://dc.lft.to/lastmile_qr_scan", "ios": "https://dc.lft.to/lastmile_qr_scan"}, "name": "3e6284b55b369fbb8b6a14bb6915d1e9", "is_reserved": 0}, {"is_disabled": 0, "fusion_lon": 0.0, "fusion_lat": 0.0, "lat": 38.870839833333335, "type": "electric_bike", "lon": -77.01211366666666, "bike_id": "e5074320311fe88cb6ea00e1d00da1a6", "rental_uris": {"android": "https://dc.lft.to/lastmile_qr_scan", "ios": "https://dc.lft.to/lastmile_qr_scan"}, "name": "e5074320311fe88cb6ea00e1d00da1a6", "is_reserved": 0}, {"is_disabled": 0, "fusion_lon": 0.0, "fusion_lat": 0.0, "lat": 38.926647833333334, "type": "electric_scooter", "lon": -77.04300883333333, "bike_id": "ba7d690e7c8ad2cd33d8b37f4736fa08", "rental_uris": {"android": "https://dc.lft.to/lastmile_qr_scan", "ios": "https://dc.lft.to/lastmile_qr_scan"}, "name": "ba7d690e7c8ad2cd33d8b37f4736fa08", "is_reserved": 0}, {"is_disabled": 0, "fusion_lon": 0.0, "fusion_lat": 0.0, "lat": 38.905744166666665, "type": "electric_scooter", "lon": -77.02463516666667, "bike_id": "13bbb95e177c62ecd4018e3328afb82d", "rental_uris": {"android": "https://dc.lft.to/lastmile_qr_scan", "ios": "https://dc.lft.to/lastmile_qr_scan"}, "name": "13bbb95e177c62ecd4018e3328afb82d", "is_reserved": 0}, {"is_disabled": 0, "fusion_lon": 0.0, "fusion_lat": 0.0, "lat": 38.9327745, "type": "electric_scooter", "lon": -76.974199, "bike_id": "58ec91722b69611b1744e6292f94a97b", "rental_uris": {"android": "https://dc.lft.to/lastmile_qr_scan", "ios": "https://dc.lft.to/lastmile_qr_scan"}, "name": "58ec91722b69611b1744e6292f94a97b", "is_reserved": 0}, {"is_disabled": 0, "fusion_lon": 0.0, "fusion_lat": 0.0, "lat": 38.905114833333336, "type": "electric_bike", "lon": -76.9812775, "bike_id": "b979b6d3028b6885546950f9d89c07d4", "rental_uris": {"android": "https://dc.lft.to/lastmile_qr_scan", "ios": "https://dc.lft.to/lastmile_qr_scan"}, "name": "b979b6d3028b6885546950f9d89c07d4", "is_reserved": 0}, {"is_disabled": 0, "fusion_lon": 0.0, "fusion_lat": 0.0, "lat": 38.9275695, "type": "electric_scooter", "lon": -77.00591366666667, "bike_id": "095f21deaa330accc9614117cd1b944d", "rental_uris": {"android": "https://dc.lft.to/lastmile_qr_scan", "ios": "https://dc.lft.to/lastmile_qr_scan"}, "name": "095f21deaa330accc9614117cd1b944d", "is_reserved": 0}, {"is_disabled": 0, "fusion_lon": 0.0, "fusion_lat": 0.0, "lat": 38.9077005, "type": "electric_scooter", "lon": -77.06316716666667, "bike_id": "f29745228a14d3059ba7a5de1c68c4f0", "rental_uris": {"android": "https://dc.lft.to/lastmile_qr_scan", "ios": "https://dc.lft.to/lastmile_qr_scan"}, "name": "f29745228a14d3059ba7a5de1c68c4f0", "is_reserved": 0}, {"is_disabled": 0, "fusion_lon": 0.0, "fusion_lat": 0.0, "lat": 38.852130333333335, "type": "electric_bike", "lon": -77.10128716666667, "bike_id": "4317dafe9df71c1befcedc9141023de4", "rental_uris": {"android": "https://dc.lft.to/lastmile_qr_scan", "ios": "https://dc.lft.to/lastmile_qr_scan"}, "name": "4317dafe9df71c1befcedc9141023de4", "is_reserved": 0}, {"is_disabled": 0, "fusion_lon": 0.0, "fusion_lat": 0.0, "lat": 38.924556333333335, "type": "electric_scooter", "lon": -76.99901233333334, "bike_id": "8635ab2c5f8324473ff98df30c9cfe31", "rental_uris": {"android": "https://dc.lft.to/lastmile_qr_scan", "ios": "https://dc.lft.to/lastmile_qr_scan"}, "name": "8635ab2c5f8324473ff98df30c9cfe31", "is_reserved": 0}, {"is_disabled": 0, "fusion_lon": 0.0, "fusion_lat": 0.0, "lat": 38.94198566666667, "type": "electric_scooter", "lon": -77.0257795, "bike_id": "ef05f334a35a78c6a81b64f944ec86b4", "rental_uris": {"android": "https://dc.lft.to/lastmile_qr_scan", "ios": "https://dc.lft.to/lastmile_qr_scan"}, "name": "ef05f334a35a78c6a81b64f944ec86b4", "is_reserved": 0}, {"is_disabled": 0, "fusion_lon": 0.0, "fusion_lat": 0.0, "lat": 38.91417783333333, "type": "electric_scooter", "lon": -77.04328016666666, "bike_id": "b236b725a019df1de388bc3e2db03ed3", "rental_uris": {"android": "https://dc.lft.to/lastmile_qr_scan", "ios": "https://dc.lft.to/lastmile_qr_scan"}, "name": "b236b725a019df1de388bc3e2db03ed3", "is_reserved": 0}, {"is_disabled": 0, "fusion_lon": 0.0, "fusion_lat": 0.0, "lat": 38.911164666666664, "type": "electric_scooter", "lon": -77.03722616666667, "bike_id": "8387d5947ca54952d0a03d17b78e6346", "rental_uris": {"android": "https://dc.lft.to/lastmile_qr_scan", "ios": "https://dc.lft.to/lastmile_qr_scan"}, "name": "8387d5947ca54952d0a03d17b78e6346", "is_reserved": 0}, {"is_disabled": 0, "fusion_lon": 0.0, "fusion_lat": 0.0, "lat": 38.94975783333334, "type": "electric_scooter", "lon": -77.06765, "bike_id": "12d679b5de44f9d2f854fbd16bf15073", "rental_uris": {"android": "https://dc.lft.to/lastmile_qr_scan", "ios": "https://dc.lft.to/lastmile_qr_scan"}, "name": "12d679b5de44f9d2f854fbd16bf15073", "is_reserved": 0}, {"is_disabled": 0, "fusion_lon": 0.0, "fusion_lat": 0.0, "lat": 38.933292333333334, "type": "electric_scooter", "lon": -77.0292595, "bike_id": "5b583cab07af671bd8fcd0551ad66cb4", "rental_uris": {"android": "https://dc.lft.to/lastmile_qr_scan", "ios": "https://dc.lft.to/lastmile_qr_scan"}, "name": "5b583cab07af671bd8fcd0551ad66cb4", "is_reserved": 0}, {"is_disabled": 0, "fusion_lon": 0.0, "fusion_lat": 0.0, "lat": 38.96833516666667, "type": "electric_scooter", "lon": -77.01513033333333, "bike_id": "a1524c287534c5a2962743a95ab7f163", "rental_uris": {"android": "https://dc.lft.to/lastmile_qr_scan", "ios": "https://dc.lft.to/lastmile_qr_scan"}, "name": "a1524c287534c5a2962743a95ab7f163", "is_reserved": 0}, {"is_disabled": 0, "fusion_lon": 0.0, "fusion_lat": 0.0, "lat": 38.9240845, "type": "electric_scooter", "lon": -77.051706, "bike_id": "7a76eafdb06fd5a441378693c9b17622", "rental_uris": {"android": "https://dc.lft.to/lastmile_qr_scan", "ios": "https://dc.lft.to/lastmile_qr_scan"}, "name": "7a76eafdb06fd5a441378693c9b17622", "is_reserved": 0}, {"is_disabled": 0, "fusion_lon": 0.0, "fusion_lat": 0.0, "lat": 38.935324666666666, "type": "electric_scooter", "lon": -77.02067666666666, "bike_id": "1caef35ab6d9812e8ad327fa64cffd4b", "rental_uris": {"android": "https://dc.lft.to/lastmile_qr_scan", "ios": "https://dc.lft.to/lastmile_qr_scan"}, "name": "1caef35ab6d9812e8ad327fa64cffd4b", "is_reserved": 0}, {"is_disabled": 0, "fusion_lon": 0.0, "fusion_lat": 0.0, "lat": 38.91917216666667, "type": "electric_scooter", "lon": -77.0241335, "bike_id": "025d2479f30a08b633dd0d50adbb5416", "rental_uris": {"android": "https://dc.lft.to/lastmile_qr_scan", "ios": "https://dc.lft.to/lastmile_qr_scan"}, "name": "025d2479f30a08b633dd0d50adbb5416", "is_reserved": 0}, {"is_disabled": 0, "fusion_lon": 0.0, "fusion_lat": 0.0, "lat": 38.89235583333333, "type": "electric_scooter", "lon": -77.04671333333333, "bike_id": "04c2aaa087a9f07f1cac3b2a9d7986a2", "rental_uris": {"android": "https://dc.lft.to/lastmile_qr_scan", "ios": "https://dc.lft.to/lastmile_qr_scan"}, "name": "04c2aaa087a9f07f1cac3b2a9d7986a2", "is_reserved": 0}, {"is_disabled": 0, "fusion_lon": 0.0, "fusion_lat": 0.0, "lat": 39.000052, "type": "electric_bike", "lon": -76.9179535, "bike_id": "65fb8665e4f5449fea7108e84f089b4c", "rental_uris": {"android": "https://dc.lft.to/lastmile_qr_scan", "ios": "https://dc.lft.to/lastmile_qr_scan"}, "name": "65fb8665e4f5449fea7108e84f089b4c", "is_reserved": 0}, {"is_disabled": 0, "fusion_lon": 0.0, "fusion_lat": 0.0, "lat": 38.9063795, "type": "electric_scooter", "lon": -77.02506566666666, "bike_id": "63426f1bac4131c9e01538f0d8b2492c", "rental_uris": {"android": "https://dc.lft.to/lastmile_qr_scan", "ios": "https://dc.lft.to/lastmile_qr_scan"}, "name": "63426f1bac4131c9e01538f0d8b2492c", "is_reserved": 0}, {"is_disabled": 0, "fusion_lon": 0.0, "fusion_lat": 0.0, "lat": 38.8984685, "type": "electric_scooter", "lon": -76.94553216666667, "bike_id": "ed4b5476a91192d80444f1bfcd53d03a", "rental_uris": {"android": "https://dc.lft.to/lastmile_qr_scan", "ios": "https://dc.lft.to/lastmile_qr_scan"}, "name": "ed4b5476a91192d80444f1bfcd53d03a", "is_reserved": 0}, {"is_disabled": 0, "fusion_lon": 0.0, "fusion_lat": 0.0, "lat": 38.8950265, "type": "electric_scooter", "lon": -76.94878, "bike_id": "2c06ceaad1e2fdee814784f09913c01f", "rental_uris": {"android": "https://dc.lft.to/lastmile_qr_scan", "ios": "https://dc.lft.to/lastmile_qr_scan"}, "name": "2c06ceaad1e2fdee814784f09913c01f", "is_reserved": 0}, {"is_disabled": 0, "fusion_lon": 0.0, "fusion_lat": 0.0, "lat": 38.860339333333336, "type": "electric_scooter", "lon": -76.9969235, "bike_id": "4b24cfaa8e044dc43a174242b2ff4a15", "rental_uris": {"android": "https://dc.lft.to/lastmile_qr_scan", "ios": "https://dc.lft.to/lastmile_qr_scan"}, "name": "4b24cfaa8e044dc43a174242b2ff4a15", "is_reserved": 0}, {"is_disabled": 0, "fusion_lon": 0.0, "fusion_lat": 0.0, "lat": 38.9193825, "type": "electric_scooter", "lon": -77.081336, "bike_id": "5ce6b739d2ff18e8985cfd7b3690b71c", "rental_uris": {"android": "https://dc.lft.to/lastmile_qr_scan", "ios": "https://dc.lft.to/lastmile_qr_scan"}, "name": "5ce6b739d2ff18e8985cfd7b3690b71c", "is_reserved": 0}, {"is_disabled": 0, "fusion_lon": 0.0, "fusion_lat": 0.0, "lat": 39.095938833333335, "type": "electric_bike", "lon": -77.147765, "bike_id": "7ce9293734d08f5633dcaa07b7dc17b4", "rental_uris": {"android": "https://dc.lft.to/lastmile_qr_scan", "ios": "https://dc.lft.to/lastmile_qr_scan"}, "name": "7ce9293734d08f5633dcaa07b7dc17b4", "is_reserved": 0}, {"is_disabled": 0, "fusion_lon": 0.0, "fusion_lat": 0.0, "lat": 38.9993645, "type": "electric_bike", "lon": -77.0011965, "bike_id": "72b0f54c013123f360a2ba41505d15ae", "rental_uris": {"android": "https://dc.lft.to/lastmile_qr_scan", "ios": "https://dc.lft.to/lastmile_qr_scan"}, "name": "72b0f54c013123f360a2ba41505d15ae", "is_reserved": 0}, {"is_disabled": 0, "fusion_lon": 0.0, "fusion_lat": 0.0, "lat": 38.855556166666666, "type": "electric_bike", "lon": -77.10724216666667, "bike_id": "f612aa943bf7fe5b7276d6b3679b87aa", "rental_uris": {"android": "https://dc.lft.to/lastmile_qr_scan", "ios": "https://dc.lft.to/lastmile_qr_scan"}, "name": "f612aa943bf7fe5b7276d6b3679b87aa", "is_reserved": 0}, {"is_disabled": 0, "fusion_lon": 0.0, "fusion_lat": 0.0, "lat": 38.916241, "type": "electric_scooter", "lon": -77.048665, "bike_id": "9832412520fe5c71561542d5da0559a7", "rental_uris": {"android": "https://dc.lft.to/lastmile_qr_scan", "ios": "https://dc.lft.to/lastmile_qr_scan"}, "name": "9832412520fe5c71561542d5da0559a7", "is_reserved": 0}, {"is_disabled": 0, "fusion_lon": 0.0, "fusion_lat": 0.0, "lat": 38.93594933333333, "type": "electric_bike", "lon": -77.082406, "bike_id": "2d670f9d068e7c9b17fa46db801670ad", "rental_uris": {"android": "https://dc.lft.to/lastmile_qr_scan", "ios": "https://dc.lft.to/lastmile_qr_scan"}, "name": "2d670f9d068e7c9b17fa46db801670ad", "is_reserved": 0}, {"is_disabled": 0, "fusion_lon": 0.0, "fusion_lat": 0.0, "lat": 38.97541783333333, "type": "electric_bike", "lon": -76.99530583333333, "bike_id": "97301558656c85364eeb470106b4cef9", "rental_uris": {"android": "https://dc.lft.to/lastmile_qr_scan", "ios": "https://dc.lft.to/lastmile_qr_scan"}, "name": "97301558656c85364eeb470106b4cef9", "is_reserved": 0}, {"is_disabled": 0, "fusion_lon": 0.0, "fusion_lat": 0.0, "lat": 38.869081333333334, "type": "electric_bike", "lon": -77.13179533333333, "bike_id": "cc30df96ec4038a9f111a11fe266d3e7", "rental_uris": {"android": "https://dc.lft.to/lastmile_qr_scan", "ios": "https://dc.lft.to/lastmile_qr_scan"}, "name": "cc30df96ec4038a9f111a11fe266d3e7", "is_reserved": 0}, {"is_disabled": 0, "fusion_lon": 0.0, "fusion_lat": 0.0, "lat": 38.9083935, "type": "electric_scooter", "lon": -77.02693766666667, "bike_id": "b36fd2d9add0db7407ec58df34433d57", "rental_uris": {"android": "https://dc.lft.to/lastmile_qr_scan", "ios": "https://dc.lft.to/lastmile_qr_scan"}, "name": "b36fd2d9add0db7407ec58df34433d57", "is_reserved": 0}, {"is_disabled": 0, "fusion_lon": 0.0, "fusion_lat": 0.0, "lat": 38.922875166666664, "type": "electric_scooter", "lon": -77.042269, "bike_id": "96413fee892f4f366192a858be241724", "rental_uris": {"android": "https://dc.lft.to/lastmile_qr_scan", "ios": "https://dc.lft.to/lastmile_qr_scan"}, "name": "96413fee892f4f366192a858be241724", "is_reserved": 0}, {"is_disabled": 0, "fusion_lon": 0.0, "fusion_lat": 0.0, "lat": 38.91116866666667, "type": "electric_scooter", "lon": -77.00333366666666, "bike_id": "842c68065b0fc118384bfd25389f3667", "rental_uris": {"android": "https://dc.lft.to/lastmile_qr_scan", "ios": "https://dc.lft.to/lastmile_qr_scan"}, "name": "842c68065b0fc118384bfd25389f3667", "is_reserved": 0}, {"is_disabled": 0, "fusion_lon": 0.0, "fusion_lat": 0.0, "lat": 38.915935166666664, "type": "electric_bike", "lon": -76.97152133333333, "bike_id": "bf36e082af8a8224dc074504aafa908d", "rental_uris": {"android": "https://dc.lft.to/lastmile_qr_scan", "ios": "https://dc.lft.to/lastmile_qr_scan"}, "name": "bf36e082af8a8224dc074504aafa908d", "is_reserved": 0}, {"is_disabled": 0, "fusion_lon": 0.0, "fusion_lat": 0.0, "lat": 38.900246, "type": "electric_scooter", "lon": -77.00209733333334, "bike_id": "b0c2bf260436eff72fdaa7617e3a19b4", "rental_uris": {"android": "https://dc.lft.to/lastmile_qr_scan", "ios": "https://dc.lft.to/lastmile_qr_scan"}, "name": "b0c2bf260436eff72fdaa7617e3a19b4", "is_reserved": 0}, {"is_disabled": 0, "fusion_lon": 0.0, "fusion_lat": 0.0, "lat": 38.901313, "type": "electric_scooter", "lon": -77.01966733333333, "bike_id": "20475cd6f504d06542a10636b49dc2d4", "rental_uris": {"android": "https://dc.lft.to/lastmile_qr_scan", "ios": "https://dc.lft.to/lastmile_qr_scan"}, "name": "20475cd6f504d06542a10636b49dc2d4", "is_reserved": 0}, {"is_disabled": 0, "fusion_lon": 0.0, "fusion_lat": 0.0, "lat": 38.935038166666665, "type": "electric_scooter", "lon": -77.03432966666666, "bike_id": "e5709d4d32be631b068713f258a090d8", "rental_uris": {"android": "https://dc.lft.to/lastmile_qr_scan", "ios": "https://dc.lft.to/lastmile_qr_scan"}, "name": "e5709d4d32be631b068713f258a090d8", "is_reserved": 0}, {"is_disabled": 0, "fusion_lon": 0.0, "fusion_lat": 0.0, "lat": 38.92460416666667, "type": "electric_scooter", "lon": -77.02965883333333, "bike_id": "1dbe3cda5157cd1bd645412421596137", "rental_uris": {"android": "https://dc.lft.to/lastmile_qr_scan", "ios": "https://dc.lft.to/lastmile_qr_scan"}, "name": "1dbe3cda5157cd1bd645412421596137", "is_reserved": 0}, {"is_disabled": 0, "fusion_lon": 0.0, "fusion_lat": 0.0, "lat": 38.93543866666667, "type": "electric_scooter", "lon": -77.0220665, "bike_id": "615044d015a3fa795fcc49bc3f8510be", "rental_uris": {"android": "https://dc.lft.to/lastmile_qr_scan", "ios": "https://dc.lft.to/lastmile_qr_scan"}, "name": "615044d015a3fa795fcc49bc3f8510be", "is_reserved": 0}, {"is_disabled": 0, "fusion_lon": 0.0, "fusion_lat": 0.0, "lat": 38.91998066666667, "type": "electric_bike", "lon": -76.97313433333333, "bike_id": "207d10a7b3d8803c36280bc381ce1014", "rental_uris": {"android": "https://dc.lft.to/lastmile_qr_scan", "ios": "https://dc.lft.to/lastmile_qr_scan"}, "name": "207d10a7b3d8803c36280bc381ce1014", "is_reserved": 0}, {"is_disabled": 0, "fusion_lon": 0.0, "fusion_lat": 0.0, "lat": 38.97841666666667, "type": "electric_bike", "lon": -77.091353, "bike_id": "d8fee762544a34a770c43d56f9339a8e", "rental_uris": {"android": "https://dc.lft.to/lastmile_qr_scan", "ios": "https://dc.lft.to/lastmile_qr_scan"}, "name": "d8fee762544a34a770c43d56f9339a8e", "is_reserved": 0}, {"is_disabled": 0, "fusion_lon": 0.0, "fusion_lat": 0.0, "lat": 38.90410283333333, "type": "electric_scooter", "lon": -77.0326585, "bike_id": "139a11ff317bd2f9deb1c40bc6d2c3e6", "rental_uris": {"android": "https://dc.lft.to/lastmile_qr_scan", "ios": "https://dc.lft.to/lastmile_qr_scan"}, "name": "139a11ff317bd2f9deb1c40bc6d2c3e6", "is_reserved": 0}, {"is_disabled": 0, "fusion_lon": 0.0, "fusion_lat": 0.0, "lat": 38.89633116666667, "type": "electric_scooter", "lon": -77.00895033333333, "bike_id": "06a42bdef7ed3fe10d41584faf7e5bc2", "rental_uris": {"android": "https://dc.lft.to/lastmile_qr_scan", "ios": "https://dc.lft.to/lastmile_qr_scan"}, "name": "06a42bdef7ed3fe10d41584faf7e5bc2", "is_reserved": 0}, {"is_disabled": 0, "fusion_lon": 0.0, "fusion_lat": 0.0, "lat": 38.8972295, "type": "electric_scooter", "lon": -77.02156566666666, "bike_id": "0cd5a8d38f4fd134caada1204d0bc18b", "rental_uris": {"android": "https://dc.lft.to/lastmile_qr_scan", "ios": "https://dc.lft.to/lastmile_qr_scan"}, "name": "0cd5a8d38f4fd134caada1204d0bc18b", "is_reserved": 0}, {"is_disabled": 0, "fusion_lon": 0.0, "fusion_lat": 0.0, "lat": 38.922937, "type": "electric_bike", "lon": -76.997769, "bike_id": "cedd9d8684072cb03669238d9fef9b02", "rental_uris": {"android": "https://dc.lft.to/lastmile_qr_scan", "ios": "https://dc.lft.to/lastmile_qr_scan"}, "name": "cedd9d8684072cb03669238d9fef9b02", "is_reserved": 0}, {"is_disabled": 0, "fusion_lon": 0.0, "fusion_lat": 0.0, "lat": 38.933770833333334, "type": "electric_scooter", "lon": -77.0724845, "bike_id": "8d5f6fddc4779cb74789d81b26ad3c1b", "rental_uris": {"android": "https://dc.lft.to/lastmile_qr_scan", "ios": "https://dc.lft.to/lastmile_qr_scan"}, "name": "8d5f6fddc4779cb74789d81b26ad3c1b", "is_reserved": 0}, {"is_disabled": 0, "fusion_lon": 0.0, "fusion_lat": 0.0, "lat": 38.9176085, "type": "electric_scooter", "lon": -77.03587983333334, "bike_id": "6e43a4335324db69aa8373488d64e54b", "rental_uris": {"android": "https://dc.lft.to/lastmile_qr_scan", "ios": "https://dc.lft.to/lastmile_qr_scan"}, "name": "6e43a4335324db69aa8373488d64e54b", "is_reserved": 0}, {"is_disabled": 0, "fusion_lon": 0.0, "fusion_lat": 0.0, "lat": 38.930056666666665, "type": "electric_scooter", "lon": -77.022025, "bike_id": "16504d552bc367c0adcdd75dc19692b9", "rental_uris": {"android": "https://dc.lft.to/lastmile_qr_scan", "ios": "https://dc.lft.to/lastmile_qr_scan"}, "name": "16504d552bc367c0adcdd75dc19692b9", "is_reserved": 0}, {"is_disabled": 0, "fusion_lon": 0.0, "fusion_lat": 0.0, "lat": 38.91865933333333, "type": "electric_scooter", "lon": -77.03235916666667, "bike_id": "bb0e8d47da5b4d064339e492b712409f", "rental_uris": {"android": "https://dc.lft.to/lastmile_qr_scan", "ios": "https://dc.lft.to/lastmile_qr_scan"}, "name": "bb0e8d47da5b4d064339e492b712409f", "is_reserved": 0}, {"is_disabled": 0, "fusion_lon": 0.0, "fusion_lat": 0.0, "lat": 38.88869533333333, "type": "electric_scooter", "lon": -77.0400525, "bike_id": "7ae12d2f5682076521181b98f0bdbdb9", "rental_uris": {"android": "https://dc.lft.to/lastmile_qr_scan", "ios": "https://dc.lft.to/lastmile_qr_scan"}, "name": "7ae12d2f5682076521181b98f0bdbdb9", "is_reserved": 0}, {"is_disabled": 0, "fusion_lon": 0.0, "fusion_lat": 0.0, "lat": 38.91839916666667, "type": "electric_scooter", "lon": -77.07211416666667, "bike_id": "9e9061a3fb9e2f522d389d367f87e6a0", "rental_uris": {"android": "https://dc.lft.to/lastmile_qr_scan", "ios": "https://dc.lft.to/lastmile_qr_scan"}, "name": "9e9061a3fb9e2f522d389d367f87e6a0", "is_reserved": 0}, {"is_disabled": 0, "fusion_lon": 0.0, "fusion_lat": 0.0, "lat": 38.92842783333333, "type": "electric_scooter", "lon": -77.0141755, "bike_id": "f7da471d03bf6fc7f84478f346e5eb6d", "rental_uris": {"android": "https://dc.lft.to/lastmile_qr_scan", "ios": "https://dc.lft.to/lastmile_qr_scan"}, "name": "f7da471d03bf6fc7f84478f346e5eb6d", "is_reserved": 0}, {"is_disabled": 0, "fusion_lon": 0.0, "fusion_lat": 0.0, "lat": 38.9060255, "type": "electric_scooter", "lon": -77.0571195, "bike_id": "6de4025beb839d36989f4fef7610d607", "rental_uris": {"android": "https://dc.lft.to/lastmile_qr_scan", "ios": "https://dc.lft.to/lastmile_qr_scan"}, "name": "6de4025beb839d36989f4fef7610d607", "is_reserved": 0}, {"is_disabled": 0, "fusion_lon": 0.0, "fusion_lat": 0.0, "lat": 38.92465033333333, "type": "electric_scooter", "lon": -77.050744, "bike_id": "6a3c2b6775074f94c56a32eeaae1b621", "rental_uris": {"android": "https://dc.lft.to/lastmile_qr_scan", "ios": "https://dc.lft.to/lastmile_qr_scan"}, "name": "6a3c2b6775074f94c56a32eeaae1b621", "is_reserved": 0}, {"is_disabled": 0, "fusion_lon": 0.0, "fusion_lat": 0.0, "lat": 38.9253525, "type": "electric_scooter", "lon": -77.07658366666666, "bike_id": "291d89fd4db29b74c7a6c3b4b93db385", "rental_uris": {"android": "https://dc.lft.to/lastmile_qr_scan", "ios": "https://dc.lft.to/lastmile_qr_scan"}, "name": "291d89fd4db29b74c7a6c3b4b93db385", "is_reserved": 0}, {"is_disabled": 0, "fusion_lon": 0.0, "fusion_lat": 0.0, "lat": 38.84436383333333, "type": "electric_scooter", "lon": -76.99773133333333, "bike_id": "b6b005918469cf7dcb875e9e383d790b", "rental_uris": {"android": "https://dc.lft.to/lastmile_qr_scan", "ios": "https://dc.lft.to/lastmile_qr_scan"}, "name": "b6b005918469cf7dcb875e9e383d790b", "is_reserved": 0}, {"is_disabled": 0, "fusion_lon": 0.0, "fusion_lat": 0.0, "lat": 38.88361483333333, "type": "electric_scooter", "lon": -76.9856455, "bike_id": "d9a346eb9907e923530a125adf6ddc7b", "rental_uris": {"android": "https://dc.lft.to/lastmile_qr_scan", "ios": "https://dc.lft.to/lastmile_qr_scan"}, "name": "d9a346eb9907e923530a125adf6ddc7b", "is_reserved": 0}, {"is_disabled": 0, "fusion_lon": 0.0, "fusion_lat": 0.0, "lat": 38.908641833333334, "type": "electric_scooter", "lon": -77.0461375, "bike_id": "629b676f3255c90db82b427bbfcd92df", "rental_uris": {"android": "https://dc.lft.to/lastmile_qr_scan", "ios": "https://dc.lft.to/lastmile_qr_scan"}, "name": "629b676f3255c90db82b427bbfcd92df", "is_reserved": 0}, {"is_disabled": 0, "fusion_lon": 0.0, "fusion_lat": 0.0, "lat": 38.918031166666665, "type": "electric_scooter", "lon": -77.03443166666666, "bike_id": "9d544a631c1b28cd1a96685ec9c2043d", "rental_uris": {"android": "https://dc.lft.to/lastmile_qr_scan", "ios": "https://dc.lft.to/lastmile_qr_scan"}, "name": "9d544a631c1b28cd1a96685ec9c2043d", "is_reserved": 0}, {"is_disabled": 0, "fusion_lon": 0.0, "fusion_lat": 0.0, "lat": 38.913418166666666, "type": "electric_scooter", "lon": -77.04235266666667, "bike_id": "e7c664c8ccd259274dfa6c6450de7b37", "rental_uris": {"android": "https://dc.lft.to/lastmile_qr_scan", "ios": "https://dc.lft.to/lastmile_qr_scan"}, "name": "e7c664c8ccd259274dfa6c6450de7b37", "is_reserved": 0}, {"is_disabled": 0, "fusion_lon": 0.0, "fusion_lat": 0.0, "lat": 38.93047466666667, "type": "electric_scooter", "lon": -76.99631666666667, "bike_id": "3ad4d022526ad98d04e78dc6a600e186", "rental_uris": {"android": "https://dc.lft.to/lastmile_qr_scan", "ios": "https://dc.lft.to/lastmile_qr_scan"}, "name": "3ad4d022526ad98d04e78dc6a600e186", "is_reserved": 0}, {"is_disabled": 0, "fusion_lon": 0.0, "fusion_lat": 0.0, "lat": 38.92262316666667, "type": "electric_scooter", "lon": -77.0712935, "bike_id": "3a976d755523eae860ab745b8821ee36", "rental_uris": {"android": "https://dc.lft.to/lastmile_qr_scan", "ios": "https://dc.lft.to/lastmile_qr_scan"}, "name": "3a976d755523eae860ab745b8821ee36", "is_reserved": 0}, {"is_disabled": 0, "fusion_lon": 0.0, "fusion_lat": 0.0, "lat": 38.91151966666666, "type": "electric_scooter", "lon": -76.9849955, "bike_id": "2d58d0f0cd423618198cb80dbe1647de", "rental_uris": {"android": "https://dc.lft.to/lastmile_qr_scan", "ios": "https://dc.lft.to/lastmile_qr_scan"}, "name": "2d58d0f0cd423618198cb80dbe1647de", "is_reserved": 0}, {"is_disabled": 0, "fusion_lon": 0.0, "fusion_lat": 0.0, "lat": 38.90466033333333, "type": "electric_scooter", "lon": -76.99207616666666, "bike_id": "a974ba9f4c0e5a9e59cace6a711552d9", "rental_uris": {"android": "https://dc.lft.to/lastmile_qr_scan", "ios": "https://dc.lft.to/lastmile_qr_scan"}, "name": "a974ba9f4c0e5a9e59cace6a711552d9", "is_reserved": 0}, {"is_disabled": 0, "fusion_lon": 0.0, "fusion_lat": 0.0, "lat": 38.93546666666667, "type": "electric_scooter", "lon": -77.034119, "bike_id": "9d4e3a45e454816c961a68210873db30", "rental_uris": {"android": "https://dc.lft.to/lastmile_qr_scan", "ios": "https://dc.lft.to/lastmile_qr_scan"}, "name": "9d4e3a45e454816c961a68210873db30", "is_reserved": 0}, {"is_disabled": 0, "fusion_lon": 0.0, "fusion_lat": 0.0, "lat": 38.89742366666667, "type": "electric_scooter", "lon": -77.04676083333334, "bike_id": "6f9d8031bb138c23c718368594c88d5d", "rental_uris": {"android": "https://dc.lft.to/lastmile_qr_scan", "ios": "https://dc.lft.to/lastmile_qr_scan"}, "name": "6f9d8031bb138c23c718368594c88d5d", "is_reserved": 0}, {"is_disabled": 0, "fusion_lon": 0.0, "fusion_lat": 0.0, "lat": 38.89237333333333, "type": "electric_scooter", "lon": -77.04675683333333, "bike_id": "2957d1c8c1ad7df7c1eb6c9587a5b37e", "rental_uris": {"android": "https://dc.lft.to/lastmile_qr_scan", "ios": "https://dc.lft.to/lastmile_qr_scan"}, "name": "2957d1c8c1ad7df7c1eb6c9587a5b37e", "is_reserved": 0}, {"is_disabled": 0, "fusion_lon": 0.0, "fusion_lat": 0.0, "lat": 38.91468583333333, "type": "electric_scooter", "lon": -77.02797283333334, "bike_id": "3e49de7a3262cf68c5c604bea088be68", "rental_uris": {"android": "https://dc.lft.to/lastmile_qr_scan", "ios": "https://dc.lft.to/lastmile_qr_scan"}, "name": "3e49de7a3262cf68c5c604bea088be68", "is_reserved": 0}, {"is_disabled": 0, "fusion_lon": 0.0, "fusion_lat": 0.0, "lat": 38.9056915, "type": "electric_scooter", "lon": -77.02194666666666, "bike_id": "a30634074811ac04a3a41b81ac3e65fe", "rental_uris": {"android": "https://dc.lft.to/lastmile_qr_scan", "ios": "https://dc.lft.to/lastmile_qr_scan"}, "name": "a30634074811ac04a3a41b81ac3e65fe", "is_reserved": 0}, {"is_disabled": 0, "fusion_lon": 0.0, "fusion_lat": 0.0, "lat": 38.88377166666667, "type": "electric_scooter", "lon": -76.985614, "bike_id": "5b21948f2e8b43137800dcda811d1b56", "rental_uris": {"android": "https://dc.lft.to/lastmile_qr_scan", "ios": "https://dc.lft.to/lastmile_qr_scan"}, "name": "5b21948f2e8b43137800dcda811d1b56", "is_reserved": 0}, {"is_disabled": 0, "fusion_lon": 0.0, "fusion_lat": 0.0, "lat": 38.859872, "type": "electric_bike", "lon": -76.9705055, "bike_id": "b31e5f549c89860b46125686f338f3d2", "rental_uris": {"android": "https://dc.lft.to/lastmile_qr_scan", "ios": "https://dc.lft.to/lastmile_qr_scan"}, "name": "b31e5f549c89860b46125686f338f3d2", "is_reserved": 0}, {"is_disabled": 0, "fusion_lon": 0.0, "fusion_lat": 0.0, "lat": 38.9256135, "type": "electric_scooter", "lon": -77.02275416666667, "bike_id": "39742d12ded64c69b344d04f6bc461cd", "rental_uris": {"android": "https://dc.lft.to/lastmile_qr_scan", "ios": "https://dc.lft.to/lastmile_qr_scan"}, "name": "39742d12ded64c69b344d04f6bc461cd", "is_reserved": 0}, {"is_disabled": 0, "fusion_lon": 0.0, "fusion_lat": 0.0, "lat": 38.99454333333333, "type": "electric_bike", "lon": -76.9081475, "bike_id": "8b1ef7c68a340bc33000cb5797a9fae1", "rental_uris": {"android": "https://dc.lft.to/lastmile_qr_scan", "ios": "https://dc.lft.to/lastmile_qr_scan"}, "name": "8b1ef7c68a340bc33000cb5797a9fae1", "is_reserved": 0}, {"is_disabled": 0, "fusion_lon": 0.0, "fusion_lat": 0.0, "lat": 38.868928, "type": "electric_scooter", "lon": -76.9831685, "bike_id": "49251ed8b99521b946aa9fcc79193325", "rental_uris": {"android": "https://dc.lft.to/lastmile_qr_scan", "ios": "https://dc.lft.to/lastmile_qr_scan"}, "name": "49251ed8b99521b946aa9fcc79193325", "is_reserved": 0}, {"is_disabled": 0, "fusion_lon": 0.0, "fusion_lat": 0.0, "lat": 38.917049, "type": "electric_scooter", "lon": -77.04169966666667, "bike_id": "1149cb3b49732e73d5f20353b40d75bf", "rental_uris": {"android": "https://dc.lft.to/lastmile_qr_scan", "ios": "https://dc.lft.to/lastmile_qr_scan"}, "name": "1149cb3b49732e73d5f20353b40d75bf", "is_reserved": 0}, {"is_disabled": 0, "fusion_lon": 0.0, "fusion_lat": 0.0, "lat": 38.85207916666667, "type": "electric_bike", "lon": -77.12763183333334, "bike_id": "a09c674ed77deafb2da7ebaaccb05e15", "rental_uris": {"android": "https://dc.lft.to/lastmile_qr_scan", "ios": "https://dc.lft.to/lastmile_qr_scan"}, "name": "a09c674ed77deafb2da7ebaaccb05e15", "is_reserved": 0}, {"is_disabled": 0, "fusion_lon": 0.0, "fusion_lat": 0.0, "lat": 38.9169665, "type": "electric_scooter", "lon": -77.00639983333333, "bike_id": "d33fe76a629a0103dddbe6090278367e", "rental_uris": {"android": "https://dc.lft.to/lastmile_qr_scan", "ios": "https://dc.lft.to/lastmile_qr_scan"}, "name": "d33fe76a629a0103dddbe6090278367e", "is_reserved": 0}, {"is_disabled": 0, "fusion_lon": 0.0, "fusion_lat": 0.0, "lat": 38.905796, "type": "electric_scooter", "lon": -77.0260815, "bike_id": "07caacce6add3057bfed4b48043f22e7", "rental_uris": {"android": "https://dc.lft.to/lastmile_qr_scan", "ios": "https://dc.lft.to/lastmile_qr_scan"}, "name": "07caacce6add3057bfed4b48043f22e7", "is_reserved": 0}, {"is_disabled": 0, "fusion_lon": 0.0, "fusion_lat": 0.0, "lat": 38.8659945, "type": "electric_bike", "lon": -76.9322005, "bike_id": "13f16fb6cb39abb35edfeb599beb22a1", "rental_uris": {"android": "https://dc.lft.to/lastmile_qr_scan", "ios": "https://dc.lft.to/lastmile_qr_scan"}, "name": "13f16fb6cb39abb35edfeb599beb22a1", "is_reserved": 0}, {"is_disabled": 0, "fusion_lon": 0.0, "fusion_lat": 0.0, "lat": 38.944970166666664, "type": "electric_bike", "lon": -77.00677866666666, "bike_id": "326026e77bd5cb1a8dc5dee39943d121", "rental_uris": {"android": "https://dc.lft.to/lastmile_qr_scan", "ios": "https://dc.lft.to/lastmile_qr_scan"}, "name": "326026e77bd5cb1a8dc5dee39943d121", "is_reserved": 0}, {"is_disabled": 0, "fusion_lon": 0.0, "fusion_lat": 0.0, "lat": 38.892503833333336, "type": "electric_scooter", "lon": -76.9985195, "bike_id": "402e6058da41369d3b702448d9140c50", "rental_uris": {"android": "https://dc.lft.to/lastmile_qr_scan", "ios": "https://dc.lft.to/lastmile_qr_scan"}, "name": "402e6058da41369d3b702448d9140c50", "is_reserved": 0}, {"is_disabled": 0, "fusion_lon": 0.0, "fusion_lat": 0.0, "lat": 38.90295316666667, "type": "electric_scooter", "lon": -77.05068283333334, "bike_id": "fc1a5d506fa4dcf6ebdd8d984e814046", "rental_uris": {"android": "https://dc.lft.to/lastmile_qr_scan", "ios": "https://dc.lft.to/lastmile_qr_scan"}, "name": "fc1a5d506fa4dcf6ebdd8d984e814046", "is_reserved": 0}, {"is_disabled": 0, "fusion_lon": 0.0, "fusion_lat": 0.0, "lat": 38.92693333333333, "type": "electric_scooter", "lon": -77.03776366666666, "bike_id": "cfec3d4deff90546b24142d7de2679de", "rental_uris": {"android": "https://dc.lft.to/lastmile_qr_scan", "ios": "https://dc.lft.to/lastmile_qr_scan"}, "name": "cfec3d4deff90546b24142d7de2679de", "is_reserved": 0}, {"is_disabled": 0, "fusion_lon": 0.0, "fusion_lat": 0.0, "lat": 38.936023666666664, "type": "electric_scooter", "lon": -77.05864433333333, "bike_id": "ab5b52ba07f688f2ac0ed1ee1be578fe", "rental_uris": {"android": "https://dc.lft.to/lastmile_qr_scan", "ios": "https://dc.lft.to/lastmile_qr_scan"}, "name": "ab5b52ba07f688f2ac0ed1ee1be578fe", "is_reserved": 0}, {"is_disabled": 0, "fusion_lon": 0.0, "fusion_lat": 0.0, "lat": 38.897482, "type": "electric_scooter", "lon": -77.05147433333333, "bike_id": "6a7f96d3b32485f8c8291b8878ad20b0", "rental_uris": {"android": "https://dc.lft.to/lastmile_qr_scan", "ios": "https://dc.lft.to/lastmile_qr_scan"}, "name": "6a7f96d3b32485f8c8291b8878ad20b0", "is_reserved": 0}, {"is_disabled": 0, "fusion_lon": 0.0, "fusion_lat": 0.0, "lat": 38.90026066666667, "type": "electric_scooter", "lon": -76.99166533333333, "bike_id": "43d2f7d5f0cd0e0ba7d686e5d9aab738", "rental_uris": {"android": "https://dc.lft.to/lastmile_qr_scan", "ios": "https://dc.lft.to/lastmile_qr_scan"}, "name": "43d2f7d5f0cd0e0ba7d686e5d9aab738", "is_reserved": 0}, {"is_disabled": 0, "fusion_lon": 0.0, "fusion_lat": 0.0, "lat": 38.911086833333336, "type": "electric_scooter", "lon": -77.04504166666666, "bike_id": "e9507468bc8343f09fd7e7864944df13", "rental_uris": {"android": "https://dc.lft.to/lastmile_qr_scan", "ios": "https://dc.lft.to/lastmile_qr_scan"}, "name": "e9507468bc8343f09fd7e7864944df13", "is_reserved": 0}, {"is_disabled": 0, "fusion_lon": 0.0, "fusion_lat": 0.0, "lat": 38.91422516666667, "type": "electric_scooter", "lon": -77.01416383333333, "bike_id": "e354d70e64bbd56367fa6e5ee2e5e54a", "rental_uris": {"android": "https://dc.lft.to/lastmile_qr_scan", "ios": "https://dc.lft.to/lastmile_qr_scan"}, "name": "e354d70e64bbd56367fa6e5ee2e5e54a", "is_reserved": 0}, {"is_disabled": 0, "fusion_lon": 0.0, "fusion_lat": 0.0, "lat": 38.888267166666665, "type": "electric_bike", "lon": -77.1274745, "bike_id": "5f9b1400815c345b2958092fdeaf1d44", "rental_uris": {"android": "https://dc.lft.to/lastmile_qr_scan", "ios": "https://dc.lft.to/lastmile_qr_scan"}, "name": "5f9b1400815c345b2958092fdeaf1d44", "is_reserved": 0}, {"is_disabled": 0, "fusion_lon": 0.0, "fusion_lat": 0.0, "lat": 38.93440233333333, "type": "electric_scooter", "lon": -77.03269283333333, "bike_id": "00b8669e964ba26f4b6dab5072a7ac88", "rental_uris": {"android": "https://dc.lft.to/lastmile_qr_scan", "ios": "https://dc.lft.to/lastmile_qr_scan"}, "name": "00b8669e964ba26f4b6dab5072a7ac88", "is_reserved": 0}, {"is_disabled": 0, "fusion_lon": 0.0, "fusion_lat": 0.0, "lat": 38.93103033333333, "type": "electric_scooter", "lon": -77.02473716666667, "bike_id": "de01e30de9cca407b88ae193bbe10bfb", "rental_uris": {"android": "https://dc.lft.to/lastmile_qr_scan", "ios": "https://dc.lft.to/lastmile_qr_scan"}, "name": "de01e30de9cca407b88ae193bbe10bfb", "is_reserved": 0}, {"is_disabled": 0, "fusion_lon": 0.0, "fusion_lat": 0.0, "lat": 38.9006865, "type": "electric_scooter", "lon": -77.04917483333334, "bike_id": "3631e295a730131f03fb32d9fb5cd1e9", "rental_uris": {"android": "https://dc.lft.to/lastmile_qr_scan", "ios": "https://dc.lft.to/lastmile_qr_scan"}, "name": "3631e295a730131f03fb32d9fb5cd1e9", "is_reserved": 0}, {"is_disabled": 0, "fusion_lon": 0.0, "fusion_lat": 0.0, "lat": 38.990904, "type": "electric_bike", "lon": -76.87496316666666, "bike_id": "8fa1cedd2ab8c19ea36db04fc9d38c9e", "rental_uris": {"android": "https://dc.lft.to/lastmile_qr_scan", "ios": "https://dc.lft.to/lastmile_qr_scan"}, "name": "8fa1cedd2ab8c19ea36db04fc9d38c9e", "is_reserved": 0}, {"is_disabled": 0, "fusion_lon": 0.0, "fusion_lat": 0.0, "lat": 38.975744166666665, "type": "electric_bike", "lon": -76.9640325, "bike_id": "1c6245a57873ceefaf1ce5fecf43dffb", "rental_uris": {"android": "https://dc.lft.to/lastmile_qr_scan", "ios": "https://dc.lft.to/lastmile_qr_scan"}, "name": "1c6245a57873ceefaf1ce5fecf43dffb", "is_reserved": 0}, {"is_disabled": 0, "fusion_lon": 0.0, "fusion_lat": 0.0, "lat": 38.907742166666665, "type": "electric_scooter", "lon": -77.0326815, "bike_id": "8cb6590d6284c2d144da7785d3b66e42", "rental_uris": {"android": "https://dc.lft.to/lastmile_qr_scan", "ios": "https://dc.lft.to/lastmile_qr_scan"}, "name": "8cb6590d6284c2d144da7785d3b66e42", "is_reserved": 0}, {"is_disabled": 0, "fusion_lon": 0.0, "fusion_lat": 0.0, "lat": 38.889696, "type": "electric_bike", "lon": -76.94862666666667, "bike_id": "97d43367a12539ace294ca4e1039721a", "rental_uris": {"android": "https://dc.lft.to/lastmile_qr_scan", "ios": "https://dc.lft.to/lastmile_qr_scan"}, "name": "97d43367a12539ace294ca4e1039721a", "is_reserved": 0}, {"is_disabled": 0, "fusion_lon": 0.0, "fusion_lat": 0.0, "lat": 38.9073445, "type": "electric_scooter", "lon": -77.034483, "bike_id": "5289d8906b666ab9f05f94c06d2a4d32", "rental_uris": {"android": "https://dc.lft.to/lastmile_qr_scan", "ios": "https://dc.lft.to/lastmile_qr_scan"}, "name": "5289d8906b666ab9f05f94c06d2a4d32", "is_reserved": 0}, {"is_disabled": 0, "fusion_lon": 0.0, "fusion_lat": 0.0, "lat": 38.90507616666667, "type": "electric_scooter", "lon": -77.02946783333333, "bike_id": "a2ac6cc080a929b5a8f8a6a17e2f5234", "rental_uris": {"android": "https://dc.lft.to/lastmile_qr_scan", "ios": "https://dc.lft.to/lastmile_qr_scan"}, "name": "a2ac6cc080a929b5a8f8a6a17e2f5234", "is_reserved": 0}, {"is_disabled": 0, "fusion_lon": 0.0, "fusion_lat": 0.0, "lat": 38.937522333333334, "type": "electric_scooter", "lon": -77.02460083333334, "bike_id": "1f38c05e7924c5742e8b14a53ece9f52", "rental_uris": {"android": "https://dc.lft.to/lastmile_qr_scan", "ios": "https://dc.lft.to/lastmile_qr_scan"}, "name": "1f38c05e7924c5742e8b14a53ece9f52", "is_reserved": 0}, {"is_disabled": 0, "fusion_lon": 0.0, "fusion_lat": 0.0, "lat": 38.905254666666664, "type": "electric_scooter", "lon": -77.05150066666667, "bike_id": "ac15c7b5898a8ae833d834e86785bb9c", "rental_uris": {"android": "https://dc.lft.to/lastmile_qr_scan", "ios": "https://dc.lft.to/lastmile_qr_scan"}, "name": "ac15c7b5898a8ae833d834e86785bb9c", "is_reserved": 0}, {"is_disabled": 0, "fusion_lon": 0.0, "fusion_lat": 0.0, "lat": 38.9563515, "type": "electric_scooter", "lon": -77.0297865, "bike_id": "b1e921653b3953cc1a0f12003ac5c71f", "rental_uris": {"android": "https://dc.lft.to/lastmile_qr_scan", "ios": "https://dc.lft.to/lastmile_qr_scan"}, "name": "b1e921653b3953cc1a0f12003ac5c71f", "is_reserved": 0}, {"is_disabled": 0, "fusion_lon": 0.0, "fusion_lat": 0.0, "lat": 38.881744, "type": "electric_scooter", "lon": -77.00893616666667, "bike_id": "6d4fc279ffd473151f907a9264b7f33f", "rental_uris": {"android": "https://dc.lft.to/lastmile_qr_scan", "ios": "https://dc.lft.to/lastmile_qr_scan"}, "name": "6d4fc279ffd473151f907a9264b7f33f", "is_reserved": 0}, {"is_disabled": 0, "fusion_lon": 0.0, "fusion_lat": 0.0, "lat": 38.9273655, "type": "electric_bike", "lon": -76.9936245, "bike_id": "5adabfe7b460acd52e486d4a05c475b1", "rental_uris": {"android": "https://dc.lft.to/lastmile_qr_scan", "ios": "https://dc.lft.to/lastmile_qr_scan"}, "name": "5adabfe7b460acd52e486d4a05c475b1", "is_reserved": 0}, {"is_disabled": 0, "fusion_lon": 0.0, "fusion_lat": 0.0, "lat": 38.8597495, "type": "electric_scooter", "lon": -76.9841565, "bike_id": "dac0c8a229ccac290488957761a1c4cc", "rental_uris": {"android": "https://dc.lft.to/lastmile_qr_scan", "ios": "https://dc.lft.to/lastmile_qr_scan"}, "name": "dac0c8a229ccac290488957761a1c4cc", "is_reserved": 0}, {"is_disabled": 0, "fusion_lon": 0.0, "fusion_lat": 0.0, "lat": 38.850678, "type": "electric_bike", "lon": -76.97331933333334, "bike_id": "610982b2cdca71b5ab171c27c590c469", "rental_uris": {"android": "https://dc.lft.to/lastmile_qr_scan", "ios": "https://dc.lft.to/lastmile_qr_scan"}, "name": "610982b2cdca71b5ab171c27c590c469", "is_reserved": 0}, {"is_disabled": 0, "fusion_lon": 0.0, "fusion_lat": 0.0, "lat": 38.9190575, "type": "electric_scooter", "lon": -77.02754033333333, "bike_id": "87e7b698624eb4930c0eea47e724f992", "rental_uris": {"android": "https://dc.lft.to/lastmile_qr_scan", "ios": "https://dc.lft.to/lastmile_qr_scan"}, "name": "87e7b698624eb4930c0eea47e724f992", "is_reserved": 0}, {"is_disabled": 0, "fusion_lon": 0.0, "fusion_lat": 0.0, "lat": 38.91804033333333, "type": "electric_scooter", "lon": -77.03550366666667, "bike_id": "70280d695f0c7aa226ff795fb1002661", "rental_uris": {"android": "https://dc.lft.to/lastmile_qr_scan", "ios": "https://dc.lft.to/lastmile_qr_scan"}, "name": "70280d695f0c7aa226ff795fb1002661", "is_reserved": 0}, {"is_disabled": 0, "fusion_lon": 0.0, "fusion_lat": 0.0, "lat": 38.92794766666667, "type": "electric_scooter", "lon": -77.022982, "bike_id": "de91f9847164c73bb59d59bc7a86472a", "rental_uris": {"android": "https://dc.lft.to/lastmile_qr_scan", "ios": "https://dc.lft.to/lastmile_qr_scan"}, "name": "de91f9847164c73bb59d59bc7a86472a", "is_reserved": 0}, {"is_disabled": 0, "fusion_lon": 0.0, "fusion_lat": 0.0, "lat": 38.940515, "type": "electric_scooter", "lon": -77.02497633333333, "bike_id": "a84581890d4584dd980265afc3adf7ee", "rental_uris": {"android": "https://dc.lft.to/lastmile_qr_scan", "ios": "https://dc.lft.to/lastmile_qr_scan"}, "name": "a84581890d4584dd980265afc3adf7ee", "is_reserved": 0}, {"is_disabled": 0, "fusion_lon": 0.0, "fusion_lat": 0.0, "lat": 38.899657166666664, "type": "electric_scooter", "lon": -77.051982, "bike_id": "6a03490fa376d57c83e83f3d27a9b8a0", "rental_uris": {"android": "https://dc.lft.to/lastmile_qr_scan", "ios": "https://dc.lft.to/lastmile_qr_scan"}, "name": "6a03490fa376d57c83e83f3d27a9b8a0", "is_reserved": 0}, {"is_disabled": 0, "fusion_lon": 0.0, "fusion_lat": 0.0, "lat": 38.89905983333333, "type": "electric_scooter", "lon": -76.933884, "bike_id": "8dea197d5b2b6816d701119045d00f36", "rental_uris": {"android": "https://dc.lft.to/lastmile_qr_scan", "ios": "https://dc.lft.to/lastmile_qr_scan"}, "name": "8dea197d5b2b6816d701119045d00f36", "is_reserved": 0}, {"is_disabled": 0, "fusion_lon": 0.0, "fusion_lat": 0.0, "lat": 38.942742, "type": "electric_scooter", "lon": -77.032594, "bike_id": "b097397271926d4758f4f6f7e2b8c817", "rental_uris": {"android": "https://dc.lft.to/lastmile_qr_scan", "ios": "https://dc.lft.to/lastmile_qr_scan"}, "name": "b097397271926d4758f4f6f7e2b8c817", "is_reserved": 0}, {"is_disabled": 0, "fusion_lon": 0.0, "fusion_lat": 0.0, "lat": 38.9288685, "type": "electric_scooter", "lon": -77.02306583333333, "bike_id": "4d9813f7f0309692ad7b9303e1ee3372", "rental_uris": {"android": "https://dc.lft.to/lastmile_qr_scan", "ios": "https://dc.lft.to/lastmile_qr_scan"}, "name": "4d9813f7f0309692ad7b9303e1ee3372", "is_reserved": 0}, {"is_disabled": 0, "fusion_lon": 0.0, "fusion_lat": 0.0, "lat": 38.96449616666666, "type": "electric_bike", "lon": -76.9771655, "bike_id": "d8f156215b4ae36994ed41a3c4f43b90", "rental_uris": {"android": "https://dc.lft.to/lastmile_qr_scan", "ios": "https://dc.lft.to/lastmile_qr_scan"}, "name": "d8f156215b4ae36994ed41a3c4f43b90", "is_reserved": 0}, {"is_disabled": 0, "fusion_lon": 0.0, "fusion_lat": 0.0, "lat": 38.934163166666664, "type": "electric_bike", "lon": -77.02507266666667, "bike_id": "151258e16349dbde872d06df4fcb5e05", "rental_uris": {"android": "https://dc.lft.to/lastmile_qr_scan", "ios": "https://dc.lft.to/lastmile_qr_scan"}, "name": "151258e16349dbde872d06df4fcb5e05", "is_reserved": 0}, {"is_disabled": 0, "fusion_lon": 0.0, "fusion_lat": 0.0, "lat": 38.86597783333333, "type": "electric_bike", "lon": -76.97444866666666, "bike_id": "05152984570f9351893a5fd383a18eba", "rental_uris": {"android": "https://dc.lft.to/lastmile_qr_scan", "ios": "https://dc.lft.to/lastmile_qr_scan"}, "name": "05152984570f9351893a5fd383a18eba", "is_reserved": 0}, {"is_disabled": 0, "fusion_lon": 0.0, "fusion_lat": 0.0, "lat": 38.85851783333333, "type": "electric_bike", "lon": -77.097512, "bike_id": "fb8159a0db4e09601e3a19283adbd3d8", "rental_uris": {"android": "https://dc.lft.to/lastmile_qr_scan", "ios": "https://dc.lft.to/lastmile_qr_scan"}, "name": "fb8159a0db4e09601e3a19283adbd3d8", "is_reserved": 0}, {"is_disabled": 0, "fusion_lon": 0.0, "fusion_lat": 0.0, "lat": 39.03000633333333, "type": "electric_bike", "lon": -77.10654783333334, "bike_id": "0448b3f760108d57bf25fc4244749f4e", "rental_uris": {"android": "https://dc.lft.to/lastmile_qr_scan", "ios": "https://dc.lft.to/lastmile_qr_scan"}, "name": "0448b3f760108d57bf25fc4244749f4e", "is_reserved": 0}, {"is_disabled": 0, "fusion_lon": 0.0, "fusion_lat": 0.0, "lat": 38.92025566666667, "type": "electric_scooter", "lon": -77.0311405, "bike_id": "2bb2c2cc9b4d5853118c7552560ff314", "rental_uris": {"android": "https://dc.lft.to/lastmile_qr_scan", "ios": "https://dc.lft.to/lastmile_qr_scan"}, "name": "2bb2c2cc9b4d5853118c7552560ff314", "is_reserved": 0}, {"is_disabled": 0, "fusion_lon": 0.0, "fusion_lat": 0.0, "lat": 38.8429525, "type": "electric_scooter", "lon": -76.99945633333333, "bike_id": "80ac2a4612546d2530574c1887b5a486", "rental_uris": {"android": "https://dc.lft.to/lastmile_qr_scan", "ios": "https://dc.lft.to/lastmile_qr_scan"}, "name": "80ac2a4612546d2530574c1887b5a486", "is_reserved": 0}, {"is_disabled": 0, "fusion_lon": 0.0, "fusion_lat": 0.0, "lat": 38.8874885, "type": "electric_scooter", "lon": -77.01604933333333, "bike_id": "241763f8574d5372d5eb2ad0ecda3ada", "rental_uris": {"android": "https://dc.lft.to/lastmile_qr_scan", "ios": "https://dc.lft.to/lastmile_qr_scan"}, "name": "241763f8574d5372d5eb2ad0ecda3ada", "is_reserved": 0}, {"is_disabled": 0, "fusion_lon": 0.0, "fusion_lat": 0.0, "lat": 38.903628, "type": "electric_scooter", "lon": -77.0176725, "bike_id": "dd612c8c23da6c5770d041c653a36cac", "rental_uris": {"android": "https://dc.lft.to/lastmile_qr_scan", "ios": "https://dc.lft.to/lastmile_qr_scan"}, "name": "dd612c8c23da6c5770d041c653a36cac", "is_reserved": 0}, {"is_disabled": 0, "fusion_lon": 0.0, "fusion_lat": 0.0, "lat": 38.9057805, "type": "electric_scooter", "lon": -76.98753433333333, "bike_id": "623fb490409e184e41fb5e1efb963cde", "rental_uris": {"android": "https://dc.lft.to/lastmile_qr_scan", "ios": "https://dc.lft.to/lastmile_qr_scan"}, "name": "623fb490409e184e41fb5e1efb963cde", "is_reserved": 0}, {"is_disabled": 0, "fusion_lon": 0.0, "fusion_lat": 0.0, "lat": 38.9309475, "type": "electric_scooter", "lon": -77.034374, "bike_id": "6253e39a15e55588bd127d3dc8b10c3b", "rental_uris": {"android": "https://dc.lft.to/lastmile_qr_scan", "ios": "https://dc.lft.to/lastmile_qr_scan"}, "name": "6253e39a15e55588bd127d3dc8b10c3b", "is_reserved": 0}, {"is_disabled": 0, "fusion_lon": 0.0, "fusion_lat": 0.0, "lat": 38.95291366666667, "type": "electric_scooter", "lon": -77.06853683333334, "bike_id": "ebb507db57a6069ad04c52e6e6422956", "rental_uris": {"android": "https://dc.lft.to/lastmile_qr_scan", "ios": "https://dc.lft.to/lastmile_qr_scan"}, "name": "ebb507db57a6069ad04c52e6e6422956", "is_reserved": 0}, {"is_disabled": 0, "fusion_lon": 0.0, "fusion_lat": 0.0, "lat": 38.893161166666665, "type": "electric_scooter", "lon": -77.02204466666667, "bike_id": "2c09996635acd633abc9d8505a0f11e5", "rental_uris": {"android": "https://dc.lft.to/lastmile_qr_scan", "ios": "https://dc.lft.to/lastmile_qr_scan"}, "name": "2c09996635acd633abc9d8505a0f11e5", "is_reserved": 0}, {"is_disabled": 0, "fusion_lon": 0.0, "fusion_lat": 0.0, "lat": 38.91039283333333, "type": "electric_scooter", "lon": -77.04062516666667, "bike_id": "af7e812f655f9592009f629f4f5edab4", "rental_uris": {"android": "https://dc.lft.to/lastmile_qr_scan", "ios": "https://dc.lft.to/lastmile_qr_scan"}, "name": "af7e812f655f9592009f629f4f5edab4", "is_reserved": 0}, {"is_disabled": 0, "fusion_lon": 0.0, "fusion_lat": 0.0, "lat": 38.893706, "type": "electric_scooter", "lon": -76.94996166666667, "bike_id": "e5a700e4d53223cefc179f73724ac113", "rental_uris": {"android": "https://dc.lft.to/lastmile_qr_scan", "ios": "https://dc.lft.to/lastmile_qr_scan"}, "name": "e5a700e4d53223cefc179f73724ac113", "is_reserved": 0}, {"is_disabled": 0, "fusion_lon": 0.0, "fusion_lat": 0.0, "lat": 38.90885816666667, "type": "electric_bike", "lon": -77.03215566666667, "bike_id": "63b0bd7945cbee8158a79263c01fe4d9", "rental_uris": {"android": "https://dc.lft.to/lastmile_qr_scan", "ios": "https://dc.lft.to/lastmile_qr_scan"}, "name": "63b0bd7945cbee8158a79263c01fe4d9", "is_reserved": 0}, {"is_disabled": 0, "fusion_lon": 0.0, "fusion_lat": 0.0, "lat": 38.905059333333334, "type": "electric_scooter", "lon": -76.98849783333333, "bike_id": "f950e545bd7bb14454b19e4a53478991", "rental_uris": {"android": "https://dc.lft.to/lastmile_qr_scan", "ios": "https://dc.lft.to/lastmile_qr_scan"}, "name": "f950e545bd7bb14454b19e4a53478991", "is_reserved": 0}, {"is_disabled": 0, "fusion_lon": 0.0, "fusion_lat": 0.0, "lat": 38.917984833333335, "type": "electric_scooter", "lon": -77.04015333333334, "bike_id": "2f8e9fb74e517ab122e155b1683dfb62", "rental_uris": {"android": "https://dc.lft.to/lastmile_qr_scan", "ios": "https://dc.lft.to/lastmile_qr_scan"}, "name": "2f8e9fb74e517ab122e155b1683dfb62", "is_reserved": 0}, {"is_disabled": 0, "fusion_lon": 0.0, "fusion_lat": 0.0, "lat": 38.908548, "type": "electric_scooter", "lon": -77.07157816666667, "bike_id": "b3e315f5d17e2da8a3741a85701cce1c", "rental_uris": {"android": "https://dc.lft.to/lastmile_qr_scan", "ios": "https://dc.lft.to/lastmile_qr_scan"}, "name": "b3e315f5d17e2da8a3741a85701cce1c", "is_reserved": 0}, {"is_disabled": 0, "fusion_lon": 0.0, "fusion_lat": 0.0, "lat": 38.925942666666664, "type": "electric_bike", "lon": -76.88910066666666, "bike_id": "995a944dd7cd412129967cefa69910d9", "rental_uris": {"android": "https://dc.lft.to/lastmile_qr_scan", "ios": "https://dc.lft.to/lastmile_qr_scan"}, "name": "995a944dd7cd412129967cefa69910d9", "is_reserved": 0}, {"is_disabled": 0, "fusion_lon": 0.0, "fusion_lat": 0.0, "lat": 38.87293366666667, "type": "electric_scooter", "lon": -76.97730283333334, "bike_id": "d45526629a25c1b2136fb172390aca6f", "rental_uris": {"android": "https://dc.lft.to/lastmile_qr_scan", "ios": "https://dc.lft.to/lastmile_qr_scan"}, "name": "d45526629a25c1b2136fb172390aca6f", "is_reserved": 0}, {"is_disabled": 0, "fusion_lon": 0.0, "fusion_lat": 0.0, "lat": 38.95414, "type": "electric_scooter", "lon": -77.0284635, "bike_id": "00c9f2c408eebd9aaa4b2d95a4bbd1a6", "rental_uris": {"android": "https://dc.lft.to/lastmile_qr_scan", "ios": "https://dc.lft.to/lastmile_qr_scan"}, "name": "00c9f2c408eebd9aaa4b2d95a4bbd1a6", "is_reserved": 0}, {"is_disabled": 0, "fusion_lon": 0.0, "fusion_lat": 0.0, "lat": 38.97678583333333, "type": "electric_bike", "lon": -76.97169383333333, "bike_id": "ec637aca85b4e817363fa3bcb5f03bc2", "rental_uris": {"android": "https://dc.lft.to/lastmile_qr_scan", "ios": "https://dc.lft.to/lastmile_qr_scan"}, "name": "ec637aca85b4e817363fa3bcb5f03bc2", "is_reserved": 0}, {"is_disabled": 0, "fusion_lon": 0.0, "fusion_lat": 0.0, "lat": 38.93863133333333, "type": "electric_scooter", "lon": -77.02649116666667, "bike_id": "12adee748a7827da8b017d8dfad72031", "rental_uris": {"android": "https://dc.lft.to/lastmile_qr_scan", "ios": "https://dc.lft.to/lastmile_qr_scan"}, "name": "12adee748a7827da8b017d8dfad72031", "is_reserved": 0}, {"is_disabled": 0, "fusion_lon": 0.0, "fusion_lat": 0.0, "lat": 38.89236833333333, "type": "electric_bike", "lon": -76.95220066666667, "bike_id": "a1f107d626fc2e5e7fa88d17d182ad51", "rental_uris": {"android": "https://dc.lft.to/lastmile_qr_scan", "ios": "https://dc.lft.to/lastmile_qr_scan"}, "name": "a1f107d626fc2e5e7fa88d17d182ad51", "is_reserved": 0}, {"is_disabled": 0, "fusion_lon": 0.0, "fusion_lat": 0.0, "lat": 38.914980166666666, "type": "electric_scooter", "lon": -77.03207866666666, "bike_id": "266c3bd8f3da1bbc89f1073542470f7b", "rental_uris": {"android": "https://dc.lft.to/lastmile_qr_scan", "ios": "https://dc.lft.to/lastmile_qr_scan"}, "name": "266c3bd8f3da1bbc89f1073542470f7b", "is_reserved": 0}, {"is_disabled": 0, "fusion_lon": 0.0, "fusion_lat": 0.0, "lat": 38.8833435, "type": "electric_scooter", "lon": -77.01676033333334, "bike_id": "a913982b44b09bbf16412db40b6eb30b", "rental_uris": {"android": "https://dc.lft.to/lastmile_qr_scan", "ios": "https://dc.lft.to/lastmile_qr_scan"}, "name": "a913982b44b09bbf16412db40b6eb30b", "is_reserved": 0}, {"is_disabled": 0, "fusion_lon": 0.0, "fusion_lat": 0.0, "lat": 38.900265, "type": "electric_scooter", "lon": -76.9959435, "bike_id": "7509e64c691956665e23e8c44c6fbf45", "rental_uris": {"android": "https://dc.lft.to/lastmile_qr_scan", "ios": "https://dc.lft.to/lastmile_qr_scan"}, "name": "7509e64c691956665e23e8c44c6fbf45", "is_reserved": 0}, {"is_disabled": 0, "fusion_lon": 0.0, "fusion_lat": 0.0, "lat": 38.971718, "type": "electric_bike", "lon": -76.98022716666667, "bike_id": "b84197c0e9482f24c619db57c531d78c", "rental_uris": {"android": "https://dc.lft.to/lastmile_qr_scan", "ios": "https://dc.lft.to/lastmile_qr_scan"}, "name": "b84197c0e9482f24c619db57c531d78c", "is_reserved": 0}, {"is_disabled": 0, "fusion_lon": 0.0, "fusion_lat": 0.0, "lat": 38.901369833333334, "type": "electric_scooter", "lon": -77.03996766666667, "bike_id": "bb471ad1150ee142f78382fba61fb913", "rental_uris": {"android": "https://dc.lft.to/lastmile_qr_scan", "ios": "https://dc.lft.to/lastmile_qr_scan"}, "name": "bb471ad1150ee142f78382fba61fb913", "is_reserved": 0}, {"is_disabled": 0, "fusion_lon": 0.0, "fusion_lat": 0.0, "lat": 38.94086983333333, "type": "electric_scooter", "lon": -77.03814583333333, "bike_id": "ee5aee6fb4de338d9f3111de693f7aea", "rental_uris": {"android": "https://dc.lft.to/lastmile_qr_scan", "ios": "https://dc.lft.to/lastmile_qr_scan"}, "name": "ee5aee6fb4de338d9f3111de693f7aea", "is_reserved": 0}, {"is_disabled": 0, "fusion_lon": 0.0, "fusion_lat": 0.0, "lat": 38.893525833333335, "type": "electric_scooter", "lon": -76.984667, "bike_id": "a6e962da85720b9e10f663b4e1318445", "rental_uris": {"android": "https://dc.lft.to/lastmile_qr_scan", "ios": "https://dc.lft.to/lastmile_qr_scan"}, "name": "a6e962da85720b9e10f663b4e1318445", "is_reserved": 0}, {"is_disabled": 0, "fusion_lon": 0.0, "fusion_lat": 0.0, "lat": 38.93963, "type": "electric_scooter", "lon": -77.02751133333334, "bike_id": "4696a91fefaab9d947dd3ce62e8f6d60", "rental_uris": {"android": "https://dc.lft.to/lastmile_qr_scan", "ios": "https://dc.lft.to/lastmile_qr_scan"}, "name": "4696a91fefaab9d947dd3ce62e8f6d60", "is_reserved": 0}, {"is_disabled": 0, "fusion_lon": 0.0, "fusion_lat": 0.0, "lat": 38.90141833333333, "type": "electric_scooter", "lon": -77.0176635, "bike_id": "a0f172c53ecacc4a00b012f5c0ab610a", "rental_uris": {"android": "https://dc.lft.to/lastmile_qr_scan", "ios": "https://dc.lft.to/lastmile_qr_scan"}, "name": "a0f172c53ecacc4a00b012f5c0ab610a", "is_reserved": 0}, {"is_disabled": 0, "fusion_lon": 0.0, "fusion_lat": 0.0, "lat": 38.880215666666665, "type": "electric_scooter", "lon": -76.98236833333333, "bike_id": "96ff59a95669e973f52daba08848c0f2", "rental_uris": {"android": "https://dc.lft.to/lastmile_qr_scan", "ios": "https://dc.lft.to/lastmile_qr_scan"}, "name": "96ff59a95669e973f52daba08848c0f2", "is_reserved": 0}, {"is_disabled": 0, "fusion_lon": 0.0, "fusion_lat": 0.0, "lat": 38.916082833333334, "type": "electric_scooter", "lon": -77.03221233333333, "bike_id": "e1a2c49b7f9e5e4c5227733b83c13cb7", "rental_uris": {"android": "https://dc.lft.to/lastmile_qr_scan", "ios": "https://dc.lft.to/lastmile_qr_scan"}, "name": "e1a2c49b7f9e5e4c5227733b83c13cb7", "is_reserved": 0}, {"is_disabled": 0, "fusion_lon": 0.0, "fusion_lat": 0.0, "lat": 38.8998965, "type": "electric_scooter", "lon": -76.9966785, "bike_id": "dcc6ce70ba6f081340afeaed6b53c43f", "rental_uris": {"android": "https://dc.lft.to/lastmile_qr_scan", "ios": "https://dc.lft.to/lastmile_qr_scan"}, "name": "dcc6ce70ba6f081340afeaed6b53c43f", "is_reserved": 0}, {"is_disabled": 0, "fusion_lon": 0.0, "fusion_lat": 0.0, "lat": 38.900580833333336, "type": "electric_scooter", "lon": -76.98683816666667, "bike_id": "f26704b5225dae19b6de295300bafee5", "rental_uris": {"android": "https://dc.lft.to/lastmile_qr_scan", "ios": "https://dc.lft.to/lastmile_qr_scan"}, "name": "f26704b5225dae19b6de295300bafee5", "is_reserved": 0}, {"is_disabled": 0, "fusion_lon": 0.0, "fusion_lat": 0.0, "lat": 38.913851666666666, "type": "electric_scooter", "lon": -77.02966366666666, "bike_id": "f85814635de30175c7c2afa7276c4080", "rental_uris": {"android": "https://dc.lft.to/lastmile_qr_scan", "ios": "https://dc.lft.to/lastmile_qr_scan"}, "name": "f85814635de30175c7c2afa7276c4080", "is_reserved": 0}, {"is_disabled": 0, "fusion_lon": 0.0, "fusion_lat": 0.0, "lat": 38.887038833333335, "type": "electric_scooter", "lon": -76.95363316666666, "bike_id": "bfbd1455e19c7f9c257c1088e9cb20c4", "rental_uris": {"android": "https://dc.lft.to/lastmile_qr_scan", "ios": "https://dc.lft.to/lastmile_qr_scan"}, "name": "bfbd1455e19c7f9c257c1088e9cb20c4", "is_reserved": 0}, {"is_disabled": 0, "fusion_lon": 0.0, "fusion_lat": 0.0, "lat": 38.908368833333334, "type": "electric_scooter", "lon": -76.99688316666666, "bike_id": "5395b6d1b96481c4e3e02ab3e6f59cc6", "rental_uris": {"android": "https://dc.lft.to/lastmile_qr_scan", "ios": "https://dc.lft.to/lastmile_qr_scan"}, "name": "5395b6d1b96481c4e3e02ab3e6f59cc6", "is_reserved": 0}, {"is_disabled": 0, "fusion_lon": 0.0, "fusion_lat": 0.0, "lat": 38.842930333333335, "type": "electric_scooter", "lon": -76.99949516666666, "bike_id": "40b2043ed8a5d63b4192965a331af988", "rental_uris": {"android": "https://dc.lft.to/lastmile_qr_scan", "ios": "https://dc.lft.to/lastmile_qr_scan"}, "name": "40b2043ed8a5d63b4192965a331af988", "is_reserved": 0}, {"is_disabled": 0, "fusion_lon": 0.0, "fusion_lat": 0.0, "lat": 38.91129866666667, "type": "electric_scooter", "lon": -77.04177816666666, "bike_id": "49234128600d22360a9163c4ee30e2f6", "rental_uris": {"android": "https://dc.lft.to/lastmile_qr_scan", "ios": "https://dc.lft.to/lastmile_qr_scan"}, "name": "49234128600d22360a9163c4ee30e2f6", "is_reserved": 0}, {"is_disabled": 0, "fusion_lon": 0.0, "fusion_lat": 0.0, "lat": 38.9079565, "type": "electric_scooter", "lon": -77.04982883333334, "bike_id": "16ace145e9f880015580796962893cac", "rental_uris": {"android": "https://dc.lft.to/lastmile_qr_scan", "ios": "https://dc.lft.to/lastmile_qr_scan"}, "name": "16ace145e9f880015580796962893cac", "is_reserved": 0}, {"is_disabled": 0, "fusion_lon": 0.0, "fusion_lat": 0.0, "lat": 38.9215785, "type": "electric_scooter", "lon": -77.03381266666666, "bike_id": "161676e9e87048e793b819b86a32ebfb", "rental_uris": {"android": "https://dc.lft.to/lastmile_qr_scan", "ios": "https://dc.lft.to/lastmile_qr_scan"}, "name": "161676e9e87048e793b819b86a32ebfb", "is_reserved": 0}, {"is_disabled": 0, "fusion_lon": 0.0, "fusion_lat": 0.0, "lat": 38.894656833333336, "type": "electric_scooter", "lon": -76.99487383333333, "bike_id": "ea89eba31a22804ebc62bc53cb164945", "rental_uris": {"android": "https://dc.lft.to/lastmile_qr_scan", "ios": "https://dc.lft.to/lastmile_qr_scan"}, "name": "ea89eba31a22804ebc62bc53cb164945", "is_reserved": 0}, {"is_disabled": 0, "fusion_lon": 0.0, "fusion_lat": 0.0, "lat": 38.8863305, "type": "electric_scooter", "lon": -76.99852716666666, "bike_id": "78137f9cde05a13b217c2ab03089ce15", "rental_uris": {"android": "https://dc.lft.to/lastmile_qr_scan", "ios": "https://dc.lft.to/lastmile_qr_scan"}, "name": "78137f9cde05a13b217c2ab03089ce15", "is_reserved": 0}, {"is_disabled": 0, "fusion_lon": 0.0, "fusion_lat": 0.0, "lat": 38.8380915, "type": "electric_scooter", "lon": -77.00432433333333, "bike_id": "71a23a9e2f9f324f62a4fc60cd3dd115", "rental_uris": {"android": "https://dc.lft.to/lastmile_qr_scan", "ios": "https://dc.lft.to/lastmile_qr_scan"}, "name": "71a23a9e2f9f324f62a4fc60cd3dd115", "is_reserved": 0}, {"is_disabled": 0, "fusion_lon": 0.0, "fusion_lat": 0.0, "lat": 38.946583, "type": "electric_scooter", "lon": -77.065349, "bike_id": "81d74e879b094b974005f94dcaa8b282", "rental_uris": {"android": "https://dc.lft.to/lastmile_qr_scan", "ios": "https://dc.lft.to/lastmile_qr_scan"}, "name": "81d74e879b094b974005f94dcaa8b282", "is_reserved": 0}, {"is_disabled": 0, "fusion_lon": 0.0, "fusion_lat": 0.0, "lat": 39.0994415, "type": "electric_bike", "lon": -77.18788483333333, "bike_id": "f8d14ece47293a65848a54f1056d51f6", "rental_uris": {"android": "https://dc.lft.to/lastmile_qr_scan", "ios": "https://dc.lft.to/lastmile_qr_scan"}, "name": "f8d14ece47293a65848a54f1056d51f6", "is_reserved": 0}, {"is_disabled": 0, "fusion_lon": 0.0, "fusion_lat": 0.0, "lat": 38.842939666666666, "type": "electric_scooter", "lon": -76.99951033333333, "bike_id": "8f63a033fcedc7c2dd2529593c90001e", "rental_uris": {"android": "https://dc.lft.to/lastmile_qr_scan", "ios": "https://dc.lft.to/lastmile_qr_scan"}, "name": "8f63a033fcedc7c2dd2529593c90001e", "is_reserved": 0}, {"is_disabled": 0, "fusion_lon": 0.0, "fusion_lat": 0.0, "lat": 38.93499533333333, "type": "electric_bike", "lon": -76.94962966666667, "bike_id": "40c3e2ad54e9d592f04781bfa837a0a6", "rental_uris": {"android": "https://dc.lft.to/lastmile_qr_scan", "ios": "https://dc.lft.to/lastmile_qr_scan"}, "name": "40c3e2ad54e9d592f04781bfa837a0a6", "is_reserved": 0}, {"is_disabled": 0, "fusion_lon": 0.0, "fusion_lat": 0.0, "lat": 38.895112833333336, "type": "electric_scooter", "lon": -77.01098, "bike_id": "ff56e2d29b131a7cd9a7c7b42cdef8a6", "rental_uris": {"android": "https://dc.lft.to/lastmile_qr_scan", "ios": "https://dc.lft.to/lastmile_qr_scan"}, "name": "ff56e2d29b131a7cd9a7c7b42cdef8a6", "is_reserved": 0}, {"is_disabled": 0, "fusion_lon": 0.0, "fusion_lat": 0.0, "lat": 38.8976735, "type": "electric_scooter", "lon": -77.02852283333333, "bike_id": "d08a781997a3cc3f7c797906ef98bb66", "rental_uris": {"android": "https://dc.lft.to/lastmile_qr_scan", "ios": "https://dc.lft.to/lastmile_qr_scan"}, "name": "d08a781997a3cc3f7c797906ef98bb66", "is_reserved": 0}, {"is_disabled": 0, "fusion_lon": 0.0, "fusion_lat": 0.0, "lat": 38.90853966666667, "type": "electric_scooter", "lon": -77.0607675, "bike_id": "884e54cfe0707a8c809b7cac7df192da", "rental_uris": {"android": "https://dc.lft.to/lastmile_qr_scan", "ios": "https://dc.lft.to/lastmile_qr_scan"}, "name": "884e54cfe0707a8c809b7cac7df192da", "is_reserved": 0}, {"is_disabled": 0, "fusion_lon": 0.0, "fusion_lat": 0.0, "lat": 38.897460833333334, "type": "electric_scooter", "lon": -77.0516235, "bike_id": "42d9ed545517b8d1ace108f7e8030f87", "rental_uris": {"android": "https://dc.lft.to/lastmile_qr_scan", "ios": "https://dc.lft.to/lastmile_qr_scan"}, "name": "42d9ed545517b8d1ace108f7e8030f87", "is_reserved": 0}, {"is_disabled": 0, "fusion_lon": 0.0, "fusion_lat": 0.0, "lat": 38.94516683333333, "type": "electric_bike", "lon": -77.02653666666667, "bike_id": "12a7390c76e03ea0c8f54e016dd723f0", "rental_uris": {"android": "https://dc.lft.to/lastmile_qr_scan", "ios": "https://dc.lft.to/lastmile_qr_scan"}, "name": "12a7390c76e03ea0c8f54e016dd723f0", "is_reserved": 0}, {"is_disabled": 0, "fusion_lon": 0.0, "fusion_lat": 0.0, "lat": 38.9364225, "type": "electric_scooter", "lon": -77.0269735, "bike_id": "d8ddb7daefdeef64d91a385de422a6ed", "rental_uris": {"android": "https://dc.lft.to/lastmile_qr_scan", "ios": "https://dc.lft.to/lastmile_qr_scan"}, "name": "d8ddb7daefdeef64d91a385de422a6ed", "is_reserved": 0}, {"is_disabled": 0, "fusion_lon": 0.0, "fusion_lat": 0.0, "lat": 38.935251666666666, "type": "electric_scooter", "lon": -77.06630316666667, "bike_id": "70ec24c78a7f855af881eb67dc60b643", "rental_uris": {"android": "https://dc.lft.to/lastmile_qr_scan", "ios": "https://dc.lft.to/lastmile_qr_scan"}, "name": "70ec24c78a7f855af881eb67dc60b643", "is_reserved": 0}, {"is_disabled": 0, "fusion_lon": 0.0, "fusion_lat": 0.0, "lat": 38.910317, "type": "electric_scooter", "lon": -77.04266016666666, "bike_id": "9db343441382d34f1dc8cad4436bde3a", "rental_uris": {"android": "https://dc.lft.to/lastmile_qr_scan", "ios": "https://dc.lft.to/lastmile_qr_scan"}, "name": "9db343441382d34f1dc8cad4436bde3a", "is_reserved": 0}, {"is_disabled": 0, "fusion_lon": 0.0, "fusion_lat": 0.0, "lat": 38.91608333333333, "type": "electric_scooter", "lon": -77.04599, "bike_id": "bd47828182cf51437cd4ad1516621688", "rental_uris": {"android": "https://dc.lft.to/lastmile_qr_scan", "ios": "https://dc.lft.to/lastmile_qr_scan"}, "name": "bd47828182cf51437cd4ad1516621688", "is_reserved": 0}, {"is_disabled": 0, "fusion_lon": 0.0, "fusion_lat": 0.0, "lat": 38.91777783333333, "type": "electric_scooter", "lon": -77.043004, "bike_id": "df2dccd47cef5f306a082d3dba63f0c5", "rental_uris": {"android": "https://dc.lft.to/lastmile_qr_scan", "ios": "https://dc.lft.to/lastmile_qr_scan"}, "name": "df2dccd47cef5f306a082d3dba63f0c5", "is_reserved": 0}, {"is_disabled": 0, "fusion_lon": 0.0, "fusion_lat": 0.0, "lat": 38.907054333333335, "type": "electric_scooter", "lon": -76.98692083333333, "bike_id": "ed70356682efb7548a8e67469c64011d", "rental_uris": {"android": "https://dc.lft.to/lastmile_qr_scan", "ios": "https://dc.lft.to/lastmile_qr_scan"}, "name": "ed70356682efb7548a8e67469c64011d", "is_reserved": 0}, {"is_disabled": 0, "fusion_lon": 0.0, "fusion_lat": 0.0, "lat": 38.9245835, "type": "electric_bike", "lon": -76.99946233333333, "bike_id": "9f0ec633a7834757d80f8108f6aa138d", "rental_uris": {"android": "https://dc.lft.to/lastmile_qr_scan", "ios": "https://dc.lft.to/lastmile_qr_scan"}, "name": "9f0ec633a7834757d80f8108f6aa138d", "is_reserved": 0}, {"is_disabled": 0, "fusion_lon": 0.0, "fusion_lat": 0.0, "lat": 38.919023333333335, "type": "electric_scooter", "lon": -77.02757233333334, "bike_id": "3d5f1cdb39366c92bf6c4f0e4c564c7b", "rental_uris": {"android": "https://dc.lft.to/lastmile_qr_scan", "ios": "https://dc.lft.to/lastmile_qr_scan"}, "name": "3d5f1cdb39366c92bf6c4f0e4c564c7b", "is_reserved": 0}, {"is_disabled": 0, "fusion_lon": 0.0, "fusion_lat": 0.0, "lat": 38.897655666666665, "type": "electric_scooter", "lon": -77.02771466666667, "bike_id": "dc406d4623c574ed9e88a6c55dd4811d", "rental_uris": {"android": "https://dc.lft.to/lastmile_qr_scan", "ios": "https://dc.lft.to/lastmile_qr_scan"}, "name": "dc406d4623c574ed9e88a6c55dd4811d", "is_reserved": 0}, {"is_disabled": 0, "fusion_lon": 0.0, "fusion_lat": 0.0, "lat": 38.873506166666665, "type": "electric_scooter", "lon": -77.0173985, "bike_id": "c4af299667c261fc27d8d5a586c5c7c5", "rental_uris": {"android": "https://dc.lft.to/lastmile_qr_scan", "ios": "https://dc.lft.to/lastmile_qr_scan"}, "name": "c4af299667c261fc27d8d5a586c5c7c5", "is_reserved": 0}, {"is_disabled": 0, "fusion_lon": 0.0, "fusion_lat": 0.0, "lat": 38.95881116666666, "type": "electric_bike", "lon": -76.92491016666666, "bike_id": "67dc6026ac1665824b3cda10be392af3", "rental_uris": {"android": "https://dc.lft.to/lastmile_qr_scan", "ios": "https://dc.lft.to/lastmile_qr_scan"}, "name": "67dc6026ac1665824b3cda10be392af3", "is_reserved": 0}, {"is_disabled": 0, "fusion_lon": 0.0, "fusion_lat": 0.0, "lat": 38.89753133333333, "type": "electric_scooter", "lon": -77.02871933333333, "bike_id": "57e6d44c37092f684a0f3d9600adc86c", "rental_uris": {"android": "https://dc.lft.to/lastmile_qr_scan", "ios": "https://dc.lft.to/lastmile_qr_scan"}, "name": "57e6d44c37092f684a0f3d9600adc86c", "is_reserved": 0}, {"is_disabled": 0, "fusion_lon": 0.0, "fusion_lat": 0.0, "lat": 38.89743516666667, "type": "electric_scooter", "lon": -77.02495266666666, "bike_id": "195925239147b6cbe8c9bc282e324242", "rental_uris": {"android": "https://dc.lft.to/lastmile_qr_scan", "ios": "https://dc.lft.to/lastmile_qr_scan"}, "name": "195925239147b6cbe8c9bc282e324242", "is_reserved": 0}, {"is_disabled": 0, "fusion_lon": 0.0, "fusion_lat": 0.0, "lat": 38.8937475, "type": "electric_scooter", "lon": -76.97820566666667, "bike_id": "6723a4feaa6287ff636978d8ca3ba723", "rental_uris": {"android": "https://dc.lft.to/lastmile_qr_scan", "ios": "https://dc.lft.to/lastmile_qr_scan"}, "name": "6723a4feaa6287ff636978d8ca3ba723", "is_reserved": 0}, {"is_disabled": 0, "fusion_lon": 0.0, "fusion_lat": 0.0, "lat": 38.8931115, "type": "electric_scooter", "lon": -77.02203466666667, "bike_id": "311d223cbec2e5f1472faccd414a6545", "rental_uris": {"android": "https://dc.lft.to/lastmile_qr_scan", "ios": "https://dc.lft.to/lastmile_qr_scan"}, "name": "311d223cbec2e5f1472faccd414a6545", "is_reserved": 0}, {"is_disabled": 0, "fusion_lon": 0.0, "fusion_lat": 0.0, "lat": 38.9051975, "type": "electric_scooter", "lon": -77.0503135, "bike_id": "5fbcc6999a368b1104a6ddb632b2fdd9", "rental_uris": {"android": "https://dc.lft.to/lastmile_qr_scan", "ios": "https://dc.lft.to/lastmile_qr_scan"}, "name": "5fbcc6999a368b1104a6ddb632b2fdd9", "is_reserved": 0}, {"is_disabled": 0, "fusion_lon": 0.0, "fusion_lat": 0.0, "lat": 38.91658616666667, "type": "electric_scooter", "lon": -77.04653833333333, "bike_id": "db68b868847c5c4d60297c2ef5e0f961", "rental_uris": {"android": "https://dc.lft.to/lastmile_qr_scan", "ios": "https://dc.lft.to/lastmile_qr_scan"}, "name": "db68b868847c5c4d60297c2ef5e0f961", "is_reserved": 0}, {"is_disabled": 0, "fusion_lon": 0.0, "fusion_lat": 0.0, "lat": 38.885259166666664, "type": "electric_scooter", "lon": -76.99805983333333, "bike_id": "c13124f6a445cb3fabb84f696c99bf95", "rental_uris": {"android": "https://dc.lft.to/lastmile_qr_scan", "ios": "https://dc.lft.to/lastmile_qr_scan"}, "name": "c13124f6a445cb3fabb84f696c99bf95", "is_reserved": 0}, {"is_disabled": 0, "fusion_lon": 0.0, "fusion_lat": 0.0, "lat": 38.920168833333335, "type": "electric_scooter", "lon": -77.044233, "bike_id": "79dddca5757572c9f4105a723814b025", "rental_uris": {"android": "https://dc.lft.to/lastmile_qr_scan", "ios": "https://dc.lft.to/lastmile_qr_scan"}, "name": "79dddca5757572c9f4105a723814b025", "is_reserved": 0}, {"is_disabled": 0, "fusion_lon": 0.0, "fusion_lat": 0.0, "lat": 38.9604645, "type": "electric_bike", "lon": -76.92713133333334, "bike_id": "ecbc8c7ad17d90a1a2ad54b14e8777f3", "rental_uris": {"android": "https://dc.lft.to/lastmile_qr_scan", "ios": "https://dc.lft.to/lastmile_qr_scan"}, "name": "ecbc8c7ad17d90a1a2ad54b14e8777f3", "is_reserved": 0}, {"is_disabled": 0, "fusion_lon": 0.0, "fusion_lat": 0.0, "lat": 38.858719666666666, "type": "electric_scooter", "lon": -76.99024733333333, "bike_id": "f27e84ba41c965d3cd591cb6376d07f8", "rental_uris": {"android": "https://dc.lft.to/lastmile_qr_scan", "ios": "https://dc.lft.to/lastmile_qr_scan"}, "name": "f27e84ba41c965d3cd591cb6376d07f8", "is_reserved": 0}, {"is_disabled": 0, "fusion_lon": 0.0, "fusion_lat": 0.0, "lat": 38.93100316666667, "type": "electric_scooter", "lon": -77.03816216666667, "bike_id": "3f8c30d4d44fb0301d3f21108504b929", "rental_uris": {"android": "https://dc.lft.to/lastmile_qr_scan", "ios": "https://dc.lft.to/lastmile_qr_scan"}, "name": "3f8c30d4d44fb0301d3f21108504b929", "is_reserved": 0}, {"is_disabled": 0, "fusion_lon": 0.0, "fusion_lat": 0.0, "lat": 38.907015333333334, "type": "electric_scooter", "lon": -77.06310033333334, "bike_id": "7a657e4f985d3ed3ec47822e2fb97a3b", "rental_uris": {"android": "https://dc.lft.to/lastmile_qr_scan", "ios": "https://dc.lft.to/lastmile_qr_scan"}, "name": "7a657e4f985d3ed3ec47822e2fb97a3b", "is_reserved": 0}, {"is_disabled": 0, "fusion_lon": 0.0, "fusion_lat": 0.0, "lat": 38.92218716666667, "type": "electric_scooter", "lon": -77.0423195, "bike_id": "af45b1e6f4874877084a24981c0bb558", "rental_uris": {"android": "https://dc.lft.to/lastmile_qr_scan", "ios": "https://dc.lft.to/lastmile_qr_scan"}, "name": "af45b1e6f4874877084a24981c0bb558", "is_reserved": 0}, {"is_disabled": 0, "fusion_lon": 0.0, "fusion_lat": 0.0, "lat": 38.8841455, "type": "electric_scooter", "lon": -77.024024, "bike_id": "cbf2a8cda760460b51086e285d9ba9bc", "rental_uris": {"android": "https://dc.lft.to/lastmile_qr_scan", "ios": "https://dc.lft.to/lastmile_qr_scan"}, "name": "cbf2a8cda760460b51086e285d9ba9bc", "is_reserved": 0}, {"is_disabled": 0, "fusion_lon": 0.0, "fusion_lat": 0.0, "lat": 38.80297766666666, "type": "electric_bike", "lon": -77.039887, "bike_id": "2c1a0c631bdf306d9d772f8443d4697d", "rental_uris": {"android": "https://dc.lft.to/lastmile_qr_scan", "ios": "https://dc.lft.to/lastmile_qr_scan"}, "name": "2c1a0c631bdf306d9d772f8443d4697d", "is_reserved": 0}, {"is_disabled": 0, "fusion_lon": 0.0, "fusion_lat": 0.0, "lat": 38.887413333333335, "type": "electric_scooter", "lon": -77.01533983333333, "bike_id": "8aba3bde4caaadb9834986552781576a", "rental_uris": {"android": "https://dc.lft.to/lastmile_qr_scan", "ios": "https://dc.lft.to/lastmile_qr_scan"}, "name": "8aba3bde4caaadb9834986552781576a", "is_reserved": 0}, {"is_disabled": 0, "fusion_lon": 0.0, "fusion_lat": 0.0, "lat": 38.897412, "type": "electric_scooter", "lon": -77.02187366666666, "bike_id": "f6e502c508b3e8557f21880954c92850", "rental_uris": {"android": "https://dc.lft.to/lastmile_qr_scan", "ios": "https://dc.lft.to/lastmile_qr_scan"}, "name": "f6e502c508b3e8557f21880954c92850", "is_reserved": 0}, {"is_disabled": 0, "fusion_lon": 0.0, "fusion_lat": 0.0, "lat": 38.912686, "type": "electric_scooter", "lon": -77.01064533333333, "bike_id": "402d9a7766634942bc35306641314078", "rental_uris": {"android": "https://dc.lft.to/lastmile_qr_scan", "ios": "https://dc.lft.to/lastmile_qr_scan"}, "name": "402d9a7766634942bc35306641314078", "is_reserved": 0}, {"is_disabled": 0, "fusion_lon": 0.0, "fusion_lat": 0.0, "lat": 38.9075995, "type": "electric_scooter", "lon": -77.00757833333333, "bike_id": "443a36833d61a790c4764fe07a54daf1", "rental_uris": {"android": "https://dc.lft.to/lastmile_qr_scan", "ios": "https://dc.lft.to/lastmile_qr_scan"}, "name": "443a36833d61a790c4764fe07a54daf1", "is_reserved": 0}, {"is_disabled": 0, "fusion_lon": 0.0, "fusion_lat": 0.0, "lat": 38.91955683333333, "type": "electric_scooter", "lon": -77.01396866666667, "bike_id": "cd9fe18921a46018b5337aa05e46b7c4", "rental_uris": {"android": "https://dc.lft.to/lastmile_qr_scan", "ios": "https://dc.lft.to/lastmile_qr_scan"}, "name": "cd9fe18921a46018b5337aa05e46b7c4", "is_reserved": 0}, {"is_disabled": 0, "fusion_lon": 0.0, "fusion_lat": 0.0, "lat": 38.934835, "type": "electric_scooter", "lon": -77.0239275, "bike_id": "2fed1dc03c81089334c915023db5979e", "rental_uris": {"android": "https://dc.lft.to/lastmile_qr_scan", "ios": "https://dc.lft.to/lastmile_qr_scan"}, "name": "2fed1dc03c81089334c915023db5979e", "is_reserved": 0}, {"is_disabled": 0, "fusion_lon": 0.0, "fusion_lat": 0.0, "lat": 38.9171295, "type": "electric_scooter", "lon": -77.02886466666666, "bike_id": "f8a22f5dd8a49a5c7f97b444c21a4cd1", "rental_uris": {"android": "https://dc.lft.to/lastmile_qr_scan", "ios": "https://dc.lft.to/lastmile_qr_scan"}, "name": "f8a22f5dd8a49a5c7f97b444c21a4cd1", "is_reserved": 0}, {"is_disabled": 0, "fusion_lon": 0.0, "fusion_lat": 0.0, "lat": 38.917419333333335, "type": "electric_scooter", "lon": -77.00881283333334, "bike_id": "0caadee6e528dbb751b9e287324f4e61", "rental_uris": {"android": "https://dc.lft.to/lastmile_qr_scan", "ios": "https://dc.lft.to/lastmile_qr_scan"}, "name": "0caadee6e528dbb751b9e287324f4e61", "is_reserved": 0}, {"is_disabled": 0, "fusion_lon": 0.0, "fusion_lat": 0.0, "lat": 38.930327, "type": "electric_bike", "lon": -77.08264316666667, "bike_id": "12533103b956c54f72d1228d18310807", "rental_uris": {"android": "https://dc.lft.to/lastmile_qr_scan", "ios": "https://dc.lft.to/lastmile_qr_scan"}, "name": "12533103b956c54f72d1228d18310807", "is_reserved": 0}, {"is_disabled": 0, "fusion_lon": 0.0, "fusion_lat": 0.0, "lat": 38.93595466666667, "type": "electric_scooter", "lon": -77.05596816666667, "bike_id": "b4f6334e6e8156fec3a6ecd043f19e4b", "rental_uris": {"android": "https://dc.lft.to/lastmile_qr_scan", "ios": "https://dc.lft.to/lastmile_qr_scan"}, "name": "b4f6334e6e8156fec3a6ecd043f19e4b", "is_reserved": 0}, {"is_disabled": 0, "fusion_lon": 0.0, "fusion_lat": 0.0, "lat": 38.854956666666666, "type": "electric_bike", "lon": -77.12041933333333, "bike_id": "1304997b99c08317760f25c6ba307f6b", "rental_uris": {"android": "https://dc.lft.to/lastmile_qr_scan", "ios": "https://dc.lft.to/lastmile_qr_scan"}, "name": "1304997b99c08317760f25c6ba307f6b", "is_reserved": 0}, {"is_disabled": 0, "fusion_lon": 0.0, "fusion_lat": 0.0, "lat": 38.908060666666664, "type": "electric_scooter", "lon": -77.03400366666666, "bike_id": "01edb793993ffcc02b54e29dd996f932", "rental_uris": {"android": "https://dc.lft.to/lastmile_qr_scan", "ios": "https://dc.lft.to/lastmile_qr_scan"}, "name": "01edb793993ffcc02b54e29dd996f932", "is_reserved": 0}, {"is_disabled": 0, "fusion_lon": 0.0, "fusion_lat": 0.0, "lat": 38.9154105, "type": "electric_scooter", "lon": -77.03794883333333, "bike_id": "ebae7aff3a8ef841fa0b5657937d3e53", "rental_uris": {"android": "https://dc.lft.to/lastmile_qr_scan", "ios": "https://dc.lft.to/lastmile_qr_scan"}, "name": "ebae7aff3a8ef841fa0b5657937d3e53", "is_reserved": 0}, {"is_disabled": 0, "fusion_lon": 0.0, "fusion_lat": 0.0, "lat": 38.922313833333334, "type": "electric_scooter", "lon": -77.033136, "bike_id": "747af7068c53634ee8e02982e75591dc", "rental_uris": {"android": "https://dc.lft.to/lastmile_qr_scan", "ios": "https://dc.lft.to/lastmile_qr_scan"}, "name": "747af7068c53634ee8e02982e75591dc", "is_reserved": 0}, {"is_disabled": 0, "fusion_lon": 0.0, "fusion_lat": 0.0, "lat": 38.93660083333333, "type": "electric_scooter", "lon": -77.05938333333333, "bike_id": "1593d8450e90ad2881656599be8f4be8", "rental_uris": {"android": "https://dc.lft.to/lastmile_qr_scan", "ios": "https://dc.lft.to/lastmile_qr_scan"}, "name": "1593d8450e90ad2881656599be8f4be8", "is_reserved": 0}, {"is_disabled": 0, "fusion_lon": 0.0, "fusion_lat": 0.0, "lat": 38.91716516666666, "type": "electric_scooter", "lon": -76.972388, "bike_id": "562d7f53c93b5451e0895e33d58ad1e1", "rental_uris": {"android": "https://dc.lft.to/lastmile_qr_scan", "ios": "https://dc.lft.to/lastmile_qr_scan"}, "name": "562d7f53c93b5451e0895e33d58ad1e1", "is_reserved": 0}, {"is_disabled": 0, "fusion_lon": 0.0, "fusion_lat": 0.0, "lat": 38.89835183333334, "type": "electric_scooter", "lon": -76.946347, "bike_id": "f2b8f160f3f88cec1c0acf415d6deadc", "rental_uris": {"android": "https://dc.lft.to/lastmile_qr_scan", "ios": "https://dc.lft.to/lastmile_qr_scan"}, "name": "f2b8f160f3f88cec1c0acf415d6deadc", "is_reserved": 0}, {"is_disabled": 0, "fusion_lon": 0.0, "fusion_lat": 0.0, "lat": 38.82783933333333, "type": "electric_bike", "lon": -77.11076433333334, "bike_id": "8f3a9b6f1f1a3b7da16abae4785217f0", "rental_uris": {"android": "https://dc.lft.to/lastmile_qr_scan", "ios": "https://dc.lft.to/lastmile_qr_scan"}, "name": "8f3a9b6f1f1a3b7da16abae4785217f0", "is_reserved": 0}, {"is_disabled": 0, "fusion_lon": 0.0, "fusion_lat": 0.0, "lat": 38.962655166666664, "type": "electric_scooter", "lon": -77.02893833333333, "bike_id": "82add872326838d6a9699a2a8fb643e2", "rental_uris": {"android": "https://dc.lft.to/lastmile_qr_scan", "ios": "https://dc.lft.to/lastmile_qr_scan"}, "name": "82add872326838d6a9699a2a8fb643e2", "is_reserved": 0}, {"is_disabled": 0, "fusion_lon": 0.0, "fusion_lat": 0.0, "lat": 38.92388416666667, "type": "electric_scooter", "lon": -77.03025966666667, "bike_id": "0cc6c32570eb43c211cf39d5d1a78bf4", "rental_uris": {"android": "https://dc.lft.to/lastmile_qr_scan", "ios": "https://dc.lft.to/lastmile_qr_scan"}, "name": "0cc6c32570eb43c211cf39d5d1a78bf4", "is_reserved": 0}, {"is_disabled": 0, "fusion_lon": 0.0, "fusion_lat": 0.0, "lat": 38.907923, "type": "electric_scooter", "lon": -77.0304895, "bike_id": "198ac41a747606ca78f0517557f30926", "rental_uris": {"android": "https://dc.lft.to/lastmile_qr_scan", "ios": "https://dc.lft.to/lastmile_qr_scan"}, "name": "198ac41a747606ca78f0517557f30926", "is_reserved": 0}, {"is_disabled": 0, "fusion_lon": 0.0, "fusion_lat": 0.0, "lat": 38.8853815, "type": "electric_scooter", "lon": -76.92716083333333, "bike_id": "2a11a393bbc00bc034a03ac7cd83988d", "rental_uris": {"android": "https://dc.lft.to/lastmile_qr_scan", "ios": "https://dc.lft.to/lastmile_qr_scan"}, "name": "2a11a393bbc00bc034a03ac7cd83988d", "is_reserved": 0}, {"is_disabled": 0, "fusion_lon": 0.0, "fusion_lat": 0.0, "lat": 38.90479116666667, "type": "electric_bike", "lon": -76.95053916666667, "bike_id": "2f79f97cf7231b3de4c98266aae06e15", "rental_uris": {"android": "https://dc.lft.to/lastmile_qr_scan", "ios": "https://dc.lft.to/lastmile_qr_scan"}, "name": "2f79f97cf7231b3de4c98266aae06e15", "is_reserved": 0}, {"is_disabled": 0, "fusion_lon": 0.0, "fusion_lat": 0.0, "lat": 38.90528966666667, "type": "electric_scooter", "lon": -77.05641016666667, "bike_id": "01a219de974737550cfda5c2ea8c42f9", "rental_uris": {"android": "https://dc.lft.to/lastmile_qr_scan", "ios": "https://dc.lft.to/lastmile_qr_scan"}, "name": "01a219de974737550cfda5c2ea8c42f9", "is_reserved": 0}, {"is_disabled": 0, "fusion_lon": 0.0, "fusion_lat": 0.0, "lat": 38.93968816666667, "type": "electric_scooter", "lon": -77.03281783333334, "bike_id": "e783abf7f9239492491203bf5557f4fe", "rental_uris": {"android": "https://dc.lft.to/lastmile_qr_scan", "ios": "https://dc.lft.to/lastmile_qr_scan"}, "name": "e783abf7f9239492491203bf5557f4fe", "is_reserved": 0}, {"is_disabled": 0, "fusion_lon": 0.0, "fusion_lat": 0.0, "lat": 38.92374366666667, "type": "electric_scooter", "lon": -77.05026933333333, "bike_id": "9b730eb44895d34997cbf18d8fdb883d", "rental_uris": {"android": "https://dc.lft.to/lastmile_qr_scan", "ios": "https://dc.lft.to/lastmile_qr_scan"}, "name": "9b730eb44895d34997cbf18d8fdb883d", "is_reserved": 0}, {"is_disabled": 0, "fusion_lon": 0.0, "fusion_lat": 0.0, "lat": 38.912705333333335, "type": "electric_scooter", "lon": -77.02566183333333, "bike_id": "7aaca3d0f72bcc28f07aae99885e1b40", "rental_uris": {"android": "https://dc.lft.to/lastmile_qr_scan", "ios": "https://dc.lft.to/lastmile_qr_scan"}, "name": "7aaca3d0f72bcc28f07aae99885e1b40", "is_reserved": 0}, {"is_disabled": 0, "fusion_lon": 0.0, "fusion_lat": 0.0, "lat": 38.9302925, "type": "electric_scooter", "lon": -77.03452666666666, "bike_id": "e435b7e46436091406b9c240648b26b2", "rental_uris": {"android": "https://dc.lft.to/lastmile_qr_scan", "ios": "https://dc.lft.to/lastmile_qr_scan"}, "name": "e435b7e46436091406b9c240648b26b2", "is_reserved": 0}, {"is_disabled": 0, "fusion_lon": 0.0, "fusion_lat": 0.0, "lat": 38.9156635, "type": "electric_scooter", "lon": -77.00768016666666, "bike_id": "c3784a9d61838fb7106125a7dab5df20", "rental_uris": {"android": "https://dc.lft.to/lastmile_qr_scan", "ios": "https://dc.lft.to/lastmile_qr_scan"}, "name": "c3784a9d61838fb7106125a7dab5df20", "is_reserved": 0}, {"is_disabled": 0, "fusion_lon": 0.0, "fusion_lat": 0.0, "lat": 38.930038333333336, "type": "electric_scooter", "lon": -77.020944, "bike_id": "0b909f5c200a82d2385202c2ad0aa228", "rental_uris": {"android": "https://dc.lft.to/lastmile_qr_scan", "ios": "https://dc.lft.to/lastmile_qr_scan"}, "name": "0b909f5c200a82d2385202c2ad0aa228", "is_reserved": 0}, {"is_disabled": 0, "fusion_lon": 0.0, "fusion_lat": 0.0, "lat": 38.908494, "type": "electric_scooter", "lon": -77.02063716666666, "bike_id": "4a1c767b706020d14933f287e78538e5", "rental_uris": {"android": "https://dc.lft.to/lastmile_qr_scan", "ios": "https://dc.lft.to/lastmile_qr_scan"}, "name": "4a1c767b706020d14933f287e78538e5", "is_reserved": 0}, {"is_disabled": 0, "fusion_lon": 0.0, "fusion_lat": 0.0, "lat": 38.927643, "type": "electric_scooter", "lon": -77.00593283333333, "bike_id": "547ebd960bab40a587a8f9f68bc70586", "rental_uris": {"android": "https://dc.lft.to/lastmile_qr_scan", "ios": "https://dc.lft.to/lastmile_qr_scan"}, "name": "547ebd960bab40a587a8f9f68bc70586", "is_reserved": 0}, {"is_disabled": 0, "fusion_lon": 0.0, "fusion_lat": 0.0, "lat": 38.903951166666666, "type": "electric_scooter", "lon": -76.99009066666666, "bike_id": "36917ab1c6f4cc874cfaa5f9e3e9c74a", "rental_uris": {"android": "https://dc.lft.to/lastmile_qr_scan", "ios": "https://dc.lft.to/lastmile_qr_scan"}, "name": "36917ab1c6f4cc874cfaa5f9e3e9c74a", "is_reserved": 0}, {"is_disabled": 0, "fusion_lon": 0.0, "fusion_lat": 0.0, "lat": 38.903743166666665, "type": "electric_scooter", "lon": -77.004999, "bike_id": "a486f7b5f2e9f7be0ace6bbc18c262f5", "rental_uris": {"android": "https://dc.lft.to/lastmile_qr_scan", "ios": "https://dc.lft.to/lastmile_qr_scan"}, "name": "a486f7b5f2e9f7be0ace6bbc18c262f5", "is_reserved": 0}, {"is_disabled": 0, "fusion_lon": 0.0, "fusion_lat": 0.0, "lat": 38.92974, "type": "electric_scooter", "lon": -77.007026, "bike_id": "6b9c39a8d1bd6a41cf187b26ffcfb7c6", "rental_uris": {"android": "https://dc.lft.to/lastmile_qr_scan", "ios": "https://dc.lft.to/lastmile_qr_scan"}, "name": "6b9c39a8d1bd6a41cf187b26ffcfb7c6", "is_reserved": 0}, {"is_disabled": 0, "fusion_lon": 0.0, "fusion_lat": 0.0, "lat": 38.897472, "type": "electric_scooter", "lon": -77.047981, "bike_id": "4fda01ac41f38daa1dd34d477575cd21", "rental_uris": {"android": "https://dc.lft.to/lastmile_qr_scan", "ios": "https://dc.lft.to/lastmile_qr_scan"}, "name": "4fda01ac41f38daa1dd34d477575cd21", "is_reserved": 0}, {"is_disabled": 0, "fusion_lon": 0.0, "fusion_lat": 0.0, "lat": 38.923371333333336, "type": "electric_scooter", "lon": -77.04192, "bike_id": "5adff6001101bcd5a2842e627e036e3b", "rental_uris": {"android": "https://dc.lft.to/lastmile_qr_scan", "ios": "https://dc.lft.to/lastmile_qr_scan"}, "name": "5adff6001101bcd5a2842e627e036e3b", "is_reserved": 0}, {"is_disabled": 0, "fusion_lon": 0.0, "fusion_lat": 0.0, "lat": 38.924852666666666, "type": "electric_scooter", "lon": -77.03486, "bike_id": "09ff51046f6be7f732b3aebbe4e281bf", "rental_uris": {"android": "https://dc.lft.to/lastmile_qr_scan", "ios": "https://dc.lft.to/lastmile_qr_scan"}, "name": "09ff51046f6be7f732b3aebbe4e281bf", "is_reserved": 0}, {"is_disabled": 0, "fusion_lon": 0.0, "fusion_lat": 0.0, "lat": 38.919366, "type": "electric_scooter", "lon": -76.98073833333333, "bike_id": "c13c900e6206327195fe97c7d08dfa7a", "rental_uris": {"android": "https://dc.lft.to/lastmile_qr_scan", "ios": "https://dc.lft.to/lastmile_qr_scan"}, "name": "c13c900e6206327195fe97c7d08dfa7a", "is_reserved": 0}, {"is_disabled": 0, "fusion_lon": 0.0, "fusion_lat": 0.0, "lat": 38.85517516666667, "type": "electric_bike", "lon": -76.95836183333333, "bike_id": "e5b66a603bddaf9e96cfa36e2b245be9", "rental_uris": {"android": "https://dc.lft.to/lastmile_qr_scan", "ios": "https://dc.lft.to/lastmile_qr_scan"}, "name": "e5b66a603bddaf9e96cfa36e2b245be9", "is_reserved": 0}, {"is_disabled": 0, "fusion_lon": 0.0, "fusion_lat": 0.0, "lat": 38.92101666666667, "type": "electric_scooter", "lon": -77.01754733333334, "bike_id": "35aa303d494f25b5266f999e8f502b88", "rental_uris": {"android": "https://dc.lft.to/lastmile_qr_scan", "ios": "https://dc.lft.to/lastmile_qr_scan"}, "name": "35aa303d494f25b5266f999e8f502b88", "is_reserved": 0}, {"is_disabled": 0, "fusion_lon": 0.0, "fusion_lat": 0.0, "lat": 38.845954, "type": "electric_bike", "lon": -76.96873816666667, "bike_id": "01d507e09b5201eeb0faa2bc12656089", "rental_uris": {"android": "https://dc.lft.to/lastmile_qr_scan", "ios": "https://dc.lft.to/lastmile_qr_scan"}, "name": "01d507e09b5201eeb0faa2bc12656089", "is_reserved": 0}, {"is_disabled": 0, "fusion_lon": 0.0, "fusion_lat": 0.0, "lat": 38.894992, "type": "electric_scooter", "lon": -77.01613166666667, "bike_id": "dac3c2c6a2dd1bccaf40986399129539", "rental_uris": {"android": "https://dc.lft.to/lastmile_qr_scan", "ios": "https://dc.lft.to/lastmile_qr_scan"}, "name": "dac3c2c6a2dd1bccaf40986399129539", "is_reserved": 0}, {"is_disabled": 0, "fusion_lon": 0.0, "fusion_lat": 0.0, "lat": 38.93558216666667, "type": "electric_scooter", "lon": -77.0820235, "bike_id": "6ba08648af74ad7b4c316902036415a6", "rental_uris": {"android": "https://dc.lft.to/lastmile_qr_scan", "ios": "https://dc.lft.to/lastmile_qr_scan"}, "name": "6ba08648af74ad7b4c316902036415a6", "is_reserved": 0}, {"is_disabled": 0, "fusion_lon": 0.0, "fusion_lat": 0.0, "lat": 38.8990795, "type": "electric_scooter", "lon": -76.93387966666667, "bike_id": "e9dd8bae3f8ecf6c4e9c7ca367f9f921", "rental_uris": {"android": "https://dc.lft.to/lastmile_qr_scan", "ios": "https://dc.lft.to/lastmile_qr_scan"}, "name": "e9dd8bae3f8ecf6c4e9c7ca367f9f921", "is_reserved": 0}, {"is_disabled": 0, "fusion_lon": 0.0, "fusion_lat": 0.0, "lat": 38.92752383333333, "type": "electric_scooter", "lon": -77.0759605, "bike_id": "19d487049d9ba9fd2ebee36d38c8c0d7", "rental_uris": {"android": "https://dc.lft.to/lastmile_qr_scan", "ios": "https://dc.lft.to/lastmile_qr_scan"}, "name": "19d487049d9ba9fd2ebee36d38c8c0d7", "is_reserved": 0}, {"is_disabled": 0, "fusion_lon": 0.0, "fusion_lat": 0.0, "lat": 38.95963033333334, "type": "electric_scooter", "lon": -77.02108016666666, "bike_id": "4b5c99b570b7afb5e71b9b855a4db76e", "rental_uris": {"android": "https://dc.lft.to/lastmile_qr_scan", "ios": "https://dc.lft.to/lastmile_qr_scan"}, "name": "4b5c99b570b7afb5e71b9b855a4db76e", "is_reserved": 0}, {"is_disabled": 0, "fusion_lon": 0.0, "fusion_lat": 0.0, "lat": 38.907562666666664, "type": "electric_scooter", "lon": -77.03609266666666, "bike_id": "6cca278fff447e7d5bd1ea24bbfeb193", "rental_uris": {"android": "https://dc.lft.to/lastmile_qr_scan", "ios": "https://dc.lft.to/lastmile_qr_scan"}, "name": "6cca278fff447e7d5bd1ea24bbfeb193", "is_reserved": 0}, {"is_disabled": 0, "fusion_lon": 0.0, "fusion_lat": 0.0, "lat": 38.921253666666665, "type": "electric_scooter", "lon": -77.01205683333333, "bike_id": "286c2f5f12b4ff2e23dbb77e8ceadf66", "rental_uris": {"android": "https://dc.lft.to/lastmile_qr_scan", "ios": "https://dc.lft.to/lastmile_qr_scan"}, "name": "286c2f5f12b4ff2e23dbb77e8ceadf66", "is_reserved": 0}, {"is_disabled": 0, "fusion_lon": 0.0, "fusion_lat": 0.0, "lat": 38.883635166666664, "type": "electric_bike", "lon": -77.030744, "bike_id": "c994461ba0c442e2308278a44b0d7860", "rental_uris": {"android": "https://dc.lft.to/lastmile_qr_scan", "ios": "https://dc.lft.to/lastmile_qr_scan"}, "name": "c994461ba0c442e2308278a44b0d7860", "is_reserved": 0}, {"is_disabled": 0, "fusion_lon": 0.0, "fusion_lat": 0.0, "lat": 38.95633383333333, "type": "electric_scooter", "lon": -77.0298455, "bike_id": "276df0b0cf9eff805085b127944c555e", "rental_uris": {"android": "https://dc.lft.to/lastmile_qr_scan", "ios": "https://dc.lft.to/lastmile_qr_scan"}, "name": "276df0b0cf9eff805085b127944c555e", "is_reserved": 0}, {"is_disabled": 0, "fusion_lon": 0.0, "fusion_lat": 0.0, "lat": 38.89731416666667, "type": "electric_scooter", "lon": -77.04940916666666, "bike_id": "5b3153d275847e39134eac71db182d40", "rental_uris": {"android": "https://dc.lft.to/lastmile_qr_scan", "ios": "https://dc.lft.to/lastmile_qr_scan"}, "name": "5b3153d275847e39134eac71db182d40", "is_reserved": 0}, {"is_disabled": 0, "fusion_lon": 0.0, "fusion_lat": 0.0, "lat": 38.86133383333333, "type": "electric_scooter", "lon": -76.9853175, "bike_id": "e82c2ad2725447dccfba9428f1833ba8", "rental_uris": {"android": "https://dc.lft.to/lastmile_qr_scan", "ios": "https://dc.lft.to/lastmile_qr_scan"}, "name": "e82c2ad2725447dccfba9428f1833ba8", "is_reserved": 0}, {"is_disabled": 0, "fusion_lon": 0.0, "fusion_lat": 0.0, "lat": 38.91183483333333, "type": "electric_scooter", "lon": -77.03508216666667, "bike_id": "5d274b34cbe58ae2ab25c620b3c19511", "rental_uris": {"android": "https://dc.lft.to/lastmile_qr_scan", "ios": "https://dc.lft.to/lastmile_qr_scan"}, "name": "5d274b34cbe58ae2ab25c620b3c19511", "is_reserved": 0}, {"is_disabled": 0, "fusion_lon": 0.0, "fusion_lat": 0.0, "lat": 38.890436666666666, "type": "electric_scooter", "lon": -76.9524675, "bike_id": "62e1753fe5184ebc93daaa99a95b16ac", "rental_uris": {"android": "https://dc.lft.to/lastmile_qr_scan", "ios": "https://dc.lft.to/lastmile_qr_scan"}, "name": "62e1753fe5184ebc93daaa99a95b16ac", "is_reserved": 0}, {"is_disabled": 0, "fusion_lon": 0.0, "fusion_lat": 0.0, "lat": 38.936252333333336, "type": "electric_scooter", "lon": -77.05909366666667, "bike_id": "c41075576a120af0bad1f51946305599", "rental_uris": {"android": "https://dc.lft.to/lastmile_qr_scan", "ios": "https://dc.lft.to/lastmile_qr_scan"}, "name": "c41075576a120af0bad1f51946305599", "is_reserved": 0}, {"is_disabled": 0, "fusion_lon": 0.0, "fusion_lat": 0.0, "lat": 38.93179716666667, "type": "electric_scooter", "lon": -77.02344766666667, "bike_id": "2f757789adb4989e2ef8ff0d4d2e277a", "rental_uris": {"android": "https://dc.lft.to/lastmile_qr_scan", "ios": "https://dc.lft.to/lastmile_qr_scan"}, "name": "2f757789adb4989e2ef8ff0d4d2e277a", "is_reserved": 0}, {"is_disabled": 0, "fusion_lon": 0.0, "fusion_lat": 0.0, "lat": 38.89673883333333, "type": "electric_scooter", "lon": -76.99790833333333, "bike_id": "83813df5a36d56ba4c648b06cc674b54", "rental_uris": {"android": "https://dc.lft.to/lastmile_qr_scan", "ios": "https://dc.lft.to/lastmile_qr_scan"}, "name": "83813df5a36d56ba4c648b06cc674b54", "is_reserved": 0}, {"is_disabled": 0, "fusion_lon": 0.0, "fusion_lat": 0.0, "lat": 38.928259833333335, "type": "electric_scooter", "lon": -77.01411433333334, "bike_id": "911e7a9802ae904aa26d0aeec5839304", "rental_uris": {"android": "https://dc.lft.to/lastmile_qr_scan", "ios": "https://dc.lft.to/lastmile_qr_scan"}, "name": "911e7a9802ae904aa26d0aeec5839304", "is_reserved": 0}, {"is_disabled": 0, "fusion_lon": 0.0, "fusion_lat": 0.0, "lat": 38.934695833333336, "type": "electric_scooter", "lon": -77.07214333333333, "bike_id": "6facfb0a60cd0ae4e3ab958805f8df97", "rental_uris": {"android": "https://dc.lft.to/lastmile_qr_scan", "ios": "https://dc.lft.to/lastmile_qr_scan"}, "name": "6facfb0a60cd0ae4e3ab958805f8df97", "is_reserved": 0}, {"is_disabled": 0, "fusion_lon": 0.0, "fusion_lat": 0.0, "lat": 38.90148683333334, "type": "electric_scooter", "lon": -77.02934033333334, "bike_id": "062438026d7f38669996e8d37d728f05", "rental_uris": {"android": "https://dc.lft.to/lastmile_qr_scan", "ios": "https://dc.lft.to/lastmile_qr_scan"}, "name": "062438026d7f38669996e8d37d728f05", "is_reserved": 0}, {"is_disabled": 0, "fusion_lon": 0.0, "fusion_lat": 0.0, "lat": 38.900437, "type": "electric_scooter", "lon": -76.922699, "bike_id": "7041cd727f1b0034f364fcf018b99738", "rental_uris": {"android": "https://dc.lft.to/lastmile_qr_scan", "ios": "https://dc.lft.to/lastmile_qr_scan"}, "name": "7041cd727f1b0034f364fcf018b99738", "is_reserved": 0}, {"is_disabled": 0, "fusion_lon": 0.0, "fusion_lat": 0.0, "lat": 38.89371333333333, "type": "electric_scooter", "lon": -76.94998633333333, "bike_id": "2d5775f046755a69a8988e1dbeb8c35e", "rental_uris": {"android": "https://dc.lft.to/lastmile_qr_scan", "ios": "https://dc.lft.to/lastmile_qr_scan"}, "name": "2d5775f046755a69a8988e1dbeb8c35e", "is_reserved": 0}, {"is_disabled": 0, "fusion_lon": 0.0, "fusion_lat": 0.0, "lat": 38.92705266666667, "type": "electric_scooter", "lon": -77.02327933333333, "bike_id": "2996ec5a2f2ead358e98296438477da5", "rental_uris": {"android": "https://dc.lft.to/lastmile_qr_scan", "ios": "https://dc.lft.to/lastmile_qr_scan"}, "name": "2996ec5a2f2ead358e98296438477da5", "is_reserved": 0}, {"is_disabled": 0, "fusion_lon": 0.0, "fusion_lat": 0.0, "lat": 38.9367855, "type": "electric_scooter", "lon": -77.0244655, "bike_id": "355349c1da00b7272b46e11357dc2a91", "rental_uris": {"android": "https://dc.lft.to/lastmile_qr_scan", "ios": "https://dc.lft.to/lastmile_qr_scan"}, "name": "355349c1da00b7272b46e11357dc2a91", "is_reserved": 0}, {"is_disabled": 0, "fusion_lon": 0.0, "fusion_lat": 0.0, "lat": 38.927295, "type": "electric_scooter", "lon": -77.0224125, "bike_id": "3a06a0a6407cd10820c726dc0e8cef3b", "rental_uris": {"android": "https://dc.lft.to/lastmile_qr_scan", "ios": "https://dc.lft.to/lastmile_qr_scan"}, "name": "3a06a0a6407cd10820c726dc0e8cef3b", "is_reserved": 0}, {"is_disabled": 0, "fusion_lon": 0.0, "fusion_lat": 0.0, "lat": 38.920092, "type": "electric_scooter", "lon": -76.98491183333333, "bike_id": "0633455b30b7ab0736a46a372af5ad12", "rental_uris": {"android": "https://dc.lft.to/lastmile_qr_scan", "ios": "https://dc.lft.to/lastmile_qr_scan"}, "name": "0633455b30b7ab0736a46a372af5ad12", "is_reserved": 0}, {"is_disabled": 0, "fusion_lon": 0.0, "fusion_lat": 0.0, "lat": 38.919151, "type": "electric_scooter", "lon": -77.04781783333334, "bike_id": "36a82d97ba84abefb9e5d9da28bc2ee0", "rental_uris": {"android": "https://dc.lft.to/lastmile_qr_scan", "ios": "https://dc.lft.to/lastmile_qr_scan"}, "name": "36a82d97ba84abefb9e5d9da28bc2ee0", "is_reserved": 0},