{"data": {"bikes": [{"lon": -77.0294875, "rental_uris": {"android": "https://dc.lft.to/lastmile_qr_scan", "ios": "https://dc.lft.to/lastmile_qr_scan"}, "fusion_lon": 0.0, "is_reserved": 0, "is_disabled": 0, "fusion_lat": 0.0, "type": "electric_scooter", "name": "09f8df7958ee113b3c063d4f0a75eb19", "lat": 38.932457166666666, "bike_id": "09f8df7958ee113b3c063d4f0a75eb19"}, {"lon": -77.02028333333334, "rental_uris": {"android": "https://dc.lft.to/lastmile_qr_scan", "ios": "https://dc.lft.to/lastmile_qr_scan"}, "fusion_lon": 0.0, "is_reserved": 0, "is_disabled": 0, "fusion_lat": 0.0, "type": "electric_scooter", "name": "4430c08f4449412c1b3163bb224b26c7", "lat": 38.924387333333335, "bike_id": "4430c08f4449412c1b3163bb224b26c7"}, {"lon": -77.03268133333333, "rental_uris": {"android": "https://dc.lft.to/lastmile_qr_scan", "ios": "https://dc.lft.to/lastmile_qr_scan"}, "fusion_lon": 0.0, "is_reserved": 0, "is_disabled": 0, "fusion_lat": 0.0, "type": "electric_scooter", "name": "e87bf533ff4e8f5b0e55e937a425f481", "lat": 38.902630333333335, "bike_id": "e87bf533ff4e8f5b0e55e937a425f481"}, {"lon": -76.99372166666667, "rental_uris": {"android": "https://dc.lft.to/lastmile_qr_scan", "ios": "https://dc.lft.to/lastmile_qr_scan"}, "fusion_lon": 0.0, "is_reserved": 0, "is_disabled": 0, "fusion_lat": 0.0, "type": "electric_scooter", "name": "9db308234f8c4d0cc3560854c52a589e", "lat": 38.88929066666667, "bike_id": "9db308234f8c4d0cc3560854c52a589e"}, {"lon": -77.0728125, "rental_uris": {"android": "https://dc.lft.to/lastmile_qr_scan", "ios": "https://dc.lft.to/lastmile_qr_scan"}, "fusion_lon": 0.0, "is_reserved": 0, "is_disabled": 0, "fusion_lat": 0.0, "type": "electric_scooter", "name": "cbf5b125973da571ddfa2a921c9b053a", "lat": 38.93469283333334, "bike_id": "cbf5b125973da571ddfa2a921c9b053a"}, {"lon": -77.0328, "rental_uris": {"android": "https://dc.lft.to/lastmile_qr_scan", "ios": "https://dc.lft.to/lastmile_qr_scan"}, "fusion_lon": 0.0, "is_reserved": 0, "is_disabled": 0, "fusion_lat": 0.0, "type": "electric_scooter", "name": "7fb0848d2ccddbe367b6a47b0cc5f97a", "lat": 38.93328733333333, "bike_id": "7fb0848d2ccddbe367b6a47b0cc5f97a"}, {"lon": -77.02202, "rental_uris": {"android": "https://dc.lft.to/lastmile_qr_scan", "ios": "https://dc.lft.to/lastmile_qr_scan"}, "fusion_lon": 0.0, "is_reserved": 0, "is_disabled": 0, "fusion_lat": 0.0, "type": "electric_scooter", "name": "468794adb396461fad9d886c61d7a859", "lat": 38.88705933333333, "bike_id": "468794adb396461fad9d886c61d7a859"}, {"lon": -77.031317, "rental_uris": {"android": "https://dc.lft.to/lastmile_qr_scan", "ios": "https://dc.lft.to/lastmile_qr_scan"}, "fusion_lon": 0.0, "is_reserved": 0, "is_disabled": 0, "fusion_lat": 0.0, "type": "electric_scooter", "name": "f58e198ec0cae9af0d5318e1507b8f1c", "lat": 38.92465766666667, "bike_id": "f58e198ec0cae9af0d5318e1507b8f1c"}, {"lon": -77.04654733333334, "rental_uris": {"android": "https://dc.lft.to/lastmile_qr_scan", "ios": "https://dc.lft.to/lastmile_qr_scan"}, "fusion_lon": 0.0, "is_reserved": 0, "is_disabled": 0, "fusion_lat": 0.0, "type": "electric_scooter", "name": "c3b24a82a89a56f38b5bfea4d5c2ee8c", "lat": 38.89952233333333, "bike_id": "c3b24a82a89a56f38b5bfea4d5c2ee8c"}, {"lon": -77.03277216666666, "rental_uris": {"android": "https://dc.lft.to/lastmile_qr_scan", "ios": "https://dc.lft.to/lastmile_qr_scan"}, "fusion_lon": 0.0, "is_reserved": 0, "is_disabled": 0, "fusion_lat": 0.0, "type": "electric_scooter", "name": "d91e378eab48ca9bf901576352103af0", "lat": 38.8989085, "bike_id": "d91e378eab48ca9bf901576352103af0"}, {"lon": -76.93725933333333, "rental_uris": {"android": "https://dc.lft.to/lastmile_qr_scan", "ios": "https://dc.lft.to/lastmile_qr_scan"}, "fusion_lon": 0.0, "is_reserved": 0, "is_disabled": 0, "fusion_lat": 0.0, "type": "electric_scooter", "name": "f9c672ae2d2095ba5c63050400698bc5", "lat": 38.89023433333333, "bike_id": "f9c672ae2d2095ba5c63050400698bc5"}, {"lon": -77.06604216666666, "rental_uris": {"android": "https://dc.lft.to/lastmile_qr_scan", "ios": "https://dc.lft.to/lastmile_qr_scan"}, "fusion_lon": 0.0, "is_reserved": 0, "is_disabled": 0, "fusion_lat": 0.0, "type": "electric_scooter", "name": "3ea3bd60a943d9eeba0ab59bf63e4a4b", "lat": 38.906037833333336, "bike_id": "3ea3bd60a943d9eeba0ab59bf63e4a4b"}, {"lon": -76.95201033333333, "rental_uris": {"android": "https://dc.lft.to/lastmile_qr_scan", "ios": "https://dc.lft.to/lastmile_qr_scan"}, "fusion_lon": 0.0, "is_reserved": 0, "is_disabled": 0, "fusion_lat": 0.0, "type": "electric_scooter", "name": "d0ca783697ca37995e98ccee549e49db", "lat": 38.904748833333336, "bike_id": "d0ca783697ca37995e98ccee549e49db"}, {"lon": -76.98985466666667, "rental_uris": {"android": "https://dc.lft.to/lastmile_qr_scan", "ios": "https://dc.lft.to/lastmile_qr_scan"}, "fusion_lon": 0.0, "is_reserved": 0, "is_disabled": 0, "fusion_lat": 0.0, "type": "electric_scooter", "name": "1e148a2c9ec6c68b059609e491168fd9", "lat": 38.92434166666666, "bike_id": "1e148a2c9ec6c68b059609e491168fd9"}, {"lon": -77.02134933333333, "rental_uris": {"android": "https://dc.lft.to/lastmile_qr_scan", "ios": "https://dc.lft.to/lastmile_qr_scan"}, "fusion_lon": 0.0, "is_reserved": 0, "is_disabled": 0, "fusion_lat": 0.0, "type": "electric_scooter", "name": "6acdd529d0a37b11001125f3485adfd7", "lat": 38.89986533333333, "bike_id": "6acdd529d0a37b11001125f3485adfd7"}, {"lon": -77.00300516666667, "rental_uris": {"android": "https://dc.lft.to/lastmile_qr_scan", "ios": "https://dc.lft.to/lastmile_qr_scan"}, "fusion_lon": 0.0, "is_reserved": 0, "is_disabled": 0, "fusion_lat": 0.0, "type": "electric_scooter", "name": "50d696ab504f0648028c3ab748f8e009", "lat": 38.89215816666667, "bike_id": "50d696ab504f0648028c3ab748f8e009"}, {"lon": -77.054267, "rental_uris": {"android": "https://dc.lft.to/lastmile_qr_scan", "ios": "https://dc.lft.to/lastmile_qr_scan"}, "fusion_lon": 0.0, "is_reserved": 0, "is_disabled": 0, "fusion_lat": 0.0, "type": "electric_scooter", "name": "e8b40254125117ce67badb48e911f2b2", "lat": 38.928426333333334, "bike_id": "e8b40254125117ce67badb48e911f2b2"}, {"lon": -77.18306416666667, "rental_uris": {"android": "https://dc.lft.to/lastmile_qr_scan", "ios": "https://dc.lft.to/lastmile_qr_scan"}, "fusion_lon": 0.0, "is_reserved": 0, "is_disabled": 0, "fusion_lat": 0.0, "type": "electric_bike", "name": "cf6c18499a637dca6853e6eeb94bcac7", "lat": 39.099590666666664, "bike_id": "cf6c18499a637dca6853e6eeb94bcac7"}, {"lon": -77.02137883333333, "rental_uris": {"android": "https://dc.lft.to/lastmile_qr_scan", "ios": "https://dc.lft.to/lastmile_qr_scan"}, "fusion_lon": 0.0, "is_reserved": 0, "is_disabled": 0, "fusion_lat": 0.0, "type": "electric_scooter", "name": "4583304268bed9377557ac69e9ad8e5f", "lat": 38.92495533333334, "bike_id": "4583304268bed9377557ac69e9ad8e5f"}, {"lon": -77.02647966666666, "rental_uris": {"android": "https://dc.lft.to/lastmile_qr_scan", "ios": "https://dc.lft.to/lastmile_qr_scan"}, "fusion_lon": 0.0, "is_reserved": 0, "is_disabled": 0, "fusion_lat": 0.0, "type": "electric_scooter", "name": "96bbeb0c34225a0e39bf1512310e9785", "lat": 38.90854816666667, "bike_id": "96bbeb0c34225a0e39bf1512310e9785"}, {"lon": -76.93742616666667, "rental_uris": {"android": "https://dc.lft.to/lastmile_qr_scan", "ios": "https://dc.lft.to/lastmile_qr_scan"}, "fusion_lon": 0.0, "is_reserved": 0, "is_disabled": 0, "fusion_lat": 0.0, "type": "electric_scooter", "name": "792738add4f50de06c01339a451e423c", "lat": 38.890055833333335, "bike_id": "792738add4f50de06c01339a451e423c"}, {"lon": -77.02153733333333, "rental_uris": {"android": "https://dc.lft.to/lastmile_qr_scan", "ios": "https://dc.lft.to/lastmile_qr_scan"}, "fusion_lon": 0.0, "is_reserved": 0, "is_disabled": 0, "fusion_lat": 0.0, "type": "electric_scooter", "name": "24549505974ab1305875c20cd6a591cd", "lat": 38.87907583333333, "bike_id": "24549505974ab1305875c20cd6a591cd"}, {"lon": -77.02572766666667, "rental_uris": {"android": "https://dc.lft.to/lastmile_qr_scan", "ios": "https://dc.lft.to/lastmile_qr_scan"}, "fusion_lon": 0.0, "is_reserved": 0, "is_disabled": 0, "fusion_lat": 0.0, "type": "electric_scooter", "name": "76875be7a17cc76c88618a7c38e81efd", "lat": 38.8874015, "bike_id": "76875be7a17cc76c88618a7c38e81efd"}, {"lon": -76.97444816666666, "rental_uris": {"android": "https://dc.lft.to/lastmile_qr_scan", "ios": "https://dc.lft.to/lastmile_qr_scan"}, "fusion_lon": 0.0, "is_reserved": 0, "is_disabled": 0, "fusion_lat": 0.0, "type": "electric_scooter", "name": "52a88d3ccf185f3360605c835192e502", "lat": 38.902573, "bike_id": "52a88d3ccf185f3360605c835192e502"}, {"lon": -77.0510985, "rental_uris": {"android": "https://dc.lft.to/lastmile_qr_scan", "ios": "https://dc.lft.to/lastmile_qr_scan"}, "fusion_lon": 0.0, "is_reserved": 0, "is_disabled": 0, "fusion_lat": 0.0, "type": "electric_bike", "name": "b9139dfd3a13ac71473ad338136fd5dc", "lat": 38.81333166666667, "bike_id": "b9139dfd3a13ac71473ad338136fd5dc"}, {"lon": -77.02431233333333, "rental_uris": {"android": "https://dc.lft.to/lastmile_qr_scan", "ios": "https://dc.lft.to/lastmile_qr_scan"}, "fusion_lon": 0.0, "is_reserved": 0, "is_disabled": 0, "fusion_lat": 0.0, "type": "electric_scooter", "name": "61c7006c20a1edf8a8a06d5be3ebc9ec", "lat": 38.941951, "bike_id": "61c7006c20a1edf8a8a06d5be3ebc9ec"}, {"lon": -77.03339916666667, "rental_uris": {"android": "https://dc.lft.to/lastmile_qr_scan", "ios": "https://dc.lft.to/lastmile_qr_scan"}, "fusion_lon": 0.0, "is_reserved": 0, "is_disabled": 0, "fusion_lat": 0.0, "type": "electric_scooter", "name": "7c364daead951486daf44d4f7c1e4f41", "lat": 38.892181, "bike_id": "7c364daead951486daf44d4f7c1e4f41"}, {"lon": -77.03473466666667, "rental_uris": {"android": "https://dc.lft.to/lastmile_qr_scan", "ios": "https://dc.lft.to/lastmile_qr_scan"}, "fusion_lon": 0.0, "is_reserved": 0, "is_disabled": 0, "fusion_lat": 0.0, "type": "electric_scooter", "name": "1d6c8bca6a91db53a8d7f053b640a5b4", "lat": 38.90811183333334, "bike_id": "1d6c8bca6a91db53a8d7f053b640a5b4"}, {"lon": -77.04674116666666, "rental_uris": {"android": "https://dc.lft.to/lastmile_qr_scan", "ios": "https://dc.lft.to/lastmile_qr_scan"}, "fusion_lon": 0.0, "is_reserved": 0, "is_disabled": 0, "fusion_lat": 0.0, "type": "electric_scooter", "name": "c8ae5af8cdaed5c5d5e554a1350f5e6d", "lat": 38.89504633333333, "bike_id": "c8ae5af8cdaed5c5d5e554a1350f5e6d"}, {"lon": -76.99451666666667, "rental_uris": {"android": "https://dc.lft.to/lastmile_qr_scan", "ios": "https://dc.lft.to/lastmile_qr_scan"}, "fusion_lon": 0.0, "is_reserved": 0, "is_disabled": 0, "fusion_lat": 0.0, "type": "electric_scooter", "name": "71251b925457273424e5c882a8658091", "lat": 38.9099415, "bike_id": "71251b925457273424e5c882a8658091"}, {"lon": -77.06943583333333, "rental_uris": {"android": "https://dc.lft.to/lastmile_qr_scan", "ios": "https://dc.lft.to/lastmile_qr_scan"}, "fusion_lon": 0.0, "is_reserved": 0, "is_disabled": 0, "fusion_lat": 0.0, "type": "electric_bike", "name": "262ace807a721be702ed2497ce74ca4e", "lat": 38.836228, "bike_id": "262ace807a721be702ed2497ce74ca4e"}, {"lon": -77.00330283333334, "rental_uris": {"android": "https://dc.lft.to/lastmile_qr_scan", "ios": "https://dc.lft.to/lastmile_qr_scan"}, "fusion_lon": 0.0, "is_reserved": 0, "is_disabled": 0, "fusion_lat": 0.0, "type": "electric_scooter", "name": "ff01329d264e43f9d3ef7556d78f751b", "lat": 38.896050833333334, "bike_id": "ff01329d264e43f9d3ef7556d78f751b"}, {"lon": -77.043528, "rental_uris": {"android": "https://dc.lft.to/lastmile_qr_scan", "ios": "https://dc.lft.to/lastmile_qr_scan"}, "fusion_lon": 0.0, "is_reserved": 0, "is_disabled": 0, "fusion_lat": 0.0, "type": "electric_scooter", "name": "73c6f1f5bce43baac024a18b165c48e6", "lat": 38.901112, "bike_id": "73c6f1f5bce43baac024a18b165c48e6"}, {"lon": -77.01815966666666, "rental_uris": {"android": "https://dc.lft.to/lastmile_qr_scan", "ios": "https://dc.lft.to/lastmile_qr_scan"}, "fusion_lon": 0.0, "is_reserved": 0, "is_disabled": 0, "fusion_lat": 0.0, "type": "electric_scooter", "name": "772e137dbb1e4c4aaa652254160eeaa8", "lat": 38.90106166666666, "bike_id": "772e137dbb1e4c4aaa652254160eeaa8"}, {"lon": -77.04160916666666, "rental_uris": {"android": "https://dc.lft.to/lastmile_qr_scan", "ios": "https://dc.lft.to/lastmile_qr_scan"}, "fusion_lon": 0.0, "is_reserved": 0, "is_disabled": 0, "fusion_lat": 0.0, "type": "electric_scooter", "name": "94d2df21ee22e699e2db43f37c2ea707", "lat": 38.90696233333333, "bike_id": "94d2df21ee22e699e2db43f37c2ea707"}, {"lon": -76.9961, "rental_uris": {"android": "https://dc.lft.to/lastmile_qr_scan", "ios": "https://dc.lft.to/lastmile_qr_scan"}, "fusion_lon": 0.0, "is_reserved": 0, "is_disabled": 0, "fusion_lat": 0.0, "type": "electric_scooter", "name": "1111e323e566e09294f3e013fa1ab357", "lat": 38.894732, "bike_id": "1111e323e566e09294f3e013fa1ab357"}, {"lon": -77.03505133333333, "rental_uris": {"android": "https://dc.lft.to/lastmile_qr_scan", "ios": "https://dc.lft.to/lastmile_qr_scan"}, "fusion_lon": 0.0, "is_reserved": 0, "is_disabled": 0, "fusion_lat": 0.0, "type": "electric_scooter", "name": "9127befc2b1fe51ec8af72fe22cbe2f2", "lat": 38.923556833333336, "bike_id": "9127befc2b1fe51ec8af72fe22cbe2f2"}, {"lon": -77.05748516666667, "rental_uris": {"android": "https://dc.lft.to/lastmile_qr_scan", "ios": "https://dc.lft.to/lastmile_qr_scan"}, "fusion_lon": 0.0, "is_reserved": 0, "is_disabled": 0, "fusion_lat": 0.0, "type": "electric_bike", "name": "0761f4278797cc38534251b8bff10227", "lat": 38.924055833333334, "bike_id": "0761f4278797cc38534251b8bff10227"}, {"lon": -77.004742, "rental_uris": {"android": "https://dc.lft.to/lastmile_qr_scan", "ios": "https://dc.lft.to/lastmile_qr_scan"}, "fusion_lon": 0.0, "is_reserved": 0, "is_disabled": 0, "fusion_lat": 0.0, "type": "electric_bike", "name": "5a6665e4a36c4cecc8939a3f770d9f27", "lat": 38.89147716666667, "bike_id": "5a6665e4a36c4cecc8939a3f770d9f27"}, {"lon": -77.07464716666667, "rental_uris": {"android": "https://dc.lft.to/lastmile_qr_scan", "ios": "https://dc.lft.to/lastmile_qr_scan"}, "fusion_lon": 0.0, "is_reserved": 0, "is_disabled": 0, "fusion_lat": 0.0, "type": "electric_scooter", "name": "7d9bfb95d8b6c60e6658a1981403c750", "lat": 38.935597, "bike_id": "7d9bfb95d8b6c60e6658a1981403c750"}, {"lon": -77.0038275, "rental_uris": {"android": "https://dc.lft.to/lastmile_qr_scan", "ios": "https://dc.lft.to/lastmile_qr_scan"}, "fusion_lon": 0.0, "is_reserved": 0, "is_disabled": 0, "fusion_lat": 0.0, "type": "electric_bike", "name": "67aaa388be840b1882cfde8868ea9790", "lat": 38.836042, "bike_id": "67aaa388be840b1882cfde8868ea9790"}, {"lon": -77.0091175, "rental_uris": {"android": "https://dc.lft.to/lastmile_qr_scan", "ios": "https://dc.lft.to/lastmile_qr_scan"}, "fusion_lon": 0.0, "is_reserved": 0, "is_disabled": 0, "fusion_lat": 0.0, "type": "electric_scooter", "name": "44e8445c11b99fd64bc4520d97d0f17f", "lat": 38.8993535, "bike_id": "44e8445c11b99fd64bc4520d97d0f17f"}, {"lon": -77.00716883333334, "rental_uris": {"android": "https://dc.lft.to/lastmile_qr_scan", "ios": "https://dc.lft.to/lastmile_qr_scan"}, "fusion_lon": 0.0, "is_reserved": 0, "is_disabled": 0, "fusion_lat": 0.0, "type": "electric_scooter", "name": "a4cc600ae1a7c5703c2a2bc6b6cb3ea6", "lat": 38.904664, "bike_id": "a4cc600ae1a7c5703c2a2bc6b6cb3ea6"}, {"lon": -77.02397333333333, "rental_uris": {"android": "https://dc.lft.to/lastmile_qr_scan", "ios": "https://dc.lft.to/lastmile_qr_scan"}, "fusion_lon": 0.0, "is_reserved": 0, "is_disabled": 0, "fusion_lat": 0.0, "type": "electric_scooter", "name": "f569e81f4c571cfeecdc75fa66abd983", "lat": 38.901789666666666, "bike_id": "f569e81f4c571cfeecdc75fa66abd983"}, {"lon": -77.0176675, "rental_uris": {"android": "https://dc.lft.to/lastmile_qr_scan", "ios": "https://dc.lft.to/lastmile_qr_scan"}, "fusion_lon": 0.0, "is_reserved": 0, "is_disabled": 0, "fusion_lat": 0.0, "type": "electric_scooter", "name": "832d951868dbdb11d48a8f2a641dd0d3", "lat": 38.906381833333334, "bike_id": "832d951868dbdb11d48a8f2a641dd0d3"}, {"lon": -77.04883866666667, "rental_uris": {"android": "https://dc.lft.to/lastmile_qr_scan", "ios": "https://dc.lft.to/lastmile_qr_scan"}, "fusion_lon": 0.0, "is_reserved": 0, "is_disabled": 0, "fusion_lat": 0.0, "type": "electric_scooter", "name": "491a9afad10ff44769c373e0d1385fcd", "lat": 38.89993666666667, "bike_id": "491a9afad10ff44769c373e0d1385fcd"}, {"lon": -77.0317145, "rental_uris": {"android": "https://dc.lft.to/lastmile_qr_scan", "ios": "https://dc.lft.to/lastmile_qr_scan"}, "fusion_lon": 0.0, "is_reserved": 0, "is_disabled": 0, "fusion_lat": 0.0, "type": "electric_bike", "name": "a6d4dd2ad9344fc287b84e7a78b818eb", "lat": 38.907528, "bike_id": "a6d4dd2ad9344fc287b84e7a78b818eb"}, {"lon": -77.02237816666667, "rental_uris": {"android": "https://dc.lft.to/lastmile_qr_scan", "ios": "https://dc.lft.to/lastmile_qr_scan"}, "fusion_lon": 0.0, "is_reserved": 0, "is_disabled": 0, "fusion_lat": 0.0, "type": "electric_scooter", "name": "7f763bf15d2c91b87c249e7fa8a45b60", "lat": 38.8876625, "bike_id": "7f763bf15d2c91b87c249e7fa8a45b60"}, {"lon": -77.03203666666667, "rental_uris": {"android": "https://dc.lft.to/lastmile_qr_scan", "ios": "https://dc.lft.to/lastmile_qr_scan"}, "fusion_lon": 0.0, "is_reserved": 0, "is_disabled": 0, "fusion_lat": 0.0, "type": "electric_scooter", "name": "9dbc7d628f76215c91787719c1be72b1", "lat": 38.916775333333334, "bike_id": "9dbc7d628f76215c91787719c1be72b1"}, {"lon": -76.99377466666667, "rental_uris": {"android": "https://dc.lft.to/lastmile_qr_scan", "ios": "https://dc.lft.to/lastmile_qr_scan"}, "fusion_lon": 0.0, "is_reserved": 0, "is_disabled": 0, "fusion_lat": 0.0, "type": "electric_scooter", "name": "83cd5bd59d11fa40d5b367efe44c3d9c", "lat": 38.8933255, "bike_id": "83cd5bd59d11fa40d5b367efe44c3d9c"}, {"lon": -77.00319516666667, "rental_uris": {"android": "https://dc.lft.to/lastmile_qr_scan", "ios": "https://dc.lft.to/lastmile_qr_scan"}, "fusion_lon": 0.0, "is_reserved": 0, "is_disabled": 0, "fusion_lat": 0.0, "type": "electric_scooter", "name": "e5febe19c4c4a02e37aee18392d1c11b", "lat": 38.9125745, "bike_id": "e5febe19c4c4a02e37aee18392d1c11b"}, {"lon": -77.016688, "rental_uris": {"android": "https://dc.lft.to/lastmile_qr_scan", "ios": "https://dc.lft.to/lastmile_qr_scan"}, "fusion_lon": 0.0, "is_reserved": 0, "is_disabled": 0, "fusion_lat": 0.0, "type": "electric_scooter", "name": "8d50135540d5bc8938c12986a2740c1e", "lat": 38.920444, "bike_id": "8d50135540d5bc8938c12986a2740c1e"}, {"lon": -77.02858683333334, "rental_uris": {"android": "https://dc.lft.to/lastmile_qr_scan", "ios": "https://dc.lft.to/lastmile_qr_scan"}, "fusion_lon": 0.0, "is_reserved": 0, "is_disabled": 0, "fusion_lat": 0.0, "type": "electric_scooter", "name": "e498ab1720799ca89b26790319f86802", "lat": 38.887442166666666, "bike_id": "e498ab1720799ca89b26790319f86802"}, {"lon": -77.04538783333334, "rental_uris": {"android": "https://dc.lft.to/lastmile_qr_scan", "ios": "https://dc.lft.to/lastmile_qr_scan"}, "fusion_lon": 0.0, "is_reserved": 0, "is_disabled": 0, "fusion_lat": 0.0, "type": "electric_scooter", "name": "cea311f05f083b9abc4bcb679b5ae974", "lat": 38.91423866666667, "bike_id": "cea311f05f083b9abc4bcb679b5ae974"}, {"lon": -76.99572516666667, "rental_uris": {"android": "https://dc.lft.to/lastmile_qr_scan", "ios": "https://dc.lft.to/lastmile_qr_scan"}, "fusion_lon": 0.0, "is_reserved": 0, "is_disabled": 0, "fusion_lat": 0.0, "type": "electric_scooter", "name": "8a4adba4330b6fb724c2894232c55107", "lat": 38.920472, "bike_id": "8a4adba4330b6fb724c2894232c55107"}, {"lon": -77.05555016666666, "rental_uris": {"android": "https://dc.lft.to/lastmile_qr_scan", "ios": "https://dc.lft.to/lastmile_qr_scan"}, "fusion_lon": 0.0, "is_reserved": 0, "is_disabled": 0, "fusion_lat": 0.0, "type": "electric_scooter", "name": "d192eeaff52786d828e66affc941fbc3", "lat": 38.9302575, "bike_id": "d192eeaff52786d828e66affc941fbc3"}, {"lon": -77.00670016666666, "rental_uris": {"android": "https://dc.lft.to/lastmile_qr_scan", "ios": "https://dc.lft.to/lastmile_qr_scan"}, "fusion_lon": 0.0, "is_reserved": 0, "is_disabled": 0, "fusion_lat": 0.0, "type": "electric_scooter", "name": "47d9aef0372d27d9bab98a3b14686c43", "lat": 38.87703883333333, "bike_id": "47d9aef0372d27d9bab98a3b14686c43"}, {"lon": -77.02709533333334, "rental_uris": {"android": "https://dc.lft.to/lastmile_qr_scan", "ios": "https://dc.lft.to/lastmile_qr_scan"}, "fusion_lon": 0.0, "is_reserved": 0, "is_disabled": 0, "fusion_lat": 0.0, "type": "electric_scooter", "name": "b5b890fa4508a73187baa5e9b67e67dc", "lat": 38.90255883333333, "bike_id": "b5b890fa4508a73187baa5e9b67e67dc"}, {"lon": -77.0384125, "rental_uris": {"android": "https://dc.lft.to/lastmile_qr_scan", "ios": "https://dc.lft.to/lastmile_qr_scan"}, "fusion_lon": 0.0, "is_reserved": 0, "is_disabled": 0, "fusion_lat": 0.0, "type": "electric_scooter", "name": "819971bee135edfc35244d2f2ac536be", "lat": 38.94187933333333, "bike_id": "819971bee135edfc35244d2f2ac536be"}, {"lon": -77.02387233333333, "rental_uris": {"android": "https://dc.lft.to/lastmile_qr_scan", "ios": "https://dc.lft.to/lastmile_qr_scan"}, "fusion_lon": 0.0, "is_reserved": 0, "is_disabled": 0, "fusion_lat": 0.0, "type": "electric_scooter", "name": "cb5019962fc3c2819b623eb481b895bc", "lat": 38.8873045, "bike_id": "cb5019962fc3c2819b623eb481b895bc"}, {"lon": -77.02048766666667, "rental_uris": {"android": "https://dc.lft.to/lastmile_qr_scan", "ios": "https://dc.lft.to/lastmile_qr_scan"}, "fusion_lon": 0.0, "is_reserved": 0, "is_disabled": 0, "fusion_lat": 0.0, "type": "electric_scooter", "name": "1725bde31486e78dc38a391fd07788b6", "lat": 38.9190645, "bike_id": "1725bde31486e78dc38a391fd07788b6"}, {"lon": -76.98358816666666, "rental_uris": {"android": "https://dc.lft.to/lastmile_qr_scan", "ios": "https://dc.lft.to/lastmile_qr_scan"}, "fusion_lon": 0.0, "is_reserved": 0, "is_disabled": 0, "fusion_lat": 0.0, "type": "electric_scooter", "name": "b84142360fec286e69b54db5f22d61a2", "lat": 38.88722416666667, "bike_id": "b84142360fec286e69b54db5f22d61a2"}, {"lon": -77.02209, "rental_uris": {"android": "https://dc.lft.to/lastmile_qr_scan", "ios": "https://dc.lft.to/lastmile_qr_scan"}, "fusion_lon": 0.0, "is_reserved": 0, "is_disabled": 0, "fusion_lat": 0.0, "type": "electric_scooter", "name": "57a3112c4d549d74e5fccac41c248c33", "lat": 38.924689666666666, "bike_id": "57a3112c4d549d74e5fccac41c248c33"}, {"lon": -77.02572966666666, "rental_uris": {"android": "https://dc.lft.to/lastmile_qr_scan", "ios": "https://dc.lft.to/lastmile_qr_scan"}, "fusion_lon": 0.0, "is_reserved": 0, "is_disabled": 0, "fusion_lat": 0.0, "type": "electric_scooter", "name": "a3d693973c08b027d3ba74114b5a0ceb", "lat": 38.92044833333333, "bike_id": "a3d693973c08b027d3ba74114b5a0ceb"}, {"lon": -77.01845633333333, "rental_uris": {"android": "https://dc.lft.to/lastmile_qr_scan", "ios": "https://dc.lft.to/lastmile_qr_scan"}, "fusion_lon": 0.0, "is_reserved": 0, "is_disabled": 0, "fusion_lat": 0.0, "type": "electric_scooter", "name": "cc30f7722d2ff6c98233e619914528dd", "lat": 38.95429933333333, "bike_id": "cc30f7722d2ff6c98233e619914528dd"}, {"lon": -76.969143, "rental_uris": {"android": "https://dc.lft.to/lastmile_qr_scan", "ios": "https://dc.lft.to/lastmile_qr_scan"}, "fusion_lon": 0.0, "is_reserved": 0, "is_disabled": 0, "fusion_lat": 0.0, "type": "electric_bike", "name": "fafc61445631449684b406de35d9e990", "lat": 38.846068333333335, "bike_id": "fafc61445631449684b406de35d9e990"}, {"lon": -76.99829983333333, "rental_uris": {"android": "https://dc.lft.to/lastmile_qr_scan", "ios": "https://dc.lft.to/lastmile_qr_scan"}, "fusion_lon": 0.0, "is_reserved": 0, "is_disabled": 0, "fusion_lat": 0.0, "type": "electric_scooter", "name": "d28ed92a253aa39266378363101073be", "lat": 38.900489666666665, "bike_id": "d28ed92a253aa39266378363101073be"}, {"lon": -77.04241133333333, "rental_uris": {"android": "https://dc.lft.to/lastmile_qr_scan", "ios": "https://dc.lft.to/lastmile_qr_scan"}, "fusion_lon": 0.0, "is_reserved": 0, "is_disabled": 0, "fusion_lat": 0.0, "type": "electric_scooter", "name": "76c4d7fbbab49702dee85aefd9b90f5f", "lat": 38.92358016666667, "bike_id": "76c4d7fbbab49702dee85aefd9b90f5f"}, {"lon": -77.0579015, "rental_uris": {"android": "https://dc.lft.to/lastmile_qr_scan", "ios": "https://dc.lft.to/lastmile_qr_scan"}, "fusion_lon": 0.0, "is_reserved": 0, "is_disabled": 0, "fusion_lat": 0.0, "type": "electric_scooter", "name": "69361c9e5ad8d5be87131b9ae342c8fe", "lat": 38.900956, "bike_id": "69361c9e5ad8d5be87131b9ae342c8fe"}, {"lon": -77.02389233333334, "rental_uris": {"android": "https://dc.lft.to/lastmile_qr_scan", "ios": "https://dc.lft.to/lastmile_qr_scan"}, "fusion_lon": 0.0, "is_reserved": 0, "is_disabled": 0, "fusion_lat": 0.0, "type": "electric_scooter", "name": "6c978f020fcb6da642824ebc26e49a8c", "lat": 38.91959166666667, "bike_id": "6c978f020fcb6da642824ebc26e49a8c"}, {"lon": -77.020702, "rental_uris": {"android": "https://dc.lft.to/lastmile_qr_scan", "ios": "https://dc.lft.to/lastmile_qr_scan"}, "fusion_lon": 0.0, "is_reserved": 0, "is_disabled": 0, "fusion_lat": 0.0, "type": "electric_scooter", "name": "ad26387994824e3d4381792c94c7905d", "lat": 38.926937833333334, "bike_id": "ad26387994824e3d4381792c94c7905d"}, {"lon": -77.043378, "rental_uris": {"android": "https://dc.lft.to/lastmile_qr_scan", "ios": "https://dc.lft.to/lastmile_qr_scan"}, "fusion_lon": 0.0, "is_reserved": 0, "is_disabled": 0, "fusion_lat": 0.0, "type": "electric_scooter", "name": "4a0674772a7fe4e9a259eb68f566b236", "lat": 38.92146066666667, "bike_id": "4a0674772a7fe4e9a259eb68f566b236"}, {"lon": -77.040224, "rental_uris": {"android": "https://dc.lft.to/lastmile_qr_scan", "ios": "https://dc.lft.to/lastmile_qr_scan"}, "fusion_lon": 0.0, "is_reserved": 0, "is_disabled": 0, "fusion_lat": 0.0, "type": "electric_scooter", "name": "80160ec1b0aa0406dbe54048ab0bfb00", "lat": 38.90326916666667, "bike_id": "80160ec1b0aa0406dbe54048ab0bfb00"}, {"lon": -77.02176466666667, "rental_uris": {"android": "https://dc.lft.to/lastmile_qr_scan", "ios": "https://dc.lft.to/lastmile_qr_scan"}, "fusion_lon": 0.0, "is_reserved": 0, "is_disabled": 0, "fusion_lat": 0.0, "type": "electric_scooter", "name": "0e6a898c94c990b8020c3ae4faf368ec", "lat": 38.89494283333333, "bike_id": "0e6a898c94c990b8020c3ae4faf368ec"}, {"lon": -77.04113833333334, "rental_uris": {"android": "https://dc.lft.to/lastmile_qr_scan", "ios": "https://dc.lft.to/lastmile_qr_scan"}, "fusion_lon": 0.0, "is_reserved": 0, "is_disabled": 0, "fusion_lat": 0.0, "type": "electric_scooter", "name": "17b17b19f9c9a3f445b49b144b228272", "lat": 38.8988135, "bike_id": "17b17b19f9c9a3f445b49b144b228272"}, {"lon": -77.04328466666666, "rental_uris": {"android": "https://dc.lft.to/lastmile_qr_scan", "ios": "https://dc.lft.to/lastmile_qr_scan"}, "fusion_lon": 0.0, "is_reserved": 0, "is_disabled": 0, "fusion_lat": 0.0, "type": "electric_scooter", "name": "07a0d7e909c91ed1a2407c07f9880e8c", "lat": 38.892166333333336, "bike_id": "07a0d7e909c91ed1a2407c07f9880e8c"}, {"lon": -77.03328383333333, "rental_uris": {"android": "https://dc.lft.to/lastmile_qr_scan", "ios": "https://dc.lft.to/lastmile_qr_scan"}, "fusion_lon": 0.0, "is_reserved": 0, "is_disabled": 0, "fusion_lat": 0.0, "type": "electric_scooter", "name": "01ca48aa362ba0298020223bf8d30235", "lat": 38.90246583333333, "bike_id": "01ca48aa362ba0298020223bf8d30235"}, {"lon": -77.02938716666667, "rental_uris": {"android": "https://dc.lft.to/lastmile_qr_scan", "ios": "https://dc.lft.to/lastmile_qr_scan"}, "fusion_lon": 0.0, "is_reserved": 0, "is_disabled": 0, "fusion_lat": 0.0, "type": "electric_scooter", "name": "5e8160b5a97fb6e05dd774e5212e6358", "lat": 38.89820983333333, "bike_id": "5e8160b5a97fb6e05dd774e5212e6358"}, {"lon": -77.03266266666667, "rental_uris": {"android": "https://dc.lft.to/lastmile_qr_scan", "ios": "https://dc.lft.to/lastmile_qr_scan"}, "fusion_lon": 0.0, "is_reserved": 0, "is_disabled": 0, "fusion_lat": 0.0, "type": "electric_scooter", "name": "ebcb728f82e52968e4b9da09dabd3501", "lat": 38.92991383333333, "bike_id": "ebcb728f82e52968e4b9da09dabd3501"}, {"lon": -76.98592383333333, "rental_uris": {"android": "https://dc.lft.to/lastmile_qr_scan", "ios": "https://dc.lft.to/lastmile_qr_scan"}, "fusion_lon": 0.0, "is_reserved": 0, "is_disabled": 0, "fusion_lat": 0.0, "type": "electric_scooter", "name": "a74c4989056a0738235cbdddbccd5ab0", "lat": 38.8946685, "bike_id": "a74c4989056a0738235cbdddbccd5ab0"}, {"lon": -77.00765583333333, "rental_uris": {"android": "https://dc.lft.to/lastmile_qr_scan", "ios": "https://dc.lft.to/lastmile_qr_scan"}, "fusion_lon": 0.0, "is_reserved": 0, "is_disabled": 0, "fusion_lat": 0.0, "type": "electric_scooter", "name": "8c1c139daf136c826a27cff8922a6f4b", "lat": 38.871117, "bike_id": "8c1c139daf136c826a27cff8922a6f4b"}, {"lon": -77.05845233333334, "rental_uris": {"android": "https://dc.lft.to/lastmile_qr_scan", "ios": "https://dc.lft.to/lastmile_qr_scan"}, "fusion_lon": 0.0, "is_reserved": 0, "is_disabled": 0, "fusion_lat": 0.0, "type": "electric_scooter", "name": "fa9b48b82a2b89a0f673059c485c4b27", "lat": 38.930613666666666, "bike_id": "fa9b48b82a2b89a0f673059c485c4b27"}, {"lon": -77.04301033333333, "rental_uris": {"android": "https://dc.lft.to/lastmile_qr_scan", "ios": "https://dc.lft.to/lastmile_qr_scan"}, "fusion_lon": 0.0, "is_reserved": 0, "is_disabled": 0, "fusion_lat": 0.0, "type": "electric_scooter", "name": "ee2d26f52451f5e4092b0670c4491155", "lat": 38.912460333333335, "bike_id": "ee2d26f52451f5e4092b0670c4491155"}, {"lon": -77.0324135, "rental_uris": {"android": "https://dc.lft.to/lastmile_qr_scan", "ios": "https://dc.lft.to/lastmile_qr_scan"}, "fusion_lon": 0.0, "is_reserved": 0, "is_disabled": 0, "fusion_lat": 0.0, "type": "electric_scooter", "name": "d079a1af4b0de23496a076676ae01f63", "lat": 38.91988116666667, "bike_id": "d079a1af4b0de23496a076676ae01f63"}, {"lon": -77.02233083333333, "rental_uris": {"android": "https://dc.lft.to/lastmile_qr_scan", "ios": "https://dc.lft.to/lastmile_qr_scan"}, "fusion_lon": 0.0, "is_reserved": 0, "is_disabled": 0, "fusion_lat": 0.0, "type": "electric_scooter", "name": "ed7e501af54caa2d5ced98febc40364d", "lat": 38.92473583333334, "bike_id": "ed7e501af54caa2d5ced98febc40364d"}, {"lon": -77.03630733333334, "rental_uris": {"android": "https://dc.lft.to/lastmile_qr_scan", "ios": "https://dc.lft.to/lastmile_qr_scan"}, "fusion_lon": 0.0, "is_reserved": 0, "is_disabled": 0, "fusion_lat": 0.0, "type": "electric_scooter", "name": "a1b795eac14cd669786c88f2c458a503", "lat": 38.9393135, "bike_id": "a1b795eac14cd669786c88f2c458a503"}, {"lon": -77.02575266666666, "rental_uris": {"android": "https://dc.lft.to/lastmile_qr_scan", "ios": "https://dc.lft.to/lastmile_qr_scan"}, "fusion_lon": 0.0, "is_reserved": 0, "is_disabled": 0, "fusion_lat": 0.0, "type": "electric_scooter", "name": "7d4d2fa911e091b66e155a3df05e07e5", "lat": 38.920519, "bike_id": "7d4d2fa911e091b66e155a3df05e07e5"}, {"lon": -77.04076516666667, "rental_uris": {"android": "https://dc.lft.to/lastmile_qr_scan", "ios": "https://dc.lft.to/lastmile_qr_scan"}, "fusion_lon": 0.0, "is_reserved": 0, "is_disabled": 0, "fusion_lat": 0.0, "type": "electric_scooter", "name": "f7f76fa4559b0ad2728a6c79fd6c3cec", "lat": 38.90119933333333, "bike_id": "f7f76fa4559b0ad2728a6c79fd6c3cec"}, {"lon": -77.04486583333333, "rental_uris": {"android": "https://dc.lft.to/lastmile_qr_scan", "ios": "https://dc.lft.to/lastmile_qr_scan"}, "fusion_lon": 0.0, "is_reserved": 0, "is_disabled": 0, "fusion_lat": 0.0, "type": "electric_scooter", "name": "18eee93e61c2bae03c9796833493da04", "lat": 38.9089985, "bike_id": "18eee93e61c2bae03c9796833493da04"}, {"lon": -77.0278655, "rental_uris": {"android": "https://dc.lft.to/lastmile_qr_scan", "ios": "https://dc.lft.to/lastmile_qr_scan"}, "fusion_lon": 0.0, "is_reserved": 0, "is_disabled": 0, "fusion_lat": 0.0, "type": "electric_scooter", "name": "e79401bb1d591f7a7fbb2ea2536a2324", "lat": 38.89228216666667, "bike_id": "e79401bb1d591f7a7fbb2ea2536a2324"}, {"lon": -77.028089, "rental_uris": {"android": "https://dc.lft.to/lastmile_qr_scan", "ios": "https://dc.lft.to/lastmile_qr_scan"}, "fusion_lon": 0.0, "is_reserved": 0, "is_disabled": 0, "fusion_lat": 0.0, "type": "electric_scooter", "name": "8842908903caf3cda62fb729314bc1c5", "lat": 38.91248916666667, "bike_id": "8842908903caf3cda62fb729314bc1c5"}, {"lon": -77.02195, "rental_uris": {"android": "https://dc.lft.to/lastmile_qr_scan", "ios": "https://dc.lft.to/lastmile_qr_scan"}, "fusion_lon": 0.0, "is_reserved": 0, "is_disabled": 0, "fusion_lat": 0.0, "type": "electric_scooter", "name": "4c0380ec33b6abf77d407e403d57510d", "lat": 38.905358666666665, "bike_id": "4c0380ec33b6abf77d407e403d57510d"}, {"lon": -77.02822666666667, "rental_uris": {"android": "https://dc.lft.to/lastmile_qr_scan", "ios": "https://dc.lft.to/lastmile_qr_scan"}, "fusion_lon": 0.0, "is_reserved": 0, "is_disabled": 0, "fusion_lat": 0.0, "type": "electric_scooter", "name": "b02bb820fa28e38c2ffc7dea66d68dc2", "lat": 38.8865555, "bike_id": "b02bb820fa28e38c2ffc7dea66d68dc2"}, {"lon": -77.01075816666666, "rental_uris": {"android": "https://dc.lft.to/lastmile_qr_scan", "ios": "https://dc.lft.to/lastmile_qr_scan"}, "fusion_lon": 0.0, "is_reserved": 0, "is_disabled": 0, "fusion_lat": 0.0, "type": "electric_scooter", "name": "96f5208f68ac58bfb19169b9cb9c4326", "lat": 38.914136, "bike_id": "96f5208f68ac58bfb19169b9cb9c4326"}, {"lon": -77.02674433333334, "rental_uris": {"android": "https://dc.lft.to/lastmile_qr_scan", "ios": "https://dc.lft.to/lastmile_qr_scan"}, "fusion_lon": 0.0, "is_reserved": 0, "is_disabled": 0, "fusion_lat": 0.0, "type": "electric_scooter", "name": "cd4ca0f2315f7c346cfd02f45de42c81", "lat": 38.895037333333335, "bike_id": "cd4ca0f2315f7c346cfd02f45de42c81"}, {"lon": -77.031701, "rental_uris": {"android": "https://dc.lft.to/lastmile_qr_scan", "ios": "https://dc.lft.to/lastmile_qr_scan"}, "fusion_lon": 0.0, "is_reserved": 0, "is_disabled": 0, "fusion_lat": 0.0, "type": "electric_scooter", "name": "27546abf0115f0619deb91ff50c2cc5e", "lat": 38.90514566666667, "bike_id": "27546abf0115f0619deb91ff50c2cc5e"}, {"lon": -77.01696283333334, "rental_uris": {"android": "https://dc.lft.to/lastmile_qr_scan", "ios": "https://dc.lft.to/lastmile_qr_scan"}, "fusion_lon": 0.0, "is_reserved": 0, "is_disabled": 0, "fusion_lat": 0.0, "type": "electric_scooter", "name": "45029fd1b4be8b1510d402fb0a3c6bf6", "lat": 38.90752233333333, "bike_id": "45029fd1b4be8b1510d402fb0a3c6bf6"}, {"lon": -77.0318235, "rental_uris": {"android": "https://dc.lft.to/lastmile_qr_scan", "ios": "https://dc.lft.to/lastmile_qr_scan"}, "fusion_lon": 0.0, "is_reserved": 0, "is_disabled": 0, "fusion_lat": 0.0, "type": "electric_scooter", "name": "47e4297c91d3c673ca31d1d7a1a2975d", "lat": 38.9005595, "bike_id": "47e4297c91d3c673ca31d1d7a1a2975d"}, {"lon": -77.0028045, "rental_uris": {"android": "https://dc.lft.to/lastmile_qr_scan", "ios": "https://dc.lft.to/lastmile_qr_scan"}, "fusion_lon": 0.0, "is_reserved": 0, "is_disabled": 0, "fusion_lat": 0.0, "type": "electric_scooter", "name": "efe44cc1940f376832386903477f9acf", "lat": 38.876264, "bike_id": "efe44cc1940f376832386903477f9acf"}, {"lon": -77.03239116666667, "rental_uris": {"android": "https://dc.lft.to/lastmile_qr_scan", "ios": "https://dc.lft.to/lastmile_qr_scan"}, "fusion_lon": 0.0, "is_reserved": 0, "is_disabled": 0, "fusion_lat": 0.0, "type": "electric_scooter", "name": "f8e826cecfca50eec7213d26ea3cf829", "lat": 38.91023916666666, "bike_id": "f8e826cecfca50eec7213d26ea3cf829"}, {"lon": -77.0152565, "rental_uris": {"android": "https://dc.lft.to/lastmile_qr_scan", "ios": "https://dc.lft.to/lastmile_qr_scan"}, "fusion_lon": 0.0, "is_reserved": 0, "is_disabled": 0, "fusion_lat": 0.0, "type": "electric_scooter", "name": "0c4fb00b80eed362813e9dee34052d50", "lat": 38.88729083333333, "bike_id": "0c4fb00b80eed362813e9dee34052d50"}, {"lon": -77.02392566666667, "rental_uris": {"android": "https://dc.lft.to/lastmile_qr_scan", "ios": "https://dc.lft.to/lastmile_qr_scan"}, "fusion_lon": 0.0, "is_reserved": 0, "is_disabled": 0, "fusion_lat": 0.0, "type": "electric_scooter", "name": "e0ad832dbc3e3b8c424ecfbe6267e2a1", "lat": 38.93759566666667, "bike_id": "e0ad832dbc3e3b8c424ecfbe6267e2a1"}, {"lon": -76.99014016666666, "rental_uris": {"android": "https://dc.lft.to/lastmile_qr_scan", "ios": "https://dc.lft.to/lastmile_qr_scan"}, "fusion_lon": 0.0, "is_reserved": 0, "is_disabled": 0, "fusion_lat": 0.0, "type": "electric_scooter", "name": "6dd5b8c2f1968e118b1cec93a6a5634f", "lat": 38.88262066666667, "bike_id": "6dd5b8c2f1968e118b1cec93a6a5634f"}, {"lon": -77.0701215, "rental_uris": {"android": "https://dc.lft.to/lastmile_qr_scan", "ios": "https://dc.lft.to/lastmile_qr_scan"}, "fusion_lon": 0.0, "is_reserved": 0, "is_disabled": 0, "fusion_lat": 0.0, "type": "electric_scooter", "name": "19e8a2f5ab0fea6af9b2430383a5818c", "lat": 38.956209, "bike_id": "19e8a2f5ab0fea6af9b2430383a5818c"}, {"lon": -77.02803316666666, "rental_uris": {"android": "https://dc.lft.to/lastmile_qr_scan", "ios": "https://dc.lft.to/lastmile_qr_scan"}, "fusion_lon": 0.0, "is_reserved": 0, "is_disabled": 0, "fusion_lat": 0.0, "type": "electric_scooter", "name": "828927d70c682e01fb6755fec888ea75", "lat": 38.9613365, "bike_id": "828927d70c682e01fb6755fec888ea75"}, {"lon": -77.02685683333333, "rental_uris": {"android": "https://dc.lft.to/lastmile_qr_scan", "ios": "https://dc.lft.to/lastmile_qr_scan"}, "fusion_lon": 0.0, "is_reserved": 0, "is_disabled": 0, "fusion_lat": 0.0, "type": "electric_scooter", "name": "273a2bae9e788a5352f7bca34a65ccfb", "lat": 38.896315666666666, "bike_id": "273a2bae9e788a5352f7bca34a65ccfb"}, {"lon": -77.028356, "rental_uris": {"android": "https://dc.lft.to/lastmile_qr_scan", "ios": "https://dc.lft.to/lastmile_qr_scan"}, "fusion_lon": 0.0, "is_reserved": 0, "is_disabled": 0, "fusion_lat": 0.0, "type": "electric_scooter", "name": "073f6c4a45d1c549d0591f2ef79bee3d", "lat": 38.8871295, "bike_id": "073f6c4a45d1c549d0591f2ef79bee3d"}, {"lon": -77.04448533333333, "rental_uris": {"android": "https://dc.lft.to/lastmile_qr_scan", "ios": "https://dc.lft.to/lastmile_qr_scan"}, "fusion_lon": 0.0, "is_reserved": 0, "is_disabled": 0, "fusion_lat": 0.0, "type": "electric_scooter", "name": "ed5bceac0369593fdb49d8dfdaff19b0", "lat": 38.9057735, "bike_id": "ed5bceac0369593fdb49d8dfdaff19b0"}, {"lon": -77.032093, "rental_uris": {"android": "https://dc.lft.to/lastmile_qr_scan", "ios": "https://dc.lft.to/lastmile_qr_scan"}, "fusion_lon": 0.0, "is_reserved": 0, "is_disabled": 0, "fusion_lat": 0.0, "type": "electric_scooter", "name": "39c0ee1e62d4848e6522d25c2d35cde5", "lat": 38.915965666666665, "bike_id": "39c0ee1e62d4848e6522d25c2d35cde5"}, {"lon": -76.95793433333333, "rental_uris": {"android": "https://dc.lft.to/lastmile_qr_scan", "ios": "https://dc.lft.to/lastmile_qr_scan"}, "fusion_lon": 0.0, "is_reserved": 0, "is_disabled": 0, "fusion_lat": 0.0, "type": "electric_bike", "name": "d9e162da50c427c348be4761031dc8f2", "lat": 38.98044133333333, "bike_id": "d9e162da50c427c348be4761031dc8f2"}, {"lon": -76.95880016666666, "rental_uris": {"android": "https://dc.lft.to/lastmile_qr_scan", "ios": "https://dc.lft.to/lastmile_qr_scan"}, "fusion_lon": 0.0, "is_reserved": 0, "is_disabled": 0, "fusion_lat": 0.0, "type": "electric_scooter", "name": "7850d9dbddd826ee0ea376f722a79257", "lat": 38.85942466666667, "bike_id": "7850d9dbddd826ee0ea376f722a79257"}, {"lon": -77.0417845, "rental_uris": {"android": "https://dc.lft.to/lastmile_qr_scan", "ios": "https://dc.lft.to/lastmile_qr_scan"}, "fusion_lon": 0.0, "is_reserved": 0, "is_disabled": 0, "fusion_lat": 0.0, "type": "electric_scooter", "name": "d2564aa521f2e3c5cbd003aa9eca0d14", "lat": 38.92002466666667, "bike_id": "d2564aa521f2e3c5cbd003aa9eca0d14"}, {"lon": -76.98550233333333, "rental_uris": {"android": "https://dc.lft.to/lastmile_qr_scan", "ios": "https://dc.lft.to/lastmile_qr_scan"}, "fusion_lon": 0.0, "is_reserved": 0, "is_disabled": 0, "fusion_lat": 0.0, "type": "electric_scooter", "name": "55b59dc0f8143deed61ff49480871df5", "lat": 38.89756933333334, "bike_id": "55b59dc0f8143deed61ff49480871df5"}, {"lon": -77.02574583333333, "rental_uris": {"android": "https://dc.lft.to/lastmile_qr_scan", "ios": "https://dc.lft.to/lastmile_qr_scan"}, "fusion_lon": 0.0, "is_reserved": 0, "is_disabled": 0, "fusion_lat": 0.0, "type": "electric_scooter", "name": "2753c9bcd512b65583a7c11948894f2b", "lat": 38.92685933333333, "bike_id": "2753c9bcd512b65583a7c11948894f2b"}, {"lon": -77.07551883333333, "rental_uris": {"android": "https://dc.lft.to/lastmile_qr_scan", "ios": "https://dc.lft.to/lastmile_qr_scan"}, "fusion_lon": 0.0, "is_reserved": 0, "is_disabled": 0, "fusion_lat": 0.0, "type": "electric_scooter", "name": "46b25de998023a59d3edde4b063d448d", "lat": 38.9101995, "bike_id": "46b25de998023a59d3edde4b063d448d"}, {"lon": -77.01678466666667, "rental_uris": {"android": "https://dc.lft.to/lastmile_qr_scan", "ios": "https://dc.lft.to/lastmile_qr_scan"}, "fusion_lon": 0.0, "is_reserved": 0, "is_disabled": 0, "fusion_lat": 0.0, "type": "electric_scooter", "name": "ce9947046d80e49986a770b18f665c4b", "lat": 38.920373166666664, "bike_id": "ce9947046d80e49986a770b18f665c4b"}, {"lon": -77.02594116666667, "rental_uris": {"android": "https://dc.lft.to/lastmile_qr_scan", "ios": "https://dc.lft.to/lastmile_qr_scan"}, "fusion_lon": 0.0, "is_reserved": 0, "is_disabled": 0, "fusion_lat": 0.0, "type": "electric_scooter", "name": "35dca59c689f5dc819c294a04b13d68d", "lat": 38.96391766666667, "bike_id": "35dca59c689f5dc819c294a04b13d68d"}, {"lon": -77.04154316666667, "rental_uris": {"android": "https://dc.lft.to/lastmile_qr_scan", "ios": "https://dc.lft.to/lastmile_qr_scan"}, "fusion_lon": 0.0, "is_reserved": 0, "is_disabled": 0, "fusion_lat": 0.0, "type": "electric_scooter", "name": "aab80c3d2bf3abfff2b4635126bbce43", "lat": 38.90699, "bike_id": "aab80c3d2bf3abfff2b4635126bbce43"}, {"lon": -76.96979483333334, "rental_uris": {"android": "https://dc.lft.to/lastmile_qr_scan", "ios": "https://dc.lft.to/lastmile_qr_scan"}, "fusion_lon": 0.0, "is_reserved": 0, "is_disabled": 0, "fusion_lat": 0.0, "type": "electric_scooter", "name": "b416c2016bf1436853895ce8690cefb3", "lat": 38.873845, "bike_id": "b416c2016bf1436853895ce8690cefb3"}, {"lon": -77.08062883333334, "rental_uris": {"android": "https://dc.lft.to/lastmile_qr_scan", "ios": "https://dc.lft.to/lastmile_qr_scan"}, "fusion_lon": 0.0, "is_reserved": 0, "is_disabled": 0, "fusion_lat": 0.0, "type": "electric_scooter", "name": "f0b94ab80b5893b795a5ee50ffa7c351", "lat": 38.955947333333334, "bike_id": "f0b94ab80b5893b795a5ee50ffa7c351"}, {"lon": -77.02793933333334, "rental_uris": {"android": "https://dc.lft.to/lastmile_qr_scan", "ios": "https://dc.lft.to/lastmile_qr_scan"}, "fusion_lon": 0.0, "is_reserved": 0, "is_disabled": 0, "fusion_lat": 0.0, "type": "electric_scooter", "name": "ef29b83ed532f8a0b05e9078e8efd094", "lat": 38.95404816666667, "bike_id": "ef29b83ed532f8a0b05e9078e8efd094"}, {"lon": -76.99836416666666, "rental_uris": {"android": "https://dc.lft.to/lastmile_qr_scan", "ios": "https://dc.lft.to/lastmile_qr_scan"}, "fusion_lon": 0.0, "is_reserved": 0, "is_disabled": 0, "fusion_lat": 0.0, "type": "electric_scooter", "name": "ada03e0e2bdd55aeea91cf3720280449", "lat": 38.900447, "bike_id": "ada03e0e2bdd55aeea91cf3720280449"}, {"lon": -76.95755016666666, "rental_uris": {"android": "https://dc.lft.to/lastmile_qr_scan", "ios": "https://dc.lft.to/lastmile_qr_scan"}, "fusion_lon": 0.0, "is_reserved": 0, "is_disabled": 0, "fusion_lat": 0.0, "type": "electric_scooter", "name": "74f97b7761d4a15a8214b296689fd125", "lat": 38.88423183333333, "bike_id": "74f97b7761d4a15a8214b296689fd125"}, {"lon": -77.04112783333333, "rental_uris": {"android": "https://dc.lft.to/lastmile_qr_scan", "ios": "https://dc.lft.to/lastmile_qr_scan"}, "fusion_lon": 0.0, "is_reserved": 0, "is_disabled": 0, "fusion_lat": 0.0, "type": "electric_scooter", "name": "5648301f907a1660f56e1df1eb885758", "lat": 38.901371833333336, "bike_id": "5648301f907a1660f56e1df1eb885758"}, {"lon": -77.0208765, "rental_uris": {"android": "https://dc.lft.to/lastmile_qr_scan", "ios": "https://dc.lft.to/lastmile_qr_scan"}, "fusion_lon": 0.0, "is_reserved": 0, "is_disabled": 0, "fusion_lat": 0.0, "type": "electric_scooter", "name": "bc4d59c23beb9f6e8bb15758e9a9327b", "lat": 38.9301705, "bike_id": "bc4d59c23beb9f6e8bb15758e9a9327b"}, {"lon": -77.0272235, "rental_uris": {"android": "https://dc.lft.to/lastmile_qr_scan", "ios": "https://dc.lft.to/lastmile_qr_scan"}, "fusion_lon": 0.0, "is_reserved": 0, "is_disabled": 0, "fusion_lat": 0.0, "type": "electric_scooter", "name": "e109dd10149e6083775e41b0d1ebf28a", "lat": 38.940817, "bike_id": "e109dd10149e6083775e41b0d1ebf28a"}, {"lon": -77.04476333333334, "rental_uris": {"android": "https://dc.lft.to/lastmile_qr_scan", "ios": "https://dc.lft.to/lastmile_qr_scan"}, "fusion_lon": 0.0, "is_reserved": 0, "is_disabled": 0, "fusion_lat": 0.0, "type": "electric_scooter", "name": "229ab1bb5c3c9da6c06327868b8e8aba", "lat": 38.8990425, "bike_id": "229ab1bb5c3c9da6c06327868b8e8aba"}, {"lon": -77.02182616666667, "rental_uris": {"android": "https://dc.lft.to/lastmile_qr_scan", "ios": "https://dc.lft.to/lastmile_qr_scan"}, "fusion_lon": 0.0, "is_reserved": 0, "is_disabled": 0, "fusion_lat": 0.0, "type": "electric_scooter", "name": "d304620821bde915ce72507e6166f118", "lat": 38.8968995, "bike_id": "d304620821bde915ce72507e6166f118"}, {"lon": -77.05071466666666, "rental_uris": {"android": "https://dc.lft.to/lastmile_qr_scan", "ios": "https://dc.lft.to/lastmile_qr_scan"}, "fusion_lon": 0.0, "is_reserved": 0, "is_disabled": 0, "fusion_lat": 0.0, "type": "electric_scooter", "name": "dc54a11f326fe2976428ef1714e818fe", "lat": 38.91623166666667, "bike_id": "dc54a11f326fe2976428ef1714e818fe"}, {"lon": -76.97747816666667, "rental_uris": {"android": "https://dc.lft.to/lastmile_qr_scan", "ios": "https://dc.lft.to/lastmile_qr_scan"}, "fusion_lon": 0.0, "is_reserved": 0, "is_disabled": 0, "fusion_lat": 0.0, "type": "electric_bike", "name": "8cbe8ecf038e483ebfc2b29e4b1d31e1", "lat": 38.8649975, "bike_id": "8cbe8ecf038e483ebfc2b29e4b1d31e1"}, {"lon": -77.0486825, "rental_uris": {"android": "https://dc.lft.to/lastmile_qr_scan", "ios": "https://dc.lft.to/lastmile_qr_scan"}, "fusion_lon": 0.0, "is_reserved": 0, "is_disabled": 0, "fusion_lat": 0.0, "type": "electric_scooter", "name": "50ac3f1bd13e0d11ec810193ffa9bf59", "lat": 38.89215633333333, "bike_id": "50ac3f1bd13e0d11ec810193ffa9bf59"}, {"lon": -77.03850583333333, "rental_uris": {"android": "https://dc.lft.to/lastmile_qr_scan", "ios": "https://dc.lft.to/lastmile_qr_scan"}, "fusion_lon": 0.0, "is_reserved": 0, "is_disabled": 0, "fusion_lat": 0.0, "type": "electric_scooter", "name": "962a77432459eb72376ad6d7c6f868e9", "lat": 38.91963966666667, "bike_id": "962a77432459eb72376ad6d7c6f868e9"}, {"lon": -77.02761266666667, "rental_uris": {"android": "https://dc.lft.to/lastmile_qr_scan", "ios": "https://dc.lft.to/lastmile_qr_scan"}, "fusion_lon": 0.0, "is_reserved": 0, "is_disabled": 0, "fusion_lat": 0.0, "type": "electric_scooter", "name": "067aae1ea734d37677e12cbc574d64a4", "lat": 38.9276735, "bike_id": "067aae1ea734d37677e12cbc574d64a4"}, {"lon": -76.97846233333334, "rental_uris": {"android": "https://dc.lft.to/lastmile_qr_scan", "ios": "https://dc.lft.to/lastmile_qr_scan"}, "fusion_lon": 0.0, "is_reserved": 0, "is_disabled": 0, "fusion_lat": 0.0, "type": "electric_scooter", "name": "3c23457a91422febc2c6703e46eb1100", "lat": 38.869570833333334, "bike_id": "3c23457a91422febc2c6703e46eb1100"}, {"lon": -77.0320865, "rental_uris": {"android": "https://dc.lft.to/lastmile_qr_scan", "ios": "https://dc.lft.to/lastmile_qr_scan"}, "fusion_lon": 0.0, "is_reserved": 0, "is_disabled": 0, "fusion_lat": 0.0, "type": "electric_scooter", "name": "cf2e67651191841e491594a3ead79e25", "lat": 38.90893466666667, "bike_id": "cf2e67651191841e491594a3ead79e25"}, {"lon": -77.04998, "rental_uris": {"android": "https://dc.lft.to/lastmile_qr_scan", "ios": "https://dc.lft.to/lastmile_qr_scan"}, "fusion_lon": 0.0, "is_reserved": 0, "is_disabled": 0, "fusion_lat": 0.0, "type": "electric_scooter", "name": "8f2273c76ec819e298e13421317341fb", "lat": 38.898691166666666, "bike_id": "8f2273c76ec819e298e13421317341fb"}, {"lon": -77.04322283333333, "rental_uris": {"android": "https://dc.lft.to/lastmile_qr_scan", "ios": "https://dc.lft.to/lastmile_qr_scan"}, "fusion_lon": 0.0, "is_reserved": 0, "is_disabled": 0, "fusion_lat": 0.0, "type": "electric_scooter", "name": "e6d17d97f023644cb055a94c483e0fb5", "lat": 38.90039183333333, "bike_id": "e6d17d97f023644cb055a94c483e0fb5"}, {"lon": -77.048901, "rental_uris": {"android": "https://dc.lft.to/lastmile_qr_scan", "ios": "https://dc.lft.to/lastmile_qr_scan"}, "fusion_lon": 0.0, "is_reserved": 0, "is_disabled": 0, "fusion_lat": 0.0, "type": "electric_scooter", "name": "5ad6aca18e61bf4d25d00e6b98fd455a", "lat": 38.899642, "bike_id": "5ad6aca18e61bf4d25d00e6b98fd455a"}, {"lon": -77.0215025, "rental_uris": {"android": "https://dc.lft.to/lastmile_qr_scan", "ios": "https://dc.lft.to/lastmile_qr_scan"}, "fusion_lon": 0.0, "is_reserved": 0, "is_disabled": 0, "fusion_lat": 0.0, "type": "electric_scooter", "name": "c93d3e6a8c8c7d9482fa7f885a13ac5a", "lat": 38.89405683333333, "bike_id": "c93d3e6a8c8c7d9482fa7f885a13ac5a"}, {"lon": -77.04154233333334, "rental_uris": {"android": "https://dc.lft.to/lastmile_qr_scan", "ios": "https://dc.lft.to/lastmile_qr_scan"}, "fusion_lon": 0.0, "is_reserved": 0, "is_disabled": 0, "fusion_lat": 0.0, "type": "electric_scooter", "name": "71849ca974421d3b44426b6bb7910407", "lat": 38.903603, "bike_id": "71849ca974421d3b44426b6bb7910407"}, {"lon": -77.01932016666666, "rental_uris": {"android": "https://dc.lft.to/lastmile_qr_scan", "ios": "https://dc.lft.to/lastmile_qr_scan"}, "fusion_lon": 0.0, "is_reserved": 0, "is_disabled": 0, "fusion_lat": 0.0, "type": "electric_scooter", "name": "eb415af0047d20e56e52e334343be04c", "lat": 38.922452666666665, "bike_id": "eb415af0047d20e56e52e334343be04c"}, {"lon": -77.02163766666666, "rental_uris": {"android": "https://dc.lft.to/lastmile_qr_scan", "ios": "https://dc.lft.to/lastmile_qr_scan"}, "fusion_lon": 0.0, "is_reserved": 0, "is_disabled": 0, "fusion_lat": 0.0, "type": "electric_scooter", "name": "683ba5f89c8f39c6da0afb6a7bfdcd6b", "lat": 38.92478033333333, "bike_id": "683ba5f89c8f39c6da0afb6a7bfdcd6b"}, {"lon": -77.01357283333333, "rental_uris": {"android": "https://dc.lft.to/lastmile_qr_scan", "ios": "https://dc.lft.to/lastmile_qr_scan"}, "fusion_lon": 0.0, "is_reserved": 0, "is_disabled": 0, "fusion_lat": 0.0, "type": "electric_scooter", "name": "30fcd06a8f7511f2bb446c06f26051bf", "lat": 38.872627333333334, "bike_id": "30fcd06a8f7511f2bb446c06f26051bf"}, {"lon": -77.0222195, "rental_uris": {"android": "https://dc.lft.to/lastmile_qr_scan", "ios": "https://dc.lft.to/lastmile_qr_scan"}, "fusion_lon": 0.0, "is_reserved": 0, "is_disabled": 0, "fusion_lat": 0.0, "type": "electric_scooter", "name": "cd84023b6973473ba3514b14befc5a91", "lat": 38.89215, "bike_id": "cd84023b6973473ba3514b14befc5a91"}, {"lon": -77.01894533333333, "rental_uris": {"android": "https://dc.lft.to/lastmile_qr_scan", "ios": "https://dc.lft.to/lastmile_qr_scan"}, "fusion_lon": 0.0, "is_reserved": 0, "is_disabled": 0, "fusion_lat": 0.0, "type": "electric_scooter", "name": "eebd22be4bbe1f6909a8d3358300ad74", "lat": 38.923314166666664, "bike_id": "eebd22be4bbe1f6909a8d3358300ad74"}, {"lon": -76.996121, "rental_uris": {"android": "https://dc.lft.to/lastmile_qr_scan", "ios": "https://dc.lft.to/lastmile_qr_scan"}, "fusion_lon": 0.0, "is_reserved": 0, "is_disabled": 0, "fusion_lat": 0.0, "type": "electric_scooter", "name": "0481575be3a50fd0284bace11599e9b8", "lat": 38.88520483333333, "bike_id": "0481575be3a50fd0284bace11599e9b8"}, {"lon": -77.02029883333333, "rental_uris": {"android": "https://dc.lft.to/lastmile_qr_scan", "ios": "https://dc.lft.to/lastmile_qr_scan"}, "fusion_lon": 0.0, "is_reserved": 0, "is_disabled": 0, "fusion_lat": 0.0, "type": "electric_scooter", "name": "cc99c4875356a4e579996dd0811e61c0", "lat": 38.922428333333336, "bike_id": "cc99c4875356a4e579996dd0811e61c0"}, {"lon": -77.12651416666667, "rental_uris": {"android": "https://dc.lft.to/lastmile_qr_scan", "ios": "https://dc.lft.to/lastmile_qr_scan"}, "fusion_lon": 0.0, "is_reserved": 0, "is_disabled": 0, "fusion_lat": 0.0, "type": "electric_bike", "name": "d520cf4d6d65359d955e0772d1910f69", "lat": 38.819054333333334, "bike_id": "d520cf4d6d65359d955e0772d1910f69"}, {"lon": -77.0352835, "rental_uris": {"android": "https://dc.lft.to/lastmile_qr_scan", "ios": "https://dc.lft.to/lastmile_qr_scan"}, "fusion_lon": 0.0, "is_reserved": 0, "is_disabled": 0, "fusion_lat": 0.0, "type": "electric_scooter", "name": "bfd34eb8c63c50aa8bd3f662d5b3485a", "lat": 38.9185845, "bike_id": "bfd34eb8c63c50aa8bd3f662d5b3485a"}, {"lon": -77.01953466666667, "rental_uris": {"android": "https://dc.lft.to/lastmile_qr_scan", "ios": "https://dc.lft.to/lastmile_qr_scan"}, "fusion_lon": 0.0, "is_reserved": 0, "is_disabled": 0, "fusion_lat": 0.0, "type": "electric_scooter", "name": "e31d61659e2162a78586cb22f67f8cd3", "lat": 38.922462833333334, "bike_id": "e31d61659e2162a78586cb22f67f8cd3"}, {"lon": -76.9957335, "rental_uris": {"android": "https://dc.lft.to/lastmile_qr_scan", "ios": "https://dc.lft.to/lastmile_qr_scan"}, "fusion_lon": 0.0, "is_reserved": 0, "is_disabled": 0, "fusion_lat": 0.0, "type": "electric_scooter", "name": "6dfa9aaffc01872562c6771376c08ffc", "lat": 38.862702666666664, "bike_id": "6dfa9aaffc01872562c6771376c08ffc"}, {"lon": -77.0727785, "rental_uris": {"android": "https://dc.lft.to/lastmile_qr_scan", "ios": "https://dc.lft.to/lastmile_qr_scan"}, "fusion_lon": 0.0, "is_reserved": 0, "is_disabled": 0, "fusion_lat": 0.0, "type": "electric_scooter", "name": "1088e939229099c4025b26a9760c1c55", "lat": 38.93465333333333, "bike_id": "1088e939229099c4025b26a9760c1c55"}, {"lon": -77.08978566666667, "rental_uris": {"android": "https://dc.lft.to/lastmile_qr_scan", "ios": "https://dc.lft.to/lastmile_qr_scan"}, "fusion_lon": 0.0, "is_reserved": 0, "is_disabled": 0, "fusion_lat": 0.0, "type": "electric_scooter", "name": "73b833f42e8e8429237edae401b550fe", "lat": 38.93712583333333, "bike_id": "73b833f42e8e8429237edae401b550fe"}, {"lon": -76.97954566666667, "rental_uris": {"android": "https://dc.lft.to/lastmile_qr_scan", "ios": "https://dc.lft.to/lastmile_qr_scan"}, "fusion_lon": 0.0, "is_reserved": 0, "is_disabled": 0, "fusion_lat": 0.0, "type": "electric_scooter", "name": "71aed03f96aae9d246ff28118c0747cc", "lat": 38.89212116666667, "bike_id": "71aed03f96aae9d246ff28118c0747cc"}, {"lon": -77.00572816666667, "rental_uris": {"android": "https://dc.lft.to/lastmile_qr_scan", "ios": "https://dc.lft.to/lastmile_qr_scan"}, "fusion_lon": 0.0, "is_reserved": 0, "is_disabled": 0, "fusion_lat": 0.0, "type": "electric_scooter", "name": "3f240e55db899d281b8e06d2e3d36999", "lat": 38.90616433333334, "bike_id": "3f240e55db899d281b8e06d2e3d36999"}, {"lon": -77.046528, "rental_uris": {"android": "https://dc.lft.to/lastmile_qr_scan", "ios": "https://dc.lft.to/lastmile_qr_scan"}, "fusion_lon": 0.0, "is_reserved": 0, "is_disabled": 0, "fusion_lat": 0.0, "type": "electric_scooter", "name": "c5c9ec0e1cae6d188911266864495f42", "lat": 38.892243666666666, "bike_id": "c5c9ec0e1cae6d188911266864495f42"}, {"lon": -77.04337566666666, "rental_uris": {"android": "https://dc.lft.to/lastmile_qr_scan", "ios": "https://dc.lft.to/lastmile_qr_scan"}, "fusion_lon": 0.0, "is_reserved": 0, "is_disabled": 0, "fusion_lat": 0.0, "type": "electric_scooter", "name": "7b111ebafe91fe0c87d1882df02ffe31", "lat": 38.9051405, "bike_id": "7b111ebafe91fe0c87d1882df02ffe31"}, {"lon": -77.041285, "rental_uris": {"android": "https://dc.lft.to/lastmile_qr_scan", "ios": "https://dc.lft.to/lastmile_qr_scan"}, "fusion_lon": 0.0, "is_reserved": 0, "is_disabled": 0, "fusion_lat": 0.0, "type": "electric_scooter", "name": "c4bf42d90d22361649195ea7f7fd8c11", "lat": 38.921205666666665, "bike_id": "c4bf42d90d22361649195ea7f7fd8c11"}, {"lon": -77.07456516666667, "rental_uris": {"android": "https://dc.lft.to/lastmile_qr_scan", "ios": "https://dc.lft.to/lastmile_qr_scan"}, "fusion_lon": 0.0, "is_reserved": 0, "is_disabled": 0, "fusion_lat": 0.0, "type": "electric_scooter", "name": "91ff6b8c53e02d3e33e3de8ea11a59fc", "lat": 38.93553716666667, "bike_id": "91ff6b8c53e02d3e33e3de8ea11a59fc"}, {"lon": -77.03260133333333, "rental_uris": {"android": "https://dc.lft.to/lastmile_qr_scan", "ios": "https://dc.lft.to/lastmile_qr_scan"}, "fusion_lon": 0.0, "is_reserved": 0, "is_disabled": 0, "fusion_lat": 0.0, "type": "electric_scooter", "name": "a8c29fe298a6c904dba938521746c643", "lat": 38.93132933333333, "bike_id": "a8c29fe298a6c904dba938521746c643"}, {"lon": -77.0201465, "rental_uris": {"android": "https://dc.lft.to/lastmile_qr_scan", "ios": "https://dc.lft.to/lastmile_qr_scan"}, "fusion_lon": 0.0, "is_reserved": 0, "is_disabled": 0, "fusion_lat": 0.0, "type": "electric_scooter", "name": "250e2ff5696861e26e3c975fe1bd2557", "lat": 38.8990435, "bike_id": "250e2ff5696861e26e3c975fe1bd2557"}, {"lon": -77.04657116666667, "rental_uris": {"android": "https://dc.lft.to/lastmile_qr_scan", "ios": "https://dc.lft.to/lastmile_qr_scan"}, "fusion_lon": 0.0, "is_reserved": 0, "is_disabled": 0, "fusion_lat": 0.0, "type": "electric_scooter", "name": "4b4af301d0950a4b7116bea5029ba920", "lat": 38.8996725, "bike_id": "4b4af301d0950a4b7116bea5029ba920"}, {"lon": -77.03973133333334, "rental_uris": {"android": "https://dc.lft.to/lastmile_qr_scan", "ios": "https://dc.lft.to/lastmile_qr_scan"}, "fusion_lon": 0.0, "is_reserved": 0, "is_disabled": 0, "fusion_lat": 0.0, "type": "electric_scooter", "name": "04903fad73620d00ad332b5e25fb01d5", "lat": 38.902710166666665, "bike_id": "04903fad73620d00ad332b5e25fb01d5"}, {"lon": -77.0295845, "rental_uris": {"android": "https://dc.lft.to/lastmile_qr_scan", "ios": "https://dc.lft.to/lastmile_qr_scan"}, "fusion_lon": 0.0, "is_reserved": 0, "is_disabled": 0, "fusion_lat": 0.0, "type": "electric_scooter", "name": "28aad55a9552e423b8c66b14cf36872c", "lat": 38.91677416666667, "bike_id": "28aad55a9552e423b8c66b14cf36872c"}, {"lon": -77.03430383333334, "rental_uris": {"android": "https://dc.lft.to/lastmile_qr_scan", "ios": "https://dc.lft.to/lastmile_qr_scan"}, "fusion_lon": 0.0, "is_reserved": 0, "is_disabled": 0, "fusion_lat": 0.0, "type": "electric_bike", "name": "59f8f14b32cb2459899db9c3e4d121bf", "lat": 38.96610483333333, "bike_id": "59f8f14b32cb2459899db9c3e4d121bf"}, {"lon": -76.96149666666666, "rental_uris": {"android": "https://dc.lft.to/lastmile_qr_scan", "ios": "https://dc.lft.to/lastmile_qr_scan"}, "fusion_lon": 0.0, "is_reserved": 0, "is_disabled": 0, "fusion_lat": 0.0, "type": "electric_bike", "name": "a44596b3cf9e42f4fe818b4c046e71f8", "lat": 38.856156666666664, "bike_id": "a44596b3cf9e42f4fe818b4c046e71f8"}, {"lon": -76.99438816666667, "rental_uris": {"android": "https://dc.lft.to/lastmile_qr_scan", "ios": "https://dc.lft.to/lastmile_qr_scan"}, "fusion_lon": 0.0, "is_reserved": 0, "is_disabled": 0, "fusion_lat": 0.0, "type": "electric_scooter", "name": "8a7f0b73693a61262a99f68e8c3ba413", "lat": 38.94172583333334, "bike_id": "8a7f0b73693a61262a99f68e8c3ba413"}, {"lon": -77.04867266666666, "rental_uris": {"android": "https://dc.lft.to/lastmile_qr_scan", "ios": "https://dc.lft.to/lastmile_qr_scan"}, "fusion_lon": 0.0, "is_reserved": 0, "is_disabled": 0, "fusion_lat": 0.0, "type": "electric_scooter", "name": "3be27fad02188a5fa01ee14e1ca1a183", "lat": 38.89215933333333, "bike_id": "3be27fad02188a5fa01ee14e1ca1a183"}, {"lon": -77.0230255, "rental_uris": {"android": "https://dc.lft.to/lastmile_qr_scan", "ios": "https://dc.lft.to/lastmile_qr_scan"}, "fusion_lon": 0.0, "is_reserved": 0, "is_disabled": 0, "fusion_lat": 0.0, "type": "electric_scooter", "name": "99c6c9b121d015d0f5f80d22285741dc", "lat": 38.927751, "bike_id": "99c6c9b121d015d0f5f80d22285741dc"}, {"lon": -77.031742, "rental_uris": {"android": "https://dc.lft.to/lastmile_qr_scan", "ios": "https://dc.lft.to/lastmile_qr_scan"}, "fusion_lon": 0.0, "is_reserved": 0, "is_disabled": 0, "fusion_lat": 0.0, "type": "electric_scooter", "name": "a6fbbc6fd1ee381de0ec9ab537fe9967", "lat": 38.93594133333333, "bike_id": "a6fbbc6fd1ee381de0ec9ab537fe9967"}, {"lon": -77.01962433333334, "rental_uris": {"android": "https://dc.lft.to/lastmile_qr_scan", "ios": "https://dc.lft.to/lastmile_qr_scan"}, "fusion_lon": 0.0, "is_reserved": 0, "is_disabled": 0, "fusion_lat": 0.0, "type": "electric_scooter", "name": "9588648f8e9636e58ad43746c52efa77", "lat": 38.89295583333333, "bike_id": "9588648f8e9636e58ad43746c52efa77"}, {"lon": -77.022226, "rental_uris": {"android": "https://dc.lft.to/lastmile_qr_scan", "ios": "https://dc.lft.to/lastmile_qr_scan"}, "fusion_lon": 0.0, "is_reserved": 0, "is_disabled": 0, "fusion_lat": 0.0, "type": "electric_scooter", "name": "d8635e3ab287845d4dfb200cf65f7d53", "lat": 38.92095283333333, "bike_id": "d8635e3ab287845d4dfb200cf65f7d53"}, {"lon": -77.00710016666666, "rental_uris": {"android": "https://dc.lft.to/lastmile_qr_scan", "ios": "https://dc.lft.to/lastmile_qr_scan"}, "fusion_lon": 0.0, "is_reserved": 0, "is_disabled": 0, "fusion_lat": 0.0, "type": "electric_scooter", "name": "d0259f44cee5cd2206f03815c3d42907", "lat": 38.8848195, "bike_id": "d0259f44cee5cd2206f03815c3d42907"}, {"lon": -77.050915, "rental_uris": {"android": "https://dc.lft.to/lastmile_qr_scan", "ios": "https://dc.lft.to/lastmile_qr_scan"}, "fusion_lon": 0.0, "is_reserved": 0, "is_disabled": 0, "fusion_lat": 0.0, "type": "electric_scooter", "name": "cb28b01c808859fdcae710bc7914a419", "lat": 38.900075333333334, "bike_id": "cb28b01c808859fdcae710bc7914a419"}, {"lon": -77.0347615, "rental_uris": {"android": "https://dc.lft.to/lastmile_qr_scan", "ios": "https://dc.lft.to/lastmile_qr_scan"}, "fusion_lon": 0.0, "is_reserved": 0, "is_disabled": 0, "fusion_lat": 0.0, "type": "electric_scooter", "name": "0e6085002295b16a945c72499526b497", "lat": 38.8848835, "bike_id": "0e6085002295b16a945c72499526b497"}, {"lon": -77.04336833333333, "rental_uris": {"android": "https://dc.lft.to/lastmile_qr_scan", "ios": "https://dc.lft.to/lastmile_qr_scan"}, "fusion_lon": 0.0, "is_reserved": 0, "is_disabled": 0, "fusion_lat": 0.0, "type": "electric_scooter", "name": "1a8870f34eabffcb8dbfdbaed8ed2cfb", "lat": 38.92211316666667, "bike_id": "1a8870f34eabffcb8dbfdbaed8ed2cfb"}, {"lon": -77.01216066666667, "rental_uris": {"android": "https://dc.lft.to/lastmile_qr_scan", "ios": "https://dc.lft.to/lastmile_qr_scan"}, "fusion_lon": 0.0, "is_reserved": 0, "is_disabled": 0, "fusion_lat": 0.0, "type": "electric_scooter", "name": "cee03de4153f58fddf49c315e1586b32", "lat": 38.9003985, "bike_id": "cee03de4153f58fddf49c315e1586b32"}, {"lon": -76.9528775, "rental_uris": {"android": "https://dc.lft.to/lastmile_qr_scan", "ios": "https://dc.lft.to/lastmile_qr_scan"}, "fusion_lon": 0.0, "is_reserved": 0, "is_disabled": 0, "fusion_lat": 0.0, "type": "electric_scooter", "name": "e784ec7d5b53bc5c5a9db7aa7aaef2bc", "lat": 38.88503933333333, "bike_id": "e784ec7d5b53bc5c5a9db7aa7aaef2bc"}, {"lon": -77.03925683333334, "rental_uris": {"android": "https://dc.lft.to/lastmile_qr_scan", "ios": "https://dc.lft.to/lastmile_qr_scan"}, "fusion_lon": 0.0, "is_reserved": 0, "is_disabled": 0, "fusion_lat": 0.0, "type": "electric_scooter", "name": "795a8b263ffac2afc597038b8cc482eb", "lat": 38.906886, "bike_id": "795a8b263ffac2afc597038b8cc482eb"}, {"lon": -77.00340033333333, "rental_uris": {"android": "https://dc.lft.to/lastmile_qr_scan", "ios": "https://dc.lft.to/lastmile_qr_scan"}, "fusion_lon": 0.0, "is_reserved": 0, "is_disabled": 0, "fusion_lat": 0.0, "type": "electric_scooter", "name": "61a426cbf0ec59a18f0d3770665fa854", "lat": 38.8952805, "bike_id": "61a426cbf0ec59a18f0d3770665fa854"}, {"lon": -77.03440816666667, "rental_uris": {"android": "https://dc.lft.to/lastmile_qr_scan", "ios": "https://dc.lft.to/lastmile_qr_scan"}, "fusion_lon": 0.0, "is_reserved": 0, "is_disabled": 0, "fusion_lat": 0.0, "type": "electric_scooter", "name": "da2f64c4d231f8eec5f94f9e13180137", "lat": 38.90374933333333, "bike_id": "da2f64c4d231f8eec5f94f9e13180137"}, {"lon": -77.02682666666666, "rental_uris": {"android": "https://dc.lft.to/lastmile_qr_scan", "ios": "https://dc.lft.to/lastmile_qr_scan"}, "fusion_lon": 0.0, "is_reserved": 0, "is_disabled": 0, "fusion_lat": 0.0, "type": "electric_scooter", "name": "84bacc56c50e19c2072ecc4350613d25", "lat": 38.8946325, "bike_id": "84bacc56c50e19c2072ecc4350613d25"}, {"lon": -76.99525216666666, "rental_uris": {"android": "https://dc.lft.to/lastmile_qr_scan", "ios": "https://dc.lft.to/lastmile_qr_scan"}, "fusion_lon": 0.0, "is_reserved": 0, "is_disabled": 0, "fusion_lat": 0.0, "type": "electric_scooter", "name": "26834d1d8236c38d8b216d41d1711c75", "lat": 38.8792215, "bike_id": "26834d1d8236c38d8b216d41d1711c75"}, {"lon": -77.10106216666667, "rental_uris": {"android": "https://dc.lft.to/lastmile_qr_scan", "ios": "https://dc.lft.to/lastmile_qr_scan"}, "fusion_lon": 0.0, "is_reserved": 0, "is_disabled": 0, "fusion_lat": 0.0, "type": "electric_bike", "name": "b02e3432b9113481d739c0ef79388dcf", "lat": 38.9894525, "bike_id": "b02e3432b9113481d739c0ef79388dcf"}, {"lon": -77.041903, "rental_uris": {"android": "https://dc.lft.to/lastmile_qr_scan", "ios": "https://dc.lft.to/lastmile_qr_scan"}, "fusion_lon": 0.0, "is_reserved": 0, "is_disabled": 0, "fusion_lat": 0.0, "type": "electric_scooter", "name": "8282b92f04795d4dfd2f717841f89cf5", "lat": 38.90684266666667, "bike_id": "8282b92f04795d4dfd2f717841f89cf5"}, {"lon": -77.03684366666667, "rental_uris": {"android": "https://dc.lft.to/lastmile_qr_scan", "ios": "https://dc.lft.to/lastmile_qr_scan"}, "fusion_lon": 0.0, "is_reserved": 0, "is_disabled": 0, "fusion_lat": 0.0, "type": "electric_scooter", "name": "84e556e6a8bdc765d5673a235e8f7e3b", "lat": 38.9226325, "bike_id": "84e556e6a8bdc765d5673a235e8f7e3b"}, {"lon": -77.0220145, "rental_uris": {"android": "https://dc.lft.to/lastmile_qr_scan", "ios": "https://dc.lft.to/lastmile_qr_scan"}, "fusion_lon": 0.0, "is_reserved": 0, "is_disabled": 0, "fusion_lat": 0.0, "type": "electric_scooter", "name": "812efd19e6a99ca249f01580d5cee935", "lat": 38.887182833333334, "bike_id": "812efd19e6a99ca249f01580d5cee935"}, {"lon": -77.02720733333334, "rental_uris": {"android": "https://dc.lft.to/lastmile_qr_scan", "ios": "https://dc.lft.to/lastmile_qr_scan"}, "fusion_lon": 0.0, "is_reserved": 0, "is_disabled": 0, "fusion_lat": 0.0, "type": "electric_scooter", "name": "c74933df24877661d0a1b9c61419c3a4", "lat": 38.8971465, "bike_id": "c74933df24877661d0a1b9c61419c3a4"}, {"lon": -77.04277616666667, "rental_uris": {"android": "https://dc.lft.to/lastmile_qr_scan", "ios": "https://dc.lft.to/lastmile_qr_scan"}, "fusion_lon": 0.0, "is_reserved": 0, "is_disabled": 0, "fusion_lat": 0.0, "type": "electric_scooter", "name": "8b2b753285cec25ea10be19d3b92bcc4", "lat": 38.895956, "bike_id": "8b2b753285cec25ea10be19d3b92bcc4"}, {"lon": -77.02537966666667, "rental_uris": {"android": "https://dc.lft.to/lastmile_qr_scan", "ios": "https://dc.lft.to/lastmile_qr_scan"}, "fusion_lon": 0.0, "is_reserved": 0, "is_disabled": 0, "fusion_lat": 0.0, "type": "electric_scooter", "name": "f903e3f6addda9cf062cbf8a3dd07759", "lat": 38.939733833333335, "bike_id": "f903e3f6addda9cf062cbf8a3dd07759"}, {"lon": -77.021286, "rental_uris": {"android": "https://dc.lft.to/lastmile_qr_scan", "ios": "https://dc.lft.to/lastmile_qr_scan"}, "fusion_lon": 0.0, "is_reserved": 0, "is_disabled": 0, "fusion_lat": 0.0, "type": "electric_scooter", "name": "b68108be769f1c5907bf5f2565a4811d", "lat": 38.887342, "bike_id": "b68108be769f1c5907bf5f2565a4811d"}, {"lon": -77.02313183333334, "rental_uris": {"android": "https://dc.lft.to/lastmile_qr_scan", "ios": "https://dc.lft.to/lastmile_qr_scan"}, "fusion_lon": 0.0, "is_reserved": 0, "is_disabled": 0, "fusion_lat": 0.0, "type": "electric_scooter", "name": "101520e7753703b7aa3f9fe5b1f6e53a", "lat": 38.9160095, "bike_id": "101520e7753703b7aa3f9fe5b1f6e53a"}, {"lon": -76.93756516666667, "rental_uris": {"android": "https://dc.lft.to/lastmile_qr_scan", "ios": "https://dc.lft.to/lastmile_qr_scan"}, "fusion_lon": 0.0, "is_reserved": 0, "is_disabled": 0, "fusion_lat": 0.0, "type": "electric_scooter", "name": "4c6028cb6b2e1836f50155390468fb6d", "lat": 38.89044283333333, "bike_id": "4c6028cb6b2e1836f50155390468fb6d"}, {"lon": -76.9946355, "rental_uris": {"android": "https://dc.lft.to/lastmile_qr_scan", "ios": "https://dc.lft.to/lastmile_qr_scan"}, "fusion_lon": 0.0, "is_reserved": 0, "is_disabled": 0, "fusion_lat": 0.0, "type": "electric_scooter", "name": "76f9b49108cbd92f331bb94f1538b3b7", "lat": 38.86191766666666, "bike_id": "76f9b49108cbd92f331bb94f1538b3b7"}, {"lon": -77.043567, "rental_uris": {"android": "https://dc.lft.to/lastmile_qr_scan", "ios": "https://dc.lft.to/lastmile_qr_scan"}, "fusion_lon": 0.0, "is_reserved": 0, "is_disabled": 0, "fusion_lat": 0.0, "type": "electric_scooter", "name": "a4768948e570d90d73a9244cd64ebad3", "lat": 38.90025416666667, "bike_id": "a4768948e570d90d73a9244cd64ebad3"}, {"lon": -76.997685, "rental_uris": {"android": "https://dc.lft.to/lastmile_qr_scan", "ios": "https://dc.lft.to/lastmile_qr_scan"}, "fusion_lon": 0.0, "is_reserved": 0, "is_disabled": 0, "fusion_lat": 0.0, "type": "electric_bike", "name": "48434f3dcc6b2920924eb9666feacd43", "lat": 38.92281116666667, "bike_id": "48434f3dcc6b2920924eb9666feacd43"}, {"lon": -77.0501345, "rental_uris": {"android": "https://dc.lft.to/lastmile_qr_scan", "ios": "https://dc.lft.to/lastmile_qr_scan"}, "fusion_lon": 0.0, "is_reserved": 0, "is_disabled": 0, "fusion_lat": 0.0, "type": "electric_scooter", "name": "d6d37e6457b847dd2ee16f8dde18c7d6", "lat": 38.9233455, "bike_id": "d6d37e6457b847dd2ee16f8dde18c7d6"}, {"lon": -76.93752366666666, "rental_uris": {"android": "https://dc.lft.to/lastmile_qr_scan", "ios": "https://dc.lft.to/lastmile_qr_scan"}, "fusion_lon": 0.0, "is_reserved": 0, "is_disabled": 0, "fusion_lat": 0.0, "type": "electric_scooter", "name": "fc14e7ef4840af95e13cf0eb195b0e97", "lat": 38.890401833333335, "bike_id": "fc14e7ef4840af95e13cf0eb195b0e97"}, {"lon": -77.02216833333334, "rental_uris": {"android": "https://dc.lft.to/lastmile_qr_scan", "ios": "https://dc.lft.to/lastmile_qr_scan"}, "fusion_lon": 0.0, "is_reserved": 0, "is_disabled": 0, "fusion_lat": 0.0, "type": "electric_scooter", "name": "4899aa9467fe8a42f5fcc58d451965d2", "lat": 38.9246755, "bike_id": "4899aa9467fe8a42f5fcc58d451965d2"}, {"lon": -77.0118185, "rental_uris": {"android": "https://dc.lft.to/lastmile_qr_scan", "ios": "https://dc.lft.to/lastmile_qr_scan"}, "fusion_lon": 0.0, "is_reserved": 0, "is_disabled": 0, "fusion_lat": 0.0, "type": "electric_scooter", "name": "0c9ffa3b5bc0bebd1ff99b88e5434a40", "lat": 38.89624333333333, "bike_id": "0c9ffa3b5bc0bebd1ff99b88e5434a40"}, {"lon": -77.02846233333334, "rental_uris": {"android": "https://dc.lft.to/lastmile_qr_scan", "ios": "https://dc.lft.to/lastmile_qr_scan"}, "fusion_lon": 0.0, "is_reserved": 0, "is_disabled": 0, "fusion_lat": 0.0, "type": "electric_scooter", "name": "673951b67cebacf78a3a36f073fbcdaa", "lat": 38.934209833333334, "bike_id": "673951b67cebacf78a3a36f073fbcdaa"}, {"lon": -77.027, "rental_uris": {"android": "https://dc.lft.to/lastmile_qr_scan", "ios": "https://dc.lft.to/lastmile_qr_scan"}, "fusion_lon": 0.0, "is_reserved": 0, "is_disabled": 0, "fusion_lat": 0.0, "type": "electric_scooter", "name": "ba468335bdc8597d2828ffb0ab6ce769", "lat": 38.90664316666667, "bike_id": "ba468335bdc8597d2828ffb0ab6ce769"}, {"lon": -77.013761, "rental_uris": {"android": "https://dc.lft.to/lastmile_qr_scan", "ios": "https://dc.lft.to/lastmile_qr_scan"}, "fusion_lon": 0.0, "is_reserved": 0, "is_disabled": 0, "fusion_lat": 0.0, "type": "electric_scooter", "name": "1d65d88c795a2e3204789dc0644651f2", "lat": 38.8693145, "bike_id": "1d65d88c795a2e3204789dc0644651f2"}, {"lon": -77.0319725, "rental_uris": {"android": "https://dc.lft.to/lastmile_qr_scan", "ios": "https://dc.lft.to/lastmile_qr_scan"}, "fusion_lon": 0.0, "is_reserved": 0, "is_disabled": 0, "fusion_lat": 0.0, "type": "electric_bike", "name": "0482f740d3c5998f1233e1e98b786c30", "lat": 38.9163515, "bike_id": "0482f740d3c5998f1233e1e98b786c30"}, {"lon": -76.99841133333334, "rental_uris": {"android": "https://dc.lft.to/lastmile_qr_scan", "ios": "https://dc.lft.to/lastmile_qr_scan"}, "fusion_lon": 0.0, "is_reserved": 0, "is_disabled": 0, "fusion_lat": 0.0, "type": "electric_scooter", "name": "c039393504c8ce20484e71bb4340f4d7", "lat": 38.9000725, "bike_id": "c039393504c8ce20484e71bb4340f4d7"}, {"lon": -77.0532275, "rental_uris": {"android": "https://dc.lft.to/lastmile_qr_scan", "ios": "https://dc.lft.to/lastmile_qr_scan"}, "fusion_lon": 0.0, "is_reserved": 0, "is_disabled": 0, "fusion_lat": 0.0, "type": "electric_scooter", "name": "bf88a22212c735db7b46e65d73521538", "lat": 38.91553416666667, "bike_id": "bf88a22212c735db7b46e65d73521538"}, {"lon": -77.00595666666666, "rental_uris": {"android": "https://dc.lft.to/lastmile_qr_scan", "ios": "https://dc.lft.to/lastmile_qr_scan"}, "fusion_lon": 0.0, "is_reserved": 0, "is_disabled": 0, "fusion_lat": 0.0, "type": "electric_scooter", "name": "99979c842f2b57158a12605cf785ae9e", "lat": 38.8756585, "bike_id": "99979c842f2b57158a12605cf785ae9e"}, {"lon": -77.04672566666666, "rental_uris": {"android": "https://dc.lft.to/lastmile_qr_scan", "ios": "https://dc.lft.to/lastmile_qr_scan"}, "fusion_lon": 0.0, "is_reserved": 0, "is_disabled": 0, "fusion_lat": 0.0, "type": "electric_scooter", "name": "58ef88ba6ae469975505a0d76b554ba8", "lat": 38.89259933333334, "bike_id": "58ef88ba6ae469975505a0d76b554ba8"}, {"lon": -77.04073033333333, "rental_uris": {"android": "https://dc.lft.to/lastmile_qr_scan", "ios": "https://dc.lft.to/lastmile_qr_scan"}, "fusion_lon": 0.0, "is_reserved": 0, "is_disabled": 0, "fusion_lat": 0.0, "type": "electric_scooter", "name": "c1edef725edc1bdfe3d8f19e00a0eb3a", "lat": 38.9037485, "bike_id": "c1edef725edc1bdfe3d8f19e00a0eb3a"}, {"lon": -77.0739215, "rental_uris": {"android": "https://dc.lft.to/lastmile_qr_scan", "ios": "https://dc.lft.to/lastmile_qr_scan"}, "fusion_lon": 0.0, "is_reserved": 0, "is_disabled": 0, "fusion_lat": 0.0, "type": "electric_scooter", "name": "d43dcb884be53f7d7315eb0966c830cf", "lat": 38.91022016666667, "bike_id": "d43dcb884be53f7d7315eb0966c830cf"}, {"lon": -77.02757833333334, "rental_uris": {"android": "https://dc.lft.to/lastmile_qr_scan", "ios": "https://dc.lft.to/lastmile_qr_scan"}, "fusion_lon": 0.0, "is_reserved": 0, "is_disabled": 0, "fusion_lat": 0.0, "type": "electric_scooter", "name": "19b794dc4277b8b5417586ea49f39048", "lat": 38.9561115, "bike_id": "19b794dc4277b8b5417586ea49f39048"}, {"lon": -77.04671533333334, "rental_uris": {"android": "https://dc.lft.to/lastmile_qr_scan", "ios": "https://dc.lft.to/lastmile_qr_scan"}, "fusion_lon": 0.0, "is_reserved": 0, "is_disabled": 0, "fusion_lat": 0.0, "type": "electric_scooter", "name": "26f58889a06178773fd9981f96065060", "lat": 38.8972915, "bike_id": "26f58889a06178773fd9981f96065060"}, {"lon": -77.00598733333334, "rental_uris": {"android": "https://dc.lft.to/lastmile_qr_scan", "ios": "https://dc.lft.to/lastmile_qr_scan"}, "fusion_lon": 0.0, "is_reserved": 0, "is_disabled": 0, "fusion_lat": 0.0, "type": "electric_scooter", "name": "9dbe456ced913c468f3c0003aee19a85", "lat": 38.905798833333336, "bike_id": "9dbe456ced913c468f3c0003aee19a85"}, {"lon": -77.04503783333334, "rental_uris": {"android": "https://dc.lft.to/lastmile_qr_scan", "ios": "https://dc.lft.to/lastmile_qr_scan"}, "fusion_lon": 0.0, "is_reserved": 0, "is_disabled": 0, "fusion_lat": 0.0, "type": "electric_scooter", "name": "d88ec6aa757fe7203f1155b5ecab5878", "lat": 38.89251616666667, "bike_id": "d88ec6aa757fe7203f1155b5ecab5878"}, {"lon": -77.03242166666666, "rental_uris": {"android": "https://dc.lft.to/lastmile_qr_scan", "ios": "https://dc.lft.to/lastmile_qr_scan"}, "fusion_lon": 0.0, "is_reserved": 0, "is_disabled": 0, "fusion_lat": 0.0, "type": "electric_scooter", "name": "856649fa4f05cbfd7a6611cc35b69e82", "lat": 38.9292695, "bike_id": "856649fa4f05cbfd7a6611cc35b69e82"}, {"lon": -76.98571133333333, "rental_uris": {"android": "https://dc.lft.to/lastmile_qr_scan", "ios": "https://dc.lft.to/lastmile_qr_scan"}, "fusion_lon": 0.0, "is_reserved": 0, "is_disabled": 0, "fusion_lat": 0.0, "type": "electric_bike", "name": "36b1a56e96cdaecbd4e83602a4421ca9", "lat": 38.914836, "bike_id": "36b1a56e96cdaecbd4e83602a4421ca9"}, {"lon": -77.02119316666666, "rental_uris": {"android": "https://dc.lft.to/lastmile_qr_scan", "ios": "https://dc.lft.to/lastmile_qr_scan"}, "fusion_lon": 0.0, "is_reserved": 0, "is_disabled": 0, "fusion_lat": 0.0, "type": "electric_scooter", "name": "5aa3a9f0f0953014284bdecec48f4881", "lat": 38.92233383333333, "bike_id": "5aa3a9f0f0953014284bdecec48f4881"}, {"lon": -77.02824683333333, "rental_uris": {"android": "https://dc.lft.to/lastmile_qr_scan", "ios": "https://dc.lft.to/lastmile_qr_scan"}, "fusion_lon": 0.0, "is_reserved": 0, "is_disabled": 0, "fusion_lat": 0.0, "type": "electric_scooter", "name": "5423b8d46988d3031e7284633a8da8c9", "lat": 38.88728, "bike_id": "5423b8d46988d3031e7284633a8da8c9"}, {"lon": -77.03048533333333, "rental_uris": {"android": "https://dc.lft.to/lastmile_qr_scan", "ios": "https://dc.lft.to/lastmile_qr_scan"}, "fusion_lon": 0.0, "is_reserved": 0, "is_disabled": 0, "fusion_lat": 0.0, "type": "electric_scooter", "name": "a60b0ca23fc0d048e8d4cd04609613bf", "lat": 38.9133055, "bike_id": "a60b0ca23fc0d048e8d4cd04609613bf"}, {"lon": -77.01942216666667, "rental_uris": {"android": "https://dc.lft.to/lastmile_qr_scan", "ios": "https://dc.lft.to/lastmile_qr_scan"}, "fusion_lon": 0.0, "is_reserved": 0, "is_disabled": 0, "fusion_lat": 0.0, "type": "electric_bike", "name": "f04fd3e32c95070716e2d4829a76cc59", "lat": 38.89843883333333, "bike_id": "f04fd3e32c95070716e2d4829a76cc59"}, {"lon": -77.027933, "rental_uris": {"android": "https://dc.lft.to/lastmile_qr_scan", "ios": "https://dc.lft.to/lastmile_qr_scan"}, "fusion_lon": 0.0, "is_reserved": 0, "is_disabled": 0, "fusion_lat": 0.0, "type": "electric_scooter", "name": "34b44c128bd95db111a3a67b0cb13e62", "lat": 38.9417665, "bike_id": "34b44c128bd95db111a3a67b0cb13e62"}, {"lon": -77.04864616666667, "rental_uris": {"android": "https://dc.lft.to/lastmile_qr_scan", "ios": "https://dc.lft.to/lastmile_qr_scan"}, "fusion_lon": 0.0, "is_reserved": 0, "is_disabled": 0, "fusion_lat": 0.0, "type": "electric_scooter", "name": "2f08bfbda913af2e2e5d6fff05858d4d", "lat": 38.89826033333333, "bike_id": "2f08bfbda913af2e2e5d6fff05858d4d"}, {"lon": -77.04447416666666, "rental_uris": {"android": "https://dc.lft.to/lastmile_qr_scan", "ios": "https://dc.lft.to/lastmile_qr_scan"}, "fusion_lon": 0.0, "is_reserved": 0, "is_disabled": 0, "fusion_lat": 0.0, "type": "electric_scooter", "name": "a02544e72b2e61d32ead417b65468081", "lat": 38.90571466666667, "bike_id": "a02544e72b2e61d32ead417b65468081"}, {"lon": -77.0293285, "rental_uris": {"android": "https://dc.lft.to/lastmile_qr_scan", "ios": "https://dc.lft.to/lastmile_qr_scan"}, "fusion_lon": 0.0, "is_reserved": 0, "is_disabled": 0, "fusion_lat": 0.0, "type": "electric_bike", "name": "4a374942e4eb3ee2a1b5947397212cdc", "lat": 38.90519716666667, "bike_id": "4a374942e4eb3ee2a1b5947397212cdc"}, {"lon": -77.0136035, "rental_uris": {"android": "https://dc.lft.to/lastmile_qr_scan", "ios": "https://dc.lft.to/lastmile_qr_scan"}, "fusion_lon": 0.0, "is_reserved": 0, "is_disabled": 0, "fusion_lat": 0.0, "type": "electric_scooter", "name": "ada10893069837809cb67332ef910c91", "lat": 38.956716, "bike_id": "ada10893069837809cb67332ef910c91"}, {"lon": -77.03182166666667, "rental_uris": {"android": "https://dc.lft.to/lastmile_qr_scan", "ios": "https://dc.lft.to/lastmile_qr_scan"}, "fusion_lon": 0.0, "is_reserved": 0, "is_disabled": 0, "fusion_lat": 0.0, "type": "electric_scooter", "name": "9df8142c0c59b60bd8437bec21e29d3f", "lat": 38.92009133333333, "bike_id": "9df8142c0c59b60bd8437bec21e29d3f"}, {"lon": -77.02253816666666, "rental_uris": {"android": "https://dc.lft.to/lastmile_qr_scan", "ios": "https://dc.lft.to/lastmile_qr_scan"}, "fusion_lon": 0.0, "is_reserved": 0, "is_disabled": 0, "fusion_lat": 0.0, "type": "electric_scooter", "name": "6f57182508b9728d1e2341db29f24fe7", "lat": 38.913639, "bike_id": "6f57182508b9728d1e2341db29f24fe7"}, {"lon": -77.04407516666667, "rental_uris": {"android": "https://dc.lft.to/lastmile_qr_scan", "ios": "https://dc.lft.to/lastmile_qr_scan"}, "fusion_lon": 0.0, "is_reserved": 0, "is_disabled": 0, "fusion_lat": 0.0, "type": "electric_scooter", "name": "f26b4c81991311fc03180dc392245b5a", "lat": 38.91126783333333, "bike_id": "f26b4c81991311fc03180dc392245b5a"}, {"lon": -77.00333333333333, "rental_uris": {"android": "https://dc.lft.to/lastmile_qr_scan", "ios": "https://dc.lft.to/lastmile_qr_scan"}, "fusion_lon": 0.0, "is_reserved": 0, "is_disabled": 0, "fusion_lat": 0.0, "type": "electric_scooter", "name": "44e9b997bf8a4cb261bf48c63d14e69c", "lat": 38.89350966666667, "bike_id": "44e9b997bf8a4cb261bf48c63d14e69c"}, {"lon": -77.057416, "rental_uris": {"android": "https://dc.lft.to/lastmile_qr_scan", "ios": "https://dc.lft.to/lastmile_qr_scan"}, "fusion_lon": 0.0, "is_reserved": 0, "is_disabled": 0, "fusion_lat": 0.0, "type": "electric_scooter", "name": "32aa37ea61079a6d763e486692b58637", "lat": 38.933933333333336, "bike_id": "32aa37ea61079a6d763e486692b58637"}, {"lon": -76.99887033333333, "rental_uris": {"android": "https://dc.lft.to/lastmile_qr_scan", "ios": "https://dc.lft.to/lastmile_qr_scan"}, "fusion_lon": 0.0, "is_reserved": 0, "is_disabled": 0, "fusion_lat": 0.0, "type": "electric_scooter", "name": "9dda79aa6a548d06e7c29419c8f4e937", "lat": 38.895981166666665, "bike_id": "9dda79aa6a548d06e7c29419c8f4e937"}, {"lon": -77.05740016666667, "rental_uris": {"android": "https://dc.lft.to/lastmile_qr_scan", "ios": "https://dc.lft.to/lastmile_qr_scan"}, "fusion_lon": 0.0, "is_reserved": 0, "is_disabled": 0, "fusion_lat": 0.0, "type": "electric_scooter", "name": "c18ce70a9bde83cce6a94174a1949a27", "lat": 38.93394983333334, "bike_id": "c18ce70a9bde83cce6a94174a1949a27"}, {"lon": -76.98706116666666, "rental_uris": {"android": "https://dc.lft.to/lastmile_qr_scan", "ios": "https://dc.lft.to/lastmile_qr_scan"}, "fusion_lon": 0.0, "is_reserved": 0, "is_disabled": 0, "fusion_lat": 0.0, "type": "electric_scooter", "name": "6147799d235866e966e3066785d13586", "lat": 38.865402, "bike_id": "6147799d235866e966e3066785d13586"}, {"lon": -77.024201, "rental_uris": {"android": "https://dc.lft.to/lastmile_qr_scan", "ios": "https://dc.lft.to/lastmile_qr_scan"}, "fusion_lon": 0.0, "is_reserved": 0, "is_disabled": 0, "fusion_lat": 0.0, "type": "electric_scooter", "name": "77fb1a2e6119887b402098bb7819086f", "lat": 38.899684, "bike_id": "77fb1a2e6119887b402098bb7819086f"}, {"lon": -77.02595583333333, "rental_uris": {"android": "https://dc.lft.to/lastmile_qr_scan", "ios": "https://dc.lft.to/lastmile_qr_scan"}, "fusion_lon": 0.0, "is_reserved": 0, "is_disabled": 0, "fusion_lat": 0.0, "type": "electric_scooter", "name": "33adb6c2b6998edba35b0b1f76a3a24b", "lat": 38.916844166666664, "bike_id": "33adb6c2b6998edba35b0b1f76a3a24b"}, {"lon": -76.995333, "rental_uris": {"android": "https://dc.lft.to/lastmile_qr_scan", "ios": "https://dc.lft.to/lastmile_qr_scan"}, "fusion_lon": 0.0, "is_reserved": 0, "is_disabled": 0, "fusion_lat": 0.0, "type": "electric_scooter", "name": "e8ed191d39223a25b1b020af6cf30714", "lat": 38.86262333333333, "bike_id": "e8ed191d39223a25b1b020af6cf30714"}, {"lon": -77.027446, "rental_uris": {"android": "https://dc.lft.to/lastmile_qr_scan", "ios": "https://dc.lft.to/lastmile_qr_scan"}, "fusion_lon": 0.0, "is_reserved": 0, "is_disabled": 0, "fusion_lat": 0.0, "type": "electric_scooter", "name": "9ed749a582756dbe024117f9daee7ffd", "lat": 38.9661155, "bike_id": "9ed749a582756dbe024117f9daee7ffd"}, {"lon": -77.04484616666667, "rental_uris": {"android": "https://dc.lft.to/lastmile_qr_scan", "ios": "https://dc.lft.to/lastmile_qr_scan"}, "fusion_lon": 0.0, "is_reserved": 0, "is_disabled": 0, "fusion_lat": 0.0, "type": "electric_scooter", "name": "99ca742400665641aaf5f0b6a5a484f5", "lat": 38.892377833333335, "bike_id": "99ca742400665641aaf5f0b6a5a484f5"}, {"lon": -77.0316665, "rental_uris": {"android": "https://dc.lft.to/lastmile_qr_scan", "ios": "https://dc.lft.to/lastmile_qr_scan"}, "fusion_lon": 0.0, "is_reserved": 0, "is_disabled": 0, "fusion_lat": 0.0, "type": "electric_scooter", "name": "9d507c820335a0ac5f10fbf7d9112b1a", "lat": 38.9178535, "bike_id": "9d507c820335a0ac5f10fbf7d9112b1a"}, {"lon": -77.0608595, "rental_uris": {"android": "https://dc.lft.to/lastmile_qr_scan", "ios": "https://dc.lft.to/lastmile_qr_scan"}, "fusion_lon": 0.0, "is_reserved": 0, "is_disabled": 0, "fusion_lat": 0.0, "type": "electric_scooter", "name": "56a6a0520e1251a7127794f53e3bc44d", "lat": 38.9022195, "bike_id": "56a6a0520e1251a7127794f53e3bc44d"}, {"lon": -76.99310466666667, "rental_uris": {"android": "https://dc.lft.to/lastmile_qr_scan", "ios": "https://dc.lft.to/lastmile_qr_scan"}, "fusion_lon": 0.0, "is_reserved": 0, "is_disabled": 0, "fusion_lat": 0.0, "type": "electric_bike", "name": "fc82df79bd6d3a80eb0d2ee9ca2a6108", "lat": 38.946286666666666, "bike_id": "fc82df79bd6d3a80eb0d2ee9ca2a6108"}, {"lon": -77.00298583333333, "rental_uris": {"android": "https://dc.lft.to/lastmile_qr_scan", "ios": "https://dc.lft.to/lastmile_qr_scan"}, "fusion_lon": 0.0, "is_reserved": 0, "is_disabled": 0, "fusion_lat": 0.0, "type": "electric_scooter", "name": "fbbf758b805f8ddd9f6a20777971d311", "lat": 38.876597833333335, "bike_id": "fbbf758b805f8ddd9f6a20777971d311"}, {"lon": -76.9582455, "rental_uris": {"android": "https://dc.lft.to/lastmile_qr_scan", "ios": "https://dc.lft.to/lastmile_qr_scan"}, "fusion_lon": 0.0, "is_reserved": 0, "is_disabled": 0, "fusion_lat": 0.0, "type": "electric_bike", "name": "eb9e9508f7b4f13589db9916550b02db", "lat": 38.919937166666664, "bike_id": "eb9e9508f7b4f13589db9916550b02db"}, {"lon": -77.03225916666666, "rental_uris": {"android": "https://dc.lft.to/lastmile_qr_scan", "ios": "https://dc.lft.to/lastmile_qr_scan"}, "fusion_lon": 0.0, "is_reserved": 0, "is_disabled": 0, "fusion_lat": 0.0, "type": "electric_scooter", "name": "9fb1f8fe4e70ec78436ce161c49ef59f", "lat": 38.928896333333334, "bike_id": "9fb1f8fe4e70ec78436ce161c49ef59f"}, {"lon": -77.0270775, "rental_uris": {"android": "https://dc.lft.to/lastmile_qr_scan", "ios": "https://dc.lft.to/lastmile_qr_scan"}, "fusion_lon": 0.0, "is_reserved": 0, "is_disabled": 0, "fusion_lat": 0.0, "type": "electric_scooter", "name": "cbd9782b1bfa36e9aa93e3fd83761a42", "lat": 38.898262, "bike_id": "cbd9782b1bfa36e9aa93e3fd83761a42"}, {"lon": -77.023094, "rental_uris": {"android": "https://dc.lft.to/lastmile_qr_scan", "ios": "https://dc.lft.to/lastmile_qr_scan"}, "fusion_lon": 0.0, "is_reserved": 0, "is_disabled": 0, "fusion_lat": 0.0, "type": "electric_scooter", "name": "a852e329a73f568412cc7da6cc336abc", "lat": 38.917715333333334, "bike_id": "a852e329a73f568412cc7da6cc336abc"}, {"lon": -77.02317316666667, "rental_uris": {"android": "https://dc.lft.to/lastmile_qr_scan", "ios": "https://dc.lft.to/lastmile_qr_scan"}, "fusion_lon": 0.0, "is_reserved": 0, "is_disabled": 0, "fusion_lat": 0.0, "type": "electric_scooter", "name": "78e6e2804e4019530c9e46aadfcb8dca", "lat": 38.91844, "bike_id": "78e6e2804e4019530c9e46aadfcb8dca"}, {"lon": -77.03155533333333, "rental_uris": {"android": "https://dc.lft.to/lastmile_qr_scan", "ios": "https://dc.lft.to/lastmile_qr_scan"}, "fusion_lon": 0.0, "is_reserved": 0, "is_disabled": 0, "fusion_lat": 0.0, "type": "electric_scooter", "name": "b20e76aa7a9ea11201d3aa46b3a20677", "lat": 38.899714, "bike_id": "b20e76aa7a9ea11201d3aa46b3a20677"}, {"lon": -77.02407333333333, "rental_uris": {"android": "https://dc.lft.to/lastmile_qr_scan", "ios": "https://dc.lft.to/lastmile_qr_scan"}, "fusion_lon": 0.0, "is_reserved": 0, "is_disabled": 0, "fusion_lat": 0.0, "type": "electric_scooter", "name": "775a0ff6902e72c724c4979dbae360a5", "lat": 38.92493233333333, "bike_id": "775a0ff6902e72c724c4979dbae360a5"}, {"lon": -76.9798315, "rental_uris": {"android": "https://dc.lft.to/lastmile_qr_scan", "ios": "https://dc.lft.to/lastmile_qr_scan"}, "fusion_lon": 0.0, "is_reserved": 0, "is_disabled": 0, "fusion_lat": 0.0, "type": "electric_scooter", "name": "42d58aef4a4a64309e0d623049f8ee7b", "lat": 38.90734166666667, "bike_id": "42d58aef4a4a64309e0d623049f8ee7b"}, {"lon": -77.039267, "rental_uris": {"android": "https://dc.lft.to/lastmile_qr_scan", "ios": "https://dc.lft.to/lastmile_qr_scan"}, "fusion_lon": 0.0, "is_reserved": 0, "is_disabled": 0, "fusion_lat": 0.0, "type": "electric_scooter", "name": "5b8a22e18469d9600eb49f7639001f35", "lat": 38.901403333333334, "bike_id": "5b8a22e18469d9600eb49f7639001f35"}, {"lon": -77.02955983333334, "rental_uris": {"android": "https://dc.lft.to/lastmile_qr_scan", "ios": "https://dc.lft.to/lastmile_qr_scan"}, "fusion_lon": 0.0, "is_reserved": 0, "is_disabled": 0, "fusion_lat": 0.0, "type": "electric_scooter", "name": "a78b6d860d9113338c2749e05c6c325b", "lat": 38.91172866666667, "bike_id": "a78b6d860d9113338c2749e05c6c325b"}, {"lon": -77.02591516666666, "rental_uris": {"android": "https://dc.lft.to/lastmile_qr_scan", "ios": "https://dc.lft.to/lastmile_qr_scan"}, "fusion_lon": 0.0, "is_reserved": 0, "is_disabled": 0, "fusion_lat": 0.0, "type": "electric_scooter", "name": "b5f0bb828366debd9910d8bf729cb8e8", "lat": 38.8984235, "bike_id": "b5f0bb828366debd9910d8bf729cb8e8"}, {"lon": -77.04742766666666, "rental_uris": {"android": "https://dc.lft.to/lastmile_qr_scan", "ios": "https://dc.lft.to/lastmile_qr_scan"}, "fusion_lon": 0.0, "is_reserved": 0, "is_disabled": 0, "fusion_lat": 0.0, "type": "electric_bike", "name": "a59600f7ed3e9aac1e70e04186b8ae0a", "lat": 39.000279666666664, "bike_id": "a59600f7ed3e9aac1e70e04186b8ae0a"}, {"lon": -77.05742466666666, "rental_uris": {"android": "https://dc.lft.to/lastmile_qr_scan", "ios": "https://dc.lft.to/lastmile_qr_scan"}, "fusion_lon": 0.0, "is_reserved": 0, "is_disabled": 0, "fusion_lat": 0.0, "type": "electric_scooter", "name": "4c051cd486071d048e32f1c811edc061", "lat": 38.9353455, "bike_id": "4c051cd486071d048e32f1c811edc061"}, {"lon": -77.03319233333333, "rental_uris": {"android": "https://dc.lft.to/lastmile_qr_scan", "ios": "https://dc.lft.to/lastmile_qr_scan"}, "fusion_lon": 0.0, "is_reserved": 0, "is_disabled": 0, "fusion_lat": 0.0, "type": "electric_scooter", "name": "7da969c47b29d3b6e7a2636f048b68ba", "lat": 38.88768366666667, "bike_id": "7da969c47b29d3b6e7a2636f048b68ba"}, {"lon": -77.00451116666666, "rental_uris": {"android": "https://dc.lft.to/lastmile_qr_scan", "ios": "https://dc.lft.to/lastmile_qr_scan"}, "fusion_lon": 0.0, "is_reserved": 0, "is_disabled": 0, "fusion_lat": 0.0, "type": "electric_scooter", "name": "b73433ca4e1f97d208b1b6b546fa5d30", "lat": 38.837865666666666, "bike_id": "b73433ca4e1f97d208b1b6b546fa5d30"}, {"lon": -77.0274665, "rental_uris": {"android": "https://dc.lft.to/lastmile_qr_scan", "ios": "https://dc.lft.to/lastmile_qr_scan"}, "fusion_lon": 0.0, "is_reserved": 0, "is_disabled": 0, "fusion_lat": 0.0, "type": "electric_scooter", "name": "865e0cb9c3dfdc4c1994c3124e333418", "lat": 38.966113666666665, "bike_id": "865e0cb9c3dfdc4c1994c3124e333418"}, {"lon": -77.041967, "rental_uris": {"android": "https://dc.lft.to/lastmile_qr_scan", "ios": "https://dc.lft.to/lastmile_qr_scan"}, "fusion_lon": 0.0, "is_reserved": 0, "is_disabled": 0, "fusion_lat": 0.0, "type": "electric_scooter", "name": "6985f0bb82894a962010074f32c62501", "lat": 38.907348166666665, "bike_id": "6985f0bb82894a962010074f32c62501"}, {"lon": -76.98895516666667, "rental_uris": {"android": "https://dc.lft.to/lastmile_qr_scan", "ios": "https://dc.lft.to/lastmile_qr_scan"}, "fusion_lon": 0.0, "is_reserved": 0, "is_disabled": 0, "fusion_lat": 0.0, "type": "electric_scooter", "name": "58e41bacb3636ae125863141452d307b", "lat": 38.86106783333334, "bike_id": "58e41bacb3636ae125863141452d307b"}, {"lon": -77.0298345, "rental_uris": {"android": "https://dc.lft.to/lastmile_qr_scan", "ios": "https://dc.lft.to/lastmile_qr_scan"}, "fusion_lon": 0.0, "is_reserved": 0, "is_disabled": 0, "fusion_lat": 0.0, "type": "electric_scooter", "name": "1c71a718cfc17ff1d8638fb88eea973e", "lat": 38.9110725, "bike_id": "1c71a718cfc17ff1d8638fb88eea973e"}, {"lon": -77.07229316666667, "rental_uris": {"android": "https://dc.lft.to/lastmile_qr_scan", "ios": "https://dc.lft.to/lastmile_qr_scan"}, "fusion_lon": 0.0, "is_reserved": 0, "is_disabled": 0, "fusion_lat": 0.0, "type": "electric_scooter", "name": "25791594b0e28cc35126a26df4ae01c6", "lat": 38.93842033333333, "bike_id": "25791594b0e28cc35126a26df4ae01c6"}, {"lon": -76.9266265, "rental_uris": {"android": "https://dc.lft.to/lastmile_qr_scan", "ios": "https://dc.lft.to/lastmile_qr_scan"}, "fusion_lon": 0.0, "is_reserved": 0, "is_disabled": 0, "fusion_lat": 0.0, "type": "electric_scooter", "name": "bcb9da4cba66e68f8c9374bf8a211cea", "lat": 38.891681, "bike_id": "bcb9da4cba66e68f8c9374bf8a211cea"}, {"lon": -77.012325, "rental_uris": {"android": "https://dc.lft.to/lastmile_qr_scan", "ios": "https://dc.lft.to/lastmile_qr_scan"}, "fusion_lon": 0.0, "is_reserved": 0, "is_disabled": 0, "fusion_lat": 0.0, "type": "electric_scooter", "name": "9a876bdf063d8f7692202f17eed2b3b6", "lat": 38.8981735, "bike_id": "9a876bdf063d8f7692202f17eed2b3b6"}, {"lon": -77.0432605, "rental_uris": {"android": "https://dc.lft.to/lastmile_qr_scan", "ios": "https://dc.lft.to/lastmile_qr_scan"}, "fusion_lon": 0.0, "is_reserved": 0, "is_disabled": 0, "fusion_lat": 0.0, "type": "electric_scooter", "name": "c4d5cfd48fdbbf747fa8914f60f980f5", "lat": 38.892138833333334, "bike_id": "c4d5cfd48fdbbf747fa8914f60f980f5"}, {"lon": -77.02719733333333, "rental_uris": {"android": "https://dc.lft.to/lastmile_qr_scan", "ios": "https://dc.lft.to/lastmile_qr_scan"}, "fusion_lon": 0.0, "is_reserved": 0, "is_disabled": 0, "fusion_lat": 0.0, "type": "electric_scooter", "name": "72d616826afc603de2b63a9898b403e6", "lat": 38.896037166666666, "bike_id": "72d616826afc603de2b63a9898b403e6"}, {"lon": -77.01944433333334, "rental_uris": {"android": "https://dc.lft.to/lastmile_qr_scan", "ios": "https://dc.lft.to/lastmile_qr_scan"}, "fusion_lon": 0.0, "is_reserved": 0, "is_disabled": 0, "fusion_lat": 0.0, "type": "electric_scooter", "name": "ee4c71e595b39134365fc777b4c091b9", "lat": 38.92415883333334, "bike_id": "ee4c71e595b39134365fc777b4c091b9"}, {"lon": -76.98776183333334, "rental_uris": {"android": "https://dc.lft.to/lastmile_qr_scan", "ios": "https://dc.lft.to/lastmile_qr_scan"}, "fusion_lon": 0.0, "is_reserved": 0, "is_disabled": 0, "fusion_lat": 0.0, "type": "electric_scooter", "name": "81dcf7639df2198ee3b15c7c177a6383", "lat": 38.91195783333333, "bike_id": "81dcf7639df2198ee3b15c7c177a6383"}, {"lon": -77.05032166666666, "rental_uris": {"android": "https://dc.lft.to/lastmile_qr_scan", "ios": "https://dc.lft.to/lastmile_qr_scan"}, "fusion_lon": 0.0, "is_reserved": 0, "is_disabled": 0, "fusion_lat": 0.0, "type": "electric_scooter", "name": "82fc49962dec65c2183325cfbb52dea3", "lat": 38.92513016666667, "bike_id": "82fc49962dec65c2183325cfbb52dea3"}, {"lon": -77.03508383333333, "rental_uris": {"android": "https://dc.lft.to/lastmile_qr_scan", "ios": "https://dc.lft.to/lastmile_qr_scan"}, "fusion_lon": 0.0, "is_reserved": 0, "is_disabled": 0, "fusion_lat": 0.0, "type": "electric_scooter", "name": "8ca81643a84104e29012516593836113", "lat": 38.9214785, "bike_id": "8ca81643a84104e29012516593836113"}, {"lon": -77.03261766666667, "rental_uris": {"android": "https://dc.lft.to/lastmile_qr_scan", "ios": "https://dc.lft.to/lastmile_qr_scan"}, "fusion_lon": 0.0, "is_reserved": 0, "is_disabled": 0, "fusion_lat": 0.0, "type": "electric_scooter", "name": "9d378b0e5ef103f31cf1dc9d87edcbb1", "lat": 38.932647333333335, "bike_id": "9d378b0e5ef103f31cf1dc9d87edcbb1"}, {"lon": -77.0056595, "rental_uris": {"android": "https://dc.lft.to/lastmile_qr_scan", "ios": "https://dc.lft.to/lastmile_qr_scan"}, "fusion_lon": 0.0, "is_reserved": 0, "is_disabled": 0, "fusion_lat": 0.0, "type": "electric_scooter", "name": "702b1179504f4e2ed3a9ffb69cedfaab", "lat": 38.880504333333334, "bike_id": "702b1179504f4e2ed3a9ffb69cedfaab"}, {"lon": -77.04757533333333, "rental_uris": {"android": "https://dc.lft.to/lastmile_qr_scan", "ios": "https://dc.lft.to/lastmile_qr_scan"}, "fusion_lon": 0.0, "is_reserved": 0, "is_disabled": 0, "fusion_lat": 0.0, "type": "electric_scooter", "name": "2df099f7c29f6dd666ca2426fc9495ae", "lat": 38.895793, "bike_id": "2df099f7c29f6dd666ca2426fc9495ae"}, {"lon": -77.03231516666666, "rental_uris": {"android": "https://dc.lft.to/lastmile_qr_scan", "ios": "https://dc.lft.to/lastmile_qr_scan"}, "fusion_lon": 0.0, "is_reserved": 0, "is_disabled": 0, "fusion_lat": 0.0, "type": "electric_scooter", "name": "75f5c6347e54905991666864efe8a80d", "lat": 38.899976, "bike_id": "75f5c6347e54905991666864efe8a80d"}, {"lon": -77.04018116666667, "rental_uris": {"android": "https://dc.lft.to/lastmile_qr_scan", "ios": "https://dc.lft.to/lastmile_qr_scan"}, "fusion_lon": 0.0, "is_reserved": 0, "is_disabled": 0, "fusion_lat": 0.0, "type": "electric_scooter", "name": "ec49deb9d10bc7bd6dcdd8fb8fe00ace", "lat": 38.903095, "bike_id": "ec49deb9d10bc7bd6dcdd8fb8fe00ace"}, {"lon": -77.0022855, "rental_uris": {"android": "https://dc.lft.to/lastmile_qr_scan", "ios": "https://dc.lft.to/lastmile_qr_scan"}, "fusion_lon": 0.0, "is_reserved": 0, "is_disabled": 0, "fusion_lat": 0.0, "type": "electric_scooter", "name": "4e571b8e3cc5c98b1fd25ad09b244aaf", "lat": 38.9055305, "bike_id": "4e571b8e3cc5c98b1fd25ad09b244aaf"}, {"lon": -76.989883, "rental_uris": {"android": "https://dc.lft.to/lastmile_qr_scan", "ios": "https://dc.lft.to/lastmile_qr_scan"}, "fusion_lon": 0.0, "is_reserved": 0, "is_disabled": 0, "fusion_lat": 0.0, "type": "electric_scooter", "name": "7e82df0d5a627041fce5208e648cab6d", "lat": 38.9244675, "bike_id": "7e82df0d5a627041fce5208e648cab6d"}, {"lon": -77.029797, "rental_uris": {"android": "https://dc.lft.to/lastmile_qr_scan", "ios": "https://dc.lft.to/lastmile_qr_scan"}, "fusion_lon": 0.0, "is_reserved": 0, "is_disabled": 0, "fusion_lat": 0.0, "type": "electric_scooter", "name": "06d134b4a4d19f1b966bfced893f0537", "lat": 38.922417333333335, "bike_id": "06d134b4a4d19f1b966bfced893f0537"}, {"lon": -77.0526315, "rental_uris": {"android": "https://dc.lft.to/lastmile_qr_scan", "ios": "https://dc.lft.to/lastmile_qr_scan"}, "fusion_lon": 0.0, "is_reserved": 0, "is_disabled": 0, "fusion_lat": 0.0, "type": "electric_scooter", "name": "80b5d64fd28b1da11ffdf3f2ef143061", "lat": 38.927522333333336, "bike_id": "80b5d64fd28b1da11ffdf3f2ef143061"}, {"lon": -77.020649, "rental_uris": {"android": "https://dc.lft.to/lastmile_qr_scan", "ios": "https://dc.lft.to/lastmile_qr_scan"}, "fusion_lon": 0.0, "is_reserved": 0, "is_disabled": 0, "fusion_lat": 0.0, "type": "electric_scooter", "name": "c0f69b542dd47998e6153029472effe3", "lat": 38.927565, "bike_id": "c0f69b542dd47998e6153029472effe3"}, {"lon": -77.08773583333333, "rental_uris": {"android": "https://dc.lft.to/lastmile_qr_scan", "ios": "https://dc.lft.to/lastmile_qr_scan"}, "fusion_lon": 0.0, "is_reserved": 0, "is_disabled": 0, "fusion_lat": 0.0, "type": "electric_scooter", "name": "e4a43b2a299cd76eb764edf35ad36152", "lat": 38.935532333333335, "bike_id": "e4a43b2a299cd76eb764edf35ad36152"}, {"lon": -77.03159783333334, "rental_uris": {"android": "https://dc.lft.to/lastmile_qr_scan", "ios": "https://dc.lft.to/lastmile_qr_scan"}, "fusion_lon": 0.0, "is_reserved": 0, "is_disabled": 0, "fusion_lat": 0.0, "type": "electric_scooter", "name": "ca6a1601545991398ad6794cc596109a", "lat": 38.89215316666667, "bike_id": "ca6a1601545991398ad6794cc596109a"}, {"lon": -77.06516083333334, "rental_uris": {"android": "https://dc.lft.to/lastmile_qr_scan", "ios": "https://dc.lft.to/lastmile_qr_scan"},