{"data": {"bikes": [{"is_disabled": 0, "fusion_lon": 0.0, "fusion_lat": 0.0, "lat": 38.928873333333335, "type": "electric_scooter", "lon": -77.03264716666666, "bike_id": "53a664ef57e14c0a3b1ac9ff9cf40e56", "rental_uris": {"android": "https://dc.lft.to/lastmile_qr_scan", "ios": "https://dc.lft.to/lastmile_qr_scan"}, "name": "53a664ef57e14c0a3b1ac9ff9cf40e56", "is_reserved": 0}, {"is_disabled": 0, "fusion_lon": 0.0, "fusion_lat": 0.0, "lat": 38.91700266666667, "type": "electric_scooter", "lon": -77.03290883333334, "bike_id": "3d7524b7366ccfbbc8478cc5540f20d9", "rental_uris": {"android": "https://dc.lft.to/lastmile_qr_scan", "ios": "https://dc.lft.to/lastmile_qr_scan"}, "name": "3d7524b7366ccfbbc8478cc5540f20d9", "is_reserved": 0}, {"is_disabled": 0, "fusion_lon": 0.0, "fusion_lat": 0.0, "lat": 38.8964575, "type": "electric_scooter", "lon": -77.02726983333334, "bike_id": "ff5c84d31254ce2dd1c36bee4dd3cf66", "rental_uris": {"android": "https://dc.lft.to/lastmile_qr_scan", "ios": "https://dc.lft.to/lastmile_qr_scan"}, "name": "ff5c84d31254ce2dd1c36bee4dd3cf66", "is_reserved": 0}, {"is_disabled": 0, "fusion_lon": 0.0, "fusion_lat": 0.0, "lat": 38.936401333333336, "type": "electric_scooter", "lon": -77.02696566666667, "bike_id": "647aa91c552ef59581dad6f7a0540f81", "rental_uris": {"android": "https://dc.lft.to/lastmile_qr_scan", "ios": "https://dc.lft.to/lastmile_qr_scan"}, "name": "647aa91c552ef59581dad6f7a0540f81", "is_reserved": 0}, {"is_disabled": 0, "fusion_lon": 0.0, "fusion_lat": 0.0, "lat": 38.89846083333333, "type": "electric_scooter", "lon": -76.9463525, "bike_id": "c37b1010c6c978cccc6bacc11fdc30f5", "rental_uris": {"android": "https://dc.lft.to/lastmile_qr_scan", "ios": "https://dc.lft.to/lastmile_qr_scan"}, "name": "c37b1010c6c978cccc6bacc11fdc30f5", "is_reserved": 0}, {"is_disabled": 0, "fusion_lon": 0.0, "fusion_lat": 0.0, "lat": 38.85511133333333, "type": "electric_bike", "lon": -76.98417483333333, "bike_id": "78cf468db7b9149ec6f60376e61b3490", "rental_uris": {"android": "https://dc.lft.to/lastmile_qr_scan", "ios": "https://dc.lft.to/lastmile_qr_scan"}, "name": "78cf468db7b9149ec6f60376e61b3490", "is_reserved": 0}, {"is_disabled": 0, "fusion_lon": 0.0, "fusion_lat": 0.0, "lat": 38.90482383333333, "type": "electric_scooter", "lon": -77.062172, "bike_id": "4a669ceebfb68ea68d651dc24a9de3b7", "rental_uris": {"android": "https://dc.lft.to/lastmile_qr_scan", "ios": "https://dc.lft.to/lastmile_qr_scan"}, "name": "4a669ceebfb68ea68d651dc24a9de3b7", "is_reserved": 0}, {"is_disabled": 0, "fusion_lon": 0.0, "fusion_lat": 0.0, "lat": 38.918131, "type": "electric_scooter", "lon": -77.0269145, "bike_id": "99e8b4cdcd8ab30675f444c3a5c32fe5", "rental_uris": {"android": "https://dc.lft.to/lastmile_qr_scan", "ios": "https://dc.lft.to/lastmile_qr_scan"}, "name": "99e8b4cdcd8ab30675f444c3a5c32fe5", "is_reserved": 0}, {"is_disabled": 0, "fusion_lon": 0.0, "fusion_lat": 0.0, "lat": 38.925611833333335, "type": "electric_scooter", "lon": -77.04349133333334, "bike_id": "83939759c523f95c96ada8bd63be5f94", "rental_uris": {"android": "https://dc.lft.to/lastmile_qr_scan", "ios": "https://dc.lft.to/lastmile_qr_scan"}, "name": "83939759c523f95c96ada8bd63be5f94", "is_reserved": 0}, {"is_disabled": 0, "fusion_lon": 0.0, "fusion_lat": 0.0, "lat": 38.91740333333333, "type": "electric_scooter", "lon": -77.03640566666667, "bike_id": "d7a2d19476e1eb3a3f542fc181d03a8b", "rental_uris": {"android": "https://dc.lft.to/lastmile_qr_scan", "ios": "https://dc.lft.to/lastmile_qr_scan"}, "name": "d7a2d19476e1eb3a3f542fc181d03a8b", "is_reserved": 0}, {"is_disabled": 0, "fusion_lon": 0.0, "fusion_lat": 0.0, "lat": 38.9095825, "type": "electric_scooter", "lon": -77.04860916666667, "bike_id": "7a76bb587323527a4317b78143f5f646", "rental_uris": {"android": "https://dc.lft.to/lastmile_qr_scan", "ios": "https://dc.lft.to/lastmile_qr_scan"}, "name": "7a76bb587323527a4317b78143f5f646", "is_reserved": 0}, {"is_disabled": 0, "fusion_lon": 0.0, "fusion_lat": 0.0, "lat": 38.8922905, "type": "electric_scooter", "lon": -77.03175766666666, "bike_id": "4beef34cbdc84f5e62b059920a07a7a5", "rental_uris": {"android": "https://dc.lft.to/lastmile_qr_scan", "ios": "https://dc.lft.to/lastmile_qr_scan"}, "name": "4beef34cbdc84f5e62b059920a07a7a5", "is_reserved": 0}, {"is_disabled": 0, "fusion_lon": 0.0, "fusion_lat": 0.0, "lat": 38.993839, "type": "electric_bike", "lon": -77.02397683333334, "bike_id": "70e9c5559f0179cb3dbe3dc1c5ebf3c2", "rental_uris": {"android": "https://dc.lft.to/lastmile_qr_scan", "ios": "https://dc.lft.to/lastmile_qr_scan"}, "name": "70e9c5559f0179cb3dbe3dc1c5ebf3c2", "is_reserved": 0}, {"is_disabled": 0, "fusion_lon": 0.0, "fusion_lat": 0.0, "lat": 38.92432433333333, "type": "electric_scooter", "lon": -77.03553233333334, "bike_id": "2c34680d64f78558e2cecc99defd60ca", "rental_uris": {"android": "https://dc.lft.to/lastmile_qr_scan", "ios": "https://dc.lft.to/lastmile_qr_scan"}, "name": "2c34680d64f78558e2cecc99defd60ca", "is_reserved": 0}, {"is_disabled": 0, "fusion_lon": 0.0, "fusion_lat": 0.0, "lat": 38.9193135, "type": "electric_scooter", "lon": -77.03424616666666, "bike_id": "2d8d3cea302894b8106b1c423b8804b8", "rental_uris": {"android": "https://dc.lft.to/lastmile_qr_scan", "ios": "https://dc.lft.to/lastmile_qr_scan"}, "name": "2d8d3cea302894b8106b1c423b8804b8", "is_reserved": 0}, {"is_disabled": 0, "fusion_lon": 0.0, "fusion_lat": 0.0, "lat": 38.90857466666667, "type": "electric_scooter", "lon": -77.06082533333333, "bike_id": "823ff7548277e4fbe8c91b91eb450dd8", "rental_uris": {"android": "https://dc.lft.to/lastmile_qr_scan", "ios": "https://dc.lft.to/lastmile_qr_scan"}, "name": "823ff7548277e4fbe8c91b91eb450dd8", "is_reserved": 0}, {"is_disabled": 0, "fusion_lon": 0.0, "fusion_lat": 0.0, "lat": 38.898872, "type": "electric_scooter", "lon": -77.0216455, "bike_id": "a563b0ae419165fd377366590d941e7a", "rental_uris": {"android": "https://dc.lft.to/lastmile_qr_scan", "ios": "https://dc.lft.to/lastmile_qr_scan"}, "name": "a563b0ae419165fd377366590d941e7a", "is_reserved": 0}, {"is_disabled": 0, "fusion_lon": 0.0, "fusion_lat": 0.0, "lat": 38.93522166666666, "type": "electric_scooter", "lon": -77.06637383333333, "bike_id": "1ebc3c51e0692073183841df439d879b", "rental_uris": {"android": "https://dc.lft.to/lastmile_qr_scan", "ios": "https://dc.lft.to/lastmile_qr_scan"}, "name": "1ebc3c51e0692073183841df439d879b", "is_reserved": 0}, {"is_disabled": 0, "fusion_lon": 0.0, "fusion_lat": 0.0, "lat": 38.865903833333334, "type": "electric_scooter", "lon": -77.01077133333334, "bike_id": "4ac47830d4ae9ce8f4079426e30aaad3", "rental_uris": {"android": "https://dc.lft.to/lastmile_qr_scan", "ios": "https://dc.lft.to/lastmile_qr_scan"}, "name": "4ac47830d4ae9ce8f4079426e30aaad3", "is_reserved": 0}, {"is_disabled": 0, "fusion_lon": 0.0, "fusion_lat": 0.0, "lat": 38.90858766666667, "type": "electric_scooter", "lon": -77.04773916666667, "bike_id": "e1a8c5684f2d2a6f0b380f65d381d109", "rental_uris": {"android": "https://dc.lft.to/lastmile_qr_scan", "ios": "https://dc.lft.to/lastmile_qr_scan"}, "name": "e1a8c5684f2d2a6f0b380f65d381d109", "is_reserved": 0}, {"is_disabled": 0, "fusion_lon": 0.0, "fusion_lat": 0.0, "lat": 38.90920783333333, "type": "electric_scooter", "lon": -77.02305133333333, "bike_id": "f7d11118e23c0fc3d14f69251a73c050", "rental_uris": {"android": "https://dc.lft.to/lastmile_qr_scan", "ios": "https://dc.lft.to/lastmile_qr_scan"}, "name": "f7d11118e23c0fc3d14f69251a73c050", "is_reserved": 0}, {"is_disabled": 0, "fusion_lon": 0.0, "fusion_lat": 0.0, "lat": 38.8997175, "type": "electric_scooter", "lon": -77.029394, "bike_id": "d972e0b4f04730040a1ffbcb31cb62fd", "rental_uris": {"android": "https://dc.lft.to/lastmile_qr_scan", "ios": "https://dc.lft.to/lastmile_qr_scan"}, "name": "d972e0b4f04730040a1ffbcb31cb62fd", "is_reserved": 0}, {"is_disabled": 0, "fusion_lon": 0.0, "fusion_lat": 0.0, "lat": 38.907329833333336, "type": "electric_scooter", "lon": -77.023633, "bike_id": "80b3bee326ceaa628a774030a63555a1", "rental_uris": {"android": "https://dc.lft.to/lastmile_qr_scan", "ios": "https://dc.lft.to/lastmile_qr_scan"}, "name": "80b3bee326ceaa628a774030a63555a1", "is_reserved": 0}, {"is_disabled": 0, "fusion_lon": 0.0, "fusion_lat": 0.0, "lat": 38.905082, "type": "electric_scooter", "lon": -77.02542266666667, "bike_id": "b1d52f2a00c1ff592abe6281dfba6e5c", "rental_uris": {"android": "https://dc.lft.to/lastmile_qr_scan", "ios": "https://dc.lft.to/lastmile_qr_scan"}, "name": "b1d52f2a00c1ff592abe6281dfba6e5c", "is_reserved": 0}, {"is_disabled": 0, "fusion_lon": 0.0, "fusion_lat": 0.0, "lat": 38.9320585, "type": "electric_scooter", "lon": -77.03664116666667, "bike_id": "ed17fe941dbfcf6381c514dd94808499", "rental_uris": {"android": "https://dc.lft.to/lastmile_qr_scan", "ios": "https://dc.lft.to/lastmile_qr_scan"}, "name": "ed17fe941dbfcf6381c514dd94808499", "is_reserved": 0}, {"is_disabled": 0, "fusion_lon": 0.0, "fusion_lat": 0.0, "lat": 38.9849825, "type": "electric_bike", "lon": -76.98199783333334, "bike_id": "9928d43fd34b00fea3d5d501c00ad513", "rental_uris": {"android": "https://dc.lft.to/lastmile_qr_scan", "ios": "https://dc.lft.to/lastmile_qr_scan"}, "name": "9928d43fd34b00fea3d5d501c00ad513", "is_reserved": 0}, {"is_disabled": 0, "fusion_lon": 0.0, "fusion_lat": 0.0, "lat": 38.930855333333334, "type": "electric_scooter", "lon": -77.02792916666667, "bike_id": "e4547fb4aeda8805d09b264b627c4049", "rental_uris": {"android": "https://dc.lft.to/lastmile_qr_scan", "ios": "https://dc.lft.to/lastmile_qr_scan"}, "name": "e4547fb4aeda8805d09b264b627c4049", "is_reserved": 0}, {"is_disabled": 0, "fusion_lon": 0.0, "fusion_lat": 0.0, "lat": 38.91714983333333, "type": "electric_scooter", "lon": -77.02877716666667, "bike_id": "f4ed0d4150a6f9270d879a48c8344415", "rental_uris": {"android": "https://dc.lft.to/lastmile_qr_scan", "ios": "https://dc.lft.to/lastmile_qr_scan"}, "name": "f4ed0d4150a6f9270d879a48c8344415", "is_reserved": 0}, {"is_disabled": 0, "fusion_lon": 0.0, "fusion_lat": 0.0, "lat": 38.924905333333335, "type": "electric_scooter", "lon": -77.02999033333333, "bike_id": "b67ed34c08349848f872e32c76302687", "rental_uris": {"android": "https://dc.lft.to/lastmile_qr_scan", "ios": "https://dc.lft.to/lastmile_qr_scan"}, "name": "b67ed34c08349848f872e32c76302687", "is_reserved": 0}, {"is_disabled": 0, "fusion_lon": 0.0, "fusion_lat": 0.0, "lat": 38.9347725, "type": "electric_scooter", "lon": -77.02396283333333, "bike_id": "de731e66d65b152922a33d08966cff98", "rental_uris": {"android": "https://dc.lft.to/lastmile_qr_scan", "ios": "https://dc.lft.to/lastmile_qr_scan"}, "name": "de731e66d65b152922a33d08966cff98", "is_reserved": 0}, {"is_disabled": 0, "fusion_lon": 0.0, "fusion_lat": 0.0, "lat": 38.907198666666666, "type": "electric_scooter", "lon": -77.02368983333334, "bike_id": "c716504aa24745965d1ad08c6c4232b1", "rental_uris": {"android": "https://dc.lft.to/lastmile_qr_scan", "ios": "https://dc.lft.to/lastmile_qr_scan"}, "name": "c716504aa24745965d1ad08c6c4232b1", "is_reserved": 0}, {"is_disabled": 0, "fusion_lon": 0.0, "fusion_lat": 0.0, "lat": 38.91807266666667, "type": "electric_scooter", "lon": -77.035735, "bike_id": "2083810af3ec379926088939353da22f", "rental_uris": {"android": "https://dc.lft.to/lastmile_qr_scan", "ios": "https://dc.lft.to/lastmile_qr_scan"}, "name": "2083810af3ec379926088939353da22f", "is_reserved": 0}, {"is_disabled": 0, "fusion_lon": 0.0, "fusion_lat": 0.0, "lat": 38.91321966666667, "type": "electric_scooter", "lon": -77.03663716666667, "bike_id": "a4869a07ccaaf76b4d10a6f2f13ac5ba", "rental_uris": {"android": "https://dc.lft.to/lastmile_qr_scan", "ios": "https://dc.lft.to/lastmile_qr_scan"}, "name": "a4869a07ccaaf76b4d10a6f2f13ac5ba", "is_reserved": 0}, {"is_disabled": 0, "fusion_lon": 0.0, "fusion_lat": 0.0, "lat": 38.901754, "type": "electric_bike", "lon": -77.05099216666666, "bike_id": "d7f1e21432901755f48e3db95ec401ba", "rental_uris": {"android": "https://dc.lft.to/lastmile_qr_scan", "ios": "https://dc.lft.to/lastmile_qr_scan"}, "name": "d7f1e21432901755f48e3db95ec401ba", "is_reserved": 0}, {"is_disabled": 0, "fusion_lon": 0.0, "fusion_lat": 0.0, "lat": 38.920290666666666, "type": "electric_scooter", "lon": -77.0191, "bike_id": "07693ef2065548678755897943aafdf3", "rental_uris": {"android": "https://dc.lft.to/lastmile_qr_scan", "ios": "https://dc.lft.to/lastmile_qr_scan"}, "name": "07693ef2065548678755897943aafdf3", "is_reserved": 0}, {"is_disabled": 0, "fusion_lon": 0.0, "fusion_lat": 0.0, "lat": 38.803012833333334, "type": "electric_bike", "lon": -77.03984916666667, "bike_id": "f6b4e8efd0e2c72d3e1efeb4716b3d25", "rental_uris": {"android": "https://dc.lft.to/lastmile_qr_scan", "ios": "https://dc.lft.to/lastmile_qr_scan"}, "name": "f6b4e8efd0e2c72d3e1efeb4716b3d25", "is_reserved": 0}, {"is_disabled": 0, "fusion_lon": 0.0, "fusion_lat": 0.0, "lat": 38.91950716666667, "type": "electric_scooter", "lon": -77.013935, "bike_id": "69ea3456a11d3af1d4f69c400dbfd0ef", "rental_uris": {"android": "https://dc.lft.to/lastmile_qr_scan", "ios": "https://dc.lft.to/lastmile_qr_scan"}, "name": "69ea3456a11d3af1d4f69c400dbfd0ef", "is_reserved": 0}, {"is_disabled": 0, "fusion_lon": 0.0, "fusion_lat": 0.0, "lat": 38.92266733333334, "type": "electric_scooter", "lon": -77.03303016666666, "bike_id": "cfa2bb11326a8411b680cdcfd095f8c8", "rental_uris": {"android": "https://dc.lft.to/lastmile_qr_scan", "ios": "https://dc.lft.to/lastmile_qr_scan"}, "name": "cfa2bb11326a8411b680cdcfd095f8c8", "is_reserved": 0}, {"is_disabled": 0, "fusion_lon": 0.0, "fusion_lat": 0.0, "lat": 38.9001585, "type": "electric_scooter", "lon": -77.03323616666667, "bike_id": "8944c8cf5801df2de3f278f45b6afe5f", "rental_uris": {"android": "https://dc.lft.to/lastmile_qr_scan", "ios": "https://dc.lft.to/lastmile_qr_scan"}, "name": "8944c8cf5801df2de3f278f45b6afe5f", "is_reserved": 0}, {"is_disabled": 0, "fusion_lon": 0.0, "fusion_lat": 0.0, "lat": 38.898535, "type": "electric_scooter", "lon": -76.99032316666667, "bike_id": "dec5e3731047310fbdf01302ab486dda", "rental_uris": {"android": "https://dc.lft.to/lastmile_qr_scan", "ios": "https://dc.lft.to/lastmile_qr_scan"}, "name": "dec5e3731047310fbdf01302ab486dda", "is_reserved": 0}, {"is_disabled": 0, "fusion_lon": 0.0, "fusion_lat": 0.0, "lat": 38.91698066666667, "type": "electric_scooter", "lon": -77.04082283333334, "bike_id": "77270e8957ee27c5a95eb37e15ff300e", "rental_uris": {"android": "https://dc.lft.to/lastmile_qr_scan", "ios": "https://dc.lft.to/lastmile_qr_scan"}, "name": "77270e8957ee27c5a95eb37e15ff300e", "is_reserved": 0}, {"is_disabled": 0, "fusion_lon": 0.0, "fusion_lat": 0.0, "lat": 38.940474, "type": "electric_scooter", "lon": -77.06781016666666, "bike_id": "f8e63af151297a707e3dbc9cdbd5b187", "rental_uris": {"android": "https://dc.lft.to/lastmile_qr_scan", "ios": "https://dc.lft.to/lastmile_qr_scan"}, "name": "f8e63af151297a707e3dbc9cdbd5b187", "is_reserved": 0}, {"is_disabled": 0, "fusion_lon": 0.0, "fusion_lat": 0.0, "lat": 38.9138555, "type": "electric_scooter", "lon": -77.01699633333334, "bike_id": "fa5e6b89cab33f13dcfd411a75dfe9d7", "rental_uris": {"android": "https://dc.lft.to/lastmile_qr_scan", "ios": "https://dc.lft.to/lastmile_qr_scan"}, "name": "fa5e6b89cab33f13dcfd411a75dfe9d7", "is_reserved": 0}, {"is_disabled": 0, "fusion_lon": 0.0, "fusion_lat": 0.0, "lat": 38.91712166666667, "type": "electric_scooter", "lon": -77.02299666666667, "bike_id": "a4bd683758e0ef7526e587a3ae54f738", "rental_uris": {"android": "https://dc.lft.to/lastmile_qr_scan", "ios": "https://dc.lft.to/lastmile_qr_scan"}, "name": "a4bd683758e0ef7526e587a3ae54f738", "is_reserved": 0}, {"is_disabled": 0, "fusion_lon": 0.0, "fusion_lat": 0.0, "lat": 38.908477, "type": "electric_scooter", "lon": -77.03434883333334, "bike_id": "eadf57020c69b995cd776dcfae39cebe", "rental_uris": {"android": "https://dc.lft.to/lastmile_qr_scan", "ios": "https://dc.lft.to/lastmile_qr_scan"}, "name": "eadf57020c69b995cd776dcfae39cebe", "is_reserved": 0}, {"is_disabled": 0, "fusion_lon": 0.0, "fusion_lat": 0.0, "lat": 38.91804716666667, "type": "electric_scooter", "lon": -77.02695483333333, "bike_id": "c79d7cc6262a790cb82b9ac120993344", "rental_uris": {"android": "https://dc.lft.to/lastmile_qr_scan", "ios": "https://dc.lft.to/lastmile_qr_scan"}, "name": "c79d7cc6262a790cb82b9ac120993344", "is_reserved": 0}, {"is_disabled": 0, "fusion_lon": 0.0, "fusion_lat": 0.0, "lat": 38.8745965, "type": "electric_scooter", "lon": -77.00504666666667, "bike_id": "96b1a6b0117eda5a0192659c6e8f4e6a", "rental_uris": {"android": "https://dc.lft.to/lastmile_qr_scan", "ios": "https://dc.lft.to/lastmile_qr_scan"}, "name": "96b1a6b0117eda5a0192659c6e8f4e6a", "is_reserved": 0}, {"is_disabled": 0, "fusion_lon": 0.0, "fusion_lat": 0.0, "lat": 38.903984, "type": "electric_scooter", "lon": -77.02800683333334, "bike_id": "2ecf3365efe8114a8f955be937341053", "rental_uris": {"android": "https://dc.lft.to/lastmile_qr_scan", "ios": "https://dc.lft.to/lastmile_qr_scan"}, "name": "2ecf3365efe8114a8f955be937341053", "is_reserved": 0}, {"is_disabled": 0, "fusion_lon": 0.0, "fusion_lat": 0.0, "lat": 38.94508283333333, "type": "electric_bike", "lon": -77.00670316666667, "bike_id": "bba523a2890d19fa059ee09574103469", "rental_uris": {"android": "https://dc.lft.to/lastmile_qr_scan", "ios": "https://dc.lft.to/lastmile_qr_scan"}, "name": "bba523a2890d19fa059ee09574103469", "is_reserved": 0}, {"is_disabled": 0, "fusion_lon": 0.0, "fusion_lat": 0.0, "lat": 38.88120416666667, "type": "electric_scooter", "lon": -76.9959865, "bike_id": "8315a690489b41e874241e4eb858845b", "rental_uris": {"android": "https://dc.lft.to/lastmile_qr_scan", "ios": "https://dc.lft.to/lastmile_qr_scan"}, "name": "8315a690489b41e874241e4eb858845b", "is_reserved": 0}, {"is_disabled": 0, "fusion_lon": 0.0, "fusion_lat": 0.0, "lat": 38.89609033333333, "type": "electric_scooter", "lon": -77.01118483333333, "bike_id": "0fa0606ace6c346b11b688469f386453", "rental_uris": {"android": "https://dc.lft.to/lastmile_qr_scan", "ios": "https://dc.lft.to/lastmile_qr_scan"}, "name": "0fa0606ace6c346b11b688469f386453", "is_reserved": 0}, {"is_disabled": 0, "fusion_lon": 0.0, "fusion_lat": 0.0, "lat": 38.9284535, "type": "electric_bike", "lon": -77.020597, "bike_id": "5c632b54f5f0987b97e6f49af4edd4f5", "rental_uris": {"android": "https://dc.lft.to/lastmile_qr_scan", "ios": "https://dc.lft.to/lastmile_qr_scan"}, "name": "5c632b54f5f0987b97e6f49af4edd4f5", "is_reserved": 0}, {"is_disabled": 0, "fusion_lon": 0.0, "fusion_lat": 0.0, "lat": 38.9520085, "type": "electric_bike", "lon": -77.02369633333333, "bike_id": "25256cf490d6fbb624a9e102dac5a1a4", "rental_uris": {"android": "https://dc.lft.to/lastmile_qr_scan", "ios": "https://dc.lft.to/lastmile_qr_scan"}, "name": "25256cf490d6fbb624a9e102dac5a1a4", "is_reserved": 0}, {"is_disabled": 0, "fusion_lon": 0.0, "fusion_lat": 0.0, "lat": 38.8807155, "type": "electric_scooter", "lon": -77.00635983333333, "bike_id": "c399365ef9fa9d26d27aca7370acfb93", "rental_uris": {"android": "https://dc.lft.to/lastmile_qr_scan", "ios": "https://dc.lft.to/lastmile_qr_scan"}, "name": "c399365ef9fa9d26d27aca7370acfb93", "is_reserved": 0}, {"is_disabled": 0, "fusion_lon": 0.0, "fusion_lat": 0.0, "lat": 38.90736066666667, "type": "electric_scooter", "lon": -77.03186616666666, "bike_id": "fd903b261aafd35346cc13ec5c14a580", "rental_uris": {"android": "https://dc.lft.to/lastmile_qr_scan", "ios": "https://dc.lft.to/lastmile_qr_scan"}, "name": "fd903b261aafd35346cc13ec5c14a580", "is_reserved": 0}, {"is_disabled": 0, "fusion_lon": 0.0, "fusion_lat": 0.0, "lat": 38.916176166666666, "type": "electric_scooter", "lon": -77.02482866666666, "bike_id": "a57ce8d314bd0ceb1919fbc7d47353a0", "rental_uris": {"android": "https://dc.lft.to/lastmile_qr_scan", "ios": "https://dc.lft.to/lastmile_qr_scan"}, "name": "a57ce8d314bd0ceb1919fbc7d47353a0", "is_reserved": 0}, {"is_disabled": 0, "fusion_lon": 0.0, "fusion_lat": 0.0, "lat": 38.92494766666667, "type": "electric_scooter", "lon": -77.03931566666667, "bike_id": "e0ad94d6c27e0f3c8495424cedb7aa6c", "rental_uris": {"android": "https://dc.lft.to/lastmile_qr_scan", "ios": "https://dc.lft.to/lastmile_qr_scan"}, "name": "e0ad94d6c27e0f3c8495424cedb7aa6c", "is_reserved": 0}, {"is_disabled": 0, "fusion_lon": 0.0, "fusion_lat": 0.0, "lat": 38.944205833333335, "type": "electric_bike", "lon": -77.0639295, "bike_id": "826402a532eacd965cc84d304b37e4a2", "rental_uris": {"android": "https://dc.lft.to/lastmile_qr_scan", "ios": "https://dc.lft.to/lastmile_qr_scan"}, "name": "826402a532eacd965cc84d304b37e4a2", "is_reserved": 0}, {"is_disabled": 0, "fusion_lon": 0.0, "fusion_lat": 0.0, "lat": 38.956344333333334, "type": "electric_scooter", "lon": -77.02978283333333, "bike_id": "ab9d939b9aee813dd6ff96bf00042b29", "rental_uris": {"android": "https://dc.lft.to/lastmile_qr_scan", "ios": "https://dc.lft.to/lastmile_qr_scan"}, "name": "ab9d939b9aee813dd6ff96bf00042b29", "is_reserved": 0}, {"is_disabled": 0, "fusion_lon": 0.0, "fusion_lat": 0.0, "lat": 38.90981716666667, "type": "electric_scooter", "lon": -77.03437216666667, "bike_id": "1491fe70bb0f0ecb69909cd4bbf411d8", "rental_uris": {"android": "https://dc.lft.to/lastmile_qr_scan", "ios": "https://dc.lft.to/lastmile_qr_scan"}, "name": "1491fe70bb0f0ecb69909cd4bbf411d8", "is_reserved": 0}, {"is_disabled": 0, "fusion_lon": 0.0, "fusion_lat": 0.0, "lat": 38.90593116666667, "type": "electric_scooter", "lon": -77.02384616666667, "bike_id": "ab438e41e7b1778ee37da1d805c25adb", "rental_uris": {"android": "https://dc.lft.to/lastmile_qr_scan", "ios": "https://dc.lft.to/lastmile_qr_scan"}, "name": "ab438e41e7b1778ee37da1d805c25adb", "is_reserved": 0}, {"is_disabled": 0, "fusion_lon": 0.0, "fusion_lat": 0.0, "lat": 38.902895666666666, "type": "electric_scooter", "lon": -77.03821183333334, "bike_id": "3d8a8dc050d972bd7c14dbf5d722343c", "rental_uris": {"android": "https://dc.lft.to/lastmile_qr_scan", "ios": "https://dc.lft.to/lastmile_qr_scan"}, "name": "3d8a8dc050d972bd7c14dbf5d722343c", "is_reserved": 0}, {"is_disabled": 0, "fusion_lon": 0.0, "fusion_lat": 0.0, "lat": 38.909579666666666, "type": "electric_scooter", "lon": -77.04862416666667, "bike_id": "9dee27aa965af21697a9cd8f2600c69b", "rental_uris": {"android": "https://dc.lft.to/lastmile_qr_scan", "ios": "https://dc.lft.to/lastmile_qr_scan"}, "name": "9dee27aa965af21697a9cd8f2600c69b", "is_reserved": 0}, {"is_disabled": 0, "fusion_lon": 0.0, "fusion_lat": 0.0, "lat": 38.906741, "type": "electric_scooter", "lon": -77.02722233333333, "bike_id": "6bbb8ae720a3f385e9b736f29e2474bf", "rental_uris": {"android": "https://dc.lft.to/lastmile_qr_scan", "ios": "https://dc.lft.to/lastmile_qr_scan"}, "name": "6bbb8ae720a3f385e9b736f29e2474bf", "is_reserved": 0}, {"is_disabled": 0, "fusion_lon": 0.0, "fusion_lat": 0.0, "lat": 38.85069383333333, "type": "electric_bike", "lon": -76.9732975, "bike_id": "01d23381171a7234dc9e922a08a2b580", "rental_uris": {"android": "https://dc.lft.to/lastmile_qr_scan", "ios": "https://dc.lft.to/lastmile_qr_scan"}, "name": "01d23381171a7234dc9e922a08a2b580", "is_reserved": 0}, {"is_disabled": 0, "fusion_lon": 0.0, "fusion_lat": 0.0, "lat": 38.9056955, "type": "electric_scooter", "lon": -77.02494466666667, "bike_id": "75923fcdf1ce02099a2d79e861614d7a", "rental_uris": {"android": "https://dc.lft.to/lastmile_qr_scan", "ios": "https://dc.lft.to/lastmile_qr_scan"}, "name": "75923fcdf1ce02099a2d79e861614d7a", "is_reserved": 0}, {"is_disabled": 0, "fusion_lon": 0.0, "fusion_lat": 0.0, "lat": 38.9330685, "type": "electric_scooter", "lon": -77.03267633333333, "bike_id": "b5c0e0e95fb222fc2174732e3a00c1e6", "rental_uris": {"android": "https://dc.lft.to/lastmile_qr_scan", "ios": "https://dc.lft.to/lastmile_qr_scan"}, "name": "b5c0e0e95fb222fc2174732e3a00c1e6", "is_reserved": 0}, {"is_disabled": 0, "fusion_lon": 0.0, "fusion_lat": 0.0, "lat": 38.928484166666664, "type": "electric_scooter", "lon": -77.01422316666667, "bike_id": "62aeef0fb7476461927d4457745309fc", "rental_uris": {"android": "https://dc.lft.to/lastmile_qr_scan", "ios": "https://dc.lft.to/lastmile_qr_scan"}, "name": "62aeef0fb7476461927d4457745309fc", "is_reserved": 0}, {"is_disabled": 0, "fusion_lon": 0.0, "fusion_lat": 0.0, "lat": 38.91838, "type": "electric_scooter", "lon": -77.025254, "bike_id": "6399389f661646bea7a32f1a3b8d608d", "rental_uris": {"android": "https://dc.lft.to/lastmile_qr_scan", "ios": "https://dc.lft.to/lastmile_qr_scan"}, "name": "6399389f661646bea7a32f1a3b8d608d", "is_reserved": 0}, {"is_disabled": 0, "fusion_lon": 0.0, "fusion_lat": 0.0, "lat": 38.900935, "type": "electric_scooter", "lon": -77.05017516666666, "bike_id": "1bb778d59d585f920c9ae63f488d38ae", "rental_uris": {"android": "https://dc.lft.to/lastmile_qr_scan", "ios": "https://dc.lft.to/lastmile_qr_scan"}, "name": "1bb778d59d585f920c9ae63f488d38ae", "is_reserved": 0}, {"is_disabled": 0, "fusion_lon": 0.0, "fusion_lat": 0.0, "lat": 38.893889, "type": "electric_scooter", "lon": -76.95002633333333, "bike_id": "63592ceaf2fefea5648358b3449d12b2", "rental_uris": {"android": "https://dc.lft.to/lastmile_qr_scan", "ios": "https://dc.lft.to/lastmile_qr_scan"}, "name": "63592ceaf2fefea5648358b3449d12b2", "is_reserved": 0}, {"is_disabled": 0, "fusion_lon": 0.0, "fusion_lat": 0.0, "lat": 38.93019983333333, "type": "electric_scooter", "lon": -77.038006, "bike_id": "9b0fdf24bf9343fbfea711702afdb53e", "rental_uris": {"android": "https://dc.lft.to/lastmile_qr_scan", "ios": "https://dc.lft.to/lastmile_qr_scan"}, "name": "9b0fdf24bf9343fbfea711702afdb53e", "is_reserved": 0}, {"is_disabled": 0, "fusion_lon": 0.0, "fusion_lat": 0.0, "lat": 38.890113, "type": "electric_scooter", "lon": -76.93740533333333, "bike_id": "92fc55648036e6a42f10f54be03e68f8", "rental_uris": {"android": "https://dc.lft.to/lastmile_qr_scan", "ios": "https://dc.lft.to/lastmile_qr_scan"}, "name": "92fc55648036e6a42f10f54be03e68f8", "is_reserved": 0}, {"is_disabled": 0, "fusion_lon": 0.0, "fusion_lat": 0.0, "lat": 38.861346166666664, "type": "electric_scooter", "lon": -76.98580933333334, "bike_id": "d3792be36ef4ff7f36c43c6ed6d0c094", "rental_uris": {"android": "https://dc.lft.to/lastmile_qr_scan", "ios": "https://dc.lft.to/lastmile_qr_scan"}, "name": "d3792be36ef4ff7f36c43c6ed6d0c094", "is_reserved": 0}, {"is_disabled": 0, "fusion_lon": 0.0, "fusion_lat": 0.0, "lat": 38.927320333333334, "type": "electric_scooter", "lon": -77.02245416666666, "bike_id": "fe96221d29ef6fbb225cf7cd5594a266", "rental_uris": {"android": "https://dc.lft.to/lastmile_qr_scan", "ios": "https://dc.lft.to/lastmile_qr_scan"}, "name": "fe96221d29ef6fbb225cf7cd5594a266", "is_reserved": 0}, {"is_disabled": 0, "fusion_lon": 0.0, "fusion_lat": 0.0, "lat": 38.854306, "type": "electric_bike", "lon": -76.90964666666666, "bike_id": "19d6894df0487b18ee4e29712de426ee", "rental_uris": {"android": "https://dc.lft.to/lastmile_qr_scan", "ios": "https://dc.lft.to/lastmile_qr_scan"}, "name": "19d6894df0487b18ee4e29712de426ee", "is_reserved": 0}, {"is_disabled": 0, "fusion_lon": 0.0, "fusion_lat": 0.0, "lat": 38.933438, "type": "electric_bike", "lon": -77.04209783333333, "bike_id": "32eeda4b5b4e82348baebe8b4c4f00a6", "rental_uris": {"android": "https://dc.lft.to/lastmile_qr_scan", "ios": "https://dc.lft.to/lastmile_qr_scan"}, "name": "32eeda4b5b4e82348baebe8b4c4f00a6", "is_reserved": 0}, {"is_disabled": 0, "fusion_lon": 0.0, "fusion_lat": 0.0, "lat": 38.9462105, "type": "electric_scooter", "lon": -77.03625316666667, "bike_id": "2287824a54d3149aa0bddbaed908d5d1", "rental_uris": {"android": "https://dc.lft.to/lastmile_qr_scan", "ios": "https://dc.lft.to/lastmile_qr_scan"}, "name": "2287824a54d3149aa0bddbaed908d5d1", "is_reserved": 0}, {"is_disabled": 0, "fusion_lon": 0.0, "fusion_lat": 0.0, "lat": 38.930982, "type": "electric_scooter", "lon": -77.026589, "bike_id": "60cbfca65e3fb2260b1d3a23b02775ab", "rental_uris": {"android": "https://dc.lft.to/lastmile_qr_scan", "ios": "https://dc.lft.to/lastmile_qr_scan"}, "name": "60cbfca65e3fb2260b1d3a23b02775ab", "is_reserved": 0}, {"is_disabled": 0, "fusion_lon": 0.0, "fusion_lat": 0.0, "lat": 38.86698466666667, "type": "electric_scooter", "lon": -76.98715816666666, "bike_id": "271323de93dc78c6a537bfdabdc792e5", "rental_uris": {"android": "https://dc.lft.to/lastmile_qr_scan", "ios": "https://dc.lft.to/lastmile_qr_scan"}, "name": "271323de93dc78c6a537bfdabdc792e5", "is_reserved": 0}, {"is_disabled": 0, "fusion_lon": 0.0, "fusion_lat": 0.0, "lat": 38.92016616666667, "type": "electric_scooter", "lon": -77.03146533333333, "bike_id": "aefc817e78ecc9dee70702287c7020ae", "rental_uris": {"android": "https://dc.lft.to/lastmile_qr_scan", "ios": "https://dc.lft.to/lastmile_qr_scan"}, "name": "aefc817e78ecc9dee70702287c7020ae", "is_reserved": 0}, {"is_disabled": 0, "fusion_lon": 0.0, "fusion_lat": 0.0, "lat": 38.90392533333333, "type": "electric_scooter", "lon": -77.030037, "bike_id": "a3c4ee90fe73f6bfdb6830041b106e0f", "rental_uris": {"android": "https://dc.lft.to/lastmile_qr_scan", "ios": "https://dc.lft.to/lastmile_qr_scan"}, "name": "a3c4ee90fe73f6bfdb6830041b106e0f", "is_reserved": 0}, {"is_disabled": 0, "fusion_lon": 0.0, "fusion_lat": 0.0, "lat": 38.869135, "type": "electric_scooter", "lon": -77.0137385, "bike_id": "ac6691f322db820b539760e3ae0a12fa", "rental_uris": {"android": "https://dc.lft.to/lastmile_qr_scan", "ios": "https://dc.lft.to/lastmile_qr_scan"}, "name": "ac6691f322db820b539760e3ae0a12fa", "is_reserved": 0}, {"is_disabled": 0, "fusion_lon": 0.0, "fusion_lat": 0.0, "lat": 38.93191933333333, "type": "electric_scooter", "lon": -77.02835616666667, "bike_id": "63881ab21dbf6e24e72bfbf26102e629", "rental_uris": {"android": "https://dc.lft.to/lastmile_qr_scan", "ios": "https://dc.lft.to/lastmile_qr_scan"}, "name": "63881ab21dbf6e24e72bfbf26102e629", "is_reserved": 0}, {"is_disabled": 0, "fusion_lon": 0.0, "fusion_lat": 0.0, "lat": 38.916184666666666, "type": "electric_scooter", "lon": -77.03163633333334, "bike_id": "a750bff40a974ff0cb2ce372068b482f", "rental_uris": {"android": "https://dc.lft.to/lastmile_qr_scan", "ios": "https://dc.lft.to/lastmile_qr_scan"}, "name": "a750bff40a974ff0cb2ce372068b482f", "is_reserved": 0}, {"is_disabled": 0, "fusion_lon": 0.0, "fusion_lat": 0.0, "lat": 38.929705, "type": "electric_scooter", "lon": -77.04203783333334, "bike_id": "f7e212769cc3c54adbb464c8c68f8c4c", "rental_uris": {"android": "https://dc.lft.to/lastmile_qr_scan", "ios": "https://dc.lft.to/lastmile_qr_scan"}, "name": "f7e212769cc3c54adbb464c8c68f8c4c", "is_reserved": 0}, {"is_disabled": 0, "fusion_lon": 0.0, "fusion_lat": 0.0, "lat": 38.900234833333336, "type": "electric_scooter", "lon": -77.03350416666666, "bike_id": "3f2a9d64513cdbdeddbe6344e4b15e79", "rental_uris": {"android": "https://dc.lft.to/lastmile_qr_scan", "ios": "https://dc.lft.to/lastmile_qr_scan"}, "name": "3f2a9d64513cdbdeddbe6344e4b15e79", "is_reserved": 0}, {"is_disabled": 0, "fusion_lon": 0.0, "fusion_lat": 0.0, "lat": 38.897734166666666, "type": "electric_scooter", "lon": -77.04997316666666, "bike_id": "800dff0a8ffc15d7d4f8d37d4e941c93", "rental_uris": {"android": "https://dc.lft.to/lastmile_qr_scan", "ios": "https://dc.lft.to/lastmile_qr_scan"}, "name": "800dff0a8ffc15d7d4f8d37d4e941c93", "is_reserved": 0}, {"is_disabled": 0, "fusion_lon": 0.0, "fusion_lat": 0.0, "lat": 38.916939166666666, "type": "electric_scooter", "lon": -77.0321095, "bike_id": "ddf49afddb8b47c7831dde441c50827a", "rental_uris": {"android": "https://dc.lft.to/lastmile_qr_scan", "ios": "https://dc.lft.to/lastmile_qr_scan"}, "name": "ddf49afddb8b47c7831dde441c50827a", "is_reserved": 0}, {"is_disabled": 0, "fusion_lon": 0.0, "fusion_lat": 0.0, "lat": 38.896851166666664, "type": "electric_scooter", "lon": -76.93532716666667, "bike_id": "69177fe0aac3e730afbd807fe40c7810", "rental_uris": {"android": "https://dc.lft.to/lastmile_qr_scan", "ios": "https://dc.lft.to/lastmile_qr_scan"}, "name": "69177fe0aac3e730afbd807fe40c7810", "is_reserved": 0}, {"is_disabled": 0, "fusion_lon": 0.0, "fusion_lat": 0.0, "lat": 38.92409983333334, "type": "electric_scooter", "lon": -77.02011516666667, "bike_id": "5e309f616e2eaef38fea9a959c9d04e7", "rental_uris": {"android": "https://dc.lft.to/lastmile_qr_scan", "ios": "https://dc.lft.to/lastmile_qr_scan"}, "name": "5e309f616e2eaef38fea9a959c9d04e7", "is_reserved": 0}, {"is_disabled": 0, "fusion_lon": 0.0, "fusion_lat": 0.0, "lat": 38.91594633333333, "type": "electric_scooter", "lon": -77.04168966666667, "bike_id": "842c94ecee7bc354bd02f3e8298261af", "rental_uris": {"android": "https://dc.lft.to/lastmile_qr_scan", "ios": "https://dc.lft.to/lastmile_qr_scan"}, "name": "842c94ecee7bc354bd02f3e8298261af", "is_reserved": 0}, {"is_disabled": 0, "fusion_lon": 0.0, "fusion_lat": 0.0, "lat": 38.897316333333336, "type": "electric_scooter", "lon": -77.0467305, "bike_id": "3d8292fcde081dc038751d7a6eef0472", "rental_uris": {"android": "https://dc.lft.to/lastmile_qr_scan", "ios": "https://dc.lft.to/lastmile_qr_scan"}, "name": "3d8292fcde081dc038751d7a6eef0472", "is_reserved": 0}, {"is_disabled": 0, "fusion_lon": 0.0, "fusion_lat": 0.0, "lat": 38.90567083333333, "type": "electric_scooter", "lon": -77.005878, "bike_id": "fbddf333f8c490503fa381961fe24838", "rental_uris": {"android": "https://dc.lft.to/lastmile_qr_scan", "ios": "https://dc.lft.to/lastmile_qr_scan"}, "name": "fbddf333f8c490503fa381961fe24838", "is_reserved": 0}, {"is_disabled": 0, "fusion_lon": 0.0, "fusion_lat": 0.0, "lat": 38.917431666666666, "type": "electric_scooter", "lon": -77.03642816666667, "bike_id": "4c05714a18e44964b1d8add1219590aa", "rental_uris": {"android": "https://dc.lft.to/lastmile_qr_scan", "ios": "https://dc.lft.to/lastmile_qr_scan"}, "name": "4c05714a18e44964b1d8add1219590aa", "is_reserved": 0}, {"is_disabled": 0, "fusion_lon": 0.0, "fusion_lat": 0.0, "lat": 38.898573999999996, "type": "electric_scooter", "lon": -77.0162685, "bike_id": "cf15d65ac5f1c26259a954dd4be16ae7", "rental_uris": {"android": "https://dc.lft.to/lastmile_qr_scan", "ios": "https://dc.lft.to/lastmile_qr_scan"}, "name": "cf15d65ac5f1c26259a954dd4be16ae7", "is_reserved": 0}, {"is_disabled": 0, "fusion_lon": 0.0, "fusion_lat": 0.0, "lat": 38.8867395, "type": "electric_scooter", "lon": -77.00337416666666, "bike_id": "26f9d507f6e94004105fc8d0fc427a8d", "rental_uris": {"android": "https://dc.lft.to/lastmile_qr_scan", "ios": "https://dc.lft.to/lastmile_qr_scan"}, "name": "26f9d507f6e94004105fc8d0fc427a8d", "is_reserved": 0}, {"is_disabled": 0, "fusion_lon": 0.0, "fusion_lat": 0.0, "lat": 38.913611833333334, "type": "electric_scooter", "lon": -77.04159166666666, "bike_id": "b01b942f65bfa63c2422606a14513e20", "rental_uris": {"android": "https://dc.lft.to/lastmile_qr_scan", "ios": "https://dc.lft.to/lastmile_qr_scan"}, "name": "b01b942f65bfa63c2422606a14513e20", "is_reserved": 0}, {"is_disabled": 0, "fusion_lon": 0.0, "fusion_lat": 0.0, "lat": 39.05205133333333, "type": "electric_bike", "lon": -77.044128, "bike_id": "770dbb94a06f52342ae880536f1e3da4", "rental_uris": {"android": "https://dc.lft.to/lastmile_qr_scan", "ios": "https://dc.lft.to/lastmile_qr_scan"}, "name": "770dbb94a06f52342ae880536f1e3da4", "is_reserved": 0}, {"is_disabled": 0, "fusion_lon": 0.0, "fusion_lat": 0.0, "lat": 38.9098105, "type": "electric_scooter", "lon": -77.03442916666667, "bike_id": "f4935c16748e2eaacbf00f37d93a26aa", "rental_uris": {"android": "https://dc.lft.to/lastmile_qr_scan", "ios": "https://dc.lft.to/lastmile_qr_scan"}, "name": "f4935c16748e2eaacbf00f37d93a26aa", "is_reserved": 0}, {"is_disabled": 0, "fusion_lon": 0.0, "fusion_lat": 0.0, "lat": 38.9165925, "type": "electric_scooter", "lon": -77.0465755, "bike_id": "b7cdc821a4811fade95a01884b9d956f", "rental_uris": {"android": "https://dc.lft.to/lastmile_qr_scan", "ios": "https://dc.lft.to/lastmile_qr_scan"}, "name": "b7cdc821a4811fade95a01884b9d956f", "is_reserved": 0}, {"is_disabled": 0, "fusion_lon": 0.0, "fusion_lat": 0.0, "lat": 38.90995783333334, "type": "electric_scooter", "lon": -77.00915, "bike_id": "4e4acbafc8105c4797490f5dd48872ed", "rental_uris": {"android": "https://dc.lft.to/lastmile_qr_scan", "ios": "https://dc.lft.to/lastmile_qr_scan"}, "name": "4e4acbafc8105c4797490f5dd48872ed", "is_reserved": 0}, {"is_disabled": 0, "fusion_lon": 0.0, "fusion_lat": 0.0, "lat": 38.911159833333336, "type": "electric_scooter", "lon": -77.00923216666666, "bike_id": "22d37d0333f31964912eead419cb251d", "rental_uris": {"android": "https://dc.lft.to/lastmile_qr_scan", "ios": "https://dc.lft.to/lastmile_qr_scan"}, "name": "22d37d0333f31964912eead419cb251d", "is_reserved": 0}, {"is_disabled": 0, "fusion_lon": 0.0, "fusion_lat": 0.0, "lat": 38.897309, "type": "electric_bike", "lon": -76.90541166666667, "bike_id": "13353a4c2343a78f40603ff1b7e6feff", "rental_uris": {"android": "https://dc.lft.to/lastmile_qr_scan", "ios": "https://dc.lft.to/lastmile_qr_scan"}, "name": "13353a4c2343a78f40603ff1b7e6feff", "is_reserved": 0}, {"is_disabled": 0, "fusion_lon": 0.0, "fusion_lat": 0.0, "lat": 38.911215166666665, "type": "electric_scooter", "lon": -77.04102133333333, "bike_id": "53feb601c9e1379d9572f7394a1d995c", "rental_uris": {"android": "https://dc.lft.to/lastmile_qr_scan", "ios": "https://dc.lft.to/lastmile_qr_scan"}, "name": "53feb601c9e1379d9572f7394a1d995c", "is_reserved": 0}, {"is_disabled": 0, "fusion_lon": 0.0, "fusion_lat": 0.0, "lat": 38.917608, "type": "electric_scooter", "lon": -77.023097, "bike_id": "ef6584063c7ff6af130b8fa71aafaeb7", "rental_uris": {"android": "https://dc.lft.to/lastmile_qr_scan", "ios": "https://dc.lft.to/lastmile_qr_scan"}, "name": "ef6584063c7ff6af130b8fa71aafaeb7", "is_reserved": 0}, {"is_disabled": 0, "fusion_lon": 0.0, "fusion_lat": 0.0, "lat": 38.9131125, "type": "electric_scooter", "lon": -77.020252, "bike_id": "d6068fc59fad2f16d26cd2f180507581", "rental_uris": {"android": "https://dc.lft.to/lastmile_qr_scan", "ios": "https://dc.lft.to/lastmile_qr_scan"}, "name": "d6068fc59fad2f16d26cd2f180507581", "is_reserved": 0}, {"is_disabled": 0, "fusion_lon": 0.0, "fusion_lat": 0.0, "lat": 38.9597335, "type": "electric_bike", "lon": -76.9815325, "bike_id": "453106e51f5c2443f8bf042c73d69a57", "rental_uris": {"android": "https://dc.lft.to/lastmile_qr_scan", "ios": "https://dc.lft.to/lastmile_qr_scan"}, "name": "453106e51f5c2443f8bf042c73d69a57", "is_reserved": 0}, {"is_disabled": 0, "fusion_lon": 0.0, "fusion_lat": 0.0, "lat": 38.88732516666666, "type": "electric_scooter", "lon": -77.02830966666667, "bike_id": "50d3d0979b40abc6ea7c574b707e3461", "rental_uris": {"android": "https://dc.lft.to/lastmile_qr_scan", "ios": "https://dc.lft.to/lastmile_qr_scan"}, "name": "50d3d0979b40abc6ea7c574b707e3461", "is_reserved": 0}, {"is_disabled": 0, "fusion_lon": 0.0, "fusion_lat": 0.0, "lat": 38.898769, "type": "electric_scooter", "lon": -76.93185033333333, "bike_id": "120fdbfdc326e594ef2a58174641f9b4", "rental_uris": {"android": "https://dc.lft.to/lastmile_qr_scan", "ios": "https://dc.lft.to/lastmile_qr_scan"}, "name": "120fdbfdc326e594ef2a58174641f9b4", "is_reserved": 0}, {"is_disabled": 0, "fusion_lon": 0.0, "fusion_lat": 0.0, "lat": 38.91047833333333, "type": "electric_scooter", "lon": -77.04052433333334, "bike_id": "2e5dbc27575f55e09e8ea4c978cdd7bc", "rental_uris": {"android": "https://dc.lft.to/lastmile_qr_scan", "ios": "https://dc.lft.to/lastmile_qr_scan"}, "name": "2e5dbc27575f55e09e8ea4c978cdd7bc", "is_reserved": 0}, {"is_disabled": 0, "fusion_lon": 0.0, "fusion_lat": 0.0, "lat": 38.926239833333334, "type": "electric_scooter", "lon": -77.05708916666667, "bike_id": "000aa7fb84f87d5569ce99a173cdfac9", "rental_uris": {"android": "https://dc.lft.to/lastmile_qr_scan", "ios": "https://dc.lft.to/lastmile_qr_scan"}, "name": "000aa7fb84f87d5569ce99a173cdfac9", "is_reserved": 0}, {"is_disabled": 0, "fusion_lon": 0.0, "fusion_lat": 0.0, "lat": 38.90509316666667, "type": "electric_scooter", "lon": -76.9884565, "bike_id": "223baed8d0096fe5934ee0fc3097bec1", "rental_uris": {"android": "https://dc.lft.to/lastmile_qr_scan", "ios": "https://dc.lft.to/lastmile_qr_scan"}, "name": "223baed8d0096fe5934ee0fc3097bec1", "is_reserved": 0}, {"is_disabled": 0, "fusion_lon": 0.0, "fusion_lat": 0.0, "lat": 38.911215, "type": "electric_scooter", "lon": -77.03832783333333, "bike_id": "49871529dcd670a1b81dc9a80a610663", "rental_uris": {"android": "https://dc.lft.to/lastmile_qr_scan", "ios": "https://dc.lft.to/lastmile_qr_scan"}, "name": "49871529dcd670a1b81dc9a80a610663", "is_reserved": 0}, {"is_disabled": 0, "fusion_lon": 0.0, "fusion_lat": 0.0, "lat": 38.952903166666665, "type": "electric_scooter", "lon": -77.0684225, "bike_id": "eca5bb05e9f1567088f0a10a2eef059b", "rental_uris": {"android": "https://dc.lft.to/lastmile_qr_scan", "ios": "https://dc.lft.to/lastmile_qr_scan"}, "name": "eca5bb05e9f1567088f0a10a2eef059b", "is_reserved": 0}, {"is_disabled": 0, "fusion_lon": 0.0, "fusion_lat": 0.0, "lat": 38.887671, "type": "electric_scooter", "lon": -76.95672916666666, "bike_id": "56eedf11317bef0fb2b30a2da617700a", "rental_uris": {"android": "https://dc.lft.to/lastmile_qr_scan", "ios": "https://dc.lft.to/lastmile_qr_scan"}, "name": "56eedf11317bef0fb2b30a2da617700a", "is_reserved": 0}, {"is_disabled": 0, "fusion_lon": 0.0, "fusion_lat": 0.0, "lat": 38.9042175, "type": "electric_scooter", "lon": -76.98512583333333, "bike_id": "2728014a6e9274e8c63556d5862a710c", "rental_uris": {"android": "https://dc.lft.to/lastmile_qr_scan", "ios": "https://dc.lft.to/lastmile_qr_scan"}, "name": "2728014a6e9274e8c63556d5862a710c", "is_reserved": 0}, {"is_disabled": 0, "fusion_lon": 0.0, "fusion_lat": 0.0, "lat": 38.900343, "type": "electric_scooter", "lon": -76.99826083333333, "bike_id": "701af6ab7d8fe26db5359f156a07207f", "rental_uris": {"android": "https://dc.lft.to/lastmile_qr_scan", "ios": "https://dc.lft.to/lastmile_qr_scan"}, "name": "701af6ab7d8fe26db5359f156a07207f", "is_reserved": 0}, {"is_disabled": 0, "fusion_lon": 0.0, "fusion_lat": 0.0, "lat": 38.9452045, "type": "electric_scooter", "lon": -77.02985066666666, "bike_id": "12a482a1b53048601689881a8fad2b5a", "rental_uris": {"android": "https://dc.lft.to/lastmile_qr_scan", "ios": "https://dc.lft.to/lastmile_qr_scan"}, "name": "12a482a1b53048601689881a8fad2b5a", "is_reserved": 0}, {"is_disabled": 0, "fusion_lon": 0.0, "fusion_lat": 0.0, "lat": 38.91020316666667, "type": "electric_scooter", "lon": -77.03649983333334, "bike_id": "3ed1b2a675cca40a42fbe906876d4e92", "rental_uris": {"android": "https://dc.lft.to/lastmile_qr_scan", "ios": "https://dc.lft.to/lastmile_qr_scan"}, "name": "3ed1b2a675cca40a42fbe906876d4e92", "is_reserved": 0}, {"is_disabled": 0, "fusion_lon": 0.0, "fusion_lat": 0.0, "lat": 38.906447, "type": "electric_scooter", "lon": -77.03162166666667, "bike_id": "6a072f71cac45b3715fdd94968a813d0", "rental_uris": {"android": "https://dc.lft.to/lastmile_qr_scan", "ios": "https://dc.lft.to/lastmile_qr_scan"}, "name": "6a072f71cac45b3715fdd94968a813d0", "is_reserved": 0}, {"is_disabled": 0, "fusion_lon": 0.0, "fusion_lat": 0.0, "lat": 38.88377216666667, "type": "electric_scooter", "lon": -76.92374433333333, "bike_id": "b6e936367750d8e573342bd33d359830", "rental_uris": {"android": "https://dc.lft.to/lastmile_qr_scan", "ios": "https://dc.lft.to/lastmile_qr_scan"}, "name": "b6e936367750d8e573342bd33d359830", "is_reserved": 0}, {"is_disabled": 0, "fusion_lon": 0.0, "fusion_lat": 0.0, "lat": 38.90284716666667, "type": "electric_scooter", "lon": -77.03655183333333, "bike_id": "db741ded3e661a310013b1b6be564807", "rental_uris": {"android": "https://dc.lft.to/lastmile_qr_scan", "ios": "https://dc.lft.to/lastmile_qr_scan"}, "name": "db741ded3e661a310013b1b6be564807", "is_reserved": 0}, {"is_disabled": 0, "fusion_lon": 0.0, "fusion_lat": 0.0, "lat": 38.92411466666667, "type": "electric_scooter", "lon": -76.997397, "bike_id": "c4772beff2114a47b5c215c6064ae29f", "rental_uris": {"android": "https://dc.lft.to/lastmile_qr_scan", "ios": "https://dc.lft.to/lastmile_qr_scan"}, "name": "c4772beff2114a47b5c215c6064ae29f", "is_reserved": 0}, {"is_disabled": 0, "fusion_lon": 0.0, "fusion_lat": 0.0, "lat": 38.90682866666667, "type": "electric_scooter", "lon": -77.031194, "bike_id": "02d7c9d8af4eb5a33289139b123cbabc", "rental_uris": {"android": "https://dc.lft.to/lastmile_qr_scan", "ios": "https://dc.lft.to/lastmile_qr_scan"}, "name": "02d7c9d8af4eb5a33289139b123cbabc", "is_reserved": 0}, {"is_disabled": 0, "fusion_lon": 0.0, "fusion_lat": 0.0, "lat": 38.902047833333334, "type": "electric_scooter", "lon": -76.981875, "bike_id": "7e93bd65d687ebef45a76db1a713e350", "rental_uris": {"android": "https://dc.lft.to/lastmile_qr_scan", "ios": "https://dc.lft.to/lastmile_qr_scan"}, "name": "7e93bd65d687ebef45a76db1a713e350", "is_reserved": 0}, {"is_disabled": 0, "fusion_lon": 0.0, "fusion_lat": 0.0, "lat": 38.906008166666666, "type": "electric_scooter", "lon": -77.06370666666666, "bike_id": "4cd8da1fd8c44c732e4831b9f8118bad", "rental_uris": {"android": "https://dc.lft.to/lastmile_qr_scan", "ios": "https://dc.lft.to/lastmile_qr_scan"}, "name": "4cd8da1fd8c44c732e4831b9f8118bad", "is_reserved": 0}, {"is_disabled": 0, "fusion_lon": 0.0, "fusion_lat": 0.0, "lat": 38.9267145, "type": "electric_bike", "lon": -77.00815716666666, "bike_id": "efd186d1a4195870a2a4601d3822c9c0", "rental_uris": {"android": "https://dc.lft.to/lastmile_qr_scan", "ios": "https://dc.lft.to/lastmile_qr_scan"}, "name": "efd186d1a4195870a2a4601d3822c9c0", "is_reserved": 0}, {"is_disabled": 0, "fusion_lon": 0.0, "fusion_lat": 0.0, "lat": 38.9006515, "type": "electric_scooter", "lon": -77.04891366666666, "bike_id": "d193fafc656d2d07c06c637361b491cd", "rental_uris": {"android": "https://dc.lft.to/lastmile_qr_scan", "ios": "https://dc.lft.to/lastmile_qr_scan"}, "name": "d193fafc656d2d07c06c637361b491cd", "is_reserved": 0}, {"is_disabled": 0, "fusion_lon": 0.0, "fusion_lat": 0.0, "lat": 38.898459833333334, "type": "electric_scooter", "lon": -77.03140433333333, "bike_id": "8f7ba693126d8ce6cdc8440e62a9688d", "rental_uris": {"android": "https://dc.lft.to/lastmile_qr_scan", "ios": "https://dc.lft.to/lastmile_qr_scan"}, "name": "8f7ba693126d8ce6cdc8440e62a9688d", "is_reserved": 0}, {"is_disabled": 0, "fusion_lon": 0.0, "fusion_lat": 0.0, "lat": 38.917109833333335, "type": "electric_scooter", "lon": -77.026156, "bike_id": "1d9ca260075ad35ac8c396e2ccd91677", "rental_uris": {"android": "https://dc.lft.to/lastmile_qr_scan", "ios": "https://dc.lft.to/lastmile_qr_scan"}, "name": "1d9ca260075ad35ac8c396e2ccd91677", "is_reserved": 0}, {"is_disabled": 0, "fusion_lon": 0.0, "fusion_lat": 0.0, "lat": 38.906997, "type": "electric_scooter", "lon": -77.06302966666667, "bike_id": "0aa9617d9147bf9010b636349395402a", "rental_uris": {"android": "https://dc.lft.to/lastmile_qr_scan", "ios": "https://dc.lft.to/lastmile_qr_scan"}, "name": "0aa9617d9147bf9010b636349395402a", "is_reserved": 0}, {"is_disabled": 0, "fusion_lon": 0.0, "fusion_lat": 0.0, "lat": 38.928697166666666, "type": "electric_scooter", "lon": -77.02729533333333, "bike_id": "55e088e4eb5fca0f51a97c40f39d842f", "rental_uris": {"android": "https://dc.lft.to/lastmile_qr_scan", "ios": "https://dc.lft.to/lastmile_qr_scan"}, "name": "55e088e4eb5fca0f51a97c40f39d842f", "is_reserved": 0}, {"is_disabled": 0, "fusion_lon": 0.0, "fusion_lat": 0.0, "lat": 38.918026833333336, "type": "electric_scooter", "lon": -77.03175316666666, "bike_id": "8f8962de20c2917ec4ae821e2dc9aa8f", "rental_uris": {"android": "https://dc.lft.to/lastmile_qr_scan", "ios": "https://dc.lft.to/lastmile_qr_scan"}, "name": "8f8962de20c2917ec4ae821e2dc9aa8f", "is_reserved": 0}, {"is_disabled": 0, "fusion_lon": 0.0, "fusion_lat": 0.0, "lat": 38.9157355, "type": "electric_scooter", "lon": -77.04674833333333, "bike_id": "abca4008842f766c95fdd9b849729ec9", "rental_uris": {"android": "https://dc.lft.to/lastmile_qr_scan", "ios": "https://dc.lft.to/lastmile_qr_scan"}, "name": "abca4008842f766c95fdd9b849729ec9", "is_reserved": 0}, {"is_disabled": 0, "fusion_lon": 0.0, "fusion_lat": 0.0, "lat": 38.915508833333334, "type": "electric_scooter", "lon": -77.03856366666666, "bike_id": "e90d99e0312c66f3578546c091e9a78c", "rental_uris": {"android": "https://dc.lft.to/lastmile_qr_scan", "ios": "https://dc.lft.to/lastmile_qr_scan"}, "name": "e90d99e0312c66f3578546c091e9a78c", "is_reserved": 0}, {"is_disabled": 0, "fusion_lon": 0.0, "fusion_lat": 0.0, "lat": 38.919252666666665, "type": "electric_scooter", "lon": -77.03419416666667, "bike_id": "f2186b6dfe46302825d7b1a5246dfe72", "rental_uris": {"android": "https://dc.lft.to/lastmile_qr_scan", "ios": "https://dc.lft.to/lastmile_qr_scan"}, "name": "f2186b6dfe46302825d7b1a5246dfe72", "is_reserved": 0}, {"is_disabled": 0, "fusion_lon": 0.0, "fusion_lat": 0.0, "lat": 38.9243795, "type": "electric_bike", "lon": -76.90757233333333, "bike_id": "cd891c25f0f772821da847ea953c7845", "rental_uris": {"android": "https://dc.lft.to/lastmile_qr_scan", "ios": "https://dc.lft.to/lastmile_qr_scan"}, "name": "cd891c25f0f772821da847ea953c7845", "is_reserved": 0}, {"is_disabled": 0, "fusion_lon": 0.0, "fusion_lat": 0.0, "lat": 38.91442033333333, "type": "electric_scooter", "lon": -77.00891233333333, "bike_id": "e939cf54c275f5b45d92cbc2ecfaa5a2", "rental_uris": {"android": "https://dc.lft.to/lastmile_qr_scan", "ios": "https://dc.lft.to/lastmile_qr_scan"}, "name": "e939cf54c275f5b45d92cbc2ecfaa5a2", "is_reserved": 0}, {"is_disabled": 0, "fusion_lon": 0.0, "fusion_lat": 0.0, "lat": 38.9561645, "type": "electric_scooter", "lon": -77.02760916666666, "bike_id": "69d4b068664f863217cc3f831f04c224", "rental_uris": {"android": "https://dc.lft.to/lastmile_qr_scan", "ios": "https://dc.lft.to/lastmile_qr_scan"}, "name": "69d4b068664f863217cc3f831f04c224", "is_reserved": 0}, {"is_disabled": 0, "fusion_lon": 0.0, "fusion_lat": 0.0, "lat": 38.898498000000004, "type": "electric_scooter", "lon": -77.021721, "bike_id": "457aafdb48ee59c024c6d09f68a6eb2c", "rental_uris": {"android": "https://dc.lft.to/lastmile_qr_scan", "ios": "https://dc.lft.to/lastmile_qr_scan"}, "name": "457aafdb48ee59c024c6d09f68a6eb2c", "is_reserved": 0}, {"is_disabled": 0, "fusion_lon": 0.0, "fusion_lat": 0.0, "lat": 38.9194865, "type": "electric_scooter", "lon": -77.041654, "bike_id": "e20211de8460ccce2bdf357d2a7f5c24", "rental_uris": {"android": "https://dc.lft.to/lastmile_qr_scan", "ios": "https://dc.lft.to/lastmile_qr_scan"}, "name": "e20211de8460ccce2bdf357d2a7f5c24", "is_reserved": 0}, {"is_disabled": 0, "fusion_lon": 0.0, "fusion_lat": 0.0, "lat": 38.915434166666664, "type": "electric_scooter", "lon": -77.03205683333333, "bike_id": "45e756d439b26ef6ec41f93a0053148f", "rental_uris": {"android": "https://dc.lft.to/lastmile_qr_scan", "ios": "https://dc.lft.to/lastmile_qr_scan"}, "name": "45e756d439b26ef6ec41f93a0053148f", "is_reserved": 0}, {"is_disabled": 0, "fusion_lon": 0.0, "fusion_lat": 0.0, "lat": 38.91408283333333, "type": "electric_scooter", "lon": -77.04210983333333, "bike_id": "2c51de21c3990948772ab8942897dd4b", "rental_uris": {"android": "https://dc.lft.to/lastmile_qr_scan", "ios": "https://dc.lft.to/lastmile_qr_scan"}, "name": "2c51de21c3990948772ab8942897dd4b", "is_reserved": 0}, {"is_disabled": 0, "fusion_lon": 0.0, "fusion_lat": 0.0, "lat": 38.84506433333333, "type": "electric_bike", "lon": -76.97209683333334, "bike_id": "95c52b5532d2d05587eb9e6d11f92d81", "rental_uris": {"android": "https://dc.lft.to/lastmile_qr_scan", "ios": "https://dc.lft.to/lastmile_qr_scan"}, "name": "95c52b5532d2d05587eb9e6d11f92d81", "is_reserved": 0}, {"is_disabled": 0, "fusion_lon": 0.0, "fusion_lat": 0.0, "lat": 38.998830166666664, "type": "electric_bike", "lon": -77.02870433333334, "bike_id": "355c3a8ebde0d9283bfa47c3ada386fd", "rental_uris": {"android": "https://dc.lft.to/lastmile_qr_scan", "ios": "https://dc.lft.to/lastmile_qr_scan"}, "name": "355c3a8ebde0d9283bfa47c3ada386fd", "is_reserved": 0}, {"is_disabled": 0, "fusion_lon": 0.0, "fusion_lat": 0.0, "lat": 38.897296, "type": "electric_scooter", "lon": -77.046781, "bike_id": "ba14a788c77e33f80cc7ac35037355f6", "rental_uris": {"android": "https://dc.lft.to/lastmile_qr_scan", "ios": "https://dc.lft.to/lastmile_qr_scan"}, "name": "ba14a788c77e33f80cc7ac35037355f6", "is_reserved": 0}, {"is_disabled": 0, "fusion_lon": 0.0, "fusion_lat": 0.0, "lat": 38.9086935, "type": "electric_scooter", "lon": -77.02687033333333, "bike_id": "5c83ba1886b916591547f0bda5b988e4", "rental_uris": {"android": "https://dc.lft.to/lastmile_qr_scan", "ios": "https://dc.lft.to/lastmile_qr_scan"}, "name": "5c83ba1886b916591547f0bda5b988e4", "is_reserved": 0}, {"is_disabled": 0, "fusion_lon": 0.0, "fusion_lat": 0.0, "lat": 38.89913766666667, "type": "electric_scooter", "lon": -77.0391585, "bike_id": "1596f32435d9221e41bcfe0d60bb3fae", "rental_uris": {"android": "https://dc.lft.to/lastmile_qr_scan", "ios": "https://dc.lft.to/lastmile_qr_scan"}, "name": "1596f32435d9221e41bcfe0d60bb3fae", "is_reserved": 0}, {"is_disabled": 0, "fusion_lon": 0.0, "fusion_lat": 0.0, "lat": 38.9083305, "type": "electric_scooter", "lon": -77.04330483333334, "bike_id": "64252814d5cf619be4c9190efbeaa31d", "rental_uris": {"android": "https://dc.lft.to/lastmile_qr_scan", "ios": "https://dc.lft.to/lastmile_qr_scan"}, "name": "64252814d5cf619be4c9190efbeaa31d", "is_reserved": 0}, {"is_disabled": 0, "fusion_lon": 0.0, "fusion_lat": 0.0, "lat": 38.951241, "type": "electric_scooter", "lon": -77.0139495, "bike_id": "413e7a5afbbf1cc88f7d281d8f423906", "rental_uris": {"android": "https://dc.lft.to/lastmile_qr_scan", "ios": "https://dc.lft.to/lastmile_qr_scan"}, "name": "413e7a5afbbf1cc88f7d281d8f423906", "is_reserved": 0}, {"is_disabled": 0, "fusion_lon": 0.0, "fusion_lat": 0.0, "lat": 38.926150666666665, "type": "electric_scooter", "lon": -77.02163216666666, "bike_id": "9663f0d168879fef16c1fe351f39ee9a", "rental_uris": {"android": "https://dc.lft.to/lastmile_qr_scan", "ios": "https://dc.lft.to/lastmile_qr_scan"}, "name": "9663f0d168879fef16c1fe351f39ee9a", "is_reserved": 0}, {"is_disabled": 0, "fusion_lon": 0.0, "fusion_lat": 0.0, "lat": 38.923298, "type": "electric_scooter", "lon": -77.0366325, "bike_id": "443e7ad85ee12e6645b1033ff975bcb4", "rental_uris": {"android": "https://dc.lft.to/lastmile_qr_scan", "ios": "https://dc.lft.to/lastmile_qr_scan"}, "name": "443e7ad85ee12e6645b1033ff975bcb4", "is_reserved": 0}, {"is_disabled": 0, "fusion_lon": 0.0, "fusion_lat": 0.0, "lat": 38.89700066666666, "type": "electric_scooter", "lon": -77.05027333333334, "bike_id": "0872c5c859e57e05384d7aef2c8089f5", "rental_uris": {"android": "https://dc.lft.to/lastmile_qr_scan", "ios": "https://dc.lft.to/lastmile_qr_scan"}, "name": "0872c5c859e57e05384d7aef2c8089f5", "is_reserved": 0}, {"is_disabled": 0, "fusion_lon": 0.0, "fusion_lat": 0.0, "lat": 38.920624, "type": "electric_scooter", "lon": -77.046963, "bike_id": "37bc915bd7429d770a08fd1feb5dc759", "rental_uris": {"android": "https://dc.lft.to/lastmile_qr_scan", "ios": "https://dc.lft.to/lastmile_qr_scan"}, "name": "37bc915bd7429d770a08fd1feb5dc759", "is_reserved": 0}, {"is_disabled": 0, "fusion_lon": 0.0, "fusion_lat": 0.0, "lat": 38.89396166666667, "type": "electric_scooter", "lon": -76.9499255, "bike_id": "84a0d4e984cd136bc167ecb198f6a436", "rental_uris": {"android": "https://dc.lft.to/lastmile_qr_scan", "ios": "https://dc.lft.to/lastmile_qr_scan"}, "name": "84a0d4e984cd136bc167ecb198f6a436", "is_reserved": 0}, {"is_disabled": 0, "fusion_lon": 0.0, "fusion_lat": 0.0, "lat": 38.865394, "type": "electric_scooter", "lon": -76.9870515, "bike_id": "838ba7e2b0f65960f16a12a2dff3829c", "rental_uris": {"android": "https://dc.lft.to/lastmile_qr_scan", "ios": "https://dc.lft.to/lastmile_qr_scan"}, "name": "838ba7e2b0f65960f16a12a2dff3829c", "is_reserved": 0}, {"is_disabled": 0, "fusion_lon": 0.0, "fusion_lat": 0.0, "lat": 38.91188833333333, "type": "electric_scooter", "lon": -77.03918633333333, "bike_id": "71d4b79c79568a5e0ab7b7c6315fb1c4", "rental_uris": {"android": "https://dc.lft.to/lastmile_qr_scan", "ios": "https://dc.lft.to/lastmile_qr_scan"}, "name": "71d4b79c79568a5e0ab7b7c6315fb1c4", "is_reserved": 0}, {"is_disabled": 0, "fusion_lon": 0.0, "fusion_lat": 0.0, "lat": 38.9107235, "type": "electric_scooter", "lon": -77.04157433333333, "bike_id": "6857b5ef8ef395feeb25aef2de09ab4c", "rental_uris": {"android": "https://dc.lft.to/lastmile_qr_scan", "ios": "https://dc.lft.to/lastmile_qr_scan"}, "name": "6857b5ef8ef395feeb25aef2de09ab4c", "is_reserved": 0}, {"is_disabled": 0, "fusion_lon": 0.0, "fusion_lat": 0.0, "lat": 38.88125733333333, "type": "electric_scooter", "lon": -76.99601966666667, "bike_id": "92214767508b01aa93cef1b442c14896", "rental_uris": {"android": "https://dc.lft.to/lastmile_qr_scan", "ios": "https://dc.lft.to/lastmile_qr_scan"}, "name": "92214767508b01aa93cef1b442c14896", "is_reserved": 0}, {"is_disabled": 0, "fusion_lon": 0.0, "fusion_lat": 0.0, "lat": 38.90522833333333, "type": "electric_scooter", "lon": -77.05394583333333, "bike_id": "4f903f7f1cd594be8d613dc6f9570e6f", "rental_uris": {"android": "https://dc.lft.to/lastmile_qr_scan", "ios": "https://dc.lft.to/lastmile_qr_scan"}, "name": "4f903f7f1cd594be8d613dc6f9570e6f", "is_reserved": 0}, {"is_disabled": 0, "fusion_lon": 0.0, "fusion_lat": 0.0, "lat": 38.911961, "type": "electric_scooter", "lon": -77.04173566666667, "bike_id": "658bfbed204ab916a63674ddca453383", "rental_uris": {"android": "https://dc.lft.to/lastmile_qr_scan", "ios": "https://dc.lft.to/lastmile_qr_scan"}, "name": "658bfbed204ab916a63674ddca453383", "is_reserved": 0}, {"is_disabled": 0, "fusion_lon": 0.0, "fusion_lat": 0.0, "lat": 38.9314305, "type": "electric_scooter", "lon": -77.04059966666667, "bike_id": "ac8d5ece2d7b6b26d73aaabc150befe6", "rental_uris": {"android": "https://dc.lft.to/lastmile_qr_scan", "ios": "https://dc.lft.to/lastmile_qr_scan"}, "name": "ac8d5ece2d7b6b26d73aaabc150befe6", "is_reserved": 0}, {"is_disabled": 0, "fusion_lon": 0.0, "fusion_lat": 0.0, "lat": 38.865122166666666, "type": "electric_scooter", "lon": -76.99006233333333, "bike_id": "9579efac2708b3192db09c88b23c8094", "rental_uris": {"android": "https://dc.lft.to/lastmile_qr_scan", "ios": "https://dc.lft.to/lastmile_qr_scan"}, "name": "9579efac2708b3192db09c88b23c8094", "is_reserved": 0}, {"is_disabled": 0, "fusion_lon": 0.0, "fusion_lat": 0.0, "lat": 38.928542, "type": "electric_scooter", "lon": -77.01407266666666, "bike_id": "d214b04bc751c59bd2d1abf5e91da6a4", "rental_uris": {"android": "https://dc.lft.to/lastmile_qr_scan", "ios": "https://dc.lft.to/lastmile_qr_scan"}, "name": "d214b04bc751c59bd2d1abf5e91da6a4", "is_reserved": 0}, {"is_disabled": 0, "fusion_lon": 0.0, "fusion_lat": 0.0, "lat": 38.879263333333334, "type": "electric_scooter", "lon": -77.00707766666666, "bike_id": "a601e38d0ea06406a0fe9bb116d9208f", "rental_uris": {"android": "https://dc.lft.to/lastmile_qr_scan", "ios": "https://dc.lft.to/lastmile_qr_scan"}, "name": "a601e38d0ea06406a0fe9bb116d9208f", "is_reserved": 0}, {"is_disabled": 0, "fusion_lon": 0.0, "fusion_lat": 0.0, "lat": 38.913663166666666, "type": "electric_scooter", "lon": -77.0395895, "bike_id": "7efae204848b1211ea2abafe9759b55b", "rental_uris": {"android": "https://dc.lft.to/lastmile_qr_scan", "ios": "https://dc.lft.to/lastmile_qr_scan"}, "name": "7efae204848b1211ea2abafe9759b55b", "is_reserved": 0}, {"is_disabled": 0, "fusion_lon": 0.0, "fusion_lat": 0.0, "lat": 38.887371333333334, "type": "electric_scooter", "lon": -77.01532516666667, "bike_id": "ed93f0d7645339534b0a899b15678402", "rental_uris": {"android": "https://dc.lft.to/lastmile_qr_scan", "ios": "https://dc.lft.to/lastmile_qr_scan"}, "name": "ed93f0d7645339534b0a899b15678402", "is_reserved": 0}, {"is_disabled": 0, "fusion_lon": 0.0, "fusion_lat": 0.0, "lat": 38.88384766666667, "type": "electric_bike", "lon": -77.03076983333334, "bike_id": "a39288a1f52574dee446bca92205ab2e", "rental_uris": {"android": "https://dc.lft.to/lastmile_qr_scan", "ios": "https://dc.lft.to/lastmile_qr_scan"}, "name": "a39288a1f52574dee446bca92205ab2e", "is_reserved": 0}, {"is_disabled": 0, "fusion_lon": 0.0, "fusion_lat": 0.0, "lat": 38.9106475, "type": "electric_scooter", "lon": -76.98505716666666, "bike_id": "df5a52f77b465b4b06c2300c6155cdd2", "rental_uris": {"android": "https://dc.lft.to/lastmile_qr_scan", "ios": "https://dc.lft.to/lastmile_qr_scan"}, "name": "df5a52f77b465b4b06c2300c6155cdd2", "is_reserved": 0}, {"is_disabled": 0, "fusion_lon": 0.0, "fusion_lat": 0.0, "lat": 38.84606933333333, "type": "electric_bike", "lon": -76.96889516666667, "bike_id": "7350be76f1c8e818f993a33d312bd8ba", "rental_uris": {"android": "https://dc.lft.to/lastmile_qr_scan", "ios": "https://dc.lft.to/lastmile_qr_scan"}, "name": "7350be76f1c8e818f993a33d312bd8ba", "is_reserved": 0}, {"is_disabled": 0, "fusion_lon": 0.0, "fusion_lat": 0.0, "lat": 38.896066, "type": "electric_scooter", "lon": -77.02969616666667, "bike_id": "05fa0b778c8fbf94cfabfac204d5ef39", "rental_uris": {"android": "https://dc.lft.to/lastmile_qr_scan", "ios": "https://dc.lft.to/lastmile_qr_scan"}, "name": "05fa0b778c8fbf94cfabfac204d5ef39", "is_reserved": 0}, {"is_disabled": 0, "fusion_lon": 0.0, "fusion_lat": 0.0, "lat": 38.9328055, "type": "electric_scooter", "lon": -77.036288, "bike_id": "f04a0fb9e604935fba70351ef25febbd", "rental_uris": {"android": "https://dc.lft.to/lastmile_qr_scan", "ios": "https://dc.lft.to/lastmile_qr_scan"}, "name": "f04a0fb9e604935fba70351ef25febbd", "is_reserved": 0}, {"is_disabled": 0, "fusion_lon": 0.0, "fusion_lat": 0.0, "lat": 38.90207183333333, "type": "electric_scooter", "lon": -77.04781583333333, "bike_id": "84a2909897566cd0343fc4e4c2eb1721", "rental_uris": {"android": "https://dc.lft.to/lastmile_qr_scan", "ios": "https://dc.lft.to/lastmile_qr_scan"}, "name": "84a2909897566cd0343fc4e4c2eb1721", "is_reserved": 0}, {"is_disabled": 0, "fusion_lon": 0.0, "fusion_lat": 0.0, "lat": 38.956471666666665, "type": "electric_scooter", "lon": -77.01496483333334, "bike_id": "125f7ecf1c067868b6270ab42d7a1152", "rental_uris": {"android": "https://dc.lft.to/lastmile_qr_scan", "ios": "https://dc.lft.to/lastmile_qr_scan"}, "name": "125f7ecf1c067868b6270ab42d7a1152", "is_reserved": 0}, {"is_disabled": 0, "fusion_lon": 0.0, "fusion_lat": 0.0, "lat": 38.91804666666667, "type": "electric_scooter", "lon": -77.026935, "bike_id": "fa193a977a097d662f35516c73180142", "rental_uris": {"android": "https://dc.lft.to/lastmile_qr_scan", "ios": "https://dc.lft.to/lastmile_qr_scan"}, "name": "fa193a977a097d662f35516c73180142", "is_reserved": 0}, {"is_disabled": 0, "fusion_lon": 0.0, "fusion_lat": 0.0, "lat": 38.894889, "type": "electric_scooter", "lon": -77.00211716666666, "bike_id": "2b5ab5bf979effce649be45cd55f1b49", "rental_uris": {"android": "https://dc.lft.to/lastmile_qr_scan", "ios": "https://dc.lft.to/lastmile_qr_scan"}, "name": "2b5ab5bf979effce649be45cd55f1b49", "is_reserved": 0}, {"is_disabled": 0, "fusion_lon": 0.0, "fusion_lat": 0.0, "lat": 38.921737, "type": "electric_scooter", "lon": -77.03384116666666, "bike_id": "04aa42755de17916dece8d2afc67d3b5", "rental_uris": {"android": "https://dc.lft.to/lastmile_qr_scan", "ios": "https://dc.lft.to/lastmile_qr_scan"}, "name": "04aa42755de17916dece8d2afc67d3b5", "is_reserved": 0}, {"is_disabled": 0, "fusion_lon": 0.0, "fusion_lat": 0.0, "lat": 38.91818166666667, "type": "electric_scooter", "lon": -77.0272095, "bike_id": "8c9013036bb82f125d8a5faaf0cbd848", "rental_uris": {"android": "https://dc.lft.to/lastmile_qr_scan", "ios": "https://dc.lft.to/lastmile_qr_scan"}, "name": "8c9013036bb82f125d8a5faaf0cbd848", "is_reserved": 0}, {"is_disabled": 0, "fusion_lon": 0.0, "fusion_lat": 0.0, "lat": 38.89784683333333, "type": "electric_scooter", "lon": -77.02471033333333, "bike_id": "8669b9a52b9a666999d7e46d3514a3b7", "rental_uris": {"android": "https://dc.lft.to/lastmile_qr_scan", "ios": "https://dc.lft.to/lastmile_qr_scan"}, "name": "8669b9a52b9a666999d7e46d3514a3b7", "is_reserved": 0}, {"is_disabled": 0, "fusion_lon": 0.0, "fusion_lat": 0.0, "lat": 38.918135, "type": "electric_scooter", "lon": -77.0400325, "bike_id": "2d935cb02a6450bd66ab76a816dc52a5", "rental_uris": {"android": "https://dc.lft.to/lastmile_qr_scan", "ios": "https://dc.lft.to/lastmile_qr_scan"}, "name": "2d935cb02a6450bd66ab76a816dc52a5", "is_reserved": 0}, {"is_disabled": 0, "fusion_lon": 0.0, "fusion_lat": 0.0, "lat": 38.9418095, "type": "electric_scooter", "lon": -77.036548, "bike_id": "b4635bb58985a41f863f7687becf4195", "rental_uris": {"android": "https://dc.lft.to/lastmile_qr_scan", "ios": "https://dc.lft.to/lastmile_qr_scan"}, "name": "b4635bb58985a41f863f7687becf4195", "is_reserved": 0}, {"is_disabled": 0, "fusion_lon": 0.0, "fusion_lat": 0.0, "lat": 38.89830516666667, "type": "electric_scooter", "lon": -77.00755866666667, "bike_id": "16355310a2b8ef3d4cacbc5f9522ce2a", "rental_uris": {"android": "https://dc.lft.to/lastmile_qr_scan", "ios": "https://dc.lft.to/lastmile_qr_scan"}, "name": "16355310a2b8ef3d4cacbc5f9522ce2a", "is_reserved": 0}, {"is_disabled": 0, "fusion_lon": 0.0, "fusion_lat": 0.0, "lat": 38.961156333333335, "type": "electric_bike", "lon": -77.06899283333334, "bike_id": "b74025e69bdda2642814a860a7d8446b", "rental_uris": {"android": "https://dc.lft.to/lastmile_qr_scan", "ios": "https://dc.lft.to/lastmile_qr_scan"}, "name": "b74025e69bdda2642814a860a7d8446b", "is_reserved": 0}, {"is_disabled": 0, "fusion_lon": 0.0, "fusion_lat": 0.0, "lat": 38.924242166666666, "type": "electric_scooter", "lon": -77.05610783333333, "bike_id": "a2360c7d1fa71b0016b86b9098859fa8", "rental_uris": {"android": "https://dc.lft.to/lastmile_qr_scan", "ios": "https://dc.lft.to/lastmile_qr_scan"}, "name": "a2360c7d1fa71b0016b86b9098859fa8", "is_reserved": 0}, {"is_disabled": 0, "fusion_lon": 0.0, "fusion_lat": 0.0, "lat": 38.9866475, "type": "electric_scooter", "lon": -77.026514, "bike_id": "86c89c20870f5f88f9b6323331f4bb4c", "rental_uris": {"android": "https://dc.lft.to/lastmile_qr_scan", "ios": "https://dc.lft.to/lastmile_qr_scan"}, "name": "86c89c20870f5f88f9b6323331f4bb4c", "is_reserved": 0}, {"is_disabled": 0, "fusion_lon": 0.0, "fusion_lat": 0.0, "lat": 38.907447166666664, "type": "electric_scooter", "lon": -77.03445683333334, "bike_id": "eb88af469fe15a1b5028fa5cfd34bafe", "rental_uris": {"android": "https://dc.lft.to/lastmile_qr_scan", "ios": "https://dc.lft.to/lastmile_qr_scan"}, "name": "eb88af469fe15a1b5028fa5cfd34bafe", "is_reserved": 0}, {"is_disabled": 0, "fusion_lon": 0.0, "fusion_lat": 0.0, "lat": 38.9327335, "type": "electric_scooter", "lon": -76.99680066666667, "bike_id": "adda272c78911a8fdd577a9bb96b006d", "rental_uris": {"android": "https://dc.lft.to/lastmile_qr_scan", "ios": "https://dc.lft.to/lastmile_qr_scan"}, "name": "adda272c78911a8fdd577a9bb96b006d", "is_reserved": 0}, {"is_disabled": 0, "fusion_lon": 0.0, "fusion_lat": 0.0, "lat": 38.91826783333333, "type": "electric_scooter", "lon": -77.031881, "bike_id": "6dc862a23ef9ba5b08af03809ebccf38", "rental_uris": {"android": "https://dc.lft.to/lastmile_qr_scan", "ios": "https://dc.lft.to/lastmile_qr_scan"}, "name": "6dc862a23ef9ba5b08af03809ebccf38", "is_reserved": 0}, {"is_disabled": 0, "fusion_lon": 0.0, "fusion_lat": 0.0, "lat": 38.91475033333333, "type": "electric_scooter", "lon": -77.04387083333333, "bike_id": "a4311e638c9ded0f0858c88c2c3601ee", "rental_uris": {"android": "https://dc.lft.to/lastmile_qr_scan", "ios": "https://dc.lft.to/lastmile_qr_scan"}, "name": "a4311e638c9ded0f0858c88c2c3601ee", "is_reserved": 0}, {"is_disabled": 0, "fusion_lon": 0.0, "fusion_lat": 0.0, "lat": 38.89912183333333, "type": "electric_scooter", "lon": -76.933898, "bike_id": "0ebe7f43725d311978909efa0dcbd4d2", "rental_uris": {"android": "https://dc.lft.to/lastmile_qr_scan", "ios": "https://dc.lft.to/lastmile_qr_scan"}, "name": "0ebe7f43725d311978909efa0dcbd4d2", "is_reserved": 0}, {"is_disabled": 0, "fusion_lon": 0.0, "fusion_lat": 0.0, "lat": 38.969305, "type": "electric_bike", "lon": -77.02631233333334, "bike_id": "e201beba33d57d69a047274514454121", "rental_uris": {"android": "https://dc.lft.to/lastmile_qr_scan", "ios": "https://dc.lft.to/lastmile_qr_scan"}, "name": "e201beba33d57d69a047274514454121", "is_reserved": 0}, {"is_disabled": 0, "fusion_lon": 0.0, "fusion_lat": 0.0, "lat": 38.892141333333335, "type": "electric_scooter", "lon": -76.98795516666667, "bike_id": "4527c58667ea25dc59a08e895e07ab4c", "rental_uris": {"android": "https://dc.lft.to/lastmile_qr_scan", "ios": "https://dc.lft.to/lastmile_qr_scan"}, "name": "4527c58667ea25dc59a08e895e07ab4c", "is_reserved": 0}, {"is_disabled": 0, "fusion_lon": 0.0, "fusion_lat": 0.0, "lat": 38.920121, "type": "electric_scooter", "lon": -77.02411766666667, "bike_id": "4f6f6ce147ac960bfec3fdfe6b74f0c0", "rental_uris": {"android": "https://dc.lft.to/lastmile_qr_scan", "ios": "https://dc.lft.to/lastmile_qr_scan"}, "name": "4f6f6ce147ac960bfec3fdfe6b74f0c0", "is_reserved": 0}, {"is_disabled": 0, "fusion_lon": 0.0, "fusion_lat": 0.0, "lat": 38.918680333333334, "type": "electric_bike", "lon": -76.9617645, "bike_id": "3b9c714e92cf852c69789afbd4a2d2c0", "rental_uris": {"android": "https://dc.lft.to/lastmile_qr_scan", "ios": "https://dc.lft.to/lastmile_qr_scan"}, "name": "3b9c714e92cf852c69789afbd4a2d2c0", "is_reserved": 0}, {"is_disabled": 0, "fusion_lon": 0.0, "fusion_lat": 0.0, "lat": 38.87148666666667, "type": "electric_scooter", "lon": -76.97893833333333, "bike_id": "7c2579aeb929136cf73e2ae8eb7ed6ab", "rental_uris": {"android": "https://dc.lft.to/lastmile_qr_scan", "ios": "https://dc.lft.to/lastmile_qr_scan"}, "name": "7c2579aeb929136cf73e2ae8eb7ed6ab", "is_reserved": 0}, {"is_disabled": 0, "fusion_lon": 0.0, "fusion_lat": 0.0, "lat": 38.887375166666665, "type": "electric_scooter", "lon": -77.01538716666667, "bike_id": "0abdae86f853a688d416045c5e88bc01", "rental_uris": {"android": "https://dc.lft.to/lastmile_qr_scan", "ios": "https://dc.lft.to/lastmile_qr_scan"}, "name": "0abdae86f853a688d416045c5e88bc01", "is_reserved": 0}, {"is_disabled": 0, "fusion_lon": 0.0, "fusion_lat": 0.0, "lat": 38.916955, "type": "electric_scooter", "lon": -77.032155, "bike_id": "6d1f05b925c7e7a5149500f95d3d2ca7", "rental_uris": {"android": "https://dc.lft.to/lastmile_qr_scan", "ios": "https://dc.lft.to/lastmile_qr_scan"}, "name": "6d1f05b925c7e7a5149500f95d3d2ca7", "is_reserved": 0}, {"is_disabled": 0, "fusion_lon": 0.0, "fusion_lat": 0.0, "lat": 38.9005095, "type": "electric_scooter", "lon": -77.0006695, "bike_id": "f758a5b60b75f3e948a90d66ea522a80", "rental_uris": {"android": "https://dc.lft.to/lastmile_qr_scan", "ios": "https://dc.lft.to/lastmile_qr_scan"}, "name": "f758a5b60b75f3e948a90d66ea522a80", "is_reserved": 0}, {"is_disabled": 0, "fusion_lon": 0.0, "fusion_lat": 0.0, "lat": 38.935587, "type": "electric_scooter", "lon": -77.0296115, "bike_id": "df3338d39465577fa11a6442e6d5a655", "rental_uris": {"android": "https://dc.lft.to/lastmile_qr_scan", "ios": "https://dc.lft.to/lastmile_qr_scan"}, "name": "df3338d39465577fa11a6442e6d5a655", "is_reserved": 0}, {"is_disabled": 0, "fusion_lon": 0.0, "fusion_lat": 0.0, "lat": 38.88967016666667, "type": "electric_bike", "lon": -76.94864316666667, "bike_id": "23350efca6b0363e400b1f26b1f0cded", "rental_uris": {"android": "https://dc.lft.to/lastmile_qr_scan", "ios": "https://dc.lft.to/lastmile_qr_scan"}, "name": "23350efca6b0363e400b1f26b1f0cded", "is_reserved": 0}, {"is_disabled": 0, "fusion_lon": 0.0, "fusion_lat": 0.0, "lat": 38.8874405, "type": "electric_scooter", "lon": -77.0285795, "bike_id": "2b1c3b168aa12c728e7638f5004ddac7", "rental_uris": {"android": "https://dc.lft.to/lastmile_qr_scan", "ios": "https://dc.lft.to/lastmile_qr_scan"}, "name": "2b1c3b168aa12c728e7638f5004ddac7", "is_reserved": 0}, {"is_disabled": 0, "fusion_lon": 0.0, "fusion_lat": 0.0, "lat": 38.908311, "type": "electric_bike", "lon": -76.94159566666667, "bike_id": "1ddea2e627e6b0c82baf186e5ebc5490", "rental_uris": {"android": "https://dc.lft.to/lastmile_qr_scan", "ios": "https://dc.lft.to/lastmile_qr_scan"}, "name": "1ddea2e627e6b0c82baf186e5ebc5490", "is_reserved": 0}, {"is_disabled": 0, "fusion_lon": 0.0, "fusion_lat": 0.0, "lat": 38.97575783333333, "type": "electric_bike", "lon": -76.96405416666667, "bike_id": "8618d11b897bb7a235dbbcdfc64b6124", "rental_uris": {"android": "https://dc.lft.to/lastmile_qr_scan", "ios": "https://dc.lft.to/lastmile_qr_scan"}, "name": "8618d11b897bb7a235dbbcdfc64b6124", "is_reserved": 0}, {"is_disabled": 0, "fusion_lon": 0.0, "fusion_lat": 0.0, "lat": 38.9922795, "type": "electric_bike", "lon": -76.8778045, "bike_id": "d9c400448496e6e44e57429b18bf7e38", "rental_uris": {"android": "https://dc.lft.to/lastmile_qr_scan", "ios": "https://dc.lft.to/lastmile_qr_scan"}, "name": "d9c400448496e6e44e57429b18bf7e38", "is_reserved": 0}, {"is_disabled": 0, "fusion_lon": 0.0, "fusion_lat": 0.0, "lat": 38.90730116666667, "type": "electric_scooter", "lon": -77.02368516666667, "bike_id": "724aa292ddb5ad72229ffc98f13cc915", "rental_uris": {"android": "https://dc.lft.to/lastmile_qr_scan", "ios": "https://dc.lft.to/lastmile_qr_scan"}, "name": "724aa292ddb5ad72229ffc98f13cc915", "is_reserved": 0}, {"is_disabled": 0, "fusion_lon": 0.0, "fusion_lat": 0.0, "lat": 38.88814633333333, "type": "electric_bike", "lon": -77.12741216666667, "bike_id": "78779ff823942a6e15c3831152af524c", "rental_uris": {"android": "https://dc.lft.to/lastmile_qr_scan", "ios": "https://dc.lft.to/lastmile_qr_scan"}, "name": "78779ff823942a6e15c3831152af524c", "is_reserved": 0}, {"is_disabled": 0, "fusion_lon": 0.0, "fusion_lat": 0.0, "lat": 38.90361333333333, "type": "electric_scooter", "lon": -77.0434385, "bike_id": "7c769fb7ef868409a5aea5cc221e1d73", "rental_uris": {"android": "https://dc.lft.to/lastmile_qr_scan", "ios": "https://dc.lft.to/lastmile_qr_scan"}, "name": "7c769fb7ef868409a5aea5cc221e1d73", "is_reserved": 0}, {"is_disabled": 0, "fusion_lon": 0.0, "fusion_lat": 0.0, "lat": 38.907846166666666, "type": "electric_scooter", "lon": -77.032465, "bike_id": "01c2e04319e3c032b09ca00dbc8595b5", "rental_uris": {"android": "https://dc.lft.to/lastmile_qr_scan", "ios": "https://dc.lft.to/lastmile_qr_scan"}, "name": "01c2e04319e3c032b09ca00dbc8595b5", "is_reserved": 0}, {"is_disabled": 0, "fusion_lon": 0.0, "fusion_lat": 0.0, "lat": 38.9316615, "type": "electric_scooter", "lon": -77.02346716666666, "bike_id": "8180f40dd504e6e934cf485d30a88e91", "rental_uris": {"android": "https://dc.lft.to/lastmile_qr_scan", "ios": "https://dc.lft.to/lastmile_qr_scan"}, "name": "8180f40dd504e6e934cf485d30a88e91", "is_reserved": 0}, {"is_disabled": 0, "fusion_lon": 0.0, "fusion_lat": 0.0, "lat": 38.892235166666666, "type": "electric_scooter", "lon": -77.02218316666666, "bike_id": "958710dc6347750647577bc5ec236eb3", "rental_uris": {"android": "https://dc.lft.to/lastmile_qr_scan", "ios": "https://dc.lft.to/lastmile_qr_scan"}, "name": "958710dc6347750647577bc5ec236eb3", "is_reserved": 0}, {"is_disabled": 0, "fusion_lon": 0.0, "fusion_lat": 0.0, "lat": 38.865079, "type": "electric_scooter", "lon": -76.99002916666667, "bike_id": "f2350aab3806135d983b4117d52b7f66", "rental_uris": {"android": "https://dc.lft.to/lastmile_qr_scan", "ios": "https://dc.lft.to/lastmile_qr_scan"}, "name": "f2350aab3806135d983b4117d52b7f66", "is_reserved": 0}, {"is_disabled": 0, "fusion_lon": 0.0, "fusion_lat": 0.0, "lat": 38.97261733333333, "type": "electric_bike", "lon": -76.99169316666666, "bike_id": "e3ac1c4c63e1a5607629e8e936e2638d", "rental_uris": {"android": "https://dc.lft.to/lastmile_qr_scan", "ios": "https://dc.lft.to/lastmile_qr_scan"}, "name": "e3ac1c4c63e1a5607629e8e936e2638d", "is_reserved": 0}, {"is_disabled": 0, "fusion_lon": 0.0, "fusion_lat": 0.0, "lat": 38.89856733333333, "type": "electric_scooter", "lon": -77.01625333333334, "bike_id": "ab06b27e3908fec7fabc2cd74458b30b", "rental_uris": {"android": "https://dc.lft.to/lastmile_qr_scan", "ios": "https://dc.lft.to/lastmile_qr_scan"}, "name": "ab06b27e3908fec7fabc2cd74458b30b", "is_reserved": 0}, {"is_disabled": 0, "fusion_lon": 0.0, "fusion_lat": 0.0, "lat": 38.91801666666667, "type": "electric_scooter", "lon": -77.03453316666666, "bike_id": "005d943b0316ec803b58dfe0a7e9e46c", "rental_uris": {"android": "https://dc.lft.to/lastmile_qr_scan", "ios": "https://dc.lft.to/lastmile_qr_scan"}, "name": "005d943b0316ec803b58dfe0a7e9e46c", "is_reserved": 0}, {"is_disabled": 0, "fusion_lon": 0.0, "fusion_lat": 0.0, "lat": 38.917555666666665, "type": "electric_scooter", "lon": -77.02787133333334, "bike_id": "00adbd00e73dfa23bbdbffc3c566575c", "rental_uris": {"android": "https://dc.lft.to/lastmile_qr_scan", "ios": "https://dc.lft.to/lastmile_qr_scan"}, "name": "00adbd00e73dfa23bbdbffc3c566575c", "is_reserved": 0}, {"is_disabled": 0, "fusion_lon": 0.0, "fusion_lat": 0.0, "lat": 38.9181895, "type": "electric_scooter", "lon": -77.03174433333334, "bike_id": "a8f1b43ff553e1ab98237f1754bcfdbb", "rental_uris": {"android": "https://dc.lft.to/lastmile_qr_scan", "ios": "https://dc.lft.to/lastmile_qr_scan"}, "name": "a8f1b43ff553e1ab98237f1754bcfdbb", "is_reserved": 0}, {"is_disabled": 0, "fusion_lon": 0.0, "fusion_lat": 0.0, "lat": 38.839332666666664, "type": "electric_bike", "lon": -77.07904633333334, "bike_id": "9bf959eb7735f158aceeec749f37bde2", "rental_uris": {"android": "https://dc.lft.to/lastmile_qr_scan", "ios": "https://dc.lft.to/lastmile_qr_scan"}, "name": "9bf959eb7735f158aceeec749f37bde2", "is_reserved": 0}, {"is_disabled": 0, "fusion_lon": 0.0, "fusion_lat": 0.0, "lat": 38.932243166666666, "type": "electric_scooter", "lon": -76.99488033333333, "bike_id": "278d7106bb89d9be37405e7288b40580", "rental_uris": {"android": "https://dc.lft.to/lastmile_qr_scan", "ios": "https://dc.lft.to/lastmile_qr_scan"}, "name": "278d7106bb89d9be37405e7288b40580", "is_reserved": 0}, {"is_disabled": 0, "fusion_lon": 0.0, "fusion_lat": 0.0, "lat": 38.812719333333334, "type": "electric_bike", "lon": -77.06176233333333, "bike_id": "84ee7897b6230717b7427e71f8b45222", "rental_uris": {"android": "https://dc.lft.to/lastmile_qr_scan", "ios": "https://dc.lft.to/lastmile_qr_scan"}, "name": "84ee7897b6230717b7427e71f8b45222", "is_reserved": 0}, {"is_disabled": 0, "fusion_lon": 0.0, "fusion_lat": 0.0, "lat": 38.897475666666665, "type": "electric_scooter", "lon": -77.0100335, "bike_id": "e44d6cf59006a4925ac8c754a8bf3155", "rental_uris": {"android": "https://dc.lft.to/lastmile_qr_scan", "ios": "https://dc.lft.to/lastmile_qr_scan"}, "name": "e44d6cf59006a4925ac8c754a8bf3155", "is_reserved": 0}, {"is_disabled": 0, "fusion_lon": 0.0, "fusion_lat": 0.0, "lat": 38.93473566666667, "type": "electric_scooter", "lon": -77.0688865, "bike_id": "f17f89aafc09d8c69a8eceefbe7a17c2", "rental_uris": {"android": "https://dc.lft.to/lastmile_qr_scan", "ios": "https://dc.lft.to/lastmile_qr_scan"}, "name": "f17f89aafc09d8c69a8eceefbe7a17c2", "is_reserved": 0}, {"is_disabled": 0, "fusion_lon": 0.0, "fusion_lat": 0.0, "lat": 38.897318166666665, "type": "electric_scooter", "lon": -77.02160016666667, "bike_id": "af44673575210374c8942d0293afebb8", "rental_uris": {"android": "https://dc.lft.to/lastmile_qr_scan", "ios": "https://dc.lft.to/lastmile_qr_scan"}, "name": "af44673575210374c8942d0293afebb8", "is_reserved": 0}, {"is_disabled": 0, "fusion_lon": 0.0, "fusion_lat": 0.0, "lat": 38.9255225, "type": "electric_scooter", "lon": -77.053031, "bike_id": "f407d1097ff486b07570d64b8a93528a", "rental_uris": {"android": "https://dc.lft.to/lastmile_qr_scan", "ios": "https://dc.lft.to/lastmile_qr_scan"}, "name": "f407d1097ff486b07570d64b8a93528a", "is_reserved": 0}, {"is_disabled": 0, "fusion_lon": 0.0, "fusion_lat": 0.0, "lat": 38.93492666666667, "type": "electric_scooter", "lon": -77.032857, "bike_id": "e587797d82d1173ecadeaef48220821d", "rental_uris": {"android": "https://dc.lft.to/lastmile_qr_scan", "ios": "https://dc.lft.to/lastmile_qr_scan"}, "name": "e587797d82d1173ecadeaef48220821d", "is_reserved": 0}, {"is_disabled": 0, "fusion_lon": 0.0, "fusion_lat": 0.0, "lat": 39.00019533333333, "type": "electric_bike", "lon": -76.872833, "bike_id": "06886ab7126e9a5bc2e4f400a0aabbe8", "rental_uris": {"android": "https://dc.lft.to/lastmile_qr_scan", "ios": "https://dc.lft.to/lastmile_qr_scan"}, "name": "06886ab7126e9a5bc2e4f400a0aabbe8", "is_reserved": 0}, {"is_disabled": 0, "fusion_lon": 0.0, "fusion_lat": 0.0, "lat": 38.9016935, "type": "electric_scooter", "lon": -77.0221, "bike_id": "043ad02486a11adfd5f0c9bb5543545a", "rental_uris": {"android": "https://dc.lft.to/lastmile_qr_scan", "ios": "https://dc.lft.to/lastmile_qr_scan"}, "name": "043ad02486a11adfd5f0c9bb5543545a", "is_reserved": 0}, {"is_disabled": 0, "fusion_lon": 0.0, "fusion_lat": 0.0, "lat": 38.9170295, "type": "electric_scooter", "lon": -77.02845566666667, "bike_id": "8d387bc9e449813fc03e68a0b88c1945", "rental_uris": {"android": "https://dc.lft.to/lastmile_qr_scan", "ios": "https://dc.lft.to/lastmile_qr_scan"}, "name": "8d387bc9e449813fc03e68a0b88c1945", "is_reserved": 0}, {"is_disabled": 0, "fusion_lon": 0.0, "fusion_lat": 0.0, "lat": 38.902587, "type": "electric_scooter", "lon": -77.06108733333333, "bike_id": "946a30078f70527d5633b228065fc090", "rental_uris": {"android": "https://dc.lft.to/lastmile_qr_scan", "ios": "https://dc.lft.to/lastmile_qr_scan"}, "name": "946a30078f70527d5633b228065fc090", "is_reserved": 0}, {"is_disabled": 0, "fusion_lon": 0.0, "fusion_lat": 0.0, "lat": 38.828723, "type": "electric_bike", "lon": -77.11220466666667, "bike_id": "71a2a704b0d43f338e47da57cb14be4c", "rental_uris": {"android": "https://dc.lft.to/lastmile_qr_scan", "ios": "https://dc.lft.to/lastmile_qr_scan"}, "name": "71a2a704b0d43f338e47da57cb14be4c", "is_reserved": 0}, {"is_disabled": 0, "fusion_lon": 0.0, "fusion_lat": 0.0, "lat": 38.915492, "type": "electric_scooter", "lon": -77.03859116666666, "bike_id": "c2e20f025dfb239d0294940d7798816b", "rental_uris": {"android": "https://dc.lft.to/lastmile_qr_scan", "ios": "https://dc.lft.to/lastmile_qr_scan"}, "name": "c2e20f025dfb239d0294940d7798816b", "is_reserved": 0}, {"is_disabled": 0, "fusion_lon": 0.0, "fusion_lat": 0.0, "lat": 38.9119245, "type": "electric_scooter", "lon": -77.04170266666667, "bike_id": "1e8b7e87630010bbc718c75d7e394387", "rental_uris": {"android": "https://dc.lft.to/lastmile_qr_scan", "ios": "https://dc.lft.to/lastmile_qr_scan"}, "name": "1e8b7e87630010bbc718c75d7e394387", "is_reserved": 0}, {"is_disabled": 0, "fusion_lon": 0.0, "fusion_lat": 0.0, "lat": 38.83814566666667, "type": "electric_scooter", "lon": -77.00429366666667, "bike_id": "19c247a1131ddd54dc0f6165973df186", "rental_uris": {"android": "https://dc.lft.to/lastmile_qr_scan", "ios": "https://dc.lft.to/lastmile_qr_scan"}, "name": "19c247a1131ddd54dc0f6165973df186", "is_reserved": 0}, {"is_disabled": 0, "fusion_lon": 0.0, "fusion_lat": 0.0, "lat": 38.894262499999996, "type": "electric_scooter", "lon": -76.91220966666667, "bike_id": "747a72b89305ca736cee86fbd123bdea", "rental_uris": {"android": "https://dc.lft.to/lastmile_qr_scan", "ios": "https://dc.lft.to/lastmile_qr_scan"}, "name": "747a72b89305ca736cee86fbd123bdea", "is_reserved": 0}, {"is_disabled": 0, "fusion_lon": 0.0, "fusion_lat": 0.0, "lat": 38.93709466666667, "type": "electric_scooter", "lon": -77.06102716666666, "bike_id": "9263b12edbfe2ab966d287ae9944bf39", "rental_uris": {"android": "https://dc.lft.to/lastmile_qr_scan", "ios": "https://dc.lft.to/lastmile_qr_scan"}, "name": "9263b12edbfe2ab966d287ae9944bf39", "is_reserved": 0}, {"is_disabled": 0, "fusion_lon": 0.0, "fusion_lat": 0.0, "lat": 38.93701633333333, "type": "electric_scooter", "lon": -77.02374266666666, "bike_id": "0a55afcb8e2d3e95dd4f7b748abeae4a", "rental_uris": {"android": "https://dc.lft.to/lastmile_qr_scan", "ios": "https://dc.lft.to/lastmile_qr_scan"}, "name": "0a55afcb8e2d3e95dd4f7b748abeae4a", "is_reserved": 0}, {"is_disabled": 0, "fusion_lon": 0.0, "fusion_lat": 0.0, "lat": 38.892242833333334, "type": "electric_scooter", "lon": -77.04356433333334, "bike_id": "60f30c862c58bc633e81bfc1f7a0ec94", "rental_uris": {"android": "https://dc.lft.to/lastmile_qr_scan", "ios": "https://dc.lft.to/lastmile_qr_scan"}, "name": "60f30c862c58bc633e81bfc1f7a0ec94", "is_reserved": 0}, {"is_disabled": 0, "fusion_lon": 0.0, "fusion_lat": 0.0, "lat": 38.89717733333333, "type": "electric_scooter", "lon": -77.00796666666666, "bike_id": "4a768f23cab5427b0fa33f290a5c4c5b", "rental_uris": {"android": "https://dc.lft.to/lastmile_qr_scan", "ios": "https://dc.lft.to/lastmile_qr_scan"}, "name": "4a768f23cab5427b0fa33f290a5c4c5b", "is_reserved": 0}, {"is_disabled": 0, "fusion_lon": 0.0, "fusion_lat": 0.0, "lat": 38.90506166666667, "type": "electric_scooter", "lon": -77.02941566666667, "bike_id": "578b124a61f95d2005036a667027e5cb", "rental_uris": {"android": "https://dc.lft.to/lastmile_qr_scan", "ios": "https://dc.lft.to/lastmile_qr_scan"}, "name": "578b124a61f95d2005036a667027e5cb", "is_reserved": 0}, {"is_disabled": 0, "fusion_lon": 0.0, "fusion_lat": 0.0, "lat": 38.926027500000004, "type": "electric_scooter", "lon": -77.021528, "bike_id": "90de39b21cd12b3882ebdd4ab916c30d", "rental_uris": {"android": "https://dc.lft.to/lastmile_qr_scan", "ios": "https://dc.lft.to/lastmile_qr_scan"}, "name": "90de39b21cd12b3882ebdd4ab916c30d", "is_reserved": 0}, {"is_disabled": 0, "fusion_lon": 0.0, "fusion_lat": 0.0, "lat": 38.92079566666666, "type": "electric_scooter", "lon": -77.01791466666667, "bike_id": "b1a3cd1d8ab13a2a123cfa6d833babc8", "rental_uris": {"android": "https://dc.lft.to/lastmile_qr_scan", "ios": "https://dc.lft.to/lastmile_qr_scan"}, "name": "b1a3cd1d8ab13a2a123cfa6d833babc8", "is_reserved": 0}, {"is_disabled": 0, "fusion_lon": 0.0, "fusion_lat": 0.0, "lat": 39.00001966666667, "type": "electric_bike", "lon": -76.91805266666667, "bike_id": "5684102971e5c9471debdf45dc6eac05", "rental_uris": {"android": "https://dc.lft.to/lastmile_qr_scan", "ios": "https://dc.lft.to/lastmile_qr_scan"}, "name": "5684102971e5c9471debdf45dc6eac05", "is_reserved": 0}, {"is_disabled": 0, "fusion_lon": 0.0, "fusion_lat": 0.0, "lat": 38.914765, "type": "electric_scooter", "lon": -77.00345683333333, "bike_id": "36e6fbe1a5f660e18633f37ce9ae1b74", "rental_uris": {"android": "https://dc.lft.to/lastmile_qr_scan", "ios": "https://dc.lft.to/lastmile_qr_scan"}, "name": "36e6fbe1a5f660e18633f37ce9ae1b74", "is_reserved": 0}, {"is_disabled": 0, "fusion_lon": 0.0, "fusion_lat": 0.0, "lat": 38.9220445, "type": "electric_scooter", "lon": -76.9969215, "bike_id": "84b7a3e4ee04c0ef0551881d66715201", "rental_uris": {"android": "https://dc.lft.to/lastmile_qr_scan", "ios": "https://dc.lft.to/lastmile_qr_scan"}, "name": "84b7a3e4ee04c0ef0551881d66715201", "is_reserved": 0}, {"is_disabled": 0, "fusion_lon": 0.0, "fusion_lat": 0.0, "lat": 38.87570266666667, "type": "electric_scooter", "lon": -77.0059945, "bike_id": "73938a15377a070bf6594618c89770bb", "rental_uris": {"android": "https://dc.lft.to/lastmile_qr_scan", "ios": "https://dc.lft.to/lastmile_qr_scan"}, "name": "73938a15377a070bf6594618c89770bb", "is_reserved": 0}, {"is_disabled": 0, "fusion_lon": 0.0, "fusion_lat": 0.0, "lat": 38.904104333333336, "type": "electric_scooter", "lon": -76.99061683333333, "bike_id": "5efa81f1716712eb5dfa48d10cf9a0a1", "rental_uris": {"android": "https://dc.lft.to/lastmile_qr_scan", "ios": "https://dc.lft.to/lastmile_qr_scan"}, "name": "5efa81f1716712eb5dfa48d10cf9a0a1", "is_reserved": 0}, {"is_disabled": 0, "fusion_lon": 0.0, "fusion_lat": 0.0, "lat": 38.91118566666667, "type": "electric_scooter", "lon": -77.02237983333333, "bike_id": "dc93ca96703c9e7881b98740e1689f7b", "rental_uris": {"android": "https://dc.lft.to/lastmile_qr_scan", "ios": "https://dc.lft.to/lastmile_qr_scan"}, "name": "dc93ca96703c9e7881b98740e1689f7b", "is_reserved": 0}, {"is_disabled": 0, "fusion_lon": 0.0, "fusion_lat": 0.0, "lat": 38.920420166666666, "type": "electric_scooter", "lon": -77.02352283333333, "bike_id": "a6db05ed5b12496a677a9c1d99bfb4a8", "rental_uris": {"android": "https://dc.lft.to/lastmile_qr_scan", "ios": "https://dc.lft.to/lastmile_qr_scan"}, "name": "a6db05ed5b12496a677a9c1d99bfb4a8", "is_reserved": 0}, {"is_disabled": 0, "fusion_lon": 0.0, "fusion_lat": 0.0, "lat": 38.901866, "type": "electric_bike", "lon": -77.02335316666667, "bike_id": "29b0e737a6fd7c2b45e374eb3c834337", "rental_uris": {"android": "https://dc.lft.to/lastmile_qr_scan", "ios": "https://dc.lft.to/lastmile_qr_scan"}, "name": "29b0e737a6fd7c2b45e374eb3c834337", "is_reserved": 0}, {"is_disabled": 0, "fusion_lon": 0.0, "fusion_lat": 0.0, "lat": 38.905447333333335, "type": "electric_scooter", "lon": -77.04897266666667, "bike_id": "67db47fe49182d71da207c09880fc233", "rental_uris": {"android": "https://dc.lft.to/lastmile_qr_scan", "ios": "https://dc.lft.to/lastmile_qr_scan"}, "name": "67db47fe49182d71da207c09880fc233", "is_reserved": 0}, {"is_disabled": 0, "fusion_lon": 0.0, "fusion_lat": 0.0, "lat": 38.941998, "type": "electric_scooter", "lon": -77.02578316666667, "bike_id": "c575f2423bb4f141910811962611cc38", "rental_uris": {"android": "https://dc.lft.to/lastmile_qr_scan", "ios": "https://dc.lft.to/lastmile_qr_scan"}, "name": "c575f2423bb4f141910811962611cc38", "is_reserved": 0}, {"is_disabled": 0, "fusion_lon": 0.0, "fusion_lat": 0.0, "lat": 38.930874833333334, "type": "electric_scooter", "lon": -77.0279235, "bike_id": "93b87951c3b1f9ca1d1817eef2e81764", "rental_uris": {"android": "https://dc.lft.to/lastmile_qr_scan", "ios": "https://dc.lft.to/lastmile_qr_scan"}, "name": "93b87951c3b1f9ca1d1817eef2e81764", "is_reserved": 0}, {"is_disabled": 0, "fusion_lon": 0.0, "fusion_lat": 0.0, "lat": 38.97676516666667, "type": "electric_bike", "lon": -76.9716575, "bike_id": "7bbe463409fe63610fa3af028d98d95b", "rental_uris": {"android": "https://dc.lft.to/lastmile_qr_scan", "ios": "https://dc.lft.to/lastmile_qr_scan"}, "name": "7bbe463409fe63610fa3af028d98d95b", "is_reserved": 0}, {"is_disabled": 0, "fusion_lon": 0.0, "fusion_lat": 0.0, "lat": 38.928574833333336, "type": "electric_scooter", "lon": -77.01409333333334, "bike_id": "387c74d9f6ba53cb1553edf1e529995f", "rental_uris": {"android": "https://dc.lft.to/lastmile_qr_scan", "ios": "https://dc.lft.to/lastmile_qr_scan"}, "name": "387c74d9f6ba53cb1553edf1e529995f", "is_reserved": 0}, {"is_disabled": 0, "fusion_lon": 0.0, "fusion_lat": 0.0, "lat": 38.892374833333335, "type": "electric_bike", "lon": -76.95221883333333, "bike_id": "ce804677507f79751adfbe914d2f906d", "rental_uris": {"android": "https://dc.lft.to/lastmile_qr_scan", "ios": "https://dc.lft.to/lastmile_qr_scan"}, "name": "ce804677507f79751adfbe914d2f906d", "is_reserved": 0}, {"is_disabled": 0, "fusion_lon": 0.0, "fusion_lat": 0.0, "lat": 38.91713166666667, "type": "electric_scooter", "lon": -77.0106985, "bike_id": "bee9b40865bc02f42c4463738de953fc", "rental_uris": {"android": "https://dc.lft.to/lastmile_qr_scan", "ios": "https://dc.lft.to/lastmile_qr_scan"}, "name": "bee9b40865bc02f42c4463738de953fc", "is_reserved": 0}, {"is_disabled": 0, "fusion_lon": 0.0, "fusion_lat": 0.0, "lat": 38.911226666666664, "type": "electric_scooter", "lon": -77.04363116666667, "bike_id": "59e355a94344a170182db65252501788", "rental_uris": {"android": "https://dc.lft.to/lastmile_qr_scan", "ios": "https://dc.lft.to/lastmile_qr_scan"}, "name": "59e355a94344a170182db65252501788", "is_reserved": 0}, {"is_disabled": 0, "fusion_lon": 0.0, "fusion_lat": 0.0, "lat": 38.8961885, "type": "electric_scooter", "lon": -77.00900666666666, "bike_id": "3cc850ad25370c5a3135f2e0f9a3eac2", "rental_uris": {"android": "https://dc.lft.to/lastmile_qr_scan", "ios": "https://dc.lft.to/lastmile_qr_scan"}, "name": "3cc850ad25370c5a3135f2e0f9a3eac2", "is_reserved": 0}, {"is_disabled": 0, "fusion_lon": 0.0, "fusion_lat": 0.0, "lat": 38.90554916666667, "type": "electric_scooter", "lon": -77.046548, "bike_id": "cad23f2a79d3c237fe5006a5624661c0", "rental_uris": {"android": "https://dc.lft.to/lastmile_qr_scan", "ios": "https://dc.lft.to/lastmile_qr_scan"}, "name": "cad23f2a79d3c237fe5006a5624661c0", "is_reserved": 0}, {"is_disabled": 0, "fusion_lon": 0.0, "fusion_lat": 0.0, "lat": 38.9259505, "type": "electric_bike", "lon": -76.88908616666667, "bike_id": "b1d99344cfd1c2be8a6cc497620a84e8", "rental_uris": {"android": "https://dc.lft.to/lastmile_qr_scan", "ios": "https://dc.lft.to/lastmile_qr_scan"}, "name": "b1d99344cfd1c2be8a6cc497620a84e8", "is_reserved": 0}, {"is_disabled": 0, "fusion_lon": 0.0, "fusion_lat": 0.0, "lat": 38.95412733333333, "type": "electric_scooter", "lon": -77.0284105, "bike_id": "79634d75656e983ac015ad8098ef7fbc", "rental_uris": {"android": "https://dc.lft.to/lastmile_qr_scan", "ios": "https://dc.lft.to/lastmile_qr_scan"}, "name": "79634d75656e983ac015ad8098ef7fbc", "is_reserved": 0}, {"is_disabled": 0, "fusion_lon": 0.0, "fusion_lat": 0.0, "lat": 38.9073945, "type": "electric_scooter", "lon": -77.0294685, "bike_id": "66dfaedaaf80328a4622e1e61b04308d", "rental_uris": {"android": "https://dc.lft.to/lastmile_qr_scan", "ios": "https://dc.lft.to/lastmile_qr_scan"}, "name": "66dfaedaaf80328a4622e1e61b04308d", "is_reserved": 0}, {"is_disabled": 0, "fusion_lon": 0.0, "fusion_lat": 0.0, "lat": 38.91797433333333, "type": "electric_scooter", "lon": -77.03172766666667, "bike_id": "9260fdacdefe54d23d8c89212d385d32", "rental_uris": {"android": "https://dc.lft.to/lastmile_qr_scan", "ios": "https://dc.lft.to/lastmile_qr_scan"}, "name": "9260fdacdefe54d23d8c89212d385d32", "is_reserved": 0}, {"is_disabled": 0, "fusion_lon": 0.0, "fusion_lat": 0.0, "lat": 38.90602166666667, "type": "electric_scooter", "lon": -77.00730833333333, "bike_id": "e0db2a7611199e30430fd223e94314ef", "rental_uris": {"android": "https://dc.lft.to/lastmile_qr_scan", "ios": "https://dc.lft.to/lastmile_qr_scan"}, "name": "e0db2a7611199e30430fd223e94314ef", "is_reserved": 0}, {"is_disabled": 0, "fusion_lon": 0.0, "fusion_lat": 0.0, "lat": 38.919936666666665, "type": "electric_scooter", "lon": -77.032722, "bike_id": "4d06bece773f6e619cb535a08dd411ce", "rental_uris": {"android": "https://dc.lft.to/lastmile_qr_scan", "ios": "https://dc.lft.to/lastmile_qr_scan"}, "name": "4d06bece773f6e619cb535a08dd411ce", "is_reserved": 0}, {"is_disabled": 0, "fusion_lon": 0.0, "fusion_lat": 0.0, "lat": 38.92818883333333, "type": "electric_scooter", "lon": -77.0363225, "bike_id": "9a39a9a47796d779b96f78b7f1140b4d", "rental_uris": {"android": "https://dc.lft.to/lastmile_qr_scan", "ios": "https://dc.lft.to/lastmile_qr_scan"}, "name": "9a39a9a47796d779b96f78b7f1140b4d", "is_reserved": 0}, {"is_disabled": 0, "fusion_lon": 0.0, "fusion_lat": 0.0, "lat": 38.933059666666665, "type": "electric_scooter", "lon": -77.02450383333333, "bike_id": "38c5bceb2a9d2f456e6b07af20052147", "rental_uris": {"android": "https://dc.lft.to/lastmile_qr_scan", "ios": "https://dc.lft.to/lastmile_qr_scan"}, "name": "38c5bceb2a9d2f456e6b07af20052147", "is_reserved": 0}, {"is_disabled": 0, "fusion_lon": 0.0, "fusion_lat": 0.0, "lat": 38.86718583333333, "type": "electric_scooter", "lon": -76.98732933333334, "bike_id": "ca4213944516d1082cc10a636eaa12bc", "rental_uris": {"android": "https://dc.lft.to/lastmile_qr_scan", "ios": "https://dc.lft.to/lastmile_qr_scan"}, "name": "ca4213944516d1082cc10a636eaa12bc", "is_reserved": 0}, {"is_disabled": 0, "fusion_lon": 0.0, "fusion_lat": 0.0, "lat": 38.9086485, "type": "electric_scooter", "lon": -77.04466883333333, "bike_id": "a8145b72cf8b7501859f3964c457f5f1", "rental_uris": {"android": "https://dc.lft.to/lastmile_qr_scan", "ios": "https://dc.lft.to/lastmile_qr_scan"}, "name": "a8145b72cf8b7501859f3964c457f5f1", "is_reserved": 0}, {"is_disabled": 0, "fusion_lon": 0.0, "fusion_lat": 0.0, "lat": 38.93089333333333, "type": "electric_scooter", "lon": -77.0278925, "bike_id": "a09d56848e028eac69635745df3cd9d6", "rental_uris": {"android": "https://dc.lft.to/lastmile_qr_scan", "ios": "https://dc.lft.to/lastmile_qr_scan"}, "name": "a09d56848e028eac69635745df3cd9d6", "is_reserved": 0}, {"is_disabled": 0, "fusion_lon": 0.0, "fusion_lat": 0.0, "lat": 38.91049733333333, "type": "electric_scooter", "lon": -77.04336733333334, "bike_id": "3c538b65bc7046e1b639e4ab9c14455d", "rental_uris": {"android": "https://dc.lft.to/lastmile_qr_scan", "ios": "https://dc.lft.to/lastmile_qr_scan"}, "name": "3c538b65bc7046e1b639e4ab9c14455d", "is_reserved": 0}, {"is_disabled": 0, "fusion_lon": 0.0, "fusion_lat": 0.0, "lat": 38.8793625, "type": "electric_bike", "lon": -77.01471316666667, "bike_id": "1fa405630dbb84ac0dc96d7839db224c", "rental_uris": {"android": "https://dc.lft.to/lastmile_qr_scan", "ios": "https://dc.lft.to/lastmile_qr_scan"}, "name": "1fa405630dbb84ac0dc96d7839db224c", "is_reserved": 0}, {"is_disabled": 0, "fusion_lon": 0.0, "fusion_lat": 0.0, "lat": 38.909711333333334, "type": "electric_scooter", "lon": -77.0217575, "bike_id": "377cc0e1d4326edb873f9d44fbb53f3f", "rental_uris": {"android": "https://dc.lft.to/lastmile_qr_scan", "ios": "https://dc.lft.to/lastmile_qr_scan"}, "name": "377cc0e1d4326edb873f9d44fbb53f3f", "is_reserved": 0}, {"is_disabled": 0, "fusion_lon": 0.0, "fusion_lat": 0.0, "lat": 38.92428366666667, "type": "electric_scooter", "lon": -77.04483316666666, "bike_id": "b7de45244f06af41b732fd27fc201ac9", "rental_uris": {"android": "https://dc.lft.to/lastmile_qr_scan", "ios": "https://dc.lft.to/lastmile_qr_scan"}, "name": "b7de45244f06af41b732fd27fc201ac9", "is_reserved": 0}, {"is_disabled": 0, "fusion_lon": 0.0, "fusion_lat": 0.0, "lat": 38.93546966666667, "type": "electric_scooter", "lon": -77.0581345, "bike_id": "616b772c64c35477e88ee06344aabca5", "rental_uris": {"android": "https://dc.lft.to/lastmile_qr_scan", "ios": "https://dc.lft.to/lastmile_qr_scan"}, "name": "616b772c64c35477e88ee06344aabca5", "is_reserved": 0}, {"is_disabled": 0, "fusion_lon": 0.0, "fusion_lat": 0.0, "lat": 38.91177033333334, "type": "electric_scooter", "lon": -77.02702216666667, "bike_id": "8347c0ab2179bd1945919f7107536595", "rental_uris": {"android": "https://dc.lft.to/lastmile_qr_scan", "ios": "https://dc.lft.to/lastmile_qr_scan"}, "name": "8347c0ab2179bd1945919f7107536595", "is_reserved": 0}, {"is_disabled": 0, "fusion_lon": 0.0, "fusion_lat": 0.0, "lat": 38.9449255, "type": "electric_bike", "lon": -76.98661066666666, "bike_id": "6413eb8dc91151e22029634a665d47cf", "rental_uris": {"android": "https://dc.lft.to/lastmile_qr_scan", "ios": "https://dc.lft.to/lastmile_qr_scan"}, "name": "6413eb8dc91151e22029634a665d47cf", "is_reserved": 0}, {"is_disabled": 0, "fusion_lon": 0.0, "fusion_lat": 0.0, "lat": 38.912675, "type": "electric_scooter", "lon": -77.04150866666667, "bike_id": "fc2eaca8277f841a299821ada3b0c4be", "rental_uris": {"android": "https://dc.lft.to/lastmile_qr_scan", "ios": "https://dc.lft.to/lastmile_qr_scan"}, "name": "fc2eaca8277f841a299821ada3b0c4be", "is_reserved": 0}, {"is_disabled": 0, "fusion_lon": 0.0, "fusion_lat": 0.0, "lat": 38.914892333333334, "type": "electric_scooter", "lon": -77.03245, "bike_id": "1271f4e66eefa33c2d869d83129085c7", "rental_uris": {"android": "https://dc.lft.to/lastmile_qr_scan", "ios": "https://dc.lft.to/lastmile_qr_scan"}, "name": "1271f4e66eefa33c2d869d83129085c7", "is_reserved": 0}, {"is_disabled": 0, "fusion_lon": 0.0, "fusion_lat": 0.0, "lat": 38.901407, "type": "electric_scooter", "lon": -77.0273265, "bike_id": "9868db78aba603aa06e78bfe4891ceb1", "rental_uris": {"android": "https://dc.lft.to/lastmile_qr_scan", "ios": "https://dc.lft.to/lastmile_qr_scan"}, "name": "9868db78aba603aa06e78bfe4891ceb1", "is_reserved": 0}, {"is_disabled": 0, "fusion_lon": 0.0, "fusion_lat": 0.0, "lat": 38.895707333333334, "type": "electric_scooter", "lon": -77.02305333333334, "bike_id": "9e72782aec5f1e2db401550490625df0", "rental_uris": {"android": "https://dc.lft.to/lastmile_qr_scan", "ios": "https://dc.lft.to/lastmile_qr_scan"}, "name": "9e72782aec5f1e2db401550490625df0", "is_reserved": 0}, {"is_disabled": 0, "fusion_lon": 0.0, "fusion_lat": 0.0, "lat": 38.8766115, "type": "electric_scooter", "lon": -77.0039335, "bike_id": "9c4df87f4ca9b294573ee05b12d0e52a", "rental_uris": {"android": "https://dc.lft.to/lastmile_qr_scan", "ios": "https://dc.lft.to/lastmile_qr_scan"}, "name": "9c4df87f4ca9b294573ee05b12d0e52a", "is_reserved": 0},