{"data": {"bikes": [{"is_disabled": 0, "is_reserved": 0, "type": "electric_bike", "lon": -77.12269533333334, "fusion_lon": 0.0, "lat": 38.897333333333336, "rental_uris": {"android": "https://dc.lft.to/lastmile_qr_scan", "ios": "https://dc.lft.to/lastmile_qr_scan"}, "fusion_lat": 0.0, "name": "7f36060bfc0623dcb71c41c071b60503", "bike_id": "7f36060bfc0623dcb71c41c071b60503"}, {"is_disabled": 0, "is_reserved": 0, "type": "electric_scooter", "lon": -77.03604233333333, "fusion_lon": 0.0, "lat": 38.9349075, "rental_uris": {"android": "https://dc.lft.to/lastmile_qr_scan", "ios": "https://dc.lft.to/lastmile_qr_scan"}, "fusion_lat": 0.0, "name": "8bd479e3dc4585d9f67c8c34e2838a8e", "bike_id": "8bd479e3dc4585d9f67c8c34e2838a8e"}, {"is_disabled": 0, "is_reserved": 0, "type": "electric_bike", "lon": -77.229394, "fusion_lon": 0.0, "lat": 38.9319, "rental_uris": {"android": "https://dc.lft.to/lastmile_qr_scan", "ios": "https://dc.lft.to/lastmile_qr_scan"}, "fusion_lat": 0.0, "name": "ba45b7fd18376fd143473d60307d22ae", "bike_id": "ba45b7fd18376fd143473d60307d22ae"}, {"is_disabled": 0, "is_reserved": 0, "type": "electric_scooter", "lon": -76.94249766666667, "fusion_lon": 0.0, "lat": 38.89680366666666, "rental_uris": {"android": "https://dc.lft.to/lastmile_qr_scan", "ios": "https://dc.lft.to/lastmile_qr_scan"}, "fusion_lat": 0.0, "name": "67014d1a97fad7b924892d228d2f21dc", "bike_id": "67014d1a97fad7b924892d228d2f21dc"}, {"is_disabled": 0, "is_reserved": 0, "type": "electric_bike", "lon": -76.91659983333334, "fusion_lon": 0.0, "lat": 38.86858483333334, "rental_uris": {"android": "https://dc.lft.to/lastmile_qr_scan", "ios": "https://dc.lft.to/lastmile_qr_scan"}, "fusion_lat": 0.0, "name": "f658a6aebe8788f943fea213904a591b", "bike_id": "f658a6aebe8788f943fea213904a591b"}, {"is_disabled": 0, "is_reserved": 0, "type": "electric_bike", "lon": -77.02916466666667, "fusion_lon": 0.0, "lat": 38.895134166666665, "rental_uris": {"android": "https://dc.lft.to/lastmile_qr_scan", "ios": "https://dc.lft.to/lastmile_qr_scan"}, "fusion_lat": 0.0, "name": "b5ca97467e36c21ddd188a76d243a633", "bike_id": "b5ca97467e36c21ddd188a76d243a633"}, {"is_disabled": 0, "is_reserved": 0, "type": "electric_scooter", "lon": -77.039512, "fusion_lon": 0.0, "lat": 38.91391266666667, "rental_uris": {"android": "https://dc.lft.to/lastmile_qr_scan", "ios": "https://dc.lft.to/lastmile_qr_scan"}, "fusion_lat": 0.0, "name": "b065867f07aba7d7a3408e91fa6fc0d7", "bike_id": "b065867f07aba7d7a3408e91fa6fc0d7"}, {"is_disabled": 0, "is_reserved": 0, "type": "electric_scooter", "lon": -77.006604, "fusion_lon": 0.0, "lat": 38.9000615, "rental_uris": {"android": "https://dc.lft.to/lastmile_qr_scan", "ios": "https://dc.lft.to/lastmile_qr_scan"}, "fusion_lat": 0.0, "name": "8334d24797b6d6f7b605e45a29fab61f", "bike_id": "8334d24797b6d6f7b605e45a29fab61f"}, {"is_disabled": 0, "is_reserved": 0, "type": "electric_scooter", "lon": -77.00564483333333, "fusion_lon": 0.0, "lat": 38.88500633333334, "rental_uris": {"android": "https://dc.lft.to/lastmile_qr_scan", "ios": "https://dc.lft.to/lastmile_qr_scan"}, "fusion_lat": 0.0, "name": "82ea8187ca0dcb4860040cbf65cf932d", "bike_id": "82ea8187ca0dcb4860040cbf65cf932d"}, {"is_disabled": 0, "is_reserved": 0, "type": "electric_scooter", "lon": -77.0431755, "fusion_lon": 0.0, "lat": 38.903798, "rental_uris": {"android": "https://dc.lft.to/lastmile_qr_scan", "ios": "https://dc.lft.to/lastmile_qr_scan"}, "fusion_lat": 0.0, "name": "de07050131eb0e439a4f58fa97518156", "bike_id": "de07050131eb0e439a4f58fa97518156"}, {"is_disabled": 0, "is_reserved": 0, "type": "electric_scooter", "lon": -77.0257255, "fusion_lon": 0.0, "lat": 38.8952335, "rental_uris": {"android": "https://dc.lft.to/lastmile_qr_scan", "ios": "https://dc.lft.to/lastmile_qr_scan"}, "fusion_lat": 0.0, "name": "eddcca8bca75f51534e38cdafee36ba6", "bike_id": "eddcca8bca75f51534e38cdafee36ba6"}, {"is_disabled": 0, "is_reserved": 0, "type": "electric_bike", "lon": -77.02922616666666, "fusion_lon": 0.0, "lat": 38.9984115, "rental_uris": {"android": "https://dc.lft.to/lastmile_qr_scan", "ios": "https://dc.lft.to/lastmile_qr_scan"}, "fusion_lat": 0.0, "name": "3901bb63eb15d3db982d2e3b2f72fce6", "bike_id": "3901bb63eb15d3db982d2e3b2f72fce6"}, {"is_disabled": 0, "is_reserved": 0, "type": "electric_scooter", "lon": -77.02227933333333, "fusion_lon": 0.0, "lat": 38.892179, "rental_uris": {"android": "https://dc.lft.to/lastmile_qr_scan", "ios": "https://dc.lft.to/lastmile_qr_scan"}, "fusion_lat": 0.0, "name": "c4901a1e528f85a91030ba8514c274b0", "bike_id": "c4901a1e528f85a91030ba8514c274b0"}, {"is_disabled": 0, "is_reserved": 0, "type": "electric_scooter", "lon": -77.01934733333333, "fusion_lon": 0.0, "lat": 38.90242933333333, "rental_uris": {"android": "https://dc.lft.to/lastmile_qr_scan", "ios": "https://dc.lft.to/lastmile_qr_scan"}, "fusion_lat": 0.0, "name": "c2524dd6fd2481928084701afbb7f4a7", "bike_id": "c2524dd6fd2481928084701afbb7f4a7"}, {"is_disabled": 0, "is_reserved": 0, "type": "electric_scooter", "lon": -77.0484665, "fusion_lon": 0.0, "lat": 38.90426166666666, "rental_uris": {"android": "https://dc.lft.to/lastmile_qr_scan", "ios": "https://dc.lft.to/lastmile_qr_scan"}, "fusion_lat": 0.0, "name": "1817b9c9a65e18d1ee12824547b3e03c", "bike_id": "1817b9c9a65e18d1ee12824547b3e03c"}, {"is_disabled": 0, "is_reserved": 0, "type": "electric_scooter", "lon": -77.04485466666667, "fusion_lon": 0.0, "lat": 38.8974405, "rental_uris": {"android": "https://dc.lft.to/lastmile_qr_scan", "ios": "https://dc.lft.to/lastmile_qr_scan"}, "fusion_lat": 0.0, "name": "fc46885364bd0bf8d349c81e82ee2d81", "bike_id": "fc46885364bd0bf8d349c81e82ee2d81"}, {"is_disabled": 0, "is_reserved": 0, "type": "electric_scooter", "lon": -76.995978, "fusion_lon": 0.0, "lat": 38.887287666666666, "rental_uris": {"android": "https://dc.lft.to/lastmile_qr_scan", "ios": "https://dc.lft.to/lastmile_qr_scan"}, "fusion_lat": 0.0, "name": "bb652af65011c440f340422a6d4383d7", "bike_id": "bb652af65011c440f340422a6d4383d7"}, {"is_disabled": 0, "is_reserved": 0, "type": "electric_scooter", "lon": -77.02959966666667, "fusion_lon": 0.0, "lat": 38.9214555, "rental_uris": {"android": "https://dc.lft.to/lastmile_qr_scan", "ios": "https://dc.lft.to/lastmile_qr_scan"}, "fusion_lat": 0.0, "name": "2b7e30e9c60556f22d92a8b9e284b350", "bike_id": "2b7e30e9c60556f22d92a8b9e284b350"}, {"is_disabled": 0, "is_reserved": 0, "type": "electric_scooter", "lon": -77.034218, "fusion_lon": 0.0, "lat": 38.91919766666667, "rental_uris": {"android": "https://dc.lft.to/lastmile_qr_scan", "ios": "https://dc.lft.to/lastmile_qr_scan"}, "fusion_lat": 0.0, "name": "5e0deb9da259fb0cde35dc4a9aceb098", "bike_id": "5e0deb9da259fb0cde35dc4a9aceb098"}, {"is_disabled": 0, "is_reserved": 0, "type": "electric_scooter", "lon": -77.02494483333334, "fusion_lon": 0.0, "lat": 38.941853333333334, "rental_uris": {"android": "https://dc.lft.to/lastmile_qr_scan", "ios": "https://dc.lft.to/lastmile_qr_scan"}, "fusion_lat": 0.0, "name": "5ee8b8a09e95ed73b79281846c4f0d47", "bike_id": "5ee8b8a09e95ed73b79281846c4f0d47"}, {"is_disabled": 0, "is_reserved": 0, "type": "electric_bike", "lon": -77.07795216666666, "fusion_lon": 0.0, "lat": 38.845142, "rental_uris": {"android": "https://dc.lft.to/lastmile_qr_scan", "ios": "https://dc.lft.to/lastmile_qr_scan"}, "fusion_lat": 0.0, "name": "84d56fb13ccbe1a4ec1adc3c3529b534", "bike_id": "84d56fb13ccbe1a4ec1adc3c3529b534"}, {"is_disabled": 0, "is_reserved": 0, "type": "electric_scooter", "lon": -77.058535, "fusion_lon": 0.0, "lat": 38.93701466666667, "rental_uris": {"android": "https://dc.lft.to/lastmile_qr_scan", "ios": "https://dc.lft.to/lastmile_qr_scan"}, "fusion_lat": 0.0, "name": "e952331bf5e3849142e2333f86d65cf7", "bike_id": "e952331bf5e3849142e2333f86d65cf7"}, {"is_disabled": 0, "is_reserved": 0, "type": "electric_scooter", "lon": -77.04630016666667, "fusion_lon": 0.0, "lat": 38.90463116666667, "rental_uris": {"android": "https://dc.lft.to/lastmile_qr_scan", "ios": "https://dc.lft.to/lastmile_qr_scan"}, "fusion_lat": 0.0, "name": "5507ba7dd5ea0e5e4e7424d74ac6db8d", "bike_id": "5507ba7dd5ea0e5e4e7424d74ac6db8d"}, {"is_disabled": 0, "is_reserved": 0, "type": "electric_scooter", "lon": -77.04167316666667, "fusion_lon": 0.0, "lat": 38.916169, "rental_uris": {"android": "https://dc.lft.to/lastmile_qr_scan", "ios": "https://dc.lft.to/lastmile_qr_scan"}, "fusion_lat": 0.0, "name": "411e1439d945933b0bad78a1a1f71bb6", "bike_id": "411e1439d945933b0bad78a1a1f71bb6"}, {"is_disabled": 0, "is_reserved": 0, "type": "electric_scooter", "lon": -76.97315216666667, "fusion_lon": 0.0, "lat": 38.9197675, "rental_uris": {"android": "https://dc.lft.to/lastmile_qr_scan", "ios": "https://dc.lft.to/lastmile_qr_scan"}, "fusion_lat": 0.0, "name": "bbaf627a58063d2522bb5e6fce78a2df", "bike_id": "bbaf627a58063d2522bb5e6fce78a2df"}, {"is_disabled": 0, "is_reserved": 0, "type": "electric_scooter", "lon": -77.07292633333333, "fusion_lon": 0.0, "lat": 38.93193216666667, "rental_uris": {"android": "https://dc.lft.to/lastmile_qr_scan", "ios": "https://dc.lft.to/lastmile_qr_scan"}, "fusion_lat": 0.0, "name": "f22dba560eafba470db83c6f220cb109", "bike_id": "f22dba560eafba470db83c6f220cb109"}, {"is_disabled": 0, "is_reserved": 0, "type": "electric_scooter", "lon": -76.97989466666667, "fusion_lon": 0.0, "lat": 38.89758783333333, "rental_uris": {"android": "https://dc.lft.to/lastmile_qr_scan", "ios": "https://dc.lft.to/lastmile_qr_scan"}, "fusion_lat": 0.0, "name": "e2089dda86bbeb6f322ef53c88b1f74c", "bike_id": "e2089dda86bbeb6f322ef53c88b1f74c"}, {"is_disabled": 0, "is_reserved": 0, "type": "electric_scooter", "lon": -77.02409616666667, "fusion_lon": 0.0, "lat": 38.9156595, "rental_uris": {"android": "https://dc.lft.to/lastmile_qr_scan", "ios": "https://dc.lft.to/lastmile_qr_scan"}, "fusion_lat": 0.0, "name": "b49073958ce7018d1e13cac48435470d", "bike_id": "b49073958ce7018d1e13cac48435470d"}, {"is_disabled": 0, "is_reserved": 0, "type": "electric_scooter", "lon": -77.02252933333334, "fusion_lon": 0.0, "lat": 38.9163035, "rental_uris": {"android": "https://dc.lft.to/lastmile_qr_scan", "ios": "https://dc.lft.to/lastmile_qr_scan"}, "fusion_lat": 0.0, "name": "98704d720653b31e489bf54232eab0f6", "bike_id": "98704d720653b31e489bf54232eab0f6"}, {"is_disabled": 0, "is_reserved": 0, "type": "electric_scooter", "lon": -77.02996383333333, "fusion_lon": 0.0, "lat": 38.92472216666667, "rental_uris": {"android": "https://dc.lft.to/lastmile_qr_scan", "ios": "https://dc.lft.to/lastmile_qr_scan"}, "fusion_lat": 0.0, "name": "ceb2e8944e6c23159829a4187345100c", "bike_id": "ceb2e8944e6c23159829a4187345100c"}, {"is_disabled": 0, "is_reserved": 0, "type": "electric_scooter", "lon": -77.02982583333333, "fusion_lon": 0.0, "lat": 38.92469766666667, "rental_uris": {"android": "https://dc.lft.to/lastmile_qr_scan", "ios": "https://dc.lft.to/lastmile_qr_scan"}, "fusion_lat": 0.0, "name": "0fe788c093cf35d467a94e01a9e45e2d", "bike_id": "0fe788c093cf35d467a94e01a9e45e2d"}, {"is_disabled": 0, "is_reserved": 0, "type": "electric_scooter", "lon": -77.04724266666666, "fusion_lon": 0.0, "lat": 38.9060415, "rental_uris": {"android": "https://dc.lft.to/lastmile_qr_scan", "ios": "https://dc.lft.to/lastmile_qr_scan"}, "fusion_lat": 0.0, "name": "5e5526e25089216c4fc08a42a44f355f", "bike_id": "5e5526e25089216c4fc08a42a44f355f"}, {"is_disabled": 0, "is_reserved": 0, "type": "electric_scooter", "lon": -76.98777233333334, "fusion_lon": 0.0, "lat": 38.911718, "rental_uris": {"android": "https://dc.lft.to/lastmile_qr_scan", "ios": "https://dc.lft.to/lastmile_qr_scan"}, "fusion_lat": 0.0, "name": "f8d4ebd8679de94f67cb721cbc42b61f", "bike_id": "f8d4ebd8679de94f67cb721cbc42b61f"}, {"is_disabled": 0, "is_reserved": 0, "type": "electric_scooter", "lon": -77.0472745, "fusion_lon": 0.0, "lat": 38.8973905, "rental_uris": {"android": "https://dc.lft.to/lastmile_qr_scan", "ios": "https://dc.lft.to/lastmile_qr_scan"}, "fusion_lat": 0.0, "name": "7223c862304a2dd3d722a4f22d32e3b5", "bike_id": "7223c862304a2dd3d722a4f22d32e3b5"}, {"is_disabled": 0, "is_reserved": 0, "type": "electric_scooter", "lon": -77.03788383333334, "fusion_lon": 0.0, "lat": 38.93027883333333, "rental_uris": {"android": "https://dc.lft.to/lastmile_qr_scan", "ios": "https://dc.lft.to/lastmile_qr_scan"}, "fusion_lat": 0.0, "name": "6d2fdc3f4407879c072a2171f1fdbfcf", "bike_id": "6d2fdc3f4407879c072a2171f1fdbfcf"}, {"is_disabled": 0, "is_reserved": 0, "type": "electric_scooter", "lon": -77.003086, "fusion_lon": 0.0, "lat": 38.8919955, "rental_uris": {"android": "https://dc.lft.to/lastmile_qr_scan", "ios": "https://dc.lft.to/lastmile_qr_scan"}, "fusion_lat": 0.0, "name": "034b665bb1dde6ddf2db2779a4b3d4eb", "bike_id": "034b665bb1dde6ddf2db2779a4b3d4eb"}, {"is_disabled": 0, "is_reserved": 0, "type": "electric_scooter", "lon": -77.03414216666667, "fusion_lon": 0.0, "lat": 38.9353915, "rental_uris": {"android": "https://dc.lft.to/lastmile_qr_scan", "ios": "https://dc.lft.to/lastmile_qr_scan"}, "fusion_lat": 0.0, "name": "e437f6488900b6100fdb18cdcc404238", "bike_id": "e437f6488900b6100fdb18cdcc404238"}, {"is_disabled": 0, "is_reserved": 0, "type": "electric_scooter", "lon": -77.03751833333334, "fusion_lon": 0.0, "lat": 38.91264916666667, "rental_uris": {"android": "https://dc.lft.to/lastmile_qr_scan", "ios": "https://dc.lft.to/lastmile_qr_scan"}, "fusion_lat": 0.0, "name": "9b38d44e757ad8f90f4b042a1da7581d", "bike_id": "9b38d44e757ad8f90f4b042a1da7581d"}, {"is_disabled": 0, "is_reserved": 0, "type": "electric_scooter", "lon": -76.94063766666666, "fusion_lon": 0.0, "lat": 38.89015466666667, "rental_uris": {"android": "https://dc.lft.to/lastmile_qr_scan", "ios": "https://dc.lft.to/lastmile_qr_scan"}, "fusion_lat": 0.0, "name": "371aa37ea18e018f7517923f6fc1ab04", "bike_id": "371aa37ea18e018f7517923f6fc1ab04"}, {"is_disabled": 0, "is_reserved": 0, "type": "electric_scooter", "lon": -77.02611016666667, "fusion_lon": 0.0, "lat": 38.916327333333335, "rental_uris": {"android": "https://dc.lft.to/lastmile_qr_scan", "ios": "https://dc.lft.to/lastmile_qr_scan"}, "fusion_lat": 0.0, "name": "01d37c28f1f7f5653ebd005bf0236af3", "bike_id": "01d37c28f1f7f5653ebd005bf0236af3"}, {"is_disabled": 0, "is_reserved": 0, "type": "electric_scooter", "lon": -77.03717483333334, "fusion_lon": 0.0, "lat": 38.9111985, "rental_uris": {"android": "https://dc.lft.to/lastmile_qr_scan", "ios": "https://dc.lft.to/lastmile_qr_scan"}, "fusion_lat": 0.0, "name": "43342033039dc16400526498a2ea54e1", "bike_id": "43342033039dc16400526498a2ea54e1"}, {"is_disabled": 0, "is_reserved": 0, "type": "electric_bike", "lon": -76.93230083333333, "fusion_lon": 0.0, "lat": 38.865929666666666, "rental_uris": {"android": "https://dc.lft.to/lastmile_qr_scan", "ios": "https://dc.lft.to/lastmile_qr_scan"}, "fusion_lat": 0.0, "name": "3c7165b1e50906f0115e96589aa41845", "bike_id": "3c7165b1e50906f0115e96589aa41845"}, {"is_disabled": 0, "is_reserved": 0, "type": "electric_scooter", "lon": -76.997018, "fusion_lon": 0.0, "lat": 38.83850283333334, "rental_uris": {"android": "https://dc.lft.to/lastmile_qr_scan", "ios": "https://dc.lft.to/lastmile_qr_scan"}, "fusion_lat": 0.0, "name": "55d6ca4bc62d1cd150a11f9124d600fd", "bike_id": "55d6ca4bc62d1cd150a11f9124d600fd"}, {"is_disabled": 0, "is_reserved": 0, "type": "electric_scooter", "lon": -76.97620616666667, "fusion_lon": 0.0, "lat": 38.931451, "rental_uris": {"android": "https://dc.lft.to/lastmile_qr_scan", "ios": "https://dc.lft.to/lastmile_qr_scan"}, "fusion_lat": 0.0, "name": "794ee2d7eb085c626d13fe3554eeaf95", "bike_id": "794ee2d7eb085c626d13fe3554eeaf95"}, {"is_disabled": 0, "is_reserved": 0, "type": "electric_bike", "lon": -77.12585, "fusion_lon": 0.0, "lat": 38.85140833333333, "rental_uris": {"android": "https://dc.lft.to/lastmile_qr_scan", "ios": "https://dc.lft.to/lastmile_qr_scan"}, "fusion_lat": 0.0, "name": "57e43fbc5b10b38b46adedcee088c707", "bike_id": "57e43fbc5b10b38b46adedcee088c707"}, {"is_disabled": 0, "is_reserved": 0, "type": "electric_scooter", "lon": -77.03194966666666, "fusion_lon": 0.0, "lat": 38.917827333333335, "rental_uris": {"android": "https://dc.lft.to/lastmile_qr_scan", "ios": "https://dc.lft.to/lastmile_qr_scan"}, "fusion_lat": 0.0, "name": "6ff38e8f7a7ef7abcb66e3502696fd17", "bike_id": "6ff38e8f7a7ef7abcb66e3502696fd17"}, {"is_disabled": 0, "is_reserved": 0, "type": "electric_scooter", "lon": -77.03668816666666, "fusion_lon": 0.0, "lat": 38.908446, "rental_uris": {"android": "https://dc.lft.to/lastmile_qr_scan", "ios": "https://dc.lft.to/lastmile_qr_scan"}, "fusion_lat": 0.0, "name": "721fb90d3696dda6efd79de7e2330910", "bike_id": "721fb90d3696dda6efd79de7e2330910"}, {"is_disabled": 0, "is_reserved": 0, "type": "electric_scooter", "lon": -77.01842133333334, "fusion_lon": 0.0, "lat": 38.922138333333336, "rental_uris": {"android": "https://dc.lft.to/lastmile_qr_scan", "ios": "https://dc.lft.to/lastmile_qr_scan"}, "fusion_lat": 0.0, "name": "b0acdc9a97120c0e6d1ae3f6c21f5cac", "bike_id": "b0acdc9a97120c0e6d1ae3f6c21f5cac"}, {"is_disabled": 0, "is_reserved": 0, "type": "electric_scooter", "lon": -77.05019666666666, "fusion_lon": 0.0, "lat": 38.900739333333334, "rental_uris": {"android": "https://dc.lft.to/lastmile_qr_scan", "ios": "https://dc.lft.to/lastmile_qr_scan"}, "fusion_lat": 0.0, "name": "b3ee7049197030261954f1627c6aab81", "bike_id": "b3ee7049197030261954f1627c6aab81"}, {"is_disabled": 0, "is_reserved": 0, "type": "electric_scooter", "lon": -76.94155733333334, "fusion_lon": 0.0, "lat": 38.88361783333333, "rental_uris": {"android": "https://dc.lft.to/lastmile_qr_scan", "ios": "https://dc.lft.to/lastmile_qr_scan"}, "fusion_lat": 0.0, "name": "223f5d52781af2bc08a4b1e6692934bd", "bike_id": "223f5d52781af2bc08a4b1e6692934bd"}, {"is_disabled": 0, "is_reserved": 0, "type": "electric_scooter", "lon": -77.031213, "fusion_lon": 0.0, "lat": 38.920127, "rental_uris": {"android": "https://dc.lft.to/lastmile_qr_scan", "ios": "https://dc.lft.to/lastmile_qr_scan"}, "fusion_lat": 0.0, "name": "749ed7fbf1812f608325dcdf7b7f9593", "bike_id": "749ed7fbf1812f608325dcdf7b7f9593"}, {"is_disabled": 0, "is_reserved": 0, "type": "electric_scooter", "lon": -77.02951483333334, "fusion_lon": 0.0, "lat": 38.9040185, "rental_uris": {"android": "https://dc.lft.to/lastmile_qr_scan", "ios": "https://dc.lft.to/lastmile_qr_scan"}, "fusion_lat": 0.0, "name": "93a51e09641165eb33b8c92ea23cb18a", "bike_id": "93a51e09641165eb33b8c92ea23cb18a"}, {"is_disabled": 0, "is_reserved": 0, "type": "electric_scooter", "lon": -77.05278016666666, "fusion_lon": 0.0, "lat": 38.92253683333333, "rental_uris": {"android": "https://dc.lft.to/lastmile_qr_scan", "ios": "https://dc.lft.to/lastmile_qr_scan"}, "fusion_lat": 0.0, "name": "e4d5b6b81561df2b04ae1c279d8abd47", "bike_id": "e4d5b6b81561df2b04ae1c279d8abd47"}, {"is_disabled": 0, "is_reserved": 0, "type": "electric_scooter", "lon": -77.04175316666667, "fusion_lon": 0.0, "lat": 38.89884416666666, "rental_uris": {"android": "https://dc.lft.to/lastmile_qr_scan", "ios": "https://dc.lft.to/lastmile_qr_scan"}, "fusion_lat": 0.0, "name": "4b3ffd37e694433d64cb508c2799786e", "bike_id": "4b3ffd37e694433d64cb508c2799786e"}, {"is_disabled": 0, "is_reserved": 0, "type": "electric_scooter", "lon": -77.05416616666666, "fusion_lon": 0.0, "lat": 38.92825233333333, "rental_uris": {"android": "https://dc.lft.to/lastmile_qr_scan", "ios": "https://dc.lft.to/lastmile_qr_scan"}, "fusion_lat": 0.0, "name": "16a17176e2c10ddb4e7f665e6115cea2", "bike_id": "16a17176e2c10ddb4e7f665e6115cea2"}, {"is_disabled": 0, "is_reserved": 0, "type": "electric_scooter", "lon": -77.01203766666667, "fusion_lon": 0.0, "lat": 38.9110795, "rental_uris": {"android": "https://dc.lft.to/lastmile_qr_scan", "ios": "https://dc.lft.to/lastmile_qr_scan"}, "fusion_lat": 0.0, "name": "f19524e94be4aebfacc49909be4b4ff1", "bike_id": "f19524e94be4aebfacc49909be4b4ff1"}, {"is_disabled": 0, "is_reserved": 0, "type": "electric_scooter", "lon": -77.03310966666666, "fusion_lon": 0.0, "lat": 38.956144, "rental_uris": {"android": "https://dc.lft.to/lastmile_qr_scan", "ios": "https://dc.lft.to/lastmile_qr_scan"}, "fusion_lat": 0.0, "name": "9e2b386c15a4264574d9a09232dcc1ec", "bike_id": "9e2b386c15a4264574d9a09232dcc1ec"}, {"is_disabled": 0, "is_reserved": 0, "type": "electric_scooter", "lon": -77.0376705, "fusion_lon": 0.0, "lat": 38.916905666666665, "rental_uris": {"android": "https://dc.lft.to/lastmile_qr_scan", "ios": "https://dc.lft.to/lastmile_qr_scan"}, "fusion_lat": 0.0, "name": "762f994fb10bcd51aae5df10f41b6d6e", "bike_id": "762f994fb10bcd51aae5df10f41b6d6e"}, {"is_disabled": 0, "is_reserved": 0, "type": "electric_scooter", "lon": -77.04423616666666, "fusion_lon": 0.0, "lat": 38.91773583333333, "rental_uris": {"android": "https://dc.lft.to/lastmile_qr_scan", "ios": "https://dc.lft.to/lastmile_qr_scan"}, "fusion_lat": 0.0, "name": "61bec6b028262589c0a6f277a887cbb5", "bike_id": "61bec6b028262589c0a6f277a887cbb5"}, {"is_disabled": 0, "is_reserved": 0, "type": "electric_bike", "lon": -77.0516985, "fusion_lon": 0.0, "lat": 38.8974985, "rental_uris": {"android": "https://dc.lft.to/lastmile_qr_scan", "ios": "https://dc.lft.to/lastmile_qr_scan"}, "fusion_lat": 0.0, "name": "bba18ba3f74a282d6640e5d200c6c210", "bike_id": "bba18ba3f74a282d6640e5d200c6c210"}, {"is_disabled": 0, "is_reserved": 0, "type": "electric_bike", "lon": -77.0060325, "fusion_lon": 0.0, "lat": 38.898175, "rental_uris": {"android": "https://dc.lft.to/lastmile_qr_scan", "ios": "https://dc.lft.to/lastmile_qr_scan"}, "fusion_lat": 0.0, "name": "0abcdef6b0d7ebd202559a50b43a7504", "bike_id": "0abcdef6b0d7ebd202559a50b43a7504"}, {"is_disabled": 0, "is_reserved": 0, "type": "electric_scooter", "lon": -77.037053, "fusion_lon": 0.0, "lat": 38.926435166666664, "rental_uris": {"android": "https://dc.lft.to/lastmile_qr_scan", "ios": "https://dc.lft.to/lastmile_qr_scan"}, "fusion_lat": 0.0, "name": "a5c1de9c5fb577fbc2db449ae8ffe95c", "bike_id": "a5c1de9c5fb577fbc2db449ae8ffe95c"}, {"is_disabled": 0, "is_reserved": 0, "type": "electric_scooter", "lon": -77.0365445, "fusion_lon": 0.0, "lat": 38.9227755, "rental_uris": {"android": "https://dc.lft.to/lastmile_qr_scan", "ios": "https://dc.lft.to/lastmile_qr_scan"}, "fusion_lat": 0.0, "name": "d8053f4c71371cdaff881643b2c7b696", "bike_id": "d8053f4c71371cdaff881643b2c7b696"}, {"is_disabled": 0, "is_reserved": 0, "type": "electric_scooter", "lon": -76.9873215, "fusion_lon": 0.0, "lat": 38.86706316666667, "rental_uris": {"android": "https://dc.lft.to/lastmile_qr_scan", "ios": "https://dc.lft.to/lastmile_qr_scan"}, "fusion_lat": 0.0, "name": "148b086820dc7553c3f627aeee3ddac6", "bike_id": "148b086820dc7553c3f627aeee3ddac6"}, {"is_disabled": 0, "is_reserved": 0, "type": "electric_scooter", "lon": -77.0446125, "fusion_lon": 0.0, "lat": 38.902327166666666, "rental_uris": {"android": "https://dc.lft.to/lastmile_qr_scan", "ios": "https://dc.lft.to/lastmile_qr_scan"}, "fusion_lat": 0.0, "name": "f90980e95bcef13d79d42fc0a51d3a84", "bike_id": "f90980e95bcef13d79d42fc0a51d3a84"}, {"is_disabled": 0, "is_reserved": 0, "type": "electric_scooter", "lon": -76.99407816666667, "fusion_lon": 0.0, "lat": 38.921592, "rental_uris": {"android": "https://dc.lft.to/lastmile_qr_scan", "ios": "https://dc.lft.to/lastmile_qr_scan"}, "fusion_lat": 0.0, "name": "7e2e8cb73401207a27c44255d92f7122", "bike_id": "7e2e8cb73401207a27c44255d92f7122"}, {"is_disabled": 0, "is_reserved": 0, "type": "electric_bike", "lon": -76.97351616666667, "fusion_lon": 0.0, "lat": 38.86553683333333, "rental_uris": {"android": "https://dc.lft.to/lastmile_qr_scan", "ios": "https://dc.lft.to/lastmile_qr_scan"}, "fusion_lat": 0.0, "name": "19bc29f505062446318d93f540046043", "bike_id": "19bc29f505062446318d93f540046043"}, {"is_disabled": 0, "is_reserved": 0, "type": "electric_scooter", "lon": -77.0614675, "fusion_lon": 0.0, "lat": 38.943629, "rental_uris": {"android": "https://dc.lft.to/lastmile_qr_scan", "ios": "https://dc.lft.to/lastmile_qr_scan"}, "fusion_lat": 0.0, "name": "83254382d4596c838e1ab3dc623e008b", "bike_id": "83254382d4596c838e1ab3dc623e008b"}, {"is_disabled": 0, "is_reserved": 0, "type": "electric_scooter", "lon": -77.00085233333333, "fusion_lon": 0.0, "lat": 38.900233, "rental_uris": {"android": "https://dc.lft.to/lastmile_qr_scan", "ios": "https://dc.lft.to/lastmile_qr_scan"}, "fusion_lat": 0.0, "name": "f2350856e76a5efd451d1685152ec399", "bike_id": "f2350856e76a5efd451d1685152ec399"}, {"is_disabled": 0, "is_reserved": 0, "type": "electric_scooter", "lon": -77.03401083333334, "fusion_lon": 0.0, "lat": 38.919630166666664, "rental_uris": {"android": "https://dc.lft.to/lastmile_qr_scan", "ios": "https://dc.lft.to/lastmile_qr_scan"}, "fusion_lat": 0.0, "name": "8cfa597b559c120195af4771804fc21a", "bike_id": "8cfa597b559c120195af4771804fc21a"}, {"is_disabled": 0, "is_reserved": 0, "type": "electric_scooter", "lon": -77.02406216666667, "fusion_lon": 0.0, "lat": 38.916788, "rental_uris": {"android": "https://dc.lft.to/lastmile_qr_scan", "ios": "https://dc.lft.to/lastmile_qr_scan"}, "fusion_lat": 0.0, "name": "54f2e9481fd7e278649e37c4756d00cf", "bike_id": "54f2e9481fd7e278649e37c4756d00cf"}, {"is_disabled": 0, "is_reserved": 0, "type": "electric_scooter", "lon": -77.029363, "fusion_lon": 0.0, "lat": 38.89804016666667, "rental_uris": {"android": "https://dc.lft.to/lastmile_qr_scan", "ios": "https://dc.lft.to/lastmile_qr_scan"}, "fusion_lat": 0.0, "name": "78060d0c037548ffe6de02d3931c2190", "bike_id": "78060d0c037548ffe6de02d3931c2190"}, {"is_disabled": 0, "is_reserved": 0, "type": "electric_bike", "lon": -77.0790205, "fusion_lon": 0.0, "lat": 38.839321, "rental_uris": {"android": "https://dc.lft.to/lastmile_qr_scan", "ios": "https://dc.lft.to/lastmile_qr_scan"}, "fusion_lat": 0.0, "name": "763cfe6fec0708dc3a8eb7fdf40f74cc", "bike_id": "763cfe6fec0708dc3a8eb7fdf40f74cc"}, {"is_disabled": 0, "is_reserved": 0, "type": "electric_scooter", "lon": -77.01011766666667, "fusion_lon": 0.0, "lat": 38.879625833333336, "rental_uris": {"android": "https://dc.lft.to/lastmile_qr_scan", "ios": "https://dc.lft.to/lastmile_qr_scan"}, "fusion_lat": 0.0, "name": "2ceb171d3cd654ece9ff308e06278dc9", "bike_id": "2ceb171d3cd654ece9ff308e06278dc9"}, {"is_disabled": 0, "is_reserved": 0, "type": "electric_bike", "lon": -77.06174516666667, "fusion_lon": 0.0, "lat": 38.81268333333333, "rental_uris": {"android": "https://dc.lft.to/lastmile_qr_scan", "ios": "https://dc.lft.to/lastmile_qr_scan"}, "fusion_lat": 0.0, "name": "f5804559ab68acc836978c9aa1da6056", "bike_id": "f5804559ab68acc836978c9aa1da6056"}, {"is_disabled": 0, "is_reserved": 0, "type": "electric_scooter", "lon": -77.008688, "fusion_lon": 0.0, "lat": 38.905719833333336, "rental_uris": {"android": "https://dc.lft.to/lastmile_qr_scan", "ios": "https://dc.lft.to/lastmile_qr_scan"}, "fusion_lat": 0.0, "name": "344c7e35b5c67a6633c22da583be6f51", "bike_id": "344c7e35b5c67a6633c22da583be6f51"}, {"is_disabled": 0, "is_reserved": 0, "type": "electric_scooter", "lon": -77.04673116666666, "fusion_lon": 0.0, "lat": 38.90736733333333, "rental_uris": {"android": "https://dc.lft.to/lastmile_qr_scan", "ios": "https://dc.lft.to/lastmile_qr_scan"}, "fusion_lat": 0.0, "name": "8dab479ce2f41bcc7435125cc68e3d6e", "bike_id": "8dab479ce2f41bcc7435125cc68e3d6e"}, {"is_disabled": 0, "is_reserved": 0, "type": "electric_scooter", "lon": -77.06532283333334, "fusion_lon": 0.0, "lat": 38.905214666666666, "rental_uris": {"android": "https://dc.lft.to/lastmile_qr_scan", "ios": "https://dc.lft.to/lastmile_qr_scan"}, "fusion_lat": 0.0, "name": "0c7f589b4b6c388618c642cbec0438b6", "bike_id": "0c7f589b4b6c388618c642cbec0438b6"}, {"is_disabled": 0, "is_reserved": 0, "type": "electric_scooter", "lon": -77.03880683333334, "fusion_lon": 0.0, "lat": 38.91268083333333, "rental_uris": {"android": "https://dc.lft.to/lastmile_qr_scan", "ios": "https://dc.lft.to/lastmile_qr_scan"}, "fusion_lat": 0.0, "name": "8015e303638d56cb5b7e1c8c534e4338", "bike_id": "8015e303638d56cb5b7e1c8c534e4338"}, {"is_disabled": 0, "is_reserved": 0, "type": "electric_bike", "lon": -77.0805645, "fusion_lon": 0.0, "lat": 38.84843016666667, "rental_uris": {"android": "https://dc.lft.to/lastmile_qr_scan", "ios": "https://dc.lft.to/lastmile_qr_scan"}, "fusion_lat": 0.0, "name": "edfdbe9d59b829818356b4d2a2810819", "bike_id": "edfdbe9d59b829818356b4d2a2810819"}, {"is_disabled": 0, "is_reserved": 0, "type": "electric_scooter", "lon": -77.03422533333334, "fusion_lon": 0.0, "lat": 38.91918183333333, "rental_uris": {"android": "https://dc.lft.to/lastmile_qr_scan", "ios": "https://dc.lft.to/lastmile_qr_scan"}, "fusion_lat": 0.0, "name": "9f716f25add706673b030597fcb8be1d", "bike_id": "9f716f25add706673b030597fcb8be1d"}, {"is_disabled": 0, "is_reserved": 0, "type": "electric_scooter", "lon": -77.03164533333333, "fusion_lon": 0.0, "lat": 38.916015, "rental_uris": {"android": "https://dc.lft.to/lastmile_qr_scan", "ios": "https://dc.lft.to/lastmile_qr_scan"}, "fusion_lat": 0.0, "name": "cf1cbc051e5b7818b5e1204faedf449d", "bike_id": "cf1cbc051e5b7818b5e1204faedf449d"}, {"is_disabled": 0, "is_reserved": 0, "type": "electric_scooter", "lon": -77.0541365, "fusion_lon": 0.0, "lat": 38.928257333333335, "rental_uris": {"android": "https://dc.lft.to/lastmile_qr_scan", "ios": "https://dc.lft.to/lastmile_qr_scan"}, "fusion_lat": 0.0, "name": "8debbaed858366ea0d1835ea00f655fb", "bike_id": "8debbaed858366ea0d1835ea00f655fb"}, {"is_disabled": 0, "is_reserved": 0, "type": "electric_scooter", "lon": -76.99820466666667, "fusion_lon": 0.0, "lat": 38.844327166666666, "rental_uris": {"android": "https://dc.lft.to/lastmile_qr_scan", "ios": "https://dc.lft.to/lastmile_qr_scan"}, "fusion_lat": 0.0, "name": "2069b0c0514b81708591fd3a76a8bb20", "bike_id": "2069b0c0514b81708591fd3a76a8bb20"}, {"is_disabled": 0, "is_reserved": 0, "type": "electric_scooter", "lon": -76.95002933333333, "fusion_lon": 0.0, "lat": 38.8939445, "rental_uris": {"android": "https://dc.lft.to/lastmile_qr_scan", "ios": "https://dc.lft.to/lastmile_qr_scan"}, "fusion_lat": 0.0, "name": "8efb547f85eb68550bc59a02cac5cfb2", "bike_id": "8efb547f85eb68550bc59a02cac5cfb2"}, {"is_disabled": 0, "is_reserved": 0, "type": "electric_bike", "lon": -76.982572, "fusion_lon": 0.0, "lat": 38.953324333333335, "rental_uris": {"android": "https://dc.lft.to/lastmile_qr_scan", "ios": "https://dc.lft.to/lastmile_qr_scan"}, "fusion_lat": 0.0, "name": "eab108cbadc15d13db8b87a125bd8dba", "bike_id": "eab108cbadc15d13db8b87a125bd8dba"}, {"is_disabled": 0, "is_reserved": 0, "type": "electric_scooter", "lon": -77.03466833333333, "fusion_lon": 0.0, "lat": 38.90979766666667, "rental_uris": {"android": "https://dc.lft.to/lastmile_qr_scan", "ios": "https://dc.lft.to/lastmile_qr_scan"}, "fusion_lat": 0.0, "name": "7a3bf281afa7e006ebcf0f513241beed", "bike_id": "7a3bf281afa7e006ebcf0f513241beed"}, {"is_disabled": 0, "is_reserved": 0, "type": "electric_scooter", "lon": -76.99497783333334, "fusion_lon": 0.0, "lat": 38.86241283333333, "rental_uris": {"android": "https://dc.lft.to/lastmile_qr_scan", "ios": "https://dc.lft.to/lastmile_qr_scan"}, "fusion_lat": 0.0, "name": "ce459e68727a8577f017dab65efb9664", "bike_id": "ce459e68727a8577f017dab65efb9664"}, {"is_disabled": 0, "is_reserved": 0, "type": "electric_scooter", "lon": -77.046598, "fusion_lon": 0.0, "lat": 38.8933795, "rental_uris": {"android": "https://dc.lft.to/lastmile_qr_scan", "ios": "https://dc.lft.to/lastmile_qr_scan"}, "fusion_lat": 0.0, "name": "dffebac012607c8ad16dfdf9e3b2769b", "bike_id": "dffebac012607c8ad16dfdf9e3b2769b"}, {"is_disabled": 0, "is_reserved": 0, "type": "electric_scooter", "lon": -77.0034055, "fusion_lon": 0.0, "lat": 38.89355283333333, "rental_uris": {"android": "https://dc.lft.to/lastmile_qr_scan", "ios": "https://dc.lft.to/lastmile_qr_scan"}, "fusion_lat": 0.0, "name": "9fd46b141b065afc6efac17ba2410f2b", "bike_id": "9fd46b141b065afc6efac17ba2410f2b"}, {"is_disabled": 0, "is_reserved": 0, "type": "electric_scooter", "lon": -77.026242, "fusion_lon": 0.0, "lat": 38.90571666666666, "rental_uris": {"android": "https://dc.lft.to/lastmile_qr_scan", "ios": "https://dc.lft.to/lastmile_qr_scan"}, "fusion_lat": 0.0, "name": "76f5e7803a03c7d61d322f1747d56e0c", "bike_id": "76f5e7803a03c7d61d322f1747d56e0c"}, {"is_disabled": 0, "is_reserved": 0, "type": "electric_scooter", "lon": -76.957522, "fusion_lon": 0.0, "lat": 38.88430266666667, "rental_uris": {"android": "https://dc.lft.to/lastmile_qr_scan", "ios": "https://dc.lft.to/lastmile_qr_scan"}, "fusion_lat": 0.0, "name": "78d55d884690a1f53a6d47542502824f", "bike_id": "78d55d884690a1f53a6d47542502824f"}, {"is_disabled": 0, "is_reserved": 0, "type": "electric_scooter", "lon": -77.0449665, "fusion_lon": 0.0, "lat": 38.90844333333333, "rental_uris": {"android": "https://dc.lft.to/lastmile_qr_scan", "ios": "https://dc.lft.to/lastmile_qr_scan"}, "fusion_lat": 0.0, "name": "613faf29b7b9ba336127fb7d7472e36f", "bike_id": "613faf29b7b9ba336127fb7d7472e36f"}, {"is_disabled": 0, "is_reserved": 0, "type": "electric_bike", "lon": -76.966874, "fusion_lon": 0.0, "lat": 38.958871, "rental_uris": {"android": "https://dc.lft.to/lastmile_qr_scan", "ios": "https://dc.lft.to/lastmile_qr_scan"}, "fusion_lat": 0.0, "name": "fc544c489b63ee18f0aa0ce7c6efe8f4", "bike_id": "fc544c489b63ee18f0aa0ce7c6efe8f4"}, {"is_disabled": 0, "is_reserved": 0, "type": "electric_scooter", "lon": -77.019876, "fusion_lon": 0.0, "lat": 38.87573116666667, "rental_uris": {"android": "https://dc.lft.to/lastmile_qr_scan", "ios": "https://dc.lft.to/lastmile_qr_scan"}, "fusion_lat": 0.0, "name": "fcfd929e5c46b68d6390c390a82e9e2b", "bike_id": "fcfd929e5c46b68d6390c390a82e9e2b"}, {"is_disabled": 0, "is_reserved": 0, "type": "electric_scooter", "lon": -77.043627, "fusion_lon": 0.0, "lat": 38.91123433333333, "rental_uris": {"android": "https://dc.lft.to/lastmile_qr_scan", "ios": "https://dc.lft.to/lastmile_qr_scan"}, "fusion_lat": 0.0, "name": "be2e580d904d1a245e302af0a7f89afd", "bike_id": "be2e580d904d1a245e302af0a7f89afd"}, {"is_disabled": 0, "is_reserved": 0, "type": "electric_scooter", "lon": -77.031827, "fusion_lon": 0.0, "lat": 38.89226433333333, "rental_uris": {"android": "https://dc.lft.to/lastmile_qr_scan", "ios": "https://dc.lft.to/lastmile_qr_scan"}, "fusion_lat": 0.0, "name": "6dd94c50e9174a88086409c17db4b257", "bike_id": "6dd94c50e9174a88086409c17db4b257"}, {"is_disabled": 0, "is_reserved": 0, "type": "electric_scooter", "lon": -77.05189666666666, "fusion_lon": 0.0, "lat": 38.925422, "rental_uris": {"android": "https://dc.lft.to/lastmile_qr_scan", "ios": "https://dc.lft.to/lastmile_qr_scan"}, "fusion_lat": 0.0, "name": "5a7e588e5d510b32c42aebd86b052772", "bike_id": "5a7e588e5d510b32c42aebd86b052772"}, {"is_disabled": 0, "is_reserved": 0, "type": "electric_scooter", "lon": -77.022245, "fusion_lon": 0.0, "lat": 38.8874255, "rental_uris": {"android": "https://dc.lft.to/lastmile_qr_scan", "ios": "https://dc.lft.to/lastmile_qr_scan"}, "fusion_lat": 0.0, "name": "e62e50e79f9bc96d196e79d67c64dd3f", "bike_id": "e62e50e79f9bc96d196e79d67c64dd3f"}, {"is_disabled": 0, "is_reserved": 0, "type": "electric_scooter", "lon": -77.010281, "fusion_lon": 0.0, "lat": 38.911128, "rental_uris": {"android": "https://dc.lft.to/lastmile_qr_scan", "ios": "https://dc.lft.to/lastmile_qr_scan"}, "fusion_lat": 0.0, "name": "380111afe9ecf59403189b690b45cd04", "bike_id": "380111afe9ecf59403189b690b45cd04"}, {"is_disabled": 0, "is_reserved": 0, "type": "electric_scooter", "lon": -77.046113, "fusion_lon": 0.0, "lat": 38.917181666666664, "rental_uris": {"android": "https://dc.lft.to/lastmile_qr_scan", "ios": "https://dc.lft.to/lastmile_qr_scan"}, "fusion_lat": 0.0, "name": "c9d58c82b5da9f3251c5b474d19fd079", "bike_id": "c9d58c82b5da9f3251c5b474d19fd079"}, {"is_disabled": 0, "is_reserved": 0, "type": "electric_bike", "lon": -77.00861283333333, "fusion_lon": 0.0, "lat": 38.82722716666667, "rental_uris": {"android": "https://dc.lft.to/lastmile_qr_scan", "ios": "https://dc.lft.to/lastmile_qr_scan"}, "fusion_lat": 0.0, "name": "510207659d484fbfa3ac070e00cf2fdd", "bike_id": "510207659d484fbfa3ac070e00cf2fdd"}, {"is_disabled": 0, "is_reserved": 0, "type": "electric_scooter", "lon": -77.04194916666667, "fusion_lon": 0.0, "lat": 38.91665316666667, "rental_uris": {"android": "https://dc.lft.to/lastmile_qr_scan", "ios": "https://dc.lft.to/lastmile_qr_scan"}, "fusion_lat": 0.0, "name": "023fbb1bf3da8c28eb1ebf956e323453", "bike_id": "023fbb1bf3da8c28eb1ebf956e323453"}, {"is_disabled": 0, "is_reserved": 0, "type": "electric_scooter", "lon": -77.029729, "fusion_lon": 0.0, "lat": 38.898280666666665, "rental_uris": {"android": "https://dc.lft.to/lastmile_qr_scan", "ios": "https://dc.lft.to/lastmile_qr_scan"}, "fusion_lat": 0.0, "name": "b799f374aaabe55ccc8f00c42056be96", "bike_id": "b799f374aaabe55ccc8f00c42056be96"}, {"is_disabled": 0, "is_reserved": 0, "type": "electric_scooter", "lon": -76.99498, "fusion_lon": 0.0, "lat": 38.86242816666667, "rental_uris": {"android": "https://dc.lft.to/lastmile_qr_scan", "ios": "https://dc.lft.to/lastmile_qr_scan"}, "fusion_lat": 0.0, "name": "2d6f82e285315bfe00dab25d0bf94ed3", "bike_id": "2d6f82e285315bfe00dab25d0bf94ed3"}, {"is_disabled": 0, "is_reserved": 0, "type": "electric_scooter", "lon": -77.02932183333333, "fusion_lon": 0.0, "lat": 38.8821555, "rental_uris": {"android": "https://dc.lft.to/lastmile_qr_scan", "ios": "https://dc.lft.to/lastmile_qr_scan"}, "fusion_lat": 0.0, "name": "a714226c9ce543f4222578e16ad02540", "bike_id": "a714226c9ce543f4222578e16ad02540"}, {"is_disabled": 0, "is_reserved": 0, "type": "electric_scooter", "lon": -77.0385285, "fusion_lon": 0.0, "lat": 38.91173933333334, "rental_uris": {"android": "https://dc.lft.to/lastmile_qr_scan", "ios": "https://dc.lft.to/lastmile_qr_scan"}, "fusion_lat": 0.0, "name": "dbda0e00ddbf8e602191c1ec28cfd924", "bike_id": "dbda0e00ddbf8e602191c1ec28cfd924"}, {"is_disabled": 0, "is_reserved": 0, "type": "electric_scooter", "lon": -77.02578333333334, "fusion_lon": 0.0, "lat": 38.884712, "rental_uris": {"android": "https://dc.lft.to/lastmile_qr_scan", "ios": "https://dc.lft.to/lastmile_qr_scan"}, "fusion_lat": 0.0, "name": "8dd08401bb56d190a7c9b174d4003dde", "bike_id": "8dd08401bb56d190a7c9b174d4003dde"}, {"is_disabled": 0, "is_reserved": 0, "type": "electric_scooter", "lon": -77.0323335, "fusion_lon": 0.0, "lat": 38.90526966666667, "rental_uris": {"android": "https://dc.lft.to/lastmile_qr_scan", "ios": "https://dc.lft.to/lastmile_qr_scan"}, "fusion_lat": 0.0, "name": "5915a64f915912d8075f68937177d815", "bike_id": "5915a64f915912d8075f68937177d815"}, {"is_disabled": 0, "is_reserved": 0, "type": "electric_scooter", "lon": -77.040003, "fusion_lon": 0.0, "lat": 38.918046833333335, "rental_uris": {"android": "https://dc.lft.to/lastmile_qr_scan", "ios": "https://dc.lft.to/lastmile_qr_scan"}, "fusion_lat": 0.0, "name": "396506ef54c437c46de54845ffe2938b", "bike_id": "396506ef54c437c46de54845ffe2938b"}, {"is_disabled": 0, "is_reserved": 0, "type": "electric_scooter", "lon": -77.05330633333334, "fusion_lon": 0.0, "lat": 38.923165, "rental_uris": {"android": "https://dc.lft.to/lastmile_qr_scan", "ios": "https://dc.lft.to/lastmile_qr_scan"}, "fusion_lat": 0.0, "name": "18c832cd74edafb9f97646e14179ed22", "bike_id": "18c832cd74edafb9f97646e14179ed22"}, {"is_disabled": 0, "is_reserved": 0, "type": "electric_scooter", "lon": -77.03817883333333, "fusion_lon": 0.0, "lat": 38.909802666666664, "rental_uris": {"android": "https://dc.lft.to/lastmile_qr_scan", "ios": "https://dc.lft.to/lastmile_qr_scan"}, "fusion_lat": 0.0, "name": "a2aca153d9fae672afd5839d1a939237", "bike_id": "a2aca153d9fae672afd5839d1a939237"}, {"is_disabled": 0, "is_reserved": 0, "type": "electric_scooter", "lon": -77.00740983333333, "fusion_lon": 0.0, "lat": 38.9119075, "rental_uris": {"android": "https://dc.lft.to/lastmile_qr_scan", "ios": "https://dc.lft.to/lastmile_qr_scan"}, "fusion_lat": 0.0, "name": "ccc4c6c33bc056d34ca50951b139f6e9", "bike_id": "ccc4c6c33bc056d34ca50951b139f6e9"}, {"is_disabled": 0, "is_reserved": 0, "type": "electric_bike", "lon": -77.04320466666667, "fusion_lon": 0.0, "lat": 38.83124433333333, "rental_uris": {"android": "https://dc.lft.to/lastmile_qr_scan", "ios": "https://dc.lft.to/lastmile_qr_scan"}, "fusion_lat": 0.0, "name": "30a1d46595e19eb27a0ab18cf19a5c55", "bike_id": "30a1d46595e19eb27a0ab18cf19a5c55"}, {"is_disabled": 0, "is_reserved": 0, "type": "electric_scooter", "lon": -77.04183666666667, "fusion_lon": 0.0, "lat": 38.89871016666667, "rental_uris": {"android": "https://dc.lft.to/lastmile_qr_scan", "ios": "https://dc.lft.to/lastmile_qr_scan"}, "fusion_lat": 0.0, "name": "8730d2e5e4001243956be75234db2bb3", "bike_id": "8730d2e5e4001243956be75234db2bb3"}, {"is_disabled": 0, "is_reserved": 0, "type": "electric_scooter", "lon": -77.04168883333334, "fusion_lon": 0.0, "lat": 38.9014925, "rental_uris": {"android": "https://dc.lft.to/lastmile_qr_scan", "ios": "https://dc.lft.to/lastmile_qr_scan"}, "fusion_lat": 0.0, "name": "277d0e3c64014254ce20f4e729b2e3a8", "bike_id": "277d0e3c64014254ce20f4e729b2e3a8"}, {"is_disabled": 0, "is_reserved": 0, "type": "electric_scooter", "lon": -76.99391566666667, "fusion_lon": 0.0, "lat": 38.92163633333333, "rental_uris": {"android": "https://dc.lft.to/lastmile_qr_scan", "ios": "https://dc.lft.to/lastmile_qr_scan"}, "fusion_lat": 0.0, "name": "db97dfc0f28248ad36fea3b3b59e14c2", "bike_id": "db97dfc0f28248ad36fea3b3b59e14c2"}, {"is_disabled": 0, "is_reserved": 0, "type": "electric_scooter", "lon": -77.02529683333333, "fusion_lon": 0.0, "lat": 38.90078533333333, "rental_uris": {"android": "https://dc.lft.to/lastmile_qr_scan", "ios": "https://dc.lft.to/lastmile_qr_scan"}, "fusion_lat": 0.0, "name": "064d44e312345cfda2f34e8e6d1ac225", "bike_id": "064d44e312345cfda2f34e8e6d1ac225"}, {"is_disabled": 0, "is_reserved": 0, "type": "electric_scooter", "lon": -77.01290416666667, "fusion_lon": 0.0, "lat": 38.89987766666667, "rental_uris": {"android": "https://dc.lft.to/lastmile_qr_scan", "ios": "https://dc.lft.to/lastmile_qr_scan"}, "fusion_lat": 0.0, "name": "818d9a02deadff6ac6710ca73d149099", "bike_id": "818d9a02deadff6ac6710ca73d149099"}, {"is_disabled": 0, "is_reserved": 0, "type": "electric_scooter", "lon": -77.01617016666667, "fusion_lon": 0.0, "lat": 38.887422666666666, "rental_uris": {"android": "https://dc.lft.to/lastmile_qr_scan", "ios": "https://dc.lft.to/lastmile_qr_scan"}, "fusion_lat": 0.0, "name": "1b9a0ede6324f88e55305f86460a93fd", "bike_id": "1b9a0ede6324f88e55305f86460a93fd"}, {"is_disabled": 0, "is_reserved": 0, "type": "electric_scooter", "lon": -77.050389, "fusion_lon": 0.0, "lat": 38.898264, "rental_uris": {"android": "https://dc.lft.to/lastmile_qr_scan", "ios": "https://dc.lft.to/lastmile_qr_scan"}, "fusion_lat": 0.0, "name": "da7599438415b10a40cc1f69add0b906", "bike_id": "da7599438415b10a40cc1f69add0b906"}, {"is_disabled": 0, "is_reserved": 0, "type": "electric_scooter", "lon": -76.98115733333333, "fusion_lon": 0.0, "lat": 38.89604533333333, "rental_uris": {"android": "https://dc.lft.to/lastmile_qr_scan", "ios": "https://dc.lft.to/lastmile_qr_scan"}, "fusion_lat": 0.0, "name": "942a8a070a4fdf9106d0718c4cf89b97", "bike_id": "942a8a070a4fdf9106d0718c4cf89b97"}, {"is_disabled": 0, "is_reserved": 0, "type": "electric_scooter", "lon": -77.01393616666667, "fusion_lon": 0.0, "lat": 38.880281833333335, "rental_uris": {"android": "https://dc.lft.to/lastmile_qr_scan", "ios": "https://dc.lft.to/lastmile_qr_scan"}, "fusion_lat": 0.0, "name": "c782f18aedd9798b73da0e462647fd0f", "bike_id": "c782f18aedd9798b73da0e462647fd0f"}, {"is_disabled": 0, "is_reserved": 0, "type": "electric_scooter", "lon": -77.02807866666667, "fusion_lon": 0.0, "lat": 38.9167975, "rental_uris": {"android": "https://dc.lft.to/lastmile_qr_scan", "ios": "https://dc.lft.to/lastmile_qr_scan"}, "fusion_lat": 0.0, "name": "94d8a3b747e33d8340c2611addbe7853", "bike_id": "94d8a3b747e33d8340c2611addbe7853"}, {"is_disabled": 0, "is_reserved": 0, "type": "electric_scooter", "lon": -77.028051, "fusion_lon": 0.0, "lat": 38.90738283333334, "rental_uris": {"android": "https://dc.lft.to/lastmile_qr_scan", "ios": "https://dc.lft.to/lastmile_qr_scan"}, "fusion_lat": 0.0, "name": "f3baa638a4884282c8b62fcb2dfbaf96", "bike_id": "f3baa638a4884282c8b62fcb2dfbaf96"}, {"is_disabled": 0, "is_reserved": 0, "type": "electric_scooter", "lon": -77.07084683333333, "fusion_lon": 0.0, "lat": 38.939041833333334, "rental_uris": {"android": "https://dc.lft.to/lastmile_qr_scan", "ios": "https://dc.lft.to/lastmile_qr_scan"}, "fusion_lat": 0.0, "name": "eb2dc8c0594fe4402caf345259b83f0b", "bike_id": "eb2dc8c0594fe4402caf345259b83f0b"}, {"is_disabled": 0, "is_reserved": 0, "type": "electric_scooter", "lon": -77.01681733333334, "fusion_lon": 0.0, "lat": 38.8832425, "rental_uris": {"android": "https://dc.lft.to/lastmile_qr_scan", "ios": "https://dc.lft.to/lastmile_qr_scan"}, "fusion_lat": 0.0, "name": "0517c673015f81a4aee7b2da0458561b", "bike_id": "0517c673015f81a4aee7b2da0458561b"}, {"is_disabled": 0, "is_reserved": 0, "type": "electric_scooter", "lon": -76.99619133333333, "fusion_lon": 0.0, "lat": 38.86463416666667, "rental_uris": {"android": "https://dc.lft.to/lastmile_qr_scan", "ios": "https://dc.lft.to/lastmile_qr_scan"}, "fusion_lat": 0.0, "name": "89630037530c9ed85e9313c804401796", "bike_id": "89630037530c9ed85e9313c804401796"}, {"is_disabled": 0, "is_reserved": 0, "type": "electric_scooter", "lon": -77.03629583333333, "fusion_lon": 0.0, "lat": 38.93681483333334, "rental_uris": {"android": "https://dc.lft.to/lastmile_qr_scan", "ios": "https://dc.lft.to/lastmile_qr_scan"}, "fusion_lat": 0.0, "name": "b0e24b40661e59fc063acd595b39d488", "bike_id": "b0e24b40661e59fc063acd595b39d488"}, {"is_disabled": 0, "is_reserved": 0, "type": "electric_scooter", "lon": -77.03468533333333, "fusion_lon": 0.0, "lat": 38.9048385, "rental_uris": {"android": "https://dc.lft.to/lastmile_qr_scan", "ios": "https://dc.lft.to/lastmile_qr_scan"}, "fusion_lat": 0.0, "name": "3b7d34281a1b4322a06efdcbece9039e", "bike_id": "3b7d34281a1b4322a06efdcbece9039e"}, {"is_disabled": 0, "is_reserved": 0, "type": "electric_scooter", "lon": -76.99505266666667, "fusion_lon": 0.0, "lat": 38.88579266666667, "rental_uris": {"android": "https://dc.lft.to/lastmile_qr_scan", "ios": "https://dc.lft.to/lastmile_qr_scan"}, "fusion_lat": 0.0, "name": "df2c0ca113346cc8aa268d6eb2228ee1", "bike_id": "df2c0ca113346cc8aa268d6eb2228ee1"}, {"is_disabled": 0, "is_reserved": 0, "type": "electric_bike", "lon": -77.026682, "fusion_lon": 0.0, "lat": 38.981561, "rental_uris": {"android": "https://dc.lft.to/lastmile_qr_scan", "ios": "https://dc.lft.to/lastmile_qr_scan"}, "fusion_lat": 0.0, "name": "d34cf29ff5bfdde6b60bc0c4c4f46393", "bike_id": "d34cf29ff5bfdde6b60bc0c4c4f46393"}, {"is_disabled": 0, "is_reserved": 0, "type": "electric_scooter", "lon": -77.02318066666666, "fusion_lon": 0.0, "lat": 38.909288833333335, "rental_uris": {"android": "https://dc.lft.to/lastmile_qr_scan", "ios": "https://dc.lft.to/lastmile_qr_scan"}, "fusion_lat": 0.0, "name": "6690ab6f219185615c470a8fbf77e53e", "bike_id": "6690ab6f219185615c470a8fbf77e53e"}, {"is_disabled": 0, "is_reserved": 0, "type": "electric_scooter", "lon": -77.012473, "fusion_lon": 0.0, "lat": 38.93110733333333, "rental_uris": {"android": "https://dc.lft.to/lastmile_qr_scan", "ios": "https://dc.lft.to/lastmile_qr_scan"}, "fusion_lat": 0.0, "name": "e990e350a412b6742d64aa01b6a2efed", "bike_id": "e990e350a412b6742d64aa01b6a2efed"}, {"is_disabled": 0, "is_reserved": 0, "type": "electric_scooter", "lon": -77.03944916666667, "fusion_lon": 0.0, "lat": 38.90817883333333, "rental_uris": {"android": "https://dc.lft.to/lastmile_qr_scan", "ios": "https://dc.lft.to/lastmile_qr_scan"}, "fusion_lat": 0.0, "name": "8a6b48692e0d52f17737414cb36ec7cc", "bike_id": "8a6b48692e0d52f17737414cb36ec7cc"}, {"is_disabled": 0, "is_reserved": 0, "type": "electric_scooter", "lon": -77.03112666666667, "fusion_lon": 0.0, "lat": 38.93673233333333, "rental_uris": {"android": "https://dc.lft.to/lastmile_qr_scan", "ios": "https://dc.lft.to/lastmile_qr_scan"}, "fusion_lat": 0.0, "name": "7da7efe710b8f3f729ed9f67c160e927", "bike_id": "7da7efe710b8f3f729ed9f67c160e927"}, {"is_disabled": 0, "is_reserved": 0, "type": "electric_scooter", "lon": -77.04129483333334, "fusion_lon": 0.0, "lat": 38.92136516666667, "rental_uris": {"android": "https://dc.lft.to/lastmile_qr_scan", "ios": "https://dc.lft.to/lastmile_qr_scan"}, "fusion_lat": 0.0, "name": "d93802b71007c8ca763bfa0a3b1b494b", "bike_id": "d93802b71007c8ca763bfa0a3b1b494b"}, {"is_disabled": 0, "is_reserved": 0, "type": "electric_scooter", "lon": -77.02364933333334, "fusion_lon": 0.0, "lat": 38.930861166666666, "rental_uris": {"android": "https://dc.lft.to/lastmile_qr_scan", "ios": "https://dc.lft.to/lastmile_qr_scan"}, "fusion_lat": 0.0, "name": "a31cbda4fe8d8b1da762b7b31824e5af", "bike_id": "a31cbda4fe8d8b1da762b7b31824e5af"}, {"is_disabled": 0, "is_reserved": 0, "type": "electric_scooter", "lon": -77.007369, "fusion_lon": 0.0, "lat": 38.90767066666667, "rental_uris": {"android": "https://dc.lft.to/lastmile_qr_scan", "ios": "https://dc.lft.to/lastmile_qr_scan"}, "fusion_lat": 0.0, "name": "bea34e674de689aa853b4d52671c27da", "bike_id": "bea34e674de689aa853b4d52671c27da"}, {"is_disabled": 0, "is_reserved": 0, "type": "electric_bike", "lon": -77.10651516666667, "fusion_lon": 0.0, "lat": 39.02999366666667, "rental_uris": {"android": "https://dc.lft.to/lastmile_qr_scan", "ios": "https://dc.lft.to/lastmile_qr_scan"}, "fusion_lat": 0.0, "name": "9b5cd2df627b979375d98d9379af88ce", "bike_id": "9b5cd2df627b979375d98d9379af88ce"}, {"is_disabled": 0, "is_reserved": 0, "type": "electric_scooter", "lon": -77.024841, "fusion_lon": 0.0, "lat": 38.9375615, "rental_uris": {"android": "https://dc.lft.to/lastmile_qr_scan", "ios": "https://dc.lft.to/lastmile_qr_scan"}, "fusion_lat": 0.0, "name": "a74c3bf5f308016fbe6a182d2e99b0b9", "bike_id": "a74c3bf5f308016fbe6a182d2e99b0b9"}, {"is_disabled": 0, "is_reserved": 0, "type": "electric_scooter", "lon": -77.044029, "fusion_lon": 0.0, "lat": 38.92948333333333, "rental_uris": {"android": "https://dc.lft.to/lastmile_qr_scan", "ios": "https://dc.lft.to/lastmile_qr_scan"}, "fusion_lat": 0.0, "name": "b47eca265c1a8a98774d4b7e5dfca99e", "bike_id": "b47eca265c1a8a98774d4b7e5dfca99e"}, {"is_disabled": 0, "is_reserved": 0, "type": "electric_scooter", "lon": -77.02050733333333, "fusion_lon": 0.0, "lat": 38.95871866666667, "rental_uris": {"android": "https://dc.lft.to/lastmile_qr_scan", "ios": "https://dc.lft.to/lastmile_qr_scan"}, "fusion_lat": 0.0, "name": "075907de649cd15b706aea798e912d89", "bike_id": "075907de649cd15b706aea798e912d89"}, {"is_disabled": 0, "is_reserved": 0, "type": "electric_scooter", "lon": -76.99058766666667, "fusion_lon": 0.0, "lat": 38.86362533333333, "rental_uris": {"android": "https://dc.lft.to/lastmile_qr_scan", "ios": "https://dc.lft.to/lastmile_qr_scan"}, "fusion_lat": 0.0, "name": "b784cc6b1b81285e179068b6382f9ab6", "bike_id": "b784cc6b1b81285e179068b6382f9ab6"}, {"is_disabled": 0, "is_reserved": 0, "type": "electric_scooter", "lon": -76.99055083333333, "fusion_lon": 0.0, "lat": 38.85896616666667, "rental_uris": {"android": "https://dc.lft.to/lastmile_qr_scan", "ios": "https://dc.lft.to/lastmile_qr_scan"}, "fusion_lat": 0.0, "name": "26c8b3f2dd8c801121cfd970ab14e40c", "bike_id": "26c8b3f2dd8c801121cfd970ab14e40c"}, {"is_disabled": 0, "is_reserved": 0, "type": "electric_scooter", "lon": -77.03849516666666, "fusion_lon": 0.0, "lat": 38.90306666666667, "rental_uris": {"android": "https://dc.lft.to/lastmile_qr_scan", "ios": "https://dc.lft.to/lastmile_qr_scan"}, "fusion_lat": 0.0, "name": "25f7fa0df318389a7a14337d4f1ab670", "bike_id": "25f7fa0df318389a7a14337d4f1ab670"}, {"is_disabled": 0, "is_reserved": 0, "type": "electric_scooter", "lon": -76.9830325, "fusion_lon": 0.0, "lat": 38.86885483333333, "rental_uris": {"android": "https://dc.lft.to/lastmile_qr_scan", "ios": "https://dc.lft.to/lastmile_qr_scan"}, "fusion_lat": 0.0, "name": "42e643b1533df2cb0b2acdcdb159bd8a", "bike_id": "42e643b1533df2cb0b2acdcdb159bd8a"}, {"is_disabled": 0, "is_reserved": 0, "type": "electric_bike", "lon": -76.9546825, "fusion_lon": 0.0, "lat": 38.93567433333333, "rental_uris": {"android": "https://dc.lft.to/lastmile_qr_scan", "ios": "https://dc.lft.to/lastmile_qr_scan"}, "fusion_lat": 0.0, "name": "c0a117a8882ef960414c793736640cd6", "bike_id": "c0a117a8882ef960414c793736640cd6"}, {"is_disabled": 0, "is_reserved": 0, "type": "electric_scooter", "lon": -77.00492983333334, "fusion_lon": 0.0, "lat": 38.8968825, "rental_uris": {"android": "https://dc.lft.to/lastmile_qr_scan", "ios": "https://dc.lft.to/lastmile_qr_scan"}, "fusion_lat": 0.0, "name": "f18df16dfc9f6b700269e45cd151eccf", "bike_id": "f18df16dfc9f6b700269e45cd151eccf"}, {"is_disabled": 0, "is_reserved": 0, "type": "electric_scooter", "lon": -77.02832633333334, "fusion_lon": 0.0, "lat": 38.898248333333335, "rental_uris": {"android": "https://dc.lft.to/lastmile_qr_scan", "ios": "https://dc.lft.to/lastmile_qr_scan"}, "fusion_lat": 0.0, "name": "834de0717eb86246c77180ace73fb69a", "bike_id": "834de0717eb86246c77180ace73fb69a"}, {"is_disabled": 0, "is_reserved": 0, "type": "electric_scooter", "lon": -76.94912066666667, "fusion_lon": 0.0, "lat": 38.894868833333334, "rental_uris": {"android": "https://dc.lft.to/lastmile_qr_scan", "ios": "https://dc.lft.to/lastmile_qr_scan"}, "fusion_lat": 0.0, "name": "2a36084b05217513d7986b7be5acc17c", "bike_id": "2a36084b05217513d7986b7be5acc17c"}, {"is_disabled": 0, "is_reserved": 0, "type": "electric_scooter", "lon": -76.99006833333334, "fusion_lon": 0.0, "lat": 38.86507616666667, "rental_uris": {"android": "https://dc.lft.to/lastmile_qr_scan", "ios": "https://dc.lft.to/lastmile_qr_scan"}, "fusion_lat": 0.0, "name": "1cc5464c2eed2de035044b10291b4851", "bike_id": "1cc5464c2eed2de035044b10291b4851"}, {"is_disabled": 0, "is_reserved": 0, "type": "electric_scooter", "lon": -77.0347845, "fusion_lon": 0.0, "lat": 38.9072285, "rental_uris": {"android": "https://dc.lft.to/lastmile_qr_scan", "ios": "https://dc.lft.to/lastmile_qr_scan"}, "fusion_lat": 0.0, "name": "eff1df71a2b91acf8ddc2f28fe149b5f", "bike_id": "eff1df71a2b91acf8ddc2f28fe149b5f"}, {"is_disabled": 0, "is_reserved": 0, "type": "electric_scooter", "lon": -77.01996133333333, "fusion_lon": 0.0, "lat": 38.96637183333333, "rental_uris": {"android": "https://dc.lft.to/lastmile_qr_scan", "ios": "https://dc.lft.to/lastmile_qr_scan"}, "fusion_lat": 0.0, "name": "0c133928f880df858577a6f2f2ee012e", "bike_id": "0c133928f880df858577a6f2f2ee012e"}, {"is_disabled": 0, "is_reserved": 0, "type": "electric_scooter", "lon": -77.0419065, "fusion_lon": 0.0, "lat": 38.908112, "rental_uris": {"android": "https://dc.lft.to/lastmile_qr_scan", "ios": "https://dc.lft.to/lastmile_qr_scan"}, "fusion_lat": 0.0, "name": "471bf6f64e6d77608443ce8d7aaeb752", "bike_id": "471bf6f64e6d77608443ce8d7aaeb752"}, {"is_disabled": 0, "is_reserved": 0, "type": "electric_scooter", "lon": -77.03187366666667, "fusion_lon": 0.0, "lat": 38.93308533333333, "rental_uris": {"android": "https://dc.lft.to/lastmile_qr_scan", "ios": "https://dc.lft.to/lastmile_qr_scan"}, "fusion_lat": 0.0, "name": "13f98c80607634a6ba6838a97122b81b", "bike_id": "13f98c80607634a6ba6838a97122b81b"}, {"is_disabled": 0, "is_reserved": 0, "type": "electric_scooter", "lon": -76.99079616666667, "fusion_lon": 0.0, "lat": 38.86044066666667, "rental_uris": {"android": "https://dc.lft.to/lastmile_qr_scan", "ios": "https://dc.lft.to/lastmile_qr_scan"}, "fusion_lat": 0.0, "name": "19737104e9542b1cc4dd14265050edec", "bike_id": "19737104e9542b1cc4dd14265050edec"}, {"is_disabled": 0, "is_reserved": 0, "type": "electric_scooter", "lon": -77.02577583333333, "fusion_lon": 0.0, "lat": 38.892194833333335, "rental_uris": {"android": "https://dc.lft.to/lastmile_qr_scan", "ios": "https://dc.lft.to/lastmile_qr_scan"}, "fusion_lat": 0.0, "name": "e267f4503853001da1217dc194f19ca2", "bike_id": "e267f4503853001da1217dc194f19ca2"}, {"is_disabled": 0, "is_reserved": 0, "type": "electric_scooter", "lon": -77.026588, "fusion_lon": 0.0, "lat": 38.91695, "rental_uris": {"android": "https://dc.lft.to/lastmile_qr_scan", "ios": "https://dc.lft.to/lastmile_qr_scan"}, "fusion_lat": 0.0, "name": "4289fa1ce5745a08a21f973cd0ec5717", "bike_id": "4289fa1ce5745a08a21f973cd0ec5717"}, {"is_disabled": 0, "is_reserved": 0, "type": "electric_scooter", "lon": -77.032104, "fusion_lon": 0.0, "lat": 38.9013735, "rental_uris": {"android": "https://dc.lft.to/lastmile_qr_scan", "ios": "https://dc.lft.to/lastmile_qr_scan"}, "fusion_lat": 0.0, "name": "3f14a3d28430f5cbd071a8075b66411d", "bike_id": "3f14a3d28430f5cbd071a8075b66411d"}, {"is_disabled": 0, "is_reserved": 0, "type": "electric_scooter", "lon": -77.0467635, "fusion_lon": 0.0, "lat": 38.892221, "rental_uris": {"android": "https://dc.lft.to/lastmile_qr_scan", "ios": "https://dc.lft.to/lastmile_qr_scan"}, "fusion_lat": 0.0, "name": "c1be37a095cff4d9d880d81bc41a094e", "bike_id": "c1be37a095cff4d9d880d81bc41a094e"}, {"is_disabled": 0, "is_reserved": 0, "type": "electric_scooter", "lon": -77.03661683333333, "fusion_lon": 0.0, "lat": 38.9170905, "rental_uris": {"android": "https://dc.lft.to/lastmile_qr_scan", "ios": "https://dc.lft.to/lastmile_qr_scan"}, "fusion_lat": 0.0, "name": "ad9197f63801c3fcdf758bfb7182adb4", "bike_id": "ad9197f63801c3fcdf758bfb7182adb4"}, {"is_disabled": 0, "is_reserved": 0, "type": "electric_scooter", "lon": -76.98812666666667, "fusion_lon": 0.0, "lat": 38.9001185, "rental_uris": {"android": "https://dc.lft.to/lastmile_qr_scan", "ios": "https://dc.lft.to/lastmile_qr_scan"}, "fusion_lat": 0.0, "name": "4f48858aad698457afea073be36abda0", "bike_id": "4f48858aad698457afea073be36abda0"}, {"is_disabled": 0, "is_reserved": 0, "type": "electric_scooter", "lon": -77.03190833333333, "fusion_lon": 0.0, "lat": 38.910340166666664, "rental_uris": {"android": "https://dc.lft.to/lastmile_qr_scan", "ios": "https://dc.lft.to/lastmile_qr_scan"}, "fusion_lat": 0.0, "name": "ab4bd87cb797be6dda3472e2baa1fe77", "bike_id": "ab4bd87cb797be6dda3472e2baa1fe77"}, {"is_disabled": 0, "is_reserved": 0, "type": "electric_scooter", "lon": -77.05399283333334, "fusion_lon": 0.0, "lat": 38.9054595, "rental_uris": {"android": "https://dc.lft.to/lastmile_qr_scan", "ios": "https://dc.lft.to/lastmile_qr_scan"}, "fusion_lat": 0.0, "name": "8dd47313ae3fb27f1cae479debde827a", "bike_id": "8dd47313ae3fb27f1cae479debde827a"}, {"is_disabled": 0, "is_reserved": 0, "type": "electric_bike", "lon": -77.03647583333333, "fusion_lon": 0.0, "lat": 38.90732833333333, "rental_uris": {"android": "https://dc.lft.to/lastmile_qr_scan", "ios": "https://dc.lft.to/lastmile_qr_scan"}, "fusion_lat": 0.0, "name": "704705e68ef1980024b207bd4f4ed76e", "bike_id": "704705e68ef1980024b207bd4f4ed76e"}, {"is_disabled": 0, "is_reserved": 0, "type": "electric_scooter", "lon": -77.03947466666666, "fusion_lon": 0.0, "lat": 38.9096805, "rental_uris": {"android": "https://dc.lft.to/lastmile_qr_scan", "ios": "https://dc.lft.to/lastmile_qr_scan"}, "fusion_lat": 0.0, "name": "b5776e902993b4a263376b40c8f3bb08", "bike_id": "b5776e902993b4a263376b40c8f3bb08"}, {"is_disabled": 0, "is_reserved": 0, "type": "electric_scooter", "lon": -77.02386883333334, "fusion_lon": 0.0, "lat": 38.88729133333333, "rental_uris": {"android": "https://dc.lft.to/lastmile_qr_scan", "ios": "https://dc.lft.to/lastmile_qr_scan"}, "fusion_lat": 0.0, "name": "b9e415fe563e906dfdab61870e3dbb83", "bike_id": "b9e415fe563e906dfdab61870e3dbb83"}, {"is_disabled": 0, "is_reserved": 0, "type": "electric_scooter", "lon": -77.0500605, "fusion_lon": 0.0, "lat": 38.893625166666666, "rental_uris": {"android": "https://dc.lft.to/lastmile_qr_scan", "ios": "https://dc.lft.to/lastmile_qr_scan"}, "fusion_lat": 0.0, "name": "6ac6f54da8b7cc31842217b9fca038b0", "bike_id": "6ac6f54da8b7cc31842217b9fca038b0"}, {"is_disabled": 0, "is_reserved": 0, "type": "electric_scooter", "lon": -76.99366016666667, "fusion_lon": 0.0, "lat": 38.923990333333336, "rental_uris": {"android": "https://dc.lft.to/lastmile_qr_scan", "ios": "https://dc.lft.to/lastmile_qr_scan"}, "fusion_lat": 0.0, "name": "d4f29911937b944e528794da1dfa9e43", "bike_id": "d4f29911937b944e528794da1dfa9e43"}, {"is_disabled": 0, "is_reserved": 0, "type": "electric_scooter", "lon": -77.04718583333333, "fusion_lon": 0.0, "lat": 38.90588566666667, "rental_uris": {"android": "https://dc.lft.to/lastmile_qr_scan", "ios": "https://dc.lft.to/lastmile_qr_scan"}, "fusion_lat": 0.0, "name": "bf22d751e04741cf00830ff784c36b15", "bike_id": "bf22d751e04741cf00830ff784c36b15"}, {"is_disabled": 0, "is_reserved": 0, "type": "electric_scooter", "lon": -77.03832183333333, "fusion_lon": 0.0, "lat": 38.9111075, "rental_uris": {"android": "https://dc.lft.to/lastmile_qr_scan", "ios": "https://dc.lft.to/lastmile_qr_scan"}, "fusion_lat": 0.0, "name": "8f0224fbbb938213c8b0f0dc57c1c786", "bike_id": "8f0224fbbb938213c8b0f0dc57c1c786"}, {"is_disabled": 0, "is_reserved": 0, "type": "electric_scooter", "lon": -77.02417366666667, "fusion_lon": 0.0, "lat": 38.91255866666667, "rental_uris": {"android": "https://dc.lft.to/lastmile_qr_scan", "ios": "https://dc.lft.to/lastmile_qr_scan"}, "fusion_lat": 0.0, "name": "8b3d75b54c6f3044e35a33c815a1640d", "bike_id": "8b3d75b54c6f3044e35a33c815a1640d"}, {"is_disabled": 0, "is_reserved": 0, "type": "electric_scooter", "lon": -77.04095883333333, "fusion_lon": 0.0, "lat": 38.89905666666667, "rental_uris": {"android": "https://dc.lft.to/lastmile_qr_scan", "ios": "https://dc.lft.to/lastmile_qr_scan"}, "fusion_lat": 0.0, "name": "99aa7bd33df41a171e4be2cccc5f2494", "bike_id": "99aa7bd33df41a171e4be2cccc5f2494"}, {"is_disabled": 0, "is_reserved": 0, "type": "electric_scooter", "lon": -77.025823, "fusion_lon": 0.0, "lat": 38.942091166666664, "rental_uris": {"android": "https://dc.lft.to/lastmile_qr_scan", "ios": "https://dc.lft.to/lastmile_qr_scan"}, "fusion_lat": 0.0, "name": "83159bc070ab9bb8f0bb907ed209d3d5", "bike_id": "83159bc070ab9bb8f0bb907ed209d3d5"}, {"is_disabled": 0, "is_reserved": 0, "type": "electric_scooter", "lon": -77.043437, "fusion_lon": 0.0, "lat": 38.908399833333334, "rental_uris": {"android": "https://dc.lft.to/lastmile_qr_scan", "ios": "https://dc.lft.to/lastmile_qr_scan"}, "fusion_lat": 0.0, "name": "b00bac0914c981d7c7a1bb1f2a088f34", "bike_id": "b00bac0914c981d7c7a1bb1f2a088f34"}, {"is_disabled": 0, "is_reserved": 0, "type": "electric_bike", "lon": -76.96369383333334, "fusion_lon": 0.0, "lat": 38.94893883333334, "rental_uris": {"android": "https://dc.lft.to/lastmile_qr_scan", "ios": "https://dc.lft.to/lastmile_qr_scan"}, "fusion_lat": 0.0, "name": "b3a5360e04be3f95c104e00249d4b9e7", "bike_id": "b3a5360e04be3f95c104e00249d4b9e7"}, {"is_disabled": 0, "is_reserved": 0, "type": "electric_scooter", "lon": -77.04159116666666, "fusion_lon": 0.0, "lat": 38.917425333333334, "rental_uris": {"android": "https://dc.lft.to/lastmile_qr_scan", "ios": "https://dc.lft.to/lastmile_qr_scan"}, "fusion_lat": 0.0, "name": "c040e8c21d43ddb896afdbbcfde2b909", "bike_id": "c040e8c21d43ddb896afdbbcfde2b909"}, {"is_disabled": 0, "is_reserved": 0, "type": "electric_scooter", "lon": -77.0316835, "fusion_lon": 0.0, "lat": 38.900121, "rental_uris": {"android": "https://dc.lft.to/lastmile_qr_scan", "ios": "https://dc.lft.to/lastmile_qr_scan"}, "fusion_lat": 0.0, "name": "e2f5b7d0626a9f31aa46050869a98a19", "bike_id": "e2f5b7d0626a9f31aa46050869a98a19"}, {"is_disabled": 0, "is_reserved": 0, "type": "electric_scooter", "lon": -76.98992566666666, "fusion_lon": 0.0, "lat": 38.86432633333333, "rental_uris": {"android": "https://dc.lft.to/lastmile_qr_scan", "ios": "https://dc.lft.to/lastmile_qr_scan"}, "fusion_lat": 0.0, "name": "5918732297c5d30aea00aaedda9a47ae", "bike_id": "5918732297c5d30aea00aaedda9a47ae"}, {"is_disabled": 0, "is_reserved": 0, "type": "electric_bike", "lon": -77.0284365, "fusion_lon": 0.0, "lat": 38.99391133333334, "rental_uris": {"android": "https://dc.lft.to/lastmile_qr_scan", "ios": "https://dc.lft.to/lastmile_qr_scan"}, "fusion_lat": 0.0, "name": "715f41deb65bbaf754cf16fdef2c324a", "bike_id": "715f41deb65bbaf754cf16fdef2c324a"}, {"is_disabled": 0, "is_reserved": 0, "type": "electric_scooter", "lon": -77.028386, "fusion_lon": 0.0, "lat": 38.9223385, "rental_uris": {"android": "https://dc.lft.to/lastmile_qr_scan", "ios": "https://dc.lft.to/lastmile_qr_scan"}, "fusion_lat": 0.0, "name": "088f15215f21ab37fa9f16434ccb2ed9", "bike_id": "088f15215f21ab37fa9f16434ccb2ed9"}, {"is_disabled": 0, "is_reserved": 0, "type": "electric_scooter", "lon": -77.0269265, "fusion_lon": 0.0, "lat": 38.93635283333333, "rental_uris": {"android": "https://dc.lft.to/lastmile_qr_scan", "ios": "https://dc.lft.to/lastmile_qr_scan"}, "fusion_lat": 0.0, "name": "47c4d3a6b250dd7ff3549fa0912cfa97", "bike_id": "47c4d3a6b250dd7ff3549fa0912cfa97"}, {"is_disabled": 0, "is_reserved": 0, "type": "electric_scooter", "lon": -76.946356, "fusion_lon": 0.0, "lat": 38.8984265, "rental_uris": {"android": "https://dc.lft.to/lastmile_qr_scan", "ios": "https://dc.lft.to/lastmile_qr_scan"}, "fusion_lat": 0.0, "name": "1240620b2778541273f631c278473308", "bike_id": "1240620b2778541273f631c278473308"}, {"is_disabled": 0, "is_reserved": 0, "type": "electric_scooter", "lon": -77.0441615, "fusion_lon": 0.0, "lat": 38.894009833333335, "rental_uris": {"android": "https://dc.lft.to/lastmile_qr_scan", "ios": "https://dc.lft.to/lastmile_qr_scan"}, "fusion_lat": 0.0, "name": "297eada03b76a03150950b4c20a290fa", "bike_id": "297eada03b76a03150950b4c20a290fa"}, {"is_disabled": 0, "is_reserved": 0, "type": "electric_scooter", "lon": -77.04358116666667, "fusion_lon": 0.0, "lat": 38.904842, "rental_uris": {"android": "https://dc.lft.to/lastmile_qr_scan", "ios": "https://dc.lft.to/lastmile_qr_scan"}, "fusion_lat": 0.0, "name": "40dc5b66d67d6ea23b2ea87e11dcb32c", "bike_id": "40dc5b66d67d6ea23b2ea87e11dcb32c"}, {"is_disabled": 0, "is_reserved": 0, "type": "electric_scooter", "lon": -77.04934833333333, "fusion_lon": 0.0, "lat": 38.90713016666667, "rental_uris": {"android": "https://dc.lft.to/lastmile_qr_scan", "ios": "https://dc.lft.to/lastmile_qr_scan"}, "fusion_lat": 0.0, "name": "edfb0260cddff2fdfd6cf1658f0999ad", "bike_id": "edfb0260cddff2fdfd6cf1658f0999ad"}, {"is_disabled": 0, "is_reserved": 0, "type": "electric_scooter", "lon": -77.0725525, "fusion_lon": 0.0, "lat": 38.907808, "rental_uris": {"android": "https://dc.lft.to/lastmile_qr_scan", "ios": "https://dc.lft.to/lastmile_qr_scan"}, "fusion_lat": 0.0, "name": "865370b01d97e8e80fc69397a8c83533", "bike_id": "865370b01d97e8e80fc69397a8c83533"}, {"is_disabled": 0, "is_reserved": 0, "type": "electric_scooter", "lon": -77.0287955, "fusion_lon": 0.0, "lat": 38.90129783333333, "rental_uris": {"android": "https://dc.lft.to/lastmile_qr_scan", "ios": "https://dc.lft.to/lastmile_qr_scan"}, "fusion_lat": 0.0, "name": "1e8733ed857f5ae4637623ef3b308971", "bike_id": "1e8733ed857f5ae4637623ef3b308971"}, {"is_disabled": 0, "is_reserved": 0, "type": "electric_scooter", "lon": -76.965279, "fusion_lon": 0.0, "lat": 38.876278666666664, "rental_uris": {"android": "https://dc.lft.to/lastmile_qr_scan", "ios": "https://dc.lft.to/lastmile_qr_scan"}, "fusion_lat": 0.0, "name": "4686b9e1dbafc5e0bd05bf2b6fb69bd2", "bike_id": "4686b9e1dbafc5e0bd05bf2b6fb69bd2"}, {"is_disabled": 0, "is_reserved": 0, "type": "electric_scooter", "lon": -76.99955216666666, "fusion_lon": 0.0, "lat": 38.90866833333333, "rental_uris": {"android": "https://dc.lft.to/lastmile_qr_scan", "ios": "https://dc.lft.to/lastmile_qr_scan"}, "fusion_lat": 0.0, "name": "142001f7fa4ba4c7640ac5c80f5ba082", "bike_id": "142001f7fa4ba4c7640ac5c80f5ba082"}, {"is_disabled": 0, "is_reserved": 0, "type": "electric_scooter", "lon": -77.0013595, "fusion_lon": 0.0, "lat": 38.873772, "rental_uris": {"android": "https://dc.lft.to/lastmile_qr_scan", "ios": "https://dc.lft.to/lastmile_qr_scan"}, "fusion_lat": 0.0, "name": "0b0ae4c74d4477c4429a6b9d787ea49e", "bike_id": "0b0ae4c74d4477c4429a6b9d787ea49e"}, {"is_disabled": 0, "is_reserved": 0, "type": "electric_scooter", "lon": -77.019237, "fusion_lon": 0.0, "lat": 38.90234433333333, "rental_uris": {"android": "https://dc.lft.to/lastmile_qr_scan", "ios": "https://dc.lft.to/lastmile_qr_scan"}, "fusion_lat": 0.0, "name": "4b9c29279ac193fefe0f2fbd51e2ec36", "bike_id": "4b9c29279ac193fefe0f2fbd51e2ec36"}, {"is_disabled": 0, "is_reserved": 0, "type": "electric_scooter", "lon": -77.02198583333333, "fusion_lon": 0.0, "lat": 38.91020833333333, "rental_uris": {"android": "https://dc.lft.to/lastmile_qr_scan", "ios": "https://dc.lft.to/lastmile_qr_scan"}, "fusion_lat": 0.0, "name": "4c5739a5b2076971055aead268a7cf54", "bike_id": "4c5739a5b2076971055aead268a7cf54"}, {"is_disabled": 0, "is_reserved": 0, "type": "electric_scooter", "lon": -77.03380316666667, "fusion_lon": 0.0, "lat": 38.921597, "rental_uris": {"android": "https://dc.lft.to/lastmile_qr_scan", "ios": "https://dc.lft.to/lastmile_qr_scan"}, "fusion_lat": 0.0, "name": "f2206061449e0e51dd4f5ad6b8f99aa2", "bike_id": "f2206061449e0e51dd4f5ad6b8f99aa2"}, {"is_disabled": 0, "is_reserved": 0, "type": "electric_bike", "lon": -77.0067535, "fusion_lon": 0.0, "lat": 38.9450925, "rental_uris": {"android": "https://dc.lft.to/lastmile_qr_scan", "ios": "https://dc.lft.to/lastmile_qr_scan"}, "fusion_lat": 0.0, "name": "125a039e1ebcb1041e8bf478ede49145", "bike_id": "125a039e1ebcb1041e8bf478ede49145"}, {"is_disabled": 0, "is_reserved": 0, "type": "electric_scooter", "lon": -77.0270145, "fusion_lon": 0.0, "lat": 38.94983383333334, "rental_uris": {"android": "https://dc.lft.to/lastmile_qr_scan", "ios": "https://dc.lft.to/lastmile_qr_scan"}, "fusion_lat": 0.0, "name": "b0fadc76a6ee6ec8ee6d5f945a69ed11", "bike_id": "b0fadc76a6ee6ec8ee6d5f945a69ed11"}, {"is_disabled": 0, "is_reserved": 0, "type": "electric_scooter", "lon": -77.02803366666667, "fusion_lon": 0.0, "lat": 38.96213133333333, "rental_uris": {"android": "https://dc.lft.to/lastmile_qr_scan", "ios": "https://dc.lft.to/lastmile_qr_scan"}, "fusion_lat": 0.0, "name": "e1379d9f7f0695f3fe33bb5d4a53a75f", "bike_id": "e1379d9f7f0695f3fe33bb5d4a53a75f"}, {"is_disabled": 0, "is_reserved": 0, "type": "electric_scooter", "lon": -77.04243466666667, "fusion_lon": 0.0, "lat": 38.9222125, "rental_uris": {"android": "https://dc.lft.to/lastmile_qr_scan", "ios": "https://dc.lft.to/lastmile_qr_scan"}, "fusion_lat": 0.0, "name": "aa2f2a0489e97314dcc3f3db43cd2f25", "bike_id": "aa2f2a0489e97314dcc3f3db43cd2f25"}, {"is_disabled": 0, "is_reserved": 0, "type": "electric_scooter", "lon": -77.03633466666666, "fusion_lon": 0.0, "lat": 38.9304485, "rental_uris": {"android": "https://dc.lft.to/lastmile_qr_scan", "ios": "https://dc.lft.to/lastmile_qr_scan"}, "fusion_lat": 0.0, "name": "3a5ef2c25a57ec3c7e43346c15cb58d5", "bike_id": "3a5ef2c25a57ec3c7e43346c15cb58d5"}, {"is_disabled": 0, "is_reserved": 0, "type": "electric_scooter", "lon": -76.94287433333334, "fusion_lon": 0.0, "lat": 38.88302783333334, "rental_uris": {"android": "https://dc.lft.to/lastmile_qr_scan", "ios": "https://dc.lft.to/lastmile_qr_scan"}, "fusion_lat": 0.0, "name": "87753b9ef400398f7e1374504e54bd80", "bike_id": "87753b9ef400398f7e1374504e54bd80"}, {"is_disabled": 0, "is_reserved": 0, "type": "electric_bike", "lon": -77.073776, "fusion_lon": 0.0, "lat": 38.9616785, "rental_uris": {"android": "https://dc.lft.to/lastmile_qr_scan", "ios": "https://dc.lft.to/lastmile_qr_scan"}, "fusion_lat": 0.0, "name": "4c4b472222eda9eaf1e840a9af444d79", "bike_id": "4c4b472222eda9eaf1e840a9af444d79"}, {"is_disabled": 0, "is_reserved": 0, "type": "electric_scooter", "lon": -77.012094, "fusion_lon": 0.0, "lat": 38.918234166666664, "rental_uris": {"android": "https://dc.lft.to/lastmile_qr_scan", "ios": "https://dc.lft.to/lastmile_qr_scan"}, "fusion_lat": 0.0, "name": "af6887443286146dd2d32aea96e2eced", "bike_id": "af6887443286146dd2d32aea96e2eced"}, {"is_disabled": 0, "is_reserved": 0, "type": "electric_scooter", "lon": -77.04643333333334, "fusion_lon": 0.0, "lat": 38.893428666666665, "rental_uris": {"android": "https://dc.lft.to/lastmile_qr_scan", "ios": "https://dc.lft.to/lastmile_qr_scan"}, "fusion_lat": 0.0, "name": "8a76988afbfc5b883b2b13ffb3f0a632", "bike_id": "8a76988afbfc5b883b2b13ffb3f0a632"}, {"is_disabled": 0, "is_reserved": 0, "type": "electric_scooter", "lon": -77.03180483333334, "fusion_lon": 0.0, "lat": 38.91924566666667, "rental_uris": {"android": "https://dc.lft.to/lastmile_qr_scan", "ios": "https://dc.lft.to/lastmile_qr_scan"}, "fusion_lat": 0.0, "name": "c5dc908c0502f132d8303b8a811574df", "bike_id": "c5dc908c0502f132d8303b8a811574df"}, {"is_disabled": 0, "is_reserved": 0, "type": "electric_scooter", "lon": -77.07684333333333, "fusion_lon": 0.0, "lat": 38.92171166666667, "rental_uris": {"android": "https://dc.lft.to/lastmile_qr_scan", "ios": "https://dc.lft.to/lastmile_qr_scan"}, "fusion_lat": 0.0, "name": "f28718d679d7291e8f9010bad38695be", "bike_id": "f28718d679d7291e8f9010bad38695be"}, {"is_disabled": 0, "is_reserved": 0, "type": "electric_scooter", "lon": -77.006205, "fusion_lon": 0.0, "lat": 38.871933166666665, "rental_uris": {"android": "https://dc.lft.to/lastmile_qr_scan", "ios": "https://dc.lft.to/lastmile_qr_scan"}, "fusion_lat": 0.0, "name": "862c6dd558ec7c4e9b72fa1e38605778", "bike_id": "862c6dd558ec7c4e9b72fa1e38605778"}, {"is_disabled": 0, "is_reserved": 0, "type": "electric_scooter", "lon": -77.03201516666667, "fusion_lon": 0.0, "lat": 38.91466333333334, "rental_uris": {"android": "https://dc.lft.to/lastmile_qr_scan", "ios": "https://dc.lft.to/lastmile_qr_scan"}, "fusion_lat": 0.0, "name": "b6673a89afc96d493bd72c4f4217ffd1", "bike_id": "b6673a89afc96d493bd72c4f4217ffd1"}, {"is_disabled": 0, "is_reserved": 0, "type": "electric_scooter", "lon": -77.04203866666667, "fusion_lon": 0.0, "lat": 38.911244333333336, "rental_uris": {"android": "https://dc.lft.to/lastmile_qr_scan", "ios": "https://dc.lft.to/lastmile_qr_scan"}, "fusion_lat": 0.0, "name": "dbff09b3a76c30f1561d1f535df28620", "bike_id": "dbff09b3a76c30f1561d1f535df28620"}, {"is_disabled": 0, "is_reserved": 0, "type": "electric_scooter", "lon": -77.0318045, "fusion_lon": 0.0, "lat": 38.897912, "rental_uris": {"android": "https://dc.lft.to/lastmile_qr_scan", "ios": "https://dc.lft.to/lastmile_qr_scan"}, "fusion_lat": 0.0, "name": "4ce85f8daa49304289328459e64aff0f", "bike_id": "4ce85f8daa49304289328459e64aff0f"}, {"is_disabled": 0, "is_reserved": 0, "type": "electric_scooter", "lon": -76.99179283333334, "fusion_lon": 0.0, "lat": 38.889102, "rental_uris": {"android": "https://dc.lft.to/lastmile_qr_scan", "ios": "https://dc.lft.to/lastmile_qr_scan"}, "fusion_lat": 0.0, "name": "7c505e4a35a362a1bc2f7263be4b6431", "bike_id": "7c505e4a35a362a1bc2f7263be4b6431"}, {"is_disabled": 0, "is_reserved": 0, "type": "electric_scooter", "lon": -77.02025133333333, "fusion_lon": 0.0, "lat": 38.89470383333333, "rental_uris": {"android": "https://dc.lft.to/lastmile_qr_scan", "ios": "https://dc.lft.to/lastmile_qr_scan"}, "fusion_lat": 0.0, "name": "85878a873635cc3a43fd84468b853803", "bike_id": "85878a873635cc3a43fd84468b853803"}, {"is_disabled": 0, "is_reserved": 0, "type": "electric_bike", "lon": -77.07685983333333, "fusion_lon": 0.0, "lat": 38.83190333333334, "rental_uris": {"android": "https://dc.lft.to/lastmile_qr_scan", "ios": "https://dc.lft.to/lastmile_qr_scan"}, "fusion_lat": 0.0, "name": "5258e29770baf72c51a44a8fc07197fc", "bike_id": "5258e29770baf72c51a44a8fc07197fc"}, {"is_disabled": 0, "is_reserved": 0, "type": "electric_scooter", "lon": -77.01097833333333, "fusion_lon": 0.0, "lat": 38.90555966666667, "rental_uris": {"android": "https://dc.lft.to/lastmile_qr_scan", "ios": "https://dc.lft.to/lastmile_qr_scan"}, "fusion_lat": 0.0, "name": "69e4881adeddf8412f6865e5035f776f", "bike_id": "69e4881adeddf8412f6865e5035f776f"}, {"is_disabled": 0, "is_reserved": 0, "type": "electric_bike", "lon": -77.1226445, "fusion_lon": 0.0, "lat": 38.88771083333334, "rental_uris": {"android": "https://dc.lft.to/lastmile_qr_scan", "ios": "https://dc.lft.to/lastmile_qr_scan"}, "fusion_lat": 0.0, "name": "fc8acf906b5e046661ff191afbcc3690", "bike_id": "fc8acf906b5e046661ff191afbcc3690"}, {"is_disabled": 0, "is_reserved": 0, "type": "electric_bike", "lon": -76.9354625, "fusion_lon": 0.0, "lat": 38.9555605, "rental_uris": {"android": "https://dc.lft.to/lastmile_qr_scan", "ios": "https://dc.lft.to/lastmile_qr_scan"}, "fusion_lat": 0.0, "name": "9c7a42ecc17022ca56caf74d2639f6ab", "bike_id": "9c7a42ecc17022ca56caf74d2639f6ab"}, {"is_disabled": 0, "is_reserved": 0, "type": "electric_scooter", "lon": -77.03344216666666, "fusion_lon": 0.0, "lat": 38.89249733333333, "rental_uris": {"android": "https://dc.lft.to/lastmile_qr_scan", "ios": "https://dc.lft.to/lastmile_qr_scan"}, "fusion_lat": 0.0, "name": "7cc8a3a42338c00643b9fc742b107f73", "bike_id": "7cc8a3a42338c00643b9fc742b107f73"}, {"is_disabled": 0, "is_reserved": 0, "type": "electric_bike", "lon": -77.11221016666667, "fusion_lon": 0.0, "lat": 38.82874483333333, "rental_uris": {"android": "https://dc.lft.to/lastmile_qr_scan", "ios": "https://dc.lft.to/lastmile_qr_scan"}, "fusion_lat": 0.0, "name": "201d65d2bbda1126b086b838a469eeea", "bike_id": "201d65d2bbda1126b086b838a469eeea"}, {"is_disabled": 0, "is_reserved": 0, "type": "electric_scooter", "lon": -77.03473866666667, "fusion_lon": 0.0, "lat": 38.905677833333336, "rental_uris": {"android": "https://dc.lft.to/lastmile_qr_scan", "ios": "https://dc.lft.to/lastmile_qr_scan"}, "fusion_lat": 0.0, "name": "3a8467adc2742cef6be7f31ba46df252", "bike_id": "3a8467adc2742cef6be7f31ba46df252"}, {"is_disabled": 0, "is_reserved": 0, "type": "electric_scooter", "lon": -77.04681183333334, "fusion_lon": 0.0, "lat": 38.897302333333336, "rental_uris": {"android": "https://dc.lft.to/lastmile_qr_scan", "ios": "https://dc.lft.to/lastmile_qr_scan"}, "fusion_lat": 0.0, "name": "2ecc28e6a41c36a80cd9a8ca8fcc6696", "bike_id": "2ecc28e6a41c36a80cd9a8ca8fcc6696"}, {"is_disabled": 0, "is_reserved": 0, "type": "electric_scooter", "lon": -77.02227333333333, "fusion_lon": 0.0, "lat": 38.91268, "rental_uris": {"android": "https://dc.lft.to/lastmile_qr_scan", "ios": "https://dc.lft.to/lastmile_qr_scan"}, "fusion_lat": 0.0, "name": "db8db34745ae411cb2ed969d2fb01932", "bike_id": "db8db34745ae411cb2ed969d2fb01932"}, {"is_disabled": 0, "is_reserved": 0, "type": "electric_scooter", "lon": -77.048634, "fusion_lon": 0.0, "lat": 38.91338983333333, "rental_uris": {"android": "https://dc.lft.to/lastmile_qr_scan", "ios": "https://dc.lft.to/lastmile_qr_scan"}, "fusion_lat": 0.0, "name": "80ceede587bba1f4fac9864c51cdbae2", "bike_id": "80ceede587bba1f4fac9864c51cdbae2"}, {"is_disabled": 0, "is_reserved": 0, "type": "electric_bike", "lon": -76.90761166666667, "fusion_lon": 0.0, "lat": 38.92428316666667, "rental_uris": {"android": "https://dc.lft.to/lastmile_qr_scan", "ios": "https://dc.lft.to/lastmile_qr_scan"}, "fusion_lat": 0.0, "name": "b1e2edb3e2d848615664134af51fe69b", "bike_id": "b1e2edb3e2d848615664134af51fe69b"}, {"is_disabled": 0, "is_reserved": 0, "type": "electric_scooter", "lon": -77.0248005, "fusion_lon": 0.0, "lat": 38.93877233333333, "rental_uris": {"android": "https://dc.lft.to/lastmile_qr_scan", "ios": "https://dc.lft.to/lastmile_qr_scan"}, "fusion_lat": 0.0, "name": "4cb1f898d26f3943ed7e152d5e19ebee", "bike_id": "4cb1f898d26f3943ed7e152d5e19ebee"}, {"is_disabled": 0, "is_reserved": 0, "type": "electric_scooter", "lon": -77.05113316666667, "fusion_lon": 0.0, "lat": 38.923617666666665, "rental_uris": {"android": "https://dc.lft.to/lastmile_qr_scan", "ios": "https://dc.lft.to/lastmile_qr_scan"}, "fusion_lat": 0.0, "name": "a6eaa989a3d3c61bdc8cf1c63ab9646a", "bike_id": "a6eaa989a3d3c61bdc8cf1c63ab9646a"}, {"is_disabled": 0, "is_reserved": 0, "type": "electric_scooter", "lon": -77.03167133333334, "fusion_lon": 0.0, "lat": 38.92027983333333, "rental_uris": {"android": "https://dc.lft.to/lastmile_qr_scan", "ios": "https://dc.lft.to/lastmile_qr_scan"}, "fusion_lat": 0.0, "name": "7f6570ceb379a8d298491a21f9cdf022", "bike_id": "7f6570ceb379a8d298491a21f9cdf022"}, {"is_disabled": 0, "is_reserved": 0, "type": "electric_scooter", "lon": -77.05042483333334, "fusion_lon": 0.0, "lat": 38.92355333333333, "rental_uris": {"android": "https://dc.lft.to/lastmile_qr_scan", "ios": "https://dc.lft.to/lastmile_qr_scan"}, "fusion_lat": 0.0, "name": "6a3a73fb488efcbcceae3a32a421d359", "bike_id": "6a3a73fb488efcbcceae3a32a421d359"}, {"is_disabled": 0, "is_reserved": 0, "type": "electric_scooter", "lon": -77.0325115, "fusion_lon": 0.0, "lat": 38.914792, "rental_uris": {"android": "https://dc.lft.to/lastmile_qr_scan", "ios": "https://dc.lft.to/lastmile_qr_scan"}, "fusion_lat": 0.0, "name": "d2a1a0c2b799666fc276159440993d66", "bike_id": "d2a1a0c2b799666fc276159440993d66"}, {"is_disabled": 0, "is_reserved": 0, "type": "electric_scooter", "lon": -77.04866966666667, "fusion_lon": 0.0, "lat": 38.8922135, "rental_uris": {"android": "https://dc.lft.to/lastmile_qr_scan", "ios": "https://dc.lft.to/lastmile_qr_scan"}, "fusion_lat": 0.0, "name": "b2ac12a3f474b1127afd41955ec69e53", "bike_id": "b2ac12a3f474b1127afd41955ec69e53"}, {"is_disabled": 0, "is_reserved": 0, "type": "electric_scooter", "lon": -77.04133983333334, "fusion_lon": 0.0, "lat": 38.899384166666664, "rental_uris": {"android": "https://dc.lft.to/lastmile_qr_scan", "ios": "https://dc.lft.to/lastmile_qr_scan"}, "fusion_lat": 0.0, "name": "c08793ccc8ecc528c72c2580d5950f95", "bike_id": "c08793ccc8ecc528c72c2580d5950f95"}, {"is_disabled": 0, "is_reserved": 0, "type": "electric_scooter", "lon": -77.03577583333333, "fusion_lon": 0.0, "lat": 38.9076235, "rental_uris": {"android": "https://dc.lft.to/lastmile_qr_scan", "ios": "https://dc.lft.to/lastmile_qr_scan"}, "fusion_lat": 0.0, "name": "70195efa9c28f2bb84944a39c754870c", "bike_id": "70195efa9c28f2bb84944a39c754870c"}, {"is_disabled": 0, "is_reserved": 0, "type": "electric_scooter", "lon": -77.02224916666667, "fusion_lon": 0.0, "lat": 38.9354955, "rental_uris": {"android": "https://dc.lft.to/lastmile_qr_scan", "ios": "https://dc.lft.to/lastmile_qr_scan"}, "fusion_lat": 0.0, "name": "f45ecaf142e860e3e644c2f2cc8d8ce7", "bike_id": "f45ecaf142e860e3e644c2f2cc8d8ce7"}, {"is_disabled": 0, "is_reserved": 0, "type": "electric_scooter", "lon": -77.031656, "fusion_lon": 0.0, "lat": 38.88585366666667, "rental_uris": {"android": "https://dc.lft.to/lastmile_qr_scan", "ios": "https://dc.lft.to/lastmile_qr_scan"}, "fusion_lat": 0.0, "name": "daddaea6c0cbae243b1aca9c712680f1", "bike_id": "daddaea6c0cbae243b1aca9c712680f1"}, {"is_disabled": 0, "is_reserved": 0, "type": "electric_scooter", "lon": -77.04683183333333, "fusion_lon": 0.0, "lat": 38.915833, "rental_uris": {"android": "https://dc.lft.to/lastmile_qr_scan", "ios": "https://dc.lft.to/lastmile_qr_scan"}, "fusion_lat": 0.0, "name": "fd0f638af8b60089c8b7db81a21f0fe0", "bike_id": "fd0f638af8b60089c8b7db81a21f0fe0"}, {"is_disabled": 0, "is_reserved": 0, "type": "electric_scooter", "lon": -77.03524416666667, "fusion_lon": 0.0, "lat": 38.92288416666667, "rental_uris": {"android": "https://dc.lft.to/lastmile_qr_scan", "ios": "https://dc.lft.to/lastmile_qr_scan"}, "fusion_lat": 0.0, "name": "999c7f14d343d942fe07e75f62735ee2", "bike_id": "999c7f14d343d942fe07e75f62735ee2"}, {"is_disabled": 0, "is_reserved": 0, "type": "electric_scooter", "lon": -77.01756883333333, "fusion_lon": 0.0, "lat": 38.88335466666667, "rental_uris": {"android": "https://dc.lft.to/lastmile_qr_scan", "ios": "https://dc.lft.to/lastmile_qr_scan"}, "fusion_lat": 0.0, "name": "b7cffe1748e4d1ae1979de28393c88d1", "bike_id": "b7cffe1748e4d1ae1979de28393c88d1"}, {"is_disabled": 0, "is_reserved": 0, "type": "electric_scooter", "lon": -76.97544533333334, "fusion_lon": 0.0, "lat": 38.914112, "rental_uris": {"android": "https://dc.lft.to/lastmile_qr_scan", "ios": "https://dc.lft.to/lastmile_qr_scan"}, "fusion_lat": 0.0, "name": "976a1a4f76c427a6178f7d3eaaf30f95", "bike_id": "976a1a4f76c427a6178f7d3eaaf30f95"}, {"is_disabled": 0, "is_reserved": 0, "type": "electric_scooter", "lon": -77.02410716666667, "fusion_lon": 0.0, "lat": 38.926582833333335, "rental_uris": {"android": "https://dc.lft.to/lastmile_qr_scan", "ios": "https://dc.lft.to/lastmile_qr_scan"}, "fusion_lat": 0.0, "name": "25ec9bbe388cf4365081c7355a274280", "bike_id": "25ec9bbe388cf4365081c7355a274280"}, {"is_disabled": 0, "is_reserved": 0, "type": "electric_scooter", "lon": -77.01541566666667, "fusion_lon": 0.0, "lat": 38.87263, "rental_uris": {"android": "https://dc.lft.to/lastmile_qr_scan", "ios": "https://dc.lft.to/lastmile_qr_scan"}, "fusion_lat": 0.0, "name": "30de6060fc014ec4a57f49a13fec011a", "bike_id": "30de6060fc014ec4a57f49a13fec011a"}, {"is_disabled": 0, "is_reserved": 0, "type": "electric_scooter", "lon": -77.01108216666667, "fusion_lon": 0.0, "lat": 38.90970166666666, "rental_uris": {"android": "https://dc.lft.to/lastmile_qr_scan", "ios": "https://dc.lft.to/lastmile_qr_scan"}, "fusion_lat": 0.0, "name": "8cd41682c1485f5f15b45e7d2b96278a", "bike_id": "8cd41682c1485f5f15b45e7d2b96278a"}, {"is_disabled": 0, "is_reserved": 0, "type": "electric_scooter", "lon": -76.99536766666667, "fusion_lon": 0.0, "lat": 38.86254116666667, "rental_uris": {"android": "https://dc.lft.to/lastmile_qr_scan", "ios": "https://dc.lft.to/lastmile_qr_scan"}, "fusion_lat": 0.0, "name": "0cf0c5283b120d073cf658d732121bee", "bike_id": "0cf0c5283b120d073cf658d732121bee"}, {"is_disabled": 0, "is_reserved": 0, "type": "electric_scooter", "lon": -77.03139183333333, "fusion_lon": 0.0, "lat": 38.92482716666667, "rental_uris": {"android": "https://dc.lft.to/lastmile_qr_scan", "ios": "https://dc.lft.to/lastmile_qr_scan"}, "fusion_lat": 0.0, "name": "d02111ac73a289f69579a8bdb68fa67b", "bike_id": "d02111ac73a289f69579a8bdb68fa67b"}, {"is_disabled": 0, "is_reserved": 0, "type": "electric_scooter", "lon": -77.03942383333333, "fusion_lon": 0.0, "lat": 38.89980516666667, "rental_uris": {"android": "https://dc.lft.to/lastmile_qr_scan", "ios": "https://dc.lft.to/lastmile_qr_scan"}, "fusion_lat": 0.0, "name": "f1fa3ee802f4c46da3d1c1b92b826bd7", "bike_id": "f1fa3ee802f4c46da3d1c1b92b826bd7"}, {"is_disabled": 0, "is_reserved": 0, "type": "electric_scooter", "lon": -77.04374616666666, "fusion_lon": 0.0, "lat": 38.9024415, "rental_uris": {"android": "https://dc.lft.to/lastmile_qr_scan", "ios": "https://dc.lft.to/lastmile_qr_scan"}, "fusion_lat": 0.0, "name": "308b66d679907049f423a8d1522c345c", "bike_id": "308b66d679907049f423a8d1522c345c"}, {"is_disabled": 0, "is_reserved": 0, "type": "electric_bike", "lon": -77.03989983333334, "fusion_lon": 0.0, "lat": 38.80297433333333, "rental_uris": {"android": "https://dc.lft.to/lastmile_qr_scan", "ios": "https://dc.lft.to/lastmile_qr_scan"}, "fusion_lat": 0.0, "name": "46eb0be2828ae273acde96036bc55851", "bike_id": "46eb0be2828ae273acde96036bc55851"}, {"is_disabled": 0, "is_reserved": 0, "type": "electric_scooter", "lon": -77.07621933333333, "fusion_lon": 0.0, "lat": 38.9126955, "rental_uris": {"android": "https://dc.lft.to/lastmile_qr_scan", "ios": "https://dc.lft.to/lastmile_qr_scan"}, "fusion_lat": 0.0, "name": "51fdc10085aea83fa650d68ec5f66cc7", "bike_id": "51fdc10085aea83fa650d68ec5f66cc7"}, {"is_disabled": 0, "is_reserved": 0, "type": "electric_scooter", "lon": -77.00715366666667, "fusion_lon": 0.0, "lat": 38.884879833333336, "rental_uris": {"android": "https://dc.lft.to/lastmile_qr_scan", "ios": "https://dc.lft.to/lastmile_qr_scan"}, "fusion_lat": 0.0, "name": "a1e8c368f485ee88897fd4f0db291727", "bike_id": "a1e8c368f485ee88897fd4f0db291727"}, {"is_disabled": 0, "is_reserved": 0, "type": "electric_scooter", "lon": -77.021565, "fusion_lon": 0.0, "lat": 38.92603183333333, "rental_uris": {"android": "https://dc.lft.to/lastmile_qr_scan", "ios": "https://dc.lft.to/lastmile_qr_scan"}, "fusion_lat": 0.0, "name": "b01d1aaeb49824114d314e08d8a7fad1", "bike_id": "b01d1aaeb49824114d314e08d8a7fad1"}, {"is_disabled": 0, "is_reserved": 0, "type": "electric_bike", "lon": -77.02891416666667, "fusion_lon": 0.0, "lat": 38.9988065, "rental_uris": {"android": "https://dc.lft.to/lastmile_qr_scan", "ios": "https://dc.lft.to/lastmile_qr_scan"}, "fusion_lat": 0.0, "name": "02f68dc6cb7f9541960c5606b9dc55f0", "bike_id": "02f68dc6cb7f9541960c5606b9dc55f0"}, {"is_disabled": 0, "is_reserved": 0, "type": "electric_scooter", "lon": -76.97343516666666, "fusion_lon": 0.0, "lat": 38.865109, "rental_uris": {"android": "https://dc.lft.to/lastmile_qr_scan", "ios": "https://dc.lft.to/lastmile_qr_scan"}, "fusion_lat": 0.0, "name": "7e345212b329ad6349e72a001b49ae2e", "bike_id": "7e345212b329ad6349e72a001b49ae2e"}, {"is_disabled": 0, "is_reserved": 0, "type": "electric_scooter", "lon": -77.041609, "fusion_lon": 0.0, "lat": 38.91307966666667, "rental_uris": {"android": "https://dc.lft.to/lastmile_qr_scan", "ios": "https://dc.lft.to/lastmile_qr_scan"}, "fusion_lat": 0.0, "name": "52b892e427f43db9eb3c6930b5ad6a90", "bike_id": "52b892e427f43db9eb3c6930b5ad6a90"}, {"is_disabled": 0, "is_reserved": 0, "type": "electric_scooter", "lon": -77.0269355, "fusion_lon": 0.0, "lat": 38.908698333333334, "rental_uris": {"android": "https://dc.lft.to/lastmile_qr_scan", "ios": "https://dc.lft.to/lastmile_qr_scan"}, "fusion_lat": 0.0, "name": "15c994c081e0741faa672e2e6d90ee65", "bike_id": "15c994c081e0741faa672e2e6d90ee65"}, {"is_disabled": 0, "is_reserved": 0, "type": "electric_scooter", "lon": -77.06754333333333, "fusion_lon": 0.0, "lat": 38.94983766666667, "rental_uris": {"android": "https://dc.lft.to/lastmile_qr_scan", "ios": "https://dc.lft.to/lastmile_qr_scan"}, "fusion_lat": 0.0, "name": "894f65d886cd859b88ed789511ac5434", "bike_id": "894f65d886cd859b88ed789511ac5434"}, {"is_disabled": 0, "is_reserved": 0, "type": "electric_bike", "lon": -76.97217783333333, "fusion_lon": 0.0, "lat": 38.844733166666664, "rental_uris": {"android": "https://dc.lft.to/lastmile_qr_scan", "ios": "https://dc.lft.to/lastmile_qr_scan"}, "fusion_lat": 0.0, "name": "d30ceca0ae65665fb1d82607d7513876", "bike_id": "d30ceca0ae65665fb1d82607d7513876"}, {"is_disabled": 0, "is_reserved": 0, "type": "electric_scooter", "lon": -77.05829233333333, "fusion_lon": 0.0, "lat": 38.93534233333333, "rental_uris": {"android": "https://dc.lft.to/lastmile_qr_scan", "ios": "https://dc.lft.to/lastmile_qr_scan"}, "fusion_lat": 0.0, "name": "80086d221efdbf377afccbe07d01f9ad", "bike_id": "80086d221efdbf377afccbe07d01f9ad"}, {"is_disabled": 0, "is_reserved": 0, "type": "electric_scooter", "lon": -77.05226033333334, "fusion_lon": 0.0, "lat": 38.924588666666665, "rental_uris": {"android": "https://dc.lft.to/lastmile_qr_scan", "ios": "https://dc.lft.to/lastmile_qr_scan"}, "fusion_lat": 0.0, "name": "ccc32b538b58aed2287bdfe8d35bdbf8", "bike_id": "ccc32b538b58aed2287bdfe8d35bdbf8"}, {"is_disabled": 0, "is_reserved": 0, "type": "electric_scooter", "lon": -77.04724933333334, "fusion_lon": 0.0, "lat": 38.89831216666666, "rental_uris": {"android": "https://dc.lft.to/lastmile_qr_scan", "ios": "https://dc.lft.to/lastmile_qr_scan"}, "fusion_lat": 0.0, "name": "0a5c3ca88bf00135cdc675b1a04df2e6", "bike_id": "0a5c3ca88bf00135cdc675b1a04df2e6"}, {"is_disabled": 0, "is_reserved": 0, "type": "electric_bike", "lon": -77.04022083333334, "fusion_lon": 0.0, "lat": 38.901091666666666, "rental_uris": {"android": "https://dc.lft.to/lastmile_qr_scan", "ios": "https://dc.lft.to/lastmile_qr_scan"}, "fusion_lat": 0.0, "name": "aef39064857edd14e5a8ec1db64dbd71", "bike_id": "aef39064857edd14e5a8ec1db64dbd71"}, {"is_disabled": 0, "is_reserved": 0, "type": "electric_scooter", "lon": -77.06802883333333, "fusion_lon": 0.0, "lat": 38.904963333333335, "rental_uris": {"android": "https://dc.lft.to/lastmile_qr_scan", "ios": "https://dc.lft.to/lastmile_qr_scan"}, "fusion_lat": 0.0, "name": "f2493f36ae2564d2f308c9157b35ae89", "bike_id": "f2493f36ae2564d2f308c9157b35ae89"}, {"is_disabled": 0, "is_reserved": 0, "type": "electric_scooter", "lon": -77.01754833333334, "fusion_lon": 0.0, "lat": 38.87712283333333, "rental_uris": {"android": "https://dc.lft.to/lastmile_qr_scan", "ios": "https://dc.lft.to/lastmile_qr_scan"}, "fusion_lat": 0.0, "name": "d13165ac2f38b8fc55b63148e91aa19a", "bike_id": "d13165ac2f38b8fc55b63148e91aa19a"}, {"is_disabled": 0, "is_reserved": 0, "type": "electric_scooter", "lon": -77.00804733333334, "fusion_lon": 0.0, "lat": 38.907359666666665, "rental_uris": {"android": "https://dc.lft.to/lastmile_qr_scan", "ios": "https://dc.lft.to/lastmile_qr_scan"}, "fusion_lat": 0.0, "name": "00d1bff7cd1dab1bbdf26fd430b20b25", "bike_id": "00d1bff7cd1dab1bbdf26fd430b20b25"}, {"is_disabled": 0, "is_reserved": 0, "type": "electric_scooter", "lon": -77.041738, "fusion_lon": 0.0, "lat": 38.916048833333335, "rental_uris": {"android": "https://dc.lft.to/lastmile_qr_scan", "ios": "https://dc.lft.to/lastmile_qr_scan"}, "fusion_lat": 0.0, "name": "ea93552e08a7a11455d25f0fd2622661", "bike_id": "ea93552e08a7a11455d25f0fd2622661"}, {"is_disabled": 0, "is_reserved": 0, "type": "electric_scooter", "lon": -77.030566, "fusion_lon": 0.0, "lat": 38.964208666666664, "rental_uris": {"android": "https://dc.lft.to/lastmile_qr_scan", "ios": "https://dc.lft.to/lastmile_qr_scan"}, "fusion_lat": 0.0, "name": "6f81d68d46042133e2defb3be4538cf2", "bike_id": "6f81d68d46042133e2defb3be4538cf2"}, {"is_disabled": 0, "is_reserved": 0, "type": "electric_scooter", "lon": -77.026065, "fusion_lon": 0.0, "lat": 38.92437966666667, "rental_uris": {"android": "https://dc.lft.to/lastmile_qr_scan", "ios": "https://dc.lft.to/lastmile_qr_scan"}, "fusion_lat": 0.0, "name": "6ceb709c2c5b582f05e8f55d23e85b80", "bike_id": "6ceb709c2c5b582f05e8f55d23e85b80"}, {"is_disabled": 0, "is_reserved": 0, "type": "electric_scooter", "lon": -77.02194166666666, "fusion_lon": 0.0, "lat": 38.91377383333333, "rental_uris": {"android": "https://dc.lft.to/lastmile_qr_scan", "ios": "https://dc.lft.to/lastmile_qr_scan"}, "fusion_lat": 0.0, "name": "860621a0f8f8b17413e01dac70b5dcb7", "bike_id": "860621a0f8f8b17413e01dac70b5dcb7"}, {"is_disabled": 0, "is_reserved": 0, "type": "electric_bike", "lon": -77.05642283333333, "fusion_lon": 0.0, "lat": 38.9297075, "rental_uris": {"android": "https://dc.lft.to/lastmile_qr_scan", "ios": "https://dc.lft.to/lastmile_qr_scan"}, "fusion_lat": 0.0, "name": "2802ff21809f4570d1cd3ab43a378103", "bike_id": "2802ff21809f4570d1cd3ab43a378103"}, {"is_disabled": 0, "is_reserved": 0, "type": "electric_scooter", "lon": -77.041002, "fusion_lon": 0.0, "lat": 38.908896, "rental_uris": {"android": "https://dc.lft.to/lastmile_qr_scan", "ios": "https://dc.lft.to/lastmile_qr_scan"}, "fusion_lat": 0.0, "name": "12ca1009e3779046f635ac04c819da96", "bike_id": "12ca1009e3779046f635ac04c819da96"}, {"is_disabled": 0, "is_reserved": 0, "type": "electric_scooter", "lon": -77.041518, "fusion_lon": 0.0, "lat": 38.9229975, "rental_uris": {"android": "https://dc.lft.to/lastmile_qr_scan", "ios": "https://dc.lft.to/lastmile_qr_scan"}, "fusion_lat": 0.0, "name": "51973bda5d5ef2c8aba3f6174c498aa4", "bike_id": "51973bda5d5ef2c8aba3f6174c498aa4"}, {"is_disabled": 0, "is_reserved": 0, "type": "electric_bike", "lon": -77.02984083333334, "fusion_lon": 0.0, "lat": 38.9296865, "rental_uris": {"android": "https://dc.lft.to/lastmile_qr_scan", "ios": "https://dc.lft.to/lastmile_qr_scan"}, "fusion_lat": 0.0, "name": "201e8d26b973e42252649891862538f5", "bike_id": "201e8d26b973e42252649891862538f5"}, {"is_disabled": 0, "is_reserved": 0, "type": "electric_scooter", "lon": -76.96527316666666, "fusion_lon": 0.0, "lat": 38.876246333333334, "rental_uris": {"android": "https://dc.lft.to/lastmile_qr_scan", "ios": "https://dc.lft.to/lastmile_qr_scan"}, "fusion_lat": 0.0, "name": "982ca09976721d04d2b2f57ec61d4422", "bike_id": "982ca09976721d04d2b2f57ec61d4422"}, {"is_disabled": 0, "is_reserved": 0, "type": "electric_scooter", "lon": -76.98698516666667, "fusion_lon": 0.0, "lat": 38.90697483333334, "rental_uris": {"android": "https://dc.lft.to/lastmile_qr_scan", "ios": "https://dc.lft.to/lastmile_qr_scan"}, "fusion_lat": 0.0, "name": "e5c0173b6b8c7525bb5a15cfcf00d0fc", "bike_id": "e5c0173b6b8c7525bb5a15cfcf00d0fc"}, {"is_disabled": 0, "is_reserved": 0, "type": "electric_scooter", "lon": -77.069893, "fusion_lon": 0.0, "lat": 38.94693083333333, "rental_uris": {"android": "https://dc.lft.to/lastmile_qr_scan", "ios": "https://dc.lft.to/lastmile_qr_scan"}, "fusion_lat": 0.0, "name": "fadc936abb95bb441e7ac26f6626b054", "bike_id": "fadc936abb95bb441e7ac26f6626b054"}, {"is_disabled": 0, "is_reserved": 0, "type": "electric_scooter", "lon": -77.03814633333333, "fusion_lon": 0.0, "lat": 38.9264935, "rental_uris": {"android": "https://dc.lft.to/lastmile_qr_scan", "ios": "https://dc.lft.to/lastmile_qr_scan"}, "fusion_lat": 0.0, "name": "b03d6e7dbfc7a7ed9fdb11bdbd04e0ae", "bike_id": "b03d6e7dbfc7a7ed9fdb11bdbd04e0ae"}, {"is_disabled": 0, "is_reserved": 0, "type": "electric_scooter", "lon": -77.04340566666667, "fusion_lon": 0.0, "lat": 38.915354666666666, "rental_uris": {"android": "https://dc.lft.to/lastmile_qr_scan", "ios": "https://dc.lft.to/lastmile_qr_scan"}, "fusion_lat": 0.0, "name": "bcc0a5e056adc5ea022531aec45e6182", "bike_id": "bcc0a5e056adc5ea022531aec45e6182"}, {"is_disabled": 0, "is_reserved": 0, "type": "electric_scooter", "lon": -77.03056533333333, "fusion_lon": 0.0, "lat": 38.939847666666665, "rental_uris": {"android": "https://dc.lft.to/lastmile_qr_scan", "ios": "https://dc.lft.to/lastmile_qr_scan"}, "fusion_lat": 0.0, "name": "ac16144f32e693fc95851119f4c9eaea", "bike_id": "ac16144f32e693fc95851119f4c9eaea"}, {"is_disabled": 0, "is_reserved": 0, "type": "electric_scooter", "lon": -76.993946, "fusion_lon": 0.0, "lat": 38.921613, "rental_uris": {"android": "https://dc.lft.to/lastmile_qr_scan", "ios": "https://dc.lft.to/lastmile_qr_scan"}, "fusion_lat": 0.0, "name": "502f4f451983226ede00111b9d8597fd", "bike_id": "502f4f451983226ede00111b9d8597fd"}, {"is_disabled": 0, "is_reserved": 0, "type": "electric_scooter", "lon": -77.00207266666666, "fusion_lon": 0.0, "lat": 38.891447, "rental_uris": {"android": "https://dc.lft.to/lastmile_qr_scan", "ios": "https://dc.lft.to/lastmile_qr_scan"}, "fusion_lat": 0.0, "name": "cc68a53eb24d0acc104c1efc18eb8ba5", "bike_id": "cc68a53eb24d0acc104c1efc18eb8ba5"}, {"is_disabled": 0, "is_reserved": 0, "type": "electric_scooter", "lon": -76.986042, "fusion_lon": 0.0, "lat": 38.90652516666667, "rental_uris": {"android": "https://dc.lft.to/lastmile_qr_scan", "ios": "https://dc.lft.to/lastmile_qr_scan"}, "fusion_lat": 0.0, "name": "adc91d9ae23b002bcbde4dd9abe6c3d0", "bike_id": "adc91d9ae23b002bcbde4dd9abe6c3d0"}, {"is_disabled": 0, "is_reserved": 0, "type": "electric_scooter", "lon": -77.04388716666666, "fusion_lon": 0.0, "lat": 38.90255333333333, "rental_uris": {"android": "https://dc.lft.to/lastmile_qr_scan", "ios": "https://dc.lft.to/lastmile_qr_scan"}, "fusion_lat": 0.0, "name": "acf817eeebce81e597654045148e1c8d", "bike_id": "acf817eeebce81e597654045148e1c8d"}, {"is_disabled": 0, "is_reserved": 0, "type": "electric_scooter", "lon": -77.05003, "fusion_lon": 0.0, "lat": 38.905351833333334, "rental_uris": {"android": "https://dc.lft.to/lastmile_qr_scan", "ios": "https://dc.lft.to/lastmile_qr_scan"}, "fusion_lat": 0.0, "name": "b755e27dfc558ef17690f5e18de4becb", "bike_id": "b755e27dfc558ef17690f5e18de4becb"}, {"is_disabled": 0, "is_reserved": 0, "type": "electric_bike", "lon": -76.98048116666666, "fusion_lon": 0.0, "lat": 38.9009175, "rental_uris": {"android": "https://dc.lft.to/lastmile_qr_scan", "ios": "https://dc.lft.to/lastmile_qr_scan"}, "fusion_lat": 0.0, "name": "a0e8814a9a84e8df8f6e71a20990c5e3", "bike_id": "a0e8814a9a84e8df8f6e71a20990c5e3"}, {"is_disabled": 0, "is_reserved": 0, "type": "electric_bike", "lon": -77.36092116666667, "fusion_lon": 0.0, "lat": 38.939591666666665, "rental_uris": {"android": "https://dc.lft.to/lastmile_qr_scan", "ios": "https://dc.lft.to/lastmile_qr_scan"}, "fusion_lat": 0.0, "name": "5451b7b0ba3301ec526cbde19b99c43e", "bike_id": "5451b7b0ba3301ec526cbde19b99c43e"}, {"is_disabled": 0, "is_reserved": 0, "type": "electric_scooter", "lon": -77.03058366666667, "fusion_lon": 0.0, "lat": 38.93980283333333, "rental_uris": {"android": "https://dc.lft.to/lastmile_qr_scan", "ios": "https://dc.lft.to/lastmile_qr_scan"},