{"data": {"bikes": [{"fusion_lon": 0.0, "bike_id": "69530ae71f98006ed970df9e90f1d383", "is_disabled": 0, "is_reserved": 0, "lat": 38.886017333333335, "name": "69530ae71f98006ed970df9e90f1d383", "rental_uris": {"ios": "https://dc.lft.to/lastmile_qr_scan", "android": "https://dc.lft.to/lastmile_qr_scan"}, "type": "electric_scooter", "fusion_lat": 0.0, "lon": -76.925074}, {"fusion_lon": 0.0, "bike_id": "7b412a0dc883132ac5d2d16d3f61e204", "is_disabled": 0, "is_reserved": 0, "lat": 38.9004935, "name": "7b412a0dc883132ac5d2d16d3f61e204", "rental_uris": {"ios": "https://dc.lft.to/lastmile_qr_scan", "android": "https://dc.lft.to/lastmile_qr_scan"}, "type": "electric_scooter", "fusion_lat": 0.0, "lon": -76.99336183333334}, {"fusion_lon": 0.0, "bike_id": "405899b772620d551bc7d65bbaef7063", "is_disabled": 0, "is_reserved": 0, "lat": 38.9055585, "name": "405899b772620d551bc7d65bbaef7063", "rental_uris": {"ios": "https://dc.lft.to/lastmile_qr_scan", "android": "https://dc.lft.to/lastmile_qr_scan"}, "type": "electric_scooter", "fusion_lat": 0.0, "lon": -77.034836}, {"fusion_lon": 0.0, "bike_id": "d1c3bf1b343a67dede5f46b3b4601aec", "is_disabled": 0, "is_reserved": 0, "lat": 38.90365233333333, "name": "d1c3bf1b343a67dede5f46b3b4601aec", "rental_uris": {"ios": "https://dc.lft.to/lastmile_qr_scan", "android": "https://dc.lft.to/lastmile_qr_scan"}, "type": "electric_scooter", "fusion_lat": 0.0, "lon": -77.00342733333333}, {"fusion_lon": 0.0, "bike_id": "2f73314fc5a5a710763179e8b16f66cb", "is_disabled": 0, "is_reserved": 0, "lat": 38.93541583333333, "name": "2f73314fc5a5a710763179e8b16f66cb", "rental_uris": {"ios": "https://dc.lft.to/lastmile_qr_scan", "android": "https://dc.lft.to/lastmile_qr_scan"}, "type": "electric_scooter", "fusion_lat": 0.0, "lon": -77.02351066666667}, {"fusion_lon": 0.0, "bike_id": "432d396b1dba50ecb62a0a8b2e2cc698", "is_disabled": 0, "is_reserved": 0, "lat": 38.893918166666666, "name": "432d396b1dba50ecb62a0a8b2e2cc698", "rental_uris": {"ios": "https://dc.lft.to/lastmile_qr_scan", "android": "https://dc.lft.to/lastmile_qr_scan"}, "type": "electric_scooter", "fusion_lat": 0.0, "lon": -77.0547545}, {"fusion_lon": 0.0, "bike_id": "5c00704282520300dbd30a21632513ce", "is_disabled": 0, "is_reserved": 0, "lat": 38.92784066666667, "name": "5c00704282520300dbd30a21632513ce", "rental_uris": {"ios": "https://dc.lft.to/lastmile_qr_scan", "android": "https://dc.lft.to/lastmile_qr_scan"}, "type": "electric_scooter", "fusion_lat": 0.0, "lon": -77.02720766666667}, {"fusion_lon": 0.0, "bike_id": "43b2862b30ee7543b40fab40e85bf0f9", "is_disabled": 0, "is_reserved": 0, "lat": 38.908356166666664, "name": "43b2862b30ee7543b40fab40e85bf0f9", "rental_uris": {"ios": "https://dc.lft.to/lastmile_qr_scan", "android": "https://dc.lft.to/lastmile_qr_scan"}, "type": "electric_scooter", "fusion_lat": 0.0, "lon": -76.93468316666667}, {"fusion_lon": 0.0, "bike_id": "17edad3b3eb219bcb986e71d861de002", "is_disabled": 0, "is_reserved": 0, "lat": 38.88271483333333, "name": "17edad3b3eb219bcb986e71d861de002", "rental_uris": {"ios": "https://dc.lft.to/lastmile_qr_scan", "android": "https://dc.lft.to/lastmile_qr_scan"}, "type": "electric_scooter", "fusion_lat": 0.0, "lon": -76.93555633333334}, {"fusion_lon": 0.0, "bike_id": "a3548f3f2790899e839b09d1bd5c9dcb", "is_disabled": 0, "is_reserved": 0, "lat": 38.901284, "name": "a3548f3f2790899e839b09d1bd5c9dcb", "rental_uris": {"ios": "https://dc.lft.to/lastmile_qr_scan", "android": "https://dc.lft.to/lastmile_qr_scan"}, "type": "electric_scooter", "fusion_lat": 0.0, "lon": -77.00250783333334}, {"fusion_lon": 0.0, "bike_id": "c400842238a7ecf3b1cf5bad8bf9a848", "is_disabled": 0, "is_reserved": 0, "lat": 38.90532283333334, "name": "c400842238a7ecf3b1cf5bad8bf9a848", "rental_uris": {"ios": "https://dc.lft.to/lastmile_qr_scan", "android": "https://dc.lft.to/lastmile_qr_scan"}, "type": "electric_scooter", "fusion_lat": 0.0, "lon": -77.0172335}, {"fusion_lon": 0.0, "bike_id": "883b872a7022953397e35e8d55727c04", "is_disabled": 0, "is_reserved": 0, "lat": 38.877055666666664, "name": "883b872a7022953397e35e8d55727c04", "rental_uris": {"ios": "https://dc.lft.to/lastmile_qr_scan", "android": "https://dc.lft.to/lastmile_qr_scan"}, "type": "electric_scooter", "fusion_lat": 0.0, "lon": -77.01765733333333}, {"fusion_lon": 0.0, "bike_id": "4803a3d1474dd92b917989522a2399da", "is_disabled": 0, "is_reserved": 0, "lat": 38.917434, "name": "4803a3d1474dd92b917989522a2399da", "rental_uris": {"ios": "https://dc.lft.to/lastmile_qr_scan", "android": "https://dc.lft.to/lastmile_qr_scan"}, "type": "electric_scooter", "fusion_lat": 0.0, "lon": -77.02117866666667}, {"fusion_lon": 0.0, "bike_id": "635211722f068c05fddcda63877aa303", "is_disabled": 0, "is_reserved": 0, "lat": 38.9271985, "name": "635211722f068c05fddcda63877aa303", "rental_uris": {"ios": "https://dc.lft.to/lastmile_qr_scan", "android": "https://dc.lft.to/lastmile_qr_scan"}, "type": "electric_scooter", "fusion_lat": 0.0, "lon": -77.02307483333334}, {"fusion_lon": 0.0, "bike_id": "3ce4115e309111b868459e3750d7b902", "is_disabled": 0, "is_reserved": 0, "lat": 38.88005916666667, "name": "3ce4115e309111b868459e3750d7b902", "rental_uris": {"ios": "https://dc.lft.to/lastmile_qr_scan", "android": "https://dc.lft.to/lastmile_qr_scan"}, "type": "electric_scooter", "fusion_lat": 0.0, "lon": -76.9983635}, {"fusion_lon": 0.0, "bike_id": "d6c8a267198e45e130b382aaa2e9d750", "is_disabled": 0, "is_reserved": 0, "lat": 39.0064705, "name": "d6c8a267198e45e130b382aaa2e9d750", "rental_uris": {"ios": "https://dc.lft.to/lastmile_qr_scan", "android": "https://dc.lft.to/lastmile_qr_scan"}, "type": "electric_bike", "fusion_lat": 0.0, "lon": -76.9002385}, {"fusion_lon": 0.0, "bike_id": "bc93082859a46e45dbb9fc299a87ef61", "is_disabled": 0, "is_reserved": 0, "lat": 38.92243366666667, "name": "bc93082859a46e45dbb9fc299a87ef61", "rental_uris": {"ios": "https://dc.lft.to/lastmile_qr_scan", "android": "https://dc.lft.to/lastmile_qr_scan"}, "type": "electric_scooter", "fusion_lat": 0.0, "lon": -77.036611}, {"fusion_lon": 0.0, "bike_id": "d6592f3f2667e07af8bb3b5f9f0bb8de", "is_disabled": 0, "is_reserved": 0, "lat": 38.927009, "name": "d6592f3f2667e07af8bb3b5f9f0bb8de", "rental_uris": {"ios": "https://dc.lft.to/lastmile_qr_scan", "android": "https://dc.lft.to/lastmile_qr_scan"}, "type": "electric_scooter", "fusion_lat": 0.0, "lon": -76.99505333333333}, {"fusion_lon": 0.0, "bike_id": "6aefd49cfbe617c0a1306ccbfc097d3a", "is_disabled": 0, "is_reserved": 0, "lat": 38.9039995, "name": "6aefd49cfbe617c0a1306ccbfc097d3a", "rental_uris": {"ios": "https://dc.lft.to/lastmile_qr_scan", "android": "https://dc.lft.to/lastmile_qr_scan"}, "type": "electric_scooter", "fusion_lat": 0.0, "lon": -77.004344}, {"fusion_lon": 0.0, "bike_id": "f6e813036457875dbfe23ee8281a2f58", "is_disabled": 0, "is_reserved": 0, "lat": 38.89610616666667, "name": "f6e813036457875dbfe23ee8281a2f58", "rental_uris": {"ios": "https://dc.lft.to/lastmile_qr_scan", "android": "https://dc.lft.to/lastmile_qr_scan"}, "type": "electric_scooter", "fusion_lat": 0.0, "lon": -76.99962033333334}, {"fusion_lon": 0.0, "bike_id": "69c14999f342d3fa9ceb46b090460524", "is_disabled": 0, "is_reserved": 0, "lat": 38.876301166666664, "name": "69c14999f342d3fa9ceb46b090460524", "rental_uris": {"ios": "https://dc.lft.to/lastmile_qr_scan", "android": "https://dc.lft.to/lastmile_qr_scan"}, "type": "electric_scooter", "fusion_lat": 0.0, "lon": -77.00677533333334}, {"fusion_lon": 0.0, "bike_id": "e27a1498c7d694ae644447e3f22ce9d4", "is_disabled": 0, "is_reserved": 0, "lat": 38.902690666666665, "name": "e27a1498c7d694ae644447e3f22ce9d4", "rental_uris": {"ios": "https://dc.lft.to/lastmile_qr_scan", "android": "https://dc.lft.to/lastmile_qr_scan"}, "type": "electric_scooter", "fusion_lat": 0.0, "lon": -77.003311}, {"fusion_lon": 0.0, "bike_id": "d68e4e3ae682f17a6b2dfd8f6176c468", "is_disabled": 0, "is_reserved": 0, "lat": 38.852472166666665, "name": "d68e4e3ae682f17a6b2dfd8f6176c468", "rental_uris": {"ios": "https://dc.lft.to/lastmile_qr_scan", "android": "https://dc.lft.to/lastmile_qr_scan"}, "type": "electric_bike", "fusion_lat": 0.0, "lon": -77.11411533333333}, {"fusion_lon": 0.0, "bike_id": "34081374358b65b0e5c3504c438df9e4", "is_disabled": 0, "is_reserved": 0, "lat": 38.9241635, "name": "34081374358b65b0e5c3504c438df9e4", "rental_uris": {"ios": "https://dc.lft.to/lastmile_qr_scan", "android": "https://dc.lft.to/lastmile_qr_scan"}, "type": "electric_scooter", "fusion_lat": 0.0, "lon": -77.02129633333334}, {"fusion_lon": 0.0, "bike_id": "6f673aae60a5ec9a8fc8ea247d28f1dc", "is_disabled": 0, "is_reserved": 0, "lat": 38.91311666666667, "name": "6f673aae60a5ec9a8fc8ea247d28f1dc", "rental_uris": {"ios": "https://dc.lft.to/lastmile_qr_scan", "android": "https://dc.lft.to/lastmile_qr_scan"}, "type": "electric_scooter", "fusion_lat": 0.0, "lon": -77.03467483333333}, {"fusion_lon": 0.0, "bike_id": "3c72ae05f801ca3ab7572c471479bfca", "is_disabled": 0, "is_reserved": 0, "lat": 38.92121066666667, "name": "3c72ae05f801ca3ab7572c471479bfca", "rental_uris": {"ios": "https://dc.lft.to/lastmile_qr_scan", "android": "https://dc.lft.to/lastmile_qr_scan"}, "type": "electric_scooter", "fusion_lat": 0.0, "lon": -77.02133616666667}, {"fusion_lon": 0.0, "bike_id": "5a8b0e7896631fd56d9fa85ea231fad9", "is_disabled": 0, "is_reserved": 0, "lat": 38.917624, "name": "5a8b0e7896631fd56d9fa85ea231fad9", "rental_uris": {"ios": "https://dc.lft.to/lastmile_qr_scan", "android": "https://dc.lft.to/lastmile_qr_scan"}, "type": "electric_scooter", "fusion_lat": 0.0, "lon": -77.04000333333333}, {"fusion_lon": 0.0, "bike_id": "59bb475e334a7d2d29d1003f53a5ea91", "is_disabled": 0, "is_reserved": 0, "lat": 38.918850166666665, "name": "59bb475e334a7d2d29d1003f53a5ea91", "rental_uris": {"ios": "https://dc.lft.to/lastmile_qr_scan", "android": "https://dc.lft.to/lastmile_qr_scan"}, "type": "electric_scooter", "fusion_lat": 0.0, "lon": -77.03510616666667}, {"fusion_lon": 0.0, "bike_id": "c6a9003c1be31d42a3ea2c732f8e1a85", "is_disabled": 0, "is_reserved": 0, "lat": 38.91570683333333, "name": "c6a9003c1be31d42a3ea2c732f8e1a85", "rental_uris": {"ios": "https://dc.lft.to/lastmile_qr_scan", "android": "https://dc.lft.to/lastmile_qr_scan"}, "type": "electric_scooter", "fusion_lat": 0.0, "lon": -77.02184616666666}, {"fusion_lon": 0.0, "bike_id": "84045f44ba6bd9ef4f1357aead979bb4", "is_disabled": 0, "is_reserved": 0, "lat": 38.924230666666666, "name": "84045f44ba6bd9ef4f1357aead979bb4", "rental_uris": {"ios": "https://dc.lft.to/lastmile_qr_scan", "android": "https://dc.lft.to/lastmile_qr_scan"}, "type": "electric_scooter", "fusion_lat": 0.0, "lon": -77.04042933333334}, {"fusion_lon": 0.0, "bike_id": "8bea10324ad5adb547006bc978be9d9d", "is_disabled": 0, "is_reserved": 0, "lat": 38.91023766666667, "name": "8bea10324ad5adb547006bc978be9d9d", "rental_uris": {"ios": "https://dc.lft.to/lastmile_qr_scan", "android": "https://dc.lft.to/lastmile_qr_scan"}, "type": "electric_scooter", "fusion_lat": 0.0, "lon": -77.02941833333334}, {"fusion_lon": 0.0, "bike_id": "6c516ff52d6a35966cb29b3600172ed8", "is_disabled": 0, "is_reserved": 0, "lat": 38.898919166666666, "name": "6c516ff52d6a35966cb29b3600172ed8", "rental_uris": {"ios": "https://dc.lft.to/lastmile_qr_scan", "android": "https://dc.lft.to/lastmile_qr_scan"}, "type": "electric_scooter", "fusion_lat": 0.0, "lon": -77.00360833333333}, {"fusion_lon": 0.0, "bike_id": "401f87aaae63e1e8d722c32615082b5d", "is_disabled": 0, "is_reserved": 0, "lat": 38.927831, "name": "401f87aaae63e1e8d722c32615082b5d", "rental_uris": {"ios": "https://dc.lft.to/lastmile_qr_scan", "android": "https://dc.lft.to/lastmile_qr_scan"}, "type": "electric_scooter", "fusion_lat": 0.0, "lon": -77.02724333333333}, {"fusion_lon": 0.0, "bike_id": "5fc8dc5d85caf71a67164cac023b7352", "is_disabled": 0, "is_reserved": 0, "lat": 38.915487666666664, "name": "5fc8dc5d85caf71a67164cac023b7352", "rental_uris": {"ios": "https://dc.lft.to/lastmile_qr_scan", "android": "https://dc.lft.to/lastmile_qr_scan"}, "type": "electric_scooter", "fusion_lat": 0.0, "lon": -77.044613}, {"fusion_lon": 0.0, "bike_id": "639b13c9685d08bca468b27642bfc58a", "is_disabled": 0, "is_reserved": 0, "lat": 38.9261325, "name": "639b13c9685d08bca468b27642bfc58a", "rental_uris": {"ios": "https://dc.lft.to/lastmile_qr_scan", "android": "https://dc.lft.to/lastmile_qr_scan"}, "type": "electric_scooter", "fusion_lat": 0.0, "lon": -76.99054466666666}, {"fusion_lon": 0.0, "bike_id": "0c3c42ee0442a234a9683e180dec9e61", "is_disabled": 0, "is_reserved": 0, "lat": 38.903659166666664, "name": "0c3c42ee0442a234a9683e180dec9e61", "rental_uris": {"ios": "https://dc.lft.to/lastmile_qr_scan", "android": "https://dc.lft.to/lastmile_qr_scan"}, "type": "electric_scooter", "fusion_lat": 0.0, "lon": -76.998344}, {"fusion_lon": 0.0, "bike_id": "4104370147261f5051a2477acb0bbd3d", "is_disabled": 0, "is_reserved": 0, "lat": 38.89965516666667, "name": "4104370147261f5051a2477acb0bbd3d", "rental_uris": {"ios": "https://dc.lft.to/lastmile_qr_scan", "android": "https://dc.lft.to/lastmile_qr_scan"}, "type": "electric_scooter", "fusion_lat": 0.0, "lon": -77.04715483333334}, {"fusion_lon": 0.0, "bike_id": "6d24a8beeeedcc3d58bdf4f598d34ded", "is_disabled": 0, "is_reserved": 0, "lat": 38.90185533333333, "name": "6d24a8beeeedcc3d58bdf4f598d34ded", "rental_uris": {"ios": "https://dc.lft.to/lastmile_qr_scan", "android": "https://dc.lft.to/lastmile_qr_scan"}, "type": "electric_scooter", "fusion_lat": 0.0, "lon": -76.98075016666667}, {"fusion_lon": 0.0, "bike_id": "77ee295d3263837821a4b4740d7a8124", "is_disabled": 0, "is_reserved": 0, "lat": 38.913313, "name": "77ee295d3263837821a4b4740d7a8124", "rental_uris": {"ios": "https://dc.lft.to/lastmile_qr_scan", "android": "https://dc.lft.to/lastmile_qr_scan"}, "type": "electric_scooter", "fusion_lat": 0.0, "lon": -77.013655}, {"fusion_lon": 0.0, "bike_id": "dafa86894f3082830b544b896b0dd9f8", "is_disabled": 0, "is_reserved": 0, "lat": 38.920113666666666, "name": "dafa86894f3082830b544b896b0dd9f8", "rental_uris": {"ios": "https://dc.lft.to/lastmile_qr_scan", "android": "https://dc.lft.to/lastmile_qr_scan"}, "type": "electric_scooter", "fusion_lat": 0.0, "lon": -77.07119333333333}, {"fusion_lon": 0.0, "bike_id": "43a37f13ca9badc751fe6e86dfc7a0d7", "is_disabled": 0, "is_reserved": 0, "lat": 38.914897333333336, "name": "43a37f13ca9badc751fe6e86dfc7a0d7", "rental_uris": {"ios": "https://dc.lft.to/lastmile_qr_scan", "android": "https://dc.lft.to/lastmile_qr_scan"}, "type": "electric_scooter", "fusion_lat": 0.0, "lon": -77.021878}, {"fusion_lon": 0.0, "bike_id": "8b75a9d8c2391f91d452c699651e2468", "is_disabled": 0, "is_reserved": 0, "lat": 38.91109616666667, "name": "8b75a9d8c2391f91d452c699651e2468", "rental_uris": {"ios": "https://dc.lft.to/lastmile_qr_scan", "android": "https://dc.lft.to/lastmile_qr_scan"}, "type": "electric_scooter", "fusion_lat": 0.0, "lon": -77.0180405}, {"fusion_lon": 0.0, "bike_id": "3c975ecb0f2dbce1a613e7c017e3e482", "is_disabled": 0, "is_reserved": 0, "lat": 38.94357, "name": "3c975ecb0f2dbce1a613e7c017e3e482", "rental_uris": {"ios": "https://dc.lft.to/lastmile_qr_scan", "android": "https://dc.lft.to/lastmile_qr_scan"}, "type": "electric_scooter", "fusion_lat": 0.0, "lon": -77.02974883333333}, {"fusion_lon": 0.0, "bike_id": "e3feb0af13d07fce496d2077d691a6c0", "is_disabled": 0, "is_reserved": 0, "lat": 38.944655833333336, "name": "e3feb0af13d07fce496d2077d691a6c0", "rental_uris": {"ios": "https://dc.lft.to/lastmile_qr_scan", "android": "https://dc.lft.to/lastmile_qr_scan"}, "type": "electric_scooter", "fusion_lat": 0.0, "lon": -77.026326}, {"fusion_lon": 0.0, "bike_id": "f9c5346f40b5215400ad19f9a7900c53", "is_disabled": 0, "is_reserved": 0, "lat": 38.899709, "name": "f9c5346f40b5215400ad19f9a7900c53", "rental_uris": {"ios": "https://dc.lft.to/lastmile_qr_scan", "android": "https://dc.lft.to/lastmile_qr_scan"}, "type": "electric_scooter", "fusion_lat": 0.0, "lon": -77.02651683333333}, {"fusion_lon": 0.0, "bike_id": "186c414668a2783a4351f369e882a63f", "is_disabled": 0, "is_reserved": 0, "lat": 38.887488166666664, "name": "186c414668a2783a4351f369e882a63f", "rental_uris": {"ios": "https://dc.lft.to/lastmile_qr_scan", "android": "https://dc.lft.to/lastmile_qr_scan"}, "type": "electric_scooter", "fusion_lat": 0.0, "lon": -77.02853666666667}, {"fusion_lon": 0.0, "bike_id": "3a4ff32c6d4d6924577ce8ba42bed58e", "is_disabled": 0, "is_reserved": 0, "lat": 38.831625833333334, "name": "3a4ff32c6d4d6924577ce8ba42bed58e", "rental_uris": {"ios": "https://dc.lft.to/lastmile_qr_scan", "android": "https://dc.lft.to/lastmile_qr_scan"}, "type": "electric_bike", "fusion_lat": 0.0, "lon": -76.99569183333334}, {"fusion_lon": 0.0, "bike_id": "44f0757bfce514c71ec0f2404061ed43", "is_disabled": 0, "is_reserved": 0, "lat": 38.90021483333334, "name": "44f0757bfce514c71ec0f2404061ed43", "rental_uris": {"ios": "https://dc.lft.to/lastmile_qr_scan", "android": "https://dc.lft.to/lastmile_qr_scan"}, "type": "electric_scooter", "fusion_lat": 0.0, "lon": -76.98828633333333}, {"fusion_lon": 0.0, "bike_id": "bad54038e3d51d342ee1c7c035fc4529", "is_disabled": 0, "is_reserved": 0, "lat": 38.936517, "name": "bad54038e3d51d342ee1c7c035fc4529", "rental_uris": {"ios": "https://dc.lft.to/lastmile_qr_scan", "android": "https://dc.lft.to/lastmile_qr_scan"}, "type": "electric_scooter", "fusion_lat": 0.0, "lon": -77.02002833333333}, {"fusion_lon": 0.0, "bike_id": "18513c23915b9b2d1ab83f4a95ff0e7a", "is_disabled": 0, "is_reserved": 0, "lat": 38.91111083333333, "name": "18513c23915b9b2d1ab83f4a95ff0e7a", "rental_uris": {"ios": "https://dc.lft.to/lastmile_qr_scan", "android": "https://dc.lft.to/lastmile_qr_scan"}, "type": "electric_scooter", "fusion_lat": 0.0, "lon": -77.03829566666667}, {"fusion_lon": 0.0, "bike_id": "767cbd1f710eb234cd11a6b7558559d6", "is_disabled": 0, "is_reserved": 0, "lat": 38.92744483333333, "name": "767cbd1f710eb234cd11a6b7558559d6", "rental_uris": {"ios": "https://dc.lft.to/lastmile_qr_scan", "android": "https://dc.lft.to/lastmile_qr_scan"}, "type": "electric_scooter", "fusion_lat": 0.0, "lon": -77.03297566666667}, {"fusion_lon": 0.0, "bike_id": "31e46ebd0a474d408140605666412fe6", "is_disabled": 0, "is_reserved": 0, "lat": 38.942632833333334, "name": "31e46ebd0a474d408140605666412fe6", "rental_uris": {"ios": "https://dc.lft.to/lastmile_qr_scan", "android": "https://dc.lft.to/lastmile_qr_scan"}, "type": "electric_scooter", "fusion_lat": 0.0, "lon": -77.02984016666667}, {"fusion_lon": 0.0, "bike_id": "3a8c52680d8eb47574016ff45f4b4805", "is_disabled": 0, "is_reserved": 0, "lat": 38.91868483333333, "name": "3a8c52680d8eb47574016ff45f4b4805", "rental_uris": {"ios": "https://dc.lft.to/lastmile_qr_scan", "android": "https://dc.lft.to/lastmile_qr_scan"}, "type": "electric_scooter", "fusion_lat": 0.0, "lon": -77.04476366666667}, {"fusion_lon": 0.0, "bike_id": "6784b3e5296b1be4f30b1979c9aa2ce8", "is_disabled": 0, "is_reserved": 0, "lat": 38.8745155, "name": "6784b3e5296b1be4f30b1979c9aa2ce8", "rental_uris": {"ios": "https://dc.lft.to/lastmile_qr_scan", "android": "https://dc.lft.to/lastmile_qr_scan"}, "type": "electric_scooter", "fusion_lat": 0.0, "lon": -77.0005365}, {"fusion_lon": 0.0, "bike_id": "ad2a14aa6a090de08a908e79c93ef50f", "is_disabled": 0, "is_reserved": 0, "lat": 38.92476416666667, "name": "ad2a14aa6a090de08a908e79c93ef50f", "rental_uris": {"ios": "https://dc.lft.to/lastmile_qr_scan", "android": "https://dc.lft.to/lastmile_qr_scan"}, "type": "electric_scooter", "fusion_lat": 0.0, "lon": -77.0266905}, {"fusion_lon": 0.0, "bike_id": "55cc21ac1fd252c584c355f4e0135c9b", "is_disabled": 0, "is_reserved": 0, "lat": 38.90817466666667, "name": "55cc21ac1fd252c584c355f4e0135c9b", "rental_uris": {"ios": "https://dc.lft.to/lastmile_qr_scan", "android": "https://dc.lft.to/lastmile_qr_scan"}, "type": "electric_scooter", "fusion_lat": 0.0, "lon": -77.03195033333333}, {"fusion_lon": 0.0, "bike_id": "630658dfd06936c3f748563e464db333", "is_disabled": 0, "is_reserved": 0, "lat": 38.874625333333334, "name": "630658dfd06936c3f748563e464db333", "rental_uris": {"ios": "https://dc.lft.to/lastmile_qr_scan", "android": "https://dc.lft.to/lastmile_qr_scan"}, "type": "electric_scooter", "fusion_lat": 0.0, "lon": -77.01572716666666}, {"fusion_lon": 0.0, "bike_id": "c7a8219891a0240ae54086ebd9e521cd", "is_disabled": 0, "is_reserved": 0, "lat": 38.92871683333333, "name": "c7a8219891a0240ae54086ebd9e521cd", "rental_uris": {"ios": "https://dc.lft.to/lastmile_qr_scan", "android": "https://dc.lft.to/lastmile_qr_scan"}, "type": "electric_scooter", "fusion_lat": 0.0, "lon": -77.0336485}, {"fusion_lon": 0.0, "bike_id": "b27a98a8bd5cf5c2482002e44e27302e", "is_disabled": 0, "is_reserved": 0, "lat": 38.90732116666667, "name": "b27a98a8bd5cf5c2482002e44e27302e", "rental_uris": {"ios": "https://dc.lft.to/lastmile_qr_scan", "android": "https://dc.lft.to/lastmile_qr_scan"}, "type": "electric_scooter", "fusion_lat": 0.0, "lon": -77.0456045}, {"fusion_lon": 0.0, "bike_id": "16b8727c01c213a287e4095a1c38f654", "is_disabled": 0, "is_reserved": 0, "lat": 38.96689333333333, "name": "16b8727c01c213a287e4095a1c38f654", "rental_uris": {"ios": "https://dc.lft.to/lastmile_qr_scan", "android": "https://dc.lft.to/lastmile_qr_scan"}, "type": "electric_bike", "fusion_lat": 0.0, "lon": -77.022793}, {"fusion_lon": 0.0, "bike_id": "031425a5cbdd098c75e661763e218d45", "is_disabled": 0, "is_reserved": 0, "lat": 38.902791666666666, "name": "031425a5cbdd098c75e661763e218d45", "rental_uris": {"ios": "https://dc.lft.to/lastmile_qr_scan", "android": "https://dc.lft.to/lastmile_qr_scan"}, "type": "electric_scooter", "fusion_lat": 0.0, "lon": -77.022784}, {"fusion_lon": 0.0, "bike_id": "deef6d9059b0e0dd5e535687048dc646", "is_disabled": 0, "is_reserved": 0, "lat": 38.925379166666666, "name": "deef6d9059b0e0dd5e535687048dc646", "rental_uris": {"ios": "https://dc.lft.to/lastmile_qr_scan", "android": "https://dc.lft.to/lastmile_qr_scan"}, "type": "electric_scooter", "fusion_lat": 0.0, "lon": -77.0426345}, {"fusion_lon": 0.0, "bike_id": "613094f4f4bf5608610bf8e336d1dab7", "is_disabled": 0, "is_reserved": 0, "lat": 38.930957666666664, "name": "613094f4f4bf5608610bf8e336d1dab7", "rental_uris": {"ios": "https://dc.lft.to/lastmile_qr_scan", "android": "https://dc.lft.to/lastmile_qr_scan"}, "type": "electric_scooter", "fusion_lat": 0.0, "lon": -77.03444016666667}, {"fusion_lon": 0.0, "bike_id": "53d0336741c45e2f99acf429a0b09a18", "is_disabled": 0, "is_reserved": 0, "lat": 38.90581616666667, "name": "53d0336741c45e2f99acf429a0b09a18", "rental_uris": {"ios": "https://dc.lft.to/lastmile_qr_scan", "android": "https://dc.lft.to/lastmile_qr_scan"}, "type": "electric_scooter", "fusion_lat": 0.0, "lon": -77.02209216666667}, {"fusion_lon": 0.0, "bike_id": "63a383c020adcc766c7454d98c1ea4fa", "is_disabled": 0, "is_reserved": 0, "lat": 38.8306995, "name": "63a383c020adcc766c7454d98c1ea4fa", "rental_uris": {"ios": "https://dc.lft.to/lastmile_qr_scan", "android": "https://dc.lft.to/lastmile_qr_scan"}, "type": "electric_bike", "fusion_lat": 0.0, "lon": -77.0408185}, {"fusion_lon": 0.0, "bike_id": "08fe773a04344056ddaec9c8b09b9e96", "is_disabled": 0, "is_reserved": 0, "lat": 38.9215615, "name": "08fe773a04344056ddaec9c8b09b9e96", "rental_uris": {"ios": "https://dc.lft.to/lastmile_qr_scan", "android": "https://dc.lft.to/lastmile_qr_scan"}, "type": "electric_scooter", "fusion_lat": 0.0, "lon": -77.03436583333334}, {"fusion_lon": 0.0, "bike_id": "dd8f71f56304727ed8d96a04b278020f", "is_disabled": 0, "is_reserved": 0, "lat": 38.92155483333333, "name": "dd8f71f56304727ed8d96a04b278020f", "rental_uris": {"ios": "https://dc.lft.to/lastmile_qr_scan", "android": "https://dc.lft.to/lastmile_qr_scan"}, "type": "electric_scooter", "fusion_lat": 0.0, "lon": -77.03873683333333}, {"fusion_lon": 0.0, "bike_id": "f244d826814fe41744dec2f1317cd968", "is_disabled": 0, "is_reserved": 0, "lat": 38.898648333333334, "name": "f244d826814fe41744dec2f1317cd968", "rental_uris": {"ios": "https://dc.lft.to/lastmile_qr_scan", "android": "https://dc.lft.to/lastmile_qr_scan"}, "type": "electric_scooter", "fusion_lat": 0.0, "lon": -76.946382}, {"fusion_lon": 0.0, "bike_id": "35bef616cdda88cac3149ea6b6a8fe70", "is_disabled": 0, "is_reserved": 0, "lat": 38.925753666666665, "name": "35bef616cdda88cac3149ea6b6a8fe70", "rental_uris": {"ios": "https://dc.lft.to/lastmile_qr_scan", "android": "https://dc.lft.to/lastmile_qr_scan"}, "type": "electric_scooter", "fusion_lat": 0.0, "lon": -77.0288275}, {"fusion_lon": 0.0, "bike_id": "118006b1751021203b565346f815566c", "is_disabled": 0, "is_reserved": 0, "lat": 38.87517033333334, "name": "118006b1751021203b565346f815566c", "rental_uris": {"ios": "https://dc.lft.to/lastmile_qr_scan", "android": "https://dc.lft.to/lastmile_qr_scan"}, "type": "electric_scooter", "fusion_lat": 0.0, "lon": -77.00060316666666}, {"fusion_lon": 0.0, "bike_id": "25b09d12f7c3fe0d6361944ca4491e74", "is_disabled": 0, "is_reserved": 0, "lat": 38.87070883333333, "name": "25b09d12f7c3fe0d6361944ca4491e74", "rental_uris": {"ios": "https://dc.lft.to/lastmile_qr_scan", "android": "https://dc.lft.to/lastmile_qr_scan"}, "type": "electric_scooter", "fusion_lat": 0.0, "lon": -76.97942416666666}, {"fusion_lon": 0.0, "bike_id": "5464031e31e75ba4ecb6a39ae7ea8ad4", "is_disabled": 0, "is_reserved": 0, "lat": 38.9347995, "name": "5464031e31e75ba4ecb6a39ae7ea8ad4", "rental_uris": {"ios": "https://dc.lft.to/lastmile_qr_scan", "android": "https://dc.lft.to/lastmile_qr_scan"}, "type": "electric_scooter", "fusion_lat": 0.0, "lon": -77.05789716666666}, {"fusion_lon": 0.0, "bike_id": "503b3157d912e3cdf48355cfa79fe773", "is_disabled": 0, "is_reserved": 0, "lat": 38.87508916666667, "name": "503b3157d912e3cdf48355cfa79fe773", "rental_uris": {"ios": "https://dc.lft.to/lastmile_qr_scan", "android": "https://dc.lft.to/lastmile_qr_scan"}, "type": "electric_scooter", "fusion_lat": 0.0, "lon": -76.97660733333333}, {"fusion_lon": 0.0, "bike_id": "8fc980935d192fb5aad991825f04c39a", "is_disabled": 0, "is_reserved": 0, "lat": 38.913309, "name": "8fc980935d192fb5aad991825f04c39a", "rental_uris": {"ios": "https://dc.lft.to/lastmile_qr_scan", "android": "https://dc.lft.to/lastmile_qr_scan"}, "type": "electric_scooter", "fusion_lat": 0.0, "lon": -77.03807466666666}, {"fusion_lon": 0.0, "bike_id": "d0fe37bb39e70e6303a279dc2a55102d", "is_disabled": 0, "is_reserved": 0, "lat": 38.905055, "name": "d0fe37bb39e70e6303a279dc2a55102d", "rental_uris": {"ios": "https://dc.lft.to/lastmile_qr_scan", "android": "https://dc.lft.to/lastmile_qr_scan"}, "type": "electric_scooter", "fusion_lat": 0.0, "lon": -77.02943083333334}, {"fusion_lon": 0.0, "bike_id": "c758c623f6cc2041568bfd69cb4a602c", "is_disabled": 0, "is_reserved": 0, "lat": 38.92253983333333, "name": "c758c623f6cc2041568bfd69cb4a602c", "rental_uris": {"ios": "https://dc.lft.to/lastmile_qr_scan", "android": "https://dc.lft.to/lastmile_qr_scan"}, "type": "electric_scooter", "fusion_lat": 0.0, "lon": -77.01974016666667}, {"fusion_lon": 0.0, "bike_id": "c0e7d3bb66ad13ab487d8b1c2e9889dd", "is_disabled": 0, "is_reserved": 0, "lat": 38.832984833333335, "name": "c0e7d3bb66ad13ab487d8b1c2e9889dd", "rental_uris": {"ios": "https://dc.lft.to/lastmile_qr_scan", "android": "https://dc.lft.to/lastmile_qr_scan"}, "type": "electric_bike", "fusion_lat": 0.0, "lon": -77.08409366666666}, {"fusion_lon": 0.0, "bike_id": "1d1a9190f0ae6745d704ff5b2113a8db", "is_disabled": 0, "is_reserved": 0, "lat": 38.91288133333333, "name": "1d1a9190f0ae6745d704ff5b2113a8db", "rental_uris": {"ios": "https://dc.lft.to/lastmile_qr_scan", "android": "https://dc.lft.to/lastmile_qr_scan"}, "type": "electric_scooter", "fusion_lat": 0.0, "lon": -77.03446666666666}, {"fusion_lon": 0.0, "bike_id": "59da66a8c3e86baa45d22fc4cffb7301", "is_disabled": 0, "is_reserved": 0, "lat": 38.91558233333333, "name": "59da66a8c3e86baa45d22fc4cffb7301", "rental_uris": {"ios": "https://dc.lft.to/lastmile_qr_scan", "android": "https://dc.lft.to/lastmile_qr_scan"}, "type": "electric_scooter", "fusion_lat": 0.0, "lon": -77.031941}, {"fusion_lon": 0.0, "bike_id": "960c5f95374d30ed0c0d3676f2012a3b", "is_disabled": 0, "is_reserved": 0, "lat": 38.90064866666667, "name": "960c5f95374d30ed0c0d3676f2012a3b", "rental_uris": {"ios": "https://dc.lft.to/lastmile_qr_scan", "android": "https://dc.lft.to/lastmile_qr_scan"}, "type": "electric_scooter", "fusion_lat": 0.0, "lon": -77.04550783333333}, {"fusion_lon": 0.0, "bike_id": "918329f566f5694a5dcf8a38db1c3fbc", "is_disabled": 0, "is_reserved": 0, "lat": 38.922484833333336, "name": "918329f566f5694a5dcf8a38db1c3fbc", "rental_uris": {"ios": "https://dc.lft.to/lastmile_qr_scan", "android": "https://dc.lft.to/lastmile_qr_scan"}, "type": "electric_scooter", "fusion_lat": 0.0, "lon": -77.03658266666666}, {"fusion_lon": 0.0, "bike_id": "47c6c018be1577550a1e52d4241c9fb6", "is_disabled": 0, "is_reserved": 0, "lat": 38.92968916666667, "name": "47c6c018be1577550a1e52d4241c9fb6", "rental_uris": {"ios": "https://dc.lft.to/lastmile_qr_scan", "android": "https://dc.lft.to/lastmile_qr_scan"}, "type": "electric_scooter", "fusion_lat": 0.0, "lon": -77.031451}, {"fusion_lon": 0.0, "bike_id": "7f10ffbb3ea6432976ce2891b6246cd5", "is_disabled": 0, "is_reserved": 0, "lat": 38.898494166666666, "name": "7f10ffbb3ea6432976ce2891b6246cd5", "rental_uris": {"ios": "https://dc.lft.to/lastmile_qr_scan", "android": "https://dc.lft.to/lastmile_qr_scan"}, "type": "electric_scooter", "fusion_lat": 0.0, "lon": -76.92748833333333}, {"fusion_lon": 0.0, "bike_id": "40e547c4752cc96524472f5523a05916", "is_disabled": 0, "is_reserved": 0, "lat": 38.8969185, "name": "40e547c4752cc96524472f5523a05916", "rental_uris": {"ios": "https://dc.lft.to/lastmile_qr_scan", "android": "https://dc.lft.to/lastmile_qr_scan"}, "type": "electric_scooter", "fusion_lat": 0.0, "lon": -77.04893666666666}, {"fusion_lon": 0.0, "bike_id": "e0e64b98ee4145275582fc5f48e2201b", "is_disabled": 0, "is_reserved": 0, "lat": 38.904363000000004, "name": "e0e64b98ee4145275582fc5f48e2201b", "rental_uris": {"ios": "https://dc.lft.to/lastmile_qr_scan", "android": "https://dc.lft.to/lastmile_qr_scan"}, "type": "electric_bike", "fusion_lat": 0.0, "lon": -76.972251}, {"fusion_lon": 0.0, "bike_id": "398e527cd0bbc27da9a5100b72e3ceae", "is_disabled": 0, "is_reserved": 0, "lat": 38.921593, "name": "398e527cd0bbc27da9a5100b72e3ceae", "rental_uris": {"ios": "https://dc.lft.to/lastmile_qr_scan", "android": "https://dc.lft.to/lastmile_qr_scan"}, "type": "electric_bike", "fusion_lat": 0.0, "lon": -77.07885433333334}, {"fusion_lon": 0.0, "bike_id": "c9405c8b8e263b09b4c0f10072706042", "is_disabled": 0, "is_reserved": 0, "lat": 38.90121166666667, "name": "c9405c8b8e263b09b4c0f10072706042", "rental_uris": {"ios": "https://dc.lft.to/lastmile_qr_scan", "android": "https://dc.lft.to/lastmile_qr_scan"}, "type": "electric_scooter", "fusion_lat": 0.0, "lon": -77.049923}, {"fusion_lon": 0.0, "bike_id": "3cc682363ffc0fb12d2e842a44ac8432", "is_disabled": 0, "is_reserved": 0, "lat": 38.83691783333333, "name": "3cc682363ffc0fb12d2e842a44ac8432", "rental_uris": {"ios": "https://dc.lft.to/lastmile_qr_scan", "android": "https://dc.lft.to/lastmile_qr_scan"}, "type": "electric_bike", "fusion_lat": 0.0, "lon": -77.057201}, {"fusion_lon": 0.0, "bike_id": "21387a89f102c5e210bbdff826ad4dc3", "is_disabled": 0, "is_reserved": 0, "lat": 38.92146316666667, "name": "21387a89f102c5e210bbdff826ad4dc3", "rental_uris": {"ios": "https://dc.lft.to/lastmile_qr_scan", "android": "https://dc.lft.to/lastmile_qr_scan"}, "type": "electric_scooter", "fusion_lat": 0.0, "lon": -77.04238716666667}, {"fusion_lon": 0.0, "bike_id": "591a89ff02ecd1cf827a1996085f4b68", "is_disabled": 0, "is_reserved": 0, "lat": 38.91126333333333, "name": "591a89ff02ecd1cf827a1996085f4b68", "rental_uris": {"ios": "https://dc.lft.to/lastmile_qr_scan", "android": "https://dc.lft.to/lastmile_qr_scan"}, "type": "electric_scooter", "fusion_lat": 0.0, "lon": -77.004302}, {"fusion_lon": 0.0, "bike_id": "6856f637d89a312634b3bbb1d5cd5279", "is_disabled": 0, "is_reserved": 0, "lat": 38.905032166666665, "name": "6856f637d89a312634b3bbb1d5cd5279", "rental_uris": {"ios": "https://dc.lft.to/lastmile_qr_scan", "android": "https://dc.lft.to/lastmile_qr_scan"}, "type": "electric_scooter", "fusion_lat": 0.0, "lon": -77.048157}, {"fusion_lon": 0.0, "bike_id": "4e96118f2e853f83e4cde9490fcac59e", "is_disabled": 0, "is_reserved": 0, "lat": 38.898486166666665, "name": "4e96118f2e853f83e4cde9490fcac59e", "rental_uris": {"ios": "https://dc.lft.to/lastmile_qr_scan", "android": "https://dc.lft.to/lastmile_qr_scan"}, "type": "electric_scooter", "fusion_lat": 0.0, "lon": -76.99034733333333}, {"fusion_lon": 0.0, "bike_id": "7c98837d42da23964e848e40990eeb92", "is_disabled": 0, "is_reserved": 0, "lat": 38.900365666666666, "name": "7c98837d42da23964e848e40990eeb92", "rental_uris": {"ios": "https://dc.lft.to/lastmile_qr_scan", "android": "https://dc.lft.to/lastmile_qr_scan"}, "type": "electric_scooter", "fusion_lat": 0.0, "lon": -77.01185383333333}, {"fusion_lon": 0.0, "bike_id": "b6043d5d607dc8e0a98d30b72d03fee2", "is_disabled": 0, "is_reserved": 0, "lat": 38.92260816666667, "name": "b6043d5d607dc8e0a98d30b72d03fee2", "rental_uris": {"ios": "https://dc.lft.to/lastmile_qr_scan", "android": "https://dc.lft.to/lastmile_qr_scan"}, "type": "electric_scooter", "fusion_lat": 0.0, "lon": -77.01953583333334}, {"fusion_lon": 0.0, "bike_id": "7dab2bb6d0e898ec693be2c2b7087623", "is_disabled": 0, "is_reserved": 0, "lat": 38.904107333333336, "name": "7dab2bb6d0e898ec693be2c2b7087623", "rental_uris": {"ios": "https://dc.lft.to/lastmile_qr_scan", "android": "https://dc.lft.to/lastmile_qr_scan"}, "type": "electric_bike", "fusion_lat": 0.0, "lon": -77.04357166666667}, {"fusion_lon": 0.0, "bike_id": "879c67c440262c49b77a3d408ea58c4e", "is_disabled": 0, "is_reserved": 0, "lat": 38.95737916666667, "name": "879c67c440262c49b77a3d408ea58c4e", "rental_uris": {"ios": "https://dc.lft.to/lastmile_qr_scan", "android": "https://dc.lft.to/lastmile_qr_scan"}, "type": "electric_scooter", "fusion_lat": 0.0, "lon": -77.00221}, {"fusion_lon": 0.0, "bike_id": "4f7c1a16c5cd7c39fb30bac05c207485", "is_disabled": 0, "is_reserved": 0, "lat": 38.92347016666667, "name": "4f7c1a16c5cd7c39fb30bac05c207485", "rental_uris": {"ios": "https://dc.lft.to/lastmile_qr_scan", "android": "https://dc.lft.to/lastmile_qr_scan"}, "type": "electric_scooter", "fusion_lat": 0.0, "lon": -77.035222}, {"fusion_lon": 0.0, "bike_id": "248dce39fcdc3dea9739291c3e7cb677", "is_disabled": 0, "is_reserved": 0, "lat": 38.88355133333334, "name": "248dce39fcdc3dea9739291c3e7cb677", "rental_uris": {"ios": "https://dc.lft.to/lastmile_qr_scan", "android": "https://dc.lft.to/lastmile_qr_scan"}, "type": "electric_scooter", "fusion_lat": 0.0, "lon": -76.95769283333334}, {"fusion_lon": 0.0, "bike_id": "cf2604b5c54cfaebd2bc9a3449328002", "is_disabled": 0, "is_reserved": 0, "lat": 38.900022666666665, "name": "cf2604b5c54cfaebd2bc9a3449328002", "rental_uris": {"ios": "https://dc.lft.to/lastmile_qr_scan", "android": "https://dc.lft.to/lastmile_qr_scan"}, "type": "electric_scooter", "fusion_lat": 0.0, "lon": -77.05552066666667}, {"fusion_lon": 0.0, "bike_id": "b76b17b89fa9ac43afe0228af8f749c0", "is_disabled": 0, "is_reserved": 0, "lat": 38.906958333333336, "name": "b76b17b89fa9ac43afe0228af8f749c0", "rental_uris": {"ios": "https://dc.lft.to/lastmile_qr_scan", "android": "https://dc.lft.to/lastmile_qr_scan"}, "type": "electric_bike", "fusion_lat": 0.0, "lon": -76.95259166666666}, {"fusion_lon": 0.0, "bike_id": "eda19527ac15f1c5e88a386e091065c8", "is_disabled": 0, "is_reserved": 0, "lat": 38.936869, "name": "eda19527ac15f1c5e88a386e091065c8", "rental_uris": {"ios": "https://dc.lft.to/lastmile_qr_scan", "android": "https://dc.lft.to/lastmile_qr_scan"}, "type": "electric_bike", "fusion_lat": 0.0, "lon": -77.05648883333333}, {"fusion_lon": 0.0, "bike_id": "929e5953d25b93a9a76a35dc2e02bbcf", "is_disabled": 0, "is_reserved": 0, "lat": 38.94632433333334, "name": "929e5953d25b93a9a76a35dc2e02bbcf", "rental_uris": {"ios": "https://dc.lft.to/lastmile_qr_scan", "android": "https://dc.lft.to/lastmile_qr_scan"}, "type": "electric_scooter", "fusion_lat": 0.0, "lon": -77.02271433333334}, {"fusion_lon": 0.0, "bike_id": "e8fd7ffd82d7f602025d82b5465e6c72", "is_disabled": 0, "is_reserved": 0, "lat": 38.9074555, "name": "e8fd7ffd82d7f602025d82b5465e6c72", "rental_uris": {"ios": "https://dc.lft.to/lastmile_qr_scan", "android": "https://dc.lft.to/lastmile_qr_scan"}, "type": "electric_scooter", "fusion_lat": 0.0, "lon": -77.04154466666667}, {"fusion_lon": 0.0, "bike_id": "d4726dc8cd9a5c68b9a749163454848c", "is_disabled": 0, "is_reserved": 0, "lat": 38.94553616666666, "name": "d4726dc8cd9a5c68b9a749163454848c", "rental_uris": {"ios": "https://dc.lft.to/lastmile_qr_scan", "android": "https://dc.lft.to/lastmile_qr_scan"}, "type": "electric_scooter", "fusion_lat": 0.0, "lon": -77.064125}, {"fusion_lon": 0.0, "bike_id": "b12e05d472ff1659c0b552d3ffa5e511", "is_disabled": 0, "is_reserved": 0, "lat": 38.92049, "name": "b12e05d472ff1659c0b552d3ffa5e511", "rental_uris": {"ios": "https://dc.lft.to/lastmile_qr_scan", "android": "https://dc.lft.to/lastmile_qr_scan"}, "type": "electric_scooter", "fusion_lat": 0.0, "lon": -77.0417975}, {"fusion_lon": 0.0, "bike_id": "dff06f7e1cc20beebe5ba6ea68837130", "is_disabled": 0, "is_reserved": 0, "lat": 38.924137333333334, "name": "dff06f7e1cc20beebe5ba6ea68837130", "rental_uris": {"ios": "https://dc.lft.to/lastmile_qr_scan", "android": "https://dc.lft.to/lastmile_qr_scan"}, "type": "electric_scooter", "fusion_lat": 0.0, "lon": -77.02277033333333}, {"fusion_lon": 0.0, "bike_id": "87fb39d5f89c57045fe57c3b5efc8896", "is_disabled": 0, "is_reserved": 0, "lat": 38.813356666666664, "name": "87fb39d5f89c57045fe57c3b5efc8896", "rental_uris": {"ios": "https://dc.lft.to/lastmile_qr_scan", "android": "https://dc.lft.to/lastmile_qr_scan"}, "type": "electric_bike", "fusion_lat": 0.0, "lon": -77.05114316666666}, {"fusion_lon": 0.0, "bike_id": "bee845188f0094be5a7c6883e26a94a9", "is_disabled": 0, "is_reserved": 0, "lat": 38.900912166666664, "name": "bee845188f0094be5a7c6883e26a94a9", "rental_uris": {"ios": "https://dc.lft.to/lastmile_qr_scan", "android": "https://dc.lft.to/lastmile_qr_scan"}, "type": "electric_bike", "fusion_lat": 0.0, "lon": -76.98344166666666}, {"fusion_lon": 0.0, "bike_id": "b193eca4d04e9afc69b27fb8ef5323c4", "is_disabled": 0, "is_reserved": 0, "lat": 38.900015833333335, "name": "b193eca4d04e9afc69b27fb8ef5323c4", "rental_uris": {"ios": "https://dc.lft.to/lastmile_qr_scan", "android": "https://dc.lft.to/lastmile_qr_scan"}, "type": "electric_scooter", "fusion_lat": 0.0, "lon": -76.99850966666666}, {"fusion_lon": 0.0, "bike_id": "b980cc4027417b5d59a5b788c5e0f85a", "is_disabled": 0, "is_reserved": 0, "lat": 38.90995566666667, "name": "b980cc4027417b5d59a5b788c5e0f85a", "rental_uris": {"ios": "https://dc.lft.to/lastmile_qr_scan", "android": "https://dc.lft.to/lastmile_qr_scan"}, "type": "electric_scooter", "fusion_lat": 0.0, "lon": -77.00465483333333}, {"fusion_lon": 0.0, "bike_id": "fa81ffd4ea2cb184abacb85bbc3790fc", "is_disabled": 0, "is_reserved": 0, "lat": 38.9103655, "name": "fa81ffd4ea2cb184abacb85bbc3790fc", "rental_uris": {"ios": "https://dc.lft.to/lastmile_qr_scan", "android": "https://dc.lft.to/lastmile_qr_scan"}, "type": "electric_scooter", "fusion_lat": 0.0, "lon": -77.0439545}, {"fusion_lon": 0.0, "bike_id": "4c89acb675c04553601eecc41657272e", "is_disabled": 0, "is_reserved": 0, "lat": 38.925957, "name": "4c89acb675c04553601eecc41657272e", "rental_uris": {"ios": "https://dc.lft.to/lastmile_qr_scan", "android": "https://dc.lft.to/lastmile_qr_scan"}, "type": "electric_scooter", "fusion_lat": 0.0, "lon": -77.02496033333334}, {"fusion_lon": 0.0, "bike_id": "420b1b7d9e4d2b894a29b0f28a29dbc3", "is_disabled": 0, "is_reserved": 0, "lat": 38.92804666666667, "name": "420b1b7d9e4d2b894a29b0f28a29dbc3", "rental_uris": {"ios": "https://dc.lft.to/lastmile_qr_scan", "android": "https://dc.lft.to/lastmile_qr_scan"}, "type": "electric_bike", "fusion_lat": 0.0, "lon": -77.22944083333333}, {"fusion_lon": 0.0, "bike_id": "870932fcbd8a29f502f163ddcc1cee92", "is_disabled": 0, "is_reserved": 0, "lat": 38.924241, "name": "870932fcbd8a29f502f163ddcc1cee92", "rental_uris": {"ios": "https://dc.lft.to/lastmile_qr_scan", "android": "https://dc.lft.to/lastmile_qr_scan"}, "type": "electric_scooter", "fusion_lat": 0.0, "lon": -77.04482433333334}, {"fusion_lon": 0.0, "bike_id": "05223c14f6c2aad8ec40e937e21fd875", "is_disabled": 0, "is_reserved": 0, "lat": 38.8839565, "name": "05223c14f6c2aad8ec40e937e21fd875", "rental_uris": {"ios": "https://dc.lft.to/lastmile_qr_scan", "android": "https://dc.lft.to/lastmile_qr_scan"}, "type": "electric_scooter", "fusion_lat": 0.0, "lon": -77.04454283333334}, {"fusion_lon": 0.0, "bike_id": "d3304a9503ea0a776a4bd8394853052e", "is_disabled": 0, "is_reserved": 0, "lat": 38.92412683333333, "name": "d3304a9503ea0a776a4bd8394853052e", "rental_uris": {"ios": "https://dc.lft.to/lastmile_qr_scan", "android": "https://dc.lft.to/lastmile_qr_scan"}, "type": "electric_scooter", "fusion_lat": 0.0, "lon": -77.03644666666666}, {"fusion_lon": 0.0, "bike_id": "78462c89814e921a8528e29fb1d1f016", "is_disabled": 0, "is_reserved": 0, "lat": 38.89905916666667, "name": "78462c89814e921a8528e29fb1d1f016", "rental_uris": {"ios": "https://dc.lft.to/lastmile_qr_scan", "android": "https://dc.lft.to/lastmile_qr_scan"}, "type": "electric_scooter", "fusion_lat": 0.0, "lon": -77.00366033333333}, {"fusion_lon": 0.0, "bike_id": "a80fd6dbc274f0bec1c3ef9a7739113a", "is_disabled": 0, "is_reserved": 0, "lat": 38.91626483333334, "name": "a80fd6dbc274f0bec1c3ef9a7739113a", "rental_uris": {"ios": "https://dc.lft.to/lastmile_qr_scan", "android": "https://dc.lft.to/lastmile_qr_scan"}, "type": "electric_scooter", "fusion_lat": 0.0, "lon": -77.00505816666667}, {"fusion_lon": 0.0, "bike_id": "21011579252da208ebeaa6b3f6ec7661", "is_disabled": 0, "is_reserved": 0, "lat": 38.92651166666667, "name": "21011579252da208ebeaa6b3f6ec7661", "rental_uris": {"ios": "https://dc.lft.to/lastmile_qr_scan", "android": "https://dc.lft.to/lastmile_qr_scan"}, "type": "electric_bike", "fusion_lat": 0.0, "lon": -77.09027566666667}, {"fusion_lon": 0.0, "bike_id": "fb96f505ee9fc2c18ae9fe38d6f25d09", "is_disabled": 0, "is_reserved": 0, "lat": 38.915050666666666, "name": "fb96f505ee9fc2c18ae9fe38d6f25d09", "rental_uris": {"ios": "https://dc.lft.to/lastmile_qr_scan", "android": "https://dc.lft.to/lastmile_qr_scan"}, "type": "electric_scooter", "fusion_lat": 0.0, "lon": -77.0382145}, {"fusion_lon": 0.0, "bike_id": "1ff6dd937983efd24f86e4e2c20e6d27", "is_disabled": 0, "is_reserved": 0, "lat": 38.8996865, "name": "1ff6dd937983efd24f86e4e2c20e6d27", "rental_uris": {"ios": "https://dc.lft.to/lastmile_qr_scan", "android": "https://dc.lft.to/lastmile_qr_scan"}, "type": "electric_scooter", "fusion_lat": 0.0, "lon": -76.99493183333334}, {"fusion_lon": 0.0, "bike_id": "37d733f850d537101441f49832994dcb", "is_disabled": 0, "is_reserved": 0, "lat": 38.89828883333333, "name": "37d733f850d537101441f49832994dcb", "rental_uris": {"ios": "https://dc.lft.to/lastmile_qr_scan", "android": "https://dc.lft.to/lastmile_qr_scan"}, "type": "electric_scooter", "fusion_lat": 0.0, "lon": -77.04655583333333}, {"fusion_lon": 0.0, "bike_id": "435481dbd04dd1fce3d4a22e5128977c", "is_disabled": 0, "is_reserved": 0, "lat": 38.947363, "name": "435481dbd04dd1fce3d4a22e5128977c", "rental_uris": {"ios": "https://dc.lft.to/lastmile_qr_scan", "android": "https://dc.lft.to/lastmile_qr_scan"}, "type": "electric_scooter", "fusion_lat": 0.0, "lon": -77.02368683333333}, {"fusion_lon": 0.0, "bike_id": "33f82d2d9cefbe0ba680dc27dd0e3012", "is_disabled": 0, "is_reserved": 0, "lat": 38.92131083333334, "name": "33f82d2d9cefbe0ba680dc27dd0e3012", "rental_uris": {"ios": "https://dc.lft.to/lastmile_qr_scan", "android": "https://dc.lft.to/lastmile_qr_scan"}, "type": "electric_scooter", "fusion_lat": 0.0, "lon": -77.01876416666667}, {"fusion_lon": 0.0, "bike_id": "2c75e052d5dd430c3a4865fbf49c6b73", "is_disabled": 0, "is_reserved": 0, "lat": 38.9247235, "name": "2c75e052d5dd430c3a4865fbf49c6b73", "rental_uris": {"ios": "https://dc.lft.to/lastmile_qr_scan", "android": "https://dc.lft.to/lastmile_qr_scan"}, "type": "electric_scooter", "fusion_lat": 0.0, "lon": -77.02204166666667}, {"fusion_lon": 0.0, "bike_id": "49b0e50f2abb9737100c5683ac03e431", "is_disabled": 0, "is_reserved": 0, "lat": 38.9227985, "name": "49b0e50f2abb9737100c5683ac03e431", "rental_uris": {"ios": "https://dc.lft.to/lastmile_qr_scan", "android": "https://dc.lft.to/lastmile_qr_scan"}, "type": "electric_scooter", "fusion_lat": 0.0, "lon": -77.0212775}, {"fusion_lon": 0.0, "bike_id": "eba1f8ffccae9f570e5788252a9b5da1", "is_disabled": 0, "is_reserved": 0, "lat": 38.97412166666667, "name": "eba1f8ffccae9f570e5788252a9b5da1", "rental_uris": {"ios": "https://dc.lft.to/lastmile_qr_scan", "android": "https://dc.lft.to/lastmile_qr_scan"}, "type": "electric_bike", "fusion_lat": 0.0, "lon": -76.9841575}, {"fusion_lon": 0.0, "bike_id": "93067a235c364719ce8bdc1ae8a52680", "is_disabled": 0, "is_reserved": 0, "lat": 38.923250333333336, "name": "93067a235c364719ce8bdc1ae8a52680", "rental_uris": {"ios": "https://dc.lft.to/lastmile_qr_scan", "android": "https://dc.lft.to/lastmile_qr_scan"}, "type": "electric_scooter", "fusion_lat": 0.0, "lon": -77.02805283333333}, {"fusion_lon": 0.0, "bike_id": "475a9161de5d04f447d36ccd25613ee8", "is_disabled": 0, "is_reserved": 0, "lat": 38.943067666666664, "name": "475a9161de5d04f447d36ccd25613ee8", "rental_uris": {"ios": "https://dc.lft.to/lastmile_qr_scan", "android": "https://dc.lft.to/lastmile_qr_scan"}, "type": "electric_scooter", "fusion_lat": 0.0, "lon": -77.0295355}, {"fusion_lon": 0.0, "bike_id": "443da6756e2b20a8c0d1065994ae72ec", "is_disabled": 0, "is_reserved": 0, "lat": 38.930620166666664, "name": "443da6756e2b20a8c0d1065994ae72ec", "rental_uris": {"ios": "https://dc.lft.to/lastmile_qr_scan", "android": "https://dc.lft.to/lastmile_qr_scan"}, "type": "electric_scooter", "fusion_lat": 0.0, "lon": -77.0232195}, {"fusion_lon": 0.0, "bike_id": "4d8ec2606668adcd68abfa8f47e63cd3", "is_disabled": 0, "is_reserved": 0, "lat": 38.93249316666667, "name": "4d8ec2606668adcd68abfa8f47e63cd3", "rental_uris": {"ios": "https://dc.lft.to/lastmile_qr_scan", "android": "https://dc.lft.to/lastmile_qr_scan"}, "type": "electric_scooter", "fusion_lat": 0.0, "lon": -77.0327415}, {"fusion_lon": 0.0, "bike_id": "f74c14060b88224f52bee0a8f42e3962", "is_disabled": 0, "is_reserved": 0, "lat": 38.90060616666667, "name": "f74c14060b88224f52bee0a8f42e3962", "rental_uris": {"ios": "https://dc.lft.to/lastmile_qr_scan", "android": "https://dc.lft.to/lastmile_qr_scan"}, "type": "electric_scooter", "fusion_lat": 0.0, "lon": -77.0454865}, {"fusion_lon": 0.0, "bike_id": "d50d1205e97c6340f9e3023cd769842e", "is_disabled": 0, "is_reserved": 0, "lat": 38.91267766666667, "name": "d50d1205e97c6340f9e3023cd769842e", "rental_uris": {"ios": "https://dc.lft.to/lastmile_qr_scan", "android": "https://dc.lft.to/lastmile_qr_scan"}, "type": "electric_scooter", "fusion_lat": 0.0, "lon": -77.04444783333334}, {"fusion_lon": 0.0, "bike_id": "93a64386215c089d38a817ca954e7d8f", "is_disabled": 0, "is_reserved": 0, "lat": 38.90852616666667, "name": "93a64386215c089d38a817ca954e7d8f", "rental_uris": {"ios": "https://dc.lft.to/lastmile_qr_scan", "android": "https://dc.lft.to/lastmile_qr_scan"}, "type": "electric_scooter", "fusion_lat": 0.0, "lon": -77.063754}, {"fusion_lon": 0.0, "bike_id": "1add7c3aca89eb193c98b23d572ca81b", "is_disabled": 0, "is_reserved": 0, "lat": 38.90784883333333, "name": "1add7c3aca89eb193c98b23d572ca81b", "rental_uris": {"ios": "https://dc.lft.to/lastmile_qr_scan", "android": "https://dc.lft.to/lastmile_qr_scan"}, "type": "electric_bike", "fusion_lat": 0.0, "lon": -77.0817085}, {"fusion_lon": 0.0, "bike_id": "c0eee84c3642ca884a1deeba0ec2c287", "is_disabled": 0, "is_reserved": 0, "lat": 38.93932233333334, "name": "c0eee84c3642ca884a1deeba0ec2c287", "rental_uris": {"ios": "https://dc.lft.to/lastmile_qr_scan", "android": "https://dc.lft.to/lastmile_qr_scan"}, "type": "electric_scooter", "fusion_lat": 0.0, "lon": -77.06053966666667}, {"fusion_lon": 0.0, "bike_id": "9c1aff8a81436598798001afae54786f", "is_disabled": 0, "is_reserved": 0, "lat": 38.90077316666667, "name": "9c1aff8a81436598798001afae54786f", "rental_uris": {"ios": "https://dc.lft.to/lastmile_qr_scan", "android": "https://dc.lft.to/lastmile_qr_scan"}, "type": "electric_scooter", "fusion_lat": 0.0, "lon": -77.01618483333333}, {"fusion_lon": 0.0, "bike_id": "0d09d4b14cd044502a80acd269d13061", "is_disabled": 0, "is_reserved": 0, "lat": 38.94277666666667, "name": "0d09d4b14cd044502a80acd269d13061", "rental_uris": {"ios": "https://dc.lft.to/lastmile_qr_scan", "android": "https://dc.lft.to/lastmile_qr_scan"}, "type": "electric_scooter", "fusion_lat": 0.0, "lon": -77.029389}, {"fusion_lon": 0.0, "bike_id": "f8737847f67d25a3e4ed86a4827bbc66", "is_disabled": 0, "is_reserved": 0, "lat": 38.943374666666664, "name": "f8737847f67d25a3e4ed86a4827bbc66", "rental_uris": {"ios": "https://dc.lft.to/lastmile_qr_scan", "android": "https://dc.lft.to/lastmile_qr_scan"}, "type": "electric_scooter", "fusion_lat": 0.0, "lon": -77.02592383333334}, {"fusion_lon": 0.0, "bike_id": "65b626e6fbffaac4a7ae5fbb333a0230", "is_disabled": 0, "is_reserved": 0, "lat": 38.92500166666667, "name": "65b626e6fbffaac4a7ae5fbb333a0230", "rental_uris": {"ios": "https://dc.lft.to/lastmile_qr_scan", "android": "https://dc.lft.to/lastmile_qr_scan"}, "type": "electric_scooter", "fusion_lat": 0.0, "lon": -77.02161366666667}, {"fusion_lon": 0.0, "bike_id": "0cd81fb7294c6d99f30ffdb26b9d4d8b", "is_disabled": 0, "is_reserved": 0, "lat": 38.909688833333334, "name": "0cd81fb7294c6d99f30ffdb26b9d4d8b", "rental_uris": {"ios": "https://dc.lft.to/lastmile_qr_scan", "android": "https://dc.lft.to/lastmile_qr_scan"}, "type": "electric_scooter", "fusion_lat": 0.0, "lon": -77.03347083333334}, {"fusion_lon": 0.0, "bike_id": "59f4d3695fc827cd3cf7f38a9f97bbe2", "is_disabled": 0, "is_reserved": 0, "lat": 38.93599533333333, "name": "59f4d3695fc827cd3cf7f38a9f97bbe2", "rental_uris": {"ios": "https://dc.lft.to/lastmile_qr_scan", "android": "https://dc.lft.to/lastmile_qr_scan"}, "type": "electric_bike", "fusion_lat": 0.0, "lon": -77.02122566666667}, {"fusion_lon": 0.0, "bike_id": "3273c702dc721dfffe1305e83227cf0f", "is_disabled": 0, "is_reserved": 0, "lat": 38.92227833333333, "name": "3273c702dc721dfffe1305e83227cf0f", "rental_uris": {"ios": "https://dc.lft.to/lastmile_qr_scan", "android": "https://dc.lft.to/lastmile_qr_scan"}, "type": "electric_scooter", "fusion_lat": 0.0, "lon": -77.02831066666667}, {"fusion_lon": 0.0, "bike_id": "999e10f988a9bb3802bf0b1052a8d394", "is_disabled": 0, "is_reserved": 0, "lat": 38.927057166666664, "name": "999e10f988a9bb3802bf0b1052a8d394", "rental_uris": {"ios": "https://dc.lft.to/lastmile_qr_scan", "android": "https://dc.lft.to/lastmile_qr_scan"}, "type": "electric_scooter", "fusion_lat": 0.0, "lon": -77.020983}, {"fusion_lon": 0.0, "bike_id": "23b91ef7fa9b2d50509cc854c04d5b00", "is_disabled": 0, "is_reserved": 0, "lat": 38.90098416666667, "name": "23b91ef7fa9b2d50509cc854c04d5b00", "rental_uris": {"ios": "https://dc.lft.to/lastmile_qr_scan", "android": "https://dc.lft.to/lastmile_qr_scan"}, "type": "electric_scooter", "fusion_lat": 0.0, "lon": -77.04753416666667}, {"fusion_lon": 0.0, "bike_id": "4c23f1fa2f90e329b28ea52d5c2e0982", "is_disabled": 0, "is_reserved": 0, "lat": 38.91001166666667, "name": "4c23f1fa2f90e329b28ea52d5c2e0982", "rental_uris": {"ios": "https://dc.lft.to/lastmile_qr_scan", "android": "https://dc.lft.to/lastmile_qr_scan"}, "type": "electric_bike", "fusion_lat": 0.0, "lon": -76.984207}, {"fusion_lon": 0.0, "bike_id": "fb3c3729aa8ee5d6cbaa9241d7105dc9", "is_disabled": 0, "is_reserved": 0, "lat": 38.899686, "name": "fb3c3729aa8ee5d6cbaa9241d7105dc9", "rental_uris": {"ios": "https://dc.lft.to/lastmile_qr_scan", "android": "https://dc.lft.to/lastmile_qr_scan"}, "type": "electric_scooter", "fusion_lat": 0.0, "lon": -77.04507}, {"fusion_lon": 0.0, "bike_id": "1dc9fcdbbc1c6c6dfd7a90fad587ef08", "is_disabled": 0, "is_reserved": 0, "lat": 38.900576, "name": "1dc9fcdbbc1c6c6dfd7a90fad587ef08", "rental_uris": {"ios": "https://dc.lft.to/lastmile_qr_scan", "android": "https://dc.lft.to/lastmile_qr_scan"}, "type": "electric_scooter", "fusion_lat": 0.0, "lon": -77.051417}, {"fusion_lon": 0.0, "bike_id": "dc9d82ec18c8e944b3daed60c9aec867", "is_disabled": 0, "is_reserved": 0, "lat": 38.91723183333333, "name": "dc9d82ec18c8e944b3daed60c9aec867", "rental_uris": {"ios": "https://dc.lft.to/lastmile_qr_scan", "android": "https://dc.lft.to/lastmile_qr_scan"}, "type": "electric_scooter", "fusion_lat": 0.0, "lon": -77.02950233333334}, {"fusion_lon": 0.0, "bike_id": "2a50d1d5233d237a7beed2ac38c7d326", "is_disabled": 0, "is_reserved": 0, "lat": 38.938817, "name": "2a50d1d5233d237a7beed2ac38c7d326", "rental_uris": {"ios": "https://dc.lft.to/lastmile_qr_scan", "android": "https://dc.lft.to/lastmile_qr_scan"}, "type": "electric_scooter", "fusion_lat": 0.0, "lon": -77.02464183333333}, {"fusion_lon": 0.0, "bike_id": "cf349825759841304af438afb1f3b1f8", "is_disabled": 0, "is_reserved": 0, "lat": 38.920359833333336, "name": "cf349825759841304af438afb1f3b1f8", "rental_uris": {"ios": "https://dc.lft.to/lastmile_qr_scan", "android": "https://dc.lft.to/lastmile_qr_scan"}, "type": "electric_scooter", "fusion_lat": 0.0, "lon": -77.03388383333333}, {"fusion_lon": 0.0, "bike_id": "aff0bde72e6f8e29b7b7eb11a769ce71", "is_disabled": 0, "is_reserved": 0, "lat": 38.893396333333335, "name": "aff0bde72e6f8e29b7b7eb11a769ce71", "rental_uris": {"ios": "https://dc.lft.to/lastmile_qr_scan", "android": "https://dc.lft.to/lastmile_qr_scan"}, "type": "electric_scooter", "fusion_lat": 0.0, "lon": -77.031597}, {"fusion_lon": 0.0, "bike_id": "38b7bac81d83d77e280ab311f7e6d07c", "is_disabled": 0, "is_reserved": 0, "lat": 38.9216965, "name": "38b7bac81d83d77e280ab311f7e6d07c", "rental_uris": {"ios": "https://dc.lft.to/lastmile_qr_scan", "android": "https://dc.lft.to/lastmile_qr_scan"}, "type": "electric_scooter", "fusion_lat": 0.0, "lon": -77.035187}, {"fusion_lon": 0.0, "bike_id": "b7dc5c1385632e2cd6254c1504f1dcdf", "is_disabled": 0, "is_reserved": 0, "lat": 38.912702, "name": "b7dc5c1385632e2cd6254c1504f1dcdf", "rental_uris": {"ios": "https://dc.lft.to/lastmile_qr_scan", "android": "https://dc.lft.to/lastmile_qr_scan"}, "type": "electric_scooter", "fusion_lat": 0.0, "lon": -77.0384725}, {"fusion_lon": 0.0, "bike_id": "c81e7f58ddc002a616ac994f48ded0c1", "is_disabled": 0, "is_reserved": 0, "lat": 38.9054965, "name": "c81e7f58ddc002a616ac994f48ded0c1", "rental_uris": {"ios": "https://dc.lft.to/lastmile_qr_scan", "android": "https://dc.lft.to/lastmile_qr_scan"}, "type": "electric_scooter", "fusion_lat": 0.0, "lon": -77.004828}, {"fusion_lon": 0.0, "bike_id": "50907726f610a61cf302d4a60d124850", "is_disabled": 0, "is_reserved": 0, "lat": 38.923626166666665, "name": "50907726f610a61cf302d4a60d124850", "rental_uris": {"ios": "https://dc.lft.to/lastmile_qr_scan", "android": "https://dc.lft.to/lastmile_qr_scan"}, "type": "electric_scooter", "fusion_lat": 0.0, "lon": -77.0281335}, {"fusion_lon": 0.0, "bike_id": "391dc21bf1e6beec2342d21c575227b1", "is_disabled": 0, "is_reserved": 0, "lat": 38.91967066666667, "name": "391dc21bf1e6beec2342d21c575227b1", "rental_uris": {"ios": "https://dc.lft.to/lastmile_qr_scan", "android": "https://dc.lft.to/lastmile_qr_scan"}, "type": "electric_scooter", "fusion_lat": 0.0, "lon": -77.04232233333333}, {"fusion_lon": 0.0, "bike_id": "a2cc55123f77106fecf168165eca1119", "is_disabled": 0, "is_reserved": 0, "lat": 38.92480116666667, "name": "a2cc55123f77106fecf168165eca1119", "rental_uris": {"ios": "https://dc.lft.to/lastmile_qr_scan", "android": "https://dc.lft.to/lastmile_qr_scan"}, "type": "electric_scooter", "fusion_lat": 0.0, "lon": -77.02231683333333}, {"fusion_lon": 0.0, "bike_id": "9e785961149d138edcfe424f6b045ce3", "is_disabled": 0, "is_reserved": 0, "lat": 38.9240855, "name": "9e785961149d138edcfe424f6b045ce3", "rental_uris": {"ios": "https://dc.lft.to/lastmile_qr_scan", "android": "https://dc.lft.to/lastmile_qr_scan"}, "type": "electric_scooter", "fusion_lat": 0.0, "lon": -77.0212915}, {"fusion_lon": 0.0, "bike_id": "8eef5da732447d8962fa5b51551bfefa", "is_disabled": 0, "is_reserved": 0, "lat": 38.91999466666667, "name": "8eef5da732447d8962fa5b51551bfefa", "rental_uris": {"ios": "https://dc.lft.to/lastmile_qr_scan", "android": "https://dc.lft.to/lastmile_qr_scan"}, "type": "electric_scooter", "fusion_lat": 0.0, "lon": -77.0213155}, {"fusion_lon": 0.0, "bike_id": "219a53353aed110481d774158dc0fe89", "is_disabled": 0, "is_reserved": 0, "lat": 38.92280783333333, "name": "219a53353aed110481d774158dc0fe89", "rental_uris": {"ios": "https://dc.lft.to/lastmile_qr_scan", "android": "https://dc.lft.to/lastmile_qr_scan"}, "type": "electric_scooter", "fusion_lat": 0.0, "lon": -77.02127566666667}, {"fusion_lon": 0.0, "bike_id": "25f6f38ee17198037eed34e2fb29637b", "is_disabled": 0, "is_reserved": 0, "lat": 38.901889833333335, "name": "25f6f38ee17198037eed34e2fb29637b", "rental_uris": {"ios": "https://dc.lft.to/lastmile_qr_scan", "android": "https://dc.lft.to/lastmile_qr_scan"}, "type": "electric_scooter", "fusion_lat": 0.0, "lon": -76.97677616666667}, {"fusion_lon": 0.0, "bike_id": "2209387b36ce203e8982a51088662b2f", "is_disabled": 0, "is_reserved": 0, "lat": 38.924260833333335, "name": "2209387b36ce203e8982a51088662b2f", "rental_uris": {"ios": "https://dc.lft.to/lastmile_qr_scan", "android": "https://dc.lft.to/lastmile_qr_scan"}, "type": "electric_scooter", "fusion_lat": 0.0, "lon": -77.04042683333333}, {"fusion_lon": 0.0, "bike_id": "4f4835eadfb08de6b2222e7522269f2a", "is_disabled": 0, "is_reserved": 0, "lat": 38.887130166666665, "name": "4f4835eadfb08de6b2222e7522269f2a", "rental_uris": {"ios": "https://dc.lft.to/lastmile_qr_scan", "android": "https://dc.lft.to/lastmile_qr_scan"}, "type": "electric_scooter", "fusion_lat": 0.0, "lon": -76.98382533333333}, {"fusion_lon": 0.0, "bike_id": "5b5b3f5a351c4f980a93534ae861bce9", "is_disabled": 0, "is_reserved": 0, "lat": 38.95586316666667, "name": "5b5b3f5a351c4f980a93534ae861bce9", "rental_uris": {"ios": "https://dc.lft.to/lastmile_qr_scan", "android": "https://dc.lft.to/lastmile_qr_scan"}, "type": "electric_scooter", "fusion_lat": 0.0, "lon": -77.0178245}, {"fusion_lon": 0.0, "bike_id": "e48449543de7ac32d132099b164c0e47", "is_disabled": 0, "is_reserved": 0, "lat": 38.902908833333335, "name": "e48449543de7ac32d132099b164c0e47", "rental_uris": {"ios": "https://dc.lft.to/lastmile_qr_scan", "android": "https://dc.lft.to/lastmile_qr_scan"}, "type": "electric_scooter", "fusion_lat": 0.0, "lon": -77.03254183333334}, {"fusion_lon": 0.0, "bike_id": "43317094528cd625b2451bbbf71ee013", "is_disabled": 0, "is_reserved": 0, "lat": 38.916895833333335, "name": "43317094528cd625b2451bbbf71ee013", "rental_uris": {"ios": "https://dc.lft.to/lastmile_qr_scan", "android": "https://dc.lft.to/lastmile_qr_scan"}, "type": "electric_scooter", "fusion_lat": 0.0, "lon": -77.03773416666667}, {"fusion_lon": 0.0, "bike_id": "577f8865ccfbe2c3df4c2f1180fdf6f3", "is_disabled": 0, "is_reserved": 0, "lat": 38.90123766666667, "name": "577f8865ccfbe2c3df4c2f1180fdf6f3", "rental_uris": {"ios": "https://dc.lft.to/lastmile_qr_scan", "android": "https://dc.lft.to/lastmile_qr_scan"}, "type": "electric_scooter", "fusion_lat": 0.0, "lon": -76.99853666666667}, {"fusion_lon": 0.0, "bike_id": "420c4573348d67115b34a797045c7dae", "is_disabled": 0, "is_reserved": 0, "lat": 38.90445483333333, "name": "420c4573348d67115b34a797045c7dae", "rental_uris": {"ios": "https://dc.lft.to/lastmile_qr_scan", "android": "https://dc.lft.to/lastmile_qr_scan"}, "type": "electric_scooter", "fusion_lat": 0.0, "lon": -77.034629}, {"fusion_lon": 0.0, "bike_id": "2f357e89cef579171703fde83e1a3694", "is_disabled": 0, "is_reserved": 0, "lat": 38.931412333333334, "name": "2f357e89cef579171703fde83e1a3694", "rental_uris": {"ios": "https://dc.lft.to/lastmile_qr_scan", "android": "https://dc.lft.to/lastmile_qr_scan"}, "type": "electric_scooter", "fusion_lat": 0.0, "lon": -77.0215505}, {"fusion_lon": 0.0, "bike_id": "222381524399792d9b574865ec7a6b70", "is_disabled": 0, "is_reserved": 0, "lat": 38.9140955, "name": "222381524399792d9b574865ec7a6b70", "rental_uris": {"ios": "https://dc.lft.to/lastmile_qr_scan", "android": "https://dc.lft.to/lastmile_qr_scan"}, "type": "electric_scooter", "fusion_lat": 0.0, "lon": -77.00983166666667}, {"fusion_lon": 0.0, "bike_id": "76ada6a49f392e0ccdac1f7ca3613562", "is_disabled": 0, "is_reserved": 0, "lat": 38.886239333333336, "name": "76ada6a49f392e0ccdac1f7ca3613562", "rental_uris": {"ios": "https://dc.lft.to/lastmile_qr_scan", "android": "https://dc.lft.to/lastmile_qr_scan"}, "type": "electric_scooter", "fusion_lat": 0.0, "lon": -76.92634733333334}, {"fusion_lon": 0.0, "bike_id": "d130f63a5da35fc823ef49d4236cf881", "is_disabled": 0, "is_reserved": 0, "lat": 38.90973833333334, "name": "d130f63a5da35fc823ef49d4236cf881", "rental_uris": {"ios": "https://dc.lft.to/lastmile_qr_scan", "android": "https://dc.lft.to/lastmile_qr_scan"}, "type": "electric_scooter", "fusion_lat": 0.0, "lon": -77.04875166666666}, {"fusion_lon": 0.0, "bike_id": "1795e3569dd2dc160d5e3432d8469cdb", "is_disabled": 0, "is_reserved": 0, "lat": 38.87914983333334, "name": "1795e3569dd2dc160d5e3432d8469cdb", "rental_uris": {"ios": "https://dc.lft.to/lastmile_qr_scan", "android": "https://dc.lft.to/lastmile_qr_scan"}, "type": "electric_scooter", "fusion_lat": 0.0, "lon": -77.02151366666666}, {"fusion_lon": 0.0, "bike_id": "5e7101c8f689f3714e455aac56bc42ca", "is_disabled": 0, "is_reserved": 0, "lat": 38.932646, "name": "5e7101c8f689f3714e455aac56bc42ca", "rental_uris": {"ios": "https://dc.lft.to/lastmile_qr_scan", "android": "https://dc.lft.to/lastmile_qr_scan"}, "type": "electric_scooter", "fusion_lat": 0.0, "lon": -77.038601}, {"fusion_lon": 0.0, "bike_id": "9058c3757f1b723e93df3c9fe9c9c99a", "is_disabled": 0, "is_reserved": 0, "lat": 38.915432, "name": "9058c3757f1b723e93df3c9fe9c9c99a", "rental_uris": {"ios": "https://dc.lft.to/lastmile_qr_scan", "android": "https://dc.lft.to/lastmile_qr_scan"}, "type": "electric_scooter", "fusion_lat": 0.0, "lon": -77.0445435}, {"fusion_lon": 0.0, "bike_id": "6fdb8e2afd5f7a5dc3903eb6f402d910", "is_disabled": 0, "is_reserved": 0, "lat": 38.933535166666665, "name": "6fdb8e2afd5f7a5dc3903eb6f402d910", "rental_uris": {"ios": "https://dc.lft.to/lastmile_qr_scan", "android": "https://dc.lft.to/lastmile_qr_scan"}, "type": "electric_scooter", "fusion_lat": 0.0, "lon": -77.02744066666666}, {"fusion_lon": 0.0, "bike_id": "99b3338226173d5e7118098579b9a4a4", "is_disabled": 0, "is_reserved": 0, "lat": 38.895068333333334, "name": "99b3338226173d5e7118098579b9a4a4", "rental_uris": {"ios": "https://dc.lft.to/lastmile_qr_scan", "android": "https://dc.lft.to/lastmile_qr_scan"}, "type": "electric_scooter", "fusion_lat": 0.0, "lon": -76.94891466666667}, {"fusion_lon": 0.0, "bike_id": "5febbb27a3bd0a40e54199663156d035", "is_disabled": 0, "is_reserved": 0, "lat": 38.91956366666667, "name": "5febbb27a3bd0a40e54199663156d035", "rental_uris": {"ios": "https://dc.lft.to/lastmile_qr_scan", "android": "https://dc.lft.to/lastmile_qr_scan"}, "type": "electric_scooter", "fusion_lat": 0.0, "lon": -77.0787175}, {"fusion_lon": 0.0, "bike_id": "4971d0f9b99188cb2404fd0469981c09", "is_disabled": 0, "is_reserved": 0, "lat": 38.927094333333336, "name": "4971d0f9b99188cb2404fd0469981c09", "rental_uris": {"ios": "https://dc.lft.to/lastmile_qr_scan", "android": "https://dc.lft.to/lastmile_qr_scan"}, "type": "electric_scooter", "fusion_lat": 0.0, "lon": -77.06008883333334}, {"fusion_lon": 0.0, "bike_id": "f9cdb2a10463ba52d1b505bda33339eb", "is_disabled": 0, "is_reserved": 0, "lat": 39.02651433333333, "name": "f9cdb2a10463ba52d1b505bda33339eb", "rental_uris": {"ios": "https://dc.lft.to/lastmile_qr_scan", "android": "https://dc.lft.to/lastmile_qr_scan"}, "type": "electric_bike", "fusion_lat": 0.0, "lon": -77.036868}, {"fusion_lon": 0.0, "bike_id": "7917fda046e4996ac77d485add5fd982", "is_disabled": 0, "is_reserved": 0, "lat": 38.942010833333335, "name": "7917fda046e4996ac77d485add5fd982", "rental_uris": {"ios": "https://dc.lft.to/lastmile_qr_scan", "android": "https://dc.lft.to/lastmile_qr_scan"}, "type": "electric_scooter", "fusion_lat": 0.0, "lon": -77.01333933333333}, {"fusion_lon": 0.0, "bike_id": "6c02f14607276fa5ca4e7b22e2f10ca4", "is_disabled": 0, "is_reserved": 0, "lat": 38.90683633333333, "name": "6c02f14607276fa5ca4e7b22e2f10ca4", "rental_uris": {"ios": "https://dc.lft.to/lastmile_qr_scan", "android": "https://dc.lft.to/lastmile_qr_scan"}, "type": "electric_scooter", "fusion_lat": 0.0, "lon": -76.97997116666667}, {"fusion_lon": 0.0, "bike_id": "f387745cf625214695e027f627710276", "is_disabled": 0, "is_reserved": 0, "lat": 38.94080483333333, "name": "f387745cf625214695e027f627710276", "rental_uris": {"ios": "https://dc.lft.to/lastmile_qr_scan", "android": "https://dc.lft.to/lastmile_qr_scan"}, "type": "electric_scooter", "fusion_lat": 0.0, "lon": -77.021131}, {"fusion_lon": 0.0, "bike_id": "41b2b85bcaa0f6189d4420e9c4d235c5", "is_disabled": 0, "is_reserved": 0, "lat": 38.89984, "name": "41b2b85bcaa0f6189d4420e9c4d235c5", "rental_uris": {"ios": "https://dc.lft.to/lastmile_qr_scan", "android": "https://dc.lft.to/lastmile_qr_scan"}, "type": "electric_scooter", "fusion_lat": 0.0, "lon": -77.04490966666667}, {"fusion_lon": 0.0, "bike_id": "2a1bc96b331f1498f7b14293bcb5c307", "is_disabled": 0, "is_reserved": 0, "lat": 38.8794315, "name": "2a1bc96b331f1498f7b14293bcb5c307", "rental_uris": {"ios": "https://dc.lft.to/lastmile_qr_scan", "android": "https://dc.lft.to/lastmile_qr_scan"}, "type": "electric_scooter", "fusion_lat": 0.0, "lon": -77.01004666666667}, {"fusion_lon": 0.0, "bike_id": "e3407bff3dcaf71b54f0e91b9fc5331b", "is_disabled": 0, "is_reserved": 0, "lat": 38.8766685, "name": "e3407bff3dcaf71b54f0e91b9fc5331b", "rental_uris": {"ios": "https://dc.lft.to/lastmile_qr_scan", "android": "https://dc.lft.to/lastmile_qr_scan"}, "type": "electric_scooter", "fusion_lat": 0.0, "lon": -77.007291}, {"fusion_lon": 0.0, "bike_id": "c524ea789361b4cab13f3ca86c4bb5e5", "is_disabled": 0, "is_reserved": 0, "lat": 38.8789015, "name": "c524ea789361b4cab13f3ca86c4bb5e5", "rental_uris": {"ios": "https://dc.lft.to/lastmile_qr_scan", "android": "https://dc.lft.to/lastmile_qr_scan"}, "type": "electric_scooter", "fusion_lat": 0.0, "lon": -76.96543633333333}, {"fusion_lon": 0.0, "bike_id": "baa53c633c49360188ccd99a8c18dd8b", "is_disabled": 0, "is_reserved": 0, "lat": 38.918570333333335, "name": "baa53c633c49360188ccd99a8c18dd8b", "rental_uris": {"ios": "https://dc.lft.to/lastmile_qr_scan", "android": "https://dc.lft.to/lastmile_qr_scan"}, "type": "electric_scooter", "fusion_lat": 0.0, "lon": -77.02535416666667}, {"fusion_lon": 0.0, "bike_id": "b072fa2808a57e881251c70bf01b962e", "is_disabled": 0, "is_reserved": 0, "lat": 38.885231166666664, "name": "b072fa2808a57e881251c70bf01b962e", "rental_uris": {"ios": "https://dc.lft.to/lastmile_qr_scan", "android": "https://dc.lft.to/lastmile_qr_scan"}, "type": "electric_scooter", "fusion_lat": 0.0, "lon": -76.97710916666666}, {"fusion_lon": 0.0, "bike_id": "0eef3cb0300e4b3a954cc1d08c345c30", "is_disabled": 0, "is_reserved": 0, "lat": 38.9193635, "name": "0eef3cb0300e4b3a954cc1d08c345c30", "rental_uris": {"ios": "https://dc.lft.to/lastmile_qr_scan", "android": "https://dc.lft.to/lastmile_qr_scan"}, "type": "electric_scooter", "fusion_lat": 0.0, "lon": -77.04638216666666}, {"fusion_lon": 0.0, "bike_id": "d98794dcc302f618dbeb9167e0bd9339", "is_disabled": 0, "is_reserved": 0, "lat": 38.923298333333335, "name": "d98794dcc302f618dbeb9167e0bd9339", "rental_uris": {"ios": "https://dc.lft.to/lastmile_qr_scan", "android": "https://dc.lft.to/lastmile_qr_scan"}, "type": "electric_scooter", "fusion_lat": 0.0, "lon": -77.0089265}, {"fusion_lon": 0.0, "bike_id": "dcd0af9218052deba38af1f6da273450", "is_disabled": 0, "is_reserved": 0, "lat": 38.9223615, "name": "dcd0af9218052deba38af1f6da273450", "rental_uris": {"ios": "https://dc.lft.to/lastmile_qr_scan", "android": "https://dc.lft.to/lastmile_qr_scan"}, "type": "electric_scooter", "fusion_lat": 0.0, "lon": -77.03380733333333}, {"fusion_lon": 0.0, "bike_id": "8e79a7414ade9f3f27a95911ec6b953e", "is_disabled": 0, "is_reserved": 0, "lat": 38.91893183333333, "name": "8e79a7414ade9f3f27a95911ec6b953e", "rental_uris": {"ios": "https://dc.lft.to/lastmile_qr_scan", "android": "https://dc.lft.to/lastmile_qr_scan"}, "type": "electric_scooter", "fusion_lat": 0.0, "lon": -76.96897833333334}, {"fusion_lon": 0.0, "bike_id": "c638a7b278bb2f8acdbb97df0ba6b3c2", "is_disabled": 0, "is_reserved": 0, "lat": 38.923979833333334, "name": "c638a7b278bb2f8acdbb97df0ba6b3c2", "rental_uris": {"ios": "https://dc.lft.to/lastmile_qr_scan", "android": "https://dc.lft.to/lastmile_qr_scan"}, "type": "electric_scooter", "fusion_lat": 0.0, "lon": -77.040442}, {"fusion_lon": 0.0, "bike_id": "460f4aaa3e042e982ee9e4f2e0ef778c", "is_disabled": 0, "is_reserved": 0, "lat": 38.919525166666666, "name": "460f4aaa3e042e982ee9e4f2e0ef778c", "rental_uris": {"ios": "https://dc.lft.to/lastmile_qr_scan", "android": "https://dc.lft.to/lastmile_qr_scan"}, "type": "electric_scooter", "fusion_lat": 0.0, "lon": -77.0250455}, {"fusion_lon": 0.0, "bike_id": "6f7b7d8f3c59152a65f896f84c552a08", "is_disabled": 0, "is_reserved": 0, "lat": 38.885374666666664, "name": "6f7b7d8f3c59152a65f896f84c552a08", "rental_uris": {"ios": "https://dc.lft.to/lastmile_qr_scan", "android": "https://dc.lft.to/lastmile_qr_scan"}, "type": "electric_scooter", "fusion_lat": 0.0, "lon": -76.95427583333333}, {"fusion_lon": 0.0, "bike_id": "751143d37a8a866df2a8db46bb1c99bc", "is_disabled": 0, "is_reserved": 0, "lat": 38.89447933333334, "name": "751143d37a8a866df2a8db46bb1c99bc", "rental_uris": {"ios": "https://dc.lft.to/lastmile_qr_scan", "android": "https://dc.lft.to/lastmile_qr_scan"}, "type": "electric_scooter", "fusion_lat": 0.0, "lon": -76.97737483333333}, {"fusion_lon": 0.0, "bike_id": "8056d69262b40901b692aa5a45f0e839", "is_disabled": 0, "is_reserved": 0, "lat": 38.92461633333333, "name": "8056d69262b40901b692aa5a45f0e839", "rental_uris": {"ios": "https://dc.lft.to/lastmile_qr_scan", "android": "https://dc.lft.to/lastmile_qr_scan"}, "type": "electric_scooter", "fusion_lat": 0.0, "lon": -77.02242633333333}, {"fusion_lon": 0.0, "bike_id": "7e45e884ea232bda83edee6ed91e8ad3", "is_disabled": 0, "is_reserved": 0, "lat": 38.90689, "name": "7e45e884ea232bda83edee6ed91e8ad3", "rental_uris": {"ios": "https://dc.lft.to/lastmile_qr_scan", "android": "https://dc.lft.to/lastmile_qr_scan"}, "type": "electric_scooter", "fusion_lat": 0.0, "lon": -77.02718466666667}, {"fusion_lon": 0.0, "bike_id": "b6c137b76eb8b41f5710d5b19c3873b5", "is_disabled": 0, "is_reserved": 0, "lat": 38.9255595, "name": "b6c137b76eb8b41f5710d5b19c3873b5", "rental_uris": {"ios": "https://dc.lft.to/lastmile_qr_scan", "android": "https://dc.lft.to/lastmile_qr_scan"}, "type": "electric_scooter", "fusion_lat": 0.0, "lon": -77.03333083333334}, {"fusion_lon": 0.0, "bike_id": "89271b4b4d6ef90e6a518b52d5b87440", "is_disabled": 0, "is_reserved": 0, "lat": 38.916203333333335, "name": "89271b4b4d6ef90e6a518b52d5b87440", "rental_uris": {"ios": "https://dc.lft.to/lastmile_qr_scan", "android": "https://dc.lft.to/lastmile_qr_scan"}, "type": "electric_scooter", "fusion_lat": 0.0, "lon": -77.02803533333334}, {"fusion_lon": 0.0, "bike_id": "a255e7c8b7e9e78ca3e97e5fa1573ec6", "is_disabled": 0, "is_reserved": 0, "lat": 38.9170405, "name": "a255e7c8b7e9e78ca3e97e5fa1573ec6", "rental_uris": {"ios": "https://dc.lft.to/lastmile_qr_scan", "android": "https://dc.lft.to/lastmile_qr_scan"}, "type": "electric_scooter", "fusion_lat": 0.0, "lon": -77.02281683333334}, {"fusion_lon": 0.0, "bike_id": "f17d9cbc84297c11b52a39ee85e1e7ca", "is_disabled": 0, "is_reserved": 0, "lat": 38.899833, "name": "f17d9cbc84297c11b52a39ee85e1e7ca", "rental_uris": {"ios": "https://dc.lft.to/lastmile_qr_scan", "android": "https://dc.lft.to/lastmile_qr_scan"}, "type": "electric_scooter", "fusion_lat": 0.0, "lon": -77.04194766666667}, {"fusion_lon": 0.0, "bike_id": "ad1c692fb6a1600adb516a567f9a6f0b", "is_disabled": 0, "is_reserved": 0, "lat": 38.87791466666667, "name": "ad1c692fb6a1600adb516a567f9a6f0b", "rental_uris": {"ios": "https://dc.lft.to/lastmile_qr_scan", "android": "https://dc.lft.to/lastmile_qr_scan"}, "type": "electric_scooter", "fusion_lat": 0.0, "lon": -76.99610616666666}, {"fusion_lon": 0.0, "bike_id": "1f25aea877d43b9a7f0f16dca10759b2", "is_disabled": 0, "is_reserved": 0, "lat": 38.899923666666666, "name": "1f25aea877d43b9a7f0f16dca10759b2", "rental_uris": {"ios": "https://dc.lft.to/lastmile_qr_scan", "android": "https://dc.lft.to/lastmile_qr_scan"}, "type": "electric_scooter", "fusion_lat": 0.0, "lon": -77.01933083333333}, {"fusion_lon": 0.0, "bike_id": "47e7c7df5496c378fd90de730db3b710", "is_disabled": 0, "is_reserved": 0, "lat": 38.8913535, "name": "47e7c7df5496c378fd90de730db3b710", "rental_uris": {"ios": "https://dc.lft.to/lastmile_qr_scan", "android": "https://dc.lft.to/lastmile_qr_scan"}, "type": "electric_scooter", "fusion_lat": 0.0, "lon": -76.99941016666666}, {"fusion_lon": 0.0, "bike_id": "3fd982a5873360524ea7dc446caefd1e", "is_disabled": 0, "is_reserved": 0, "lat": 38.8767615, "name": "3fd982a5873360524ea7dc446caefd1e", "rental_uris": {"ios": "https://dc.lft.to/lastmile_qr_scan", "android": "https://dc.lft.to/lastmile_qr_scan"}, "type": "electric_bike", "fusion_lat": 0.0, "lon": -77.0146585}, {"fusion_lon": 0.0, "bike_id": "53dec4db4044e5a68503d408d3f256a4", "is_disabled": 0, "is_reserved": 0, "lat": 38.918690166666664, "name": "53dec4db4044e5a68503d408d3f256a4", "rental_uris": {"ios": "https://dc.lft.to/lastmile_qr_scan", "android": "https://dc.lft.to/lastmile_qr_scan"}, "type": "electric_scooter", "fusion_lat": 0.0, "lon": -77.0447145}, {"fusion_lon": 0.0, "bike_id": "9a9387eb4602d107e4013bc7bdd0863f", "is_disabled": 0, "is_reserved": 0, "lat": 38.9118395, "name": "9a9387eb4602d107e4013bc7bdd0863f", "rental_uris": {"ios": "https://dc.lft.to/lastmile_qr_scan", "android": "https://dc.lft.to/lastmile_qr_scan"}, "type": "electric_scooter", "fusion_lat": 0.0, "lon": -77.03219033333333}, {"fusion_lon": 0.0, "bike_id": "ba2251398e887c0ba0145e98df489612", "is_disabled": 0, "is_reserved": 0, "lat": 38.9025535, "name": "ba2251398e887c0ba0145e98df489612", "rental_uris": {"ios": "https://dc.lft.to/lastmile_qr_scan", "android": "https://dc.lft.to/lastmile_qr_scan"}, "type": "electric_scooter", "fusion_lat": 0.0, "lon": -77.03969066666667}, {"fusion_lon": 0.0, "bike_id": "c2d9a3a35c65fd32b01dc9b97c5cef98", "is_disabled": 0, "is_reserved": 0, "lat": 38.911095, "name": "c2d9a3a35c65fd32b01dc9b97c5cef98", "rental_uris": {"ios": "https://dc.lft.to/lastmile_qr_scan", "android": "https://dc.lft.to/lastmile_qr_scan"}, "type": "electric_scooter", "fusion_lat": 0.0, "lon": -77.0447545}, {"fusion_lon": 0.0, "bike_id": "131d1ea21c760da5d51c22d7d9cc678d", "is_disabled": 0, "is_reserved": 0, "lat": 38.92323716666667, "name": "131d1ea21c760da5d51c22d7d9cc678d", "rental_uris": {"ios": "https://dc.lft.to/lastmile_qr_scan", "android": "https://dc.lft.to/lastmile_qr_scan"}, "type": "electric_scooter", "fusion_lat": 0.0, "lon": -77.03909433333334}, {"fusion_lon": 0.0, "bike_id": "8f6a808caaa9f20b991643548769bd73", "is_disabled": 0, "is_reserved": 0, "lat": 38.91815883333334, "name": "8f6a808caaa9f20b991643548769bd73", "rental_uris": {"ios": "https://dc.lft.to/lastmile_qr_scan", "android": "https://dc.lft.to/lastmile_qr_scan"}, "type": "electric_scooter", "fusion_lat": 0.0, "lon": -77.04975266666666}, {"fusion_lon": 0.0, "bike_id": "4a29de328840656a5a0bf8f3b635a1f3", "is_disabled": 0, "is_reserved": 0, "lat": 38.915733833333334, "name": "4a29de328840656a5a0bf8f3b635a1f3", "rental_uris": {"ios": "https://dc.lft.to/lastmile_qr_scan", "android": "https://dc.lft.to/lastmile_qr_scan"}, "type": "electric_scooter", "fusion_lat": 0.0, "lon": -77.04634866666666}, {"fusion_lon": 0.0, "bike_id": "c95505ea8cd75c5a35ff9a8c1586a1bf", "is_disabled": 0, "is_reserved": 0, "lat": 38.91709, "name": "c95505ea8cd75c5a35ff9a8c1586a1bf", "rental_uris": {"ios": "https://dc.lft.to/lastmile_qr_scan", "android": "https://dc.lft.to/lastmile_qr_scan"}, "type": "electric_scooter", "fusion_lat": 0.0, "lon": -77.03866533333333}, {"fusion_lon": 0.0, "bike_id": "1e56c8afed5ceb3fb8fd91641d68e810", "is_disabled": 0, "is_reserved": 0, "lat": 38.91416916666667, "name": "1e56c8afed5ceb3fb8fd91641d68e810", "rental_uris": {"ios": "https://dc.lft.to/lastmile_qr_scan", "android": "https://dc.lft.to/lastmile_qr_scan"}, "type": "electric_scooter", "fusion_lat": 0.0, "lon": -77.02913}, {"fusion_lon": 0.0, "bike_id": "c497d54127ccf4cb7493ec849dd83a2b", "is_disabled": 0, "is_reserved": 0, "lat": 38.930838333333334, "name": "c497d54127ccf4cb7493ec849dd83a2b", "rental_uris": {"ios": "https://dc.lft.to/lastmile_qr_scan", "android": "https://dc.lft.to/lastmile_qr_scan"}, "type": "electric_scooter", "fusion_lat": 0.0, "lon": -77.0020465}, {"fusion_lon": 0.0, "bike_id": "59c99b05c44d81181f03b8f8321607cf", "is_disabled": 0, "is_reserved": 0, "lat": 38.88474933333333, "name": "59c99b05c44d81181f03b8f8321607cf", "rental_uris": {"ios": "https://dc.lft.to/lastmile_qr_scan", "android": "https://dc.lft.to/lastmile_qr_scan"}, "type": "electric_scooter", "fusion_lat": 0.0, "lon": -77.02491283333333}, {"fusion_lon": 0.0, "bike_id": "abcb72d9c4aadb56a8f1d05388b1137a", "is_disabled": 0, "is_reserved": 0, "lat": 38.918581333333336, "name": "abcb72d9c4aadb56a8f1d05388b1137a", "rental_uris": {"ios": "https://dc.lft.to/lastmile_qr_scan", "android": "https://dc.lft.to/lastmile_qr_scan"}, "type": "electric_scooter", "fusion_lat": 0.0, "lon": -77.03490216666667}, {"fusion_lon": 0.0, "bike_id": "18be7b0353083dab8cc68fa246bbad1b", "is_disabled": 0, "is_reserved": 0, "lat": 38.920492333333335, "name": "18be7b0353083dab8cc68fa246bbad1b", "rental_uris": {"ios": "https://dc.lft.to/lastmile_qr_scan", "android": "https://dc.lft.to/lastmile_qr_scan"}, "type": "electric_scooter", "fusion_lat": 0.0, "lon": -77.01724166666666}, {"fusion_lon": 0.0, "bike_id": "3839fe4ebe1d703acd0eace0ab2cea50", "is_disabled": 0, "is_reserved": 0, "lat": 38.91256666666666, "name": "3839fe4ebe1d703acd0eace0ab2cea50", "rental_uris": {"ios": "https://dc.lft.to/lastmile_qr_scan", "android": "https://dc.lft.to/lastmile_qr_scan"}, "type": "electric_scooter", "fusion_lat": 0.0, "lon": -77.0287105}, {"fusion_lon": 0.0, "bike_id": "0b6df542d0ad06d3bcbe508b76d2e83c", "is_disabled": 0, "is_reserved": 0, "lat": 38.9535135, "name": "0b6df542d0ad06d3bcbe508b76d2e83c", "rental_uris": {"ios": "https://dc.lft.to/lastmile_qr_scan", "android": "https://dc.lft.to/lastmile_qr_scan"}, "type": "electric_scooter", "fusion_lat": 0.0, "lon": -77.02565883333334}, {"fusion_lon": 0.0, "bike_id": "f5c71880428131159b7d600a86c2027c", "is_disabled": 0, "is_reserved": 0, "lat": 38.92056216666667, "name": "f5c71880428131159b7d600a86c2027c", "rental_uris": {"ios": "https://dc.lft.to/lastmile_qr_scan", "android": "https://dc.lft.to/lastmile_qr_scan"}, "type": "electric_scooter", "fusion_lat": 0.0, "lon": -76.99885266666666}, {"fusion_lon": 0.0, "bike_id": "f143b8d5d710c0be91e0b3bbc9d433e6", "is_disabled": 0, "is_reserved": 0, "lat": 38.92533066666667, "name": "f143b8d5d710c0be91e0b3bbc9d433e6", "rental_uris": {"ios": "https://dc.lft.to/lastmile_qr_scan", "android": "https://dc.lft.to/lastmile_qr_scan"}, "type": "electric_scooter", "fusion_lat": 0.0, "lon": -77.03444}, {"fusion_lon": 0.0, "bike_id": "fee6df9383516fb95ae01f41dd4e9536", "is_disabled": 0, "is_reserved": 0, "lat": 38.932675333333336, "name": "fee6df9383516fb95ae01f41dd4e9536", "rental_uris": {"ios": "https://dc.lft.to/lastmile_qr_scan", "android": "https://dc.lft.to/lastmile_qr_scan"}, "type": "electric_scooter", "fusion_lat": 0.0, "lon": -77.0192185}, {"fusion_lon": 0.0, "bike_id": "c4b42d812305b49437877170ee9f3830", "is_disabled": 0, "is_reserved": 0, "lat": 38.91558366666667, "name": "c4b42d812305b49437877170ee9f3830", "rental_uris": {"ios": "https://dc.lft.to/lastmile_qr_scan", "android": "https://dc.lft.to/lastmile_qr_scan"}, "type": "electric_scooter", "fusion_lat": 0.0, "lon": -77.0319795}, {"fusion_lon": 0.0, "bike_id": "48782a1bfc213a2c818f038d60d21ae4", "is_disabled": 0, "is_reserved": 0, "lat": 38.895456, "name": "48782a1bfc213a2c818f038d60d21ae4", "rental_uris": {"ios": "https://dc.lft.to/lastmile_qr_scan", "android": "https://dc.lft.to/lastmile_qr_scan"}, "type": "electric_scooter", "fusion_lat": 0.0, "lon": -76.98338433333333}, {"fusion_lon": 0.0, "bike_id": "fe58875d7c44d4c73e126408640e161d", "is_disabled": 0, "is_reserved": 0, "lat": 38.90357083333333, "name": "fe58875d7c44d4c73e126408640e161d", "rental_uris": {"ios": "https://dc.lft.to/lastmile_qr_scan", "android": "https://dc.lft.to/lastmile_qr_scan"}, "type": "electric_scooter", "fusion_lat": 0.0, "lon": -77.0268485}, {"fusion_lon": 0.0, "bike_id": "a3ee6b5f2696246fcfdb863c793c721e", "is_disabled": 0, "is_reserved": 0, "lat": 38.910995166666666, "name": "a3ee6b5f2696246fcfdb863c793c721e", "rental_uris": {"ios": "https://dc.lft.to/lastmile_qr_scan", "android": "https://dc.lft.to/lastmile_qr_scan"}, "type": "electric_scooter", "fusion_lat": 0.0, "lon": -77.0093695}, {"fusion_lon": 0.0, "bike_id": "d5e0d947bd81f5541f2c72035ca351c8", "is_disabled": 0, "is_reserved": 0, "lat": 38.93488683333333, "name": "d5e0d947bd81f5541f2c72035ca351c8", "rental_uris": {"ios": "https://dc.lft.to/lastmile_qr_scan", "android": "https://dc.lft.to/lastmile_qr_scan"}, "type": "electric_scooter", "fusion_lat": 0.0, "lon": -77.03654566666667}, {"fusion_lon": 0.0, "bike_id": "184f265b644157d0eb81bfeea0144aa7", "is_disabled": 0, "is_reserved": 0, "lat": 38.92681683333333, "name": "184f265b644157d0eb81bfeea0144aa7", "rental_uris": {"ios": "https://dc.lft.to/lastmile_qr_scan", "android": "https://dc.lft.to/lastmile_qr_scan"}, "type": "electric_scooter", "fusion_lat": 0.0, "lon": -77.0258025}, {"fusion_lon": 0.0, "bike_id": "eac9bf1623f79c54c4d0707c67234ab5", "is_disabled": 0, "is_reserved": 0, "lat": 38.90964683333333, "name": "eac9bf1623f79c54c4d0707c67234ab5", "rental_uris": {"ios": "https://dc.lft.to/lastmile_qr_scan", "android": "https://dc.lft.to/lastmile_qr_scan"}, "type": "electric_scooter", "fusion_lat": 0.0, "lon": -77.0241655}, {"fusion_lon": 0.0, "bike_id": "24703fe154dc6d80738d6b009a83883f", "is_disabled": 0, "is_reserved": 0, "lat": 38.96164533333334, "name": "24703fe154dc6d80738d6b009a83883f", "rental_uris": {"ios": "https://dc.lft.to/lastmile_qr_scan", "android": "https://dc.lft.to/lastmile_qr_scan"}, "type": "electric_bike", "fusion_lat": 0.0, "lon": -77.03247083333333}, {"fusion_lon": 0.0, "bike_id": "67b57915156640493bee5c6b62ba860c", "is_disabled": 0, "is_reserved": 0, "lat": 38.92878283333334, "name": "67b57915156640493bee5c6b62ba860c", "rental_uris": {"ios": "https://dc.lft.to/lastmile_qr_scan", "android": "https://dc.lft.to/lastmile_qr_scan"}, "type": "electric_scooter", "fusion_lat": 0.0, "lon": -77.03687916666667}, {"fusion_lon": 0.0, "bike_id": "3d0501024f65d8023740fec1078c8918", "is_disabled": 0, "is_reserved": 0, "lat": 38.91924316666667, "name": "3d0501024f65d8023740fec1078c8918", "rental_uris": {"ios": "https://dc.lft.to/lastmile_qr_scan", "android": "https://dc.lft.to/lastmile_qr_scan"}, "type": "electric_scooter", "fusion_lat": 0.0, "lon": -77.08067683333333}, {"fusion_lon": 0.0, "bike_id": "6376b8abca87d54fc43e21b9641d8582", "is_disabled": 0, "is_reserved": 0, "lat": 38.89980533333333, "name": "6376b8abca87d54fc43e21b9641d8582", "rental_uris": {"ios": "https://dc.lft.to/lastmile_qr_scan", "android": "https://dc.lft.to/lastmile_qr_scan"}, "type": "electric_scooter", "fusion_lat": 0.0, "lon": -77.04197483333333}, {"fusion_lon": 0.0, "bike_id": "dc45cf6bc4f438ea28d3da24e86b7496", "is_disabled": 0, "is_reserved": 0, "lat": 38.915991, "name": "dc45cf6bc4f438ea28d3da24e86b7496", "rental_uris": {"ios": "https://dc.lft.to/lastmile_qr_scan", "android": "https://dc.lft.to/lastmile_qr_scan"}, "type": "electric_scooter", "fusion_lat": 0.0, "lon": -77.03204833333334}, {"fusion_lon": 0.0, "bike_id": "57b9216416a30f027b676ec763020c86", "is_disabled": 0, "is_reserved": 0, "lat": 38.9024345, "name": "57b9216416a30f027b676ec763020c86", "rental_uris": {"ios": "https://dc.lft.to/lastmile_qr_scan", "android": "https://dc.lft.to/lastmile_qr_scan"}, "type": "electric_scooter", "fusion_lat": 0.0, "lon": -77.01451116666667}, {"fusion_lon": 0.0, "bike_id": "08ee6fe0efaca121e161377bb99c4f40", "is_disabled": 0, "is_reserved": 0, "lat": 38.930608, "name": "08ee6fe0efaca121e161377bb99c4f40", "rental_uris": {"ios": "https://dc.lft.to/lastmile_qr_scan", "android": "https://dc.lft.to/lastmile_qr_scan"}, "type": "electric_scooter", "fusion_lat": 0.0, "lon": -77.02322866666667}, {"fusion_lon": 0.0, "bike_id": "962b865f0e28bcadb9c59c77f55cadc4", "is_disabled": 0, "is_reserved": 0, "lat": 38.900381333333335, "name": "962b865f0e28bcadb9c59c77f55cadc4", "rental_uris": {"ios": "https://dc.lft.to/lastmile_qr_scan", "android": "https://dc.lft.to/lastmile_qr_scan"}, "type": "electric_scooter", "fusion_lat": 0.0, "lon": -77.00197333333334}, {"fusion_lon": 0.0, "bike_id": "ed175c2dfb6a952e254b8e4e1810fa60", "is_disabled": 0, "is_reserved": 0, "lat": 38.873785833333336, "name": "ed175c2dfb6a952e254b8e4e1810fa60", "rental_uris": {"ios": "https://dc.lft.to/lastmile_qr_scan", "android": "https://dc.lft.to/lastmile_qr_scan"}, "type": "electric_scooter", "fusion_lat": 0.0, "lon": -77.00129166666666}, {"fusion_lon": 0.0, "bike_id": "5681aedda29c89b507672a3869e9003c", "is_disabled": 0, "is_reserved": 0, "lat": 38.90613866666666, "name": "5681aedda29c89b507672a3869e9003c", "rental_uris": {"ios": "https://dc.lft.to/lastmile_qr_scan", "android": "https://dc.lft.to/lastmile_qr_scan"}, "type": "electric_bike", "fusion_lat": 0.0, "lon": -77.12903816666666}, {"fusion_lon": 0.0, "bike_id": "042a5659b727ea381856cde5d6535105", "is_disabled": 0, "is_reserved": 0, "lat": 38.936356333333336, "name": "042a5659b727ea381856cde5d6535105", "rental_uris": {"ios": "https://dc.lft.to/lastmile_qr_scan", "android": "https://dc.lft.to/lastmile_qr_scan"}, "type": "electric_scooter", "fusion_lat": 0.0, "lon": -77.036608}, {"fusion_lon": 0.0, "bike_id": "686edd224b322320f8bdfb33a1f2492b", "is_disabled": 0, "is_reserved": 0, "lat": 38.906931, "name": "686edd224b322320f8bdfb33a1f2492b", "rental_uris": {"ios": "https://dc.lft.to/lastmile_qr_scan", "android": "https://dc.lft.to/lastmile_qr_scan"}, "type": "electric_scooter", "fusion_lat": 0.0, "lon": -77.02717633333333}, {"fusion_lon": 0.0, "bike_id": "6046c6dd647bb40e80082410da8c7c05", "is_disabled": 0, "is_reserved": 0, "lat": 38.92599533333333, "name": "6046c6dd647bb40e80082410da8c7c05", "rental_uris": {"ios": "https://dc.lft.to/lastmile_qr_scan", "android": "https://dc.lft.to/lastmile_qr_scan"}, "type": "electric_scooter", "fusion_lat": 0.0, "lon": -77.0216025}, {"fusion_lon": 0.0, "bike_id": "484fba8138c8549fc373f3ebf7d4c0ad", "is_disabled": 0, "is_reserved": 0, "lat": 38.86006583333333, "name": "484fba8138c8549fc373f3ebf7d4c0ad", "rental_uris": {"ios": "https://dc.lft.to/lastmile_qr_scan", "android": "https://dc.lft.to/lastmile_qr_scan"}, "type": "electric_scooter", "fusion_lat": 0.0, "lon": -76.98522516666667}, {"fusion_lon": 0.0, "bike_id": "ab161698a11b5919a618f04318a9547b", "is_disabled": 0, "is_reserved": 0, "lat": 38.92716333333333, "name": "ab161698a11b5919a618f04318a9547b", "rental_uris": {"ios": "https://dc.lft.to/lastmile_qr_scan", "android": "https://dc.lft.to/lastmile_qr_scan"}, "type": "electric_scooter", "fusion_lat": 0.0, "lon": -77.022998}, {"fusion_lon": 0.0, "bike_id": "14876dfabacc28b0fce299016d63d2df", "is_disabled": 0, "is_reserved": 0, "lat": 38.91830816666667, "name": "14876dfabacc28b0fce299016d63d2df", "rental_uris": {"ios": "https://dc.lft.to/lastmile_qr_scan", "android": "https://dc.lft.to/lastmile_qr_scan"}, "type": "electric_scooter", "fusion_lat": 0.0, "lon": -77.03180166666667}, {"fusion_lon": 0.0, "bike_id": "657327532303856cd13e6c873e3e88fb", "is_disabled": 0, "is_reserved": 0, "lat": 38.923384166666665, "name": "657327532303856cd13e6c873e3e88fb", "rental_uris": {"ios": "https://dc.lft.to/lastmile_qr_scan", "android": "https://dc.lft.to/lastmile_qr_scan"}, "type": "electric_scooter", "fusion_lat": 0.0, "lon": -77.024392}, {"fusion_lon": 0.0, "bike_id": "4948077720e633186e537ab419ea8644", "is_disabled": 0, "is_reserved": 0, "lat": 38.90395516666667, "name": "4948077720e633186e537ab419ea8644", "rental_uris": {"ios": "https://dc.lft.to/lastmile_qr_scan", "android": "https://dc.lft.to/lastmile_qr_scan"}, "type": "electric_scooter", "fusion_lat": 0.0, "lon": -77.04233616666667}, {"fusion_lon": 0.0, "bike_id": "01064c338d7d2b4a35881542dac0acdd", "is_disabled": 0, "is_reserved": 0, "lat": 38.897303666666666, "name": "01064c338d7d2b4a35881542dac0acdd", "rental_uris": {"ios": "https://dc.lft.to/lastmile_qr_scan", "android": "https://dc.lft.to/lastmile_qr_scan"}, "type": "electric_scooter", "fusion_lat": 0.0, "lon": -76.925962}, {"fusion_lon": 0.0, "bike_id": "dc6958da8a23fb06693458fbe54ea180", "is_disabled": 0, "is_reserved": 0, "lat": 38.918160666666665, "name": "dc6958da8a23fb06693458fbe54ea180", "rental_uris": {"ios": "https://dc.lft.to/lastmile_qr_scan", "android": "https://dc.lft.to/lastmile_qr_scan"}, "type": "electric_scooter", "fusion_lat": 0.0, "lon": -77.02531016666667}, {"fusion_lon": 0.0, "bike_id": "90b5be63f12fc58cb30ac5a97e736923", "is_disabled": 0, "is_reserved": 0, "lat": 38.91432833333333, "name": "90b5be63f12fc58cb30ac5a97e736923", "rental_uris": {"ios": "https://dc.lft.to/lastmile_qr_scan", "android": "https://dc.lft.to/lastmile_qr_scan"}, "type": "electric_scooter", "fusion_lat": 0.0, "lon": -77.0669295}, {"fusion_lon": 0.0, "bike_id": "1db417c03469c313e65b4fc4e852ebfd", "is_disabled": 0, "is_reserved": 0, "lat": 38.91470066666667, "name": "1db417c03469c313e65b4fc4e852ebfd", "rental_uris": {"ios": "https://dc.lft.to/lastmile_qr_scan", "android": "https://dc.lft.to/lastmile_qr_scan"}, "type": "electric_scooter", "fusion_lat": 0.0, "lon": -77.00212316666666}, {"fusion_lon": 0.0, "bike_id": "eb256826316bdfb422fefaeb3f597a12", "is_disabled": 0, "is_reserved": 0, "lat": 38.9224755, "name": "eb256826316bdfb422fefaeb3f597a12", "rental_uris": {"ios": "https://dc.lft.to/lastmile_qr_scan", "android": "https://dc.lft.to/lastmile_qr_scan"}, "type": "electric_scooter", "fusion_lat": 0.0, "lon": -77.03084416666667}, {"fusion_lon": 0.0, "bike_id": "947ddbb4ab623e7e3a03fa47b275c13e", "is_disabled": 0, "is_reserved": 0, "lat": 38.91883816666667, "name": "947ddbb4ab623e7e3a03fa47b275c13e", "rental_uris": {"ios": "https://dc.lft.to/lastmile_qr_scan", "android": "https://dc.lft.to/lastmile_qr_scan"}, "type": "electric_scooter", "fusion_lat": 0.0, "lon": -77.03755816666667}, {"fusion_lon": 0.0, "bike_id": "705895c1909e6a73de9b94fe87ef828e", "is_disabled": 0, "is_reserved": 0, "lat": 38.92741, "name": "705895c1909e6a73de9b94fe87ef828e", "rental_uris": {"ios": "https://dc.lft.to/lastmile_qr_scan", "android": "https://dc.lft.to/lastmile_qr_scan"}, "type": "electric_scooter", "fusion_lat": 0.0, "lon": -77.03555833333333}, {"fusion_lon": 0.0, "bike_id": "2a660b859e831b5b90ba1a331cb4469e", "is_disabled": 0, "is_reserved": 0, "lat": 38.917109333333336, "name": "2a660b859e831b5b90ba1a331cb4469e", "rental_uris": {"ios": "https://dc.lft.to/lastmile_qr_scan", "android": "https://dc.lft.to/lastmile_qr_scan"}, "type": "electric_scooter", "fusion_lat": 0.0, "lon": -77.02276983333333}, {"fusion_lon": 0.0, "bike_id": "0a52debd0b7b15d68d0d853453433589", "is_disabled": 0, "is_reserved": 0, "lat": 38.91703916666667, "name": "0a52debd0b7b15d68d0d853453433589", "rental_uris": {"ios": "https://dc.lft.to/lastmile_qr_scan", "android": "https://dc.lft.to/lastmile_qr_scan"}, "type": "electric_scooter", "fusion_lat": 0.0, "lon": -77.01102233333333}, {"fusion_lon": 0.0, "bike_id": "63dba77260b13794e9fde02d291c0021", "is_disabled": 0, "is_reserved": 0, "lat": 38.911163333333334, "name": "63dba77260b13794e9fde02d291c0021", "rental_uris": {"ios": "https://dc.lft.to/lastmile_qr_scan", "android": "https://dc.lft.to/lastmile_qr_scan"}, "type": "electric_scooter", "fusion_lat": 0.0, "lon": -77.02196633333334}, {"fusion_lon": 0.0, "bike_id": "122fbdc4781a46615f466da6e838182f", "is_disabled": 0, "is_reserved": 0, "lat": 38.924643833333334, "name": "122fbdc4781a46615f466da6e838182f", "rental_uris": {"ios": "https://dc.lft.to/lastmile_qr_scan", "android": "https://dc.lft.to/lastmile_qr_scan"}, "type": "electric_scooter", "fusion_lat": 0.0, "lon": -77.030549}, {"fusion_lon": 0.0, "bike_id": "5fd94b53f6344e0b9dba8de4531c32cd", "is_disabled": 0, "is_reserved": 0, "lat": 38.94980233333333, "name": "5fd94b53f6344e0b9dba8de4531c32cd", "rental_uris": {"ios": "https://dc.lft.to/lastmile_qr_scan", "android": "https://dc.lft.to/lastmile_qr_scan"}, "type": "electric_scooter", "fusion_lat": 0.0, "lon": -77.024494}, {"fusion_lon": 0.0, "bike_id": "9d7674653feb571bd5d01f5d07013a38", "is_disabled": 0, "is_reserved": 0, "lat": 38.8934835, "name": "9d7674653feb571bd5d01f5d07013a38", "rental_uris": {"ios": "https://dc.lft.to/lastmile_qr_scan", "android": "https://dc.lft.to/lastmile_qr_scan"}, "type": "electric_scooter", "fusion_lat": 0.0, "lon": -77.04192266666666}, {"fusion_lon": 0.0, "bike_id": "cf3d73aeaf5bbcfd3a60ff430f1ed5dd", "is_disabled": 0, "is_reserved": 0, "lat": 38.894151, "name": "cf3d73aeaf5bbcfd3a60ff430f1ed5dd", "rental_uris": {"ios": "https://dc.lft.to/lastmile_qr_scan", "android": "https://dc.lft.to/lastmile_qr_scan"}, "type": "electric_scooter", "fusion_lat": 0.0, "lon": -77.04465466666667}, {"fusion_lon": 0.0, "bike_id": "8552ff71946c5bb25049146e87dafc38", "is_disabled": 0, "is_reserved": 0, "lat": 38.923162, "name": "8552ff71946c5bb25049146e87dafc38", "rental_uris": {"ios": "https://dc.lft.to/lastmile_qr_scan", "android": "https://dc.lft.to/lastmile_qr_scan"}, "type": "electric_scooter", "fusion_lat": 0.0, "lon": -77.0438005}, {"fusion_lon": 0.0, "bike_id": "87db52bd16132b7c956eb8acfbcb0254", "is_disabled": 0, "is_reserved": 0, "lat": 38.90032683333333, "name": "87db52bd16132b7c956eb8acfbcb0254", "rental_uris": {"ios": "https://dc.lft.to/lastmile_qr_scan", "android": "https://dc.lft.to/lastmile_qr_scan"}, "type": "electric_scooter", "fusion_lat": 0.0, "lon": -77.00212333333333}, {"fusion_lon": 0.0, "bike_id": "076f1cd76a18782baeb490e26babc5e4", "is_disabled": 0, "is_reserved": 0, "lat": 38.92791116666667, "name": "076f1cd76a18782baeb490e26babc5e4", "rental_uris": {"ios": "https://dc.lft.to/lastmile_qr_scan", "android": "https://dc.lft.to/lastmile_qr_scan"}, "type": "electric_scooter", "fusion_lat": 0.0, "lon": -77.031511}, {"fusion_lon": 0.0, "bike_id": "c3f1e9c335ea61a4489aa5b6c5197153", "is_disabled": 0, "is_reserved": 0, "lat": 38.898784, "name": "c3f1e9c335ea61a4489aa5b6c5197153", "rental_uris": {"ios": "https://dc.lft.to/lastmile_qr_scan", "android": "https://dc.lft.to/lastmile_qr_scan"}, "type": "electric_scooter", "fusion_lat": 0.0, "lon": -77.046642}, {"fusion_lon": 0.0, "bike_id": "33e7669b8bedc1089973340660e8e90d", "is_disabled": 0, "is_reserved": 0, "lat": 38.941993333333336, "name": "33e7669b8bedc1089973340660e8e90d", "rental_uris": {"ios": "https://dc.lft.to/lastmile_qr_scan", "android": "https://dc.lft.to/lastmile_qr_scan"}, "type": "electric_scooter", "fusion_lat": 0.0, "lon": -77.02855366666667}, {"fusion_lon": 0.0, "bike_id": "80f732b370e4aa5c460847033f654409", "is_disabled": 0, "is_reserved": 0, "lat": 38.91821866666667, "name": "80f732b370e4aa5c460847033f654409", "rental_uris": {"ios": "https://dc.lft.to/lastmile_qr_scan", "android": "https://dc.lft.to/lastmile_qr_scan"}, "type": "electric_scooter", "fusion_lat": 0.0, "lon": -77.0293945}, {"fusion_lon": 0.0, "bike_id": "6732bf0c282fa917c30cbfaa46dce9ba", "is_disabled": 0, "is_reserved": 0, "lat": 38.91659633333333, "name": "6732bf0c282fa917c30cbfaa46dce9ba", "rental_uris": {"ios": "https://dc.lft.to/lastmile_qr_scan", "android": "https://dc.lft.to/lastmile_qr_scan"}, "type": "electric_scooter", "fusion_lat": 0.0, "lon": -77.03860316666666}, {"fusion_lon": 0.0, "bike_id": "9c12f0f4eb04a48adf2133541dba3f6c", "is_disabled": 0, "is_reserved": 0, "lat": 38.90862166666667, "name": "9c12f0f4eb04a48adf2133541dba3f6c", "rental_uris": {"ios": "https://dc.lft.to/lastmile_qr_scan", "android": "https://dc.lft.to/lastmile_qr_scan"}, "type": "electric_scooter", "fusion_lat": 0.0, "lon": -76.99954983333333}, {"fusion_lon": 0.0, "bike_id": "e4798a068e03d1d1a08dc66405f81e18", "is_disabled": 0, "is_reserved": 0, "lat": 38.9261485, "name": "e4798a068e03d1d1a08dc66405f81e18", "rental_uris": {"ios": "https://dc.lft.to/lastmile_qr_scan", "android": "https://dc.lft.to/lastmile_qr_scan"}, "type": "electric_scooter", "fusion_lat": 0.0, "lon": -77.03929383333333}, {"fusion_lon": 0.0, "bike_id": "70b70d99495d0b7345b1d4f0ead1641e", "is_disabled": 0, "is_reserved": 0, "lat": 38.924250666666666, "name": "70b70d99495d0b7345b1d4f0ead1641e", "rental_uris": {"ios": "https://dc.lft.to/lastmile_qr_scan", "android": "https://dc.lft.to/lastmile_qr_scan"}, "type": "electric_scooter", "fusion_lat": 0.0, "lon": -77.04018216666667}, {"fusion_lon": 0.0, "bike_id": "e4aa1ad4f337722cc5513034f065f637", "is_disabled": 0, "is_reserved": 0, "lat": 38.842830166666666, "name": "e4aa1ad4f337722cc5513034f065f637", "rental_uris": {"ios": "https://dc.lft.to/lastmile_qr_scan", "android": "https://dc.lft.to/lastmile_qr_scan"}, "type": "electric_bike", "fusion_lat": 0.0, "lon": -76.98841350000001}, {"fusion_lon": 0.0, "bike_id": "1abcd9c4972c1faf4e070ab33c77e2dd", "is_disabled": 0, "is_reserved": 0, "lat": 38.900541, "name": "1abcd9c4972c1faf4e070ab33c77e2dd", "rental_uris": {"ios": "https://dc.lft.to/lastmile_qr_scan", "android": "https://dc.lft.to/lastmile_qr_scan"}, "type": "electric_scooter", "fusion_lat": 0.0, "lon": -77.04445666666666}, {"fusion_lon": 0.0, "bike_id": "f9702e80eae632701fb670a2851dd349", "is_disabled": 0, "is_reserved": 0, "lat": 38.899717333333335, "name": "f9702e80eae632701fb670a2851dd349", "rental_uris": {"ios": "https://dc.lft.to/lastmile_qr_scan", "android": "https://dc.lft.to/lastmile_qr_scan"}, "type": "electric_scooter", "fusion_lat": 0.0, "lon": -77.03352283333334}, {"fusion_lon": 0.0, "bike_id": "4b62acb425ecfa19217d3a150419e11b", "is_disabled": 0, "is_reserved": 0, "lat": 38.92592716666667, "name": "4b62acb425ecfa19217d3a150419e11b", "rental_uris": {"ios": "https://dc.lft.to/lastmile_qr_scan", "android": "https://dc.lft.to/lastmile_qr_scan"}, "type": "electric_scooter", "fusion_lat": 0.0, "lon": -77.02502833333334}, {"fusion_lon": 0.0, "bike_id": "6b6bedc72ef28d5e23af6edd20a24d98", "is_disabled": 0, "is_reserved": 0, "lat": 38.894712, "name": "6b6bedc72ef28d5e23af6edd20a24d98", "rental_uris": {"ios": "https://dc.lft.to/lastmile_qr_scan", "android": "https://dc.lft.to/lastmile_qr_scan"}, "type": "electric_scooter", "fusion_lat": 0.0, "lon": -76.98591466666667}, {"fusion_lon": 0.0, "bike_id": "4e57a8c621164af318ea957e57a1e5ea", "is_disabled": 0, "is_reserved": 0, "lat": 38.916953666666664, "name": "4e57a8c621164af318ea957e57a1e5ea", "rental_uris": {"ios": "https://dc.lft.to/lastmile_qr_scan", "android": "https://dc.lft.to/lastmile_qr_scan"}, "type": "electric_scooter", "fusion_lat": 0.0, "lon": -77.036368}, {"fusion_lon": 0.0, "bike_id": "a4c3384660ca8af4cd739123b20f2c6a", "is_disabled": 0, "is_reserved": 0, "lat": 38.924691, "name": "a4c3384660ca8af4cd739123b20f2c6a", "rental_uris": {"ios": "https://dc.lft.to/lastmile_qr_scan", "android": "https://dc.lft.to/lastmile_qr_scan"}, "type": "electric_scooter", "fusion_lat": 0.0, "lon": -77.02215633333333},