{"data": {"bikes": [{"name": "2cf618fa0e921a4fb7c45c9c0910c186", "fusion_lat": 0.0, "type": "electric_scooter", "lat": 38.905162, "is_reserved": 0, "is_disabled": 0, "fusion_lon": 0.0, "bike_id": "2cf618fa0e921a4fb7c45c9c0910c186", "lon": -77.06382133333334, "rental_uris": {"ios": "https://dc.lft.to/lastmile_qr_scan", "android": "https://dc.lft.to/lastmile_qr_scan"}}, {"name": "1d94bbaea0b2712a0c890b1ac08e2e1c", "fusion_lat": 0.0, "type": "electric_bike", "lat": 38.943611833333335, "is_reserved": 0, "is_disabled": 0, "fusion_lon": 0.0, "bike_id": "1d94bbaea0b2712a0c890b1ac08e2e1c", "lon": -77.0034785, "rental_uris": {"ios": "https://dc.lft.to/lastmile_qr_scan", "android": "https://dc.lft.to/lastmile_qr_scan"}}, {"name": "15791f263a94819fd3e4da55b451b9fc", "fusion_lat": 0.0, "type": "electric_bike", "lat": 38.992301166666664, "is_reserved": 0, "is_disabled": 0, "fusion_lon": 0.0, "bike_id": "15791f263a94819fd3e4da55b451b9fc", "lon": -76.87820116666667, "rental_uris": {"ios": "https://dc.lft.to/lastmile_qr_scan", "android": "https://dc.lft.to/lastmile_qr_scan"}}, {"name": "be7facf7194e96c75b924ec692561c60", "fusion_lat": 0.0, "type": "electric_bike", "lat": 38.8842525, "is_reserved": 0, "is_disabled": 0, "fusion_lon": 0.0, "bike_id": "be7facf7194e96c75b924ec692561c60", "lon": -76.957551, "rental_uris": {"ios": "https://dc.lft.to/lastmile_qr_scan", "android": "https://dc.lft.to/lastmile_qr_scan"}}, {"name": "ec527bb4ca979fc8d62e9e759aefd953", "fusion_lat": 0.0, "type": "electric_scooter", "lat": 38.907660166666666, "is_reserved": 0, "is_disabled": 0, "fusion_lon": 0.0, "bike_id": "ec527bb4ca979fc8d62e9e759aefd953", "lon": -77.03858066666666, "rental_uris": {"ios": "https://dc.lft.to/lastmile_qr_scan", "android": "https://dc.lft.to/lastmile_qr_scan"}}, {"name": "d4bf81698fa2bc1174e4f7d837a81525", "fusion_lat": 0.0, "type": "electric_scooter", "lat": 38.903379, "is_reserved": 0, "is_disabled": 0, "fusion_lon": 0.0, "bike_id": "d4bf81698fa2bc1174e4f7d837a81525", "lon": -76.9466305, "rental_uris": {"ios": "https://dc.lft.to/lastmile_qr_scan", "android": "https://dc.lft.to/lastmile_qr_scan"}}, {"name": "55f23b78f9e32047c90cf7ab06d47ce4", "fusion_lat": 0.0, "type": "electric_bike", "lat": 38.94912216666667, "is_reserved": 0, "is_disabled": 0, "fusion_lon": 0.0, "bike_id": "55f23b78f9e32047c90cf7ab06d47ce4", "lon": -77.008404, "rental_uris": {"ios": "https://dc.lft.to/lastmile_qr_scan", "android": "https://dc.lft.to/lastmile_qr_scan"}}, {"name": "6be827eeec0e480c7495589ad07a8a02", "fusion_lat": 0.0, "type": "electric_scooter", "lat": 38.90952083333333, "is_reserved": 0, "is_disabled": 0, "fusion_lon": 0.0, "bike_id": "6be827eeec0e480c7495589ad07a8a02", "lon": -77.02407166666667, "rental_uris": {"ios": "https://dc.lft.to/lastmile_qr_scan", "android": "https://dc.lft.to/lastmile_qr_scan"}}, {"name": "a75601ed67479de757812bcb4a5afcfb", "fusion_lat": 0.0, "type": "electric_bike", "lat": 38.905158, "is_reserved": 0, "is_disabled": 0, "fusion_lon": 0.0, "bike_id": "a75601ed67479de757812bcb4a5afcfb", "lon": -77.0718755, "rental_uris": {"ios": "https://dc.lft.to/lastmile_qr_scan", "android": "https://dc.lft.to/lastmile_qr_scan"}}, {"name": "670130e29b1b7dc6d8e013ce115189d4", "fusion_lat": 0.0, "type": "electric_scooter", "lat": 38.895544, "is_reserved": 0, "is_disabled": 0, "fusion_lon": 0.0, "bike_id": "670130e29b1b7dc6d8e013ce115189d4", "lon": -77.04677083333333, "rental_uris": {"ios": "https://dc.lft.to/lastmile_qr_scan", "android": "https://dc.lft.to/lastmile_qr_scan"}}, {"name": "1b6a58095b44114f4233c40f5cf97b88", "fusion_lat": 0.0, "type": "electric_scooter", "lat": 38.9193775, "is_reserved": 0, "is_disabled": 0, "fusion_lon": 0.0, "bike_id": "1b6a58095b44114f4233c40f5cf97b88", "lon": -77.07075383333333, "rental_uris": {"ios": "https://dc.lft.to/lastmile_qr_scan", "android": "https://dc.lft.to/lastmile_qr_scan"}}, {"name": "652397c3a4c4a94b0bdc92a16247e131", "fusion_lat": 0.0, "type": "electric_scooter", "lat": 38.8948325, "is_reserved": 0, "is_disabled": 0, "fusion_lon": 0.0, "bike_id": "652397c3a4c4a94b0bdc92a16247e131", "lon": -76.9487445, "rental_uris": {"ios": "https://dc.lft.to/lastmile_qr_scan", "android": "https://dc.lft.to/lastmile_qr_scan"}}, {"name": "810fcadbb75339645a077bcfd143a7de", "fusion_lat": 0.0, "type": "electric_scooter", "lat": 38.89618266666667, "is_reserved": 0, "is_disabled": 0, "fusion_lon": 0.0, "bike_id": "810fcadbb75339645a077bcfd143a7de", "lon": -77.012189, "rental_uris": {"ios": "https://dc.lft.to/lastmile_qr_scan", "android": "https://dc.lft.to/lastmile_qr_scan"}}, {"name": "0c29e5aa0443eddb830497a4568b3571", "fusion_lat": 0.0, "type": "electric_scooter", "lat": 38.875683, "is_reserved": 0, "is_disabled": 0, "fusion_lon": 0.0, "bike_id": "0c29e5aa0443eddb830497a4568b3571", "lon": -77.0060695, "rental_uris": {"ios": "https://dc.lft.to/lastmile_qr_scan", "android": "https://dc.lft.to/lastmile_qr_scan"}}, {"name": "03522b0cea3a899cef644c1319d5601f", "fusion_lat": 0.0, "type": "electric_scooter", "lat": 38.901081166666664, "is_reserved": 0, "is_disabled": 0, "fusion_lon": 0.0, "bike_id": "03522b0cea3a899cef644c1319d5601f", "lon": -77.04637766666667, "rental_uris": {"ios": "https://dc.lft.to/lastmile_qr_scan", "android": "https://dc.lft.to/lastmile_qr_scan"}}, {"name": "93c3e5676ae5a4f5d964276ee42522ce", "fusion_lat": 0.0, "type": "electric_scooter", "lat": 38.92495566666667, "is_reserved": 0, "is_disabled": 0, "fusion_lon": 0.0, "bike_id": "93c3e5676ae5a4f5d964276ee42522ce", "lon": -77.021635, "rental_uris": {"ios": "https://dc.lft.to/lastmile_qr_scan", "android": "https://dc.lft.to/lastmile_qr_scan"}}, {"name": "6e5d95ddf183355bf97d914117d2b50e", "fusion_lat": 0.0, "type": "electric_scooter", "lat": 38.92875133333333, "is_reserved": 0, "is_disabled": 0, "fusion_lon": 0.0, "bike_id": "6e5d95ddf183355bf97d914117d2b50e", "lon": -77.0137475, "rental_uris": {"ios": "https://dc.lft.to/lastmile_qr_scan", "android": "https://dc.lft.to/lastmile_qr_scan"}}, {"name": "a50197ccabacb2983a6823e2e73444cb", "fusion_lat": 0.0, "type": "electric_scooter", "lat": 38.8964835, "is_reserved": 0, "is_disabled": 0, "fusion_lon": 0.0, "bike_id": "a50197ccabacb2983a6823e2e73444cb", "lon": -77.0091835, "rental_uris": {"ios": "https://dc.lft.to/lastmile_qr_scan", "android": "https://dc.lft.to/lastmile_qr_scan"}}, {"name": "48b3d52c87ce8e7c780aee33b383fc19", "fusion_lat": 0.0, "type": "electric_scooter", "lat": 38.903633166666665, "is_reserved": 0, "is_disabled": 0, "fusion_lon": 0.0, "bike_id": "48b3d52c87ce8e7c780aee33b383fc19", "lon": -77.04528733333333, "rental_uris": {"ios": "https://dc.lft.to/lastmile_qr_scan", "android": "https://dc.lft.to/lastmile_qr_scan"}}, {"name": "f7ae8749541a87a726d4cf476cb30b96", "fusion_lat": 0.0, "type": "electric_scooter", "lat": 38.90241416666667, "is_reserved": 0, "is_disabled": 0, "fusion_lon": 0.0, "bike_id": "f7ae8749541a87a726d4cf476cb30b96", "lon": -77.04350766666667, "rental_uris": {"ios": "https://dc.lft.to/lastmile_qr_scan", "android": "https://dc.lft.to/lastmile_qr_scan"}}, {"name": "c36929a36beade42e9b2b17fb5a4a81a", "fusion_lat": 0.0, "type": "electric_bike", "lat": 38.922214333333336, "is_reserved": 0, "is_disabled": 0, "fusion_lon": 0.0, "bike_id": "c36929a36beade42e9b2b17fb5a4a81a", "lon": -77.02829416666667, "rental_uris": {"ios": "https://dc.lft.to/lastmile_qr_scan", "android": "https://dc.lft.to/lastmile_qr_scan"}}, {"name": "2059d6dcbc0c9dee3b155b2cd31484c5", "fusion_lat": 0.0, "type": "electric_scooter", "lat": 38.93873716666667, "is_reserved": 0, "is_disabled": 0, "fusion_lon": 0.0, "bike_id": "2059d6dcbc0c9dee3b155b2cd31484c5", "lon": -77.02918366666667, "rental_uris": {"ios": "https://dc.lft.to/lastmile_qr_scan", "android": "https://dc.lft.to/lastmile_qr_scan"}}, {"name": "6749350ff4efc7d02d4c3f3aa06657fa", "fusion_lat": 0.0, "type": "electric_scooter", "lat": 38.9297085, "is_reserved": 0, "is_disabled": 0, "fusion_lon": 0.0, "bike_id": "6749350ff4efc7d02d4c3f3aa06657fa", "lon": -77.02959133333333, "rental_uris": {"ios": "https://dc.lft.to/lastmile_qr_scan", "android": "https://dc.lft.to/lastmile_qr_scan"}}, {"name": "c742d3b95f282880ef67338e63cf6505", "fusion_lat": 0.0, "type": "electric_scooter", "lat": 38.890160333333334, "is_reserved": 0, "is_disabled": 0, "fusion_lon": 0.0, "bike_id": "c742d3b95f282880ef67338e63cf6505", "lon": -76.93744, "rental_uris": {"ios": "https://dc.lft.to/lastmile_qr_scan", "android": "https://dc.lft.to/lastmile_qr_scan"}}, {"name": "856713a50cae7f67e904b5dae03211d8", "fusion_lat": 0.0, "type": "electric_scooter", "lat": 38.914062666666666, "is_reserved": 0, "is_disabled": 0, "fusion_lon": 0.0, "bike_id": "856713a50cae7f67e904b5dae03211d8", "lon": -77.04568516666667, "rental_uris": {"ios": "https://dc.lft.to/lastmile_qr_scan", "android": "https://dc.lft.to/lastmile_qr_scan"}}, {"name": "b57596c143a932fad362ec480e7ebf7f", "fusion_lat": 0.0, "type": "electric_scooter", "lat": 38.87293183333333, "is_reserved": 0, "is_disabled": 0, "fusion_lon": 0.0, "bike_id": "b57596c143a932fad362ec480e7ebf7f", "lon": -77.0015125, "rental_uris": {"ios": "https://dc.lft.to/lastmile_qr_scan", "android": "https://dc.lft.to/lastmile_qr_scan"}}, {"name": "05af8a8c1edbc19ba61e031d09e9b80e", "fusion_lat": 0.0, "type": "electric_bike", "lat": 38.945521, "is_reserved": 0, "is_disabled": 0, "fusion_lon": 0.0, "bike_id": "05af8a8c1edbc19ba61e031d09e9b80e", "lon": -76.89539933333333, "rental_uris": {"ios": "https://dc.lft.to/lastmile_qr_scan", "android": "https://dc.lft.to/lastmile_qr_scan"}}, {"name": "8eeddcc67bb6056b2dca783aa36598dc", "fusion_lat": 0.0, "type": "electric_scooter", "lat": 38.9057355, "is_reserved": 0, "is_disabled": 0, "fusion_lon": 0.0, "bike_id": "8eeddcc67bb6056b2dca783aa36598dc", "lon": -77.02207916666667, "rental_uris": {"ios": "https://dc.lft.to/lastmile_qr_scan", "android": "https://dc.lft.to/lastmile_qr_scan"}}, {"name": "dff284cfbb8eb26ed01ceec981d20a09", "fusion_lat": 0.0, "type": "electric_bike", "lat": 38.973252333333335, "is_reserved": 0, "is_disabled": 0, "fusion_lon": 0.0, "bike_id": "dff284cfbb8eb26ed01ceec981d20a09", "lon": -77.02147683333334, "rental_uris": {"ios": "https://dc.lft.to/lastmile_qr_scan", "android": "https://dc.lft.to/lastmile_qr_scan"}}, {"name": "53944fcac826c6bd889b1131e729ef52", "fusion_lat": 0.0, "type": "electric_scooter", "lat": 38.90021316666667, "is_reserved": 0, "is_disabled": 0, "fusion_lon": 0.0, "bike_id": "53944fcac826c6bd889b1131e729ef52", "lon": -76.99555783333334, "rental_uris": {"ios": "https://dc.lft.to/lastmile_qr_scan", "android": "https://dc.lft.to/lastmile_qr_scan"}}, {"name": "c6e50b6da218203a5b51bbf091bcbfef", "fusion_lat": 0.0, "type": "electric_scooter", "lat": 38.91701533333333, "is_reserved": 0, "is_disabled": 0, "fusion_lon": 0.0, "bike_id": "c6e50b6da218203a5b51bbf091bcbfef", "lon": -77.03864366666667, "rental_uris": {"ios": "https://dc.lft.to/lastmile_qr_scan", "android": "https://dc.lft.to/lastmile_qr_scan"}}, {"name": "da747565b60593d21535caa137b5f51c", "fusion_lat": 0.0, "type": "electric_scooter", "lat": 38.89341016666667, "is_reserved": 0, "is_disabled": 0, "fusion_lon": 0.0, "bike_id": "da747565b60593d21535caa137b5f51c", "lon": -76.99149766666666, "rental_uris": {"ios": "https://dc.lft.to/lastmile_qr_scan", "android": "https://dc.lft.to/lastmile_qr_scan"}}, {"name": "bae98f8efd6eb73c7f0224782c14eee0", "fusion_lat": 0.0, "type": "electric_scooter", "lat": 38.910530666666666, "is_reserved": 0, "is_disabled": 0, "fusion_lon": 0.0, "bike_id": "bae98f8efd6eb73c7f0224782c14eee0", "lon": -77.04265266666667, "rental_uris": {"ios": "https://dc.lft.to/lastmile_qr_scan", "android": "https://dc.lft.to/lastmile_qr_scan"}}, {"name": "5e3243a2efa28a8ce57ff9e60f2fc023", "fusion_lat": 0.0, "type": "electric_scooter", "lat": 38.905698666666666, "is_reserved": 0, "is_disabled": 0, "fusion_lon": 0.0, "bike_id": "5e3243a2efa28a8ce57ff9e60f2fc023", "lon": -77.02213616666667, "rental_uris": {"ios": "https://dc.lft.to/lastmile_qr_scan", "android": "https://dc.lft.to/lastmile_qr_scan"}}, {"name": "d6349027e32d41320751ce95626ccc92", "fusion_lat": 0.0, "type": "electric_scooter", "lat": 38.876090166666664, "is_reserved": 0, "is_disabled": 0, "fusion_lon": 0.0, "bike_id": "d6349027e32d41320751ce95626ccc92", "lon": -77.00780966666666, "rental_uris": {"ios": "https://dc.lft.to/lastmile_qr_scan", "android": "https://dc.lft.to/lastmile_qr_scan"}}, {"name": "0f0f8213494077ebfe0f946e79480004", "fusion_lat": 0.0, "type": "electric_scooter", "lat": 38.90702066666667, "is_reserved": 0, "is_disabled": 0, "fusion_lon": 0.0, "bike_id": "0f0f8213494077ebfe0f946e79480004", "lon": -77.023896, "rental_uris": {"ios": "https://dc.lft.to/lastmile_qr_scan", "android": "https://dc.lft.to/lastmile_qr_scan"}}, {"name": "5a58189e274d1000c09cb52c2a084ce7", "fusion_lat": 0.0, "type": "electric_scooter", "lat": 38.918202, "is_reserved": 0, "is_disabled": 0, "fusion_lon": 0.0, "bike_id": "5a58189e274d1000c09cb52c2a084ce7", "lon": -77.02791966666666, "rental_uris": {"ios": "https://dc.lft.to/lastmile_qr_scan", "android": "https://dc.lft.to/lastmile_qr_scan"}}, {"name": "c3e67c5ab32020008634ad71eab669c4", "fusion_lat": 0.0, "type": "electric_scooter", "lat": 38.90069316666667, "is_reserved": 0, "is_disabled": 0, "fusion_lon": 0.0, "bike_id": "c3e67c5ab32020008634ad71eab669c4", "lon": -77.03367766666666, "rental_uris": {"ios": "https://dc.lft.to/lastmile_qr_scan", "android": "https://dc.lft.to/lastmile_qr_scan"}}, {"name": "8f49e8e299675d7b74fe51b0fd8ba0b1", "fusion_lat": 0.0, "type": "electric_bike", "lat": 38.92447466666667, "is_reserved": 0, "is_disabled": 0, "fusion_lon": 0.0, "bike_id": "8f49e8e299675d7b74fe51b0fd8ba0b1", "lon": -76.9904475, "rental_uris": {"ios": "https://dc.lft.to/lastmile_qr_scan", "android": "https://dc.lft.to/lastmile_qr_scan"}}, {"name": "e7863553685255dc737951cbc7db6c89", "fusion_lat": 0.0, "type": "electric_bike", "lat": 38.834362, "is_reserved": 0, "is_disabled": 0, "fusion_lon": 0.0, "bike_id": "e7863553685255dc737951cbc7db6c89", "lon": -77.00827566666666, "rental_uris": {"ios": "https://dc.lft.to/lastmile_qr_scan", "android": "https://dc.lft.to/lastmile_qr_scan"}}, {"name": "a7f511c2ad83ebbc5ce77669699a733e", "fusion_lat": 0.0, "type": "electric_scooter", "lat": 38.900447666666665, "is_reserved": 0, "is_disabled": 0, "fusion_lon": 0.0, "bike_id": "a7f511c2ad83ebbc5ce77669699a733e", "lon": -77.02966116666667, "rental_uris": {"ios": "https://dc.lft.to/lastmile_qr_scan", "android": "https://dc.lft.to/lastmile_qr_scan"}}, {"name": "8cd8c9fb33fab8f912ed9e9d696a8f3d", "fusion_lat": 0.0, "type": "electric_bike", "lat": 38.86904216666667, "is_reserved": 0, "is_disabled": 0, "fusion_lon": 0.0, "bike_id": "8cd8c9fb33fab8f912ed9e9d696a8f3d", "lon": -77.13179266666667, "rental_uris": {"ios": "https://dc.lft.to/lastmile_qr_scan", "android": "https://dc.lft.to/lastmile_qr_scan"}}, {"name": "945b8ed0b24da3df95da2428b32555b9", "fusion_lat": 0.0, "type": "electric_scooter", "lat": 38.9408535, "is_reserved": 0, "is_disabled": 0, "fusion_lon": 0.0, "bike_id": "945b8ed0b24da3df95da2428b32555b9", "lon": -77.0177505, "rental_uris": {"ios": "https://dc.lft.to/lastmile_qr_scan", "android": "https://dc.lft.to/lastmile_qr_scan"}}, {"name": "34d38ad06b4f71d5f81bd9f3ce32f10b", "fusion_lat": 0.0, "type": "electric_scooter", "lat": 38.90216683333333, "is_reserved": 0, "is_disabled": 0, "fusion_lon": 0.0, "bike_id": "34d38ad06b4f71d5f81bd9f3ce32f10b", "lon": -77.05131083333333, "rental_uris": {"ios": "https://dc.lft.to/lastmile_qr_scan", "android": "https://dc.lft.to/lastmile_qr_scan"}}, {"name": "1241959564538d61793570bc4207d94d", "fusion_lat": 0.0, "type": "electric_scooter", "lat": 38.90968133333333, "is_reserved": 0, "is_disabled": 0, "fusion_lon": 0.0, "bike_id": "1241959564538d61793570bc4207d94d", "lon": -77.0218005, "rental_uris": {"ios": "https://dc.lft.to/lastmile_qr_scan", "android": "https://dc.lft.to/lastmile_qr_scan"}}, {"name": "e659d43f898169470761947c29ec8ed7", "fusion_lat": 0.0, "type": "electric_scooter", "lat": 38.893583, "is_reserved": 0, "is_disabled": 0, "fusion_lon": 0.0, "bike_id": "e659d43f898169470761947c29ec8ed7", "lon": -76.949851, "rental_uris": {"ios": "https://dc.lft.to/lastmile_qr_scan", "android": "https://dc.lft.to/lastmile_qr_scan"}}, {"name": "13504240f445fa2b4602e3c3d29425d7", "fusion_lat": 0.0, "type": "electric_scooter", "lat": 38.8449365, "is_reserved": 0, "is_disabled": 0, "fusion_lon": 0.0, "bike_id": "13504240f445fa2b4602e3c3d29425d7", "lon": -76.98769883333334, "rental_uris": {"ios": "https://dc.lft.to/lastmile_qr_scan", "android": "https://dc.lft.to/lastmile_qr_scan"}}, {"name": "0987fd36af0e30ac3d6137161cf25377", "fusion_lat": 0.0, "type": "electric_scooter", "lat": 38.931485333333335, "is_reserved": 0, "is_disabled": 0, "fusion_lon": 0.0, "bike_id": "0987fd36af0e30ac3d6137161cf25377", "lon": -77.0296735, "rental_uris": {"ios": "https://dc.lft.to/lastmile_qr_scan", "android": "https://dc.lft.to/lastmile_qr_scan"}}, {"name": "ce7b60931b5aadd3e39013504d9ad974", "fusion_lat": 0.0, "type": "electric_scooter", "lat": 38.9039745, "is_reserved": 0, "is_disabled": 0, "fusion_lon": 0.0, "bike_id": "ce7b60931b5aadd3e39013504d9ad974", "lon": -77.02185666666666, "rental_uris": {"ios": "https://dc.lft.to/lastmile_qr_scan", "android": "https://dc.lft.to/lastmile_qr_scan"}}, {"name": "e46b4b028a7e08a7fec5a7e77538448f", "fusion_lat": 0.0, "type": "electric_bike", "lat": 38.928561, "is_reserved": 0, "is_disabled": 0, "fusion_lon": 0.0, "bike_id": "e46b4b028a7e08a7fec5a7e77538448f", "lon": -77.2221495, "rental_uris": {"ios": "https://dc.lft.to/lastmile_qr_scan", "android": "https://dc.lft.to/lastmile_qr_scan"}}, {"name": "20f1b958195abf0b54caadad8d243516", "fusion_lat": 0.0, "type": "electric_bike", "lat": 39.053126166666665, "is_reserved": 0, "is_disabled": 0, "fusion_lon": 0.0, "bike_id": "20f1b958195abf0b54caadad8d243516", "lon": -77.04772466666667, "rental_uris": {"ios": "https://dc.lft.to/lastmile_qr_scan", "android": "https://dc.lft.to/lastmile_qr_scan"}}, {"name": "51e33353115d1becb9501635e44afb79", "fusion_lat": 0.0, "type": "electric_bike", "lat": 38.935195666666665, "is_reserved": 0, "is_disabled": 0, "fusion_lon": 0.0, "bike_id": "51e33353115d1becb9501635e44afb79", "lon": -76.95063716666667, "rental_uris": {"ios": "https://dc.lft.to/lastmile_qr_scan", "android": "https://dc.lft.to/lastmile_qr_scan"}}, {"name": "5b47f59d81c05fa212dc21a43ccb3cb9", "fusion_lat": 0.0, "type": "electric_scooter", "lat": 38.87659816666667, "is_reserved": 0, "is_disabled": 0, "fusion_lon": 0.0, "bike_id": "5b47f59d81c05fa212dc21a43ccb3cb9", "lon": -77.00070216666667, "rental_uris": {"ios": "https://dc.lft.to/lastmile_qr_scan", "android": "https://dc.lft.to/lastmile_qr_scan"}}, {"name": "20e300e38aab9b0b573d345a5773e988", "fusion_lat": 0.0, "type": "electric_scooter", "lat": 38.877843166666665, "is_reserved": 0, "is_disabled": 0, "fusion_lon": 0.0, "bike_id": "20e300e38aab9b0b573d345a5773e988", "lon": -76.99411516666666, "rental_uris": {"ios": "https://dc.lft.to/lastmile_qr_scan", "android": "https://dc.lft.to/lastmile_qr_scan"}}, {"name": "ec29a8abcb63383c3e96e9fda1a2d093", "fusion_lat": 0.0, "type": "electric_bike", "lat": 39.088536166666664, "is_reserved": 0, "is_disabled": 0, "fusion_lon": 0.0, "bike_id": "ec29a8abcb63383c3e96e9fda1a2d093", "lon": -77.17842366666666, "rental_uris": {"ios": "https://dc.lft.to/lastmile_qr_scan", "android": "https://dc.lft.to/lastmile_qr_scan"}}, {"name": "57afc5f79312c4646028a96b1f1d9fe1", "fusion_lat": 0.0, "type": "electric_scooter", "lat": 38.86689916666667, "is_reserved": 0, "is_disabled": 0, "fusion_lon": 0.0, "bike_id": "57afc5f79312c4646028a96b1f1d9fe1", "lon": -76.98909333333333, "rental_uris": {"ios": "https://dc.lft.to/lastmile_qr_scan", "android": "https://dc.lft.to/lastmile_qr_scan"}}, {"name": "9e5743b353903665f1405b8ac3ff48fe", "fusion_lat": 0.0, "type": "electric_scooter", "lat": 38.90673966666667, "is_reserved": 0, "is_disabled": 0, "fusion_lon": 0.0, "bike_id": "9e5743b353903665f1405b8ac3ff48fe", "lon": -77.03838083333333, "rental_uris": {"ios": "https://dc.lft.to/lastmile_qr_scan", "android": "https://dc.lft.to/lastmile_qr_scan"}}, {"name": "553a744f52cf4014e126df4ea7a0edd0", "fusion_lat": 0.0, "type": "electric_scooter", "lat": 38.90267933333333, "is_reserved": 0, "is_disabled": 0, "fusion_lon": 0.0, "bike_id": "553a744f52cf4014e126df4ea7a0edd0", "lon": -76.987142, "rental_uris": {"ios": "https://dc.lft.to/lastmile_qr_scan", "android": "https://dc.lft.to/lastmile_qr_scan"}}, {"name": "233659e09c2d610eaa7da955c7270db6", "fusion_lat": 0.0, "type": "electric_scooter", "lat": 38.9112435, "is_reserved": 0, "is_disabled": 0, "fusion_lon": 0.0, "bike_id": "233659e09c2d610eaa7da955c7270db6", "lon": -77.03833266666666, "rental_uris": {"ios": "https://dc.lft.to/lastmile_qr_scan", "android": "https://dc.lft.to/lastmile_qr_scan"}}, {"name": "a68760e1e8a890569fad823e7b19df62", "fusion_lat": 0.0, "type": "electric_scooter", "lat": 38.86535383333333, "is_reserved": 0, "is_disabled": 0, "fusion_lon": 0.0, "bike_id": "a68760e1e8a890569fad823e7b19df62", "lon": -76.9870675, "rental_uris": {"ios": "https://dc.lft.to/lastmile_qr_scan", "android": "https://dc.lft.to/lastmile_qr_scan"}}, {"name": "48729dbd557fbdf9351227161aad564e", "fusion_lat": 0.0, "type": "electric_scooter", "lat": 38.912721, "is_reserved": 0, "is_disabled": 0, "fusion_lon": 0.0, "bike_id": "48729dbd557fbdf9351227161aad564e", "lon": -77.03584516666666, "rental_uris": {"ios": "https://dc.lft.to/lastmile_qr_scan", "android": "https://dc.lft.to/lastmile_qr_scan"}}, {"name": "7f68dc65fb0cabd21796c549f003d9d8", "fusion_lat": 0.0, "type": "electric_bike", "lat": 38.89833083333333, "is_reserved": 0, "is_disabled": 0, "fusion_lon": 0.0, "bike_id": "7f68dc65fb0cabd21796c549f003d9d8", "lon": -77.11800833333334, "rental_uris": {"ios": "https://dc.lft.to/lastmile_qr_scan", "android": "https://dc.lft.to/lastmile_qr_scan"}}, {"name": "fef07f14f9bbe51c01deca7629d940be", "fusion_lat": 0.0, "type": "electric_scooter", "lat": 38.90013016666666, "is_reserved": 0, "is_disabled": 0, "fusion_lon": 0.0, "bike_id": "fef07f14f9bbe51c01deca7629d940be", "lon": -76.98520533333334, "rental_uris": {"ios": "https://dc.lft.to/lastmile_qr_scan", "android": "https://dc.lft.to/lastmile_qr_scan"}}, {"name": "eae2d3db62a101b1a228e63228b04275", "fusion_lat": 0.0, "type": "electric_scooter", "lat": 38.9320035, "is_reserved": 0, "is_disabled": 0, "fusion_lon": 0.0, "bike_id": "eae2d3db62a101b1a228e63228b04275", "lon": -77.027698, "rental_uris": {"ios": "https://dc.lft.to/lastmile_qr_scan", "android": "https://dc.lft.to/lastmile_qr_scan"}}, {"name": "a4d65838314ea202fa2804862eeb1b4d", "fusion_lat": 0.0, "type": "electric_scooter", "lat": 38.907924, "is_reserved": 0, "is_disabled": 0, "fusion_lon": 0.0, "bike_id": "a4d65838314ea202fa2804862eeb1b4d", "lon": -77.03829366666666, "rental_uris": {"ios": "https://dc.lft.to/lastmile_qr_scan", "android": "https://dc.lft.to/lastmile_qr_scan"}}, {"name": "aeff4140bd0fb1f6dcc8485c854de5d2", "fusion_lat": 0.0, "type": "electric_scooter", "lat": 38.910687833333334, "is_reserved": 0, "is_disabled": 0, "fusion_lon": 0.0, "bike_id": "aeff4140bd0fb1f6dcc8485c854de5d2", "lon": -77.02720033333334, "rental_uris": {"ios": "https://dc.lft.to/lastmile_qr_scan", "android": "https://dc.lft.to/lastmile_qr_scan"}}, {"name": "62cfd1c5539fb4d05be17e8c592c8d46", "fusion_lat": 0.0, "type": "electric_scooter", "lat": 38.88612066666666, "is_reserved": 0, "is_disabled": 0, "fusion_lon": 0.0, "bike_id": "62cfd1c5539fb4d05be17e8c592c8d46", "lon": -76.97816533333334, "rental_uris": {"ios": "https://dc.lft.to/lastmile_qr_scan", "android": "https://dc.lft.to/lastmile_qr_scan"}}, {"name": "12f26949314cf1d96967a10e2b65b1bf", "fusion_lat": 0.0, "type": "electric_scooter", "lat": 38.887392, "is_reserved": 0, "is_disabled": 0, "fusion_lon": 0.0, "bike_id": "12f26949314cf1d96967a10e2b65b1bf", "lon": -77.01533833333333, "rental_uris": {"ios": "https://dc.lft.to/lastmile_qr_scan", "android": "https://dc.lft.to/lastmile_qr_scan"}}, {"name": "82757b5385fdc013175dc32e0bf79ff4", "fusion_lat": 0.0, "type": "electric_bike", "lat": 38.93290266666666, "is_reserved": 0, "is_disabled": 0, "fusion_lon": 0.0, "bike_id": "82757b5385fdc013175dc32e0bf79ff4", "lon": -76.99503533333333, "rental_uris": {"ios": "https://dc.lft.to/lastmile_qr_scan", "android": "https://dc.lft.to/lastmile_qr_scan"}}, {"name": "1145c4eea6ce18d823429c7a9aefc15e", "fusion_lat": 0.0, "type": "electric_scooter", "lat": 38.91843733333333, "is_reserved": 0, "is_disabled": 0, "fusion_lon": 0.0, "bike_id": "1145c4eea6ce18d823429c7a9aefc15e", "lon": -77.0017075, "rental_uris": {"ios": "https://dc.lft.to/lastmile_qr_scan", "android": "https://dc.lft.to/lastmile_qr_scan"}}, {"name": "89dc744c4fdd9571bc94db72b20b0636", "fusion_lat": 0.0, "type": "electric_scooter", "lat": 38.9053935, "is_reserved": 0, "is_disabled": 0, "fusion_lon": 0.0, "bike_id": "89dc744c4fdd9571bc94db72b20b0636", "lon": -77.0627185, "rental_uris": {"ios": "https://dc.lft.to/lastmile_qr_scan", "android": "https://dc.lft.to/lastmile_qr_scan"}}, {"name": "c9eaf0c0b2c1e472a3d1bdce28f2af00", "fusion_lat": 0.0, "type": "electric_scooter", "lat": 38.914821833333335, "is_reserved": 0, "is_disabled": 0, "fusion_lon": 0.0, "bike_id": "c9eaf0c0b2c1e472a3d1bdce28f2af00", "lon": -77.0218825, "rental_uris": {"ios": "https://dc.lft.to/lastmile_qr_scan", "android": "https://dc.lft.to/lastmile_qr_scan"}}, {"name": "31fd4b1a7a9822106862af1734d4ab00", "fusion_lat": 0.0, "type": "electric_scooter", "lat": 38.93546633333333, "is_reserved": 0, "is_disabled": 0, "fusion_lon": 0.0, "bike_id": "31fd4b1a7a9822106862af1734d4ab00", "lon": -77.05982633333333, "rental_uris": {"ios": "https://dc.lft.to/lastmile_qr_scan", "android": "https://dc.lft.to/lastmile_qr_scan"}}, {"name": "a414cfe1fc38af9d37cd5c77f8ed522e", "fusion_lat": 0.0, "type": "electric_scooter", "lat": 38.925656333333336, "is_reserved": 0, "is_disabled": 0, "fusion_lon": 0.0, "bike_id": "a414cfe1fc38af9d37cd5c77f8ed522e", "lon": -77.02962616666667, "rental_uris": {"ios": "https://dc.lft.to/lastmile_qr_scan", "android": "https://dc.lft.to/lastmile_qr_scan"}}, {"name": "cbc4f9486f46ae1f9df030019789540a", "fusion_lat": 0.0, "type": "electric_bike", "lat": 38.88634366666667, "is_reserved": 0, "is_disabled": 0, "fusion_lon": 0.0, "bike_id": "cbc4f9486f46ae1f9df030019789540a", "lon": -76.95475716666667, "rental_uris": {"ios": "https://dc.lft.to/lastmile_qr_scan", "android": "https://dc.lft.to/lastmile_qr_scan"}}, {"name": "22e1b6593d66ce09287ad7e480d43cac", "fusion_lat": 0.0, "type": "electric_scooter", "lat": 38.93636433333333, "is_reserved": 0, "is_disabled": 0, "fusion_lon": 0.0, "bike_id": "22e1b6593d66ce09287ad7e480d43cac", "lon": -77.03459716666667, "rental_uris": {"ios": "https://dc.lft.to/lastmile_qr_scan", "android": "https://dc.lft.to/lastmile_qr_scan"}}, {"name": "ca0c1fc7d4d50d3a87e41f1cd5092bb2", "fusion_lat": 0.0, "type": "electric_scooter", "lat": 38.9020085, "is_reserved": 0, "is_disabled": 0, "fusion_lon": 0.0, "bike_id": "ca0c1fc7d4d50d3a87e41f1cd5092bb2", "lon": -77.02177933333333, "rental_uris": {"ios": "https://dc.lft.to/lastmile_qr_scan", "android": "https://dc.lft.to/lastmile_qr_scan"}}, {"name": "63c813ea684fbfc28e95c88fece79028", "fusion_lat": 0.0, "type": "electric_scooter", "lat": 38.924807, "is_reserved": 0, "is_disabled": 0, "fusion_lon": 0.0, "bike_id": "63c813ea684fbfc28e95c88fece79028", "lon": -77.02752216666667, "rental_uris": {"ios": "https://dc.lft.to/lastmile_qr_scan", "android": "https://dc.lft.to/lastmile_qr_scan"}}, {"name": "04da19dd3b57e629fdb62cc202c05989", "fusion_lat": 0.0, "type": "electric_scooter", "lat": 38.91330116666666, "is_reserved": 0, "is_disabled": 0, "fusion_lon": 0.0, "bike_id": "04da19dd3b57e629fdb62cc202c05989", "lon": -77.0319925, "rental_uris": {"ios": "https://dc.lft.to/lastmile_qr_scan", "android": "https://dc.lft.to/lastmile_qr_scan"}}, {"name": "0594a288b4b705f36be545e0da36818e", "fusion_lat": 0.0, "type": "electric_bike", "lat": 38.845938333333336, "is_reserved": 0, "is_disabled": 0, "fusion_lon": 0.0, "bike_id": "0594a288b4b705f36be545e0da36818e", "lon": -76.96876683333333, "rental_uris": {"ios": "https://dc.lft.to/lastmile_qr_scan", "android": "https://dc.lft.to/lastmile_qr_scan"}}, {"name": "b5dadf0c2354f16ab58a7f53c45c944d", "fusion_lat": 0.0, "type": "electric_scooter", "lat": 38.908207166666664, "is_reserved": 0, "is_disabled": 0, "fusion_lon": 0.0, "bike_id": "b5dadf0c2354f16ab58a7f53c45c944d", "lon": -77.0391915, "rental_uris": {"ios": "https://dc.lft.to/lastmile_qr_scan", "android": "https://dc.lft.to/lastmile_qr_scan"}}, {"name": "5171a1f90621da667816eb90441ed368", "fusion_lat": 0.0, "type": "electric_scooter", "lat": 38.900229, "is_reserved": 0, "is_disabled": 0, "fusion_lon": 0.0, "bike_id": "5171a1f90621da667816eb90441ed368", "lon": -77.05325666666667, "rental_uris": {"ios": "https://dc.lft.to/lastmile_qr_scan", "android": "https://dc.lft.to/lastmile_qr_scan"}}, {"name": "43a3d1ad6c204b44c384247d67f0c26f", "fusion_lat": 0.0, "type": "electric_scooter", "lat": 38.92340166666666, "is_reserved": 0, "is_disabled": 0, "fusion_lon": 0.0, "bike_id": "43a3d1ad6c204b44c384247d67f0c26f", "lon": -77.05118366666666, "rental_uris": {"ios": "https://dc.lft.to/lastmile_qr_scan", "android": "https://dc.lft.to/lastmile_qr_scan"}}, {"name": "9ccde88f0858fb287da1a53d7794d3c8", "fusion_lat": 0.0, "type": "electric_scooter", "lat": 38.91118083333333, "is_reserved": 0, "is_disabled": 0, "fusion_lon": 0.0, "bike_id": "9ccde88f0858fb287da1a53d7794d3c8", "lon": -77.04465566666667, "rental_uris": {"ios": "https://dc.lft.to/lastmile_qr_scan", "android": "https://dc.lft.to/lastmile_qr_scan"}}, {"name": "c1e8008ec013469ed7b22bda303c1029", "fusion_lat": 0.0, "type": "electric_scooter", "lat": 38.893538166666666, "is_reserved": 0, "is_disabled": 0, "fusion_lon": 0.0, "bike_id": "c1e8008ec013469ed7b22bda303c1029", "lon": -77.00330683333334, "rental_uris": {"ios": "https://dc.lft.to/lastmile_qr_scan", "android": "https://dc.lft.to/lastmile_qr_scan"}}, {"name": "880730825828e2f325d057c66107a80e", "fusion_lat": 0.0, "type": "electric_scooter", "lat": 38.91116916666667, "is_reserved": 0, "is_disabled": 0, "fusion_lon": 0.0, "bike_id": "880730825828e2f325d057c66107a80e", "lon": -77.04367216666667, "rental_uris": {"ios": "https://dc.lft.to/lastmile_qr_scan", "android": "https://dc.lft.to/lastmile_qr_scan"}}, {"name": "c77459d5d84a665afc93bad5d34d7997", "fusion_lat": 0.0, "type": "electric_scooter", "lat": 38.87083666666667, "is_reserved": 0, "is_disabled": 0, "fusion_lon": 0.0, "bike_id": "c77459d5d84a665afc93bad5d34d7997", "lon": -77.01377416666666, "rental_uris": {"ios": "https://dc.lft.to/lastmile_qr_scan", "android": "https://dc.lft.to/lastmile_qr_scan"}}, {"name": "3dc4b1566cc6d3c66c91a99a86094385", "fusion_lat": 0.0, "type": "electric_bike", "lat": 38.95931983333333, "is_reserved": 0, "is_disabled": 0, "fusion_lon": 0.0, "bike_id": "3dc4b1566cc6d3c66c91a99a86094385", "lon": -76.92533833333333, "rental_uris": {"ios": "https://dc.lft.to/lastmile_qr_scan", "android": "https://dc.lft.to/lastmile_qr_scan"}}, {"name": "8b1ac6fb844dad6ca9e29671d6376f5d", "fusion_lat": 0.0, "type": "electric_scooter", "lat": 38.90779366666666, "is_reserved": 0, "is_disabled": 0, "fusion_lon": 0.0, "bike_id": "8b1ac6fb844dad6ca9e29671d6376f5d", "lon": -77.072548, "rental_uris": {"ios": "https://dc.lft.to/lastmile_qr_scan", "android": "https://dc.lft.to/lastmile_qr_scan"}}, {"name": "74d2f691a941c35fa7d16198b093f754", "fusion_lat": 0.0, "type": "electric_scooter", "lat": 38.93594083333333, "is_reserved": 0, "is_disabled": 0, "fusion_lon": 0.0, "bike_id": "74d2f691a941c35fa7d16198b093f754", "lon": -77.056333, "rental_uris": {"ios": "https://dc.lft.to/lastmile_qr_scan", "android": "https://dc.lft.to/lastmile_qr_scan"}}, {"name": "0987c011755e321ab5136d52e99d2cfd", "fusion_lat": 0.0, "type": "electric_scooter", "lat": 38.9282305, "is_reserved": 0, "is_disabled": 0, "fusion_lon": 0.0, "bike_id": "0987c011755e321ab5136d52e99d2cfd", "lon": -77.02260866666667, "rental_uris": {"ios": "https://dc.lft.to/lastmile_qr_scan", "android": "https://dc.lft.to/lastmile_qr_scan"}}, {"name": "c90ce379a0568ee43ea05cd3242bb879", "fusion_lat": 0.0, "type": "electric_scooter", "lat": 38.8954915, "is_reserved": 0, "is_disabled": 0, "fusion_lon": 0.0, "bike_id": "c90ce379a0568ee43ea05cd3242bb879", "lon": -76.948754, "rental_uris": {"ios": "https://dc.lft.to/lastmile_qr_scan", "android": "https://dc.lft.to/lastmile_qr_scan"}}, {"name": "33a25f339f99dbecd1fb700c171b6147", "fusion_lat": 0.0, "type": "electric_scooter", "lat": 38.8988495, "is_reserved": 0, "is_disabled": 0, "fusion_lon": 0.0, "bike_id": "33a25f339f99dbecd1fb700c171b6147", "lon": -77.03281533333333, "rental_uris": {"ios": "https://dc.lft.to/lastmile_qr_scan", "android": "https://dc.lft.to/lastmile_qr_scan"}}, {"name": "bf552dda202bf07f162e187d99457679", "fusion_lat": 0.0, "type": "electric_bike", "lat": 38.926933, "is_reserved": 0, "is_disabled": 0, "fusion_lon": 0.0, "bike_id": "bf552dda202bf07f162e187d99457679", "lon": -77.00786283333333, "rental_uris": {"ios": "https://dc.lft.to/lastmile_qr_scan", "android": "https://dc.lft.to/lastmile_qr_scan"}}, {"name": "979b1795ac5f2bb2c9cb49c3b9ed6c25", "fusion_lat": 0.0, "type": "electric_scooter", "lat": 38.902724666666664, "is_reserved": 0, "is_disabled": 0, "fusion_lon": 0.0, "bike_id": "979b1795ac5f2bb2c9cb49c3b9ed6c25", "lon": -77.03651633333334, "rental_uris": {"ios": "https://dc.lft.to/lastmile_qr_scan", "android": "https://dc.lft.to/lastmile_qr_scan"}}, {"name": "a99c700ed8405f0d13c2b3bb63ffe717", "fusion_lat": 0.0, "type": "electric_scooter", "lat": 38.90383166666667, "is_reserved": 0, "is_disabled": 0, "fusion_lon": 0.0, "bike_id": "a99c700ed8405f0d13c2b3bb63ffe717", "lon": -77.04511733333334, "rental_uris": {"ios": "https://dc.lft.to/lastmile_qr_scan", "android": "https://dc.lft.to/lastmile_qr_scan"}}, {"name": "e7300dac1fa09ecabf9b5a2ff17dd83c", "fusion_lat": 0.0, "type": "electric_bike", "lat": 38.93959516666666, "is_reserved": 0, "is_disabled": 0, "fusion_lon": 0.0, "bike_id": "e7300dac1fa09ecabf9b5a2ff17dd83c", "lon": -77.36098383333334, "rental_uris": {"ios": "https://dc.lft.to/lastmile_qr_scan", "android": "https://dc.lft.to/lastmile_qr_scan"}}, {"name": "ee3afc6b1c6774879c9fd26fb3d50175", "fusion_lat": 0.0, "type": "electric_bike", "lat": 38.87750716666667, "is_reserved": 0, "is_disabled": 0, "fusion_lon": 0.0, "bike_id": "ee3afc6b1c6774879c9fd26fb3d50175", "lon": -76.97984883333334, "rental_uris": {"ios": "https://dc.lft.to/lastmile_qr_scan", "android": "https://dc.lft.to/lastmile_qr_scan"}}, {"name": "f3f541c764733d39883be6ac93d1dfed", "fusion_lat": 0.0, "type": "electric_scooter", "lat": 38.9022815, "is_reserved": 0, "is_disabled": 0, "fusion_lon": 0.0, "bike_id": "f3f541c764733d39883be6ac93d1dfed", "lon": -77.03267566666666, "rental_uris": {"ios": "https://dc.lft.to/lastmile_qr_scan", "android": "https://dc.lft.to/lastmile_qr_scan"}}, {"name": "98a6a1c626d84e1c555683ee3b7801aa", "fusion_lat": 0.0, "type": "electric_scooter", "lat": 38.900287, "is_reserved": 0, "is_disabled": 0, "fusion_lon": 0.0, "bike_id": "98a6a1c626d84e1c555683ee3b7801aa", "lon": -76.9985975, "rental_uris": {"ios": "https://dc.lft.to/lastmile_qr_scan", "android": "https://dc.lft.to/lastmile_qr_scan"}}, {"name": "84f8ff7e542d08354047ff3b48bc96f9", "fusion_lat": 0.0, "type": "electric_scooter", "lat": 38.931076, "is_reserved": 0, "is_disabled": 0, "fusion_lon": 0.0, "bike_id": "84f8ff7e542d08354047ff3b48bc96f9", "lon": -77.03510633333333, "rental_uris": {"ios": "https://dc.lft.to/lastmile_qr_scan", "android": "https://dc.lft.to/lastmile_qr_scan"}}, {"name": "5e02aa72c155f8d9796976f728140615", "fusion_lat": 0.0, "type": "electric_scooter", "lat": 38.88505833333333, "is_reserved": 0, "is_disabled": 0, "fusion_lon": 0.0, "bike_id": "5e02aa72c155f8d9796976f728140615", "lon": -77.00570416666666, "rental_uris": {"ios": "https://dc.lft.to/lastmile_qr_scan", "android": "https://dc.lft.to/lastmile_qr_scan"}}, {"name": "3a1ef0664c43cdf0275338d87d024da4", "fusion_lat": 0.0, "type": "electric_scooter", "lat": 38.927656999999996, "is_reserved": 0, "is_disabled": 0, "fusion_lon": 0.0, "bike_id": "3a1ef0664c43cdf0275338d87d024da4", "lon": -77.02787083333334, "rental_uris": {"ios": "https://dc.lft.to/lastmile_qr_scan", "android": "https://dc.lft.to/lastmile_qr_scan"}}, {"name": "908f5bd05354957de0e62d58f38cb132", "fusion_lat": 0.0, "type": "electric_scooter", "lat": 38.895487333333335, "is_reserved": 0, "is_disabled": 0, "fusion_lon": 0.0, "bike_id": "908f5bd05354957de0e62d58f38cb132", "lon": -76.94877366666667, "rental_uris": {"ios": "https://dc.lft.to/lastmile_qr_scan", "android": "https://dc.lft.to/lastmile_qr_scan"}}, {"name": "e441667e03b665b8f225c6f542e26df4", "fusion_lat": 0.0, "type": "electric_scooter", "lat": 38.92589666666667, "is_reserved": 0, "is_disabled": 0, "fusion_lon": 0.0, "bike_id": "e441667e03b665b8f225c6f542e26df4", "lon": -77.02507233333333, "rental_uris": {"ios": "https://dc.lft.to/lastmile_qr_scan", "android": "https://dc.lft.to/lastmile_qr_scan"}}, {"name": "4bd48ec5631523eb63e67b931bd2c7a5", "fusion_lat": 0.0, "type": "electric_scooter", "lat": 38.923517333333336, "is_reserved": 0, "is_disabled": 0, "fusion_lon": 0.0, "bike_id": "4bd48ec5631523eb63e67b931bd2c7a5", "lon": -77.035409, "rental_uris": {"ios": "https://dc.lft.to/lastmile_qr_scan", "android": "https://dc.lft.to/lastmile_qr_scan"}}, {"name": "61b799fe06523d208bd21db169b40310", "fusion_lat": 0.0, "type": "electric_scooter", "lat": 38.90509816666667, "is_reserved": 0, "is_disabled": 0, "fusion_lon": 0.0, "bike_id": "61b799fe06523d208bd21db169b40310", "lon": -77.06880066666666, "rental_uris": {"ios": "https://dc.lft.to/lastmile_qr_scan", "android": "https://dc.lft.to/lastmile_qr_scan"}}, {"name": "5164a292fea03e49e9c960740291a24c", "fusion_lat": 0.0, "type": "electric_scooter", "lat": 38.91122283333333, "is_reserved": 0, "is_disabled": 0, "fusion_lon": 0.0, "bike_id": "5164a292fea03e49e9c960740291a24c", "lon": -77.04773833333333, "rental_uris": {"ios": "https://dc.lft.to/lastmile_qr_scan", "android": "https://dc.lft.to/lastmile_qr_scan"}}, {"name": "6488bc7c5d798dfd5e41b5737f72ca11", "fusion_lat": 0.0, "type": "electric_scooter", "lat": 38.926953166666664, "is_reserved": 0, "is_disabled": 0, "fusion_lon": 0.0, "bike_id": "6488bc7c5d798dfd5e41b5737f72ca11", "lon": -77.03728116666667, "rental_uris": {"ios": "https://dc.lft.to/lastmile_qr_scan", "android": "https://dc.lft.to/lastmile_qr_scan"}}, {"name": "bc6b2624bc9f1e0a01b68545d4d80eef", "fusion_lat": 0.0, "type": "electric_bike", "lat": 38.85319116666667, "is_reserved": 0, "is_disabled": 0, "fusion_lon": 0.0, "bike_id": "bc6b2624bc9f1e0a01b68545d4d80eef", "lon": -76.98017933333334, "rental_uris": {"ios": "https://dc.lft.to/lastmile_qr_scan", "android": "https://dc.lft.to/lastmile_qr_scan"}}, {"name": "88d0f9e8d51cf2685dd4c4180c74bfb3", "fusion_lat": 0.0, "type": "electric_scooter", "lat": 38.91254633333333, "is_reserved": 0, "is_disabled": 0, "fusion_lon": 0.0, "bike_id": "88d0f9e8d51cf2685dd4c4180c74bfb3", "lon": -77.03867266666667, "rental_uris": {"ios": "https://dc.lft.to/lastmile_qr_scan", "android": "https://dc.lft.to/lastmile_qr_scan"}}, {"name": "9d72cee5d22c4bed49658aaee0c8c8c3", "fusion_lat": 0.0, "type": "electric_scooter", "lat": 38.9140515, "is_reserved": 0, "is_disabled": 0, "fusion_lon": 0.0, "bike_id": "9d72cee5d22c4bed49658aaee0c8c8c3", "lon": -77.03996216666667, "rental_uris": {"ios": "https://dc.lft.to/lastmile_qr_scan", "android": "https://dc.lft.to/lastmile_qr_scan"}}, {"name": "4b88670dea1d7e24caee34cb834a009f", "fusion_lat": 0.0, "type": "electric_scooter", "lat": 38.90641883333333, "is_reserved": 0, "is_disabled": 0, "fusion_lon": 0.0, "bike_id": "4b88670dea1d7e24caee34cb834a009f", "lon": -77.00607, "rental_uris": {"ios": "https://dc.lft.to/lastmile_qr_scan", "android": "https://dc.lft.to/lastmile_qr_scan"}}, {"name": "0f48b3c6f7f492b2a5feeb06d5222246", "fusion_lat": 0.0, "type": "electric_scooter", "lat": 38.90738116666667, "is_reserved": 0, "is_disabled": 0, "fusion_lon": 0.0, "bike_id": "0f48b3c6f7f492b2a5feeb06d5222246", "lon": -77.02692283333333, "rental_uris": {"ios": "https://dc.lft.to/lastmile_qr_scan", "android": "https://dc.lft.to/lastmile_qr_scan"}}, {"name": "f4fecd1e67f8d8e46ea209fe0102e3cf", "fusion_lat": 0.0, "type": "electric_scooter", "lat": 38.91200216666667, "is_reserved": 0, "is_disabled": 0, "fusion_lon": 0.0, "bike_id": "f4fecd1e67f8d8e46ea209fe0102e3cf", "lon": -77.0446395, "rental_uris": {"ios": "https://dc.lft.to/lastmile_qr_scan", "android": "https://dc.lft.to/lastmile_qr_scan"}}, {"name": "ccc307ca77e88ea24d3ebb953f215dc7", "fusion_lat": 0.0, "type": "electric_scooter", "lat": 38.917108166666665, "is_reserved": 0, "is_disabled": 0, "fusion_lon": 0.0, "bike_id": "ccc307ca77e88ea24d3ebb953f215dc7", "lon": -77.0355385, "rental_uris": {"ios": "https://dc.lft.to/lastmile_qr_scan", "android": "https://dc.lft.to/lastmile_qr_scan"}}, {"name": "934d10f43c866036c788eedf8d49d36e", "fusion_lat": 0.0, "type": "electric_scooter", "lat": 38.87812133333333, "is_reserved": 0, "is_disabled": 0, "fusion_lon": 0.0, "bike_id": "934d10f43c866036c788eedf8d49d36e", "lon": -77.00344466666667, "rental_uris": {"ios": "https://dc.lft.to/lastmile_qr_scan", "android": "https://dc.lft.to/lastmile_qr_scan"}}, {"name": "22aa8cbae995780d1f13f70a465d113e", "fusion_lat": 0.0, "type": "electric_bike", "lat": 38.85373583333333, "is_reserved": 0, "is_disabled": 0, "fusion_lon": 0.0, "bike_id": "22aa8cbae995780d1f13f70a465d113e", "lon": -77.09871933333334, "rental_uris": {"ios": "https://dc.lft.to/lastmile_qr_scan", "android": "https://dc.lft.to/lastmile_qr_scan"}}, {"name": "09eeaeec0be0cf556eaef99d6cd87bcf", "fusion_lat": 0.0, "type": "electric_scooter", "lat": 38.89219716666667, "is_reserved": 0, "is_disabled": 0, "fusion_lon": 0.0, "bike_id": "09eeaeec0be0cf556eaef99d6cd87bcf", "lon": -77.01374033333333, "rental_uris": {"ios": "https://dc.lft.to/lastmile_qr_scan", "android": "https://dc.lft.to/lastmile_qr_scan"}}, {"name": "dd0c6e337a931689f4d6e604f67b43ab", "fusion_lat": 0.0, "type": "electric_scooter", "lat": 38.9087805, "is_reserved": 0, "is_disabled": 0, "fusion_lon": 0.0, "bike_id": "dd0c6e337a931689f4d6e604f67b43ab", "lon": -77.07588266666667, "rental_uris": {"ios": "https://dc.lft.to/lastmile_qr_scan", "android": "https://dc.lft.to/lastmile_qr_scan"}}, {"name": "c9ca1e385fd9cc064c7f7b42e69ba196", "fusion_lat": 0.0, "type": "electric_scooter", "lat": 38.91770433333333, "is_reserved": 0, "is_disabled": 0, "fusion_lon": 0.0, "bike_id": "c9ca1e385fd9cc064c7f7b42e69ba196", "lon": -77.047467, "rental_uris": {"ios": "https://dc.lft.to/lastmile_qr_scan", "android": "https://dc.lft.to/lastmile_qr_scan"}}, {"name": "c70e9dcce9aa1e90aa98633cf7eee0c1", "fusion_lat": 0.0, "type": "electric_scooter", "lat": 38.92910233333333, "is_reserved": 0, "is_disabled": 0, "fusion_lon": 0.0, "bike_id": "c70e9dcce9aa1e90aa98633cf7eee0c1", "lon": -77.01953433333334, "rental_uris": {"ios": "https://dc.lft.to/lastmile_qr_scan", "android": "https://dc.lft.to/lastmile_qr_scan"}}, {"name": "f2b7a6f6b4158cb8e79e634cefc6f94c", "fusion_lat": 0.0, "type": "electric_scooter", "lat": 38.91703, "is_reserved": 0, "is_disabled": 0, "fusion_lon": 0.0, "bike_id": "f2b7a6f6b4158cb8e79e634cefc6f94c", "lon": -77.02893883333333, "rental_uris": {"ios": "https://dc.lft.to/lastmile_qr_scan", "android": "https://dc.lft.to/lastmile_qr_scan"}}, {"name": "1166c01baf26b15f5402773d006d9cf1", "fusion_lat": 0.0, "type": "electric_scooter", "lat": 38.90958033333333, "is_reserved": 0, "is_disabled": 0, "fusion_lon": 0.0, "bike_id": "1166c01baf26b15f5402773d006d9cf1", "lon": -77.03885266666667, "rental_uris": {"ios": "https://dc.lft.to/lastmile_qr_scan", "android": "https://dc.lft.to/lastmile_qr_scan"}}, {"name": "d6d3163f36729cf9b163c4615d24a270", "fusion_lat": 0.0, "type": "electric_scooter", "lat": 38.901885, "is_reserved": 0, "is_disabled": 0, "fusion_lon": 0.0, "bike_id": "d6d3163f36729cf9b163c4615d24a270", "lon": -77.02177816666666, "rental_uris": {"ios": "https://dc.lft.to/lastmile_qr_scan", "android": "https://dc.lft.to/lastmile_qr_scan"}}, {"name": "ec13449f5b00dcd136e7d153b7ce6cb8", "fusion_lat": 0.0, "type": "electric_scooter", "lat": 38.9366885, "is_reserved": 0, "is_disabled": 0, "fusion_lon": 0.0, "bike_id": "ec13449f5b00dcd136e7d153b7ce6cb8", "lon": -77.0326445, "rental_uris": {"ios": "https://dc.lft.to/lastmile_qr_scan", "android": "https://dc.lft.to/lastmile_qr_scan"}}, {"name": "0e79a2f9583a892ace6a165a9043f11d", "fusion_lat": 0.0, "type": "electric_scooter", "lat": 38.917649, "is_reserved": 0, "is_disabled": 0, "fusion_lon": 0.0, "bike_id": "0e79a2f9583a892ace6a165a9043f11d", "lon": -77.09675, "rental_uris": {"ios": "https://dc.lft.to/lastmile_qr_scan", "android": "https://dc.lft.to/lastmile_qr_scan"}}, {"name": "f64490383e4e9156c0ffc35f97a32688", "fusion_lat": 0.0, "type": "electric_scooter", "lat": 38.895497, "is_reserved": 0, "is_disabled": 0, "fusion_lon": 0.0, "bike_id": "f64490383e4e9156c0ffc35f97a32688", "lon": -76.94877183333334, "rental_uris": {"ios": "https://dc.lft.to/lastmile_qr_scan", "android": "https://dc.lft.to/lastmile_qr_scan"}}, {"name": "ffd92292ffc9e355da32ade19932b15f", "fusion_lat": 0.0, "type": "electric_scooter", "lat": 38.866583, "is_reserved": 0, "is_disabled": 0, "fusion_lon": 0.0, "bike_id": "ffd92292ffc9e355da32ade19932b15f", "lon": -76.98883166666667, "rental_uris": {"ios": "https://dc.lft.to/lastmile_qr_scan", "android": "https://dc.lft.to/lastmile_qr_scan"}}, {"name": "218ee6f3e8efc9b1acbef45c214a264a", "fusion_lat": 0.0, "type": "electric_scooter", "lat": 38.9169165, "is_reserved": 0, "is_disabled": 0, "fusion_lon": 0.0, "bike_id": "218ee6f3e8efc9b1acbef45c214a264a", "lon": -77.01871666666666, "rental_uris": {"ios": "https://dc.lft.to/lastmile_qr_scan", "android": "https://dc.lft.to/lastmile_qr_scan"}}, {"name": "b56b7bd84baa057aa9008ff3f32b14e6", "fusion_lat": 0.0, "type": "electric_scooter", "lat": 38.911119666666664, "is_reserved": 0, "is_disabled": 0, "fusion_lon": 0.0, "bike_id": "b56b7bd84baa057aa9008ff3f32b14e6", "lon": -77.0246575, "rental_uris": {"ios": "https://dc.lft.to/lastmile_qr_scan", "android": "https://dc.lft.to/lastmile_qr_scan"}}, {"name": "9b6640f38396bf458e3354ea9c4b807b", "fusion_lat": 0.0, "type": "electric_scooter", "lat": 38.919870833333334, "is_reserved": 0, "is_disabled": 0, "fusion_lon": 0.0, "bike_id": "9b6640f38396bf458e3354ea9c4b807b", "lon": -77.024026, "rental_uris": {"ios": "https://dc.lft.to/lastmile_qr_scan", "android": "https://dc.lft.to/lastmile_qr_scan"}}, {"name": "bc5a3dd4c3a4968e2ad385f1309fd31b", "fusion_lat": 0.0, "type": "electric_scooter", "lat": 38.896158166666666, "is_reserved": 0, "is_disabled": 0, "fusion_lon": 0.0, "bike_id": "bc5a3dd4c3a4968e2ad385f1309fd31b", "lon": -77.04464133333333, "rental_uris": {"ios": "https://dc.lft.to/lastmile_qr_scan", "android": "https://dc.lft.to/lastmile_qr_scan"}}, {"name": "392f6daeb77d9674dfd6943f18ee9c9d", "fusion_lat": 0.0, "type": "electric_scooter", "lat": 38.909847166666665, "is_reserved": 0, "is_disabled": 0, "fusion_lon": 0.0, "bike_id": "392f6daeb77d9674dfd6943f18ee9c9d", "lon": -77.04258766666666, "rental_uris": {"ios": "https://dc.lft.to/lastmile_qr_scan", "android": "https://dc.lft.to/lastmile_qr_scan"}}, {"name": "cdef829afc16b88e19dc6fd8b4771a77", "fusion_lat": 0.0, "type": "electric_scooter", "lat": 38.90739283333333, "is_reserved": 0, "is_disabled": 0, "fusion_lon": 0.0, "bike_id": "cdef829afc16b88e19dc6fd8b4771a77", "lon": -77.04663283333333, "rental_uris": {"ios": "https://dc.lft.to/lastmile_qr_scan", "android": "https://dc.lft.to/lastmile_qr_scan"}}, {"name": "bd4dc5a0dd9bf6d159c4c79c31c8f444", "fusion_lat": 0.0, "type": "electric_scooter", "lat": 38.91285966666667, "is_reserved": 0, "is_disabled": 0, "fusion_lon": 0.0, "bike_id": "bd4dc5a0dd9bf6d159c4c79c31c8f444", "lon": -76.93748083333334, "rental_uris": {"ios": "https://dc.lft.to/lastmile_qr_scan", "android": "https://dc.lft.to/lastmile_qr_scan"}}, {"name": "995099215b783ccb8683eec8cc35bb44", "fusion_lat": 0.0, "type": "electric_scooter", "lat": 38.907969666666666, "is_reserved": 0, "is_disabled": 0, "fusion_lon": 0.0, "bike_id": "995099215b783ccb8683eec8cc35bb44", "lon": -77.01816716666667, "rental_uris": {"ios": "https://dc.lft.to/lastmile_qr_scan", "android": "https://dc.lft.to/lastmile_qr_scan"}}, {"name": "055b88220602514557dfd3b80a0b5973", "fusion_lat": 0.0, "type": "electric_scooter", "lat": 38.924909666666665, "is_reserved": 0, "is_disabled": 0, "fusion_lon": 0.0, "bike_id": "055b88220602514557dfd3b80a0b5973", "lon": -77.02177366666666, "rental_uris": {"ios": "https://dc.lft.to/lastmile_qr_scan", "android": "https://dc.lft.to/lastmile_qr_scan"}}, {"name": "8b777906b5f8e4340cbb599fe2bf054d", "fusion_lat": 0.0, "type": "electric_scooter", "lat": 38.902546666666666, "is_reserved": 0, "is_disabled": 0, "fusion_lon": 0.0, "bike_id": "8b777906b5f8e4340cbb599fe2bf054d", "lon": -76.9770235, "rental_uris": {"ios": "https://dc.lft.to/lastmile_qr_scan", "android": "https://dc.lft.to/lastmile_qr_scan"}}, {"name": "301009146bd217e7151c18f266e9559a", "fusion_lat": 0.0, "type": "electric_scooter", "lat": 38.9282145, "is_reserved": 0, "is_disabled": 0, "fusion_lon": 0.0, "bike_id": "301009146bd217e7151c18f266e9559a", "lon": -77.02259166666667, "rental_uris": {"ios": "https://dc.lft.to/lastmile_qr_scan", "android": "https://dc.lft.to/lastmile_qr_scan"}}, {"name": "d95130dfefca4707741e5f640201ad22", "fusion_lat": 0.0, "type": "electric_scooter", "lat": 38.92965383333333, "is_reserved": 0, "is_disabled": 0, "fusion_lon": 0.0, "bike_id": "d95130dfefca4707741e5f640201ad22", "lon": -77.041113, "rental_uris": {"ios": "https://dc.lft.to/lastmile_qr_scan", "android": "https://dc.lft.to/lastmile_qr_scan"}}, {"name": "e7ebb906c0a0b520e5c6bf1c40044eb4", "fusion_lat": 0.0, "type": "electric_scooter", "lat": 38.87579983333333, "is_reserved": 0, "is_disabled": 0, "fusion_lon": 0.0, "bike_id": "e7ebb906c0a0b520e5c6bf1c40044eb4", "lon": -77.01064216666667, "rental_uris": {"ios": "https://dc.lft.to/lastmile_qr_scan", "android": "https://dc.lft.to/lastmile_qr_scan"}}, {"name": "95af269add7c384a8c187034292f5293", "fusion_lat": 0.0, "type": "electric_scooter", "lat": 38.8767595, "is_reserved": 0, "is_disabled": 0, "fusion_lon": 0.0, "bike_id": "95af269add7c384a8c187034292f5293", "lon": -77.007472, "rental_uris": {"ios": "https://dc.lft.to/lastmile_qr_scan", "android": "https://dc.lft.to/lastmile_qr_scan"}}, {"name": "b5d82ae593356fdef66717658aac3c0e", "fusion_lat": 0.0, "type": "electric_scooter", "lat": 38.908282, "is_reserved": 0, "is_disabled": 0, "fusion_lon": 0.0, "bike_id": "b5d82ae593356fdef66717658aac3c0e", "lon": -77.03546233333333, "rental_uris": {"ios": "https://dc.lft.to/lastmile_qr_scan", "android": "https://dc.lft.to/lastmile_qr_scan"}}, {"name": "ad506e92c979af39f95528bf40d70909", "fusion_lat": 0.0, "type": "electric_scooter", "lat": 38.89965, "is_reserved": 0, "is_disabled": 0, "fusion_lon": 0.0, "bike_id": "ad506e92c979af39f95528bf40d70909", "lon": -77.03180283333333, "rental_uris": {"ios": "https://dc.lft.to/lastmile_qr_scan", "android": "https://dc.lft.to/lastmile_qr_scan"}}, {"name": "193aa7a0c0f51648fda642be0d60d5e6", "fusion_lat": 0.0, "type": "electric_bike", "lat": 38.8549255, "is_reserved": 0, "is_disabled": 0, "fusion_lon": 0.0, "bike_id": "193aa7a0c0f51648fda642be0d60d5e6", "lon": -77.11524633333333, "rental_uris": {"ios": "https://dc.lft.to/lastmile_qr_scan", "android": "https://dc.lft.to/lastmile_qr_scan"}}, {"name": "9591fccc493f64344d6ae43aff935023", "fusion_lat": 0.0, "type": "electric_scooter", "lat": 38.90624416666667, "is_reserved": 0, "is_disabled": 0, "fusion_lon": 0.0, "bike_id": "9591fccc493f64344d6ae43aff935023", "lon": -77.05148266666667, "rental_uris": {"ios": "https://dc.lft.to/lastmile_qr_scan", "android": "https://dc.lft.to/lastmile_qr_scan"}}, {"name": "f2ac255a19532989c46971a7d3a0b2f4", "fusion_lat": 0.0, "type": "electric_scooter", "lat": 38.9217655, "is_reserved": 0, "is_disabled": 0, "fusion_lon": 0.0, "bike_id": "f2ac255a19532989c46971a7d3a0b2f4", "lon": -77.02420316666667, "rental_uris": {"ios": "https://dc.lft.to/lastmile_qr_scan", "android": "https://dc.lft.to/lastmile_qr_scan"}}, {"name": "dffae998f6aa944abaf7695c094ff344", "fusion_lat": 0.0, "type": "electric_scooter", "lat": 38.94171266666667, "is_reserved": 0, "is_disabled": 0, "fusion_lon": 0.0, "bike_id": "dffae998f6aa944abaf7695c094ff344", "lon": -77.02511183333333, "rental_uris": {"ios": "https://dc.lft.to/lastmile_qr_scan", "android": "https://dc.lft.to/lastmile_qr_scan"}}, {"name": "ec9a696958f6bb6398337546bf315106", "fusion_lat": 0.0, "type": "electric_scooter", "lat": 38.898339, "is_reserved": 0, "is_disabled": 0, "fusion_lon": 0.0, "bike_id": "ec9a696958f6bb6398337546bf315106", "lon": -76.94644516666666, "rental_uris": {"ios": "https://dc.lft.to/lastmile_qr_scan", "android": "https://dc.lft.to/lastmile_qr_scan"}}, {"name": "5b85a2e879a1c55b3f81844d7687222d", "fusion_lat": 0.0, "type": "electric_scooter", "lat": 38.897209833333335, "is_reserved": 0, "is_disabled": 0, "fusion_lon": 0.0, "bike_id": "5b85a2e879a1c55b3f81844d7687222d", "lon": -77.0021275, "rental_uris": {"ios": "https://dc.lft.to/lastmile_qr_scan", "android": "https://dc.lft.to/lastmile_qr_scan"}}, {"name": "fbc4c2317fb25b711eec24df53d3f60d", "fusion_lat": 0.0, "type": "electric_scooter", "lat": 38.90958666666667, "is_reserved": 0, "is_disabled": 0, "fusion_lon": 0.0, "bike_id": "fbc4c2317fb25b711eec24df53d3f60d", "lon": -77.03887033333334, "rental_uris": {"ios": "https://dc.lft.to/lastmile_qr_scan", "android": "https://dc.lft.to/lastmile_qr_scan"}}, {"name": "d3eab20d29d982c72e22055efcb16c8c", "fusion_lat": 0.0, "type": "electric_scooter", "lat": 38.921791166666665, "is_reserved": 0, "is_disabled": 0, "fusion_lon": 0.0, "bike_id": "d3eab20d29d982c72e22055efcb16c8c", "lon": -77.04281033333334, "rental_uris": {"ios": "https://dc.lft.to/lastmile_qr_scan", "android": "https://dc.lft.to/lastmile_qr_scan"}}, {"name": "06a1a85d590c354dd6e3e2c5d35463ed", "fusion_lat": 0.0, "type": "electric_scooter", "lat": 38.90739416666667, "is_reserved": 0, "is_disabled": 0, "fusion_lon": 0.0, "bike_id": "06a1a85d590c354dd6e3e2c5d35463ed", "lon": -77.026904, "rental_uris": {"ios": "https://dc.lft.to/lastmile_qr_scan", "android": "https://dc.lft.to/lastmile_qr_scan"}}, {"name": "a7321009942a37e5362e77ed32ff3f85", "fusion_lat": 0.0, "type": "electric_scooter", "lat": 38.91926516666667, "is_reserved": 0, "is_disabled": 0, "fusion_lon": 0.0, "bike_id": "a7321009942a37e5362e77ed32ff3f85", "lon": -77.02367566666666, "rental_uris": {"ios": "https://dc.lft.to/lastmile_qr_scan", "android": "https://dc.lft.to/lastmile_qr_scan"}}, {"name": "cd9ab9c11de560edbee4fa2c1dc72b25", "fusion_lat": 0.0, "type": "electric_scooter", "lat": 38.896073333333334, "is_reserved": 0, "is_disabled": 0, "fusion_lon": 0.0, "bike_id": "cd9ab9c11de560edbee4fa2c1dc72b25", "lon": -77.02159333333333, "rental_uris": {"ios": "https://dc.lft.to/lastmile_qr_scan", "android": "https://dc.lft.to/lastmile_qr_scan"}}, {"name": "a7522eb9f6af83df7bf093ac4b91b358", "fusion_lat": 0.0, "type": "electric_scooter", "lat": 38.912781, "is_reserved": 0, "is_disabled": 0, "fusion_lon": 0.0, "bike_id": "a7522eb9f6af83df7bf093ac4b91b358", "lon": -77.044984, "rental_uris": {"ios": "https://dc.lft.to/lastmile_qr_scan", "android": "https://dc.lft.to/lastmile_qr_scan"}}, {"name": "70178824d3f5eb041994efa183dc8d7a", "fusion_lat": 0.0, "type": "electric_scooter", "lat": 38.90597266666666, "is_reserved": 0, "is_disabled": 0, "fusion_lon": 0.0, "bike_id": "70178824d3f5eb041994efa183dc8d7a", "lon": -77.046576, "rental_uris": {"ios": "https://dc.lft.to/lastmile_qr_scan", "android": "https://dc.lft.to/lastmile_qr_scan"}}, {"name": "94255cfc89347a1ffd277fdf7d1c7098", "fusion_lat": 0.0, "type": "electric_scooter", "lat": 38.915349, "is_reserved": 0, "is_disabled": 0, "fusion_lon": 0.0, "bike_id": "94255cfc89347a1ffd277fdf7d1c7098", "lon": -77.0320185, "rental_uris": {"ios": "https://dc.lft.to/lastmile_qr_scan", "android": "https://dc.lft.to/lastmile_qr_scan"}}, {"name": "4ccb89b1376d00ede6a2409f171a939a", "fusion_lat": 0.0, "type": "electric_scooter", "lat": 38.90544833333333, "is_reserved": 0, "is_disabled": 0, "fusion_lon": 0.0, "bike_id": "4ccb89b1376d00ede6a2409f171a939a", "lon": -77.0456575, "rental_uris": {"ios": "https://dc.lft.to/lastmile_qr_scan", "android": "https://dc.lft.to/lastmile_qr_scan"}}, {"name": "8357848b9c6688c99c3d87f493d375dd", "fusion_lat": 0.0, "type": "electric_scooter", "lat": 38.9229775, "is_reserved": 0, "is_disabled": 0, "fusion_lon": 0.0, "bike_id": "8357848b9c6688c99c3d87f493d375dd", "lon": -77.04299583333334, "rental_uris": {"ios": "https://dc.lft.to/lastmile_qr_scan", "android": "https://dc.lft.to/lastmile_qr_scan"}}, {"name": "a29462d2b3ab1aa1cbcdcb4deae48139", "fusion_lat": 0.0, "type": "electric_scooter", "lat": 38.94063333333333, "is_reserved": 0, "is_disabled": 0, "fusion_lon": 0.0, "bike_id": "a29462d2b3ab1aa1cbcdcb4deae48139", "lon": -77.02965116666667, "rental_uris": {"ios": "https://dc.lft.to/lastmile_qr_scan", "android": "https://dc.lft.to/lastmile_qr_scan"}}, {"name": "c805002c5ee98f643b49c2c5d784b345", "fusion_lat": 0.0, "type": "electric_scooter", "lat": 38.926830333333335, "is_reserved": 0, "is_disabled": 0, "fusion_lon": 0.0, "bike_id": "c805002c5ee98f643b49c2c5d784b345", "lon": -77.0230115, "rental_uris": {"ios": "https://dc.lft.to/lastmile_qr_scan", "android": "https://dc.lft.to/lastmile_qr_scan"}}, {"name": "f2c52cf191777d800f7dcf45f287557f", "fusion_lat": 0.0, "type": "electric_scooter", "lat": 38.89948533333333, "is_reserved": 0, "is_disabled": 0, "fusion_lon": 0.0, "bike_id": "f2c52cf191777d800f7dcf45f287557f", "lon": -77.0548275, "rental_uris": {"ios": "https://dc.lft.to/lastmile_qr_scan", "android": "https://dc.lft.to/lastmile_qr_scan"}}, {"name": "150770238a52c5f41eb4469137315bd6", "fusion_lat": 0.0, "type": "electric_scooter", "lat": 38.931876333333335, "is_reserved": 0, "is_disabled": 0, "fusion_lon": 0.0, "bike_id": "150770238a52c5f41eb4469137315bd6", "lon": -77.03448933333334, "rental_uris": {"ios": "https://dc.lft.to/lastmile_qr_scan", "android": "https://dc.lft.to/lastmile_qr_scan"}}, {"name": "936bbe5c4c3dc6acc1d68f05a8137571", "fusion_lat": 0.0, "type": "electric_scooter", "lat": 38.91805566666667, "is_reserved": 0, "is_disabled": 0, "fusion_lon": 0.0, "bike_id": "936bbe5c4c3dc6acc1d68f05a8137571", "lon": -77.04623133333334, "rental_uris": {"ios": "https://dc.lft.to/lastmile_qr_scan", "android": "https://dc.lft.to/lastmile_qr_scan"}}, {"name": "058f4dc787f12284c034d6b95cdc0b01", "fusion_lat": 0.0, "type": "electric_scooter", "lat": 38.8988055, "is_reserved": 0, "is_disabled": 0, "fusion_lon": 0.0, "bike_id": "058f4dc787f12284c034d6b95cdc0b01", "lon": -77.0196555, "rental_uris": {"ios": "https://dc.lft.to/lastmile_qr_scan", "android": "https://dc.lft.to/lastmile_qr_scan"}}, {"name": "66c6853add153efd90de68868b051a21", "fusion_lat": 0.0, "type": "electric_scooter", "lat": 38.905776333333336, "is_reserved": 0, "is_disabled": 0, "fusion_lon": 0.0, "bike_id": "66c6853add153efd90de68868b051a21", "lon": -77.03420616666666, "rental_uris": {"ios": "https://dc.lft.to/lastmile_qr_scan", "android": "https://dc.lft.to/lastmile_qr_scan"}}, {"name": "2b57bdd7fe2ccea5a015bd7db3f3bc3f", "fusion_lat": 0.0, "type": "electric_scooter", "lat": 38.90535666666667, "is_reserved": 0, "is_disabled": 0, "fusion_lon": 0.0, "bike_id": "2b57bdd7fe2ccea5a015bd7db3f3bc3f", "lon": -77.05002966666666, "rental_uris": {"ios": "https://dc.lft.to/lastmile_qr_scan", "android": "https://dc.lft.to/lastmile_qr_scan"}}, {"name": "35f84332360f6e689e3541136168473b", "fusion_lat": 0.0, "type": "electric_bike", "lat": 38.872295333333334, "is_reserved": 0, "is_disabled": 0, "fusion_lon": 0.0, "bike_id": "35f84332360f6e689e3541136168473b", "lon": -77.01172116666666, "rental_uris": {"ios": "https://dc.lft.to/lastmile_qr_scan", "android": "https://dc.lft.to/lastmile_qr_scan"}}, {"name": "215b1053afb896be0d31e2dfc6ca2392", "fusion_lat": 0.0, "type": "electric_bike", "lat": 38.99452316666667, "is_reserved": 0, "is_disabled": 0, "fusion_lon": 0.0, "bike_id": "215b1053afb896be0d31e2dfc6ca2392", "lon": -76.90816266666667, "rental_uris": {"ios": "https://dc.lft.to/lastmile_qr_scan", "android": "https://dc.lft.to/lastmile_qr_scan"}}, {"name": "233a716bf532363c5ce42dad0c67364d", "fusion_lat": 0.0, "type": "electric_scooter", "lat": 38.92007266666667, "is_reserved": 0, "is_disabled": 0, "fusion_lon": 0.0, "bike_id": "233a716bf532363c5ce42dad0c67364d", "lon": -77.03162333333333, "rental_uris": {"ios": "https://dc.lft.to/lastmile_qr_scan", "android": "https://dc.lft.to/lastmile_qr_scan"}}, {"name": "b7855d8038d1f1a4ea6e09692613014d", "fusion_lat": 0.0, "type": "electric_scooter", "lat": 38.90425916666667, "is_reserved": 0, "is_disabled": 0, "fusion_lon": 0.0, "bike_id": "b7855d8038d1f1a4ea6e09692613014d", "lon": -77.025926, "rental_uris": {"ios": "https://dc.lft.to/lastmile_qr_scan", "android": "https://dc.lft.to/lastmile_qr_scan"}}, {"name": "320dc50096c749dcb6228381886e03e9", "fusion_lat": 0.0, "type": "electric_scooter", "lat": 38.883820166666666, "is_reserved": 0, "is_disabled": 0, "fusion_lon": 0.0, "bike_id": "320dc50096c749dcb6228381886e03e9", "lon": -77.01738983333334, "rental_uris": {"ios": "https://dc.lft.to/lastmile_qr_scan", "android": "https://dc.lft.to/lastmile_qr_scan"}}, {"name": "48e83368bfc8ca5f445111d881def968", "fusion_lat": 0.0, "type": "electric_scooter", "lat": 38.90721516666667, "is_reserved": 0, "is_disabled": 0, "fusion_lon": 0.0, "bike_id": "48e83368bfc8ca5f445111d881def968", "lon": -77.00365183333334, "rental_uris": {"ios": "https://dc.lft.to/lastmile_qr_scan", "android": "https://dc.lft.to/lastmile_qr_scan"}}, {"name": "8bcb2b1c0b44091690b6932b09d9a59c", "fusion_lat": 0.0, "type": "electric_scooter", "lat": 38.86658966666667, "is_reserved": 0, "is_disabled": 0, "fusion_lon": 0.0, "bike_id": "8bcb2b1c0b44091690b6932b09d9a59c", "lon": -76.98883166666667, "rental_uris": {"ios": "https://dc.lft.to/lastmile_qr_scan", "android": "https://dc.lft.to/lastmile_qr_scan"}}, {"name": "fc5007aa876a9432bf64d1bca7bcf205", "fusion_lat": 0.0, "type": "electric_scooter", "lat": 38.88489216666667, "is_reserved": 0, "is_disabled": 0, "fusion_lon": 0.0, "bike_id": "fc5007aa876a9432bf64d1bca7bcf205", "lon": -77.00710583333333, "rental_uris": {"ios": "https://dc.lft.to/lastmile_qr_scan", "android": "https://dc.lft.to/lastmile_qr_scan"}}, {"name": "49f58a099d1713886627ca84929c09f7", "fusion_lat": 0.0, "type": "electric_scooter", "lat": 38.899508833333336, "is_reserved": 0, "is_disabled": 0, "fusion_lon": 0.0, "bike_id": "49f58a099d1713886627ca84929c09f7", "lon": -77.00913683333333, "rental_uris": {"ios": "https://dc.lft.to/lastmile_qr_scan", "android": "https://dc.lft.to/lastmile_qr_scan"}}, {"name": "2eeb73031b9925a082043f0e0debe572", "fusion_lat": 0.0, "type": "electric_scooter", "lat": 38.88741433333333, "is_reserved": 0, "is_disabled": 0, "fusion_lon": 0.0, "bike_id": "2eeb73031b9925a082043f0e0debe572", "lon": -77.02571016666667, "rental_uris": {"ios": "https://dc.lft.to/lastmile_qr_scan", "android": "https://dc.lft.to/lastmile_qr_scan"}}, {"name": "fd06865d833e4965855777b78395e5e5", "fusion_lat": 0.0, "type": "electric_scooter", "lat": 38.92421616666667, "is_reserved": 0, "is_disabled": 0, "fusion_lon": 0.0, "bike_id": "fd06865d833e4965855777b78395e5e5", "lon": -77.0424525, "rental_uris": {"ios": "https://dc.lft.to/lastmile_qr_scan", "android": "https://dc.lft.to/lastmile_qr_scan"}}, {"name": "710ba627ce6f296bc5bb5987129ecfaa", "fusion_lat": 0.0, "type": "electric_scooter", "lat": 38.92434083333333, "is_reserved": 0, "is_disabled": 0, "fusion_lon": 0.0, "bike_id": "710ba627ce6f296bc5bb5987129ecfaa", "lon": -77.04217316666667, "rental_uris": {"ios": "https://dc.lft.to/lastmile_qr_scan", "android": "https://dc.lft.to/lastmile_qr_scan"}}, {"name": "0b56ec38b426316289285f3f0a5fdbd2", "fusion_lat": 0.0, "type": "electric_scooter", "lat": 38.916927666666666, "is_reserved": 0, "is_disabled": 0, "fusion_lon": 0.0, "bike_id": "0b56ec38b426316289285f3f0a5fdbd2", "lon": -77.030857, "rental_uris": {"ios": "https://dc.lft.to/lastmile_qr_scan", "android": "https://dc.lft.to/lastmile_qr_scan"}}, {"name": "d94df567e3d1130b38eb8b1b8a3666ee", "fusion_lat": 0.0, "type": "electric_scooter", "lat": 38.92708316666667, "is_reserved": 0, "is_disabled": 0, "fusion_lon": 0.0, "bike_id": "d94df567e3d1130b38eb8b1b8a3666ee", "lon": -77.0373075, "rental_uris": {"ios": "https://dc.lft.to/lastmile_qr_scan", "android": "https://dc.lft.to/lastmile_qr_scan"}}, {"name": "28c6e64f2866c16927625f8dddc61233", "fusion_lat": 0.0, "type": "electric_scooter", "lat": 38.89581416666667, "is_reserved": 0, "is_disabled": 0, "fusion_lon": 0.0, "bike_id": "28c6e64f2866c16927625f8dddc61233", "lon": -77.04333733333333, "rental_uris": {"ios": "https://dc.lft.to/lastmile_qr_scan", "android": "https://dc.lft.to/lastmile_qr_scan"}}, {"name": "21b7348e3bfea7cb9aa65bc44021fbaa", "fusion_lat": 0.0, "type": "electric_bike", "lat": 38.93582283333333, "is_reserved": 0, "is_disabled": 0, "fusion_lon": 0.0, "bike_id": "21b7348e3bfea7cb9aa65bc44021fbaa", "lon": -77.1068255, "rental_uris": {"ios": "https://dc.lft.to/lastmile_qr_scan", "android": "https://dc.lft.to/lastmile_qr_scan"}}, {"name": "dfce83eaad1f4049f208e48e540f916c", "fusion_lat": 0.0, "type": "electric_scooter", "lat": 38.863697, "is_reserved": 0, "is_disabled": 0, "fusion_lon": 0.0, "bike_id": "dfce83eaad1f4049f208e48e540f916c", "lon": -77.01366133333333, "rental_uris": {"ios": "https://dc.lft.to/lastmile_qr_scan", "android": "https://dc.lft.to/lastmile_qr_scan"}}, {"name": "06de733d7abaa5fc531a752a1adbb40f", "fusion_lat": 0.0, "type": "electric_scooter", "lat": 38.93054583333333, "is_reserved": 0, "is_disabled": 0, "fusion_lon": 0.0, "bike_id": "06de733d7abaa5fc531a752a1adbb40f", "lon": -77.02321466666666, "rental_uris": {"ios": "https://dc.lft.to/lastmile_qr_scan", "android": "https://dc.lft.to/lastmile_qr_scan"}}, {"name": "261d079b0a77095834b0329068c6affe", "fusion_lat": 0.0, "type": "electric_scooter", "lat": 38.901902666666665, "is_reserved": 0, "is_disabled": 0, "fusion_lon": 0.0, "bike_id": "261d079b0a77095834b0329068c6affe", "lon": -77.021843, "rental_uris": {"ios": "https://dc.lft.to/lastmile_qr_scan", "android": "https://dc.lft.to/lastmile_qr_scan"}}, {"name": "f65d8c65d9c3dd7d223f513359c4fd86", "fusion_lat": 0.0, "type": "electric_scooter", "lat": 38.90167133333333, "is_reserved": 0, "is_disabled": 0, "fusion_lon": 0.0, "bike_id": "f65d8c65d9c3dd7d223f513359c4fd86", "lon": -77.02561133333333, "rental_uris": {"ios": "https://dc.lft.to/lastmile_qr_scan", "android": "https://dc.lft.to/lastmile_qr_scan"}}, {"name": "476254ce9a27609905f7eb7857c9342c", "fusion_lat": 0.0, "type": "electric_scooter", "lat": 38.9125315, "is_reserved": 0, "is_disabled": 0, "fusion_lon": 0.0, "bike_id": "476254ce9a27609905f7eb7857c9342c", "lon": -77.00765333333334, "rental_uris": {"ios": "https://dc.lft.to/lastmile_qr_scan", "android": "https://dc.lft.to/lastmile_qr_scan"}}, {"name": "65337df1e19d40427f8cff767b7029c4", "fusion_lat": 0.0, "type": "electric_scooter", "lat": 38.9025775, "is_reserved": 0, "is_disabled": 0, "fusion_lon": 0.0, "bike_id": "65337df1e19d40427f8cff767b7029c4", "lon": -77.042565, "rental_uris": {"ios": "https://dc.lft.to/lastmile_qr_scan", "android": "https://dc.lft.to/lastmile_qr_scan"}}, {"name": "b2c480c66c02465ea44893668f269c24", "fusion_lat": 0.0, "type": "electric_scooter", "lat": 38.883439333333335, "is_reserved": 0, "is_disabled": 0, "fusion_lon": 0.0, "bike_id": "b2c480c66c02465ea44893668f269c24", "lon": -76.936465, "rental_uris": {"ios": "https://dc.lft.to/lastmile_qr_scan", "android": "https://dc.lft.to/lastmile_qr_scan"}}, {"name": "d6a6cfef3da5ce8830c210d9e4d1cb39", "fusion_lat": 0.0, "type": "electric_scooter", "lat": 38.910144, "is_reserved": 0, "is_disabled": 0, "fusion_lon": 0.0, "bike_id": "d6a6cfef3da5ce8830c210d9e4d1cb39", "lon": -77.02718216666666, "rental_uris": {"ios": "https://dc.lft.to/lastmile_qr_scan", "android": "https://dc.lft.to/lastmile_qr_scan"}}, {"name": "c42b023f6dd0a85e67c60945367b8841", "fusion_lat": 0.0, "type": "electric_scooter", "lat": 38.898982333333336, "is_reserved": 0, "is_disabled": 0, "fusion_lon": 0.0, "bike_id": "c42b023f6dd0a85e67c60945367b8841", "lon": -77.03932366666666, "rental_uris": {"ios": "https://dc.lft.to/lastmile_qr_scan", "android": "https://dc.lft.to/lastmile_qr_scan"}}, {"name": "2ce1fc4187ea5937cfb50e16c13e166a", "fusion_lat": 0.0, "type": "electric_scooter", "lat": 38.916969333333334, "is_reserved": 0, "is_disabled": 0, "fusion_lon": 0.0, "bike_id": "2ce1fc4187ea5937cfb50e16c13e166a", "lon": -77.0312505, "rental_uris": {"ios": "https://dc.lft.to/lastmile_qr_scan", "android": "https://dc.lft.to/lastmile_qr_scan"}}, {"name": "9c7f04b59080d444c1a5a081c435aecf", "fusion_lat": 0.0, "type": "electric_scooter", "lat": 38.90649583333333, "is_reserved": 0, "is_disabled": 0, "fusion_lon": 0.0, "bike_id": "9c7f04b59080d444c1a5a081c435aecf", "lon": -77.05324266666666, "rental_uris": {"ios": "https://dc.lft.to/lastmile_qr_scan", "android": "https://dc.lft.to/lastmile_qr_scan"}}, {"name": "bce1c53d2be7cdf31895886660d32e20", "fusion_lat": 0.0, "type": "electric_scooter", "lat": 38.915485, "is_reserved": 0, "is_disabled": 0, "fusion_lon": 0.0, "bike_id": "bce1c53d2be7cdf31895886660d32e20", "lon": -77.03510366666667, "rental_uris": {"ios": "https://dc.lft.to/lastmile_qr_scan", "android": "https://dc.lft.to/lastmile_qr_scan"}}, {"name": "bc59c0f5764dccf7f0cedc9d10a0e213", "fusion_lat": 0.0, "type": "electric_scooter", "lat": 38.895467, "is_reserved": 0, "is_disabled": 0, "fusion_lon": 0.0, "bike_id": "bc59c0f5764dccf7f0cedc9d10a0e213", "lon": -77.02922766666667, "rental_uris": {"ios": "https://dc.lft.to/lastmile_qr_scan", "android": "https://dc.lft.to/lastmile_qr_scan"}}, {"name": "e5b3ea5eaf3204bb63dc03421bb661c6", "fusion_lat": 0.0, "type": "electric_scooter", "lat": 38.93247683333333, "is_reserved": 0, "is_disabled": 0, "fusion_lon": 0.0, "bike_id": "e5b3ea5eaf3204bb63dc03421bb661c6", "lon": -77.03855166666666, "rental_uris": {"ios": "https://dc.lft.to/lastmile_qr_scan", "android": "https://dc.lft.to/lastmile_qr_scan"}}, {"name": "e3e4cee125c15b68b84ab1af45ddaa40", "fusion_lat": 0.0, "type": "electric_scooter", "lat": 38.916794833333334, "is_reserved": 0, "is_disabled": 0, "fusion_lon": 0.0, "bike_id": "e3e4cee125c15b68b84ab1af45ddaa40", "lon": -77.02913483333333, "rental_uris": {"ios": "https://dc.lft.to/lastmile_qr_scan", "android": "https://dc.lft.to/lastmile_qr_scan"}}, {"name": "fc568d4e52a99080fcd106a588df4533", "fusion_lat": 0.0, "type": "electric_scooter", "lat": 38.88728033333334, "is_reserved": 0, "is_disabled": 0, "fusion_lon": 0.0, "bike_id": "fc568d4e52a99080fcd106a588df4533", "lon": -77.01764533333333, "rental_uris": {"ios": "https://dc.lft.to/lastmile_qr_scan", "android": "https://dc.lft.to/lastmile_qr_scan"}}, {"name": "e9a47666b08a9685c4647cb3bed63ba5", "fusion_lat": 0.0, "type": "electric_scooter", "lat": 38.899915166666666, "is_reserved": 0, "is_disabled": 0, "fusion_lon": 0.0, "bike_id": "e9a47666b08a9685c4647cb3bed63ba5", "lon": -77.03996383333333, "rental_uris": {"ios": "https://dc.lft.to/lastmile_qr_scan", "android": "https://dc.lft.to/lastmile_qr_scan"}}, {"name": "db52f68f73965bf0c602e587648a5cad", "fusion_lat": 0.0, "type": "electric_scooter", "lat": 38.90675316666667, "is_reserved": 0, "is_disabled": 0, "fusion_lon": 0.0, "bike_id": "db52f68f73965bf0c602e587648a5cad", "lon": -77.03813216666667, "rental_uris": {"ios": "https://dc.lft.to/lastmile_qr_scan", "android": "https://dc.lft.to/lastmile_qr_scan"}}, {"name": "1d4eb6e7910040be0012f6caf713b211", "fusion_lat": 0.0, "type": "electric_scooter", "lat": 38.88738416666666, "is_reserved": 0, "is_disabled": 0, "fusion_lon": 0.0, "bike_id": "1d4eb6e7910040be0012f6caf713b211", "lon": -76.996461, "rental_uris": {"ios": "https://dc.lft.to/lastmile_qr_scan", "android": "https://dc.lft.to/lastmile_qr_scan"}}, {"name": "fb625dca124a5a9dc89d414eaf269a65", "fusion_lat": 0.0, "type": "electric_scooter", "lat": 38.920649166666664, "is_reserved": 0, "is_disabled": 0, "fusion_lon": 0.0, "bike_id": "fb625dca124a5a9dc89d414eaf269a65", "lon": -76.99851716666667, "rental_uris": {"ios": "https://dc.lft.to/lastmile_qr_scan", "android": "https://dc.lft.to/lastmile_qr_scan"}}, {"name": "227aaaae90d5dd063e8c782f6ec29c3a", "fusion_lat": 0.0, "type": "electric_scooter", "lat": 38.92161216666667, "is_reserved": 0, "is_disabled": 0, "fusion_lon": 0.0, "bike_id": "227aaaae90d5dd063e8c782f6ec29c3a", "lon": -77.03439883333333, "rental_uris": {"ios": "https://dc.lft.to/lastmile_qr_scan", "android": "https://dc.lft.to/lastmile_qr_scan"}}, {"name": "a6769eb4426e9fb202a619b33ea06b99", "fusion_lat": 0.0, "type": "electric_scooter", "lat": 38.91866483333333, "is_reserved": 0, "is_disabled": 0, "fusion_lon": 0.0, "bike_id": "a6769eb4426e9fb202a619b33ea06b99", "lon": -77.04479566666667, "rental_uris": {"ios": "https://dc.lft.to/lastmile_qr_scan", "android": "https://dc.lft.to/lastmile_qr_scan"}}, {"name": "502a5f28cc100e63a98af3cd23ede3c0", "fusion_lat": 0.0, "type": "electric_scooter", "lat": 38.88048533333333, "is_reserved": 0, "is_disabled": 0, "fusion_lon": 0.0, "bike_id": "502a5f28cc100e63a98af3cd23ede3c0", "lon": -77.0133095, "rental_uris": {"ios": "https://dc.lft.to/lastmile_qr_scan", "android": "https://dc.lft.to/lastmile_qr_scan"}}, {"name": "2babb0c70e035155f8773a79af26c094", "fusion_lat": 0.0, "type": "electric_scooter", "lat": 38.92359533333333, "is_reserved": 0, "is_disabled": 0, "fusion_lon": 0.0, "bike_id": "2babb0c70e035155f8773a79af26c094", "lon": -77.019437, "rental_uris": {"ios": "https://dc.lft.to/lastmile_qr_scan", "android": "https://dc.lft.to/lastmile_qr_scan"}}, {"name": "8c49806ae86167d744ea6adbcda9742a", "fusion_lat": 0.0, "type": "electric_scooter", "lat": 38.90196983333333, "is_reserved": 0, "is_disabled": 0, "fusion_lon": 0.0, "bike_id": "8c49806ae86167d744ea6adbcda9742a", "lon": -77.02175116666666, "rental_uris": {"ios": "https://dc.lft.to/lastmile_qr_scan", "android": "https://dc.lft.to/lastmile_qr_scan"}}, {"name": "26a4e5afdea88718745b7bd07f938765", "fusion_lat": 0.0, "type": "electric_bike", "lat": 38.946234833333335, "is_reserved": 0, "is_disabled": 0, "fusion_lon": 0.0, "bike_id": "26a4e5afdea88718745b7bd07f938765", "lon": -76.94627933333334, "rental_uris": {"ios": "https://dc.lft.to/lastmile_qr_scan", "android": "https://dc.lft.to/lastmile_qr_scan"}}, {"name": "612a45f700f5df12e38920b9ac5cd263", "fusion_lat": 0.0, "type": "electric_bike", "lat": 38.873012333333335, "is_reserved": 0, "is_disabled": 0, "fusion_lon": 0.0, "bike_id": "612a45f700f5df12e38920b9ac5cd263", "lon": -77.010932, "rental_uris": {"ios": "https://dc.lft.to/lastmile_qr_scan", "android": "https://dc.lft.to/lastmile_qr_scan"}}, {"name": "1a8800fa433a9784194cc97042228bec", "fusion_lat": 0.0, "type": "electric_scooter", "lat": 38.8941495, "is_reserved": 0, "is_disabled": 0, "fusion_lon": 0.0, "bike_id": "1a8800fa433a9784194cc97042228bec", "lon": -76.93957033333334, "rental_uris": {"ios": "https://dc.lft.to/lastmile_qr_scan", "android": "https://dc.lft.to/lastmile_qr_scan"}}, {"name": "ef146d5ce048fb6ed765be6fb5d1ac9f", "fusion_lat": 0.0, "type": "electric_scooter", "lat": 38.871151, "is_reserved": 0, "is_disabled": 0, "fusion_lon": 0.0, "bike_id": "ef146d5ce048fb6ed765be6fb5d1ac9f", "lon": -76.96594483333334, "rental_uris": {"ios": "https://dc.lft.to/lastmile_qr_scan", "android": "https://dc.lft.to/lastmile_qr_scan"}}, {"name": "471aa4c52bb0709b7e451d8cd7aa5592", "fusion_lat": 0.0, "type": "electric_scooter", "lat": 38.92230133333333, "is_reserved": 0, "is_disabled": 0, "fusion_lon": 0.0, "bike_id": "471aa4c52bb0709b7e451d8cd7aa5592", "lon": -77.023345, "rental_uris": {"ios": "https://dc.lft.to/lastmile_qr_scan", "android": "https://dc.lft.to/lastmile_qr_scan"}}, {"name": "18fc763f8116d513b8046b432636dda8", "fusion_lat": 0.0, "type": "electric_scooter", "lat": 38.91548266666667, "is_reserved": 0, "is_disabled": 0, "fusion_lon": 0.0, "bike_id": "18fc763f8116d513b8046b432636dda8", "lon": -77.04157216666667, "rental_uris": {"ios": "https://dc.lft.to/lastmile_qr_scan", "android": "https://dc.lft.to/lastmile_qr_scan"}}, {"name": "e54a5181248b81be1f9f9f49385354ed", "fusion_lat": 0.0, "type": "electric_scooter", "lat": 38.901204666666665, "is_reserved": 0, "is_disabled": 0, "fusion_lon": 0.0, "bike_id": "e54a5181248b81be1f9f9f49385354ed", "lon": -77.028859, "rental_uris": {"ios": "https://dc.lft.to/lastmile_qr_scan", "android": "https://dc.lft.to/lastmile_qr_scan"}}, {"name": "3ad000a15488b0682c51d9ad909447fc", "fusion_lat": 0.0, "type": "electric_scooter", "lat": 38.9016745, "is_reserved": 0, "is_disabled": 0, "fusion_lon": 0.0, "bike_id": "3ad000a15488b0682c51d9ad909447fc", "lon": -77.01602983333333, "rental_uris": {"ios": "https://dc.lft.to/lastmile_qr_scan", "android": "https://dc.lft.to/lastmile_qr_scan"}}, {"name": "5a85d3b3f79cc6a7b2b09464e3e095c5", "fusion_lat": 0.0, "type": "electric_scooter", "lat": 38.90306916666667, "is_reserved": 0, "is_disabled": 0, "fusion_lon": 0.0, "bike_id": "5a85d3b3f79cc6a7b2b09464e3e095c5", "lon": -77.02889816666666, "rental_uris": {"ios": "https://dc.lft.to/lastmile_qr_scan", "android": "https://dc.lft.to/lastmile_qr_scan"}}, {"name": "6f632d5330acba4f570228e36949d967", "fusion_lat": 0.0, "type": "electric_bike", "lat": 38.936708833333334, "is_reserved": 0, "is_disabled": 0, "fusion_lon": 0.0, "bike_id": "6f632d5330acba4f570228e36949d967", "lon": -76.95206166666667, "rental_uris": {"ios": "https://dc.lft.to/lastmile_qr_scan", "android": "https://dc.lft.to/lastmile_qr_scan"}}, {"name": "8459dd2578182bc6b9bfc960b3c1064d", "fusion_lat": 0.0, "type": "electric_scooter", "lat": 38.8747255, "is_reserved": 0, "is_disabled": 0, "fusion_lon": 0.0, "bike_id": "8459dd2578182bc6b9bfc960b3c1064d", "lon": -77.00616533333333, "rental_uris": {"ios": "https://dc.lft.to/lastmile_qr_scan", "android": "https://dc.lft.to/lastmile_qr_scan"}}, {"name": "0278c75f366cd337d3a0165e625dd96c", "fusion_lat": 0.0, "type": "electric_scooter", "lat": 38.896498, "is_reserved": 0, "is_disabled": 0, "fusion_lon": 0.0, "bike_id": "0278c75f366cd337d3a0165e625dd96c", "lon": -77.0091235, "rental_uris": {"ios": "https://dc.lft.to/lastmile_qr_scan", "android": "https://dc.lft.to/lastmile_qr_scan"}}, {"name": "77ad208b8f0150086df089c85554df59", "fusion_lat": 0.0, "type": "electric_scooter", "lat": 38.886872, "is_reserved": 0, "is_disabled": 0, "fusion_lon": 0.0, "bike_id": "77ad208b8f0150086df089c85554df59", "lon": -76.957601, "rental_uris": {"ios": "https://dc.lft.to/lastmile_qr_scan", "android": "https://dc.lft.to/lastmile_qr_scan"}}, {"name": "f90875f27fb27e675389afa521e44325", "fusion_lat": 0.0, "type": "electric_scooter", "lat": 38.890127166666666, "is_reserved": 0, "is_disabled": 0, "fusion_lon": 0.0, "bike_id": "f90875f27fb27e675389afa521e44325", "lon": -76.93742983333334, "rental_uris": {"ios": "https://dc.lft.to/lastmile_qr_scan", "android": "https://dc.lft.to/lastmile_qr_scan"}}, {"name": "c74b8d36a96389d71d98673d9afbc3ce", "fusion_lat": 0.0, "type": "electric_bike", "lat": 38.8382625, "is_reserved": 0, "is_disabled": 0, "fusion_lon": 0.0, "bike_id": "c74b8d36a96389d71d98673d9afbc3ce", "lon": -76.99685216666667, "rental_uris": {"ios": "https://dc.lft.to/lastmile_qr_scan", "android": "https://dc.lft.to/lastmile_qr_scan"}}, {"name": "b5a97b2661875c8bea58ba5e4f4f0747", "fusion_lat": 0.0, "type": "electric_scooter", "lat": 38.900203166666664, "is_reserved": 0, "is_disabled": 0, "fusion_lon": 0.0, "bike_id": "b5a97b2661875c8bea58ba5e4f4f0747", "lon": -77.04333066666666, "rental_uris": {"ios": "https://dc.lft.to/lastmile_qr_scan", "android": "https://dc.lft.to/lastmile_qr_scan"}}, {"name": "239f3c21cd623a49a4e991161decf250", "fusion_lat": 0.0, "type": "electric_scooter", "lat": 38.86887316666667, "is_reserved": 0, "is_disabled": 0, "fusion_lon": 0.0, "bike_id": "239f3c21cd623a49a4e991161decf250", "lon": -76.9830905, "rental_uris": {"ios": "https://dc.lft.to/lastmile_qr_scan", "android": "https://dc.lft.to/lastmile_qr_scan"}}, {"name": "1b37083ef299983e1363cd4fc24568be", "fusion_lat": 0.0, "type": "electric_scooter", "lat": 38.904851666666666, "is_reserved": 0, "is_disabled": 0, "fusion_lon": 0.0, "bike_id": "1b37083ef299983e1363cd4fc24568be", "lon": -77.06538066666667, "rental_uris": {"ios": "https://dc.lft.to/lastmile_qr_scan", "android": "https://dc.lft.to/lastmile_qr_scan"}}, {"name": "77d4f06890a1a836ce915fa6596333dc", "fusion_lat": 0.0, "type": "electric_scooter", "lat": 38.89484083333333, "is_reserved": 0, "is_disabled": 0, "fusion_lon": 0.0, "bike_id": "77d4f06890a1a836ce915fa6596333dc", "lon": -77.01999083333334, "rental_uris": {"ios": "https://dc.lft.to/lastmile_qr_scan", "android": "https://dc.lft.to/lastmile_qr_scan"}}, {"name": "f9b3a13e31471c12da6d577ee2b9c68f", "fusion_lat": 0.0, "type": "electric_scooter", "lat": 38.858486, "is_reserved": 0, "is_disabled": 0, "fusion_lon": 0.0, "bike_id": "f9b3a13e31471c12da6d577ee2b9c68f", "lon": -76.95885466666667, "rental_uris": {"ios": "https://dc.lft.to/lastmile_qr_scan", "android": "https://dc.lft.to/lastmile_qr_scan"}}, {"name": "346bfad968d1fa2f01b396f73db585dc", "fusion_lat": 0.0, "type": "electric_scooter", "lat": 38.917108666666664, "is_reserved": 0, "is_disabled": 0, "fusion_lon": 0.0, "bike_id": "346bfad968d1fa2f01b396f73db585dc", "lon": -77.02787733333334, "rental_uris": {"ios": "https://dc.lft.to/lastmile_qr_scan", "android": "https://dc.lft.to/lastmile_qr_scan"}}, {"name": "e3fe97f5cd85a7555cb2b58d27fab50b", "fusion_lat": 0.0, "type": "electric_scooter", "lat": 38.941733666666664, "is_reserved": 0, "is_disabled": 0, "fusion_lon": 0.0, "bike_id": "e3fe97f5cd85a7555cb2b58d27fab50b", "lon": -77.02512716666666, "rental_uris": {"ios": "https://dc.lft.to/lastmile_qr_scan", "android": "https://dc.lft.to/lastmile_qr_scan"}}, {"name": "550ad1ecfed3b50ea0bedfde266a22f2", "fusion_lat": 0.0, "type": "electric_scooter", "lat": 38.90708166666667, "is_reserved": 0, "is_disabled": 0, "fusion_lon": 0.0, "bike_id": "550ad1ecfed3b50ea0bedfde266a22f2", "lon": -77.0239855, "rental_uris": {"ios": "https://dc.lft.to/lastmile_qr_scan", "android": "https://dc.lft.to/lastmile_qr_scan"}}, {"name": "b9c9de709c058379466a334a55ca546c", "fusion_lat": 0.0, "type": "electric_scooter", "lat": 38.9011825, "is_reserved": 0, "is_disabled": 0, "fusion_lon": 0.0, "bike_id": "b9c9de709c058379466a334a55ca546c", "lon": -77.04995583333333, "rental_uris": {"ios": "https://dc.lft.to/lastmile_qr_scan", "android": "https://dc.lft.to/lastmile_qr_scan"}}, {"name": "42c7351e43f70cd68f6d815c07796d38", "fusion_lat": 0.0, "type": "electric_scooter", "lat": 38.92761933333333, "is_reserved": 0, "is_disabled": 0, "fusion_lon": 0.0, "bike_id": "42c7351e43f70cd68f6d815c07796d38", "lon": -77.0327255, "rental_uris": {"ios": "https://dc.lft.to/lastmile_qr_scan", "android": "https://dc.lft.to/lastmile_qr_scan"}}, {"name": "7161513ff2226a59f37ace964b682d3a", "fusion_lat": 0.0, "type": "electric_scooter", "lat": 38.90957183333333, "is_reserved": 0, "is_disabled": 0, "fusion_lon": 0.0, "bike_id": "7161513ff2226a59f37ace964b682d3a", "lon": -77.04598083333333, "rental_uris": {"ios": "https://dc.lft.to/lastmile_qr_scan", "android": "https://dc.lft.to/lastmile_qr_scan"}}, {"name": "cb1b4f36157dc956aec083d9d8b38fb6", "fusion_lat": 0.0, "type": "electric_scooter", "lat": 38.91110916666667, "is_reserved": 0, "is_disabled": 0, "fusion_lon": 0.0, "bike_id": "cb1b4f36157dc956aec083d9d8b38fb6", "lon": -77.03147283333334, "rental_uris": {"ios": "https://dc.lft.to/lastmile_qr_scan", "android": "https://dc.lft.to/lastmile_qr_scan"}}, {"name": "fa2aebd33d7078229cbd384d8cc5ec85", "fusion_lat": 0.0, "type": "electric_scooter", "lat": 38.907760333333336, "is_reserved": 0, "is_disabled": 0, "fusion_lon": 0.0, "bike_id": "fa2aebd33d7078229cbd384d8cc5ec85", "lon": -77.07167066666666, "rental_uris": {"ios": "https://dc.lft.to/lastmile_qr_scan", "android": "https://dc.lft.to/lastmile_qr_scan"}}, {"name": "5cb5ff4078059ff676aa43015c1b580f", "fusion_lat": 0.0, "type": "electric_scooter", "lat": 38.91149516666667, "is_reserved": 0, "is_disabled": 0, "fusion_lon": 0.0, "bike_id": "5cb5ff4078059ff676aa43015c1b580f", "lon": -77.0442145, "rental_uris": {"ios": "https://dc.lft.to/lastmile_qr_scan", "android": "https://dc.lft.to/lastmile_qr_scan"}}, {"name": "01b83873c05404adca5bc66879d466d5", "fusion_lat": 0.0, "type": "electric_bike", "lat": 38.92733316666666, "is_reserved": 0, "is_disabled": 0, "fusion_lon": 0.0, "bike_id": "01b83873c05404adca5bc66879d466d5", "lon": -77.01333633333333, "rental_uris": {"ios": "https://dc.lft.to/lastmile_qr_scan", "android": "https://dc.lft.to/lastmile_qr_scan"}}, {"name": "4a9789c0236f54f243db179e85894fde", "fusion_lat": 0.0, "type": "electric_scooter", "lat": 38.903949, "is_reserved": 0, "is_disabled": 0, "fusion_lon": 0.0, "bike_id": "4a9789c0236f54f243db179e85894fde", "lon": -77.03856016666667, "rental_uris": {"ios": "https://dc.lft.to/lastmile_qr_scan", "android": "https://dc.lft.to/lastmile_qr_scan"}}, {"name": "506890c8921fd34a70670fabc7fca887", "fusion_lat": 0.0, "type": "electric_scooter", "lat": 38.9141795, "is_reserved": 0, "is_disabled": 0, "fusion_lon": 0.0, "bike_id": "506890c8921fd34a70670fabc7fca887", "lon": -77.00888433333333, "rental_uris": {"ios": "https://dc.lft.to/lastmile_qr_scan", "android": "https://dc.lft.to/lastmile_qr_scan"}}, {"name": "09a51e98f031773601cc4af92253ac4a", "fusion_lat": 0.0, "type": "electric_scooter", "lat": 38.876954, "is_reserved": 0, "is_disabled": 0, "fusion_lon": 0.0, "bike_id": "09a51e98f031773601cc4af92253ac4a", "lon": -77.01772066666666, "rental_uris": {"ios": "https://dc.lft.to/lastmile_qr_scan", "android": "https://dc.lft.to/lastmile_qr_scan"}}, {"name": "85539c39e435ea7e14779a50bb0b889c", "fusion_lat": 0.0, "type": "electric_scooter", "lat": 38.912657, "is_reserved": 0, "is_disabled": 0, "fusion_lon": 0.0, "bike_id": "85539c39e435ea7e14779a50bb0b889c", "lon": -77.0608845, "rental_uris": {"ios": "https://dc.lft.to/lastmile_qr_scan", "android": "https://dc.lft.to/lastmile_qr_scan"}}, {"name": "62223928b306c51d611991404bb0965b", "fusion_lat": 0.0, "type": "electric_scooter", "lat": 38.91693133333333, "is_reserved": 0, "is_disabled": 0, "fusion_lon": 0.0, "bike_id": "62223928b306c51d611991404bb0965b", "lon": -77.042715, "rental_uris": {"ios": "https://dc.lft.to/lastmile_qr_scan", "android": "https://dc.lft.to/lastmile_qr_scan"}}, {"name": "e685a682f8c81b77c25280dfd0963ec4", "fusion_lat": 0.0, "type": "electric_bike", "lat": 38.92005, "is_reserved": 0, "is_disabled": 0, "fusion_lon": 0.0, "bike_id": "e685a682f8c81b77c25280dfd0963ec4", "lon": -76.97493616666667, "rental_uris": {"ios": "https://dc.lft.to/lastmile_qr_scan", "android": "https://dc.lft.to/lastmile_qr_scan"}}, {"name": "b94537f92a76761cf3ff52923b77432f", "fusion_lat": 0.0, "type": "electric_scooter", "lat": 38.89794083333334, "is_reserved": 0, "is_disabled": 0, "fusion_lon": 0.0, "bike_id": "b94537f92a76761cf3ff52923b77432f", "lon": -77.02812233333333, "rental_uris": {"ios": "https://dc.lft.to/lastmile_qr_scan", "android": "https://dc.lft.to/lastmile_qr_scan"}}, {"name": "f93d158b36e7d806de9ab325f222bc66", "fusion_lat": 0.0, "type": "electric_scooter", "lat": 38.880653333333335, "is_reserved": 0, "is_disabled": 0, "fusion_lon": 0.0, "bike_id": "f93d158b36e7d806de9ab325f222bc66", "lon": -76.93532083333334, "rental_uris": {"ios": "https://dc.lft.to/lastmile_qr_scan", "android": "https://dc.lft.to/lastmile_qr_scan"}}, {"name": "69851c267aede42ffdb7e2d613916b13", "fusion_lat": 0.0, "type": "electric_scooter", "lat": 38.906720166666666, "is_reserved": 0, "is_disabled": 0, "fusion_lon": 0.0, "bike_id": "69851c267aede42ffdb7e2d613916b13", "lon": -77.02071983333333, "rental_uris": {"ios": "https://dc.lft.to/lastmile_qr_scan", "android": "https://dc.lft.to/lastmile_qr_scan"}}, {"name": "7e9d23f3f9d5c9d71df5a840ee0d11e2", "fusion_lat": 0.0, "type": "electric_scooter", "lat": 38.88487466666667, "is_reserved": 0, "is_disabled": 0, "fusion_lon": 0.0, "bike_id": "7e9d23f3f9d5c9d71df5a840ee0d11e2", "lon": -77.02203933333334, "rental_uris": {"ios": "https://dc.lft.to/lastmile_qr_scan", "android": "https://dc.lft.to/lastmile_qr_scan"}}, {"name": "17760f7ff8dddb34aa373e298cba77a2", "fusion_lat": 0.0, "type": "electric_scooter", "lat": 38.912143666666665, "is_reserved": 0, "is_disabled": 0, "fusion_lon": 0.0, "bike_id": "17760f7ff8dddb34aa373e298cba77a2", "lon": -77.07597166666666, "rental_uris": {"ios": "https://dc.lft.to/lastmile_qr_scan", "android": "https://dc.lft.to/lastmile_qr_scan"}}, {"name": "670108cc7c366e2e128316973018f77c", "fusion_lat": 0.0, "type": "electric_scooter", "lat": 38.896389166666665, "is_reserved": 0, "is_disabled": 0, "fusion_lon": 0.0, "bike_id": "670108cc7c366e2e128316973018f77c", "lon": -77.009283, "rental_uris": {"ios": "https://dc.lft.to/lastmile_qr_scan", "android": "https://dc.lft.to/lastmile_qr_scan"}}, {"name": "499e4bf5089c71481373391e51973330", "fusion_lat": 0.0, "type": "electric_scooter", "lat": 38.89588366666667, "is_reserved": 0, "is_disabled": 0, "fusion_lon": 0.0, "bike_id": "499e4bf5089c71481373391e51973330", "lon": -76.93719616666667, "rental_uris": {"ios": "https://dc.lft.to/lastmile_qr_scan", "android": "https://dc.lft.to/lastmile_qr_scan"}}, {"name": "e6039a19ed782b9020a6ff405e2398ba", "fusion_lat": 0.0, "type": "electric_scooter", "lat": 38.91909883333334, "is_reserved": 0, "is_disabled": 0, "fusion_lon": 0.0, "bike_id": "e6039a19ed782b9020a6ff405e2398ba", "lon": -77.03253466666666, "rental_uris": {"ios": "https://dc.lft.to/lastmile_qr_scan", "android": "https://dc.lft.to/lastmile_qr_scan"}}, {"name": "d8f88d089349207f43079f5a094191cd", "fusion_lat": 0.0, "type": "electric_scooter", "lat": 38.9090225, "is_reserved": 0, "is_disabled": 0, "fusion_lon": 0.0, "bike_id": "d8f88d089349207f43079f5a094191cd", "lon": -77.02715533333334, "rental_uris": {"ios": "https://dc.lft.to/lastmile_qr_scan", "android": "https://dc.lft.to/lastmile_qr_scan"}}, {"name": "49926ebe4506ec74585b14933503ebea", "fusion_lat": 0.0, "type": "electric_scooter", "lat": 38.90017783333333, "is_reserved": 0, "is_disabled": 0, "fusion_lon": 0.0, "bike_id": "49926ebe4506ec74585b14933503ebea", "lon": -77.00215416666667, "rental_uris": {"ios": "https://dc.lft.to/lastmile_qr_scan", "android": "https://dc.lft.to/lastmile_qr_scan"}}, {"name": "92acb97c2969d7c73c0def47ca38cd37", "fusion_lat": 0.0, "type": "electric_scooter", "lat": 38.927012166666664, "is_reserved": 0, "is_disabled": 0, "fusion_lon": 0.0, "bike_id": "92acb97c2969d7c73c0def47ca38cd37", "lon": -77.020745, "rental_uris": {"ios": "https://dc.lft.to/lastmile_qr_scan", "android": "https://dc.lft.to/lastmile_qr_scan"}}, {"name": "71830b5a1e369704396b624045048d15", "fusion_lat": 0.0, "type": "electric_scooter", "lat": 38.90504983333334, "is_reserved": 0, "is_disabled": 0, "fusion_lon": 0.0, "bike_id": "71830b5a1e369704396b624045048d15", "lon": -77.040584, "rental_uris": {"ios": "https://dc.lft.to/lastmile_qr_scan", "android": "https://dc.lft.to/lastmile_qr_scan"}}, {"name": "ec27692db0c5bff312694ab0345ec429", "fusion_lat": 0.0, "type": "electric_scooter", "lat": 38.88386883333333, "is_reserved": 0, "is_disabled": 0, "fusion_lon": 0.0, "bike_id": "ec27692db0c5bff312694ab0345ec429", "lon": -77.01932833333333, "rental_uris": {"ios": "https://dc.lft.to/lastmile_qr_scan", "android": "https://dc.lft.to/lastmile_qr_scan"}}, {"name": "85b8990950cf2a8492c9f51dabeb446a", "fusion_lat": 0.0, "type": "electric_scooter", "lat": 38.91803433333333, "is_reserved": 0, "is_disabled": 0, "fusion_lon": 0.0, "bike_id": "85b8990950cf2a8492c9f51dabeb446a", "lon": -77.04001266666667, "rental_uris": {"ios": "https://dc.lft.to/lastmile_qr_scan", "android": "https://dc.lft.to/lastmile_qr_scan"}}, {"name": "797c72259baaf51cae939bb5fd8e9eff", "fusion_lat": 0.0, "type": "electric_scooter", "lat": 38.89602033333333, "is_reserved": 0, "is_disabled": 0, "fusion_lon": 0.0, "bike_id": "797c72259baaf51cae939bb5fd8e9eff", "lon": -77.04773066666667, "rental_uris": {"ios": "https://dc.lft.to/lastmile_qr_scan", "android": "https://dc.lft.to/lastmile_qr_scan"}}, {"name": "28cdede2ed3854d00da1343e9218ac65", "fusion_lat": 0.0, "type": "electric_scooter", "lat": 38.9038385, "is_reserved": 0, "is_disabled": 0, "fusion_lon": 0.0, "bike_id": "28cdede2ed3854d00da1343e9218ac65", "lon": -77.0301325, "rental_uris": {"ios": "https://dc.lft.to/lastmile_qr_scan", "android": "https://dc.lft.to/lastmile_qr_scan"}}, {"name": "edee451d815c0c92244d62e9fcc8b3e2", "fusion_lat": 0.0, "type": "electric_bike", "lat": 38.828730666666665, "is_reserved": 0, "is_disabled": 0, "fusion_lon": 0.0, "bike_id": "edee451d815c0c92244d62e9fcc8b3e2", "lon": -77.11218133333334, "rental_uris": {"ios": "https://dc.lft.to/lastmile_qr_scan", "android": "https://dc.lft.to/lastmile_qr_scan"}}, {"name": "e80f48b80a60d522acf0d5b98d8a8a15", "fusion_lat": 0.0, "type": "electric_scooter", "lat": 38.9002785, "is_reserved": 0, "is_disabled": 0, "fusion_lon": 0.0, "bike_id": "e80f48b80a60d522acf0d5b98d8a8a15", "lon": -77.0488435, "rental_uris": {"ios": "https://dc.lft.to/lastmile_qr_scan", "android": "https://dc.lft.to/lastmile_qr_scan"}}, {"name": "64003084188020734632a8195f3ef525", "fusion_lat": 0.0, "type": "electric_bike", "lat": 38.9909255, "is_reserved": 0, "is_disabled": 0, "fusion_lon": 0.0, "bike_id": "64003084188020734632a8195f3ef525", "lon": -76.87496933333334, "rental_uris": {"ios": "https://dc.lft.to/lastmile_qr_scan", "android": "https://dc.lft.to/lastmile_qr_scan"}}, {"name": "56b2705c6a180e2298dcc59f4c06bb67", "fusion_lat": 0.0, "type": "electric_scooter", "lat": 38.930918, "is_reserved": 0, "is_disabled": 0, "fusion_lon": 0.0, "bike_id": "56b2705c6a180e2298dcc59f4c06bb67", "lon": -77.03440933333333, "rental_uris": {"ios": "https://dc.lft.to/lastmile_qr_scan", "android": "https://dc.lft.to/lastmile_qr_scan"}}, {"name": "d694715bd72daefe7ba06b95718d7db8", "fusion_lat": 0.0, "type": "electric_scooter", "lat": 38.8996765, "is_reserved": 0, "is_disabled": 0, "fusion_lon": 0.0, "bike_id": "d694715bd72daefe7ba06b95718d7db8", "lon": -77.05705883333333, "rental_uris": {"ios": "https://dc.lft.to/lastmile_qr_scan", "android": "https://dc.lft.to/lastmile_qr_scan"}}, {"name": "0aba486dde681ad3a352219b464fa6f2", "fusion_lat": 0.0, "type": "electric_scooter", "lat": 38.915964333333335, "is_reserved": 0, "is_disabled": 0, "fusion_lon": 0.0, "bike_id": "0aba486dde681ad3a352219b464fa6f2", "lon": -77.03199483333333, "rental_uris": {"ios": "https://dc.lft.to/lastmile_qr_scan", "android": "https://dc.lft.to/lastmile_qr_scan"}}, {"name": "9aad3d8e72e15294d59adedbbf41a73e", "fusion_lat": 0.0, "type": "electric_scooter", "lat": 38.90424766666667, "is_reserved": 0, "is_disabled": 0, "fusion_lon": 0.0, "bike_id": "9aad3d8e72e15294d59adedbbf41a73e", "lon": -77.03441933333333, "rental_uris": {"ios": "https://dc.lft.to/lastmile_qr_scan", "android": "https://dc.lft.to/lastmile_qr_scan"}}, {"name": "f20b8a5822c0c160905955d31a3dd55a", "fusion_lat": 0.0, "type": "electric_scooter", "lat": 38.909506, "is_reserved": 0, "is_disabled": 0, "fusion_lon": 0.0, "bike_id": "f20b8a5822c0c160905955d31a3dd55a", "lon": -77.02407016666666, "rental_uris": {"ios": "https://dc.lft.to/lastmile_qr_scan", "android": "https://dc.lft.to/lastmile_qr_scan"}}, {"name": "00b61066352f2d381d811e11c987c33c", "fusion_lat": 0.0, "type": "electric_scooter", "lat": 38.9035645, "is_reserved": 0, "is_disabled": 0, "fusion_lon": 0.0, "bike_id": "00b61066352f2d381d811e11c987c33c", "lon": -77.05343683333334, "rental_uris": {"ios": "https://dc.lft.to/lastmile_qr_scan", "android": "https://dc.lft.to/lastmile_qr_scan"}}, {"name": "3e79dae1a5d1af05d45ba284795b1952", "fusion_lat": 0.0, "type": "electric_bike", "lat": 39.03883883333334, "is_reserved": 0, "is_disabled": 0, "fusion_lon": 0.0, "bike_id": "3e79dae1a5d1af05d45ba284795b1952", "lon": -76.99041166666666, "rental_uris": {"ios": "https://dc.lft.to/lastmile_qr_scan", "android": "https://dc.lft.to/lastmile_qr_scan"}}, {"name": "7b75652265b6b73747b7538498e60b9d", "fusion_lat": 0.0, "type": "electric_scooter", "lat": 38.91819433333333, "is_reserved": 0, "is_disabled": 0, "fusion_lon": 0.0, "bike_id": "7b75652265b6b73747b7538498e60b9d", "lon": -77.04016116666666, "rental_uris": {"ios": "https://dc.lft.to/lastmile_qr_scan", "android": "https://dc.lft.to/lastmile_qr_scan"}}, {"name": "ab7c7238e8b274aa982420b18bdbb8c0", "fusion_lat": 0.0, "type": "electric_scooter", "lat": 38.901381, "is_reserved": 0, "is_disabled": 0, "fusion_lon": 0.0, "bike_id": "ab7c7238e8b274aa982420b18bdbb8c0", "lon": -76.99971633333334, "rental_uris": {"ios": "https://dc.lft.to/lastmile_qr_scan", "android": "https://dc.lft.to/lastmile_qr_scan"}}, {"name": "acd099477769c69bc058392ebb27075c", "fusion_lat": 0.0, "type": "electric_scooter", "lat": 38.93080416666667, "is_reserved": 0, "is_disabled": 0, "fusion_lon": 0.0, "bike_id": "acd099477769c69bc058392ebb27075c", "lon": -77.02394933333333, "rental_uris": {"ios": "https://dc.lft.to/lastmile_qr_scan", "android": "https://dc.lft.to/lastmile_qr_scan"}}, {"name": "4194a63fa65a3ec636692d8354960ff7", "fusion_lat": 0.0, "type": "electric_scooter", "lat": 38.9342655, "is_reserved": 0, "is_disabled": 0, "fusion_lon": 0.0, "bike_id": "4194a63fa65a3ec636692d8354960ff7", "lon": -77.040012, "rental_uris": {"ios": "https://dc.lft.to/lastmile_qr_scan", "android": "https://dc.lft.to/lastmile_qr_scan"}}, {"name": "2a25855be77d9eacb36bad0acc2d5688", "fusion_lat": 0.0, "type": "electric_bike", "lat": 38.9732365, "is_reserved": 0, "is_disabled": 0, "fusion_lon": 0.0, "bike_id": "2a25855be77d9eacb36bad0acc2d5688", "lon": -77.021499, "rental_uris": {"ios": "https://dc.lft.to/lastmile_qr_scan", "android": "https://dc.lft.to/lastmile_qr_scan"}}, {"name": "6c1a2efe9dc7e553a4dc8639d5660613", "fusion_lat": 0.0, "type": "electric_bike", "lat": 38.90287583333333, "is_reserved": 0, "is_disabled": 0, "fusion_lon": 0.0, "bike_id": "6c1a2efe9dc7e553a4dc8639d5660613", "lon": -76.9809145, "rental_uris": {"ios": "https://dc.lft.to/lastmile_qr_scan", "android": "https://dc.lft.to/lastmile_qr_scan"}}, {"name": "2d3f1cf6ec3fdd8aa75e050428c5683a", "fusion_lat": 0.0, "type": "electric_scooter", "lat": 38.8991615, "is_reserved": 0, "is_disabled": 0, "fusion_lon": 0.0, "bike_id": "2d3f1cf6ec3fdd8aa75e050428c5683a", "lon": -76.93386616666666, "rental_uris": {"ios": "https://dc.lft.to/lastmile_qr_scan", "android": "https://dc.lft.to/lastmile_qr_scan"}}, {"name": "d9b8e7a8783bc178a14125a1c90107f5", "fusion_lat": 0.0, "type": "electric_bike", "lat": 38.882420333333336, "is_reserved": 0, "is_disabled": 0, "fusion_lon": 0.0, "bike_id": "d9b8e7a8783bc178a14125a1c90107f5", "lon": -77.1798215, "rental_uris": {"ios": "https://dc.lft.to/lastmile_qr_scan", "android": "https://dc.lft.to/lastmile_qr_scan"}}, {"name": "dbcb9dcd40297eba7be9b7b153c40b80", "fusion_lat": 0.0, "type": "electric_scooter", "lat": 38.918032333333336, "is_reserved": 0, "is_disabled": 0, "fusion_lon": 0.0, "bike_id": "dbcb9dcd40297eba7be9b7b153c40b80", "lon": -77.0281585, "rental_uris": {"ios": "https://dc.lft.to/lastmile_qr_scan", "android": "https://dc.lft.to/lastmile_qr_scan"}}, {"name": "94b279894b047c3c4580503fe57a6bf7", "fusion_lat": 0.0, "type": "electric_scooter", "lat": 38.874653333333335, "is_reserved": 0, "is_disabled": 0, "fusion_lon": 0.0, "bike_id": "94b279894b047c3c4580503fe57a6bf7", "lon": -77.00187633333333, "rental_uris": {"ios": "https://dc.lft.to/lastmile_qr_scan", "android": "https://dc.lft.to/lastmile_qr_scan"}},