{"data": {"bikes": [{"rental_uris": {"ios": "https://dc.lft.to/lastmile_qr_scan", "android": "https://dc.lft.to/lastmile_qr_scan"}, "type": "electric_bike", "name": "dadc281ebe54d482befef0b0cd157420", "is_reserved": 0, "lon": -76.99547466666667, "is_disabled": 0, "fusion_lat": 0.0, "lat": 38.862176166666664, "bike_id": "dadc281ebe54d482befef0b0cd157420", "fusion_lon": 0.0}, {"rental_uris": {"ios": "https://dc.lft.to/lastmile_qr_scan", "android": "https://dc.lft.to/lastmile_qr_scan"}, "type": "electric_scooter", "name": "7338c10b4a4964e7832576b21850d7fe", "is_reserved": 0, "lon": -77.05754316666666, "is_disabled": 0, "fusion_lat": 0.0, "lat": 38.92507233333333, "bike_id": "7338c10b4a4964e7832576b21850d7fe", "fusion_lon": 0.0}, {"rental_uris": {"ios": "https://dc.lft.to/lastmile_qr_scan", "android": "https://dc.lft.to/lastmile_qr_scan"}, "type": "electric_scooter", "name": "09e8006e1286ac66a0d08f0249754136", "is_reserved": 0, "lon": -77.0460595, "is_disabled": 0, "fusion_lat": 0.0, "lat": 38.905685166666665, "bike_id": "09e8006e1286ac66a0d08f0249754136", "fusion_lon": 0.0}, {"rental_uris": {"ios": "https://dc.lft.to/lastmile_qr_scan", "android": "https://dc.lft.to/lastmile_qr_scan"}, "type": "electric_bike", "name": "21800d9fec15b8998bc28c5853fc2f1a", "is_reserved": 0, "lon": -76.9073795, "is_disabled": 0, "fusion_lat": 0.0, "lat": 38.8961905, "bike_id": "21800d9fec15b8998bc28c5853fc2f1a", "fusion_lon": 0.0}, {"rental_uris": {"ios": "https://dc.lft.to/lastmile_qr_scan", "android": "https://dc.lft.to/lastmile_qr_scan"}, "type": "electric_scooter", "name": "74ac96c5e1eaa34e1d74d02d86cbd1a0", "is_reserved": 0, "lon": -77.02179333333333, "is_disabled": 0, "fusion_lat": 0.0, "lat": 38.91124283333333, "bike_id": "74ac96c5e1eaa34e1d74d02d86cbd1a0", "fusion_lon": 0.0}, {"rental_uris": {"ios": "https://dc.lft.to/lastmile_qr_scan", "android": "https://dc.lft.to/lastmile_qr_scan"}, "type": "electric_scooter", "name": "c12fe69e8d5930b2c1a6fffddf5e09aa", "is_reserved": 0, "lon": -77.02017333333333, "is_disabled": 0, "fusion_lat": 0.0, "lat": 38.91117416666667, "bike_id": "c12fe69e8d5930b2c1a6fffddf5e09aa", "fusion_lon": 0.0}, {"rental_uris": {"ios": "https://dc.lft.to/lastmile_qr_scan", "android": "https://dc.lft.to/lastmile_qr_scan"}, "type": "electric_scooter", "name": "87f7ffe7f8f7bbdd2c72e4fb9c473e31", "is_reserved": 0, "lon": -77.0258075, "is_disabled": 0, "fusion_lat": 0.0, "lat": 38.887237166666665, "bike_id": "87f7ffe7f8f7bbdd2c72e4fb9c473e31", "fusion_lon": 0.0}, {"rental_uris": {"ios": "https://dc.lft.to/lastmile_qr_scan", "android": "https://dc.lft.to/lastmile_qr_scan"}, "type": "electric_scooter", "name": "3a9e5e55ad7fb786003fc7c051ee7fdf", "is_reserved": 0, "lon": -77.050292, "is_disabled": 0, "fusion_lat": 0.0, "lat": 38.8966385, "bike_id": "3a9e5e55ad7fb786003fc7c051ee7fdf", "fusion_lon": 0.0}, {"rental_uris": {"ios": "https://dc.lft.to/lastmile_qr_scan", "android": "https://dc.lft.to/lastmile_qr_scan"}, "type": "electric_scooter", "name": "ade1ec4f0a79c0684bce11fab62242f4", "is_reserved": 0, "lon": -77.00736183333333, "is_disabled": 0, "fusion_lat": 0.0, "lat": 38.87832683333333, "bike_id": "ade1ec4f0a79c0684bce11fab62242f4", "fusion_lon": 0.0}, {"rental_uris": {"ios": "https://dc.lft.to/lastmile_qr_scan", "android": "https://dc.lft.to/lastmile_qr_scan"}, "type": "electric_scooter", "name": "b4df917e81c6d4ab786a35568d204325", "is_reserved": 0, "lon": -77.03018183333333, "is_disabled": 0, "fusion_lat": 0.0, "lat": 38.8784545, "bike_id": "b4df917e81c6d4ab786a35568d204325", "fusion_lon": 0.0}, {"rental_uris": {"ios": "https://dc.lft.to/lastmile_qr_scan", "android": "https://dc.lft.to/lastmile_qr_scan"}, "type": "electric_scooter", "name": "f2100cf9b5e1e678ef87fe951deb9dc1", "is_reserved": 0, "lon": -77.00735483333334, "is_disabled": 0, "fusion_lat": 0.0, "lat": 38.89892566666666, "bike_id": "f2100cf9b5e1e678ef87fe951deb9dc1", "fusion_lon": 0.0}, {"rental_uris": {"ios": "https://dc.lft.to/lastmile_qr_scan", "android": "https://dc.lft.to/lastmile_qr_scan"}, "type": "electric_scooter", "name": "baeef3c082c440af6a07d0bfa5f585c1", "is_reserved": 0, "lon": -77.01972766666667, "is_disabled": 0, "fusion_lat": 0.0, "lat": 38.90506516666667, "bike_id": "baeef3c082c440af6a07d0bfa5f585c1", "fusion_lon": 0.0}, {"rental_uris": {"ios": "https://dc.lft.to/lastmile_qr_scan", "android": "https://dc.lft.to/lastmile_qr_scan"}, "type": "electric_scooter", "name": "8b2e2ee20e6436788618f0431cc629cc", "is_reserved": 0, "lon": -77.0440935, "is_disabled": 0, "fusion_lat": 0.0, "lat": 38.895950166666665, "bike_id": "8b2e2ee20e6436788618f0431cc629cc", "fusion_lon": 0.0}, {"rental_uris": {"ios": "https://dc.lft.to/lastmile_qr_scan", "android": "https://dc.lft.to/lastmile_qr_scan"}, "type": "electric_scooter", "name": "9ff0269b9b02dc6c2942c6dbb68a8824", "is_reserved": 0, "lon": -77.02207133333333, "is_disabled": 0, "fusion_lat": 0.0, "lat": 38.95153216666667, "bike_id": "9ff0269b9b02dc6c2942c6dbb68a8824", "fusion_lon": 0.0}, {"rental_uris": {"ios": "https://dc.lft.to/lastmile_qr_scan", "android": "https://dc.lft.to/lastmile_qr_scan"}, "type": "electric_scooter", "name": "24a95e728d2347a2dfcee3f3846ed92d", "is_reserved": 0, "lon": -77.04391066666666, "is_disabled": 0, "fusion_lat": 0.0, "lat": 38.920454666666664, "bike_id": "24a95e728d2347a2dfcee3f3846ed92d", "fusion_lon": 0.0}, {"rental_uris": {"ios": "https://dc.lft.to/lastmile_qr_scan", "android": "https://dc.lft.to/lastmile_qr_scan"}, "type": "electric_scooter", "name": "147b262340d1e28afcf3418df5e845dd", "is_reserved": 0, "lon": -77.05813233333333, "is_disabled": 0, "fusion_lat": 0.0, "lat": 38.93520216666667, "bike_id": "147b262340d1e28afcf3418df5e845dd", "fusion_lon": 0.0}, {"rental_uris": {"ios": "https://dc.lft.to/lastmile_qr_scan", "android": "https://dc.lft.to/lastmile_qr_scan"}, "type": "electric_scooter", "name": "4fba89f88c1e99b101c091f0057dc2fb", "is_reserved": 0, "lon": -77.01821783333334, "is_disabled": 0, "fusion_lat": 0.0, "lat": 38.92251866666667, "bike_id": "4fba89f88c1e99b101c091f0057dc2fb", "fusion_lon": 0.0}, {"rental_uris": {"ios": "https://dc.lft.to/lastmile_qr_scan", "android": "https://dc.lft.to/lastmile_qr_scan"}, "type": "electric_scooter", "name": "cd36057de880bd5e7e6836e4e18ae831", "is_reserved": 0, "lon": -76.92920333333333, "is_disabled": 0, "fusion_lat": 0.0, "lat": 38.89270666666667, "bike_id": "cd36057de880bd5e7e6836e4e18ae831", "fusion_lon": 0.0}, {"rental_uris": {"ios": "https://dc.lft.to/lastmile_qr_scan", "android": "https://dc.lft.to/lastmile_qr_scan"}, "type": "electric_scooter", "name": "da7e0d717af9449e4d2383fd6a7b04d7", "is_reserved": 0, "lon": -77.03852433333333, "is_disabled": 0, "fusion_lat": 0.0, "lat": 38.91672233333333, "bike_id": "da7e0d717af9449e4d2383fd6a7b04d7", "fusion_lon": 0.0}, {"rental_uris": {"ios": "https://dc.lft.to/lastmile_qr_scan", "android": "https://dc.lft.to/lastmile_qr_scan"}, "type": "electric_scooter", "name": "b62422f00ea84fe9178b36d8d04377d4", "is_reserved": 0, "lon": -77.03873033333333, "is_disabled": 0, "fusion_lat": 0.0, "lat": 38.93230916666667, "bike_id": "b62422f00ea84fe9178b36d8d04377d4", "fusion_lon": 0.0}, {"rental_uris": {"ios": "https://dc.lft.to/lastmile_qr_scan", "android": "https://dc.lft.to/lastmile_qr_scan"}, "type": "electric_scooter", "name": "4b82e374266d0c5e63f33e5fc8c8cff0", "is_reserved": 0, "lon": -77.02110383333333, "is_disabled": 0, "fusion_lat": 0.0, "lat": 38.909391, "bike_id": "4b82e374266d0c5e63f33e5fc8c8cff0", "fusion_lon": 0.0}, {"rental_uris": {"ios": "https://dc.lft.to/lastmile_qr_scan", "android": "https://dc.lft.to/lastmile_qr_scan"}, "type": "electric_scooter", "name": "c5a1e2906d712cd890a314f6110bb921", "is_reserved": 0, "lon": -76.97214283333334, "is_disabled": 0, "fusion_lat": 0.0, "lat": 38.917197, "bike_id": "c5a1e2906d712cd890a314f6110bb921", "fusion_lon": 0.0}, {"rental_uris": {"ios": "https://dc.lft.to/lastmile_qr_scan", "android": "https://dc.lft.to/lastmile_qr_scan"}, "type": "electric_scooter", "name": "6412f9b6dfeca95bbae7f59b807bca85", "is_reserved": 0, "lon": -77.08633716666667, "is_disabled": 0, "fusion_lat": 0.0, "lat": 38.9382795, "bike_id": "6412f9b6dfeca95bbae7f59b807bca85", "fusion_lon": 0.0}, {"rental_uris": {"ios": "https://dc.lft.to/lastmile_qr_scan", "android": "https://dc.lft.to/lastmile_qr_scan"}, "type": "electric_scooter", "name": "233f8dd76add9b82194a4987ba1c543e", "is_reserved": 0, "lon": -77.01461766666667, "is_disabled": 0, "fusion_lat": 0.0, "lat": 38.879433166666665, "bike_id": "233f8dd76add9b82194a4987ba1c543e", "fusion_lon": 0.0}, {"rental_uris": {"ios": "https://dc.lft.to/lastmile_qr_scan", "android": "https://dc.lft.to/lastmile_qr_scan"}, "type": "electric_scooter", "name": "19e2fe525592bb77d412e05ec84a8358", "is_reserved": 0, "lon": -77.042227, "is_disabled": 0, "fusion_lat": 0.0, "lat": 38.92167833333333, "bike_id": "19e2fe525592bb77d412e05ec84a8358", "fusion_lon": 0.0}, {"rental_uris": {"ios": "https://dc.lft.to/lastmile_qr_scan", "android": "https://dc.lft.to/lastmile_qr_scan"}, "type": "electric_bike", "name": "54569cfcdb9028a019de722198b6c6fe", "is_reserved": 0, "lon": -77.08567433333333, "is_disabled": 0, "fusion_lat": 0.0, "lat": 38.87423166666667, "bike_id": "54569cfcdb9028a019de722198b6c6fe", "fusion_lon": 0.0}, {"rental_uris": {"ios": "https://dc.lft.to/lastmile_qr_scan", "android": "https://dc.lft.to/lastmile_qr_scan"}, "type": "electric_bike", "name": "f9f515ad74897b4370f1175cbb87d7ea", "is_reserved": 0, "lon": -77.0945595, "is_disabled": 0, "fusion_lat": 0.0, "lat": 38.807554833333334, "bike_id": "f9f515ad74897b4370f1175cbb87d7ea", "fusion_lon": 0.0}, {"rental_uris": {"ios": "https://dc.lft.to/lastmile_qr_scan", "android": "https://dc.lft.to/lastmile_qr_scan"}, "type": "electric_scooter", "name": "331b20c9913c7457a9b7148ab6e74bc3", "is_reserved": 0, "lon": -77.02596866666667, "is_disabled": 0, "fusion_lat": 0.0, "lat": 38.90084, "bike_id": "331b20c9913c7457a9b7148ab6e74bc3", "fusion_lon": 0.0}, {"rental_uris": {"ios": "https://dc.lft.to/lastmile_qr_scan", "android": "https://dc.lft.to/lastmile_qr_scan"}, "type": "electric_scooter", "name": "e201a683e6dbb0597621e98962933613", "is_reserved": 0, "lon": -77.03581233333334, "is_disabled": 0, "fusion_lat": 0.0, "lat": 38.91780266666667, "bike_id": "e201a683e6dbb0597621e98962933613", "fusion_lon": 0.0}, {"rental_uris": {"ios": "https://dc.lft.to/lastmile_qr_scan", "android": "https://dc.lft.to/lastmile_qr_scan"}, "type": "electric_scooter", "name": "7b31088b16228457e1ec285b34f22c8e", "is_reserved": 0, "lon": -76.980486, "is_disabled": 0, "fusion_lat": 0.0, "lat": 38.901749, "bike_id": "7b31088b16228457e1ec285b34f22c8e", "fusion_lon": 0.0}, {"rental_uris": {"ios": "https://dc.lft.to/lastmile_qr_scan", "android": "https://dc.lft.to/lastmile_qr_scan"}, "type": "electric_scooter", "name": "ffe25cccd889e1eecbe3889601afd79e", "is_reserved": 0, "lon": -76.9976885, "is_disabled": 0, "fusion_lat": 0.0, "lat": 38.896701, "bike_id": "ffe25cccd889e1eecbe3889601afd79e", "fusion_lon": 0.0}, {"rental_uris": {"ios": "https://dc.lft.to/lastmile_qr_scan", "android": "https://dc.lft.to/lastmile_qr_scan"}, "type": "electric_scooter", "name": "6790a39615d3a382c0ded9dec1f733aa", "is_reserved": 0, "lon": -77.024104, "is_disabled": 0, "fusion_lat": 0.0, "lat": 38.9381085, "bike_id": "6790a39615d3a382c0ded9dec1f733aa", "fusion_lon": 0.0}, {"rental_uris": {"ios": "https://dc.lft.to/lastmile_qr_scan", "android": "https://dc.lft.to/lastmile_qr_scan"}, "type": "electric_bike", "name": "50fa76cf725cd986a74c53863cf45ddd", "is_reserved": 0, "lon": -76.99694716666667, "is_disabled": 0, "fusion_lat": 0.0, "lat": 38.83863516666667, "bike_id": "50fa76cf725cd986a74c53863cf45ddd", "fusion_lon": 0.0}, {"rental_uris": {"ios": "https://dc.lft.to/lastmile_qr_scan", "android": "https://dc.lft.to/lastmile_qr_scan"}, "type": "electric_scooter", "name": "5b053d0c6c63194cd598e718c39f3dea", "is_reserved": 0, "lon": -77.03366983333333, "is_disabled": 0, "fusion_lat": 0.0, "lat": 38.93526283333333, "bike_id": "5b053d0c6c63194cd598e718c39f3dea", "fusion_lon": 0.0}, {"rental_uris": {"ios": "https://dc.lft.to/lastmile_qr_scan", "android": "https://dc.lft.to/lastmile_qr_scan"}, "type": "electric_bike", "name": "d008597cd9fdf25670ee5319a36e660c", "is_reserved": 0, "lon": -76.99283733333333, "is_disabled": 0, "fusion_lat": 0.0, "lat": 38.972615166666664, "bike_id": "d008597cd9fdf25670ee5319a36e660c", "fusion_lon": 0.0}, {"rental_uris": {"ios": "https://dc.lft.to/lastmile_qr_scan", "android": "https://dc.lft.to/lastmile_qr_scan"}, "type": "electric_scooter", "name": "83f11daa93c4e151c199e95efdfdd8cc", "is_reserved": 0, "lon": -77.02086933333334, "is_disabled": 0, "fusion_lat": 0.0, "lat": 38.88188316666667, "bike_id": "83f11daa93c4e151c199e95efdfdd8cc", "fusion_lon": 0.0}, {"rental_uris": {"ios": "https://dc.lft.to/lastmile_qr_scan", "android": "https://dc.lft.to/lastmile_qr_scan"}, "type": "electric_scooter", "name": "76d6c3138be949ad43756d2e46bb5ff0", "is_reserved": 0, "lon": -77.007488, "is_disabled": 0, "fusion_lat": 0.0, "lat": 38.87845216666667, "bike_id": "76d6c3138be949ad43756d2e46bb5ff0", "fusion_lon": 0.0}, {"rental_uris": {"ios": "https://dc.lft.to/lastmile_qr_scan", "android": "https://dc.lft.to/lastmile_qr_scan"}, "type": "electric_scooter", "name": "e14c1a81b0d5295b3cccae9840289e67", "is_reserved": 0, "lon": -77.040342, "is_disabled": 0, "fusion_lat": 0.0, "lat": 38.91194683333333, "bike_id": "e14c1a81b0d5295b3cccae9840289e67", "fusion_lon": 0.0}, {"rental_uris": {"ios": "https://dc.lft.to/lastmile_qr_scan", "android": "https://dc.lft.to/lastmile_qr_scan"}, "type": "electric_scooter", "name": "b9bfb12333fbd73d02cd72a432f7c991", "is_reserved": 0, "lon": -77.05220916666667, "is_disabled": 0, "fusion_lat": 0.0, "lat": 38.924983833333336, "bike_id": "b9bfb12333fbd73d02cd72a432f7c991", "fusion_lon": 0.0}, {"rental_uris": {"ios": "https://dc.lft.to/lastmile_qr_scan", "android": "https://dc.lft.to/lastmile_qr_scan"}, "type": "electric_scooter", "name": "e6d2c660d5249185235da5c8784b32df", "is_reserved": 0, "lon": -77.03715583333333, "is_disabled": 0, "fusion_lat": 0.0, "lat": 38.91495416666667, "bike_id": "e6d2c660d5249185235da5c8784b32df", "fusion_lon": 0.0}, {"rental_uris": {"ios": "https://dc.lft.to/lastmile_qr_scan", "android": "https://dc.lft.to/lastmile_qr_scan"}, "type": "electric_scooter", "name": "957572c177b51a8b9a7fb17733fc5542", "is_reserved": 0, "lon": -77.05514916666667, "is_disabled": 0, "fusion_lat": 0.0, "lat": 38.928358333333335, "bike_id": "957572c177b51a8b9a7fb17733fc5542", "fusion_lon": 0.0}, {"rental_uris": {"ios": "https://dc.lft.to/lastmile_qr_scan", "android": "https://dc.lft.to/lastmile_qr_scan"}, "type": "electric_bike", "name": "0fcc45df203478f41cdedd6f7dccdd16", "is_reserved": 0, "lon": -76.99250733333334, "is_disabled": 0, "fusion_lat": 0.0, "lat": 38.960770833333335, "bike_id": "0fcc45df203478f41cdedd6f7dccdd16", "fusion_lon": 0.0}, {"rental_uris": {"ios": "https://dc.lft.to/lastmile_qr_scan", "android": "https://dc.lft.to/lastmile_qr_scan"}, "type": "electric_scooter", "name": "4474dc759878ea2189e4e24e76de1d45", "is_reserved": 0, "lon": -76.9978905, "is_disabled": 0, "fusion_lat": 0.0, "lat": 38.87632883333333, "bike_id": "4474dc759878ea2189e4e24e76de1d45", "fusion_lon": 0.0}, {"rental_uris": {"ios": "https://dc.lft.to/lastmile_qr_scan", "android": "https://dc.lft.to/lastmile_qr_scan"}, "type": "electric_scooter", "name": "a601fb158fb5f38ebff4121d91d662cb", "is_reserved": 0, "lon": -77.073357, "is_disabled": 0, "fusion_lat": 0.0, "lat": 38.96093666666667, "bike_id": "a601fb158fb5f38ebff4121d91d662cb", "fusion_lon": 0.0}, {"rental_uris": {"ios": "https://dc.lft.to/lastmile_qr_scan", "android": "https://dc.lft.to/lastmile_qr_scan"}, "type": "electric_bike", "name": "852e5f76cc216f9a303370335aa9c62d", "is_reserved": 0, "lon": -77.00135833333333, "is_disabled": 0, "fusion_lat": 0.0, "lat": 38.995021333333334, "bike_id": "852e5f76cc216f9a303370335aa9c62d", "fusion_lon": 0.0}, {"rental_uris": {"ios": "https://dc.lft.to/lastmile_qr_scan", "android": "https://dc.lft.to/lastmile_qr_scan"}, "type": "electric_scooter", "name": "0dc63a4889aaae3261f62d7b27c60d29", "is_reserved": 0, "lon": -77.06085216666666, "is_disabled": 0, "fusion_lat": 0.0, "lat": 38.939947833333335, "bike_id": "0dc63a4889aaae3261f62d7b27c60d29", "fusion_lon": 0.0}, {"rental_uris": {"ios": "https://dc.lft.to/lastmile_qr_scan", "android": "https://dc.lft.to/lastmile_qr_scan"}, "type": "electric_scooter", "name": "7b70f365f7a3487e4e16dbb543ee5c9a", "is_reserved": 0, "lon": -77.05677833333333, "is_disabled": 0, "fusion_lat": 0.0, "lat": 38.906229333333336, "bike_id": "7b70f365f7a3487e4e16dbb543ee5c9a", "fusion_lon": 0.0}, {"rental_uris": {"ios": "https://dc.lft.to/lastmile_qr_scan", "android": "https://dc.lft.to/lastmile_qr_scan"}, "type": "electric_bike", "name": "0b501599c3613defc0f70b0b08c30e17", "is_reserved": 0, "lon": -76.95785816666667, "is_disabled": 0, "fusion_lat": 0.0, "lat": 38.98044183333333, "bike_id": "0b501599c3613defc0f70b0b08c30e17", "fusion_lon": 0.0}, {"rental_uris": {"ios": "https://dc.lft.to/lastmile_qr_scan", "android": "https://dc.lft.to/lastmile_qr_scan"}, "type": "electric_scooter", "name": "1b0ffe90d6fd2e01fd33d8b0ac7539fd", "is_reserved": 0, "lon": -76.9756715, "is_disabled": 0, "fusion_lat": 0.0, "lat": 38.944247, "bike_id": "1b0ffe90d6fd2e01fd33d8b0ac7539fd", "fusion_lon": 0.0}, {"rental_uris": {"ios": "https://dc.lft.to/lastmile_qr_scan", "android": "https://dc.lft.to/lastmile_qr_scan"}, "type": "electric_scooter", "name": "e9e471bc462e4674a0e59718e1ef1658", "is_reserved": 0, "lon": -77.02394216666667, "is_disabled": 0, "fusion_lat": 0.0, "lat": 38.93530616666666, "bike_id": "e9e471bc462e4674a0e59718e1ef1658", "fusion_lon": 0.0}, {"rental_uris": {"ios": "https://dc.lft.to/lastmile_qr_scan", "android": "https://dc.lft.to/lastmile_qr_scan"}, "type": "electric_scooter", "name": "ae30d9fb923ec99479178070ae1aa6ca", "is_reserved": 0, "lon": -77.0272495, "is_disabled": 0, "fusion_lat": 0.0, "lat": 38.910676, "bike_id": "ae30d9fb923ec99479178070ae1aa6ca", "fusion_lon": 0.0}, {"rental_uris": {"ios": "https://dc.lft.to/lastmile_qr_scan", "android": "https://dc.lft.to/lastmile_qr_scan"}, "type": "electric_scooter", "name": "7a5e5b445455b34d601e1422854d0217", "is_reserved": 0, "lon": -77.02094483333333, "is_disabled": 0, "fusion_lat": 0.0, "lat": 38.9291125, "bike_id": "7a5e5b445455b34d601e1422854d0217", "fusion_lon": 0.0}, {"rental_uris": {"ios": "https://dc.lft.to/lastmile_qr_scan", "android": "https://dc.lft.to/lastmile_qr_scan"}, "type": "electric_scooter", "name": "508d5b500cb0e028e2d2adb73df0ff7f", "is_reserved": 0, "lon": -77.06112833333333, "is_disabled": 0, "fusion_lat": 0.0, "lat": 38.91287966666667, "bike_id": "508d5b500cb0e028e2d2adb73df0ff7f", "fusion_lon": 0.0}, {"rental_uris": {"ios": "https://dc.lft.to/lastmile_qr_scan", "android": "https://dc.lft.to/lastmile_qr_scan"}, "type": "electric_scooter", "name": "fc49da345c9d9e86866d8bd77aaeafae", "is_reserved": 0, "lon": -77.061235, "is_disabled": 0, "fusion_lat": 0.0, "lat": 38.903812333333335, "bike_id": "fc49da345c9d9e86866d8bd77aaeafae", "fusion_lon": 0.0}, {"rental_uris": {"ios": "https://dc.lft.to/lastmile_qr_scan", "android": "https://dc.lft.to/lastmile_qr_scan"}, "type": "electric_scooter", "name": "c8c69e602be66d0cf78a2bd0b9410c4d", "is_reserved": 0, "lon": -77.003112, "is_disabled": 0, "fusion_lat": 0.0, "lat": 38.877172, "bike_id": "c8c69e602be66d0cf78a2bd0b9410c4d", "fusion_lon": 0.0}, {"rental_uris": {"ios": "https://dc.lft.to/lastmile_qr_scan", "android": "https://dc.lft.to/lastmile_qr_scan"}, "type": "electric_scooter", "name": "69ed14b8e78f4eb9197c9351c92b41ac", "is_reserved": 0, "lon": -77.00259183333333, "is_disabled": 0, "fusion_lat": 0.0, "lat": 38.90268716666667, "bike_id": "69ed14b8e78f4eb9197c9351c92b41ac", "fusion_lon": 0.0}, {"rental_uris": {"ios": "https://dc.lft.to/lastmile_qr_scan", "android": "https://dc.lft.to/lastmile_qr_scan"}, "type": "electric_scooter", "name": "ce9a0b1e09bed8025bbe32e1e86405d3", "is_reserved": 0, "lon": -77.01239466666667, "is_disabled": 0, "fusion_lat": 0.0, "lat": 38.881023166666665, "bike_id": "ce9a0b1e09bed8025bbe32e1e86405d3", "fusion_lon": 0.0}, {"rental_uris": {"ios": "https://dc.lft.to/lastmile_qr_scan", "android": "https://dc.lft.to/lastmile_qr_scan"}, "type": "electric_scooter", "name": "1dd37a97ec3307a1aadbb6b0fbee94f5", "is_reserved": 0, "lon": -77.02967566666666, "is_disabled": 0, "fusion_lat": 0.0, "lat": 38.92311816666667, "bike_id": "1dd37a97ec3307a1aadbb6b0fbee94f5", "fusion_lon": 0.0}, {"rental_uris": {"ios": "https://dc.lft.to/lastmile_qr_scan", "android": "https://dc.lft.to/lastmile_qr_scan"}, "type": "electric_scooter", "name": "e56ca10dc90bb78f027b4e2a82532c41", "is_reserved": 0, "lon": -77.01117216666667, "is_disabled": 0, "fusion_lat": 0.0, "lat": 38.89999983333333, "bike_id": "e56ca10dc90bb78f027b4e2a82532c41", "fusion_lon": 0.0}, {"rental_uris": {"ios": "https://dc.lft.to/lastmile_qr_scan", "android": "https://dc.lft.to/lastmile_qr_scan"}, "type": "electric_scooter", "name": "ab486cf3ca94c4ecc313bce5ffd86c47", "is_reserved": 0, "lon": -77.02812833333333, "is_disabled": 0, "fusion_lat": 0.0, "lat": 38.9093295, "bike_id": "ab486cf3ca94c4ecc313bce5ffd86c47", "fusion_lon": 0.0}, {"rental_uris": {"ios": "https://dc.lft.to/lastmile_qr_scan", "android": "https://dc.lft.to/lastmile_qr_scan"}, "type": "electric_scooter", "name": "b08886213f307a885c98e31df19889f7", "is_reserved": 0, "lon": -77.03640516666667, "is_disabled": 0, "fusion_lat": 0.0, "lat": 38.919020333333336, "bike_id": "b08886213f307a885c98e31df19889f7", "fusion_lon": 0.0}, {"rental_uris": {"ios": "https://dc.lft.to/lastmile_qr_scan", "android": "https://dc.lft.to/lastmile_qr_scan"}, "type": "electric_bike", "name": "c510298678a41ba7feec2eb5698b040c", "is_reserved": 0, "lon": -77.08980116666666, "is_disabled": 0, "fusion_lat": 0.0, "lat": 38.911763, "bike_id": "c510298678a41ba7feec2eb5698b040c", "fusion_lon": 0.0}, {"rental_uris": {"ios": "https://dc.lft.to/lastmile_qr_scan", "android": "https://dc.lft.to/lastmile_qr_scan"}, "type": "electric_scooter", "name": "08bc205ebafbfcb16404f79849fc238a", "is_reserved": 0, "lon": -77.07820983333333, "is_disabled": 0, "fusion_lat": 0.0, "lat": 38.922628833333334, "bike_id": "08bc205ebafbfcb16404f79849fc238a", "fusion_lon": 0.0}, {"rental_uris": {"ios": "https://dc.lft.to/lastmile_qr_scan", "android": "https://dc.lft.to/lastmile_qr_scan"}, "type": "electric_scooter", "name": "b116a144cf33b3d0586f1c80ce6ace67", "is_reserved": 0, "lon": -77.02664566666667, "is_disabled": 0, "fusion_lat": 0.0, "lat": 38.90044683333333, "bike_id": "b116a144cf33b3d0586f1c80ce6ace67", "fusion_lon": 0.0}, {"rental_uris": {"ios": "https://dc.lft.to/lastmile_qr_scan", "android": "https://dc.lft.to/lastmile_qr_scan"}, "type": "electric_scooter", "name": "97df9651d6d73109ab23044cacaaf52e", "is_reserved": 0, "lon": -77.01157666666667, "is_disabled": 0, "fusion_lat": 0.0, "lat": 38.911114, "bike_id": "97df9651d6d73109ab23044cacaaf52e", "fusion_lon": 0.0}, {"rental_uris": {"ios": "https://dc.lft.to/lastmile_qr_scan", "android": "https://dc.lft.to/lastmile_qr_scan"}, "type": "electric_scooter", "name": "3a7e1a9879cf27fbea881cfc1aa3d39e", "is_reserved": 0, "lon": -77.027452, "is_disabled": 0, "fusion_lat": 0.0, "lat": 38.904913666666666, "bike_id": "3a7e1a9879cf27fbea881cfc1aa3d39e", "fusion_lon": 0.0}, {"rental_uris": {"ios": "https://dc.lft.to/lastmile_qr_scan", "android": "https://dc.lft.to/lastmile_qr_scan"}, "type": "electric_scooter", "name": "0863c2a665839c82b6d50707dc8fb6e2", "is_reserved": 0, "lon": -77.00145383333333, "is_disabled": 0, "fusion_lat": 0.0, "lat": 38.87508666666667, "bike_id": "0863c2a665839c82b6d50707dc8fb6e2", "fusion_lon": 0.0}, {"rental_uris": {"ios": "https://dc.lft.to/lastmile_qr_scan", "android": "https://dc.lft.to/lastmile_qr_scan"}, "type": "electric_scooter", "name": "086b743b50cdcf7b79589280fda01e26", "is_reserved": 0, "lon": -77.01195666666666, "is_disabled": 0, "fusion_lat": 0.0, "lat": 38.900359333333334, "bike_id": "086b743b50cdcf7b79589280fda01e26", "fusion_lon": 0.0}, {"rental_uris": {"ios": "https://dc.lft.to/lastmile_qr_scan", "android": "https://dc.lft.to/lastmile_qr_scan"}, "type": "electric_scooter", "name": "dee3cf060b39e953f8ee8b3dc3b6b6c8", "is_reserved": 0, "lon": -77.0395545, "is_disabled": 0, "fusion_lat": 0.0, "lat": 38.89830366666666, "bike_id": "dee3cf060b39e953f8ee8b3dc3b6b6c8", "fusion_lon": 0.0}, {"rental_uris": {"ios": "https://dc.lft.to/lastmile_qr_scan", "android": "https://dc.lft.to/lastmile_qr_scan"}, "type": "electric_scooter", "name": "5a08128bfa455246930861a8eedcce37", "is_reserved": 0, "lon": -77.038528, "is_disabled": 0, "fusion_lat": 0.0, "lat": 38.907668666666666, "bike_id": "5a08128bfa455246930861a8eedcce37", "fusion_lon": 0.0}, {"rental_uris": {"ios": "https://dc.lft.to/lastmile_qr_scan", "android": "https://dc.lft.to/lastmile_qr_scan"}, "type": "electric_scooter", "name": "ca80c1c12a8a97cb5292febe0c819570", "is_reserved": 0, "lon": -77.00646733333333, "is_disabled": 0, "fusion_lat": 0.0, "lat": 38.89991533333333, "bike_id": "ca80c1c12a8a97cb5292febe0c819570", "fusion_lon": 0.0}, {"rental_uris": {"ios": "https://dc.lft.to/lastmile_qr_scan", "android": "https://dc.lft.to/lastmile_qr_scan"}, "type": "electric_scooter", "name": "12740f621790a5214c2a66f01cebc451", "is_reserved": 0, "lon": -77.04802416666666, "is_disabled": 0, "fusion_lat": 0.0, "lat": 38.89221466666667, "bike_id": "12740f621790a5214c2a66f01cebc451", "fusion_lon": 0.0}, {"rental_uris": {"ios": "https://dc.lft.to/lastmile_qr_scan", "android": "https://dc.lft.to/lastmile_qr_scan"}, "type": "electric_scooter", "name": "f49526eb7168e3c76ace922297de65be", "is_reserved": 0, "lon": -77.01985266666667, "is_disabled": 0, "fusion_lat": 0.0, "lat": 38.93078383333334, "bike_id": "f49526eb7168e3c76ace922297de65be", "fusion_lon": 0.0}, {"rental_uris": {"ios": "https://dc.lft.to/lastmile_qr_scan", "android": "https://dc.lft.to/lastmile_qr_scan"}, "type": "electric_scooter", "name": "af20321f695f18c2b7fcb140ccf64f23", "is_reserved": 0, "lon": -77.01763816666667, "is_disabled": 0, "fusion_lat": 0.0, "lat": 38.902790333333336, "bike_id": "af20321f695f18c2b7fcb140ccf64f23", "fusion_lon": 0.0}, {"rental_uris": {"ios": "https://dc.lft.to/lastmile_qr_scan", "android": "https://dc.lft.to/lastmile_qr_scan"}, "type": "electric_scooter", "name": "ce95350d42b541de2713d58a68aef9e8", "is_reserved": 0, "lon": -77.02391466666667, "is_disabled": 0, "fusion_lat": 0.0, "lat": 38.926034333333334, "bike_id": "ce95350d42b541de2713d58a68aef9e8", "fusion_lon": 0.0}, {"rental_uris": {"ios": "https://dc.lft.to/lastmile_qr_scan", "android": "https://dc.lft.to/lastmile_qr_scan"}, "type": "electric_scooter", "name": "8efb18d352a9bfa373a54ec9b125e126", "is_reserved": 0, "lon": -77.04272033333334, "is_disabled": 0, "fusion_lat": 0.0, "lat": 38.9230915, "bike_id": "8efb18d352a9bfa373a54ec9b125e126", "fusion_lon": 0.0}, {"rental_uris": {"ios": "https://dc.lft.to/lastmile_qr_scan", "android": "https://dc.lft.to/lastmile_qr_scan"}, "type": "electric_scooter", "name": "221feffb8091249587170a6a2c479e68", "is_reserved": 0, "lon": -76.97655316666666, "is_disabled": 0, "fusion_lat": 0.0, "lat": 38.903654833333334, "bike_id": "221feffb8091249587170a6a2c479e68", "fusion_lon": 0.0}, {"rental_uris": {"ios": "https://dc.lft.to/lastmile_qr_scan", "android": "https://dc.lft.to/lastmile_qr_scan"}, "type": "electric_scooter", "name": "a03ed1b637cd310d4189adfbcf9ca41c", "is_reserved": 0, "lon": -77.026964, "is_disabled": 0, "fusion_lat": 0.0, "lat": 38.91800966666667, "bike_id": "a03ed1b637cd310d4189adfbcf9ca41c", "fusion_lon": 0.0}, {"rental_uris": {"ios": "https://dc.lft.to/lastmile_qr_scan", "android": "https://dc.lft.to/lastmile_qr_scan"}, "type": "electric_scooter", "name": "afd02f25fcab48c848f1f2b17872365a", "is_reserved": 0, "lon": -76.94157533333333, "is_disabled": 0, "fusion_lat": 0.0, "lat": 38.901713, "bike_id": "afd02f25fcab48c848f1f2b17872365a", "fusion_lon": 0.0}, {"rental_uris": {"ios": "https://dc.lft.to/lastmile_qr_scan", "android": "https://dc.lft.to/lastmile_qr_scan"}, "type": "electric_scooter", "name": "1e43f94d417c8fb37c402fbc5c6c5678", "is_reserved": 0, "lon": -77.02775266666667, "is_disabled": 0, "fusion_lat": 0.0, "lat": 38.965829666666664, "bike_id": "1e43f94d417c8fb37c402fbc5c6c5678", "fusion_lon": 0.0}, {"rental_uris": {"ios": "https://dc.lft.to/lastmile_qr_scan", "android": "https://dc.lft.to/lastmile_qr_scan"}, "type": "electric_scooter", "name": "edefd4e24014df19afab4b9cb6e7b70f", "is_reserved": 0, "lon": -77.03275183333334, "is_disabled": 0, "fusion_lat": 0.0, "lat": 38.92169483333333, "bike_id": "edefd4e24014df19afab4b9cb6e7b70f", "fusion_lon": 0.0}, {"rental_uris": {"ios": "https://dc.lft.to/lastmile_qr_scan", "android": "https://dc.lft.to/lastmile_qr_scan"}, "type": "electric_scooter", "name": "b13f1369c60edd28ce999ef2e0840dee", "is_reserved": 0, "lon": -77.021836, "is_disabled": 0, "fusion_lat": 0.0, "lat": 38.91128033333333, "bike_id": "b13f1369c60edd28ce999ef2e0840dee", "fusion_lon": 0.0}, {"rental_uris": {"ios": "https://dc.lft.to/lastmile_qr_scan", "android": "https://dc.lft.to/lastmile_qr_scan"}, "type": "electric_scooter", "name": "e9f182fc7048bcedd690c85a1fed0657", "is_reserved": 0, "lon": -77.0410095, "is_disabled": 0, "fusion_lat": 0.0, "lat": 38.920713666666664, "bike_id": "e9f182fc7048bcedd690c85a1fed0657", "fusion_lon": 0.0}, {"rental_uris": {"ios": "https://dc.lft.to/lastmile_qr_scan", "android": "https://dc.lft.to/lastmile_qr_scan"}, "type": "electric_scooter", "name": "8d6157156b783f98e9422085a34c2937", "is_reserved": 0, "lon": -77.00755983333333, "is_disabled": 0, "fusion_lat": 0.0, "lat": 38.8712215, "bike_id": "8d6157156b783f98e9422085a34c2937", "fusion_lon": 0.0}, {"rental_uris": {"ios": "https://dc.lft.to/lastmile_qr_scan", "android": "https://dc.lft.to/lastmile_qr_scan"}, "type": "electric_scooter", "name": "e4dace66180b38915b33d18e9f2422f0", "is_reserved": 0, "lon": -77.0177415, "is_disabled": 0, "fusion_lat": 0.0, "lat": 38.87917983333333, "bike_id": "e4dace66180b38915b33d18e9f2422f0", "fusion_lon": 0.0}, {"rental_uris": {"ios": "https://dc.lft.to/lastmile_qr_scan", "android": "https://dc.lft.to/lastmile_qr_scan"}, "type": "electric_bike", "name": "e0ca9ae5bfd82c867d9d07bdcd7f6f4a", "is_reserved": 0, "lon": -77.099625, "is_disabled": 0, "fusion_lat": 0.0, "lat": 38.8579235, "bike_id": "e0ca9ae5bfd82c867d9d07bdcd7f6f4a", "fusion_lon": 0.0}, {"rental_uris": {"ios": "https://dc.lft.to/lastmile_qr_scan", "android": "https://dc.lft.to/lastmile_qr_scan"}, "type": "electric_scooter", "name": "43661fd711deaa217f3949a1ae27d2cb", "is_reserved": 0, "lon": -77.05153083333333, "is_disabled": 0, "fusion_lat": 0.0, "lat": 38.90530566666666, "bike_id": "43661fd711deaa217f3949a1ae27d2cb", "fusion_lon": 0.0}, {"rental_uris": {"ios": "https://dc.lft.to/lastmile_qr_scan", "android": "https://dc.lft.to/lastmile_qr_scan"}, "type": "electric_scooter", "name": "c1c7c34b3edfba49ad12a42a76c13cf2", "is_reserved": 0, "lon": -77.035166, "is_disabled": 0, "fusion_lat": 0.0, "lat": 38.93402316666667, "bike_id": "c1c7c34b3edfba49ad12a42a76c13cf2", "fusion_lon": 0.0}, {"rental_uris": {"ios": "https://dc.lft.to/lastmile_qr_scan", "android": "https://dc.lft.to/lastmile_qr_scan"}, "type": "electric_scooter", "name": "bf45edffc135ec16e09e4da780836a2e", "is_reserved": 0, "lon": -77.05321116666667, "is_disabled": 0, "fusion_lat": 0.0, "lat": 38.923574333333335, "bike_id": "bf45edffc135ec16e09e4da780836a2e", "fusion_lon": 0.0}, {"rental_uris": {"ios": "https://dc.lft.to/lastmile_qr_scan", "android": "https://dc.lft.to/lastmile_qr_scan"}, "type": "electric_scooter", "name": "b218ab0f2c48fd944a3b8f404df3bb9b", "is_reserved": 0, "lon": -77.02444366666667, "is_disabled": 0, "fusion_lat": 0.0, "lat": 38.94978833333333, "bike_id": "b218ab0f2c48fd944a3b8f404df3bb9b", "fusion_lon": 0.0}, {"rental_uris": {"ios": "https://dc.lft.to/lastmile_qr_scan", "android": "https://dc.lft.to/lastmile_qr_scan"}, "type": "electric_scooter", "name": "2050c444a57cc31ded4465d0b81a5728", "is_reserved": 0, "lon": -77.02542966666667, "is_disabled": 0, "fusion_lat": 0.0, "lat": 38.9073205, "bike_id": "2050c444a57cc31ded4465d0b81a5728", "fusion_lon": 0.0}, {"rental_uris": {"ios": "https://dc.lft.to/lastmile_qr_scan", "android": "https://dc.lft.to/lastmile_qr_scan"}, "type": "electric_scooter", "name": "bb3bb2dc9f305b2fa749feba00749fdf", "is_reserved": 0, "lon": -77.01095916666667, "is_disabled": 0, "fusion_lat": 0.0, "lat": 38.9068595, "bike_id": "bb3bb2dc9f305b2fa749feba00749fdf", "fusion_lon": 0.0}, {"rental_uris": {"ios": "https://dc.lft.to/lastmile_qr_scan", "android": "https://dc.lft.to/lastmile_qr_scan"}, "type": "electric_scooter", "name": "a8c0cb3addcdba68fb5f5c8dadfe6f29", "is_reserved": 0, "lon": -77.04469116666667, "is_disabled": 0, "fusion_lat": 0.0, "lat": 38.9153895, "bike_id": "a8c0cb3addcdba68fb5f5c8dadfe6f29", "fusion_lon": 0.0}, {"rental_uris": {"ios": "https://dc.lft.to/lastmile_qr_scan", "android": "https://dc.lft.to/lastmile_qr_scan"}, "type": "electric_bike", "name": "1d32b2668e8760f156353a2c81d4f214", "is_reserved": 0, "lon": -76.973278, "is_disabled": 0, "fusion_lat": 0.0, "lat": 38.8578425, "bike_id": "1d32b2668e8760f156353a2c81d4f214", "fusion_lon": 0.0}, {"rental_uris": {"ios": "https://dc.lft.to/lastmile_qr_scan", "android": "https://dc.lft.to/lastmile_qr_scan"}, "type": "electric_scooter", "name": "88897cce6196c4960cbb62e4f60cba34", "is_reserved": 0, "lon": -77.02451833333333, "is_disabled": 0, "fusion_lat": 0.0, "lat": 38.920554833333334, "bike_id": "88897cce6196c4960cbb62e4f60cba34", "fusion_lon": 0.0}, {"rental_uris": {"ios": "https://dc.lft.to/lastmile_qr_scan", "android": "https://dc.lft.to/lastmile_qr_scan"}, "type": "electric_scooter", "name": "b7d501909d7988cf444d60b765993b01", "is_reserved": 0, "lon": -77.01696566666666, "is_disabled": 0, "fusion_lat": 0.0, "lat": 38.904659333333335, "bike_id": "b7d501909d7988cf444d60b765993b01", "fusion_lon": 0.0}, {"rental_uris": {"ios": "https://dc.lft.to/lastmile_qr_scan", "android": "https://dc.lft.to/lastmile_qr_scan"}, "type": "electric_bike", "name": "37c9f3fd7ad1dc1558e99bf4193ce7b9", "is_reserved": 0, "lon": -77.007582, "is_disabled": 0, "fusion_lat": 0.0, "lat": 38.98125133333333, "bike_id": "37c9f3fd7ad1dc1558e99bf4193ce7b9", "fusion_lon": 0.0}, {"rental_uris": {"ios": "https://dc.lft.to/lastmile_qr_scan", "android": "https://dc.lft.to/lastmile_qr_scan"}, "type": "electric_scooter", "name": "089b439474b659c495370dba8d29e1c6", "is_reserved": 0, "lon": -76.92632416666666, "is_disabled": 0, "fusion_lat": 0.0, "lat": 38.9019085, "bike_id": "089b439474b659c495370dba8d29e1c6", "fusion_lon": 0.0}, {"rental_uris": {"ios": "https://dc.lft.to/lastmile_qr_scan", "android": "https://dc.lft.to/lastmile_qr_scan"}, "type": "electric_scooter", "name": "8a44dc6a1d2b4a95136b01e014c2119d", "is_reserved": 0, "lon": -77.01885283333333, "is_disabled": 0, "fusion_lat": 0.0, "lat": 38.89753283333334, "bike_id": "8a44dc6a1d2b4a95136b01e014c2119d", "fusion_lon": 0.0}, {"rental_uris": {"ios": "https://dc.lft.to/lastmile_qr_scan", "android": "https://dc.lft.to/lastmile_qr_scan"}, "type": "electric_scooter", "name": "2b754aad99721e9f40a98239d3214ec5", "is_reserved": 0, "lon": -77.05816866666666, "is_disabled": 0, "fusion_lat": 0.0, "lat": 38.93522983333333, "bike_id": "2b754aad99721e9f40a98239d3214ec5", "fusion_lon": 0.0}, {"rental_uris": {"ios": "https://dc.lft.to/lastmile_qr_scan", "android": "https://dc.lft.to/lastmile_qr_scan"}, "type": "electric_scooter", "name": "34d611dd17a510afed5686538d4037f2", "is_reserved": 0, "lon": -77.02334883333333, "is_disabled": 0, "fusion_lat": 0.0, "lat": 38.929400333333334, "bike_id": "34d611dd17a510afed5686538d4037f2", "fusion_lon": 0.0}, {"rental_uris": {"ios": "https://dc.lft.to/lastmile_qr_scan", "android": "https://dc.lft.to/lastmile_qr_scan"}, "type": "electric_scooter", "name": "b3b2ec21446d2b68b87b877f5f4f4d32", "is_reserved": 0, "lon": -77.0335385, "is_disabled": 0, "fusion_lat": 0.0, "lat": 38.899785, "bike_id": "b3b2ec21446d2b68b87b877f5f4f4d32", "fusion_lon": 0.0}, {"rental_uris": {"ios": "https://dc.lft.to/lastmile_qr_scan", "android": "https://dc.lft.to/lastmile_qr_scan"}, "type": "electric_scooter", "name": "2e256a2f8561451e92d0046237c8db37", "is_reserved": 0, "lon": -77.0327855, "is_disabled": 0, "fusion_lat": 0.0, "lat": 38.92001966666667, "bike_id": "2e256a2f8561451e92d0046237c8db37", "fusion_lon": 0.0}, {"rental_uris": {"ios": "https://dc.lft.to/lastmile_qr_scan", "android": "https://dc.lft.to/lastmile_qr_scan"}, "type": "electric_scooter", "name": "25ad559940d6c45330431d05dd960d35", "is_reserved": 0, "lon": -76.98330366666667, "is_disabled": 0, "fusion_lat": 0.0, "lat": 38.9009555, "bike_id": "25ad559940d6c45330431d05dd960d35", "fusion_lon": 0.0}, {"rental_uris": {"ios": "https://dc.lft.to/lastmile_qr_scan", "android": "https://dc.lft.to/lastmile_qr_scan"}, "type": "electric_bike", "name": "322514f3aed4d5ff73ded1622069bee0", "is_reserved": 0, "lon": -77.00157016666667, "is_disabled": 0, "fusion_lat": 0.0, "lat": 38.941634666666666, "bike_id": "322514f3aed4d5ff73ded1622069bee0", "fusion_lon": 0.0}, {"rental_uris": {"ios": "https://dc.lft.to/lastmile_qr_scan", "android": "https://dc.lft.to/lastmile_qr_scan"}, "type": "electric_scooter", "name": "0d48b4fe1d8578a86065bfef65d7f461", "is_reserved": 0, "lon": -77.03157883333333, "is_disabled": 0, "fusion_lat": 0.0, "lat": 38.95935866666667, "bike_id": "0d48b4fe1d8578a86065bfef65d7f461", "fusion_lon": 0.0}, {"rental_uris": {"ios": "https://dc.lft.to/lastmile_qr_scan", "android": "https://dc.lft.to/lastmile_qr_scan"}, "type": "electric_scooter", "name": "a900e0cc4ad91b4aaae8c838dc6dac1e", "is_reserved": 0, "lon": -77.03347566666666, "is_disabled": 0, "fusion_lat": 0.0, "lat": 38.8953205, "bike_id": "a900e0cc4ad91b4aaae8c838dc6dac1e", "fusion_lon": 0.0}, {"rental_uris": {"ios": "https://dc.lft.to/lastmile_qr_scan", "android": "https://dc.lft.to/lastmile_qr_scan"}, "type": "electric_scooter", "name": "c5d143b48004e918769314d633dac57d", "is_reserved": 0, "lon": -77.0327305, "is_disabled": 0, "fusion_lat": 0.0, "lat": 38.917027833333336, "bike_id": "c5d143b48004e918769314d633dac57d", "fusion_lon": 0.0}, {"rental_uris": {"ios": "https://dc.lft.to/lastmile_qr_scan", "android": "https://dc.lft.to/lastmile_qr_scan"}, "type": "electric_scooter", "name": "e759bbc5d9f35e181111a441be0cbda1", "is_reserved": 0, "lon": -77.04381283333333, "is_disabled": 0, "fusion_lat": 0.0, "lat": 38.934242166666664, "bike_id": "e759bbc5d9f35e181111a441be0cbda1", "fusion_lon": 0.0}, {"rental_uris": {"ios": "https://dc.lft.to/lastmile_qr_scan", "android": "https://dc.lft.to/lastmile_qr_scan"}, "type": "electric_scooter", "name": "0274d066de8961c2a1a803bdabe42813", "is_reserved": 0, "lon": -77.01233283333333, "is_disabled": 0, "fusion_lat": 0.0, "lat": 38.915798833333334, "bike_id": "0274d066de8961c2a1a803bdabe42813", "fusion_lon": 0.0}, {"rental_uris": {"ios": "https://dc.lft.to/lastmile_qr_scan", "android": "https://dc.lft.to/lastmile_qr_scan"}, "type": "electric_scooter", "name": "280cfe55b00cb8853838d23890bf9087", "is_reserved": 0, "lon": -76.99069766666666, "is_disabled": 0, "fusion_lat": 0.0, "lat": 38.904196166666665, "bike_id": "280cfe55b00cb8853838d23890bf9087", "fusion_lon": 0.0}, {"rental_uris": {"ios": "https://dc.lft.to/lastmile_qr_scan", "android": "https://dc.lft.to/lastmile_qr_scan"}, "type": "electric_scooter", "name": "ff9e80dc782bfe41c5f4392bf2f02166", "is_reserved": 0, "lon": -77.03635083333333, "is_disabled": 0, "fusion_lat": 0.0, "lat": 38.923786, "bike_id": "ff9e80dc782bfe41c5f4392bf2f02166", "fusion_lon": 0.0}, {"rental_uris": {"ios": "https://dc.lft.to/lastmile_qr_scan", "android": "https://dc.lft.to/lastmile_qr_scan"}, "type": "electric_scooter", "name": "3b1ef44697c266c9e677d69660dec399", "is_reserved": 0, "lon": -77.05127066666667, "is_disabled": 0, "fusion_lat": 0.0, "lat": 38.923501333333334, "bike_id": "3b1ef44697c266c9e677d69660dec399", "fusion_lon": 0.0}, {"rental_uris": {"ios": "https://dc.lft.to/lastmile_qr_scan", "android": "https://dc.lft.to/lastmile_qr_scan"}, "type": "electric_scooter", "name": "edc886b6ea5237f41877be674423aa79", "is_reserved": 0, "lon": -77.027153, "is_disabled": 0, "fusion_lat": 0.0, "lat": 38.902728, "bike_id": "edc886b6ea5237f41877be674423aa79", "fusion_lon": 0.0}, {"rental_uris": {"ios": "https://dc.lft.to/lastmile_qr_scan", "android": "https://dc.lft.to/lastmile_qr_scan"}, "type": "electric_scooter", "name": "b88fef8b2b505f95bae3ce2238742837", "is_reserved": 0, "lon": -77.03048866666667, "is_disabled": 0, "fusion_lat": 0.0, "lat": 38.90726816666667, "bike_id": "b88fef8b2b505f95bae3ce2238742837", "fusion_lon": 0.0}, {"rental_uris": {"ios": "https://dc.lft.to/lastmile_qr_scan", "android": "https://dc.lft.to/lastmile_qr_scan"}, "type": "electric_scooter", "name": "4d5b3d4945f18a8e471dabbe6e145340", "is_reserved": 0, "lon": -77.06320666666667, "is_disabled": 0, "fusion_lat": 0.0, "lat": 38.913427166666665, "bike_id": "4d5b3d4945f18a8e471dabbe6e145340", "fusion_lon": 0.0}, {"rental_uris": {"ios": "https://dc.lft.to/lastmile_qr_scan", "android": "https://dc.lft.to/lastmile_qr_scan"}, "type": "electric_bike", "name": "02d65e0b0f8c6cf5eb8f3eff1471db67", "is_reserved": 0, "lon": -77.1128295, "is_disabled": 0, "fusion_lat": 0.0, "lat": 38.831073833333335, "bike_id": "02d65e0b0f8c6cf5eb8f3eff1471db67", "fusion_lon": 0.0}, {"rental_uris": {"ios": "https://dc.lft.to/lastmile_qr_scan", "android": "https://dc.lft.to/lastmile_qr_scan"}, "type": "electric_scooter", "name": "0712cbdc6671e438a5f20631fe807fd3", "is_reserved": 0, "lon": -76.98698133333333, "is_disabled": 0, "fusion_lat": 0.0, "lat": 38.90708166666667, "bike_id": "0712cbdc6671e438a5f20631fe807fd3", "fusion_lon": 0.0}, {"rental_uris": {"ios": "https://dc.lft.to/lastmile_qr_scan", "android": "https://dc.lft.to/lastmile_qr_scan"}, "type": "electric_scooter", "name": "007bd6769db180306dbe4edb27bd2fb4", "is_reserved": 0, "lon": -77.00823183333334, "is_disabled": 0, "fusion_lat": 0.0, "lat": 38.91567583333333, "bike_id": "007bd6769db180306dbe4edb27bd2fb4", "fusion_lon": 0.0}, {"rental_uris": {"ios": "https://dc.lft.to/lastmile_qr_scan", "android": "https://dc.lft.to/lastmile_qr_scan"}, "type": "electric_scooter", "name": "c9658ad873a3ad0a4df652e8a595b086", "is_reserved": 0, "lon": -77.04022716666667, "is_disabled": 0, "fusion_lat": 0.0, "lat": 38.921748, "bike_id": "c9658ad873a3ad0a4df652e8a595b086", "fusion_lon": 0.0}, {"rental_uris": {"ios": "https://dc.lft.to/lastmile_qr_scan", "android": "https://dc.lft.to/lastmile_qr_scan"}, "type": "electric_scooter", "name": "2f0643adec1790af1776490c356d77eb", "is_reserved": 0, "lon": -77.030767, "is_disabled": 0, "fusion_lat": 0.0, "lat": 38.9239265, "bike_id": "2f0643adec1790af1776490c356d77eb", "fusion_lon": 0.0}, {"rental_uris": {"ios": "https://dc.lft.to/lastmile_qr_scan", "android": "https://dc.lft.to/lastmile_qr_scan"}, "type": "electric_scooter", "name": "ee0d22df5ac4721436ca9ed8aa268851", "is_reserved": 0, "lon": -77.021904, "is_disabled": 0, "fusion_lat": 0.0, "lat": 38.929269166666664, "bike_id": "ee0d22df5ac4721436ca9ed8aa268851", "fusion_lon": 0.0}, {"rental_uris": {"ios": "https://dc.lft.to/lastmile_qr_scan", "android": "https://dc.lft.to/lastmile_qr_scan"}, "type": "electric_scooter", "name": "12055644b61436302e3ebe908d368e0f", "is_reserved": 0, "lon": -77.00185133333333, "is_disabled": 0, "fusion_lat": 0.0, "lat": 38.9004145, "bike_id": "12055644b61436302e3ebe908d368e0f", "fusion_lon": 0.0}, {"rental_uris": {"ios": "https://dc.lft.to/lastmile_qr_scan", "android": "https://dc.lft.to/lastmile_qr_scan"}, "type": "electric_bike", "name": "ccfc6d4bd4b821d2c1fa0ebcdfe81669", "is_reserved": 0, "lon": -76.9936705, "is_disabled": 0, "fusion_lat": 0.0, "lat": 38.9273795, "bike_id": "ccfc6d4bd4b821d2c1fa0ebcdfe81669", "fusion_lon": 0.0}, {"rental_uris": {"ios": "https://dc.lft.to/lastmile_qr_scan", "android": "https://dc.lft.to/lastmile_qr_scan"}, "type": "electric_scooter", "name": "9f648a226b8f47fc8099b10a5b4e7517", "is_reserved": 0, "lon": -77.08776066666667, "is_disabled": 0, "fusion_lat": 0.0, "lat": 38.935613000000004, "bike_id": "9f648a226b8f47fc8099b10a5b4e7517", "fusion_lon": 0.0}, {"rental_uris": {"ios": "https://dc.lft.to/lastmile_qr_scan", "android": "https://dc.lft.to/lastmile_qr_scan"}, "type": "electric_scooter", "name": "df54fb67dfc71aa9880cfb60ca2fd9e5", "is_reserved": 0, "lon": -77.0716665, "is_disabled": 0, "fusion_lat": 0.0, "lat": 38.90783483333333, "bike_id": "df54fb67dfc71aa9880cfb60ca2fd9e5", "fusion_lon": 0.0}, {"rental_uris": {"ios": "https://dc.lft.to/lastmile_qr_scan", "android": "https://dc.lft.to/lastmile_qr_scan"}, "type": "electric_scooter", "name": "f9149181a7edd882dc0f62559b0bb5fc", "is_reserved": 0, "lon": -76.99960733333333, "is_disabled": 0, "fusion_lat": 0.0, "lat": 38.89199716666667, "bike_id": "f9149181a7edd882dc0f62559b0bb5fc", "fusion_lon": 0.0}, {"rental_uris": {"ios": "https://dc.lft.to/lastmile_qr_scan", "android": "https://dc.lft.to/lastmile_qr_scan"}, "type": "electric_scooter", "name": "ee95ea01afc2108ed6cdce83b6d3e436", "is_reserved": 0, "lon": -77.01771583333333, "is_disabled": 0, "fusion_lat": 0.0, "lat": 38.92053883333333, "bike_id": "ee95ea01afc2108ed6cdce83b6d3e436", "fusion_lon": 0.0}, {"rental_uris": {"ios": "https://dc.lft.to/lastmile_qr_scan", "android": "https://dc.lft.to/lastmile_qr_scan"}, "type": "electric_scooter", "name": "f2c0e932ccabc0a8725384ebfe218212", "is_reserved": 0, "lon": -77.025802, "is_disabled": 0, "fusion_lat": 0.0, "lat": 38.887253333333334, "bike_id": "f2c0e932ccabc0a8725384ebfe218212", "fusion_lon": 0.0}, {"rental_uris": {"ios": "https://dc.lft.to/lastmile_qr_scan", "android": "https://dc.lft.to/lastmile_qr_scan"}, "type": "electric_scooter", "name": "be7deeef92938a7c28c51413d840896d", "is_reserved": 0, "lon": -77.04122116666667, "is_disabled": 0, "fusion_lat": 0.0, "lat": 38.92878833333333, "bike_id": "be7deeef92938a7c28c51413d840896d", "fusion_lon": 0.0}, {"rental_uris": {"ios": "https://dc.lft.to/lastmile_qr_scan", "android": "https://dc.lft.to/lastmile_qr_scan"}, "type": "electric_scooter", "name": "1bc258118c52a4492fbe0ddaf3a0afcd", "is_reserved": 0, "lon": -77.05510366666667, "is_disabled": 0, "fusion_lat": 0.0, "lat": 38.928410166666666, "bike_id": "1bc258118c52a4492fbe0ddaf3a0afcd", "fusion_lon": 0.0}, {"rental_uris": {"ios": "https://dc.lft.to/lastmile_qr_scan", "android": "https://dc.lft.to/lastmile_qr_scan"}, "type": "electric_scooter", "name": "b74cbef3dafa90dbb1437356e2effde4", "is_reserved": 0, "lon": -77.04700383333333, "is_disabled": 0, "fusion_lat": 0.0, "lat": 38.92061783333333, "bike_id": "b74cbef3dafa90dbb1437356e2effde4", "fusion_lon": 0.0}, {"rental_uris": {"ios": "https://dc.lft.to/lastmile_qr_scan", "android": "https://dc.lft.to/lastmile_qr_scan"}, "type": "electric_scooter", "name": "01cdebecfb70b2b844f41ce1230940c6", "is_reserved": 0, "lon": -77.02831433333333, "is_disabled": 0, "fusion_lat": 0.0, "lat": 38.932430333333336, "bike_id": "01cdebecfb70b2b844f41ce1230940c6", "fusion_lon": 0.0}, {"rental_uris": {"ios": "https://dc.lft.to/lastmile_qr_scan", "android": "https://dc.lft.to/lastmile_qr_scan"}, "type": "electric_scooter", "name": "1e9ad2d6b984e0f96ea1080e53445600", "is_reserved": 0, "lon": -77.03338633333334, "is_disabled": 0, "fusion_lat": 0.0, "lat": 38.91564, "bike_id": "1e9ad2d6b984e0f96ea1080e53445600", "fusion_lon": 0.0}, {"rental_uris": {"ios": "https://dc.lft.to/lastmile_qr_scan", "android": "https://dc.lft.to/lastmile_qr_scan"}, "type": "electric_scooter", "name": "c9eed103c8d1bfaf3a45daf52d2713ca", "is_reserved": 0, "lon": -77.07243816666667, "is_disabled": 0, "fusion_lat": 0.0, "lat": 38.934418666666666, "bike_id": "c9eed103c8d1bfaf3a45daf52d2713ca", "fusion_lon": 0.0}, {"rental_uris": {"ios": "https://dc.lft.to/lastmile_qr_scan", "android": "https://dc.lft.to/lastmile_qr_scan"}, "type": "electric_scooter", "name": "0b04f3988e3d7a9f5a64c95eb5e0530a", "is_reserved": 0, "lon": -77.05060283333333, "is_disabled": 0, "fusion_lat": 0.0, "lat": 38.92363183333333, "bike_id": "0b04f3988e3d7a9f5a64c95eb5e0530a", "fusion_lon": 0.0}, {"rental_uris": {"ios": "https://dc.lft.to/lastmile_qr_scan", "android": "https://dc.lft.to/lastmile_qr_scan"}, "type": "electric_scooter", "name": "3fe0fe61826d1cbd5ba11413515c6fcc", "is_reserved": 0, "lon": -77.03278433333334, "is_disabled": 0, "fusion_lat": 0.0, "lat": 38.932618833333336, "bike_id": "3fe0fe61826d1cbd5ba11413515c6fcc", "fusion_lon": 0.0}, {"rental_uris": {"ios": "https://dc.lft.to/lastmile_qr_scan", "android": "https://dc.lft.to/lastmile_qr_scan"}, "type": "electric_bike", "name": "e4599f36615f3b08b8793e6d74b25c07", "is_reserved": 0, "lon": -77.05274783333333, "is_disabled": 0, "fusion_lat": 0.0, "lat": 38.94093216666667, "bike_id": "e4599f36615f3b08b8793e6d74b25c07", "fusion_lon": 0.0}, {"rental_uris": {"ios": "https://dc.lft.to/lastmile_qr_scan", "android": "https://dc.lft.to/lastmile_qr_scan"}, "type": "electric_scooter", "name": "789a61025fcd5400c4f08c43b7e00ba3", "is_reserved": 0, "lon": -77.0391045, "is_disabled": 0, "fusion_lat": 0.0, "lat": 38.92472, "bike_id": "789a61025fcd5400c4f08c43b7e00ba3", "fusion_lon": 0.0}, {"rental_uris": {"ios": "https://dc.lft.to/lastmile_qr_scan", "android": "https://dc.lft.to/lastmile_qr_scan"}, "type": "electric_scooter", "name": "372c15376bce9b6ea858e3ef391749c2", "is_reserved": 0, "lon": -77.046554, "is_disabled": 0, "fusion_lat": 0.0, "lat": 38.900264166666666, "bike_id": "372c15376bce9b6ea858e3ef391749c2", "fusion_lon": 0.0}, {"rental_uris": {"ios": "https://dc.lft.to/lastmile_qr_scan", "android": "https://dc.lft.to/lastmile_qr_scan"}, "type": "electric_bike", "name": "4d3dd39e00933458e47838a83bd98776", "is_reserved": 0, "lon": -77.0168495, "is_disabled": 0, "fusion_lat": 0.0, "lat": 38.97519483333333, "bike_id": "4d3dd39e00933458e47838a83bd98776", "fusion_lon": 0.0}, {"rental_uris": {"ios": "https://dc.lft.to/lastmile_qr_scan", "android": "https://dc.lft.to/lastmile_qr_scan"}, "type": "electric_scooter", "name": "697a933e6a99648b3647ccd88fd202fb", "is_reserved": 0, "lon": -77.03135116666667, "is_disabled": 0, "fusion_lat": 0.0, "lat": 38.923767, "bike_id": "697a933e6a99648b3647ccd88fd202fb", "fusion_lon": 0.0}, {"rental_uris": {"ios": "https://dc.lft.to/lastmile_qr_scan", "android": "https://dc.lft.to/lastmile_qr_scan"}, "type": "electric_scooter", "name": "ed6f81461be89cc2ad461247f3a7d772", "is_reserved": 0, "lon": -77.02839833333333, "is_disabled": 0, "fusion_lat": 0.0, "lat": 38.88745266666667, "bike_id": "ed6f81461be89cc2ad461247f3a7d772", "fusion_lon": 0.0}, {"rental_uris": {"ios": "https://dc.lft.to/lastmile_qr_scan", "android": "https://dc.lft.to/lastmile_qr_scan"}, "type": "electric_scooter", "name": "477d15f199b2dece195eab3cbca1e846", "is_reserved": 0, "lon": -77.04486183333333, "is_disabled": 0, "fusion_lat": 0.0, "lat": 38.914500333333336, "bike_id": "477d15f199b2dece195eab3cbca1e846", "fusion_lon": 0.0}, {"rental_uris": {"ios": "https://dc.lft.to/lastmile_qr_scan", "android": "https://dc.lft.to/lastmile_qr_scan"}, "type": "electric_scooter", "name": "c699abcf5881d58887701f5a0d88dced", "is_reserved": 0, "lon": -77.01461766666667, "is_disabled": 0, "fusion_lat": 0.0, "lat": 38.87936916666666, "bike_id": "c699abcf5881d58887701f5a0d88dced", "fusion_lon": 0.0}, {"rental_uris": {"ios": "https://dc.lft.to/lastmile_qr_scan", "android": "https://dc.lft.to/lastmile_qr_scan"}, "type": "electric_scooter", "name": "cbfe2f4e307a6be6ff6a6812399581a7", "is_reserved": 0, "lon": -77.04471783333334, "is_disabled": 0, "fusion_lat": 0.0, "lat": 38.900603, "bike_id": "cbfe2f4e307a6be6ff6a6812399581a7", "fusion_lon": 0.0}, {"rental_uris": {"ios": "https://dc.lft.to/lastmile_qr_scan", "android": "https://dc.lft.to/lastmile_qr_scan"}, "type": "electric_scooter", "name": "6fe1b13330f212a273ae4bcb763d2eaf", "is_reserved": 0, "lon": -77.0434145, "is_disabled": 0, "fusion_lat": 0.0, "lat": 38.90745866666666, "bike_id": "6fe1b13330f212a273ae4bcb763d2eaf", "fusion_lon": 0.0}, {"rental_uris": {"ios": "https://dc.lft.to/lastmile_qr_scan", "android": "https://dc.lft.to/lastmile_qr_scan"}, "type": "electric_scooter", "name": "4ad866bd2e44f771c1891e7766c09d79", "is_reserved": 0, "lon": -77.04255816666667, "is_disabled": 0, "fusion_lat": 0.0, "lat": 38.904285, "bike_id": "4ad866bd2e44f771c1891e7766c09d79", "fusion_lon": 0.0}, {"rental_uris": {"ios": "https://dc.lft.to/lastmile_qr_scan", "android": "https://dc.lft.to/lastmile_qr_scan"}, "type": "electric_scooter", "name": "7bcb12a7c7cad2cb651181a4157ec9a7", "is_reserved": 0, "lon": -77.044036, "is_disabled": 0, "fusion_lat": 0.0, "lat": 38.9295685, "bike_id": "7bcb12a7c7cad2cb651181a4157ec9a7", "fusion_lon": 0.0}, {"rental_uris": {"ios": "https://dc.lft.to/lastmile_qr_scan", "android": "https://dc.lft.to/lastmile_qr_scan"}, "type": "electric_bike", "name": "e8c2ece4ec4ce611c8c6be2679088485", "is_reserved": 0, "lon": -77.00407433333334, "is_disabled": 0, "fusion_lat": 0.0, "lat": 38.985461666666666, "bike_id": "e8c2ece4ec4ce611c8c6be2679088485", "fusion_lon": 0.0}, {"rental_uris": {"ios": "https://dc.lft.to/lastmile_qr_scan", "android": "https://dc.lft.to/lastmile_qr_scan"}, "type": "electric_scooter", "name": "39d4963256970c3953fa5a937dcdf15e", "is_reserved": 0, "lon": -76.93209116666667, "is_disabled": 0, "fusion_lat": 0.0, "lat": 38.89667816666667, "bike_id": "39d4963256970c3953fa5a937dcdf15e", "fusion_lon": 0.0}, {"rental_uris": {"ios": "https://dc.lft.to/lastmile_qr_scan", "android": "https://dc.lft.to/lastmile_qr_scan"}, "type": "electric_scooter", "name": "4a1403e027b28a9f53c6fd2e2437154b", "is_reserved": 0, "lon": -76.9993855, "is_disabled": 0, "fusion_lat": 0.0, "lat": 38.891678, "bike_id": "4a1403e027b28a9f53c6fd2e2437154b", "fusion_lon": 0.0}, {"rental_uris": {"ios": "https://dc.lft.to/lastmile_qr_scan", "android": "https://dc.lft.to/lastmile_qr_scan"}, "type": "electric_bike", "name": "e275f53518906b5b1eb91a29850d4fe2", "is_reserved": 0, "lon": -77.098172, "is_disabled": 0, "fusion_lat": 0.0, "lat": 38.85022566666667, "bike_id": "e275f53518906b5b1eb91a29850d4fe2", "fusion_lon": 0.0}, {"rental_uris": {"ios": "https://dc.lft.to/lastmile_qr_scan", "android": "https://dc.lft.to/lastmile_qr_scan"}, "type": "electric_scooter", "name": "668a21377aac436cab5c1b97e897bc9a", "is_reserved": 0, "lon": -77.02548166666666, "is_disabled": 0, "fusion_lat": 0.0, "lat": 38.930936333333335, "bike_id": "668a21377aac436cab5c1b97e897bc9a", "fusion_lon": 0.0}, {"rental_uris": {"ios": "https://dc.lft.to/lastmile_qr_scan", "android": "https://dc.lft.to/lastmile_qr_scan"}, "type": "electric_scooter", "name": "cffef962d036f72c4d89dd65638a91d0", "is_reserved": 0, "lon": -77.04498033333333, "is_disabled": 0, "fusion_lat": 0.0, "lat": 38.918749166666665, "bike_id": "cffef962d036f72c4d89dd65638a91d0", "fusion_lon": 0.0}, {"rental_uris": {"ios": "https://dc.lft.to/lastmile_qr_scan", "android": "https://dc.lft.to/lastmile_qr_scan"}, "type": "electric_scooter", "name": "7c0fb0a5a812a322883970ab2f507d8a", "is_reserved": 0, "lon": -77.01345666666667, "is_disabled": 0, "fusion_lat": 0.0, "lat": 38.896059, "bike_id": "7c0fb0a5a812a322883970ab2f507d8a", "fusion_lon": 0.0}, {"rental_uris": {"ios": "https://dc.lft.to/lastmile_qr_scan", "android": "https://dc.lft.to/lastmile_qr_scan"}, "type": "electric_scooter", "name": "30e0ac164fc825b6b1d6ec44e96b4c8a", "is_reserved": 0, "lon": -77.0325815, "is_disabled": 0, "fusion_lat": 0.0, "lat": 38.933132, "bike_id": "30e0ac164fc825b6b1d6ec44e96b4c8a", "fusion_lon": 0.0}, {"rental_uris": {"ios": "https://dc.lft.to/lastmile_qr_scan", "android": "https://dc.lft.to/lastmile_qr_scan"}, "type": "electric_scooter", "name": "1fb750259b0bb8fb87236d165442f7f1", "is_reserved": 0, "lon": -77.025044, "is_disabled": 0, "fusion_lat": 0.0, "lat": 38.93551216666667, "bike_id": "1fb750259b0bb8fb87236d165442f7f1", "fusion_lon": 0.0}, {"rental_uris": {"ios": "https://dc.lft.to/lastmile_qr_scan", "android": "https://dc.lft.to/lastmile_qr_scan"}, "type": "electric_scooter", "name": "469911294c710ec0a66e3a960127e21e", "is_reserved": 0, "lon": -77.059279, "is_disabled": 0, "fusion_lat": 0.0, "lat": 38.90284366666667, "bike_id": "469911294c710ec0a66e3a960127e21e", "fusion_lon": 0.0}, {"rental_uris": {"ios": "https://dc.lft.to/lastmile_qr_scan", "android": "https://dc.lft.to/lastmile_qr_scan"}, "type": "electric_bike", "name": "49e975c506e8a4bbc7cdcf0795393ec9", "is_reserved": 0, "lon": -77.12649433333333, "is_disabled": 0, "fusion_lat": 0.0, "lat": 38.8191055, "bike_id": "49e975c506e8a4bbc7cdcf0795393ec9", "fusion_lon": 0.0}, {"rental_uris": {"ios": "https://dc.lft.to/lastmile_qr_scan", "android": "https://dc.lft.to/lastmile_qr_scan"}, "type": "electric_scooter", "name": "b3a49a405aa0d3b9c3926508f59117a0", "is_reserved": 0, "lon": -77.051246, "is_disabled": 0, "fusion_lat": 0.0, "lat": 38.90647166666667, "bike_id": "b3a49a405aa0d3b9c3926508f59117a0", "fusion_lon": 0.0}, {"rental_uris": {"ios": "https://dc.lft.to/lastmile_qr_scan", "android": "https://dc.lft.to/lastmile_qr_scan"}, "type": "electric_bike", "name": "e3ac22f3d0f3b8c803dd83ed5bad0644", "is_reserved": 0, "lon": -77.0852455, "is_disabled": 0, "fusion_lat": 0.0, "lat": 38.856500833333335, "bike_id": "e3ac22f3d0f3b8c803dd83ed5bad0644", "fusion_lon": 0.0}, {"rental_uris": {"ios": "https://dc.lft.to/lastmile_qr_scan", "android": "https://dc.lft.to/lastmile_qr_scan"}, "type": "electric_scooter", "name": "e313a3e5e7fab72f47f8c1f7e731be27", "is_reserved": 0, "lon": -77.03418866666667, "is_disabled": 0, "fusion_lat": 0.0, "lat": 38.9220985, "bike_id": "e313a3e5e7fab72f47f8c1f7e731be27", "fusion_lon": 0.0}, {"rental_uris": {"ios": "https://dc.lft.to/lastmile_qr_scan", "android": "https://dc.lft.to/lastmile_qr_scan"}, "type": "electric_scooter", "name": "68075d0b9f1cd2b794ce761af7e1eaa8", "is_reserved": 0, "lon": -77.066294, "is_disabled": 0, "fusion_lat": 0.0, "lat": 38.905263, "bike_id": "68075d0b9f1cd2b794ce761af7e1eaa8", "fusion_lon": 0.0}, {"rental_uris": {"ios": "https://dc.lft.to/lastmile_qr_scan", "android": "https://dc.lft.to/lastmile_qr_scan"}, "type": "electric_scooter", "name": "6424b2aefac5a9a51da576bfbc3a3cb4", "is_reserved": 0, "lon": -76.98506433333333, "is_disabled": 0, "fusion_lat": 0.0, "lat": 38.88004983333333, "bike_id": "6424b2aefac5a9a51da576bfbc3a3cb4", "fusion_lon": 0.0}, {"rental_uris": {"ios": "https://dc.lft.to/lastmile_qr_scan", "android": "https://dc.lft.to/lastmile_qr_scan"}, "type": "electric_scooter", "name": "067924323905b53754bb748f94fc864e", "is_reserved": 0, "lon": -77.00550116666666, "is_disabled": 0, "fusion_lat": 0.0, "lat": 38.8764245, "bike_id": "067924323905b53754bb748f94fc864e", "fusion_lon": 0.0}, {"rental_uris": {"ios": "https://dc.lft.to/lastmile_qr_scan", "android": "https://dc.lft.to/lastmile_qr_scan"}, "type": "electric_scooter", "name": "b5daa053935a965b92fec06bf40d3437", "is_reserved": 0, "lon": -77.00991283333333, "is_disabled": 0, "fusion_lat": 0.0, "lat": 38.8730135, "bike_id": "b5daa053935a965b92fec06bf40d3437", "fusion_lon": 0.0}, {"rental_uris": {"ios": "https://dc.lft.to/lastmile_qr_scan", "android": "https://dc.lft.to/lastmile_qr_scan"}, "type": "electric_scooter", "name": "0cc1c536c7a40352404cacb422cc2a98", "is_reserved": 0, "lon": -77.03359333333333, "is_disabled": 0, "fusion_lat": 0.0, "lat": 38.9106, "bike_id": "0cc1c536c7a40352404cacb422cc2a98", "fusion_lon": 0.0}, {"rental_uris": {"ios": "https://dc.lft.to/lastmile_qr_scan", "android": "https://dc.lft.to/lastmile_qr_scan"}, "type": "electric_scooter", "name": "f04ce11a183399363f56c510d5e7e402", "is_reserved": 0, "lon": -77.01731716666667, "is_disabled": 0, "fusion_lat": 0.0, "lat": 38.91242033333333, "bike_id": "f04ce11a183399363f56c510d5e7e402", "fusion_lon": 0.0}, {"rental_uris": {"ios": "https://dc.lft.to/lastmile_qr_scan", "android": "https://dc.lft.to/lastmile_qr_scan"}, "type": "electric_scooter", "name": "36d10847202fe1c0fad9383aa651e534", "is_reserved": 0, "lon": -77.045118, "is_disabled": 0, "fusion_lat": 0.0, "lat": 38.9079415, "bike_id": "36d10847202fe1c0fad9383aa651e534", "fusion_lon": 0.0}, {"rental_uris": {"ios": "https://dc.lft.to/lastmile_qr_scan", "android": "https://dc.lft.to/lastmile_qr_scan"}, "type": "electric_scooter", "name": "96d7f97314965825c193fca6ccbf3c49", "is_reserved": 0, "lon": -76.9803585, "is_disabled": 0, "fusion_lat": 0.0, "lat": 38.916803, "bike_id": "96d7f97314965825c193fca6ccbf3c49", "fusion_lon": 0.0}, {"rental_uris": {"ios": "https://dc.lft.to/lastmile_qr_scan", "android": "https://dc.lft.to/lastmile_qr_scan"}, "type": "electric_scooter", "name": "b354c9ae07e063e4fdbe994adb5b891a", "is_reserved": 0, "lon": -77.04384783333333, "is_disabled": 0, "fusion_lat": 0.0, "lat": 38.923646166666664, "bike_id": "b354c9ae07e063e4fdbe994adb5b891a", "fusion_lon": 0.0}, {"rental_uris": {"ios": "https://dc.lft.to/lastmile_qr_scan", "android": "https://dc.lft.to/lastmile_qr_scan"}, "type": "electric_scooter", "name": "264aec287666f6816a07e8cfe666d8da", "is_reserved": 0, "lon": -77.0489105, "is_disabled": 0, "fusion_lat": 0.0, "lat": 38.9194005, "bike_id": "264aec287666f6816a07e8cfe666d8da", "fusion_lon": 0.0}, {"rental_uris": {"ios": "https://dc.lft.to/lastmile_qr_scan", "android": "https://dc.lft.to/lastmile_qr_scan"}, "type": "electric_scooter", "name": "f823f197883ba26d37f98cc41d1fedf6", "is_reserved": 0, "lon": -77.03709366666666, "is_disabled": 0, "fusion_lat": 0.0, "lat": 38.914907166666666, "bike_id": "f823f197883ba26d37f98cc41d1fedf6", "fusion_lon": 0.0}, {"rental_uris": {"ios": "https://dc.lft.to/lastmile_qr_scan", "android": "https://dc.lft.to/lastmile_qr_scan"}, "type": "electric_bike", "name": "f5bcd6b7cfbc81a9d5ace8b5a1a6314e", "is_reserved": 0, "lon": -76.941616, "is_disabled": 0, "fusion_lat": 0.0, "lat": 38.86556, "bike_id": "f5bcd6b7cfbc81a9d5ace8b5a1a6314e", "fusion_lon": 0.0}, {"rental_uris": {"ios": "https://dc.lft.to/lastmile_qr_scan", "android": "https://dc.lft.to/lastmile_qr_scan"}, "type": "electric_scooter", "name": "ffd5ad107208cff7b3f9e2f00711569f", "is_reserved": 0, "lon": -77.03868433333334, "is_disabled": 0, "fusion_lat": 0.0, "lat": 38.921526666666665, "bike_id": "ffd5ad107208cff7b3f9e2f00711569f", "fusion_lon": 0.0}, {"rental_uris": {"ios": "https://dc.lft.to/lastmile_qr_scan", "android": "https://dc.lft.to/lastmile_qr_scan"}, "type": "electric_scooter", "name": "16b5a0fc809c026cec48db032bc4562b", "is_reserved": 0, "lon": -77.0261955, "is_disabled": 0, "fusion_lat": 0.0, "lat": 38.907296, "bike_id": "16b5a0fc809c026cec48db032bc4562b", "fusion_lon": 0.0}, {"rental_uris": {"ios": "https://dc.lft.to/lastmile_qr_scan", "android": "https://dc.lft.to/lastmile_qr_scan"}, "type": "electric_scooter", "name": "45c1c20d7aecdb0c7ee9d3ae65678018", "is_reserved": 0, "lon": -77.02809816666667, "is_disabled": 0, "fusion_lat": 0.0, "lat": 38.892319666666666, "bike_id": "45c1c20d7aecdb0c7ee9d3ae65678018", "fusion_lon": 0.0}, {"rental_uris": {"ios": "https://dc.lft.to/lastmile_qr_scan", "android": "https://dc.lft.to/lastmile_qr_scan"}, "type": "electric_scooter", "name": "9a0d28d3b9d6badfb5adad71f87310dd", "is_reserved": 0, "lon": -77.03247166666667, "is_disabled": 0, "fusion_lat": 0.0, "lat": 38.91055033333333, "bike_id": "9a0d28d3b9d6badfb5adad71f87310dd", "fusion_lon": 0.0}, {"rental_uris": {"ios": "https://dc.lft.to/lastmile_qr_scan", "android": "https://dc.lft.to/lastmile_qr_scan"}, "type": "electric_scooter", "name": "7475b3d2d6b33e78cf60c17336d78440", "is_reserved": 0, "lon": -77.004564, "is_disabled": 0, "fusion_lat": 0.0, "lat": 38.920818833333335, "bike_id": "7475b3d2d6b33e78cf60c17336d78440", "fusion_lon": 0.0}, {"rental_uris": {"ios": "https://dc.lft.to/lastmile_qr_scan", "android": "https://dc.lft.to/lastmile_qr_scan"}, "type": "electric_scooter", "name": "1504737b5ada690f655cb4d941056b01", "is_reserved": 0, "lon": -77.05384666666667, "is_disabled": 0, "fusion_lat": 0.0, "lat": 38.89842566666667, "bike_id": "1504737b5ada690f655cb4d941056b01", "fusion_lon": 0.0}, {"rental_uris": {"ios": "https://dc.lft.to/lastmile_qr_scan", "android": "https://dc.lft.to/lastmile_qr_scan"}, "type": "electric_scooter", "name": "2bc92e34fd39bc7d4bf3605e2e025122", "is_reserved": 0, "lon": -77.04761783333333, "is_disabled": 0, "fusion_lat": 0.0, "lat": 38.91249466666667, "bike_id": "2bc92e34fd39bc7d4bf3605e2e025122", "fusion_lon": 0.0}, {"rental_uris": {"ios": "https://dc.lft.to/lastmile_qr_scan", "android": "https://dc.lft.to/lastmile_qr_scan"}, "type": "electric_scooter", "name": "4e3ab21fc41d36a4c033094adbb6b48f", "is_reserved": 0, "lon": -77.03461866666666, "is_disabled": 0, "fusion_lat": 0.0, "lat": 38.9083125, "bike_id": "4e3ab21fc41d36a4c033094adbb6b48f", "fusion_lon": 0.0}, {"rental_uris": {"ios": "https://dc.lft.to/lastmile_qr_scan", "android": "https://dc.lft.to/lastmile_qr_scan"}, "type": "electric_bike", "name": "2a029513b1883ffa9a2c3283dd216d2d", "is_reserved": 0, "lon": -76.99073516666667, "is_disabled": 0, "fusion_lat": 0.0, "lat": 38.930636, "bike_id": "2a029513b1883ffa9a2c3283dd216d2d", "fusion_lon": 0.0}, {"rental_uris": {"ios": "https://dc.lft.to/lastmile_qr_scan", "android": "https://dc.lft.to/lastmile_qr_scan"}, "type": "electric_scooter", "name": "102d2993f31d39450811eefe8ee33126", "is_reserved": 0, "lon": -77.034795, "is_disabled": 0, "fusion_lat": 0.0, "lat": 38.92481083333333, "bike_id": "102d2993f31d39450811eefe8ee33126", "fusion_lon": 0.0}, {"rental_uris": {"ios": "https://dc.lft.to/lastmile_qr_scan", "android": "https://dc.lft.to/lastmile_qr_scan"}, "type": "electric_scooter", "name": "c2b70e0a324a9001813bfb97959482d6", "is_reserved": 0, "lon": -77.03148983333334, "is_disabled": 0, "fusion_lat": 0.0, "lat": 38.88758933333333, "bike_id": "c2b70e0a324a9001813bfb97959482d6", "fusion_lon": 0.0}, {"rental_uris": {"ios": "https://dc.lft.to/lastmile_qr_scan", "android": "https://dc.lft.to/lastmile_qr_scan"}, "type": "electric_scooter", "name": "7bdda244ec2f0bd95494771620ac1c55", "is_reserved": 0, "lon": -77.017651, "is_disabled": 0, "fusion_lat": 0.0, "lat": 38.902773333333336, "bike_id": "7bdda244ec2f0bd95494771620ac1c55", "fusion_lon": 0.0}, {"rental_uris": {"ios": "https://dc.lft.to/lastmile_qr_scan", "android": "https://dc.lft.to/lastmile_qr_scan"}, "type": "electric_bike", "name": "7316381a2d64715219d5815b624e5276", "is_reserved": 0, "lon": -76.961014, "is_disabled": 0, "fusion_lat": 0.0, "lat": 38.94965633333333, "bike_id": "7316381a2d64715219d5815b624e5276", "fusion_lon": 0.0}, {"rental_uris": {"ios": "https://dc.lft.to/lastmile_qr_scan", "android": "https://dc.lft.to/lastmile_qr_scan"}, "type": "electric_scooter", "name": "62ef09c7ef7a3cfc8d081482525a2ff6", "is_reserved": 0, "lon": -77.03976416666667, "is_disabled": 0, "fusion_lat": 0.0, "lat": 38.90966616666667, "bike_id": "62ef09c7ef7a3cfc8d081482525a2ff6", "fusion_lon": 0.0}, {"rental_uris": {"ios": "https://dc.lft.to/lastmile_qr_scan", "android": "https://dc.lft.to/lastmile_qr_scan"}, "type": "electric_scooter", "name": "0bcb9e97745c08d5aadf4349e27d5ca6", "is_reserved": 0, "lon": -77.01602116666666, "is_disabled": 0, "fusion_lat": 0.0, "lat": 38.910772333333334, "bike_id": "0bcb9e97745c08d5aadf4349e27d5ca6", "fusion_lon": 0.0}, {"rental_uris": {"ios": "https://dc.lft.to/lastmile_qr_scan", "android": "https://dc.lft.to/lastmile_qr_scan"}, "type": "electric_scooter", "name": "0fc26a62420921fa19ed852a93cd5890", "is_reserved": 0, "lon": -77.03860033333333, "is_disabled": 0, "fusion_lat": 0.0, "lat": 38.911978833333336, "bike_id": "0fc26a62420921fa19ed852a93cd5890", "fusion_lon": 0.0}, {"rental_uris": {"ios": "https://dc.lft.to/lastmile_qr_scan", "android": "https://dc.lft.to/lastmile_qr_scan"}, "type": "electric_scooter", "name": "6faa6ab8ac40ff8e59b658c436d99600", "is_reserved": 0, "lon": -77.04650833333334, "is_disabled": 0, "fusion_lat": 0.0, "lat": 38.900701166666664, "bike_id": "6faa6ab8ac40ff8e59b658c436d99600", "fusion_lon": 0.0}, {"rental_uris": {"ios": "https://dc.lft.to/lastmile_qr_scan", "android": "https://dc.lft.to/lastmile_qr_scan"}, "type": "electric_scooter", "name": "f0cfcee82700c3cdad054e49af38df08", "is_reserved": 0, "lon": -77.002088, "is_disabled": 0, "fusion_lat": 0.0, "lat": 38.9016405, "bike_id": "f0cfcee82700c3cdad054e49af38df08", "fusion_lon": 0.0}, {"rental_uris": {"ios": "https://dc.lft.to/lastmile_qr_scan", "android": "https://dc.lft.to/lastmile_qr_scan"}, "type": "electric_scooter", "name": "8b1734a79426459916a2205a113f3553", "is_reserved": 0, "lon": -77.03463566666667, "is_disabled": 0, "fusion_lat": 0.0, "lat": 38.908389666666665, "bike_id": "8b1734a79426459916a2205a113f3553", "fusion_lon": 0.0}, {"rental_uris": {"ios": "https://dc.lft.to/lastmile_qr_scan", "android": "https://dc.lft.to/lastmile_qr_scan"}, "type": "electric_scooter", "name": "32073867b7b1f087784e1f6bd0424809", "is_reserved": 0, "lon": -77.03508283333333, "is_disabled": 0, "fusion_lat": 0.0, "lat": 38.918902, "bike_id": "32073867b7b1f087784e1f6bd0424809", "fusion_lon": 0.0}, {"rental_uris": {"ios": "https://dc.lft.to/lastmile_qr_scan", "android": "https://dc.lft.to/lastmile_qr_scan"}, "type": "electric_scooter", "name": "2589de03f1c862d64003a2080b7465d5", "is_reserved": 0, "lon": -77.0680545, "is_disabled": 0, "fusion_lat": 0.0, "lat": 38.95221933333333, "bike_id": "2589de03f1c862d64003a2080b7465d5", "fusion_lon": 0.0}, {"rental_uris": {"ios": "https://dc.lft.to/lastmile_qr_scan", "android": "https://dc.lft.to/lastmile_qr_scan"}, "type": "electric_bike", "name": "1532661a313ede47b2ec38004b9f3a6e", "is_reserved": 0, "lon": -76.98137666666666, "is_disabled": 0, "fusion_lat": 0.0, "lat": 38.93494583333333, "bike_id": "1532661a313ede47b2ec38004b9f3a6e", "fusion_lon": 0.0}, {"rental_uris": {"ios": "https://dc.lft.to/lastmile_qr_scan", "android": "https://dc.lft.to/lastmile_qr_scan"}, "type": "electric_scooter", "name": "4cb8a6967ce6d9b942bcb47b8579ca96", "is_reserved": 0, "lon": -77.02225566666667, "is_disabled": 0, "fusion_lat": 0.0, "lat": 38.892257, "bike_id": "4cb8a6967ce6d9b942bcb47b8579ca96", "fusion_lon": 0.0}, {"rental_uris": {"ios": "https://dc.lft.to/lastmile_qr_scan", "android": "https://dc.lft.to/lastmile_qr_scan"}, "type": "electric_scooter", "name": "6a871e90eb1867acb4ea1ba0993fe6ac", "is_reserved": 0, "lon": -77.01098516666667, "is_disabled": 0, "fusion_lat": 0.0, "lat": 38.885408, "bike_id": "6a871e90eb1867acb4ea1ba0993fe6ac", "fusion_lon": 0.0}, {"rental_uris": {"ios": "https://dc.lft.to/lastmile_qr_scan", "android": "https://dc.lft.to/lastmile_qr_scan"}, "type": "electric_scooter", "name": "2cf308bb5422e83c3dcac2db501426b1", "is_reserved": 0, "lon": -77.02075216666667, "is_disabled": 0, "fusion_lat": 0.0, "lat": 38.9125875, "bike_id": "2cf308bb5422e83c3dcac2db501426b1", "fusion_lon": 0.0}, {"rental_uris": {"ios": "https://dc.lft.to/lastmile_qr_scan", "android": "https://dc.lft.to/lastmile_qr_scan"}, "type": "electric_scooter", "name": "a60211f1925ffc19a7149b59a53121b0", "is_reserved": 0, "lon": -77.0588025, "is_disabled": 0, "fusion_lat": 0.0, "lat": 38.9043765, "bike_id": "a60211f1925ffc19a7149b59a53121b0", "fusion_lon": 0.0}, {"rental_uris": {"ios": "https://dc.lft.to/lastmile_qr_scan", "android": "https://dc.lft.to/lastmile_qr_scan"}, "type": "electric_scooter", "name": "ab85e61d725172893a4e6787bf31d93d", "is_reserved": 0, "lon": -77.00749633333334, "is_disabled": 0, "fusion_lat": 0.0, "lat": 38.87850233333333, "bike_id": "ab85e61d725172893a4e6787bf31d93d", "fusion_lon": 0.0}, {"rental_uris": {"ios": "https://dc.lft.to/lastmile_qr_scan", "android": "https://dc.lft.to/lastmile_qr_scan"}, "type": "electric_scooter", "name": "f662b04592291a13bdb46bd6aa97454e", "is_reserved": 0, "lon": -77.04597183333334, "is_disabled": 0, "fusion_lat": 0.0, "lat": 38.918643333333335, "bike_id": "f662b04592291a13bdb46bd6aa97454e", "fusion_lon": 0.0}, {"rental_uris": {"ios": "https://dc.lft.to/lastmile_qr_scan", "android": "https://dc.lft.to/lastmile_qr_scan"}, "type": "electric_scooter", "name": "52000354007be9744b2b3736e02ee6b7", "is_reserved": 0, "lon": -76.999172, "is_disabled": 0, "fusion_lat": 0.0, "lat": 38.900538833333336, "bike_id": "52000354007be9744b2b3736e02ee6b7", "fusion_lon": 0.0}, {"rental_uris": {"ios": "https://dc.lft.to/lastmile_qr_scan", "android": "https://dc.lft.to/lastmile_qr_scan"}, "type": "electric_scooter", "name": "ae024be4b17147030cbaa356ba0f4680", "is_reserved": 0, "lon": -77.05817616666667, "is_disabled": 0, "fusion_lat": 0.0, "lat": 38.93526133333334, "bike_id": "ae024be4b17147030cbaa356ba0f4680", "fusion_lon": 0.0}, {"rental_uris": {"ios": "https://dc.lft.to/lastmile_qr_scan", "android": "https://dc.lft.to/lastmile_qr_scan"}, "type": "electric_scooter", "name": "9b148a4cedfbbcb2106046a5be272cd0", "is_reserved": 0, "lon": -76.93189966666667, "is_disabled": 0, "fusion_lat": 0.0, "lat": 38.898822333333335, "bike_id": "9b148a4cedfbbcb2106046a5be272cd0", "fusion_lon": 0.0}, {"rental_uris": {"ios": "https://dc.lft.to/lastmile_qr_scan", "android": "https://dc.lft.to/lastmile_qr_scan"}, "type": "electric_scooter", "name": "f0632d4bbd426d37b566cefe7ab68bbe", "is_reserved": 0, "lon": -77.00032, "is_disabled": 0, "fusion_lat": 0.0, "lat": 38.87430066666667, "bike_id": "f0632d4bbd426d37b566cefe7ab68bbe", "fusion_lon": 0.0}, {"rental_uris": {"ios": "https://dc.lft.to/lastmile_qr_scan", "android": "https://dc.lft.to/lastmile_qr_scan"}, "type": "electric_scooter", "name": "95cbe90c44bd6a43086622edbbfb91a2", "is_reserved": 0, "lon": -77.070226, "is_disabled": 0, "fusion_lat": 0.0, "lat": 38.8932785, "bike_id": "95cbe90c44bd6a43086622edbbfb91a2", "fusion_lon": 0.0}, {"rental_uris": {"ios": "https://dc.lft.to/lastmile_qr_scan", "android": "https://dc.lft.to/lastmile_qr_scan"}, "type": "electric_scooter", "name": "ae15865966f1534373632c3f45c84a33", "is_reserved": 0, "lon": -77.04570366666667, "is_disabled": 0, "fusion_lat": 0.0, "lat": 38.90946516666666, "bike_id": "ae15865966f1534373632c3f45c84a33", "fusion_lon": 0.0}, {"rental_uris": {"ios": "https://dc.lft.to/lastmile_qr_scan", "android": "https://dc.lft.to/lastmile_qr_scan"}, "type": "electric_scooter", "name": "799c2e987accd96267dca032723eb4bf", "is_reserved": 0, "lon": -77.0553075, "is_disabled": 0, "fusion_lat": 0.0, "lat": 38.9100315, "bike_id": "799c2e987accd96267dca032723eb4bf", "fusion_lon": 0.0}, {"rental_uris": {"ios": "https://dc.lft.to/lastmile_qr_scan", "android": "https://dc.lft.to/lastmile_qr_scan"}, "type": "electric_bike", "name": "48f68793b5cccf8a56a899fba9eedc7a", "is_reserved": 0, "lon": -76.9415335, "is_disabled": 0, "fusion_lat": 0.0, "lat": 38.8901885, "bike_id": "48f68793b5cccf8a56a899fba9eedc7a", "fusion_lon": 0.0}, {"rental_uris": {"ios": "https://dc.lft.to/lastmile_qr_scan", "android": "https://dc.lft.to/lastmile_qr_scan"}, "type": "electric_scooter", "name": "3b24a958bbc879b03053e3a4a7b935df", "is_reserved": 0, "lon": -77.021632, "is_disabled": 0, "fusion_lat": 0.0, "lat": 38.924999166666666, "bike_id": "3b24a958bbc879b03053e3a4a7b935df", "fusion_lon": 0.0}, {"rental_uris": {"ios": "https://dc.lft.to/lastmile_qr_scan", "android": "https://dc.lft.to/lastmile_qr_scan"}, "type": "electric_scooter", "name": "824a2e540e2fa27af3f08b755c62c24f", "is_reserved": 0, "lon": -77.0250745, "is_disabled": 0, "fusion_lat": 0.0, "lat": 38.932887, "bike_id": "824a2e540e2fa27af3f08b755c62c24f", "fusion_lon": 0.0}, {"rental_uris": {"ios": "https://dc.lft.to/lastmile_qr_scan", "android": "https://dc.lft.to/lastmile_qr_scan"}, "type": "electric_scooter", "name": "f22927c8dbffda23d6facc607cc45008", "is_reserved": 0, "lon": -77.00180683333333, "is_disabled": 0, "fusion_lat": 0.0, "lat": 38.912009166666664, "bike_id": "f22927c8dbffda23d6facc607cc45008", "fusion_lon": 0.0}, {"rental_uris": {"ios": "https://dc.lft.to/lastmile_qr_scan", "android": "https://dc.lft.to/lastmile_qr_scan"}, "type": "electric_scooter", "name": "ada7f0de6602fc033fafb0c6ebc64606", "is_reserved": 0, "lon": -76.989976, "is_disabled": 0, "fusion_lat": 0.0, "lat": 38.86423966666667, "bike_id": "ada7f0de6602fc033fafb0c6ebc64606", "fusion_lon": 0.0}, {"rental_uris": {"ios": "https://dc.lft.to/lastmile_qr_scan", "android": "https://dc.lft.to/lastmile_qr_scan"}, "type": "electric_bike", "name": "8e3a077567720f059ffd9ab4a22cce8c", "is_reserved": 0, "lon": -77.12925916666667, "is_disabled": 0, "fusion_lat": 0.0, "lat": 38.865872, "bike_id": "8e3a077567720f059ffd9ab4a22cce8c", "fusion_lon": 0.0}, {"rental_uris": {"ios": "https://dc.lft.to/lastmile_qr_scan", "android": "https://dc.lft.to/lastmile_qr_scan"}, "type": "electric_scooter", "name": "daf557d59b877822ac693911bc4ee809", "is_reserved": 0, "lon": -77.03859233333333, "is_disabled": 0, "fusion_lat": 0.0, "lat": 38.9171525, "bike_id": "daf557d59b877822ac693911bc4ee809", "fusion_lon": 0.0}, {"rental_uris": {"ios": "https://dc.lft.to/lastmile_qr_scan", "android": "https://dc.lft.to/lastmile_qr_scan"}, "type": "electric_scooter", "name": "1b2d2d20ec9d97acae71b55b67aca134", "is_reserved": 0, "lon": -77.03825483333334, "is_disabled": 0, "fusion_lat": 0.0, "lat": 38.96265283333334, "bike_id": "1b2d2d20ec9d97acae71b55b67aca134", "fusion_lon": 0.0}, {"rental_uris": {"ios": "https://dc.lft.to/lastmile_qr_scan", "android": "https://dc.lft.to/lastmile_qr_scan"}, "type": "electric_scooter", "name": "3aa918d4544f5b69ce86b70f93a8d698", "is_reserved": 0, "lon": -77.01186866666667, "is_disabled": 0, "fusion_lat": 0.0, "lat": 38.911159833333336, "bike_id": "3aa918d4544f5b69ce86b70f93a8d698", "fusion_lon": 0.0}, {"rental_uris": {"ios": "https://dc.lft.to/lastmile_qr_scan", "android": "https://dc.lft.to/lastmile_qr_scan"}, "type": "electric_scooter", "name": "c0b476c91ac0511b36e1af622eec5bc8", "is_reserved": 0, "lon": -77.03042116666667, "is_disabled": 0, "fusion_lat": 0.0, "lat": 38.99038783333334, "bike_id": "c0b476c91ac0511b36e1af622eec5bc8", "fusion_lon": 0.0}, {"rental_uris": {"ios": "https://dc.lft.to/lastmile_qr_scan", "android": "https://dc.lft.to/lastmile_qr_scan"}, "type": "electric_scooter", "name": "361a8722979df1728d0286a2b6c104bf", "is_reserved": 0, "lon": -76.99361216666667, "is_disabled": 0, "fusion_lat": 0.0, "lat": 38.900398, "bike_id": "361a8722979df1728d0286a2b6c104bf", "fusion_lon": 0.0}, {"rental_uris": {"ios": "https://dc.lft.to/lastmile_qr_scan", "android": "https://dc.lft.to/lastmile_qr_scan"}, "type": "electric_scooter", "name": "ae2a0e6eb75470a4ae2787ee7acd61ac", "is_reserved": 0, "lon": -77.05695233333333, "is_disabled": 0, "fusion_lat": 0.0, "lat": 38.937178, "bike_id": "ae2a0e6eb75470a4ae2787ee7acd61ac", "fusion_lon": 0.0}, {"rental_uris": {"ios": "https://dc.lft.to/lastmile_qr_scan", "android": "https://dc.lft.to/lastmile_qr_scan"}, "type": "electric_scooter", "name": "831375a10804fe7104b15bde48d44c84", "is_reserved": 0, "lon": -77.03474666666666, "is_disabled": 0, "fusion_lat": 0.0, "lat": 38.909738, "bike_id": "831375a10804fe7104b15bde48d44c84", "fusion_lon": 0.0}, {"rental_uris": {"ios": "https://dc.lft.to/lastmile_qr_scan", "android": "https://dc.lft.to/lastmile_qr_scan"}, "type": "electric_scooter", "name": "89b7e3096b7a579771754909001f33fb", "is_reserved": 0, "lon": -77.01958433333333, "is_disabled": 0, "fusion_lat": 0.0, "lat": 38.931386333333336, "bike_id": "89b7e3096b7a579771754909001f33fb", "fusion_lon": 0.0}, {"rental_uris": {"ios": "https://dc.lft.to/lastmile_qr_scan", "android": "https://dc.lft.to/lastmile_qr_scan"}, "type": "electric_scooter", "name": "5a16a96c33f7dccd29609c9c58d734ab", "is_reserved": 0, "lon": -77.02147916666667, "is_disabled": 0, "fusion_lat": 0.0, "lat": 38.916226333333334, "bike_id": "5a16a96c33f7dccd29609c9c58d734ab", "fusion_lon": 0.0}, {"rental_uris": {"ios": "https://dc.lft.to/lastmile_qr_scan", "android": "https://dc.lft.to/lastmile_qr_scan"}, "type": "electric_scooter", "name": "cb25b87798d03d733dcd081b7e2858ab", "is_reserved": 0, "lon": -77.02391066666667, "is_disabled": 0, "fusion_lat": 0.0, "lat": 38.92079866666667, "bike_id": "cb25b87798d03d733dcd081b7e2858ab", "fusion_lon": 0.0}, {"rental_uris": {"ios": "https://dc.lft.to/lastmile_qr_scan", "android": "https://dc.lft.to/lastmile_qr_scan"}, "type": "electric_scooter", "name": "4f00880f4ac0da73815944491e1f327b", "is_reserved": 0, "lon": -77.01715866666666, "is_disabled": 0, "fusion_lat": 0.0, "lat": 38.914118333333334, "bike_id": "4f00880f4ac0da73815944491e1f327b", "fusion_lon": 0.0}, {"rental_uris": {"ios": "https://dc.lft.to/lastmile_qr_scan", "android": "https://dc.lft.to/lastmile_qr_scan"}, "type": "electric_scooter", "name": "ea970c98c2aa6b27b2b7efb2e5f1ca54", "is_reserved": 0, "lon": -77.03019033333334, "is_disabled": 0, "fusion_lat": 0.0, "lat": 38.931217833333335, "bike_id": "ea970c98c2aa6b27b2b7efb2e5f1ca54", "fusion_lon": 0.0}, {"rental_uris": {"ios": "https://dc.lft.to/lastmile_qr_scan", "android": "https://dc.lft.to/lastmile_qr_scan"}, "type": "electric_scooter", "name": "f28184c1a9dbafca4af4e1c268a1dd9e", "is_reserved": 0, "lon": -77.03865566666667, "is_disabled": 0, "fusion_lat": 0.0, "lat": 38.92483416666666, "bike_id": "f28184c1a9dbafca4af4e1c268a1dd9e", "fusion_lon": 0.0}, {"rental_uris": {"ios": "https://dc.lft.to/lastmile_qr_scan", "android": "https://dc.lft.to/lastmile_qr_scan"}, "type": "electric_bike", "name": "0f323595e7d26848173a91c38227fc53", "is_reserved": 0, "lon": -77.08363616666666, "is_disabled": 0, "fusion_lat": 0.0, "lat": 38.85418666666666, "bike_id": "0f323595e7d26848173a91c38227fc53", "fusion_lon": 0.0}, {"rental_uris": {"ios": "https://dc.lft.to/lastmile_qr_scan", "android": "https://dc.lft.to/lastmile_qr_scan"}, "type": "electric_scooter", "name": "5700183aa9f31f13f58e7fc61981a489", "is_reserved": 0, "lon": -76.96547483333333, "is_disabled": 0, "fusion_lat": 0.0, "lat": 38.878874333333336, "bike_id": "5700183aa9f31f13f58e7fc61981a489", "fusion_lon": 0.0}, {"rental_uris": {"ios": "https://dc.lft.to/lastmile_qr_scan", "android": "https://dc.lft.to/lastmile_qr_scan"}, "type": "electric_scooter", "name": "86d7225a1b9ec5924a08ba16f811d8c2", "is_reserved": 0, "lon": -77.03812216666667, "is_disabled": 0, "fusion_lat": 0.0, "lat": 38.930619666666665, "bike_id": "86d7225a1b9ec5924a08ba16f811d8c2", "fusion_lon": 0.0}, {"rental_uris": {"ios": "https://dc.lft.to/lastmile_qr_scan", "android": "https://dc.lft.to/lastmile_qr_scan"}, "type": "electric_scooter", "name": "fc2386257b1f021035ceba579324f89c", "is_reserved": 0, "lon": -77.02299666666667, "is_disabled": 0, "fusion_lat": 0.0, "lat": 38.89870283333333, "bike_id": "fc2386257b1f021035ceba579324f89c", "fusion_lon": 0.0}, {"rental_uris": {"ios": "https://dc.lft.to/lastmile_qr_scan", "android": "https://dc.lft.to/lastmile_qr_scan"}, "type": "electric_bike", "name": "01d4f36b13bd09faa3f28aab62bcf8e0", "is_reserved": 0, "lon": -76.977001, "is_disabled": 0, "fusion_lat": 0.0, "lat": 38.82208283333333, "bike_id": "01d4f36b13bd09faa3f28aab62bcf8e0", "fusion_lon": 0.0}, {"rental_uris": {"ios": "https://dc.lft.to/lastmile_qr_scan", "android": "https://dc.lft.to/lastmile_qr_scan"}, "type": "electric_scooter", "name": "1b4d01a091a7e276e2d94307f4e4ad25", "is_reserved": 0, "lon": -77.03419083333333, "is_disabled": 0, "fusion_lat": 0.0, "lat": 38.9118985, "bike_id": "1b4d01a091a7e276e2d94307f4e4ad25", "fusion_lon": 0.0}, {"rental_uris": {"ios": "https://dc.lft.to/lastmile_qr_scan", "android": "https://dc.lft.to/lastmile_qr_scan"}, "type": "electric_scooter", "name": "7eae55a29bfa304876c138797382a35d", "is_reserved": 0, "lon": -77.028271, "is_disabled": 0, "fusion_lat": 0.0, "lat": 38.8874045, "bike_id": "7eae55a29bfa304876c138797382a35d", "fusion_lon": 0.0}, {"rental_uris": {"ios": "https://dc.lft.to/lastmile_qr_scan", "android": "https://dc.lft.to/lastmile_qr_scan"}, "type": "electric_scooter", "name": "27c2b9295619491af2447af4b94764d8", "is_reserved": 0, "lon": -77.048347, "is_disabled": 0, "fusion_lat": 0.0, "lat": 38.909776666666666, "bike_id": "27c2b9295619491af2447af4b94764d8", "fusion_lon": 0.0}, {"rental_uris": {"ios": "https://dc.lft.to/lastmile_qr_scan", "android": "https://dc.lft.to/lastmile_qr_scan"}, "type": "electric_scooter", "name": "5cadc358b9d90ffda14877d0d437a253", "is_reserved": 0, "lon": -76.99734633333334, "is_disabled": 0, "fusion_lat": 0.0, "lat": 38.92051883333333, "bike_id": "5cadc358b9d90ffda14877d0d437a253", "fusion_lon": 0.0}, {"rental_uris": {"ios": "https://dc.lft.to/lastmile_qr_scan", "android": "https://dc.lft.to/lastmile_qr_scan"}, "type": "electric_scooter", "name": "e14c850c8a83ef6a80eee351b80efa27", "is_reserved": 0, "lon": -77.040741, "is_disabled": 0, "fusion_lat": 0.0, "lat": 38.91593266666667, "bike_id": "e14c850c8a83ef6a80eee351b80efa27", "fusion_lon": 0.0}, {"rental_uris": {"ios": "https://dc.lft.to/lastmile_qr_scan", "android": "https://dc.lft.to/lastmile_qr_scan"}, "type": "electric_scooter", "name": "76d7020b6d87fd2e7e4a35205560354d", "is_reserved": 0, "lon": -77.02423183333333, "is_disabled": 0, "fusion_lat": 0.0, "lat": 38.90414283333333, "bike_id": "76d7020b6d87fd2e7e4a35205560354d", "fusion_lon": 0.0}, {"rental_uris": {"ios": "https://dc.lft.to/lastmile_qr_scan", "android": "https://dc.lft.to/lastmile_qr_scan"}, "type": "electric_scooter", "name": "80ab3696bffa44049e2f9ce3266b81ea", "is_reserved": 0, "lon": -77.06373966666666, "is_disabled": 0, "fusion_lat": 0.0, "lat": 38.93563133333333, "bike_id": "80ab3696bffa44049e2f9ce3266b81ea", "fusion_lon": 0.0}, {"rental_uris": {"ios": "https://dc.lft.to/lastmile_qr_scan", "android": "https://dc.lft.to/lastmile_qr_scan"}, "type": "electric_scooter", "name": "24678ad38637ac77b03faa611b63ba83", "is_reserved": 0, "lon": -77.03813866666667, "is_disabled": 0, "fusion_lat": 0.0, "lat": 38.93118616666667, "bike_id": "24678ad38637ac77b03faa611b63ba83", "fusion_lon": 0.0}, {"rental_uris": {"ios": "https://dc.lft.to/lastmile_qr_scan", "android": "https://dc.lft.to/lastmile_qr_scan"}, "type": "electric_scooter", "name": "41285d165261a695605b02d1ed8857fb", "is_reserved": 0, "lon": -77.04157883333333, "is_disabled": 0, "fusion_lat": 0.0, "lat": 38.919325666666666, "bike_id": "41285d165261a695605b02d1ed8857fb", "fusion_lon": 0.0}, {"rental_uris": {"ios": "https://dc.lft.to/lastmile_qr_scan", "android": "https://dc.lft.to/lastmile_qr_scan"}, "type": "electric_bike", "name": "833f948f85ff37467f12d5b144c9d977", "is_reserved": 0, "lon": -76.95255533333334, "is_disabled": 0, "fusion_lat": 0.0, "lat": 38.90697883333333, "bike_id": "833f948f85ff37467f12d5b144c9d977", "fusion_lon": 0.0}, {"rental_uris": {"ios": "https://dc.lft.to/lastmile_qr_scan", "android": "https://dc.lft.to/lastmile_qr_scan"}, "type": "electric_scooter", "name": "bf8ba9c2c3f52df0c23b1ca5c08a691e", "is_reserved": 0, "lon": -77.03352816666667, "is_disabled": 0, "fusion_lat": 0.0, "lat": 38.90102266666667, "bike_id": "bf8ba9c2c3f52df0c23b1ca5c08a691e", "fusion_lon": 0.0}, {"rental_uris": {"ios": "https://dc.lft.to/lastmile_qr_scan", "android": "https://dc.lft.to/lastmile_qr_scan"}, "type": "electric_scooter", "name": "fa65e93335c500b449d971e0bc596a27", "is_reserved": 0, "lon": -77.01290266666666, "is_disabled": 0, "fusion_lat": 0.0, "lat": 38.91046516666667, "bike_id": "fa65e93335c500b449d971e0bc596a27", "fusion_lon": 0.0}, {"rental_uris": {"ios": "https://dc.lft.to/lastmile_qr_scan", "android": "https://dc.lft.to/lastmile_qr_scan"}, "type": "electric_bike", "name": "d47447fa1f6e9ede1889a06f4a2bf2ae", "is_reserved": 0, "lon": -77.126477, "is_disabled": 0, "fusion_lat": 0.0, "lat": 38.819055166666665, "bike_id": "d47447fa1f6e9ede1889a06f4a2bf2ae", "fusion_lon": 0.0}, {"rental_uris": {"ios": "https://dc.lft.to/lastmile_qr_scan", "android": "https://dc.lft.to/lastmile_qr_scan"}, "type": "electric_scooter", "name": "8d083a1b91c76f3ffd5c685adbf7c7a6", "is_reserved": 0, "lon": -77.033583, "is_disabled": 0, "fusion_lat": 0.0, "lat": 38.90034766666667, "bike_id": "8d083a1b91c76f3ffd5c685adbf7c7a6", "fusion_lon": 0.0}, {"rental_uris": {"ios": "https://dc.lft.to/lastmile_qr_scan", "android": "https://dc.lft.to/lastmile_qr_scan"}, "type": "electric_scooter", "name": "9f86411f2d8b64e0a09449cc79ec1c20", "is_reserved": 0, "lon": -77.0358345, "is_disabled": 0, "fusion_lat": 0.0, "lat": 38.927897333333334, "bike_id": "9f86411f2d8b64e0a09449cc79ec1c20", "fusion_lon": 0.0}, {"rental_uris": {"ios": "https://dc.lft.to/lastmile_qr_scan", "android": "https://dc.lft.to/lastmile_qr_scan"}, "type": "electric_bike", "name": "36f19ed70794255e31a76bdfef9cbe74", "is_reserved": 0, "lon": -77.07899933333333, "is_disabled": 0, "fusion_lat": 0.0, "lat": 38.83934516666667, "bike_id": "36f19ed70794255e31a76bdfef9cbe74", "fusion_lon": 0.0}, {"rental_uris": {"ios": "https://dc.lft.to/lastmile_qr_scan", "android": "https://dc.lft.to/lastmile_qr_scan"}, "type": "electric_scooter", "name": "21438f472cfc6548c3e0c773f503b30d", "is_reserved": 0, "lon": -77.032179, "is_disabled": 0, "fusion_lat": 0.0, "lat": 38.907332, "bike_id": "21438f472cfc6548c3e0c773f503b30d", "fusion_lon": 0.0}, {"rental_uris": {"ios": "https://dc.lft.to/lastmile_qr_scan", "android": "https://dc.lft.to/lastmile_qr_scan"}, "type": "electric_scooter", "name": "e4455745d1c821c1fe05324ac88ad6ef", "is_reserved": 0, "lon": -77.07218033333334, "is_disabled": 0, "fusion_lat": 0.0, "lat": 38.91977133333333, "bike_id": "e4455745d1c821c1fe05324ac88ad6ef", "fusion_lon": 0.0}, {"rental_uris": {"ios": "https://dc.lft.to/lastmile_qr_scan", "android": "https://dc.lft.to/lastmile_qr_scan"}, "type": "electric_bike", "name": "2e43f93069d18ca613ceedd92005ae2b", "is_reserved": 0, "lon": -76.9877765, "is_disabled": 0, "fusion_lat": 0.0, "lat": 38.84478333333333, "bike_id": "2e43f93069d18ca613ceedd92005ae2b", "fusion_lon": 0.0}, {"rental_uris": {"ios": "https://dc.lft.to/lastmile_qr_scan", "android": "https://dc.lft.to/lastmile_qr_scan"}, "type": "electric_scooter", "name": "6043ddfe24f17fd2cec0362ded804167", "is_reserved": 0, "lon": -77.01778033333333, "is_disabled": 0, "fusion_lat": 0.0, "lat": 38.920105, "bike_id": "6043ddfe24f17fd2cec0362ded804167", "fusion_lon": 0.0}, {"rental_uris": {"ios": "https://dc.lft.to/lastmile_qr_scan", "android": "https://dc.lft.to/lastmile_qr_scan"}, "type": "electric_scooter", "name": "cb10221e3a56b926b03909221daeb24a", "is_reserved": 0, "lon": -77.01206133333334, "is_disabled": 0, "fusion_lat": 0.0, "lat": 38.92117866666667, "bike_id": "cb10221e3a56b926b03909221daeb24a", "fusion_lon": 0.0}, {"rental_uris": {"ios": "https://dc.lft.to/lastmile_qr_scan", "android": "https://dc.lft.to/lastmile_qr_scan"}, "type": "electric_scooter", "name": "d5fae18f87eb84ec53f0b6d35ed101db", "is_reserved": 0, "lon": -77.05783866666667, "is_disabled": 0, "fusion_lat": 0.0, "lat": 38.900996666666664, "bike_id": "d5fae18f87eb84ec53f0b6d35ed101db", "fusion_lon": 0.0}, {"rental_uris": {"ios": "https://dc.lft.to/lastmile_qr_scan", "android": "https://dc.lft.to/lastmile_qr_scan"}, "type": "electric_scooter", "name": "c08f468f22ab89b0273336a0acc93592", "is_reserved": 0, "lon": -77.02090033333333, "is_disabled": 0, "fusion_lat": 0.0, "lat": 38.881932666666664, "bike_id": "c08f468f22ab89b0273336a0acc93592", "fusion_lon": 0.0}, {"rental_uris": {"ios": "https://dc.lft.to/lastmile_qr_scan", "android": "https://dc.lft.to/lastmile_qr_scan"}, "type": "electric_scooter", "name": "5cc2e4180d0aaba70d8adb02e41c07f7", "is_reserved": 0, "lon": -77.00328383333333, "is_disabled": 0, "fusion_lat": 0.0, "lat": 38.91348633333333, "bike_id": "5cc2e4180d0aaba70d8adb02e41c07f7", "fusion_lon": 0.0}, {"rental_uris": {"ios": "https://dc.lft.to/lastmile_qr_scan", "android": "https://dc.lft.to/lastmile_qr_scan"}, "type": "electric_scooter", "name": "a6f3bb794496d354a2cd2ba5073ea6b1", "is_reserved": 0, "lon": -77.00906783333333, "is_disabled": 0, "fusion_lat": 0.0, "lat": 38.881783, "bike_id": "a6f3bb794496d354a2cd2ba5073ea6b1", "fusion_lon": 0.0}, {"rental_uris": {"ios": "https://dc.lft.to/lastmile_qr_scan", "android": "https://dc.lft.to/lastmile_qr_scan"}, "type": "electric_scooter", "name": "b5dc37b30f0ee96385e3cb23fe16b485", "is_reserved": 0, "lon": -77.02257166666666, "is_disabled": 0, "fusion_lat": 0.0, "lat": 38.92830216666667, "bike_id": "b5dc37b30f0ee96385e3cb23fe16b485", "fusion_lon": 0.0}, {"rental_uris": {"ios": "https://dc.lft.to/lastmile_qr_scan", "android": "https://dc.lft.to/lastmile_qr_scan"}, "type": "electric_scooter", "name": "af513beb67ca2c44e2c88612406886d2", "is_reserved": 0, "lon": -76.99470466666666, "is_disabled": 0, "fusion_lat": 0.0, "lat": 38.8996915, "bike_id": "af513beb67ca2c44e2c88612406886d2", "fusion_lon": 0.0}, {"rental_uris": {"ios": "https://dc.lft.to/lastmile_qr_scan", "android": "https://dc.lft.to/lastmile_qr_scan"}, "type": "electric_scooter", "name": "8fc6a846c7a36c1ef074f14769571352", "is_reserved": 0, "lon": -77.04598533333333, "is_disabled": 0, "fusion_lat": 0.0, "lat": 38.92335816666667, "bike_id": "8fc6a846c7a36c1ef074f14769571352", "fusion_lon": 0.0}, {"rental_uris": {"ios": "https://dc.lft.to/lastmile_qr_scan", "android": "https://dc.lft.to/lastmile_qr_scan"}, "type": "electric_scooter", "name": "5a5f767e171689f641f69f2d98ce42bc", "is_reserved": 0, "lon": -77.03265483333334, "is_disabled": 0, "fusion_lat": 0.0, "lat": 38.904609666666666, "bike_id": "5a5f767e171689f641f69f2d98ce42bc", "fusion_lon": 0.0}, {"rental_uris": {"ios": "https://dc.lft.to/lastmile_qr_scan", "android": "https://dc.lft.to/lastmile_qr_scan"}, "type": "electric_bike", "name": "cf2a9d719e70227d1cde869ed6dc9f5b", "is_reserved": 0, "lon": -76.99918033333333, "is_disabled": 0, "fusion_lat": 0.0, "lat": 38.994712, "bike_id": "cf2a9d719e70227d1cde869ed6dc9f5b", "fusion_lon": 0.0}, {"rental_uris": {"ios": "https://dc.lft.to/lastmile_qr_scan", "android": "https://dc.lft.to/lastmile_qr_scan"}, "type": "electric_scooter", "name": "2c4d5e3f301d54e9bd33f9c28e943894", "is_reserved": 0, "lon": -77.0475365, "is_disabled": 0, "fusion_lat": 0.0, "lat": 38.895923333333336, "bike_id": "2c4d5e3f301d54e9bd33f9c28e943894", "fusion_lon": 0.0}, {"rental_uris": {"ios": "https://dc.lft.to/lastmile_qr_scan", "android": "https://dc.lft.to/lastmile_qr_scan"}, "type": "electric_scooter", "name": "17d8e4ecfcf770f3f851a10f74b7f67c", "is_reserved": 0, "lon": -77.066053, "is_disabled": 0, "fusion_lat": 0.0, "lat": 38.9111135, "bike_id": "17d8e4ecfcf770f3f851a10f74b7f67c", "fusion_lon": 0.0}, {"rental_uris": {"ios": "https://dc.lft.to/lastmile_qr_scan", "android": "https://dc.lft.to/lastmile_qr_scan"}, "type": "electric_scooter", "name": "b1ada67d2c67cde1d6c331e5bb5df5ba", "is_reserved": 0, "lon": -77.05115716666667, "is_disabled": 0, "fusion_lat": 0.0, "lat": 38.925277666666666, "bike_id": "b1ada67d2c67cde1d6c331e5bb5df5ba", "fusion_lon": 0.0}, {"rental_uris": {"ios": "https://dc.lft.to/lastmile_qr_scan", "android": "https://dc.lft.to/lastmile_qr_scan"}, "type": "electric_scooter", "name": "2b805a820e9d8b6d06dd1ac5c97eb63a", "is_reserved": 0, "lon": -77.04658316666666, "is_disabled": 0, "fusion_lat": 0.0, "lat": 38.892814333333334, "bike_id": "2b805a820e9d8b6d06dd1ac5c97eb63a", "fusion_lon": 0.0}, {"rental_uris": {"ios": "https://dc.lft.to/lastmile_qr_scan", "android": "https://dc.lft.to/lastmile_qr_scan"}, "type": "electric_scooter", "name": "d132894076715e5f7b51943608850617", "is_reserved": 0, "lon": -77.01751166666666, "is_disabled": 0, "fusion_lat": 0.0, "lat": 38.914192, "bike_id": "d132894076715e5f7b51943608850617", "fusion_lon": 0.0}, {"rental_uris": {"ios": "https://dc.lft.to/lastmile_qr_scan", "android": "https://dc.lft.to/lastmile_qr_scan"}, "type": "electric_scooter", "name": "b6fe233c863f7dec8bab252df0f51a7c", "is_reserved": 0, "lon": -77.06840466666667, "is_disabled": 0, "fusion_lat": 0.0, "lat": 38.95275683333333, "bike_id": "b6fe233c863f7dec8bab252df0f51a7c", "fusion_lon": 0.0}, {"rental_uris": {"ios": "https://dc.lft.to/lastmile_qr_scan", "android": "https://dc.lft.to/lastmile_qr_scan"}, "type": "electric_scooter", "name": "3c73f7fab42f472ede6882dabc91a201", "is_reserved": 0, "lon": -77.04156916666666, "is_disabled": 0, "fusion_lat": 0.0, "lat": 38.910894166666665, "bike_id": "3c73f7fab42f472ede6882dabc91a201", "fusion_lon": 0.0}, {"rental_uris": {"ios": "https://dc.lft.to/lastmile_qr_scan", "android": "https://dc.lft.to/lastmile_qr_scan"}, "type": "electric_scooter", "name": "5e6b1cb7e10ca149c9b930878701f5f5", "is_reserved": 0, "lon": -77.06104316666666, "is_disabled": 0, "fusion_lat": 0.0, "lat": 38.937084, "bike_id": "5e6b1cb7e10ca149c9b930878701f5f5", "fusion_lon": 0.0}, {"rental_uris": {"ios": "https://dc.lft.to/lastmile_qr_scan", "android": "https://dc.lft.to/lastmile_qr_scan"}, "type": "electric_scooter", "name": "1a6449958a46a6d2ab5716ad8f5b5d9f", "is_reserved": 0, "lon": -77.02693033333334, "is_disabled": 0, "fusion_lat": 0.0, "lat": 38.972447, "bike_id": "1a6449958a46a6d2ab5716ad8f5b5d9f", "fusion_lon": 0.0}, {"rental_uris": {"ios": "https://dc.lft.to/lastmile_qr_scan", "android": "https://dc.lft.to/lastmile_qr_scan"}, "type": "electric_scooter", "name": "c2d09ee42300ce74d1f66ae0f0beb2e9", "is_reserved": 0, "lon": -77.02326916666667, "is_disabled": 0, "fusion_lat": 0.0, "lat": 38.9184075, "bike_id": "c2d09ee42300ce74d1f66ae0f0beb2e9", "fusion_lon": 0.0}, {"rental_uris": {"ios": "https://dc.lft.to/lastmile_qr_scan", "android": "https://dc.lft.to/lastmile_qr_scan"}, "type": "electric_scooter", "name": "1adf0dc566c667a415e20e0ad07de66b", "is_reserved": 0, "lon": -77.0384005, "is_disabled": 0, "fusion_lat": 0.0, "lat": 38.909867, "bike_id": "1adf0dc566c667a415e20e0ad07de66b", "fusion_lon": 0.0}, {"rental_uris": {"ios": "https://dc.lft.to/lastmile_qr_scan", "android": "https://dc.lft.to/lastmile_qr_scan"}, "type": "electric_scooter", "name": "61f12d546ca2a0076ba99649336728f7", "is_reserved": 0, "lon": -77.0020025, "is_disabled": 0, "fusion_lat": 0.0, "lat": 38.902429833333336, "bike_id": "61f12d546ca2a0076ba99649336728f7", "fusion_lon": 0.0}, {"rental_uris": {"ios": "https://dc.lft.to/lastmile_qr_scan", "android": "https://dc.lft.to/lastmile_qr_scan"}, "type": "electric_bike", "name": "78896d43918f50695a6ce5d720b44299", "is_reserved": 0, "lon": -77.0657855, "is_disabled": 0, "fusion_lat": 0.0, "lat": 38.91138316666667, "bike_id": "78896d43918f50695a6ce5d720b44299", "fusion_lon": 0.0}, {"rental_uris": {"ios": "https://dc.lft.to/lastmile_qr_scan", "android": "https://dc.lft.to/lastmile_qr_scan"}, "type": "electric_scooter", "name": "0333fd58394999a5ff467ee03ee6b817", "is_reserved": 0, "lon": -77.04436533333333, "is_disabled": 0, "fusion_lat": 0.0, "lat": 38.912690833333336, "bike_id": "0333fd58394999a5ff467ee03ee6b817", "fusion_lon": 0.0}, {"rental_uris": {"ios": "https://dc.lft.to/lastmile_qr_scan", "android": "https://dc.lft.to/lastmile_qr_scan"}, "type": "electric_scooter", "name": "a4458e3b729ee05f841f54bf419bc4bb", "is_reserved": 0, "lon": -77.03056416666666, "is_disabled": 0, "fusion_lat": 0.0, "lat": 38.89739383333333, "bike_id": "a4458e3b729ee05f841f54bf419bc4bb", "fusion_lon": 0.0}, {"rental_uris": {"ios": "https://dc.lft.to/lastmile_qr_scan", "android": "https://dc.lft.to/lastmile_qr_scan"}, "type": "electric_scooter", "name": "c7fceba6e5c0a99555e136a9acade5c1", "is_reserved": 0, "lon": -76.9828645, "is_disabled": 0, "fusion_lat": 0.0, "lat": 38.90356366666666, "bike_id": "c7fceba6e5c0a99555e136a9acade5c1", "fusion_lon": 0.0}, {"rental_uris": {"ios": "https://dc.lft.to/lastmile_qr_scan", "android": "https://dc.lft.to/lastmile_qr_scan"}, "type": "electric_scooter", "name": "6bd140030a746be4fb9d97067182edc6", "is_reserved": 0, "lon": -77.00204466666666, "is_disabled": 0, "fusion_lat": 0.0, "lat": 38.90039016666667, "bike_id": "6bd140030a746be4fb9d97067182edc6", "fusion_lon": 0.0}, {"rental_uris": {"ios": "https://dc.lft.to/lastmile_qr_scan", "android": "https://dc.lft.to/lastmile_qr_scan"}, "type": "electric_scooter", "name": "29c8a45b001247c7a92bcfdb1faa243c", "is_reserved": 0, "lon": -77.0294, "is_disabled": 0, "fusion_lat": 0.0, "lat": 38.89771066666667, "bike_id": "29c8a45b001247c7a92bcfdb1faa243c", "fusion_lon": 0.0},