{"data": {"bikes": [{"lat": 38.93085416666667, "lon": -77.00206516666667, "is_disabled": 0, "bike_id": "b38b5061d83a22e590ed0a436eecd3b2", "name": "b38b5061d83a22e590ed0a436eecd3b2", "is_reserved": 0, "rental_uris": {"android": "https://dc.lft.to/lastmile_qr_scan", "ios": "https://dc.lft.to/lastmile_qr_scan"}, "type": "electric_scooter", "fusion_lon": 0.0, "fusion_lat": 0.0}, {"lat": 38.9020555, "lon": -77.0480995, "is_disabled": 0, "bike_id": "a90d1ef9041df37628318eded6259438", "name": "a90d1ef9041df37628318eded6259438", "is_reserved": 0, "rental_uris": {"android": "https://dc.lft.to/lastmile_qr_scan", "ios": "https://dc.lft.to/lastmile_qr_scan"}, "type": "electric_scooter", "fusion_lon": 0.0, "fusion_lat": 0.0}, {"lat": 38.884889333333334, "lon": -77.02494383333334, "is_disabled": 0, "bike_id": "d8d13a885768a248fb2a6c7fb69e1f86", "name": "d8d13a885768a248fb2a6c7fb69e1f86", "is_reserved": 0, "rental_uris": {"android": "https://dc.lft.to/lastmile_qr_scan", "ios": "https://dc.lft.to/lastmile_qr_scan"}, "type": "electric_scooter", "fusion_lon": 0.0, "fusion_lat": 0.0}, {"lat": 38.91708116666667, "lon": -77.03864816666666, "is_disabled": 0, "bike_id": "b64c6ea3f9561549142dc50382d64ba1", "name": "b64c6ea3f9561549142dc50382d64ba1", "is_reserved": 0, "rental_uris": {"android": "https://dc.lft.to/lastmile_qr_scan", "ios": "https://dc.lft.to/lastmile_qr_scan"}, "type": "electric_scooter", "fusion_lon": 0.0, "fusion_lat": 0.0}, {"lat": 38.91831766666667, "lon": -77.03649283333333, "is_disabled": 0, "bike_id": "cda04f0099f96b414388b88e7095f8ae", "name": "cda04f0099f96b414388b88e7095f8ae", "is_reserved": 0, "rental_uris": {"android": "https://dc.lft.to/lastmile_qr_scan", "ios": "https://dc.lft.to/lastmile_qr_scan"}, "type": "electric_scooter", "fusion_lon": 0.0, "fusion_lat": 0.0}, {"lat": 38.91260616666667, "lon": -77.0386545, "is_disabled": 0, "bike_id": "a5e64ee52fdd8ab4a845096881beb987", "name": "a5e64ee52fdd8ab4a845096881beb987", "is_reserved": 0, "rental_uris": {"android": "https://dc.lft.to/lastmile_qr_scan", "ios": "https://dc.lft.to/lastmile_qr_scan"}, "type": "electric_scooter", "fusion_lon": 0.0, "fusion_lat": 0.0}, {"lat": 38.9192925, "lon": -77.02421766666667, "is_disabled": 0, "bike_id": "5c811df5a6e110ca156d406a23b3b1bf", "name": "5c811df5a6e110ca156d406a23b3b1bf", "is_reserved": 0, "rental_uris": {"android": "https://dc.lft.to/lastmile_qr_scan", "ios": "https://dc.lft.to/lastmile_qr_scan"}, "type": "electric_scooter", "fusion_lon": 0.0, "fusion_lat": 0.0}, {"lat": 38.9141635, "lon": -77.029173, "is_disabled": 0, "bike_id": "e4a2475e40642fd2080563a920087328", "name": "e4a2475e40642fd2080563a920087328", "is_reserved": 0, "rental_uris": {"android": "https://dc.lft.to/lastmile_qr_scan", "ios": "https://dc.lft.to/lastmile_qr_scan"}, "type": "electric_scooter", "fusion_lon": 0.0, "fusion_lat": 0.0}, {"lat": 38.892586333333334, "lon": -77.0334855, "is_disabled": 0, "bike_id": "47344f999deb5d01d502b6d67110879f", "name": "47344f999deb5d01d502b6d67110879f", "is_reserved": 0, "rental_uris": {"android": "https://dc.lft.to/lastmile_qr_scan", "ios": "https://dc.lft.to/lastmile_qr_scan"}, "type": "electric_scooter", "fusion_lon": 0.0, "fusion_lat": 0.0}, {"lat": 38.90905983333333, "lon": -77.04427366666667, "is_disabled": 0, "bike_id": "ce972068b1523b7ae1084af43de72399", "name": "ce972068b1523b7ae1084af43de72399", "is_reserved": 0, "rental_uris": {"android": "https://dc.lft.to/lastmile_qr_scan", "ios": "https://dc.lft.to/lastmile_qr_scan"}, "type": "electric_scooter", "fusion_lon": 0.0, "fusion_lat": 0.0}, {"lat": 38.87178383333333, "lon": -77.23391666666667, "is_disabled": 0, "bike_id": "c91cdf71377d7958bd1f64bb555d1437", "name": "c91cdf71377d7958bd1f64bb555d1437", "is_reserved": 0, "rental_uris": {"android": "https://dc.lft.to/lastmile_qr_scan", "ios": "https://dc.lft.to/lastmile_qr_scan"}, "type": "electric_bike", "fusion_lon": 0.0, "fusion_lat": 0.0}, {"lat": 38.80741116666667, "lon": -77.096901, "is_disabled": 0, "bike_id": "249786cfe06303f0d9b443adc23336e0", "name": "249786cfe06303f0d9b443adc23336e0", "is_reserved": 0, "rental_uris": {"android": "https://dc.lft.to/lastmile_qr_scan", "ios": "https://dc.lft.to/lastmile_qr_scan"}, "type": "electric_bike", "fusion_lon": 0.0, "fusion_lat": 0.0}, {"lat": 38.909520666666666, "lon": -77.03206766666666, "is_disabled": 0, "bike_id": "623593ed6a577ad16e94b3849bba6ef5", "name": "623593ed6a577ad16e94b3849bba6ef5", "is_reserved": 0, "rental_uris": {"android": "https://dc.lft.to/lastmile_qr_scan", "ios": "https://dc.lft.to/lastmile_qr_scan"}, "type": "electric_scooter", "fusion_lon": 0.0, "fusion_lat": 0.0}, {"lat": 38.9232195, "lon": -77.01948833333333, "is_disabled": 0, "bike_id": "5db50f730adb65ce6a23cfcaab01d3c4", "name": "5db50f730adb65ce6a23cfcaab01d3c4", "is_reserved": 0, "rental_uris": {"android": "https://dc.lft.to/lastmile_qr_scan", "ios": "https://dc.lft.to/lastmile_qr_scan"}, "type": "electric_scooter", "fusion_lon": 0.0, "fusion_lat": 0.0}, {"lat": 38.90394533333333, "lon": -77.0386105, "is_disabled": 0, "bike_id": "4364edfbe7dd04c983fea1e1dfe14cd7", "name": "4364edfbe7dd04c983fea1e1dfe14cd7", "is_reserved": 0, "rental_uris": {"android": "https://dc.lft.to/lastmile_qr_scan", "ios": "https://dc.lft.to/lastmile_qr_scan"}, "type": "electric_scooter", "fusion_lon": 0.0, "fusion_lat": 0.0}, {"lat": 38.8729115, "lon": -77.01520066666667, "is_disabled": 0, "bike_id": "936d43f14c4f410452313c30ce8c8273", "name": "936d43f14c4f410452313c30ce8c8273", "is_reserved": 0, "rental_uris": {"android": "https://dc.lft.to/lastmile_qr_scan", "ios": "https://dc.lft.to/lastmile_qr_scan"}, "type": "electric_scooter", "fusion_lon": 0.0, "fusion_lat": 0.0}, {"lat": 38.8942505, "lon": -77.09449533333333, "is_disabled": 0, "bike_id": "aaf2fa53c746d149dbafe3a261e58448", "name": "aaf2fa53c746d149dbafe3a261e58448", "is_reserved": 0, "rental_uris": {"android": "https://dc.lft.to/lastmile_qr_scan", "ios": "https://dc.lft.to/lastmile_qr_scan"}, "type": "electric_bike", "fusion_lon": 0.0, "fusion_lat": 0.0}, {"lat": 38.921476166666665, "lon": -77.02077166666666, "is_disabled": 0, "bike_id": "d4767b2a68b40f0a4caef4d41a6d47bf", "name": "d4767b2a68b40f0a4caef4d41a6d47bf", "is_reserved": 0, "rental_uris": {"android": "https://dc.lft.to/lastmile_qr_scan", "ios": "https://dc.lft.to/lastmile_qr_scan"}, "type": "electric_scooter", "fusion_lon": 0.0, "fusion_lat": 0.0}, {"lat": 38.97481616666666, "lon": -76.98679633333333, "is_disabled": 0, "bike_id": "8a5a0302a6ca34ff0577fc3a82fd84de", "name": "8a5a0302a6ca34ff0577fc3a82fd84de", "is_reserved": 0, "rental_uris": {"android": "https://dc.lft.to/lastmile_qr_scan", "ios": "https://dc.lft.to/lastmile_qr_scan"}, "type": "electric_bike", "fusion_lon": 0.0, "fusion_lat": 0.0}, {"lat": 38.929501, "lon": -77.05503816666666, "is_disabled": 0, "bike_id": "92d1720ace8b922ddb9829516d317ba7", "name": "92d1720ace8b922ddb9829516d317ba7", "is_reserved": 0, "rental_uris": {"android": "https://dc.lft.to/lastmile_qr_scan", "ios": "https://dc.lft.to/lastmile_qr_scan"}, "type": "electric_scooter", "fusion_lon": 0.0, "fusion_lat": 0.0}, {"lat": 38.893954, "lon": -77.02446383333333, "is_disabled": 0, "bike_id": "ca64d6812cc077a94ae087f222af2f89", "name": "ca64d6812cc077a94ae087f222af2f89", "is_reserved": 0, "rental_uris": {"android": "https://dc.lft.to/lastmile_qr_scan", "ios": "https://dc.lft.to/lastmile_qr_scan"}, "type": "electric_scooter", "fusion_lon": 0.0, "fusion_lat": 0.0}, {"lat": 39.022992333333335, "lon": -77.02106533333334, "is_disabled": 0, "bike_id": "7b8834db7f71578da942dcc6ba55301a", "name": "7b8834db7f71578da942dcc6ba55301a", "is_reserved": 0, "rental_uris": {"android": "https://dc.lft.to/lastmile_qr_scan", "ios": "https://dc.lft.to/lastmile_qr_scan"}, "type": "electric_bike", "fusion_lon": 0.0, "fusion_lat": 0.0}, {"lat": 38.92978466666667, "lon": -77.02790016666667, "is_disabled": 0, "bike_id": "020798ced3f9e1652715eb82dce4c02a", "name": "020798ced3f9e1652715eb82dce4c02a", "is_reserved": 0, "rental_uris": {"android": "https://dc.lft.to/lastmile_qr_scan", "ios": "https://dc.lft.to/lastmile_qr_scan"}, "type": "electric_scooter", "fusion_lon": 0.0, "fusion_lat": 0.0}, {"lat": 38.884561833333336, "lon": -76.99432933333334, "is_disabled": 0, "bike_id": "2c66f7af458f7a7c2c1f70f91445fa84", "name": "2c66f7af458f7a7c2c1f70f91445fa84", "is_reserved": 0, "rental_uris": {"android": "https://dc.lft.to/lastmile_qr_scan", "ios": "https://dc.lft.to/lastmile_qr_scan"}, "type": "electric_scooter", "fusion_lon": 0.0, "fusion_lat": 0.0}, {"lat": 38.905378, "lon": -77.05769816666667, "is_disabled": 0, "bike_id": "aa7167f8b06c073d09a39a7a7abfce80", "name": "aa7167f8b06c073d09a39a7a7abfce80", "is_reserved": 0, "rental_uris": {"android": "https://dc.lft.to/lastmile_qr_scan", "ios": "https://dc.lft.to/lastmile_qr_scan"}, "type": "electric_scooter", "fusion_lon": 0.0, "fusion_lat": 0.0}, {"lat": 38.90418316666667, "lon": -77.02045416666667, "is_disabled": 0, "bike_id": "13bc51d4f7a220a74dd2271c8b746200", "name": "13bc51d4f7a220a74dd2271c8b746200", "is_reserved": 0, "rental_uris": {"android": "https://dc.lft.to/lastmile_qr_scan", "ios": "https://dc.lft.to/lastmile_qr_scan"}, "type": "electric_scooter", "fusion_lon": 0.0, "fusion_lat": 0.0}, {"lat": 38.911863833333335, "lon": -77.0218815, "is_disabled": 0, "bike_id": "e5027ec0fb8aeff4106fa038d1775d17", "name": "e5027ec0fb8aeff4106fa038d1775d17", "is_reserved": 0, "rental_uris": {"android": "https://dc.lft.to/lastmile_qr_scan", "ios": "https://dc.lft.to/lastmile_qr_scan"}, "type": "electric_scooter", "fusion_lon": 0.0, "fusion_lat": 0.0}, {"lat": 38.909629, "lon": -77.03287266666666, "is_disabled": 0, "bike_id": "920f31eed93ad8aabd1cfce74d24893b", "name": "920f31eed93ad8aabd1cfce74d24893b", "is_reserved": 0, "rental_uris": {"android": "https://dc.lft.to/lastmile_qr_scan", "ios": "https://dc.lft.to/lastmile_qr_scan"}, "type": "electric_scooter", "fusion_lon": 0.0, "fusion_lat": 0.0}, {"lat": 38.805096166666665, "lon": -77.04811683333334, "is_disabled": 0, "bike_id": "7747e19e11f35135ff974e64f0466b6a", "name": "7747e19e11f35135ff974e64f0466b6a", "is_reserved": 0, "rental_uris": {"android": "https://dc.lft.to/lastmile_qr_scan", "ios": "https://dc.lft.to/lastmile_qr_scan"}, "type": "electric_bike", "fusion_lon": 0.0, "fusion_lat": 0.0}, {"lat": 38.90739333333333, "lon": -77.03248916666666, "is_disabled": 0, "bike_id": "9c8aaef82a8137d17b25313227c63c0f", "name": "9c8aaef82a8137d17b25313227c63c0f", "is_reserved": 0, "rental_uris": {"android": "https://dc.lft.to/lastmile_qr_scan", "ios": "https://dc.lft.to/lastmile_qr_scan"}, "type": "electric_scooter", "fusion_lon": 0.0, "fusion_lat": 0.0}, {"lat": 38.89980666666666, "lon": -76.99489583333333, "is_disabled": 0, "bike_id": "8640b288bf2eaca0d2497354af963bab", "name": "8640b288bf2eaca0d2497354af963bab", "is_reserved": 0, "rental_uris": {"android": "https://dc.lft.to/lastmile_qr_scan", "ios": "https://dc.lft.to/lastmile_qr_scan"}, "type": "electric_scooter", "fusion_lon": 0.0, "fusion_lat": 0.0}, {"lat": 38.91700866666667, "lon": -77.03830216666667, "is_disabled": 0, "bike_id": "1f58c20242f36f912c5e7c3e64474956", "name": "1f58c20242f36f912c5e7c3e64474956", "is_reserved": 0, "rental_uris": {"android": "https://dc.lft.to/lastmile_qr_scan", "ios": "https://dc.lft.to/lastmile_qr_scan"}, "type": "electric_scooter", "fusion_lon": 0.0, "fusion_lat": 0.0}, {"lat": 38.90033366666667, "lon": -77.02187816666667, "is_disabled": 0, "bike_id": "6858d4bc488e059824a00527c60546f0", "name": "6858d4bc488e059824a00527c60546f0", "is_reserved": 0, "rental_uris": {"android": "https://dc.lft.to/lastmile_qr_scan", "ios": "https://dc.lft.to/lastmile_qr_scan"}, "type": "electric_scooter", "fusion_lon": 0.0, "fusion_lat": 0.0}, {"lat": 38.897344, "lon": -77.01913916666666, "is_disabled": 0, "bike_id": "16f75d95246e04f884ab0a0ca2df153b", "name": "16f75d95246e04f884ab0a0ca2df153b", "is_reserved": 0, "rental_uris": {"android": "https://dc.lft.to/lastmile_qr_scan", "ios": "https://dc.lft.to/lastmile_qr_scan"}, "type": "electric_scooter", "fusion_lon": 0.0, "fusion_lat": 0.0}, {"lat": 38.90159933333333, "lon": -77.05148816666667, "is_disabled": 0, "bike_id": "0403c6089c7732a60141df5e195f61a3", "name": "0403c6089c7732a60141df5e195f61a3", "is_reserved": 0, "rental_uris": {"android": "https://dc.lft.to/lastmile_qr_scan", "ios": "https://dc.lft.to/lastmile_qr_scan"}, "type": "electric_scooter", "fusion_lon": 0.0, "fusion_lat": 0.0}, {"lat": 38.903955, "lon": -77.03831833333334, "is_disabled": 0, "bike_id": "5e06edf449ce5530b0451fc8d4f62f4d", "name": "5e06edf449ce5530b0451fc8d4f62f4d", "is_reserved": 0, "rental_uris": {"android": "https://dc.lft.to/lastmile_qr_scan", "ios": "https://dc.lft.to/lastmile_qr_scan"}, "type": "electric_scooter", "fusion_lon": 0.0, "fusion_lat": 0.0}, {"lat": 38.96697983333333, "lon": -77.03406183333334, "is_disabled": 0, "bike_id": "1613fe18e4148e938ea0a342a2620aed", "name": "1613fe18e4148e938ea0a342a2620aed", "is_reserved": 0, "rental_uris": {"android": "https://dc.lft.to/lastmile_qr_scan", "ios": "https://dc.lft.to/lastmile_qr_scan"}, "type": "electric_scooter", "fusion_lon": 0.0, "fusion_lat": 0.0}, {"lat": 38.90580533333333, "lon": -77.01423366666667, "is_disabled": 0, "bike_id": "0db03e84555cc20cc2320ee705f72043", "name": "0db03e84555cc20cc2320ee705f72043", "is_reserved": 0, "rental_uris": {"android": "https://dc.lft.to/lastmile_qr_scan", "ios": "https://dc.lft.to/lastmile_qr_scan"}, "type": "electric_scooter", "fusion_lon": 0.0, "fusion_lat": 0.0}, {"lat": 38.967816666666664, "lon": -76.99660066666667, "is_disabled": 0, "bike_id": "88336a52c9dab8ebe49da91002414090", "name": "88336a52c9dab8ebe49da91002414090", "is_reserved": 0, "rental_uris": {"android": "https://dc.lft.to/lastmile_qr_scan", "ios": "https://dc.lft.to/lastmile_qr_scan"}, "type": "electric_bike", "fusion_lon": 0.0, "fusion_lat": 0.0}, {"lat": 38.9009595, "lon": -77.02718716666666, "is_disabled": 0, "bike_id": "7d15e795337955e38cc1406925cc2f79", "name": "7d15e795337955e38cc1406925cc2f79", "is_reserved": 0, "rental_uris": {"android": "https://dc.lft.to/lastmile_qr_scan", "ios": "https://dc.lft.to/lastmile_qr_scan"}, "type": "electric_scooter", "fusion_lon": 0.0, "fusion_lat": 0.0}, {"lat": 38.89764316666667, "lon": -77.05503883333333, "is_disabled": 0, "bike_id": "7169033ea2225446dbd210ef3754e1c0", "name": "7169033ea2225446dbd210ef3754e1c0", "is_reserved": 0, "rental_uris": {"android": "https://dc.lft.to/lastmile_qr_scan", "ios": "https://dc.lft.to/lastmile_qr_scan"}, "type": "electric_scooter", "fusion_lon": 0.0, "fusion_lat": 0.0}, {"lat": 38.918110166666665, "lon": -77.01162316666667, "is_disabled": 0, "bike_id": "9a0bf6b137fd90f277e4bc512a430598", "name": "9a0bf6b137fd90f277e4bc512a430598", "is_reserved": 0, "rental_uris": {"android": "https://dc.lft.to/lastmile_qr_scan", "ios": "https://dc.lft.to/lastmile_qr_scan"}, "type": "electric_scooter", "fusion_lon": 0.0, "fusion_lat": 0.0}, {"lat": 38.92877766666667, "lon": -77.03280083333334, "is_disabled": 0, "bike_id": "3426545dc28f408ef1b3b279def0e6d8", "name": "3426545dc28f408ef1b3b279def0e6d8", "is_reserved": 0, "rental_uris": {"android": "https://dc.lft.to/lastmile_qr_scan", "ios": "https://dc.lft.to/lastmile_qr_scan"}, "type": "electric_scooter", "fusion_lon": 0.0, "fusion_lat": 0.0}, {"lat": 38.91319033333333, "lon": -77.03647016666666, "is_disabled": 0, "bike_id": "16ab4b0ac911f5b0193520f3082e6771", "name": "16ab4b0ac911f5b0193520f3082e6771", "is_reserved": 0, "rental_uris": {"android": "https://dc.lft.to/lastmile_qr_scan", "ios": "https://dc.lft.to/lastmile_qr_scan"}, "type": "electric_scooter", "fusion_lon": 0.0, "fusion_lat": 0.0}, {"lat": 38.91928166666667, "lon": -77.01795283333334, "is_disabled": 0, "bike_id": "2167b16e0e2ab32d65ee5f05b1ceda74", "name": "2167b16e0e2ab32d65ee5f05b1ceda74", "is_reserved": 0, "rental_uris": {"android": "https://dc.lft.to/lastmile_qr_scan", "ios": "https://dc.lft.to/lastmile_qr_scan"}, "type": "electric_scooter", "fusion_lon": 0.0, "fusion_lat": 0.0}, {"lat": 38.914921, "lon": -77.01858133333333, "is_disabled": 0, "bike_id": "d541c1f001898dfdc3ce7f7f50bce484", "name": "d541c1f001898dfdc3ce7f7f50bce484", "is_reserved": 0, "rental_uris": {"android": "https://dc.lft.to/lastmile_qr_scan", "ios": "https://dc.lft.to/lastmile_qr_scan"}, "type": "electric_scooter", "fusion_lon": 0.0, "fusion_lat": 0.0}, {"lat": 38.922705, "lon": -77.032809, "is_disabled": 0, "bike_id": "b1e70555e8ebcf3bd961564b528ee88b", "name": "b1e70555e8ebcf3bd961564b528ee88b", "is_reserved": 0, "rental_uris": {"android": "https://dc.lft.to/lastmile_qr_scan", "ios": "https://dc.lft.to/lastmile_qr_scan"}, "type": "electric_scooter", "fusion_lon": 0.0, "fusion_lat": 0.0}, {"lat": 38.90068616666667, "lon": -77.048611, "is_disabled": 0, "bike_id": "dd3620ba65d4ac2694b3945d3e720964", "name": "dd3620ba65d4ac2694b3945d3e720964", "is_reserved": 0, "rental_uris": {"android": "https://dc.lft.to/lastmile_qr_scan", "ios": "https://dc.lft.to/lastmile_qr_scan"}, "type": "electric_scooter", "fusion_lon": 0.0, "fusion_lat": 0.0}, {"lat": 38.9058, "lon": -77.024008, "is_disabled": 0, "bike_id": "b5d976e817da4b8e7844c3abd92d67bb", "name": "b5d976e817da4b8e7844c3abd92d67bb", "is_reserved": 0, "rental_uris": {"android": "https://dc.lft.to/lastmile_qr_scan", "ios": "https://dc.lft.to/lastmile_qr_scan"}, "type": "electric_scooter", "fusion_lon": 0.0, "fusion_lat": 0.0}, {"lat": 38.89546433333334, "lon": -76.98330133333333, "is_disabled": 0, "bike_id": "395abb624b5dcce893622bb2457c3cfd", "name": "395abb624b5dcce893622bb2457c3cfd", "is_reserved": 0, "rental_uris": {"android": "https://dc.lft.to/lastmile_qr_scan", "ios": "https://dc.lft.to/lastmile_qr_scan"}, "type": "electric_scooter", "fusion_lon": 0.0, "fusion_lat": 0.0}, {"lat": 38.914053333333335, "lon": -77.01840066666666, "is_disabled": 0, "bike_id": "060e7212e467ea0b06ec7f1af4ed6ee3", "name": "060e7212e467ea0b06ec7f1af4ed6ee3", "is_reserved": 0, "rental_uris": {"android": "https://dc.lft.to/lastmile_qr_scan", "ios": "https://dc.lft.to/lastmile_qr_scan"}, "type": "electric_scooter", "fusion_lon": 0.0, "fusion_lat": 0.0}, {"lat": 38.93678083333333, "lon": -77.032808, "is_disabled": 0, "bike_id": "13e33d99248049762f242eb92938f4f3", "name": "13e33d99248049762f242eb92938f4f3", "is_reserved": 0, "rental_uris": {"android": "https://dc.lft.to/lastmile_qr_scan", "ios": "https://dc.lft.to/lastmile_qr_scan"}, "type": "electric_scooter", "fusion_lon": 0.0, "fusion_lat": 0.0}, {"lat": 38.93116783333333, "lon": -77.02138833333333, "is_disabled": 0, "bike_id": "dd0da63f9734819101c967ccf0768193", "name": "dd0da63f9734819101c967ccf0768193", "is_reserved": 0, "rental_uris": {"android": "https://dc.lft.to/lastmile_qr_scan", "ios": "https://dc.lft.to/lastmile_qr_scan"}, "type": "electric_scooter", "fusion_lon": 0.0, "fusion_lat": 0.0}, {"lat": 38.87500083333333, "lon": -77.0013915, "is_disabled": 0, "bike_id": "15f9bcaf648f9bd43dda2c7bc8bbdf58", "name": "15f9bcaf648f9bd43dda2c7bc8bbdf58", "is_reserved": 0, "rental_uris": {"android": "https://dc.lft.to/lastmile_qr_scan", "ios": "https://dc.lft.to/lastmile_qr_scan"}, "type": "electric_bike", "fusion_lon": 0.0, "fusion_lat": 0.0}, {"lat": 38.81548183333334, "lon": -77.04645116666667, "is_disabled": 0, "bike_id": "5cba1276be1d3660a4a552d87182428b", "name": "5cba1276be1d3660a4a552d87182428b", "is_reserved": 0, "rental_uris": {"android": "https://dc.lft.to/lastmile_qr_scan", "ios": "https://dc.lft.to/lastmile_qr_scan"}, "type": "electric_bike", "fusion_lon": 0.0, "fusion_lat": 0.0}, {"lat": 38.8971715, "lon": -76.97871116666667, "is_disabled": 0, "bike_id": "924d8d3c004a359f4fd067d955c18786", "name": "924d8d3c004a359f4fd067d955c18786", "is_reserved": 0, "rental_uris": {"android": "https://dc.lft.to/lastmile_qr_scan", "ios": "https://dc.lft.to/lastmile_qr_scan"}, "type": "electric_scooter", "fusion_lon": 0.0, "fusion_lat": 0.0}, {"lat": 38.89375066666667, "lon": -77.04680433333333, "is_disabled": 0, "bike_id": "7dd842ec0cc40eea31560c52deac8a47", "name": "7dd842ec0cc40eea31560c52deac8a47", "is_reserved": 0, "rental_uris": {"android": "https://dc.lft.to/lastmile_qr_scan", "ios": "https://dc.lft.to/lastmile_qr_scan"}, "type": "electric_scooter", "fusion_lon": 0.0, "fusion_lat": 0.0}, {"lat": 38.898903833333335, "lon": -77.00972366666667, "is_disabled": 0, "bike_id": "cf1350000c20346f9e6f35d78979a48a", "name": "cf1350000c20346f9e6f35d78979a48a", "is_reserved": 0, "rental_uris": {"android": "https://dc.lft.to/lastmile_qr_scan", "ios": "https://dc.lft.to/lastmile_qr_scan"}, "type": "electric_scooter", "fusion_lon": 0.0, "fusion_lat": 0.0}, {"lat": 38.90024916666667, "lon": -76.985943, "is_disabled": 0, "bike_id": "2bf70450fe9a267a93e94e224cfeb45b", "name": "2bf70450fe9a267a93e94e224cfeb45b", "is_reserved": 0, "rental_uris": {"android": "https://dc.lft.to/lastmile_qr_scan", "ios": "https://dc.lft.to/lastmile_qr_scan"}, "type": "electric_scooter", "fusion_lon": 0.0, "fusion_lat": 0.0}, {"lat": 38.900251, "lon": -77.04487533333334, "is_disabled": 0, "bike_id": "64667ff93c21b6eb711227411e321737", "name": "64667ff93c21b6eb711227411e321737", "is_reserved": 0, "rental_uris": {"android": "https://dc.lft.to/lastmile_qr_scan", "ios": "https://dc.lft.to/lastmile_qr_scan"}, "type": "electric_scooter", "fusion_lon": 0.0, "fusion_lat": 0.0}, {"lat": 38.939788666666665, "lon": -77.03042716666667, "is_disabled": 0, "bike_id": "9111bfdb3d034c16f7079aa2b1060c8b", "name": "9111bfdb3d034c16f7079aa2b1060c8b", "is_reserved": 0, "rental_uris": {"android": "https://dc.lft.to/lastmile_qr_scan", "ios": "https://dc.lft.to/lastmile_qr_scan"}, "type": "electric_scooter", "fusion_lon": 0.0, "fusion_lat": 0.0}, {"lat": 38.9171445, "lon": -77.03768933333333, "is_disabled": 0, "bike_id": "9367b998a7a09635423cfea50f4abc98", "name": "9367b998a7a09635423cfea50f4abc98", "is_reserved": 0, "rental_uris": {"android": "https://dc.lft.to/lastmile_qr_scan", "ios": "https://dc.lft.to/lastmile_qr_scan"}, "type": "electric_scooter", "fusion_lon": 0.0, "fusion_lat": 0.0}, {"lat": 38.873888, "lon": -77.00134666666666, "is_disabled": 0, "bike_id": "75041f303113cc0255053ec2d46f26fa", "name": "75041f303113cc0255053ec2d46f26fa", "is_reserved": 0, "rental_uris": {"android": "https://dc.lft.to/lastmile_qr_scan", "ios": "https://dc.lft.to/lastmile_qr_scan"}, "type": "electric_scooter", "fusion_lon": 0.0, "fusion_lat": 0.0}, {"lat": 38.9038195, "lon": -77.039563, "is_disabled": 0, "bike_id": "3d8a3b58d70942cbf1cacaae5d97b58d", "name": "3d8a3b58d70942cbf1cacaae5d97b58d", "is_reserved": 0, "rental_uris": {"android": "https://dc.lft.to/lastmile_qr_scan", "ios": "https://dc.lft.to/lastmile_qr_scan"}, "type": "electric_scooter", "fusion_lon": 0.0, "fusion_lat": 0.0}, {"lat": 38.90609833333333, "lon": -77.12882333333333, "is_disabled": 0, "bike_id": "557566c686d9585cfbf1a6d2b2c81613", "name": "557566c686d9585cfbf1a6d2b2c81613", "is_reserved": 0, "rental_uris": {"android": "https://dc.lft.to/lastmile_qr_scan", "ios": "https://dc.lft.to/lastmile_qr_scan"}, "type": "electric_bike", "fusion_lon": 0.0, "fusion_lat": 0.0}, {"lat": 38.937711666666665, "lon": -77.03247433333334, "is_disabled": 0, "bike_id": "d89dead2157796aa73f95865a12dcb6b", "name": "d89dead2157796aa73f95865a12dcb6b", "is_reserved": 0, "rental_uris": {"android": "https://dc.lft.to/lastmile_qr_scan", "ios": "https://dc.lft.to/lastmile_qr_scan"}, "type": "electric_scooter", "fusion_lon": 0.0, "fusion_lat": 0.0}, {"lat": 38.86008666666667, "lon": -76.98517716666667, "is_disabled": 0, "bike_id": "e62be3d80c9d5fde140a2fbf8dfc9182", "name": "e62be3d80c9d5fde140a2fbf8dfc9182", "is_reserved": 0, "rental_uris": {"android": "https://dc.lft.to/lastmile_qr_scan", "ios": "https://dc.lft.to/lastmile_qr_scan"}, "type": "electric_scooter", "fusion_lon": 0.0, "fusion_lat": 0.0}, {"lat": 38.90708983333333, "lon": -77.0346375, "is_disabled": 0, "bike_id": "fcbd96203289f26e9b898f5a7e1a6192", "name": "fcbd96203289f26e9b898f5a7e1a6192", "is_reserved": 0, "rental_uris": {"android": "https://dc.lft.to/lastmile_qr_scan", "ios": "https://dc.lft.to/lastmile_qr_scan"}, "type": "electric_scooter", "fusion_lon": 0.0, "fusion_lat": 0.0}, {"lat": 38.90254383333333, "lon": -77.04622983333333, "is_disabled": 0, "bike_id": "404aa6b579c0f4973c59c944aeb62641", "name": "404aa6b579c0f4973c59c944aeb62641", "is_reserved": 0, "rental_uris": {"android": "https://dc.lft.to/lastmile_qr_scan", "ios": "https://dc.lft.to/lastmile_qr_scan"}, "type": "electric_scooter", "fusion_lon": 0.0, "fusion_lat": 0.0}, {"lat": 38.963882, "lon": -77.02770066666666, "is_disabled": 0, "bike_id": "a985e8ee7b19a65bc9cb1ae9f9d79861", "name": "a985e8ee7b19a65bc9cb1ae9f9d79861", "is_reserved": 0, "rental_uris": {"android": "https://dc.lft.to/lastmile_qr_scan", "ios": "https://dc.lft.to/lastmile_qr_scan"}, "type": "electric_scooter", "fusion_lon": 0.0, "fusion_lat": 0.0}, {"lat": 38.881244833333334, "lon": -77.01672216666667, "is_disabled": 0, "bike_id": "cdb0885d4c45972f0ddccba0efce1ee3", "name": "cdb0885d4c45972f0ddccba0efce1ee3", "is_reserved": 0, "rental_uris": {"android": "https://dc.lft.to/lastmile_qr_scan", "ios": "https://dc.lft.to/lastmile_qr_scan"}, "type": "electric_bike", "fusion_lon": 0.0, "fusion_lat": 0.0}, {"lat": 38.921571, "lon": -77.04241516666667, "is_disabled": 0, "bike_id": "cf7ed9c2d4d79d8fe0cf72d601d56465", "name": "cf7ed9c2d4d79d8fe0cf72d601d56465", "is_reserved": 0, "rental_uris": {"android": "https://dc.lft.to/lastmile_qr_scan", "ios": "https://dc.lft.to/lastmile_qr_scan"}, "type": "electric_scooter", "fusion_lon": 0.0, "fusion_lat": 0.0}, {"lat": 38.925685666666666, "lon": -77.02691533333333, "is_disabled": 0, "bike_id": "02e8974120ae50334415cdae77166a47", "name": "02e8974120ae50334415cdae77166a47", "is_reserved": 0, "rental_uris": {"android": "https://dc.lft.to/lastmile_qr_scan", "ios": "https://dc.lft.to/lastmile_qr_scan"}, "type": "electric_scooter", "fusion_lon": 0.0, "fusion_lat": 0.0}, {"lat": 38.8977055, "lon": -77.02200433333333, "is_disabled": 0, "bike_id": "65b2f787a8edc7ed97bd7a47eda5aa40", "name": "65b2f787a8edc7ed97bd7a47eda5aa40", "is_reserved": 0, "rental_uris": {"android": "https://dc.lft.to/lastmile_qr_scan", "ios": "https://dc.lft.to/lastmile_qr_scan"}, "type": "electric_scooter", "fusion_lon": 0.0, "fusion_lat": 0.0}, {"lat": 38.833845333333336, "lon": -77.00305916666667, "is_disabled": 0, "bike_id": "a9f0c44aa755de66958f22aee6c1bdb3", "name": "a9f0c44aa755de66958f22aee6c1bdb3", "is_reserved": 0, "rental_uris": {"android": "https://dc.lft.to/lastmile_qr_scan", "ios": "https://dc.lft.to/lastmile_qr_scan"}, "type": "electric_scooter", "fusion_lon": 0.0, "fusion_lat": 0.0}, {"lat": 38.907320166666665, "lon": -77.03990783333333, "is_disabled": 0, "bike_id": "a7e82cb388ee0b60a156f9eab9f1d969", "name": "a7e82cb388ee0b60a156f9eab9f1d969", "is_reserved": 0, "rental_uris": {"android": "https://dc.lft.to/lastmile_qr_scan", "ios": "https://dc.lft.to/lastmile_qr_scan"}, "type": "electric_scooter", "fusion_lon": 0.0, "fusion_lat": 0.0}, {"lat": 38.918413, "lon": -77.0417275, "is_disabled": 0, "bike_id": "c4734bb68aa45d411f9fa7ff3645189e", "name": "c4734bb68aa45d411f9fa7ff3645189e", "is_reserved": 0, "rental_uris": {"android": "https://dc.lft.to/lastmile_qr_scan", "ios": "https://dc.lft.to/lastmile_qr_scan"}, "type": "electric_scooter", "fusion_lon": 0.0, "fusion_lat": 0.0}, {"lat": 38.899746666666665, "lon": -77.04719866666667, "is_disabled": 0, "bike_id": "ff3553f6367b4c63cdec838f0483e3a2", "name": "ff3553f6367b4c63cdec838f0483e3a2", "is_reserved": 0, "rental_uris": {"android": "https://dc.lft.to/lastmile_qr_scan", "ios": "https://dc.lft.to/lastmile_qr_scan"}, "type": "electric_scooter", "fusion_lon": 0.0, "fusion_lat": 0.0}, {"lat": 38.91198933333333, "lon": -77.01813416666667, "is_disabled": 0, "bike_id": "8cd9d7d509005e357fa424e0bc0a0e57", "name": "8cd9d7d509005e357fa424e0bc0a0e57", "is_reserved": 0, "rental_uris": {"android": "https://dc.lft.to/lastmile_qr_scan", "ios": "https://dc.lft.to/lastmile_qr_scan"}, "type": "electric_scooter", "fusion_lon": 0.0, "fusion_lat": 0.0}, {"lat": 38.91118133333333, "lon": -77.02375116666667, "is_disabled": 0, "bike_id": "4fdcb0df8332242b7e8e0fdaffe9edbd", "name": "4fdcb0df8332242b7e8e0fdaffe9edbd", "is_reserved": 0, "rental_uris": {"android": "https://dc.lft.to/lastmile_qr_scan", "ios": "https://dc.lft.to/lastmile_qr_scan"}, "type": "electric_scooter", "fusion_lon": 0.0, "fusion_lat": 0.0}, {"lat": 38.836075, "lon": -77.00375083333333, "is_disabled": 0, "bike_id": "c4da7efd1a68bccca25dfa47a3a63863", "name": "c4da7efd1a68bccca25dfa47a3a63863", "is_reserved": 0, "rental_uris": {"android": "https://dc.lft.to/lastmile_qr_scan", "ios": "https://dc.lft.to/lastmile_qr_scan"}, "type": "electric_bike", "fusion_lon": 0.0, "fusion_lat": 0.0}, {"lat": 38.90964916666667, "lon": -77.03349866666667, "is_disabled": 0, "bike_id": "df6c95797c27f8204726a03df9f741f5", "name": "df6c95797c27f8204726a03df9f741f5", "is_reserved": 0, "rental_uris": {"android": "https://dc.lft.to/lastmile_qr_scan", "ios": "https://dc.lft.to/lastmile_qr_scan"}, "type": "electric_scooter", "fusion_lon": 0.0, "fusion_lat": 0.0}, {"lat": 38.922608833333335, "lon": -77.03640283333333, "is_disabled": 0, "bike_id": "ff47dc459dab3865aa0bd438636c0d55", "name": "ff47dc459dab3865aa0bd438636c0d55", "is_reserved": 0, "rental_uris": {"android": "https://dc.lft.to/lastmile_qr_scan", "ios": "https://dc.lft.to/lastmile_qr_scan"}, "type": "electric_scooter", "fusion_lon": 0.0, "fusion_lat": 0.0}, {"lat": 38.92018616666667, "lon": -76.97305716666666, "is_disabled": 0, "bike_id": "f91970b3d4399562eaf3e23ee5d936e9", "name": "f91970b3d4399562eaf3e23ee5d936e9", "is_reserved": 0, "rental_uris": {"android": "https://dc.lft.to/lastmile_qr_scan", "ios": "https://dc.lft.to/lastmile_qr_scan"}, "type": "electric_scooter", "fusion_lon": 0.0, "fusion_lat": 0.0}, {"lat": 38.90739466666667, "lon": -77.0420115, "is_disabled": 0, "bike_id": "cd43fd54ac158f13d1775c18e68d883a", "name": "cd43fd54ac158f13d1775c18e68d883a", "is_reserved": 0, "rental_uris": {"android": "https://dc.lft.to/lastmile_qr_scan", "ios": "https://dc.lft.to/lastmile_qr_scan"}, "type": "electric_scooter", "fusion_lon": 0.0, "fusion_lat": 0.0}, {"lat": 38.9285915, "lon": -77.031025, "is_disabled": 0, "bike_id": "5ec788559a995fade3b82f18b7fa5058", "name": "5ec788559a995fade3b82f18b7fa5058", "is_reserved": 0, "rental_uris": {"android": "https://dc.lft.to/lastmile_qr_scan", "ios": "https://dc.lft.to/lastmile_qr_scan"}, "type": "electric_scooter", "fusion_lon": 0.0, "fusion_lat": 0.0}, {"lat": 38.907349833333335, "lon": -77.02323033333333, "is_disabled": 0, "bike_id": "3568fef2212ee09da1c691b63be7d1d4", "name": "3568fef2212ee09da1c691b63be7d1d4", "is_reserved": 0, "rental_uris": {"android": "https://dc.lft.to/lastmile_qr_scan", "ios": "https://dc.lft.to/lastmile_qr_scan"}, "type": "electric_scooter", "fusion_lon": 0.0, "fusion_lat": 0.0}, {"lat": 38.99100216666667, "lon": -76.9938015, "is_disabled": 0, "bike_id": "4c97e9ffa418fba4e122c379ec62c426", "name": "4c97e9ffa418fba4e122c379ec62c426", "is_reserved": 0, "rental_uris": {"android": "https://dc.lft.to/lastmile_qr_scan", "ios": "https://dc.lft.to/lastmile_qr_scan"}, "type": "electric_bike", "fusion_lon": 0.0, "fusion_lat": 0.0}, {"lat": 38.894423333333336, "lon": -76.94782116666667, "is_disabled": 0, "bike_id": "df96a16a0ceb7ad1e270f4e6b0d902e1", "name": "df96a16a0ceb7ad1e270f4e6b0d902e1", "is_reserved": 0, "rental_uris": {"android": "https://dc.lft.to/lastmile_qr_scan", "ios": "https://dc.lft.to/lastmile_qr_scan"}, "type": "electric_scooter", "fusion_lon": 0.0, "fusion_lat": 0.0}, {"lat": 38.88670833333333, "lon": -76.9914355, "is_disabled": 0, "bike_id": "7d51ad6bf5370c7e7ee87d58a7bff916", "name": "7d51ad6bf5370c7e7ee87d58a7bff916", "is_reserved": 0, "rental_uris": {"android": "https://dc.lft.to/lastmile_qr_scan", "ios": "https://dc.lft.to/lastmile_qr_scan"}, "type": "electric_scooter", "fusion_lon": 0.0, "fusion_lat": 0.0}, {"lat": 38.914100166666664, "lon": -77.04565533333333, "is_disabled": 0, "bike_id": "0c0363d9c0ebb2aebd99a3989192b3ff", "name": "0c0363d9c0ebb2aebd99a3989192b3ff", "is_reserved": 0, "rental_uris": {"android": "https://dc.lft.to/lastmile_qr_scan", "ios": "https://dc.lft.to/lastmile_qr_scan"}, "type": "electric_scooter", "fusion_lon": 0.0, "fusion_lat": 0.0}, {"lat": 38.90409666666667, "lon": -77.04346433333333, "is_disabled": 0, "bike_id": "c9a8ebea1aee089898d7e10f57396319", "name": "c9a8ebea1aee089898d7e10f57396319", "is_reserved": 0, "rental_uris": {"android": "https://dc.lft.to/lastmile_qr_scan", "ios": "https://dc.lft.to/lastmile_qr_scan"}, "type": "electric_scooter", "fusion_lon": 0.0, "fusion_lat": 0.0}, {"lat": 38.91841633333333, "lon": -77.0417405, "is_disabled": 0, "bike_id": "260f24a132ea0c02d92b2fd3a4eaeff4", "name": "260f24a132ea0c02d92b2fd3a4eaeff4", "is_reserved": 0, "rental_uris": {"android": "https://dc.lft.to/lastmile_qr_scan", "ios": "https://dc.lft.to/lastmile_qr_scan"}, "type": "electric_scooter", "fusion_lon": 0.0, "fusion_lat": 0.0}, {"lat": 38.86634683333333, "lon": -76.98921066666666, "is_disabled": 0, "bike_id": "59aa369ec5d51a7ee3c1a3ce038c0b08", "name": "59aa369ec5d51a7ee3c1a3ce038c0b08", "is_reserved": 0, "rental_uris": {"android": "https://dc.lft.to/lastmile_qr_scan", "ios": "https://dc.lft.to/lastmile_qr_scan"}, "type": "electric_bike", "fusion_lon": 0.0, "fusion_lat": 0.0}, {"lat": 38.89233766666667, "lon": -77.050057, "is_disabled": 0, "bike_id": "fa727bb498af72f34137594ce6f49874", "name": "fa727bb498af72f34137594ce6f49874", "is_reserved": 0, "rental_uris": {"android": "https://dc.lft.to/lastmile_qr_scan", "ios": "https://dc.lft.to/lastmile_qr_scan"}, "type": "electric_scooter", "fusion_lon": 0.0, "fusion_lat": 0.0}, {"lat": 38.898852166666664, "lon": -77.03300433333334, "is_disabled": 0, "bike_id": "bbafa1313cd24a1a545c57fa9c43c65c", "name": "bbafa1313cd24a1a545c57fa9c43c65c", "is_reserved": 0, "rental_uris": {"android": "https://dc.lft.to/lastmile_qr_scan", "ios": "https://dc.lft.to/lastmile_qr_scan"}, "type": "electric_scooter", "fusion_lon": 0.0, "fusion_lat": 0.0}, {"lat": 38.93971416666667, "lon": -77.0325545, "is_disabled": 0, "bike_id": "598650cf1b77e4ea283b4856a6186cad", "name": "598650cf1b77e4ea283b4856a6186cad", "is_reserved": 0, "rental_uris": {"android": "https://dc.lft.to/lastmile_qr_scan", "ios": "https://dc.lft.to/lastmile_qr_scan"}, "type": "electric_scooter", "fusion_lon": 0.0, "fusion_lat": 0.0}, {"lat": 38.88356866666667, "lon": -76.93627083333334, "is_disabled": 0, "bike_id": "b4cb916fa2b5cee90802f59fea648079", "name": "b4cb916fa2b5cee90802f59fea648079", "is_reserved": 0, "rental_uris": {"android": "https://dc.lft.to/lastmile_qr_scan", "ios": "https://dc.lft.to/lastmile_qr_scan"}, "type": "electric_scooter", "fusion_lon": 0.0, "fusion_lat": 0.0}, {"lat": 38.9205545, "lon": -77.04181883333334, "is_disabled": 0, "bike_id": "94e9c9fd9009d40c4ff2acba0233d9c0", "name": "94e9c9fd9009d40c4ff2acba0233d9c0", "is_reserved": 0, "rental_uris": {"android": "https://dc.lft.to/lastmile_qr_scan", "ios": "https://dc.lft.to/lastmile_qr_scan"}, "type": "electric_scooter", "fusion_lon": 0.0, "fusion_lat": 0.0}, {"lat": 38.9195915, "lon": -77.02595766666667, "is_disabled": 0, "bike_id": "16a320cc0f644c3dc4c00691bef8a58e", "name": "16a320cc0f644c3dc4c00691bef8a58e", "is_reserved": 0, "rental_uris": {"android": "https://dc.lft.to/lastmile_qr_scan", "ios": "https://dc.lft.to/lastmile_qr_scan"}, "type": "electric_scooter", "fusion_lon": 0.0, "fusion_lat": 0.0}, {"lat": 38.89229066666667, "lon": -77.05001516666667, "is_disabled": 0, "bike_id": "7ff0bacb2897cd1744b47e4f494f9fdb", "name": "7ff0bacb2897cd1744b47e4f494f9fdb", "is_reserved": 0, "rental_uris": {"android": "https://dc.lft.to/lastmile_qr_scan", "ios": "https://dc.lft.to/lastmile_qr_scan"}, "type": "electric_scooter", "fusion_lon": 0.0, "fusion_lat": 0.0}, {"lat": 38.894664, "lon": -77.02258033333334, "is_disabled": 0, "bike_id": "9a036d07fde1501d87e226f813d415df", "name": "9a036d07fde1501d87e226f813d415df", "is_reserved": 0, "rental_uris": {"android": "https://dc.lft.to/lastmile_qr_scan", "ios": "https://dc.lft.to/lastmile_qr_scan"}, "type": "electric_scooter", "fusion_lon": 0.0, "fusion_lat": 0.0}, {"lat": 38.90562666666667, "lon": -76.997891, "is_disabled": 0, "bike_id": "58aaa106f8855603051fc3c7cb556f7a", "name": "58aaa106f8855603051fc3c7cb556f7a", "is_reserved": 0, "rental_uris": {"android": "https://dc.lft.to/lastmile_qr_scan", "ios": "https://dc.lft.to/lastmile_qr_scan"}, "type": "electric_scooter", "fusion_lon": 0.0, "fusion_lat": 0.0}, {"lat": 38.9080455, "lon": -77.00033933333333, "is_disabled": 0, "bike_id": "84a464cb6ff029070dc0e05f4030c24c", "name": "84a464cb6ff029070dc0e05f4030c24c", "is_reserved": 0, "rental_uris": {"android": "https://dc.lft.to/lastmile_qr_scan", "ios": "https://dc.lft.to/lastmile_qr_scan"}, "type": "electric_scooter", "fusion_lon": 0.0, "fusion_lat": 0.0}, {"lat": 38.917073, "lon": -77.0376875, "is_disabled": 0, "bike_id": "7eb148a7ebdfb39cfd375f0777dcb1bd", "name": "7eb148a7ebdfb39cfd375f0777dcb1bd", "is_reserved": 0, "rental_uris": {"android": "https://dc.lft.to/lastmile_qr_scan", "ios": "https://dc.lft.to/lastmile_qr_scan"}, "type": "electric_scooter", "fusion_lon": 0.0, "fusion_lat": 0.0}, {"lat": 38.93250233333333, "lon": -77.02847616666666, "is_disabled": 0, "bike_id": "84f07f09b779db2702da8d02df2a7107", "name": "84f07f09b779db2702da8d02df2a7107", "is_reserved": 0, "rental_uris": {"android": "https://dc.lft.to/lastmile_qr_scan", "ios": "https://dc.lft.to/lastmile_qr_scan"}, "type": "electric_scooter", "fusion_lon": 0.0, "fusion_lat": 0.0}, {"lat": 38.899678, "lon": -77.02374433333334, "is_disabled": 0, "bike_id": "deba1e503f9a3eafaf62ab66cdd0a0c6", "name": "deba1e503f9a3eafaf62ab66cdd0a0c6", "is_reserved": 0, "rental_uris": {"android": "https://dc.lft.to/lastmile_qr_scan", "ios": "https://dc.lft.to/lastmile_qr_scan"}, "type": "electric_scooter", "fusion_lon": 0.0, "fusion_lat": 0.0}, {"lat": 38.906854, "lon": -77.0240755, "is_disabled": 0, "bike_id": "cb163d30a47fec1d7ec0fd14bda892ec", "name": "cb163d30a47fec1d7ec0fd14bda892ec", "is_reserved": 0, "rental_uris": {"android": "https://dc.lft.to/lastmile_qr_scan", "ios": "https://dc.lft.to/lastmile_qr_scan"}, "type": "electric_scooter", "fusion_lon": 0.0, "fusion_lat": 0.0}, {"lat": 38.924265166666665, "lon": -76.9974025, "is_disabled": 0, "bike_id": "c9d38d057cde08291bfa49c51f86b26f", "name": "c9d38d057cde08291bfa49c51f86b26f", "is_reserved": 0, "rental_uris": {"android": "https://dc.lft.to/lastmile_qr_scan", "ios": "https://dc.lft.to/lastmile_qr_scan"}, "type": "electric_scooter", "fusion_lon": 0.0, "fusion_lat": 0.0}, {"lat": 38.9261005, "lon": -77.057015, "is_disabled": 0, "bike_id": "9ea612df7fe3a6ccc59e7202aba794bd", "name": "9ea612df7fe3a6ccc59e7202aba794bd", "is_reserved": 0, "rental_uris": {"android": "https://dc.lft.to/lastmile_qr_scan", "ios": "https://dc.lft.to/lastmile_qr_scan"}, "type": "electric_scooter", "fusion_lon": 0.0, "fusion_lat": 0.0}, {"lat": 38.95154466666666, "lon": -77.01866916666667, "is_disabled": 0, "bike_id": "a640145604e39b6016a50e27be4dfcb8", "name": "a640145604e39b6016a50e27be4dfcb8", "is_reserved": 0, "rental_uris": {"android": "https://dc.lft.to/lastmile_qr_scan", "ios": "https://dc.lft.to/lastmile_qr_scan"}, "type": "electric_scooter", "fusion_lon": 0.0, "fusion_lat": 0.0}, {"lat": 38.91667, "lon": -77.02801833333334, "is_disabled": 0, "bike_id": "e78f6ec903f6ca2beb06bbf14068af0d", "name": "e78f6ec903f6ca2beb06bbf14068af0d", "is_reserved": 0, "rental_uris": {"android": "https://dc.lft.to/lastmile_qr_scan", "ios": "https://dc.lft.to/lastmile_qr_scan"}, "type": "electric_scooter", "fusion_lon": 0.0, "fusion_lat": 0.0}, {"lat": 38.92496783333333, "lon": -77.05767266666666, "is_disabled": 0, "bike_id": "0532d63856a2f15564a928ad9ce087f5", "name": "0532d63856a2f15564a928ad9ce087f5", "is_reserved": 0, "rental_uris": {"android": "https://dc.lft.to/lastmile_qr_scan", "ios": "https://dc.lft.to/lastmile_qr_scan"}, "type": "electric_scooter", "fusion_lon": 0.0, "fusion_lat": 0.0}, {"lat": 38.91564983333333, "lon": -77.03271633333334, "is_disabled": 0, "bike_id": "b1fbcef5b28d9e9c2c45f905c3b70f1d", "name": "b1fbcef5b28d9e9c2c45f905c3b70f1d", "is_reserved": 0, "rental_uris": {"android": "https://dc.lft.to/lastmile_qr_scan", "ios": "https://dc.lft.to/lastmile_qr_scan"}, "type": "electric_scooter", "fusion_lon": 0.0, "fusion_lat": 0.0}, {"lat": 38.9145185, "lon": -77.02187566666667, "is_disabled": 0, "bike_id": "c046883a09fe8d7b01cde49cf27bcd23", "name": "c046883a09fe8d7b01cde49cf27bcd23", "is_reserved": 0, "rental_uris": {"android": "https://dc.lft.to/lastmile_qr_scan", "ios": "https://dc.lft.to/lastmile_qr_scan"}, "type": "electric_scooter", "fusion_lon": 0.0, "fusion_lat": 0.0}, {"lat": 38.922628333333336, "lon": -77.04305166666667, "is_disabled": 0, "bike_id": "d4a44ef48d4986f8b7be35eb0b3c7a4d", "name": "d4a44ef48d4986f8b7be35eb0b3c7a4d", "is_reserved": 0, "rental_uris": {"android": "https://dc.lft.to/lastmile_qr_scan", "ios": "https://dc.lft.to/lastmile_qr_scan"}, "type": "electric_scooter", "fusion_lon": 0.0, "fusion_lat": 0.0}, {"lat": 39.0843495, "lon": -76.95135033333334, "is_disabled": 0, "bike_id": "7cdedb90ae69bc1cb6ebbbea81406911", "name": "7cdedb90ae69bc1cb6ebbbea81406911", "is_reserved": 0, "rental_uris": {"android": "https://dc.lft.to/lastmile_qr_scan", "ios": "https://dc.lft.to/lastmile_qr_scan"}, "type": "electric_bike", "fusion_lon": 0.0, "fusion_lat": 0.0}, {"lat": 38.9094665, "lon": -76.9359795, "is_disabled": 0, "bike_id": "043c9402e2d0756d084e3965d7f48327", "name": "043c9402e2d0756d084e3965d7f48327", "is_reserved": 0, "rental_uris": {"android": "https://dc.lft.to/lastmile_qr_scan", "ios": "https://dc.lft.to/lastmile_qr_scan"}, "type": "electric_scooter", "fusion_lon": 0.0, "fusion_lat": 0.0}, {"lat": 38.908215166666665, "lon": -77.06375016666667, "is_disabled": 0, "bike_id": "0322131ca9558252617dd848aeb6c584", "name": "0322131ca9558252617dd848aeb6c584", "is_reserved": 0, "rental_uris": {"android": "https://dc.lft.to/lastmile_qr_scan", "ios": "https://dc.lft.to/lastmile_qr_scan"}, "type": "electric_scooter", "fusion_lon": 0.0, "fusion_lat": 0.0}, {"lat": 38.9182935, "lon": -77.06980983333334, "is_disabled": 0, "bike_id": "a89419d43f34e6098f15ec44141a8669", "name": "a89419d43f34e6098f15ec44141a8669", "is_reserved": 0, "rental_uris": {"android": "https://dc.lft.to/lastmile_qr_scan", "ios": "https://dc.lft.to/lastmile_qr_scan"}, "type": "electric_scooter", "fusion_lon": 0.0, "fusion_lat": 0.0}, {"lat": 38.90517, "lon": -77.04082566666666, "is_disabled": 0, "bike_id": "af5b0aded3057361e5e4368bacb25748", "name": "af5b0aded3057361e5e4368bacb25748", "is_reserved": 0, "rental_uris": {"android": "https://dc.lft.to/lastmile_qr_scan", "ios": "https://dc.lft.to/lastmile_qr_scan"}, "type": "electric_scooter", "fusion_lon": 0.0, "fusion_lat": 0.0}, {"lat": 38.90772966666667, "lon": -77.07147816666667, "is_disabled": 0, "bike_id": "238d0f0be4845ad88cbc58d82d452ae1", "name": "238d0f0be4845ad88cbc58d82d452ae1", "is_reserved": 0, "rental_uris": {"android": "https://dc.lft.to/lastmile_qr_scan", "ios": "https://dc.lft.to/lastmile_qr_scan"}, "type": "electric_scooter", "fusion_lon": 0.0, "fusion_lat": 0.0}, {"lat": 38.917892333333334, "lon": -77.02498516666667, "is_disabled": 0, "bike_id": "6266e074ec6d5a3dfcb9be80193ca95c", "name": "6266e074ec6d5a3dfcb9be80193ca95c", "is_reserved": 0, "rental_uris": {"android": "https://dc.lft.to/lastmile_qr_scan", "ios": "https://dc.lft.to/lastmile_qr_scan"}, "type": "electric_scooter", "fusion_lon": 0.0, "fusion_lat": 0.0}, {"lat": 38.91534816666667, "lon": -77.04612916666666, "is_disabled": 0, "bike_id": "ef9844c3b35812437ee0ce8eda628eac", "name": "ef9844c3b35812437ee0ce8eda628eac", "is_reserved": 0, "rental_uris": {"android": "https://dc.lft.to/lastmile_qr_scan", "ios": "https://dc.lft.to/lastmile_qr_scan"}, "type": "electric_scooter", "fusion_lon": 0.0, "fusion_lat": 0.0}, {"lat": 38.9060635, "lon": -77.03984616666666, "is_disabled": 0, "bike_id": "96b2b3f9a0946a692165edbf8d5191ad", "name": "96b2b3f9a0946a692165edbf8d5191ad", "is_reserved": 0, "rental_uris": {"android": "https://dc.lft.to/lastmile_qr_scan", "ios": "https://dc.lft.to/lastmile_qr_scan"}, "type": "electric_scooter", "fusion_lon": 0.0, "fusion_lat": 0.0}, {"lat": 38.8996825, "lon": -77.02666116666667, "is_disabled": 0, "bike_id": "0e80f6b7da78b9f0aa2e18c08aa7db42", "name": "0e80f6b7da78b9f0aa2e18c08aa7db42", "is_reserved": 0, "rental_uris": {"android": "https://dc.lft.to/lastmile_qr_scan", "ios": "https://dc.lft.to/lastmile_qr_scan"}, "type": "electric_scooter", "fusion_lon": 0.0, "fusion_lat": 0.0}, {"lat": 38.9211305, "lon": -77.03173583333333, "is_disabled": 0, "bike_id": "65b49d6689e07b73bba7cfa6a301c278", "name": "65b49d6689e07b73bba7cfa6a301c278", "is_reserved": 0, "rental_uris": {"android": "https://dc.lft.to/lastmile_qr_scan", "ios": "https://dc.lft.to/lastmile_qr_scan"}, "type": "electric_scooter", "fusion_lon": 0.0, "fusion_lat": 0.0}, {"lat": 38.926159166666665, "lon": -77.02163883333333, "is_disabled": 0, "bike_id": "e1e6855f66b6cadd059577f66a78efc3", "name": "e1e6855f66b6cadd059577f66a78efc3", "is_reserved": 0, "rental_uris": {"android": "https://dc.lft.to/lastmile_qr_scan", "ios": "https://dc.lft.to/lastmile_qr_scan"}, "type": "electric_scooter", "fusion_lon": 0.0, "fusion_lat": 0.0}, {"lat": 38.8875065, "lon": -77.01710566666667, "is_disabled": 0, "bike_id": "3025a25149508e972d1ad581e6195c29", "name": "3025a25149508e972d1ad581e6195c29", "is_reserved": 0, "rental_uris": {"android": "https://dc.lft.to/lastmile_qr_scan", "ios": "https://dc.lft.to/lastmile_qr_scan"}, "type": "electric_scooter", "fusion_lon": 0.0, "fusion_lat": 0.0}, {"lat": 38.9064165, "lon": -77.00618816666666, "is_disabled": 0, "bike_id": "5d5dc1f9d092c35a9b3b839f162d9d6a", "name": "5d5dc1f9d092c35a9b3b839f162d9d6a", "is_reserved": 0, "rental_uris": {"android": "https://dc.lft.to/lastmile_qr_scan", "ios": "https://dc.lft.to/lastmile_qr_scan"}, "type": "electric_scooter", "fusion_lon": 0.0, "fusion_lat": 0.0}, {"lat": 38.89964666666667, "lon": -77.031614, "is_disabled": 0, "bike_id": "01e122fe71fa71ecee2ef5b673b8f9cf", "name": "01e122fe71fa71ecee2ef5b673b8f9cf", "is_reserved": 0, "rental_uris": {"android": "https://dc.lft.to/lastmile_qr_scan", "ios": "https://dc.lft.to/lastmile_qr_scan"}, "type": "electric_scooter", "fusion_lon": 0.0, "fusion_lat": 0.0}, {"lat": 38.9225715, "lon": -77.04301083333333, "is_disabled": 0, "bike_id": "3c676f1f5c30d2cb2c8d5c438de64116", "name": "3c676f1f5c30d2cb2c8d5c438de64116", "is_reserved": 0, "rental_uris": {"android": "https://dc.lft.to/lastmile_qr_scan", "ios": "https://dc.lft.to/lastmile_qr_scan"}, "type": "electric_scooter", "fusion_lon": 0.0, "fusion_lat": 0.0}, {"lat": 38.90575716666667, "lon": -77.01860183333334, "is_disabled": 0, "bike_id": "4ae784fd90fbfe3acd945cb233079ec4", "name": "4ae784fd90fbfe3acd945cb233079ec4", "is_reserved": 0, "rental_uris": {"android": "https://dc.lft.to/lastmile_qr_scan", "ios": "https://dc.lft.to/lastmile_qr_scan"}, "type": "electric_scooter", "fusion_lon": 0.0, "fusion_lat": 0.0}, {"lat": 38.861256166666664, "lon": -77.00322333333334, "is_disabled": 0, "bike_id": "1f676041b234e193f71c9ec10286d041", "name": "1f676041b234e193f71c9ec10286d041", "is_reserved": 0, "rental_uris": {"android": "https://dc.lft.to/lastmile_qr_scan", "ios": "https://dc.lft.to/lastmile_qr_scan"}, "type": "electric_scooter", "fusion_lon": 0.0, "fusion_lat": 0.0}, {"lat": 38.883198666666665, "lon": -77.0030405, "is_disabled": 0, "bike_id": "0caa304458a44880c8139835a90ec766", "name": "0caa304458a44880c8139835a90ec766", "is_reserved": 0, "rental_uris": {"android": "https://dc.lft.to/lastmile_qr_scan", "ios": "https://dc.lft.to/lastmile_qr_scan"}, "type": "electric_scooter", "fusion_lon": 0.0, "fusion_lat": 0.0}, {"lat": 38.921581833333335, "lon": -77.07241716666667, "is_disabled": 0, "bike_id": "7c33673cf42ed83c015764b9c8b09131", "name": "7c33673cf42ed83c015764b9c8b09131", "is_reserved": 0, "rental_uris": {"android": "https://dc.lft.to/lastmile_qr_scan", "ios": "https://dc.lft.to/lastmile_qr_scan"}, "type": "electric_scooter", "fusion_lon": 0.0, "fusion_lat": 0.0}, {"lat": 38.88605916666667, "lon": -76.9854175, "is_disabled": 0, "bike_id": "de68b247ade86deb63348586bf8f93db", "name": "de68b247ade86deb63348586bf8f93db", "is_reserved": 0, "rental_uris": {"android": "https://dc.lft.to/lastmile_qr_scan", "ios": "https://dc.lft.to/lastmile_qr_scan"}, "type": "electric_scooter", "fusion_lon": 0.0, "fusion_lat": 0.0}, {"lat": 38.921028166666666, "lon": -77.039456, "is_disabled": 0, "bike_id": "d4e9e6cbc9f4e03e9c261ca1bdc83188", "name": "d4e9e6cbc9f4e03e9c261ca1bdc83188", "is_reserved": 0, "rental_uris": {"android": "https://dc.lft.to/lastmile_qr_scan", "ios": "https://dc.lft.to/lastmile_qr_scan"}, "type": "electric_scooter", "fusion_lon": 0.0, "fusion_lat": 0.0}, {"lat": 38.875788, "lon": -77.23407883333333, "is_disabled": 0, "bike_id": "d8b041692888e00d515a59cfca6261c5", "name": "d8b041692888e00d515a59cfca6261c5", "is_reserved": 0, "rental_uris": {"android": "https://dc.lft.to/lastmile_qr_scan", "ios": "https://dc.lft.to/lastmile_qr_scan"}, "type": "electric_bike", "fusion_lon": 0.0, "fusion_lat": 0.0}, {"lat": 38.89602033333333, "lon": -77.02609333333334, "is_disabled": 0, "bike_id": "6b995756a70b8351d97f049b1bab373b", "name": "6b995756a70b8351d97f049b1bab373b", "is_reserved": 0, "rental_uris": {"android": "https://dc.lft.to/lastmile_qr_scan", "ios": "https://dc.lft.to/lastmile_qr_scan"}, "type": "electric_scooter", "fusion_lon": 0.0, "fusion_lat": 0.0}, {"lat": 38.92249366666667, "lon": -77.07707916666666, "is_disabled": 0, "bike_id": "fe5000cc592f1ac96734689645da7615", "name": "fe5000cc592f1ac96734689645da7615", "is_reserved": 0, "rental_uris": {"android": "https://dc.lft.to/lastmile_qr_scan", "ios": "https://dc.lft.to/lastmile_qr_scan"}, "type": "electric_scooter", "fusion_lon": 0.0, "fusion_lat": 0.0}, {"lat": 38.92318816666667, "lon": -77.01957666666667, "is_disabled": 0, "bike_id": "fb8cf143e338c5a1ac4a01990fe8546d", "name": "fb8cf143e338c5a1ac4a01990fe8546d", "is_reserved": 0, "rental_uris": {"android": "https://dc.lft.to/lastmile_qr_scan", "ios": "https://dc.lft.to/lastmile_qr_scan"}, "type": "electric_scooter", "fusion_lon": 0.0, "fusion_lat": 0.0}, {"lat": 38.8850735, "lon": -77.0056915, "is_disabled": 0, "bike_id": "76b9667eb71515eeaf56d7cca95931a0", "name": "76b9667eb71515eeaf56d7cca95931a0", "is_reserved": 0, "rental_uris": {"android": "https://dc.lft.to/lastmile_qr_scan", "ios": "https://dc.lft.to/lastmile_qr_scan"}, "type": "electric_scooter", "fusion_lon": 0.0, "fusion_lat": 0.0}, {"lat": 38.93035033333334, "lon": -77.06079783333334, "is_disabled": 0, "bike_id": "d10fdb77cfe24c1ced07a5a46ebd27f0", "name": "d10fdb77cfe24c1ced07a5a46ebd27f0", "is_reserved": 0, "rental_uris": {"android": "https://dc.lft.to/lastmile_qr_scan", "ios": "https://dc.lft.to/lastmile_qr_scan"}, "type": "electric_scooter", "fusion_lon": 0.0, "fusion_lat": 0.0}, {"lat": 38.92607016666667, "lon": -77.02570866666667, "is_disabled": 0, "bike_id": "20dbf7683b75aa3b55c84f93242278bc", "name": "20dbf7683b75aa3b55c84f93242278bc", "is_reserved": 0, "rental_uris": {"android": "https://dc.lft.to/lastmile_qr_scan", "ios": "https://dc.lft.to/lastmile_qr_scan"}, "type": "electric_scooter", "fusion_lon": 0.0, "fusion_lat": 0.0}, {"lat": 38.9062985, "lon": -77.026902, "is_disabled": 0, "bike_id": "29c1110664ccde04cbfb7de0d9f0397e", "name": "29c1110664ccde04cbfb7de0d9f0397e", "is_reserved": 0, "rental_uris": {"android": "https://dc.lft.to/lastmile_qr_scan", "ios": "https://dc.lft.to/lastmile_qr_scan"}, "type": "electric_scooter", "fusion_lon": 0.0, "fusion_lat": 0.0}, {"lat": 38.8932995, "lon": -76.93930933333333, "is_disabled": 0, "bike_id": "efdbd7842ef2afbcd51f61342c3d8a2f", "name": "efdbd7842ef2afbcd51f61342c3d8a2f", "is_reserved": 0, "rental_uris": {"android": "https://dc.lft.to/lastmile_qr_scan", "ios": "https://dc.lft.to/lastmile_qr_scan"}, "type": "electric_scooter", "fusion_lon": 0.0, "fusion_lat": 0.0}, {"lat": 38.92387983333333, "lon": -77.043029, "is_disabled": 0, "bike_id": "f88d7c5cc9d580f0dd2b554cce14fea3", "name": "f88d7c5cc9d580f0dd2b554cce14fea3", "is_reserved": 0, "rental_uris": {"android": "https://dc.lft.to/lastmile_qr_scan", "ios": "https://dc.lft.to/lastmile_qr_scan"}, "type": "electric_scooter", "fusion_lon": 0.0, "fusion_lat": 0.0}, {"lat": 38.89376133333333, "lon": -77.04193733333334, "is_disabled": 0, "bike_id": "e1a3d15c4b3f47d893a5495453e082e2", "name": "e1a3d15c4b3f47d893a5495453e082e2", "is_reserved": 0, "rental_uris": {"android": "https://dc.lft.to/lastmile_qr_scan", "ios": "https://dc.lft.to/lastmile_qr_scan"}, "type": "electric_scooter", "fusion_lon": 0.0, "fusion_lat": 0.0}, {"lat": 38.88504116666667, "lon": -77.02482533333334, "is_disabled": 0, "bike_id": "39ec8a8085adbfc37c0bba8595b6784b", "name": "39ec8a8085adbfc37c0bba8595b6784b", "is_reserved": 0, "rental_uris": {"android": "https://dc.lft.to/lastmile_qr_scan", "ios": "https://dc.lft.to/lastmile_qr_scan"}, "type": "electric_scooter", "fusion_lon": 0.0, "fusion_lat": 0.0}, {"lat": 38.87547716666667, "lon": -77.00535616666667, "is_disabled": 0, "bike_id": "c311eb6b659f9af1b4e8d227a7572d81", "name": "c311eb6b659f9af1b4e8d227a7572d81", "is_reserved": 0, "rental_uris": {"android": "https://dc.lft.to/lastmile_qr_scan", "ios": "https://dc.lft.to/lastmile_qr_scan"}, "type": "electric_scooter", "fusion_lon": 0.0, "fusion_lat": 0.0}, {"lat": 38.99499483333334, "lon": -77.00133916666667, "is_disabled": 0, "bike_id": "862224cb0ae7d6bf8b5163805c3fa2f2", "name": "862224cb0ae7d6bf8b5163805c3fa2f2", "is_reserved": 0, "rental_uris": {"android": "https://dc.lft.to/lastmile_qr_scan", "ios": "https://dc.lft.to/lastmile_qr_scan"}, "type": "electric_bike", "fusion_lon": 0.0, "fusion_lat": 0.0}, {"lat": 38.92201816666667, "lon": -77.01845633333333, "is_disabled": 0, "bike_id": "05d8b7b5fa75c44d938eed9119f50e28", "name": "05d8b7b5fa75c44d938eed9119f50e28", "is_reserved": 0, "rental_uris": {"android": "https://dc.lft.to/lastmile_qr_scan", "ios": "https://dc.lft.to/lastmile_qr_scan"}, "type": "electric_scooter", "fusion_lon": 0.0, "fusion_lat": 0.0}, {"lat": 38.8205635, "lon": -77.05372883333334, "is_disabled": 0, "bike_id": "e351c896a7a0fc2917c80fc5cc2e5459", "name": "e351c896a7a0fc2917c80fc5cc2e5459", "is_reserved": 0, "rental_uris": {"android": "https://dc.lft.to/lastmile_qr_scan", "ios": "https://dc.lft.to/lastmile_qr_scan"}, "type": "electric_bike", "fusion_lon": 0.0, "fusion_lat": 0.0}, {"lat": 38.9236545, "lon": -77.02066233333333, "is_disabled": 0, "bike_id": "6b2a2e32c097622e4307594c7231dc60", "name": "6b2a2e32c097622e4307594c7231dc60", "is_reserved": 0, "rental_uris": {"android": "https://dc.lft.to/lastmile_qr_scan", "ios": "https://dc.lft.to/lastmile_qr_scan"}, "type": "electric_scooter", "fusion_lon": 0.0, "fusion_lat": 0.0}, {"lat": 38.92616983333333, "lon": -77.021677, "is_disabled": 0, "bike_id": "7fa0e5f5337758d0cc6b0711a9ff8601", "name": "7fa0e5f5337758d0cc6b0711a9ff8601", "is_reserved": 0, "rental_uris": {"android": "https://dc.lft.to/lastmile_qr_scan", "ios": "https://dc.lft.to/lastmile_qr_scan"}, "type": "electric_scooter", "fusion_lon": 0.0, "fusion_lat": 0.0}, {"lat": 38.8655105, "lon": -76.941523, "is_disabled": 0, "bike_id": "1263592ffeb10a01895c23897a6a611c", "name": "1263592ffeb10a01895c23897a6a611c", "is_reserved": 0, "rental_uris": {"android": "https://dc.lft.to/lastmile_qr_scan", "ios": "https://dc.lft.to/lastmile_qr_scan"}, "type": "electric_bike", "fusion_lon": 0.0, "fusion_lat": 0.0}, {"lat": 38.92018683333333, "lon": -77.07169416666666, "is_disabled": 0, "bike_id": "dc956336ecf9e9b7faa2fe018c133370", "name": "dc956336ecf9e9b7faa2fe018c133370", "is_reserved": 0, "rental_uris": {"android": "https://dc.lft.to/lastmile_qr_scan", "ios": "https://dc.lft.to/lastmile_qr_scan"}, "type": "electric_scooter", "fusion_lon": 0.0, "fusion_lat": 0.0}, {"lat": 38.9237475, "lon": -77.01945566666667, "is_disabled": 0, "bike_id": "8c3fb634be6f77c202e47d32324a2349", "name": "8c3fb634be6f77c202e47d32324a2349", "is_reserved": 0, "rental_uris": {"android": "https://dc.lft.to/lastmile_qr_scan", "ios": "https://dc.lft.to/lastmile_qr_scan"}, "type": "electric_scooter", "fusion_lon": 0.0, "fusion_lat": 0.0}, {"lat": 38.921819166666666, "lon": -77.0204785, "is_disabled": 0, "bike_id": "d27f303bc3f131dd4e4d7df84af66561", "name": "d27f303bc3f131dd4e4d7df84af66561", "is_reserved": 0, "rental_uris": {"android": "https://dc.lft.to/lastmile_qr_scan", "ios": "https://dc.lft.to/lastmile_qr_scan"}, "type": "electric_scooter", "fusion_lon": 0.0, "fusion_lat": 0.0}, {"lat": 38.911427, "lon": -77.02805083333334, "is_disabled": 0, "bike_id": "2ac91548d93d01e17232272c46f53dbc", "name": "2ac91548d93d01e17232272c46f53dbc", "is_reserved": 0, "rental_uris": {"android": "https://dc.lft.to/lastmile_qr_scan", "ios": "https://dc.lft.to/lastmile_qr_scan"}, "type": "electric_scooter", "fusion_lon": 0.0, "fusion_lat": 0.0}, {"lat": 38.91889366666667, "lon": -77.04127616666666, "is_disabled": 0, "bike_id": "ba712501b9a166d56b947bd3804bad9b", "name": "ba712501b9a166d56b947bd3804bad9b", "is_reserved": 0, "rental_uris": {"android": "https://dc.lft.to/lastmile_qr_scan", "ios": "https://dc.lft.to/lastmile_qr_scan"}, "type": "electric_scooter", "fusion_lon": 0.0, "fusion_lat": 0.0}, {"lat": 38.92415866666666, "lon": -77.03634616666666, "is_disabled": 0, "bike_id": "9c10776609aef9bf60326e03a3a2b1e5", "name": "9c10776609aef9bf60326e03a3a2b1e5", "is_reserved": 0, "rental_uris": {"android": "https://dc.lft.to/lastmile_qr_scan", "ios": "https://dc.lft.to/lastmile_qr_scan"}, "type": "electric_scooter", "fusion_lon": 0.0, "fusion_lat": 0.0}, {"lat": 38.89944966666667, "lon": -77.02986533333333, "is_disabled": 0, "bike_id": "02f238fc71979676ecd64b890e093f8b", "name": "02f238fc71979676ecd64b890e093f8b", "is_reserved": 0, "rental_uris": {"android": "https://dc.lft.to/lastmile_qr_scan", "ios": "https://dc.lft.to/lastmile_qr_scan"}, "type": "electric_scooter", "fusion_lon": 0.0, "fusion_lat": 0.0}, {"lat": 38.910795666666665, "lon": -77.01617166666666, "is_disabled": 0, "bike_id": "9c4dcd93a21fe12d7cd1ee7ed89e0f2e", "name": "9c4dcd93a21fe12d7cd1ee7ed89e0f2e", "is_reserved": 0, "rental_uris": {"android": "https://dc.lft.to/lastmile_qr_scan", "ios": "https://dc.lft.to/lastmile_qr_scan"}, "type": "electric_scooter", "fusion_lon": 0.0, "fusion_lat": 0.0}, {"lat": 38.900384, "lon": -77.00201833333334, "is_disabled": 0, "bike_id": "fa2b025d2c9627b3e478484466d13cb6", "name": "fa2b025d2c9627b3e478484466d13cb6", "is_reserved": 0, "rental_uris": {"android": "https://dc.lft.to/lastmile_qr_scan", "ios": "https://dc.lft.to/lastmile_qr_scan"}, "type": "electric_scooter", "fusion_lon": 0.0, "fusion_lat": 0.0}, {"lat": 38.9225805, "lon": -77.01945216666667, "is_disabled": 0, "bike_id": "6ecd6ba033189b616e34b86c8d56d035", "name": "6ecd6ba033189b616e34b86c8d56d035", "is_reserved": 0, "rental_uris": {"android": "https://dc.lft.to/lastmile_qr_scan", "ios": "https://dc.lft.to/lastmile_qr_scan"}, "type": "electric_scooter", "fusion_lon": 0.0, "fusion_lat": 0.0}, {"lat": 38.900009833333336, "lon": -77.05544666666667, "is_disabled": 0, "bike_id": "397a0f4b7547c121f591ee57e12440ef", "name": "397a0f4b7547c121f591ee57e12440ef", "is_reserved": 0, "rental_uris": {"android": "https://dc.lft.to/lastmile_qr_scan", "ios": "https://dc.lft.to/lastmile_qr_scan"}, "type": "electric_scooter", "fusion_lon": 0.0, "fusion_lat": 0.0}, {"lat": 38.92134983333333, "lon": -77.04421483333333, "is_disabled": 0, "bike_id": "e0804a50f4e598641331267876505fee", "name": "e0804a50f4e598641331267876505fee", "is_reserved": 0, "rental_uris": {"android": "https://dc.lft.to/lastmile_qr_scan", "ios": "https://dc.lft.to/lastmile_qr_scan"}, "type": "electric_scooter", "fusion_lon": 0.0, "fusion_lat": 0.0}, {"lat": 38.95742116666667, "lon": -77.00226816666667, "is_disabled": 0, "bike_id": "666c648e6ac9179ddadffdb592d21276", "name": "666c648e6ac9179ddadffdb592d21276", "is_reserved": 0, "rental_uris": {"android": "https://dc.lft.to/lastmile_qr_scan", "ios": "https://dc.lft.to/lastmile_qr_scan"}, "type": "electric_scooter", "fusion_lon": 0.0, "fusion_lat": 0.0}, {"lat": 38.883601, "lon": -76.95767583333334, "is_disabled": 0, "bike_id": "48fe66d305665041e8a4f74be8e7b1ce", "name": "48fe66d305665041e8a4f74be8e7b1ce", "is_reserved": 0, "rental_uris": {"android": "https://dc.lft.to/lastmile_qr_scan", "ios": "https://dc.lft.to/lastmile_qr_scan"}, "type": "electric_scooter", "fusion_lon": 0.0, "fusion_lat": 0.0}, {"lat": 38.923691, "lon": -77.03547683333333, "is_disabled": 0, "bike_id": "a1bbdaa3630c31e01105a0c20f82e0e2", "name": "a1bbdaa3630c31e01105a0c20f82e0e2", "is_reserved": 0, "rental_uris": {"android": "https://dc.lft.to/lastmile_qr_scan", "ios": "https://dc.lft.to/lastmile_qr_scan"}, "type": "electric_scooter", "fusion_lon": 0.0, "fusion_lat": 0.0}, {"lat": 38.920559833333336, "lon": -77.022035, "is_disabled": 0, "bike_id": "cdadf83ce85eefd1ff0061a73b19bf1a", "name": "cdadf83ce85eefd1ff0061a73b19bf1a", "is_reserved": 0, "rental_uris": {"android": "https://dc.lft.to/lastmile_qr_scan", "ios": "https://dc.lft.to/lastmile_qr_scan"}, "type": "electric_scooter", "fusion_lon": 0.0, "fusion_lat": 0.0}, {"lat": 38.885235333333334, "lon": -76.977112, "is_disabled": 0, "bike_id": "80873f06bedc6bedb20bf5b3893edfdb", "name": "80873f06bedc6bedb20bf5b3893edfdb", "is_reserved": 0, "rental_uris": {"android": "https://dc.lft.to/lastmile_qr_scan", "ios": "https://dc.lft.to/lastmile_qr_scan"}, "type": "electric_scooter", "fusion_lon": 0.0, "fusion_lat": 0.0}, {"lat": 38.90374166666667, "lon": -77.042836, "is_disabled": 0, "bike_id": "ccdd6ab756625e45f84223fc23312365", "name": "ccdd6ab756625e45f84223fc23312365", "is_reserved": 0, "rental_uris": {"android": "https://dc.lft.to/lastmile_qr_scan", "ios": "https://dc.lft.to/lastmile_qr_scan"}, "type": "electric_scooter", "fusion_lon": 0.0, "fusion_lat": 0.0}, {"lat": 38.92980983333333, "lon": -77.05501, "is_disabled": 0, "bike_id": "f34d4b331ac20156cd349af6463e834e", "name": "f34d4b331ac20156cd349af6463e834e", "is_reserved": 0, "rental_uris": {"android": "https://dc.lft.to/lastmile_qr_scan", "ios": "https://dc.lft.to/lastmile_qr_scan"}, "type": "electric_scooter", "fusion_lon": 0.0, "fusion_lat": 0.0}, {"lat": 38.911301, "lon": -77.03214883333334, "is_disabled": 0, "bike_id": "3dc0d230b83b77a16b3b48a38a5dafa6", "name": "3dc0d230b83b77a16b3b48a38a5dafa6", "is_reserved": 0, "rental_uris": {"android": "https://dc.lft.to/lastmile_qr_scan", "ios": "https://dc.lft.to/lastmile_qr_scan"}, "type": "electric_scooter", "fusion_lon": 0.0, "fusion_lat": 0.0}, {"lat": 38.907408, "lon": -77.04565533333333, "is_disabled": 0, "bike_id": "3a62cbab3acd903bb0efe2285015faeb", "name": "3a62cbab3acd903bb0efe2285015faeb", "is_reserved": 0, "rental_uris": {"android": "https://dc.lft.to/lastmile_qr_scan", "ios": "https://dc.lft.to/lastmile_qr_scan"}, "type": "electric_scooter", "fusion_lon": 0.0, "fusion_lat": 0.0}, {"lat": 38.9095825, "lon": -77.01183283333333, "is_disabled": 0, "bike_id": "ce18deab19497d7040c7b0e541c232ad", "name": "ce18deab19497d7040c7b0e541c232ad", "is_reserved": 0, "rental_uris": {"android": "https://dc.lft.to/lastmile_qr_scan", "ios": "https://dc.lft.to/lastmile_qr_scan"}, "type": "electric_scooter", "fusion_lon": 0.0, "fusion_lat": 0.0}, {"lat": 38.936089, "lon": -77.002203, "is_disabled": 0, "bike_id": "076f90bd11353a0b3bc45214de35bf65", "name": "076f90bd11353a0b3bc45214de35bf65", "is_reserved": 0, "rental_uris": {"android": "https://dc.lft.to/lastmile_qr_scan", "ios": "https://dc.lft.to/lastmile_qr_scan"}, "type": "electric_bike", "fusion_lon": 0.0, "fusion_lat": 0.0}, {"lat": 38.91051266666667, "lon": -77.04375916666666, "is_disabled": 0, "bike_id": "b6013e9168c5f489c264ef26bd86b5cd", "name": "b6013e9168c5f489c264ef26bd86b5cd", "is_reserved": 0, "rental_uris": {"android": "https://dc.lft.to/lastmile_qr_scan", "ios": "https://dc.lft.to/lastmile_qr_scan"}, "type": "electric_scooter", "fusion_lon": 0.0, "fusion_lat": 0.0}, {"lat": 38.9525245, "lon": -77.09623716666667, "is_disabled": 0, "bike_id": "e8747d92e804d04c766be5fd4dad668d", "name": "e8747d92e804d04c766be5fd4dad668d", "is_reserved": 0, "rental_uris": {"android": "https://dc.lft.to/lastmile_qr_scan", "ios": "https://dc.lft.to/lastmile_qr_scan"}, "type": "electric_bike", "fusion_lon": 0.0, "fusion_lat": 0.0}, {"lat": 38.9647565, "lon": -77.035711, "is_disabled": 0, "bike_id": "41a4d70ce21bd88daec34f84d2be924c", "name": "41a4d70ce21bd88daec34f84d2be924c", "is_reserved": 0, "rental_uris": {"android": "https://dc.lft.to/lastmile_qr_scan", "ios": "https://dc.lft.to/lastmile_qr_scan"}, "type": "electric_bike", "fusion_lon": 0.0, "fusion_lat": 0.0}, {"lat": 38.842896833333334, "lon": -77.063608, "is_disabled": 0, "bike_id": "8560ed192d890ab4643a790c7c5c5158", "name": "8560ed192d890ab4643a790c7c5c5158", "is_reserved": 0, "rental_uris": {"android": "https://dc.lft.to/lastmile_qr_scan", "ios": "https://dc.lft.to/lastmile_qr_scan"}, "type": "electric_bike", "fusion_lon": 0.0, "fusion_lat": 0.0}, {"lat": 38.8982915, "lon": -77.019347, "is_disabled": 0, "bike_id": "32448fb17e752bfea96b2e0b0c1ced93", "name": "32448fb17e752bfea96b2e0b0c1ced93", "is_reserved": 0, "rental_uris": {"android": "https://dc.lft.to/lastmile_qr_scan", "ios": "https://dc.lft.to/lastmile_qr_scan"}, "type": "electric_scooter", "fusion_lon": 0.0, "fusion_lat": 0.0}, {"lat": 38.9011015, "lon": -77.01603933333334, "is_disabled": 0, "bike_id": "65a34ec03d27bbf250c8b6b8ea19dab9", "name": "65a34ec03d27bbf250c8b6b8ea19dab9", "is_reserved": 0, "rental_uris": {"android": "https://dc.lft.to/lastmile_qr_scan", "ios": "https://dc.lft.to/lastmile_qr_scan"}, "type": "electric_scooter", "fusion_lon": 0.0, "fusion_lat": 0.0}, {"lat": 38.9427455, "lon": -77.02931716666667, "is_disabled": 0, "bike_id": "ce35b6ddb490602d46b8f5e57027a705", "name": "ce35b6ddb490602d46b8f5e57027a705", "is_reserved": 0, "rental_uris": {"android": "https://dc.lft.to/lastmile_qr_scan", "ios": "https://dc.lft.to/lastmile_qr_scan"}, "type": "electric_scooter", "fusion_lon": 0.0, "fusion_lat": 0.0}, {"lat": 38.943504833333336, "lon": -77.02597616666667, "is_disabled": 0, "bike_id": "0248f70fbff983239a46d815b3a9f164", "name": "0248f70fbff983239a46d815b3a9f164", "is_reserved": 0, "rental_uris": {"android": "https://dc.lft.to/lastmile_qr_scan", "ios": "https://dc.lft.to/lastmile_qr_scan"}, "type": "electric_scooter", "fusion_lon": 0.0, "fusion_lat": 0.0}, {"lat": 38.87640966666667, "lon": -76.99392866666666, "is_disabled": 0, "bike_id": "c2e08a026bca8ef89af5512b92b9a508", "name": "c2e08a026bca8ef89af5512b92b9a508", "is_reserved": 0, "rental_uris": {"android": "https://dc.lft.to/lastmile_qr_scan", "ios": "https://dc.lft.to/lastmile_qr_scan"}, "type": "electric_scooter", "fusion_lon": 0.0, "fusion_lat": 0.0}, {"lat": 38.909764833333334, "lon": -77.03347066666667, "is_disabled": 0, "bike_id": "8c168ef382461e1b16305f2b66bbab56", "name": "8c168ef382461e1b16305f2b66bbab56", "is_reserved": 0, "rental_uris": {"android": "https://dc.lft.to/lastmile_qr_scan", "ios": "https://dc.lft.to/lastmile_qr_scan"}, "type": "electric_scooter", "fusion_lon": 0.0, "fusion_lat": 0.0}, {"lat": 38.90127366666667, "lon": -77.034945, "is_disabled": 0, "bike_id": "60ca368136889528c1e0b4369eefff79", "name": "60ca368136889528c1e0b4369eefff79", "is_reserved": 0, "rental_uris": {"android": "https://dc.lft.to/lastmile_qr_scan", "ios": "https://dc.lft.to/lastmile_qr_scan"}, "type": "electric_scooter", "fusion_lon": 0.0, "fusion_lat": 0.0}, {"lat": 38.92238233333333, "lon": -77.0282405, "is_disabled": 0, "bike_id": "f4e70f1ece35d151c2f775a59a0022f2", "name": "f4e70f1ece35d151c2f775a59a0022f2", "is_reserved": 0, "rental_uris": {"android": "https://dc.lft.to/lastmile_qr_scan", "ios": "https://dc.lft.to/lastmile_qr_scan"}, "type": "electric_scooter", "fusion_lon": 0.0, "fusion_lat": 0.0}, {"lat": 38.9237755, "lon": -77.020613, "is_disabled": 0, "bike_id": "805579af8b5c662b5b9c6244a0b15cf0", "name": "805579af8b5c662b5b9c6244a0b15cf0", "is_reserved": 0, "rental_uris": {"android": "https://dc.lft.to/lastmile_qr_scan", "ios": "https://dc.lft.to/lastmile_qr_scan"}, "type": "electric_scooter", "fusion_lon": 0.0, "fusion_lat": 0.0}, {"lat": 38.9001745, "lon": -77.01231566666667, "is_disabled": 0, "bike_id": "169ea2761b06f8c874ee39f5eec0afbe", "name": "169ea2761b06f8c874ee39f5eec0afbe", "is_reserved": 0, "rental_uris": {"android": "https://dc.lft.to/lastmile_qr_scan", "ios": "https://dc.lft.to/lastmile_qr_scan"}, "type": "electric_scooter", "fusion_lon": 0.0, "fusion_lat": 0.0}, {"lat": 38.8865005, "lon": -77.0009405, "is_disabled": 0, "bike_id": "2d3572f0ed99810c9dd1dcba2b12f44a", "name": "2d3572f0ed99810c9dd1dcba2b12f44a", "is_reserved": 0, "rental_uris": {"android": "https://dc.lft.to/lastmile_qr_scan", "ios": "https://dc.lft.to/lastmile_qr_scan"}, "type": "electric_scooter", "fusion_lon": 0.0, "fusion_lat": 0.0}, {"lat": 38.9005905, "lon": -77.04593266666667, "is_disabled": 0, "bike_id": "01c362bac9c1a28870f2e30a54d5895d", "name": "01c362bac9c1a28870f2e30a54d5895d", "is_reserved": 0, "rental_uris": {"android": "https://dc.lft.to/lastmile_qr_scan", "ios": "https://dc.lft.to/lastmile_qr_scan"}, "type": "electric_scooter", "fusion_lon": 0.0, "fusion_lat": 0.0}, {"lat": 38.8814835, "lon": -77.01300166666667, "is_disabled": 0, "bike_id": "ea2740d517b7804fbf44c6277ab8d2c7", "name": "ea2740d517b7804fbf44c6277ab8d2c7", "is_reserved": 0, "rental_uris": {"android": "https://dc.lft.to/lastmile_qr_scan", "ios": "https://dc.lft.to/lastmile_qr_scan"}, "type": "electric_bike", "fusion_lon": 0.0, "fusion_lat": 0.0}, {"lat": 38.95355, "lon": -76.9809485, "is_disabled": 0, "bike_id": "9063eec8ec26805502a0f98168b152e3", "name": "9063eec8ec26805502a0f98168b152e3", "is_reserved": 0, "rental_uris": {"android": "https://dc.lft.to/lastmile_qr_scan", "ios": "https://dc.lft.to/lastmile_qr_scan"}, "type": "electric_bike", "fusion_lon": 0.0, "fusion_lat": 0.0}, {"lat": 38.902554, "lon": -77.0289595, "is_disabled": 0, "bike_id": "3e57b54603b557ff97d120c2f997fd2e", "name": "3e57b54603b557ff97d120c2f997fd2e", "is_reserved": 0, "rental_uris": {"android": "https://dc.lft.to/lastmile_qr_scan", "ios": "https://dc.lft.to/lastmile_qr_scan"}, "type": "electric_scooter", "fusion_lon": 0.0, "fusion_lat": 0.0}, {"lat": 38.87772733333333, "lon": -76.99514333333333, "is_disabled": 0, "bike_id": "84d095fcef5f7f4ace11b86815d95a36", "name": "84d095fcef5f7f4ace11b86815d95a36", "is_reserved": 0, "rental_uris": {"android": "https://dc.lft.to/lastmile_qr_scan", "ios": "https://dc.lft.to/lastmile_qr_scan"}, "type": "electric_scooter", "fusion_lon": 0.0, "fusion_lat": 0.0}, {"lat": 38.894969, "lon": -77.05512716666667, "is_disabled": 0, "bike_id": "37fa35d07887b8ece7c88390120a57ac", "name": "37fa35d07887b8ece7c88390120a57ac", "is_reserved": 0, "rental_uris": {"android": "https://dc.lft.to/lastmile_qr_scan", "ios": "https://dc.lft.to/lastmile_qr_scan"}, "type": "electric_scooter", "fusion_lon": 0.0, "fusion_lat": 0.0}, {"lat": 38.89241033333333, "lon": -77.03181433333333, "is_disabled": 0, "bike_id": "b94a052053aa227581d69520bdefba3e", "name": "b94a052053aa227581d69520bdefba3e", "is_reserved": 0, "rental_uris": {"android": "https://dc.lft.to/lastmile_qr_scan", "ios": "https://dc.lft.to/lastmile_qr_scan"}, "type": "electric_scooter", "fusion_lon": 0.0, "fusion_lat": 0.0}, {"lat": 38.91710716666667, "lon": -77.09210216666666, "is_disabled": 0, "bike_id": "0ed2331db0e9c8035665a038b6bd5c91", "name": "0ed2331db0e9c8035665a038b6bd5c91", "is_reserved": 0, "rental_uris": {"android": "https://dc.lft.to/lastmile_qr_scan", "ios": "https://dc.lft.to/lastmile_qr_scan"}, "type": "electric_scooter", "fusion_lon": 0.0, "fusion_lat": 0.0}, {"lat": 38.90869516666667, "lon": -77.01838466666666, "is_disabled": 0, "bike_id": "a2d00fa4c5569b3efecc4ec27b373985", "name": "a2d00fa4c5569b3efecc4ec27b373985", "is_reserved": 0, "rental_uris": {"android": "https://dc.lft.to/lastmile_qr_scan", "ios": "https://dc.lft.to/lastmile_qr_scan"}, "type": "electric_scooter", "fusion_lon": 0.0, "fusion_lat": 0.0}, {"lat": 38.922450166666664, "lon": -77.00833883333334, "is_disabled": 0, "bike_id": "b4acfad44d5e2566b663c37c1c6b63c2", "name": "b4acfad44d5e2566b663c37c1c6b63c2", "is_reserved": 0, "rental_uris": {"android": "https://dc.lft.to/lastmile_qr_scan", "ios": "https://dc.lft.to/lastmile_qr_scan"}, "type": "electric_scooter", "fusion_lon": 0.0, "fusion_lat": 0.0}, {"lat": 38.902999, "lon": -77.0468875, "is_disabled": 0, "bike_id": "bf992e41f65370f3f211c82eaa045bab", "name": "bf992e41f65370f3f211c82eaa045bab", "is_reserved": 0, "rental_uris": {"android": "https://dc.lft.to/lastmile_qr_scan", "ios": "https://dc.lft.to/lastmile_qr_scan"}, "type": "electric_scooter", "fusion_lon": 0.0, "fusion_lat": 0.0}, {"lat": 38.92967566666667, "lon": -77.02343583333334, "is_disabled": 0, "bike_id": "91a06321d3a3a342b12a39a4ea608293", "name": "91a06321d3a3a342b12a39a4ea608293", "is_reserved": 0, "rental_uris": {"android": "https://dc.lft.to/lastmile_qr_scan", "ios": "https://dc.lft.to/lastmile_qr_scan"}, "type": "electric_scooter", "fusion_lon": 0.0, "fusion_lat": 0.0}, {"lat": 38.878994666666664, "lon": -76.93523983333333, "is_disabled": 0, "bike_id": "58d8b3084a3c437c578fd6d853239ba3", "name": "58d8b3084a3c437c578fd6d853239ba3", "is_reserved": 0, "rental_uris": {"android": "https://dc.lft.to/lastmile_qr_scan", "ios": "https://dc.lft.to/lastmile_qr_scan"}, "type": "electric_scooter", "fusion_lon": 0.0, "fusion_lat": 0.0}, {"lat": 38.91929616666667, "lon": -77.04179216666667, "is_disabled": 0, "bike_id": "568296be6db57bd7d67367bc213bbed7", "name": "568296be6db57bd7d67367bc213bbed7", "is_reserved": 0, "rental_uris": {"android": "https://dc.lft.to/lastmile_qr_scan", "ios": "https://dc.lft.to/lastmile_qr_scan"}, "type": "electric_scooter", "fusion_lon": 0.0, "fusion_lat": 0.0}, {"lat": 38.96734433333334, "lon": -77.0253575, "is_disabled": 0, "bike_id": "51d96d989ce69c9dcef39fa320cc8d0e", "name": "51d96d989ce69c9dcef39fa320cc8d0e", "is_reserved": 0, "rental_uris": {"android": "https://dc.lft.to/lastmile_qr_scan", "ios": "https://dc.lft.to/lastmile_qr_scan"}, "type": "electric_scooter", "fusion_lon": 0.0, "fusion_lat": 0.0}, {"lat": 38.8220795, "lon": -76.97701216666667, "is_disabled": 0, "bike_id": "ce5b84e8c17695c9295891ee0dff4741", "name": "ce5b84e8c17695c9295891ee0dff4741", "is_reserved": 0, "rental_uris": {"android": "https://dc.lft.to/lastmile_qr_scan", "ios": "https://dc.lft.to/lastmile_qr_scan"}, "type": "electric_bike", "fusion_lon": 0.0, "fusion_lat": 0.0}, {"lat": 38.91444583333333, "lon": -77.01781383333334, "is_disabled": 0, "bike_id": "e70cae3d48ac16c501465815564795cc", "name": "e70cae3d48ac16c501465815564795cc", "is_reserved": 0, "rental_uris": {"android": "https://dc.lft.to/lastmile_qr_scan", "ios": "https://dc.lft.to/lastmile_qr_scan"}, "type": "electric_scooter", "fusion_lon": 0.0, "fusion_lat": 0.0}, {"lat": 38.9051625, "lon": -76.984022, "is_disabled": 0, "bike_id": "5b20ef563912a3073397b2695f1eb40d", "name": "5b20ef563912a3073397b2695f1eb40d", "is_reserved": 0, "rental_uris": {"android": "https://dc.lft.to/lastmile_qr_scan", "ios": "https://dc.lft.to/lastmile_qr_scan"}, "type": "electric_scooter", "fusion_lon": 0.0, "fusion_lat": 0.0}, {"lat": 38.88181516666667, "lon": -77.02213516666667, "is_disabled": 0, "bike_id": "a2bb27e3baad01b238d0e1c19cd6b2fa", "name": "a2bb27e3baad01b238d0e1c19cd6b2fa", "is_reserved": 0, "rental_uris": {"android": "https://dc.lft.to/lastmile_qr_scan", "ios": "https://dc.lft.to/lastmile_qr_scan"}, "type": "electric_scooter", "fusion_lon": 0.0, "fusion_lat": 0.0}, {"lat": 38.85437533333333, "lon": -77.08316016666667, "is_disabled": 0, "bike_id": "784320bd050ac62c16485da33b298af9", "name": "784320bd050ac62c16485da33b298af9", "is_reserved": 0, "rental_uris": {"android": "https://dc.lft.to/lastmile_qr_scan", "ios": "https://dc.lft.to/lastmile_qr_scan"}, "type": "electric_bike", "fusion_lon": 0.0, "fusion_lat": 0.0}, {"lat": 38.94451383333333, "lon": -77.0635355, "is_disabled": 0, "bike_id": "541ad025dd4f6516f723f40bd86f4f35", "name": "541ad025dd4f6516f723f40bd86f4f35", "is_reserved": 0, "rental_uris": {"android": "https://dc.lft.to/lastmile_qr_scan", "ios": "https://dc.lft.to/lastmile_qr_scan"}, "type": "electric_scooter", "fusion_lon": 0.0, "fusion_lat": 0.0}, {"lat": 38.9517385, "lon": -77.03166933333334, "is_disabled": 0, "bike_id": "db60ff65b88781049b14b18489d0ebdc", "name": "db60ff65b88781049b14b18489d0ebdc", "is_reserved": 0, "rental_uris": {"android": "https://dc.lft.to/lastmile_qr_scan", "ios": "https://dc.lft.to/lastmile_qr_scan"}, "type": "electric_bike", "fusion_lon": 0.0, "fusion_lat": 0.0}, {"lat": 38.9082815, "lon": -77.0358885, "is_disabled": 0, "bike_id": "261cb8c1284873def7737acdcbad7b58", "name": "261cb8c1284873def7737acdcbad7b58", "is_reserved": 0, "rental_uris": {"android": "https://dc.lft.to/lastmile_qr_scan", "ios": "https://dc.lft.to/lastmile_qr_scan"}, "type": "electric_scooter", "fusion_lon": 0.0, "fusion_lat": 0.0}, {"lat": 38.91693383333333, "lon": -77.01759583333333, "is_disabled": 0, "bike_id": "984ea2f1a94e18366dc355541e227bb3", "name": "984ea2f1a94e18366dc355541e227bb3", "is_reserved": 0, "rental_uris": {"android": "https://dc.lft.to/lastmile_qr_scan", "ios": "https://dc.lft.to/lastmile_qr_scan"}, "type": "electric_scooter", "fusion_lon": 0.0, "fusion_lat": 0.0}, {"lat": 38.930749666666664, "lon": -77.02167783333333, "is_disabled": 0, "bike_id": "563b9374a3241e7651466458d5d336e1", "name": "563b9374a3241e7651466458d5d336e1", "is_reserved": 0, "rental_uris": {"android": "https://dc.lft.to/lastmile_qr_scan", "ios": "https://dc.lft.to/lastmile_qr_scan"}, "type": "electric_scooter", "fusion_lon": 0.0, "fusion_lat": 0.0}, {"lat": 38.91745983333333, "lon": -77.02406616666667, "is_disabled": 0, "bike_id": "bb337b9c09b895a2c29df7003668c941", "name": "bb337b9c09b895a2c29df7003668c941", "is_reserved": 0, "rental_uris": {"android": "https://dc.lft.to/lastmile_qr_scan", "ios": "https://dc.lft.to/lastmile_qr_scan"}, "type": "electric_scooter", "fusion_lon": 0.0, "fusion_lat": 0.0}, {"lat": 38.90711616666667, "lon": -77.03207466666667, "is_disabled": 0, "bike_id": "a47ae6307d09fad5354b73819cd9b82e", "name": "a47ae6307d09fad5354b73819cd9b82e", "is_reserved": 0, "rental_uris": {"android": "https://dc.lft.to/lastmile_qr_scan", "ios": "https://dc.lft.to/lastmile_qr_scan"}, "type": "electric_scooter", "fusion_lon": 0.0, "fusion_lat": 0.0}, {"lat": 38.92245283333333, "lon": -77.02814833333333, "is_disabled": 0, "bike_id": "6991176047fea3f92c4325de6d328759", "name": "6991176047fea3f92c4325de6d328759", "is_reserved": 0, "rental_uris": {"android": "https://dc.lft.to/lastmile_qr_scan", "ios": "https://dc.lft.to/lastmile_qr_scan"}, "type": "electric_scooter", "fusion_lon": 0.0, "fusion_lat": 0.0}, {"lat": 38.910272666666664, "lon": -77.05288283333333, "is_disabled": 0, "bike_id": "af765efde81e49505659da5b675a778f", "name": "af765efde81e49505659da5b675a778f", "is_reserved": 0, "rental_uris": {"android": "https://dc.lft.to/lastmile_qr_scan", "ios": "https://dc.lft.to/lastmile_qr_scan"}, "type": "electric_scooter", "fusion_lon": 0.0, "fusion_lat": 0.0}, {"lat": 38.9015175, "lon": -77.02838466666667, "is_disabled": 0, "bike_id": "647c96ec89d198f92c430aae9194eaed", "name": "647c96ec89d198f92c430aae9194eaed", "is_reserved": 0, "rental_uris": {"android": "https://dc.lft.to/lastmile_qr_scan", "ios": "https://dc.lft.to/lastmile_qr_scan"}, "type": "electric_scooter", "fusion_lon": 0.0, "fusion_lat": 0.0}, {"lat": 38.9177845, "lon": -77.02305516666667, "is_disabled": 0, "bike_id": "db28f073ded80470418a02025ec0900a", "name": "db28f073ded80470418a02025ec0900a", "is_reserved": 0, "rental_uris": {"android": "https://dc.lft.to/lastmile_qr_scan", "ios": "https://dc.lft.to/lastmile_qr_scan"}, "type": "electric_scooter", "fusion_lon": 0.0, "fusion_lat": 0.0}, {"lat": 38.8971675, "lon": -77.03005933333333, "is_disabled": 0, "bike_id": "a432fce874f2c82cce8a3ff49333d055", "name": "a432fce874f2c82cce8a3ff49333d055", "is_reserved": 0, "rental_uris": {"android": "https://dc.lft.to/lastmile_qr_scan", "ios": "https://dc.lft.to/lastmile_qr_scan"}, "type": "electric_scooter", "fusion_lon": 0.0, "fusion_lat": 0.0}, {"lat": 38.896154, "lon": -77.02207016666667, "is_disabled": 0, "bike_id": "c0a04bea23678eb78a8c3d4ebbd7486a", "name": "c0a04bea23678eb78a8c3d4ebbd7486a", "is_reserved": 0, "rental_uris": {"android": "https://dc.lft.to/lastmile_qr_scan", "ios": "https://dc.lft.to/lastmile_qr_scan"}, "type": "electric_scooter", "fusion_lon": 0.0, "fusion_lat": 0.0}, {"lat": 38.9266385, "lon": -77.0385815, "is_disabled": 0, "bike_id": "89eb8c12b11fb46c598bf77506d578da", "name": "89eb8c12b11fb46c598bf77506d578da", "is_reserved": 0, "rental_uris": {"android": "https://dc.lft.to/lastmile_qr_scan", "ios": "https://dc.lft.to/lastmile_qr_scan"}, "type": "electric_scooter", "fusion_lon": 0.0, "fusion_lat": 0.0}, {"lat": 38.9042045, "lon": -77.02647333333333, "is_disabled": 0, "bike_id": "b37b40d9af487f26a6aed987e3bab0be", "name": "b37b40d9af487f26a6aed987e3bab0be", "is_reserved": 0, "rental_uris": {"android": "https://dc.lft.to/lastmile_qr_scan", "ios": "https://dc.lft.to/lastmile_qr_scan"}, "type": "electric_scooter", "fusion_lon": 0.0, "fusion_lat": 0.0}, {"lat": 38.905409166666665, "lon": -77.02971583333333, "is_disabled": 0, "bike_id": "bbf1c9a81e829668a3ac69dfc76de4ba", "name": "bbf1c9a81e829668a3ac69dfc76de4ba", "is_reserved": 0, "rental_uris": {"android": "https://dc.lft.to/lastmile_qr_scan", "ios": "https://dc.lft.to/lastmile_qr_scan"}, "type": "electric_scooter", "fusion_lon": 0.0, "fusion_lat": 0.0}, {"lat": 38.9396495, "lon": -76.99132233333333, "is_disabled": 0, "bike_id": "7fb7e063c090ad2d36c2cc33c49de720", "name": "7fb7e063c090ad2d36c2cc33c49de720", "is_reserved": 0, "rental_uris": {"android": "https://dc.lft.to/lastmile_qr_scan", "ios": "https://dc.lft.to/lastmile_qr_scan"}, "type": "electric_bike", "fusion_lon": 0.0, "fusion_lat": 0.0}, {"lat": 38.924155166666665, "lon": -77.02140516666667, "is_disabled": 0, "bike_id": "81f5adfc499cd574cdf1c324f39a4b41", "name": "81f5adfc499cd574cdf1c324f39a4b41", "is_reserved": 0, "rental_uris": {"android": "https://dc.lft.to/lastmile_qr_scan", "ios": "https://dc.lft.to/lastmile_qr_scan"}, "type": "electric_scooter", "fusion_lon": 0.0, "fusion_lat": 0.0}, {"lat": 38.80982733333333, "lon": -77.076602, "is_disabled": 0, "bike_id": "cc846bdfac046ce4f43a243db4edcc35", "name": "cc846bdfac046ce4f43a243db4edcc35", "is_reserved": 0, "rental_uris": {"android": "https://dc.lft.to/lastmile_qr_scan", "ios": "https://dc.lft.to/lastmile_qr_scan"}, "type": "electric_bike", "fusion_lon": 0.0, "fusion_lat": 0.0}, {"lat": 38.89983466666666, "lon": -77.02630816666667, "is_disabled": 0, "bike_id": "8f7e42949189346a0a0be1323743d4b9", "name": "8f7e42949189346a0a0be1323743d4b9", "is_reserved": 0, "rental_uris": {"android": "https://dc.lft.to/lastmile_qr_scan", "ios": "https://dc.lft.to/lastmile_qr_scan"}, "type": "electric_scooter", "fusion_lon": 0.0, "fusion_lat": 0.0}, {"lat": 38.911835333333336, "lon": -77.02185566666667, "is_disabled": 0, "bike_id": "9bd9511aaacd9248ad4da8d2ccf7db9c", "name": "9bd9511aaacd9248ad4da8d2ccf7db9c", "is_reserved": 0, "rental_uris": {"android": "https://dc.lft.to/lastmile_qr_scan", "ios": "https://dc.lft.to/lastmile_qr_scan"}, "type": "electric_scooter", "fusion_lon": 0.0, "fusion_lat": 0.0}, {"lat": 38.89921666666667, "lon": -77.04784783333334, "is_disabled": 0, "bike_id": "e3506f5c4f5cd57faab0ffdcbb025ede", "name": "e3506f5c4f5cd57faab0ffdcbb025ede", "is_reserved": 0, "rental_uris": {"android": "https://dc.lft.to/lastmile_qr_scan", "ios": "https://dc.lft.to/lastmile_qr_scan"}, "type": "electric_scooter", "fusion_lon": 0.0, "fusion_lat": 0.0}, {"lat": 38.89637316666666, "lon": -77.0285005, "is_disabled": 0, "bike_id": "fa081c10f2c4eb1955b4d8134e0e8aa4", "name": "fa081c10f2c4eb1955b4d8134e0e8aa4", "is_reserved": 0, "rental_uris": {"android": "https://dc.lft.to/lastmile_qr_scan", "ios": "https://dc.lft.to/lastmile_qr_scan"}, "type": "electric_scooter", "fusion_lon": 0.0, "fusion_lat": 0.0}, {"lat": 38.90878983333333, "lon": -77.040475, "is_disabled": 0, "bike_id": "bdedd4e72577d2868d7f2760cf3c352a", "name": "bdedd4e72577d2868d7f2760cf3c352a", "is_reserved": 0, "rental_uris": {"android": "https://dc.lft.to/lastmile_qr_scan", "ios": "https://dc.lft.to/lastmile_qr_scan"}, "type": "electric_scooter", "fusion_lon": 0.0, "fusion_lat": 0.0}, {"lat": 38.903721166666664, "lon": -77.060033, "is_disabled": 0, "bike_id": "d907a37ffaf811ef6f2b103c5738fc9d", "name": "d907a37ffaf811ef6f2b103c5738fc9d", "is_reserved": 0, "rental_uris": {"android": "https://dc.lft.to/lastmile_qr_scan", "ios": "https://dc.lft.to/lastmile_qr_scan"}, "type": "electric_scooter", "fusion_lon": 0.0, "fusion_lat": 0.0}, {"lat": 38.898227166666665, "lon": -77.01269533333334, "is_disabled": 0, "bike_id": "2df6ef6857457e0a76eaa3786367c8cb", "name": "2df6ef6857457e0a76eaa3786367c8cb", "is_reserved": 0, "rental_uris": {"android": "https://dc.lft.to/lastmile_qr_scan", "ios": "https://dc.lft.to/lastmile_qr_scan"}, "type": "electric_scooter", "fusion_lon": 0.0, "fusion_lat": 0.0}, {"lat": 38.893969, "lon": -76.9782515, "is_disabled": 0, "bike_id": "0fe4ac27ace4e812f582890ed17193ad", "name": "0fe4ac27ace4e812f582890ed17193ad", "is_reserved": 0, "rental_uris": {"android": "https://dc.lft.to/lastmile_qr_scan", "ios": "https://dc.lft.to/lastmile_qr_scan"}, "type": "electric_scooter", "fusion_lon": 0.0, "fusion_lat": 0.0}, {"lat": 38.9006595, "lon": -76.9869085, "is_disabled": 0, "bike_id": "6bab43f1ae47c7b088096c8d551fa109", "name": "6bab43f1ae47c7b088096c8d551fa109", "is_reserved": 0, "rental_uris": {"android": "https://dc.lft.to/lastmile_qr_scan", "ios": "https://dc.lft.to/lastmile_qr_scan"}, "type": "electric_scooter", "fusion_lon": 0.0, "fusion_lat": 0.0}, {"lat": 38.86524283333333, "lon": -76.97337633333333, "is_disabled": 0, "bike_id": "287584b04d749ecbdd30f244576cab08", "name": "287584b04d749ecbdd30f244576cab08", "is_reserved": 0, "rental_uris": {"android": "https://dc.lft.to/lastmile_qr_scan", "ios": "https://dc.lft.to/lastmile_qr_scan"}, "type": "electric_bike", "fusion_lon": 0.0, "fusion_lat": 0.0}, {"lat": 38.85792583333333, "lon": -77.0995905, "is_disabled": 0, "bike_id": "973b446d5e7d2e649b7f4e6a9220ffeb", "name": "973b446d5e7d2e649b7f4e6a9220ffeb", "is_reserved": 0, "rental_uris": {"android": "https://dc.lft.to/lastmile_qr_scan", "ios": "https://dc.lft.to/lastmile_qr_scan"}, "type": "electric_bike", "fusion_lon": 0.0, "fusion_lat": 0.0}, {"lat": 38.9110145, "lon": -77.03204716666667, "is_disabled": 0, "bike_id": "14c8b9ec12b1b9684a1cdcc2c6d70a73", "name": "14c8b9ec12b1b9684a1cdcc2c6d70a73", "is_reserved": 0, "rental_uris": {"android": "https://dc.lft.to/lastmile_qr_scan", "ios": "https://dc.lft.to/lastmile_qr_scan"}, "type": "electric_scooter", "fusion_lon": 0.0, "fusion_lat": 0.0}, {"lat": 38.905757, "lon": -77.03448416666667, "is_disabled": 0, "bike_id": "96c1c514f2a536f0296ffb467421c2be", "name": "96c1c514f2a536f0296ffb467421c2be", "is_reserved": 0, "rental_uris": {"android": "https://dc.lft.to/lastmile_qr_scan", "ios": "https://dc.lft.to/lastmile_qr_scan"}, "type": "electric_scooter", "fusion_lon": 0.0, "fusion_lat": 0.0}, {"lat": 38.87550066666667, "lon": -77.005843, "is_disabled": 0, "bike_id": "ca125f0409a4f49ab0863ff746efe909", "name": "ca125f0409a4f49ab0863ff746efe909", "is_reserved": 0, "rental_uris": {"android": "https://dc.lft.to/lastmile_qr_scan", "ios": "https://dc.lft.to/lastmile_qr_scan"}, "type": "electric_scooter", "fusion_lon": 0.0, "fusion_lat": 0.0}, {"lat": 38.99806433333333, "lon": -76.99801216666667, "is_disabled": 0, "bike_id": "5b3baf677c8e63a784fe7e993158f4b5", "name": "5b3baf677c8e63a784fe7e993158f4b5", "is_reserved": 0, "rental_uris": {"android": "https://dc.lft.to/lastmile_qr_scan", "ios": "https://dc.lft.to/lastmile_qr_scan"}, "type": "electric_bike", "fusion_lon": 0.0, "fusion_lat": 0.0}, {"lat": 38.9278715, "lon": -77.0212285, "is_disabled": 0, "bike_id": "ab651384ceaf11c3b9fe3f801d48d7fc", "name": "ab651384ceaf11c3b9fe3f801d48d7fc", "is_reserved": 0, "rental_uris": {"android": "https://dc.lft.to/lastmile_qr_scan", "ios": "https://dc.lft.to/lastmile_qr_scan"}, "type": "electric_scooter", "fusion_lon": 0.0, "fusion_lat": 0.0}, {"lat": 38.935807833333335, "lon": -77.02249116666667, "is_disabled": 0, "bike_id": "35cb02ed51c158c2bd5119838ee38abb", "name": "35cb02ed51c158c2bd5119838ee38abb", "is_reserved": 0, "rental_uris": {"android": "https://dc.lft.to/lastmile_qr_scan", "ios": "https://dc.lft.to/lastmile_qr_scan"}, "type": "electric_scooter", "fusion_lon": 0.0, "fusion_lat": 0.0}, {"lat": 38.89212366666667, "lon": -76.96116716666667, "is_disabled": 0, "bike_id": "9feecb48795862951ed809125e95d1fc", "name": "9feecb48795862951ed809125e95d1fc", "is_reserved": 0, "rental_uris": {"android": "https://dc.lft.to/lastmile_qr_scan", "ios": "https://dc.lft.to/lastmile_qr_scan"}, "type": "electric_scooter", "fusion_lon": 0.0, "fusion_lat": 0.0}, {"lat": 38.907115, "lon": -77.02813966666666, "is_disabled": 0, "bike_id": "e5c4381ecaa3f72a80f1b4c7d6566d1c", "name": "e5c4381ecaa3f72a80f1b4c7d6566d1c", "is_reserved": 0, "rental_uris": {"android": "https://dc.lft.to/lastmile_qr_scan", "ios": "https://dc.lft.to/lastmile_qr_scan"}, "type": "electric_scooter", "fusion_lon": 0.0, "fusion_lat": 0.0}, {"lat": 38.90729983333333, "lon": -76.9990325, "is_disabled": 0, "bike_id": "ab2c1088d4a51bfc9d9d63e713fca4ef", "name": "ab2c1088d4a51bfc9d9d63e713fca4ef", "is_reserved": 0, "rental_uris": {"android": "https://dc.lft.to/lastmile_qr_scan", "ios": "https://dc.lft.to/lastmile_qr_scan"}, "type": "electric_scooter", "fusion_lon": 0.0, "fusion_lat": 0.0}, {"lat": 38.904159, "lon": -77.02041966666667, "is_disabled": 0, "bike_id": "b44605a9011fe290ee7c727a5e25db36", "name": "b44605a9011fe290ee7c727a5e25db36", "is_reserved": 0, "rental_uris": {"android": "https://dc.lft.to/lastmile_qr_scan", "ios": "https://dc.lft.to/lastmile_qr_scan"}, "type": "electric_scooter", "fusion_lon": 0.0, "fusion_lat": 0.0}, {"lat": 38.92259166666667, "lon": -77.02549166666667, "is_disabled": 0, "bike_id": "10890eaf2c744dd51deb78215a0228f9", "name": "10890eaf2c744dd51deb78215a0228f9", "is_reserved": 0, "rental_uris": {"android": "https://dc.lft.to/lastmile_qr_scan", "ios": "https://dc.lft.to/lastmile_qr_scan"}, "type": "electric_scooter", "fusion_lon": 0.0, "fusion_lat": 0.0}, {"lat": 38.92121366666667, "lon": -77.04362133333333, "is_disabled": 0, "bike_id": "5f8f9223480651d881593b85aadedd39", "name": "5f8f9223480651d881593b85aadedd39", "is_reserved": 0, "rental_uris": {"android": "https://dc.lft.to/lastmile_qr_scan", "ios": "https://dc.lft.to/lastmile_qr_scan"}, "type": "electric_scooter", "fusion_lon": 0.0, "fusion_lat": 0.0}, {"lat": 38.90654933333333, "lon": -76.98601533333333, "is_disabled": 0, "bike_id": "651438c5cf736838dad0c9281a5fe8e8", "name": "651438c5cf736838dad0c9281a5fe8e8", "is_reserved": 0, "rental_uris": {"android": "https://dc.lft.to/lastmile_qr_scan", "ios": "https://dc.lft.to/lastmile_qr_scan"}, "type": "electric_scooter", "fusion_lon": 0.0, "fusion_lat": 0.0}, {"lat": 38.874794, "lon": -77.01885083333333, "is_disabled": 0, "bike_id": "aa63e98bf4752094602cd281fedce07f", "name": "aa63e98bf4752094602cd281fedce07f", "is_reserved": 0, "rental_uris": {"android": "https://dc.lft.to/lastmile_qr_scan", "ios": "https://dc.lft.to/lastmile_qr_scan"}, "type": "electric_scooter", "fusion_lon": 0.0, "fusion_lat": 0.0}, {"lat": 38.918056166666666, "lon": -77.039999, "is_disabled": 0, "bike_id": "a0b61f2b1a7804220b270dbca0735c3c", "name": "a0b61f2b1a7804220b270dbca0735c3c", "is_reserved": 0, "rental_uris": {"android": "https://dc.lft.to/lastmile_qr_scan", "ios": "https://dc.lft.to/lastmile_qr_scan"}, "type": "electric_scooter", "fusion_lon": 0.0, "fusion_lat": 0.0}, {"lat": 38.85631383333333, "lon": -76.9907505, "is_disabled": 0, "bike_id": "c01f96d9d40c13edf7412b27d25f355e", "name": "c01f96d9d40c13edf7412b27d25f355e", "is_reserved": 0, "rental_uris": {"android": "https://dc.lft.to/lastmile_qr_scan", "ios": "https://dc.lft.to/lastmile_qr_scan"}, "type": "electric_scooter", "fusion_lon": 0.0, "fusion_lat": 0.0}, {"lat": 38.907207166666666, "lon": -76.9300675, "is_disabled": 0, "bike_id": "ba71f5b678bebf7737bd650f2fac08f6", "name": "ba71f5b678bebf7737bd650f2fac08f6", "is_reserved": 0, "rental_uris": {"android": "https://dc.lft.to/lastmile_qr_scan", "ios": "https://dc.lft.to/lastmile_qr_scan"}, "type": "electric_scooter", "fusion_lon": 0.0, "fusion_lat": 0.0}, {"lat": 38.89687416666666, "lon": -77.01203516666666, "is_disabled": 0, "bike_id": "e841c7e9376040e09ee9af2e2b603521", "name": "e841c7e9376040e09ee9af2e2b603521", "is_reserved": 0, "rental_uris": {"android": "https://dc.lft.to/lastmile_qr_scan", "ios": "https://dc.lft.to/lastmile_qr_scan"}, "type": "electric_scooter", "fusion_lon": 0.0, "fusion_lat": 0.0}, {"lat": 38.87218816666667, "lon": -77.0057555, "is_disabled": 0, "bike_id": "886d51bcc68a92430f72f658caf5c856", "name": "886d51bcc68a92430f72f658caf5c856", "is_reserved": 0, "rental_uris": {"android": "https://dc.lft.to/lastmile_qr_scan", "ios": "https://dc.lft.to/lastmile_qr_scan"}, "type": "electric_scooter", "fusion_lon": 0.0, "fusion_lat": 0.0}, {"lat": 38.883391333333336, "lon": -77.01525266666667, "is_disabled": 0, "bike_id": "21795d185b6c66189a7f0ac3849b6b95", "name": "21795d185b6c66189a7f0ac3849b6b95", "is_reserved": 0, "rental_uris": {"android": "https://dc.lft.to/lastmile_qr_scan", "ios": "https://dc.lft.to/lastmile_qr_scan"}, "type": "electric_scooter", "fusion_lon": 0.0, "fusion_lat": 0.0}, {"lat": 38.88436216666667, "lon": -77.030417, "is_disabled": 0, "bike_id": "b4ba96eeba844df3aaa76df7b3d42f07", "name": "b4ba96eeba844df3aaa76df7b3d42f07", "is_reserved": 0, "rental_uris": {"android": "https://dc.lft.to/lastmile_qr_scan", "ios": "https://dc.lft.to/lastmile_qr_scan"}, "type": "electric_scooter", "fusion_lon": 0.0, "fusion_lat": 0.0}, {"lat": 38.936907166666664, "lon": -77.08429416666667, "is_disabled": 0, "bike_id": "381c3a0cd2104ec76be290cb74e7d9b3", "name": "381c3a0cd2104ec76be290cb74e7d9b3", "is_reserved": 0, "rental_uris": {"android": "https://dc.lft.to/lastmile_qr_scan", "ios": "https://dc.lft.to/lastmile_qr_scan"}, "type": "electric_scooter", "fusion_lon": 0.0, "fusion_lat": 0.0}, {"lat": 38.87474616666667, "lon": -77.00516766666667, "is_disabled": 0, "bike_id": "0e69df41d4e053e7beafa4812507e16c", "name": "0e69df41d4e053e7beafa4812507e16c", "is_reserved": 0, "rental_uris": {"android": "https://dc.lft.to/lastmile_qr_scan", "ios": "https://dc.lft.to/lastmile_qr_scan"}, "type": "electric_scooter", "fusion_lon": 0.0, "fusion_lat": 0.0}, {"lat": 38.9026675, "lon": -77.03850116666666, "is_disabled": 0, "bike_id": "64dba13ea1c6bde70db9132b21c25e61", "name": "64dba13ea1c6bde70db9132b21c25e61", "is_reserved": 0, "rental_uris": {"android": "https://dc.lft.to/lastmile_qr_scan", "ios": "https://dc.lft.to/lastmile_qr_scan"}, "type": "electric_scooter", "fusion_lon": 0.0, "fusion_lat": 0.0}, {"lat": 38.90203983333333, "lon": -77.04511716666667, "is_disabled": 0, "bike_id": "e262b55a86fe17d8be8531608646bd5e", "name": "e262b55a86fe17d8be8531608646bd5e", "is_reserved": 0, "rental_uris": {"android": "https://dc.lft.to/lastmile_qr_scan", "ios": "https://dc.lft.to/lastmile_qr_scan"}, "type": "electric_scooter", "fusion_lon": 0.0, "fusion_lat": 0.0}, {"lat": 38.91602283333334, "lon": -77.04961866666666, "is_disabled": 0, "bike_id": "1309d2459aa21ec4749d4b2f7f347add", "name": "1309d2459aa21ec4749d4b2f7f347add", "is_reserved": 0, "rental_uris": {"android": "https://dc.lft.to/lastmile_qr_scan", "ios": "https://dc.lft.to/lastmile_qr_scan"}, "type": "electric_scooter", "fusion_lon": 0.0, "fusion_lat": 0.0}, {"lat": 38.917572166666666, "lon": -77.02117033333333, "is_disabled": 0, "bike_id": "77a38bdcb8a905af1861cc02780ad823", "name": "77a38bdcb8a905af1861cc02780ad823", "is_reserved": 0, "rental_uris": {"android": "https://dc.lft.to/lastmile_qr_scan", "ios": "https://dc.lft.to/lastmile_qr_scan"}, "type": "electric_scooter", "fusion_lon": 0.0, "fusion_lat": 0.0}, {"lat": 38.9010075, "lon": -77.01640333333333, "is_disabled": 0, "bike_id": "510d8225ce9116cbbc5054120df6a4e4", "name": "510d8225ce9116cbbc5054120df6a4e4", "is_reserved": 0, "rental_uris": {"android": "https://dc.lft.to/lastmile_qr_scan", "ios": "https://dc.lft.to/lastmile_qr_scan"}, "type": "electric_scooter", "fusion_lon": 0.0, "fusion_lat": 0.0}, {"lat": 38.952618666666666, "lon": -77.02075583333334, "is_disabled": 0, "bike_id": "ea900212a4a20cd1f43f1552bf995c5f", "name": "ea900212a4a20cd1f43f1552bf995c5f", "is_reserved": 0, "rental_uris": {"android": "https://dc.lft.to/lastmile_qr_scan", "ios": "https://dc.lft.to/lastmile_qr_scan"}, "type": "electric_scooter", "fusion_lon": 0.0, "fusion_lat": 0.0}, {"lat": 38.89373533333333, "lon": -77.04180866666667, "is_disabled": 0, "bike_id": "26d9f760bd79f71d4a99c2554a395272", "name": "26d9f760bd79f71d4a99c2554a395272", "is_reserved": 0, "rental_uris": {"android": "https://dc.lft.to/lastmile_qr_scan", "ios": "https://dc.lft.to/lastmile_qr_scan"}, "type": "electric_scooter", "fusion_lon": 0.0, "fusion_lat": 0.0}, {"lat": 38.901651333333334, "lon": -77.026823, "is_disabled": 0, "bike_id": "85309fb7f6e310ad850c384fa561813c", "name": "85309fb7f6e310ad850c384fa561813c", "is_reserved": 0, "rental_uris": {"android": "https://dc.lft.to/lastmile_qr_scan", "ios": "https://dc.lft.to/lastmile_qr_scan"}, "type": "electric_scooter", "fusion_lon": 0.0, "fusion_lat": 0.0}, {"lat": 38.905097166666664, "lon": -77.06521733333334, "is_disabled": 0, "bike_id": "46d62ad5e2f0f85740cbfb63f880e514", "name": "46d62ad5e2f0f85740cbfb63f880e514", "is_reserved": 0, "rental_uris": {"android": "https://dc.lft.to/lastmile_qr_scan", "ios": "https://dc.lft.to/lastmile_qr_scan"}, "type": "electric_scooter", "fusion_lon": 0.0, "fusion_lat": 0.0}, {"lat": 38.932715333333334, "lon": -77.01922066666667, "is_disabled": 0, "bike_id": "c7a319b8bba2e22d74afa960df24a014", "name": "c7a319b8bba2e22d74afa960df24a014", "is_reserved": 0, "rental_uris": {"android": "https://dc.lft.to/lastmile_qr_scan", "ios": "https://dc.lft.to/lastmile_qr_scan"}, "type": "electric_scooter", "fusion_lon": 0.0, "fusion_lat": 0.0}, {"lat": 38.9110395, "lon": -77.00935, "is_disabled": 0, "bike_id": "bad23ecddd6694afd2b66a65910cb822", "name": "bad23ecddd6694afd2b66a65910cb822", "is_reserved": 0, "rental_uris": {"android": "https://dc.lft.to/lastmile_qr_scan", "ios": "https://dc.lft.to/lastmile_qr_scan"}, "type": "electric_scooter", "fusion_lon": 0.0, "fusion_lat": 0.0}, {"lat": 38.896154833333334, "lon": -77.0459505, "is_disabled": 0, "bike_id": "89a488cf550e9315a95a3e056fd9d720", "name": "89a488cf550e9315a95a3e056fd9d720", "is_reserved": 0, "rental_uris": {"android": "https://dc.lft.to/lastmile_qr_scan", "ios": "https://dc.lft.to/lastmile_qr_scan"}, "type": "electric_scooter", "fusion_lon": 0.0, "fusion_lat": 0.0}, {"lat": 38.9170455, "lon": -77.02859083333334, "is_disabled": 0, "bike_id": "3fad4f4f355ac9c0bac96e93330324f4", "name": "3fad4f4f355ac9c0bac96e93330324f4", "is_reserved": 0, "rental_uris": {"android": "https://dc.lft.to/lastmile_qr_scan", "ios": "https://dc.lft.to/lastmile_qr_scan"}, "type": "electric_scooter", "fusion_lon": 0.0, "fusion_lat": 0.0}, {"lat": 38.8998375, "lon": -77.04190683333333, "is_disabled": 0, "bike_id": "a52f98a2e84f8bfcd5761c81b492e062", "name": "a52f98a2e84f8bfcd5761c81b492e062", "is_reserved": 0, "rental_uris": {"android": "https://dc.lft.to/lastmile_qr_scan", "ios": "https://dc.lft.to/lastmile_qr_scan"}, "type": "electric_scooter", "fusion_lon": 0.0, "fusion_lat": 0.0},