{"data": {"bikes": [{"fusion_lat": 0.0, "name": "d871b96dfcd99e0e50f923c17aa29d73", "is_disabled": 0, "rental_uris": {"android": "https://dc.lft.to/lastmile_qr_scan", "ios": "https://dc.lft.to/lastmile_qr_scan"}, "fusion_lon": 0.0, "lat": 38.874662, "bike_id": "d871b96dfcd99e0e50f923c17aa29d73", "type": "electric_scooter", "is_reserved": 0, "lon": -77.00471333333333}, {"fusion_lat": 0.0, "name": "ef116c5195e9891a1556aba4dcfc98f9", "is_disabled": 0, "rental_uris": {"android": "https://dc.lft.to/lastmile_qr_scan", "ios": "https://dc.lft.to/lastmile_qr_scan"}, "fusion_lon": 0.0, "lat": 38.9125265, "bike_id": "ef116c5195e9891a1556aba4dcfc98f9", "type": "electric_scooter", "is_reserved": 0, "lon": -77.03496433333333}, {"fusion_lat": 0.0, "name": "04328cc4337e37fb5dc6f9f49da63206", "is_disabled": 0, "rental_uris": {"android": "https://dc.lft.to/lastmile_qr_scan", "ios": "https://dc.lft.to/lastmile_qr_scan"}, "fusion_lon": 0.0, "lat": 38.92122766666667, "bike_id": "04328cc4337e37fb5dc6f9f49da63206", "type": "electric_scooter", "is_reserved": 0, "lon": -77.02557166666666}, {"fusion_lat": 0.0, "name": "e73cd802139d37ba51b1064c48bf5b39", "is_disabled": 0, "rental_uris": {"android": "https://dc.lft.to/lastmile_qr_scan", "ios": "https://dc.lft.to/lastmile_qr_scan"}, "fusion_lon": 0.0, "lat": 38.871053333333336, "bike_id": "e73cd802139d37ba51b1064c48bf5b39", "type": "electric_scooter", "is_reserved": 0, "lon": -76.965786}, {"fusion_lat": 0.0, "name": "201c470cee98d878a2c1df8ea2256afc", "is_disabled": 0, "rental_uris": {"android": "https://dc.lft.to/lastmile_qr_scan", "ios": "https://dc.lft.to/lastmile_qr_scan"}, "fusion_lon": 0.0, "lat": 38.907473, "bike_id": "201c470cee98d878a2c1df8ea2256afc", "type": "electric_scooter", "is_reserved": 0, "lon": -77.00507466666667}, {"fusion_lat": 0.0, "name": "1a5723c5ebb358c5b44d8a4e81041bbb", "is_disabled": 0, "rental_uris": {"android": "https://dc.lft.to/lastmile_qr_scan", "ios": "https://dc.lft.to/lastmile_qr_scan"}, "fusion_lon": 0.0, "lat": 38.902573, "bike_id": "1a5723c5ebb358c5b44d8a4e81041bbb", "type": "electric_scooter", "is_reserved": 0, "lon": -77.00527666666666}, {"fusion_lat": 0.0, "name": "20eb9a62fa5b7d5d6195ca7bdb59185d", "is_disabled": 0, "rental_uris": {"android": "https://dc.lft.to/lastmile_qr_scan", "ios": "https://dc.lft.to/lastmile_qr_scan"}, "fusion_lon": 0.0, "lat": 38.903873, "bike_id": "20eb9a62fa5b7d5d6195ca7bdb59185d", "type": "electric_scooter", "is_reserved": 0, "lon": -77.00730033333333}, {"fusion_lat": 0.0, "name": "49de99a1a128cc62c83ea5604c155e9c", "is_disabled": 0, "rental_uris": {"android": "https://dc.lft.to/lastmile_qr_scan", "ios": "https://dc.lft.to/lastmile_qr_scan"}, "fusion_lon": 0.0, "lat": 38.9116235, "bike_id": "49de99a1a128cc62c83ea5604c155e9c", "type": "electric_scooter", "is_reserved": 0, "lon": -77.01110233333333}, {"fusion_lat": 0.0, "name": "48f6ba53ee20defc3bbc1834db82deff", "is_disabled": 0, "rental_uris": {"android": "https://dc.lft.to/lastmile_qr_scan", "ios": "https://dc.lft.to/lastmile_qr_scan"}, "fusion_lon": 0.0, "lat": 38.928701, "bike_id": "48f6ba53ee20defc3bbc1834db82deff", "type": "electric_scooter", "is_reserved": 0, "lon": -77.0135875}, {"fusion_lat": 0.0, "name": "cbb91615b5469be395419cae4dc0b251", "is_disabled": 0, "rental_uris": {"android": "https://dc.lft.to/lastmile_qr_scan", "ios": "https://dc.lft.to/lastmile_qr_scan"}, "fusion_lon": 0.0, "lat": 38.910106666666664, "bike_id": "cbb91615b5469be395419cae4dc0b251", "type": "electric_scooter", "is_reserved": 0, "lon": -77.038411}, {"fusion_lat": 0.0, "name": "22b76b4267c46255e7ef5bc16128e4a4", "is_disabled": 0, "rental_uris": {"android": "https://dc.lft.to/lastmile_qr_scan", "ios": "https://dc.lft.to/lastmile_qr_scan"}, "fusion_lon": 0.0, "lat": 38.90368433333333, "bike_id": "22b76b4267c46255e7ef5bc16128e4a4", "type": "electric_scooter", "is_reserved": 0, "lon": -77.03428866666667}, {"fusion_lat": 0.0, "name": "0f3373cdd3529ae14407a3e10f8c7f80", "is_disabled": 0, "rental_uris": {"android": "https://dc.lft.to/lastmile_qr_scan", "ios": "https://dc.lft.to/lastmile_qr_scan"}, "fusion_lon": 0.0, "lat": 38.90681266666667, "bike_id": "0f3373cdd3529ae14407a3e10f8c7f80", "type": "electric_scooter", "is_reserved": 0, "lon": -77.0269225}, {"fusion_lat": 0.0, "name": "7597220ce625a312586716a56ed4d030", "is_disabled": 0, "rental_uris": {"android": "https://dc.lft.to/lastmile_qr_scan", "ios": "https://dc.lft.to/lastmile_qr_scan"}, "fusion_lon": 0.0, "lat": 38.90521866666667, "bike_id": "7597220ce625a312586716a56ed4d030", "type": "electric_scooter", "is_reserved": 0, "lon": -77.06000783333333}, {"fusion_lat": 0.0, "name": "e137d82a6613f8b427e370968eb901e7", "is_disabled": 0, "rental_uris": {"android": "https://dc.lft.to/lastmile_qr_scan", "ios": "https://dc.lft.to/lastmile_qr_scan"}, "fusion_lon": 0.0, "lat": 38.927247666666666, "bike_id": "e137d82a6613f8b427e370968eb901e7", "type": "electric_scooter", "is_reserved": 0, "lon": -77.02309183333334}, {"fusion_lat": 0.0, "name": "4de7dad361eacefee9f238e0ff90ad5f", "is_disabled": 0, "rental_uris": {"android": "https://dc.lft.to/lastmile_qr_scan", "ios": "https://dc.lft.to/lastmile_qr_scan"}, "fusion_lon": 0.0, "lat": 38.878475, "bike_id": "4de7dad361eacefee9f238e0ff90ad5f", "type": "electric_scooter", "is_reserved": 0, "lon": -77.001092}, {"fusion_lat": 0.0, "name": "492ed6b7cf6ea22545a3907432dc7e6c", "is_disabled": 0, "rental_uris": {"android": "https://dc.lft.to/lastmile_qr_scan", "ios": "https://dc.lft.to/lastmile_qr_scan"}, "fusion_lon": 0.0, "lat": 38.90694966666667, "bike_id": "492ed6b7cf6ea22545a3907432dc7e6c", "type": "electric_scooter", "is_reserved": 0, "lon": -76.988537}, {"fusion_lat": 0.0, "name": "4cada9115dbbfea1327bdff04cb05b90", "is_disabled": 0, "rental_uris": {"android": "https://dc.lft.to/lastmile_qr_scan", "ios": "https://dc.lft.to/lastmile_qr_scan"}, "fusion_lon": 0.0, "lat": 38.92453116666667, "bike_id": "4cada9115dbbfea1327bdff04cb05b90", "type": "electric_scooter", "is_reserved": 0, "lon": -76.97106233333334}, {"fusion_lat": 0.0, "name": "1002958ba7798ea142ad8863fafe831d", "is_disabled": 0, "rental_uris": {"android": "https://dc.lft.to/lastmile_qr_scan", "ios": "https://dc.lft.to/lastmile_qr_scan"}, "fusion_lon": 0.0, "lat": 38.8908905, "bike_id": "1002958ba7798ea142ad8863fafe831d", "type": "electric_scooter", "is_reserved": 0, "lon": -76.91925783333333}, {"fusion_lat": 0.0, "name": "5b23e1cb4f3a8a50f926d9b5f99da4a9", "is_disabled": 0, "rental_uris": {"android": "https://dc.lft.to/lastmile_qr_scan", "ios": "https://dc.lft.to/lastmile_qr_scan"}, "fusion_lon": 0.0, "lat": 38.93222033333333, "bike_id": "5b23e1cb4f3a8a50f926d9b5f99da4a9", "type": "electric_scooter", "is_reserved": 0, "lon": -76.99491383333333}, {"fusion_lat": 0.0, "name": "f528d67c19264bb38033857ab59132a6", "is_disabled": 0, "rental_uris": {"android": "https://dc.lft.to/lastmile_qr_scan", "ios": "https://dc.lft.to/lastmile_qr_scan"}, "fusion_lon": 0.0, "lat": 38.90725616666667, "bike_id": "f528d67c19264bb38033857ab59132a6", "type": "electric_scooter", "is_reserved": 0, "lon": -77.01097883333334}, {"fusion_lat": 0.0, "name": "fd566854f4cbb36ba06e75942c0ed6a2", "is_disabled": 0, "rental_uris": {"android": "https://dc.lft.to/lastmile_qr_scan", "ios": "https://dc.lft.to/lastmile_qr_scan"}, "fusion_lon": 0.0, "lat": 38.92472333333333, "bike_id": "fd566854f4cbb36ba06e75942c0ed6a2", "type": "electric_scooter", "is_reserved": 0, "lon": -77.030914}, {"fusion_lat": 0.0, "name": "524eda4ece5e6ffd03f5254cd9effdcc", "is_disabled": 0, "rental_uris": {"android": "https://dc.lft.to/lastmile_qr_scan", "ios": "https://dc.lft.to/lastmile_qr_scan"}, "fusion_lon": 0.0, "lat": 38.90871766666667, "bike_id": "524eda4ece5e6ffd03f5254cd9effdcc", "type": "electric_scooter", "is_reserved": 0, "lon": -76.99791266666666}, {"fusion_lat": 0.0, "name": "8974d93330b05efc3282fb039d677773", "is_disabled": 0, "rental_uris": {"android": "https://dc.lft.to/lastmile_qr_scan", "ios": "https://dc.lft.to/lastmile_qr_scan"}, "fusion_lon": 0.0, "lat": 38.944327666666666, "bike_id": "8974d93330b05efc3282fb039d677773", "type": "electric_bike", "is_reserved": 0, "lon": -77.0260375}, {"fusion_lat": 0.0, "name": "6284a83ee0ccd259099454759c9abf1c", "is_disabled": 0, "rental_uris": {"android": "https://dc.lft.to/lastmile_qr_scan", "ios": "https://dc.lft.to/lastmile_qr_scan"}, "fusion_lon": 0.0, "lat": 38.92143083333333, "bike_id": "6284a83ee0ccd259099454759c9abf1c", "type": "electric_scooter", "is_reserved": 0, "lon": -77.017992}, {"fusion_lat": 0.0, "name": "3872fdeb60331ac18b873da71ac1823c", "is_disabled": 0, "rental_uris": {"android": "https://dc.lft.to/lastmile_qr_scan", "ios": "https://dc.lft.to/lastmile_qr_scan"}, "fusion_lon": 0.0, "lat": 38.96123433333333, "bike_id": "3872fdeb60331ac18b873da71ac1823c", "type": "electric_scooter", "is_reserved": 0, "lon": -77.02786583333334}, {"fusion_lat": 0.0, "name": "b080e1283997dd5ee0760d36d461453d", "is_disabled": 0, "rental_uris": {"android": "https://dc.lft.to/lastmile_qr_scan", "ios": "https://dc.lft.to/lastmile_qr_scan"}, "fusion_lon": 0.0, "lat": 38.90225383333333, "bike_id": "b080e1283997dd5ee0760d36d461453d", "type": "electric_scooter", "is_reserved": 0, "lon": -77.061347}, {"fusion_lat": 0.0, "name": "93021a5beee8a783fc141383485fb04d", "is_disabled": 0, "rental_uris": {"android": "https://dc.lft.to/lastmile_qr_scan", "ios": "https://dc.lft.to/lastmile_qr_scan"}, "fusion_lon": 0.0, "lat": 38.880201, "bike_id": "93021a5beee8a783fc141383485fb04d", "type": "electric_scooter", "is_reserved": 0, "lon": -76.93114416666667}, {"fusion_lat": 0.0, "name": "77c27ec685f8b67d5378090e11c99692", "is_disabled": 0, "rental_uris": {"android": "https://dc.lft.to/lastmile_qr_scan", "ios": "https://dc.lft.to/lastmile_qr_scan"}, "fusion_lon": 0.0, "lat": 38.8962135, "bike_id": "77c27ec685f8b67d5378090e11c99692", "type": "electric_scooter", "is_reserved": 0, "lon": -77.009414}, {"fusion_lat": 0.0, "name": "dd00b89a826e2d7728d92d24ce8b8547", "is_disabled": 0, "rental_uris": {"android": "https://dc.lft.to/lastmile_qr_scan", "ios": "https://dc.lft.to/lastmile_qr_scan"}, "fusion_lon": 0.0, "lat": 38.92112816666667, "bike_id": "dd00b89a826e2d7728d92d24ce8b8547", "type": "electric_scooter", "is_reserved": 0, "lon": -77.06329683333334}, {"fusion_lat": 0.0, "name": "2abea6a83ff56d692943c13d3a9a6f1a", "is_disabled": 0, "rental_uris": {"android": "https://dc.lft.to/lastmile_qr_scan", "ios": "https://dc.lft.to/lastmile_qr_scan"}, "fusion_lon": 0.0, "lat": 38.9176355, "bike_id": "2abea6a83ff56d692943c13d3a9a6f1a", "type": "electric_scooter", "is_reserved": 0, "lon": -77.028082}, {"fusion_lat": 0.0, "name": "251fe74ae1d980157addb4f55a13cbd6", "is_disabled": 0, "rental_uris": {"android": "https://dc.lft.to/lastmile_qr_scan", "ios": "https://dc.lft.to/lastmile_qr_scan"}, "fusion_lon": 0.0, "lat": 38.9166285, "bike_id": "251fe74ae1d980157addb4f55a13cbd6", "type": "electric_scooter", "is_reserved": 0, "lon": -77.04375766666666}, {"fusion_lat": 0.0, "name": "bd96789284d12ebc52ee9a651c430630", "is_disabled": 0, "rental_uris": {"android": "https://dc.lft.to/lastmile_qr_scan", "ios": "https://dc.lft.to/lastmile_qr_scan"}, "fusion_lon": 0.0, "lat": 38.8245645, "bike_id": "bd96789284d12ebc52ee9a651c430630", "type": "electric_bike", "is_reserved": 0, "lon": -77.007997}, {"fusion_lat": 0.0, "name": "7d4dc5b826fbf6ec237044e9836b0764", "is_disabled": 0, "rental_uris": {"android": "https://dc.lft.to/lastmile_qr_scan", "ios": "https://dc.lft.to/lastmile_qr_scan"}, "fusion_lon": 0.0, "lat": 38.9027345, "bike_id": "7d4dc5b826fbf6ec237044e9836b0764", "type": "electric_scooter", "is_reserved": 0, "lon": -77.03961516666666}, {"fusion_lat": 0.0, "name": "7caaaf02bc731d4e1f51aa884056a7d2", "is_disabled": 0, "rental_uris": {"android": "https://dc.lft.to/lastmile_qr_scan", "ios": "https://dc.lft.to/lastmile_qr_scan"}, "fusion_lon": 0.0, "lat": 38.9052865, "bike_id": "7caaaf02bc731d4e1f51aa884056a7d2", "type": "electric_scooter", "is_reserved": 0, "lon": -77.0297575}, {"fusion_lat": 0.0, "name": "0d823df9d3848d3802e1cf659da4e062", "is_disabled": 0, "rental_uris": {"android": "https://dc.lft.to/lastmile_qr_scan", "ios": "https://dc.lft.to/lastmile_qr_scan"}, "fusion_lon": 0.0, "lat": 38.924502333333336, "bike_id": "0d823df9d3848d3802e1cf659da4e062", "type": "electric_scooter", "is_reserved": 0, "lon": -77.04019733333334}, {"fusion_lat": 0.0, "name": "8d40e0ee02345a75b6a666f4c792b228", "is_disabled": 0, "rental_uris": {"android": "https://dc.lft.to/lastmile_qr_scan", "ios": "https://dc.lft.to/lastmile_qr_scan"}, "fusion_lon": 0.0, "lat": 38.91399583333333, "bike_id": "8d40e0ee02345a75b6a666f4c792b228", "type": "electric_scooter", "is_reserved": 0, "lon": -77.00846616666666}, {"fusion_lat": 0.0, "name": "7ec1a50f803875bfe9550c9c95620757", "is_disabled": 0, "rental_uris": {"android": "https://dc.lft.to/lastmile_qr_scan", "ios": "https://dc.lft.to/lastmile_qr_scan"}, "fusion_lon": 0.0, "lat": 38.899091, "bike_id": "7ec1a50f803875bfe9550c9c95620757", "type": "electric_scooter", "is_reserved": 0, "lon": -76.94547216666666}, {"fusion_lat": 0.0, "name": "c908f90c5e549c1f106f735179f3af65", "is_disabled": 0, "rental_uris": {"android": "https://dc.lft.to/lastmile_qr_scan", "ios": "https://dc.lft.to/lastmile_qr_scan"}, "fusion_lon": 0.0, "lat": 38.89219766666667, "bike_id": "c908f90c5e549c1f106f735179f3af65", "type": "electric_scooter", "is_reserved": 0, "lon": -77.04867416666667}, {"fusion_lat": 0.0, "name": "fbf19de540742ed52c880f5cecfb0a9b", "is_disabled": 0, "rental_uris": {"android": "https://dc.lft.to/lastmile_qr_scan", "ios": "https://dc.lft.to/lastmile_qr_scan"}, "fusion_lon": 0.0, "lat": 38.947309833333335, "bike_id": "fbf19de540742ed52c880f5cecfb0a9b", "type": "electric_scooter", "is_reserved": 0, "lon": -77.01614516666666}, {"fusion_lat": 0.0, "name": "ab88cb50608c915b2fe756bc824ed4f5", "is_disabled": 0, "rental_uris": {"android": "https://dc.lft.to/lastmile_qr_scan", "ios": "https://dc.lft.to/lastmile_qr_scan"}, "fusion_lon": 0.0, "lat": 38.842984666666666, "bike_id": "ab88cb50608c915b2fe756bc824ed4f5", "type": "electric_bike", "is_reserved": 0, "lon": -77.10866366666667}, {"fusion_lat": 0.0, "name": "5b9cace83a2f9806013c5aede03e21d2", "is_disabled": 0, "rental_uris": {"android": "https://dc.lft.to/lastmile_qr_scan", "ios": "https://dc.lft.to/lastmile_qr_scan"}, "fusion_lon": 0.0, "lat": 38.92966933333334, "bike_id": "5b9cace83a2f9806013c5aede03e21d2", "type": "electric_scooter", "is_reserved": 0, "lon": -77.01964833333334}, {"fusion_lat": 0.0, "name": "8b3143001d4f6fb4af48349440cdabe1", "is_disabled": 0, "rental_uris": {"android": "https://dc.lft.to/lastmile_qr_scan", "ios": "https://dc.lft.to/lastmile_qr_scan"}, "fusion_lon": 0.0, "lat": 38.94405016666666, "bike_id": "8b3143001d4f6fb4af48349440cdabe1", "type": "electric_scooter", "is_reserved": 0, "lon": -77.038653}, {"fusion_lat": 0.0, "name": "023be6a17e6355f36966a09b45ed08a5", "is_disabled": 0, "rental_uris": {"android": "https://dc.lft.to/lastmile_qr_scan", "ios": "https://dc.lft.to/lastmile_qr_scan"}, "fusion_lon": 0.0, "lat": 38.91259066666667, "bike_id": "023be6a17e6355f36966a09b45ed08a5", "type": "electric_scooter", "is_reserved": 0, "lon": -77.0364495}, {"fusion_lat": 0.0, "name": "30fdd8473937a1bf2fa4b4e39d40bab7", "is_disabled": 0, "rental_uris": {"android": "https://dc.lft.to/lastmile_qr_scan", "ios": "https://dc.lft.to/lastmile_qr_scan"}, "fusion_lon": 0.0, "lat": 38.909821666666666, "bike_id": "30fdd8473937a1bf2fa4b4e39d40bab7", "type": "electric_scooter", "is_reserved": 0, "lon": -77.00882083333333}, {"fusion_lat": 0.0, "name": "dc3dd985cb18515f78cce7eacf5643fc", "is_disabled": 0, "rental_uris": {"android": "https://dc.lft.to/lastmile_qr_scan", "ios": "https://dc.lft.to/lastmile_qr_scan"}, "fusion_lon": 0.0, "lat": 38.920497166666664, "bike_id": "dc3dd985cb18515f78cce7eacf5643fc", "type": "electric_scooter", "is_reserved": 0, "lon": -77.023728}, {"fusion_lat": 0.0, "name": "3f4f6ed4b1889bc2c3657fe1c620a733", "is_disabled": 0, "rental_uris": {"android": "https://dc.lft.to/lastmile_qr_scan", "ios": "https://dc.lft.to/lastmile_qr_scan"}, "fusion_lon": 0.0, "lat": 38.897347333333336, "bike_id": "3f4f6ed4b1889bc2c3657fe1c620a733", "type": "electric_scooter", "is_reserved": 0, "lon": -77.055236}, {"fusion_lat": 0.0, "name": "75dfe176653bb97b500e013597ab52a5", "is_disabled": 0, "rental_uris": {"android": "https://dc.lft.to/lastmile_qr_scan", "ios": "https://dc.lft.to/lastmile_qr_scan"}, "fusion_lon": 0.0, "lat": 38.847560666666666, "bike_id": "75dfe176653bb97b500e013597ab52a5", "type": "electric_scooter", "is_reserved": 0, "lon": -76.99503766666666}, {"fusion_lat": 0.0, "name": "8d071722500d3aef19603498dbbe1559", "is_disabled": 0, "rental_uris": {"android": "https://dc.lft.to/lastmile_qr_scan", "ios": "https://dc.lft.to/lastmile_qr_scan"}, "fusion_lon": 0.0, "lat": 38.9024985, "bike_id": "8d071722500d3aef19603498dbbe1559", "type": "electric_scooter", "is_reserved": 0, "lon": -77.01995516666666}, {"fusion_lat": 0.0, "name": "787fb0a681ca0889a4f450d24dcba1ce", "is_disabled": 0, "rental_uris": {"android": "https://dc.lft.to/lastmile_qr_scan", "ios": "https://dc.lft.to/lastmile_qr_scan"}, "fusion_lon": 0.0, "lat": 38.9265535, "bike_id": "787fb0a681ca0889a4f450d24dcba1ce", "type": "electric_scooter", "is_reserved": 0, "lon": -77.04314216666667}, {"fusion_lat": 0.0, "name": "cd1d4f22b81f4bb6121c72c2c9eeb1d3", "is_disabled": 0, "rental_uris": {"android": "https://dc.lft.to/lastmile_qr_scan", "ios": "https://dc.lft.to/lastmile_qr_scan"}, "fusion_lon": 0.0, "lat": 38.91598233333333, "bike_id": "cd1d4f22b81f4bb6121c72c2c9eeb1d3", "type": "electric_scooter", "is_reserved": 0, "lon": -76.9936155}, {"fusion_lat": 0.0, "name": "c36b183d590ccd5f247a085787a19643", "is_disabled": 0, "rental_uris": {"android": "https://dc.lft.to/lastmile_qr_scan", "ios": "https://dc.lft.to/lastmile_qr_scan"}, "fusion_lon": 0.0, "lat": 38.85360583333333, "bike_id": "c36b183d590ccd5f247a085787a19643", "type": "electric_bike", "is_reserved": 0, "lon": -77.134695}, {"fusion_lat": 0.0, "name": "1785658cdf3e87a577c1f13fb44dcd7a", "is_disabled": 0, "rental_uris": {"android": "https://dc.lft.to/lastmile_qr_scan", "ios": "https://dc.lft.to/lastmile_qr_scan"}, "fusion_lon": 0.0, "lat": 38.90745583333333, "bike_id": "1785658cdf3e87a577c1f13fb44dcd7a", "type": "electric_scooter", "is_reserved": 0, "lon": -77.03300233333333}, {"fusion_lat": 0.0, "name": "8cf7a547f335a2b95adb9ab0b433635d", "is_disabled": 0, "rental_uris": {"android": "https://dc.lft.to/lastmile_qr_scan", "ios": "https://dc.lft.to/lastmile_qr_scan"}, "fusion_lon": 0.0, "lat": 38.866631166666664, "bike_id": "8cf7a547f335a2b95adb9ab0b433635d", "type": "electric_scooter", "is_reserved": 0, "lon": -77.01021316666667}, {"fusion_lat": 0.0, "name": "3ac9d6358620df4011832ead59e51790", "is_disabled": 0, "rental_uris": {"android": "https://dc.lft.to/lastmile_qr_scan", "ios": "https://dc.lft.to/lastmile_qr_scan"}, "fusion_lon": 0.0, "lat": 38.906713833333335, "bike_id": "3ac9d6358620df4011832ead59e51790", "type": "electric_scooter", "is_reserved": 0, "lon": -77.03669116666667}, {"fusion_lat": 0.0, "name": "53dda8e11a53fbfb43a55ffbcbc334e7", "is_disabled": 0, "rental_uris": {"android": "https://dc.lft.to/lastmile_qr_scan", "ios": "https://dc.lft.to/lastmile_qr_scan"}, "fusion_lon": 0.0, "lat": 38.954205333333334, "bike_id": "53dda8e11a53fbfb43a55ffbcbc334e7", "type": "electric_scooter", "is_reserved": 0, "lon": -77.0276345}, {"fusion_lat": 0.0, "name": "c49e820fe878aee456f75eb6f0fef236", "is_disabled": 0, "rental_uris": {"android": "https://dc.lft.to/lastmile_qr_scan", "ios": "https://dc.lft.to/lastmile_qr_scan"}, "fusion_lon": 0.0, "lat": 38.9267775, "bike_id": "c49e820fe878aee456f75eb6f0fef236", "type": "electric_scooter", "is_reserved": 0, "lon": -77.02789166666666}, {"fusion_lat": 0.0, "name": "11e1d8fb0efab4acd36bac0fc4dd95fd", "is_disabled": 0, "rental_uris": {"android": "https://dc.lft.to/lastmile_qr_scan", "ios": "https://dc.lft.to/lastmile_qr_scan"}, "fusion_lon": 0.0, "lat": 38.898755, "bike_id": "11e1d8fb0efab4acd36bac0fc4dd95fd", "type": "electric_scooter", "is_reserved": 0, "lon": -77.030381}, {"fusion_lat": 0.0, "name": "3f45b4c2f9dea7c0c60a673e86ba037d", "is_disabled": 0, "rental_uris": {"android": "https://dc.lft.to/lastmile_qr_scan", "ios": "https://dc.lft.to/lastmile_qr_scan"}, "fusion_lon": 0.0, "lat": 38.91722083333333, "bike_id": "3f45b4c2f9dea7c0c60a673e86ba037d", "type": "electric_scooter", "is_reserved": 0, "lon": -77.02701783333333}, {"fusion_lat": 0.0, "name": "ef07056272c3570d34faf872cced9206", "is_disabled": 0, "rental_uris": {"android": "https://dc.lft.to/lastmile_qr_scan", "ios": "https://dc.lft.to/lastmile_qr_scan"}, "fusion_lon": 0.0, "lat": 38.965756166666665, "bike_id": "ef07056272c3570d34faf872cced9206", "type": "electric_scooter", "is_reserved": 0, "lon": -77.002673}, {"fusion_lat": 0.0, "name": "17b18b7280af21d7c0f798ec12216698", "is_disabled": 0, "rental_uris": {"android": "https://dc.lft.to/lastmile_qr_scan", "ios": "https://dc.lft.to/lastmile_qr_scan"}, "fusion_lon": 0.0, "lat": 38.867292666666664, "bike_id": "17b18b7280af21d7c0f798ec12216698", "type": "electric_scooter", "is_reserved": 0, "lon": -76.98787566666667}, {"fusion_lat": 0.0, "name": "68125bc377acd95ac482c5a2ddacff38", "is_disabled": 0, "rental_uris": {"android": "https://dc.lft.to/lastmile_qr_scan", "ios": "https://dc.lft.to/lastmile_qr_scan"}, "fusion_lon": 0.0, "lat": 38.9241755, "bike_id": "68125bc377acd95ac482c5a2ddacff38", "type": "electric_scooter", "is_reserved": 0, "lon": -77.05751}, {"fusion_lat": 0.0, "name": "4aac2ad5a2c66ba8640250e8fe6d85d7", "is_disabled": 0, "rental_uris": {"android": "https://dc.lft.to/lastmile_qr_scan", "ios": "https://dc.lft.to/lastmile_qr_scan"}, "fusion_lon": 0.0, "lat": 38.92433466666667, "bike_id": "4aac2ad5a2c66ba8640250e8fe6d85d7", "type": "electric_scooter", "is_reserved": 0, "lon": -77.04473266666666}, {"fusion_lat": 0.0, "name": "9e175e6deba4355a672d7b0acfdb7bfd", "is_disabled": 0, "rental_uris": {"android": "https://dc.lft.to/lastmile_qr_scan", "ios": "https://dc.lft.to/lastmile_qr_scan"}, "fusion_lon": 0.0, "lat": 38.90037566666667, "bike_id": "9e175e6deba4355a672d7b0acfdb7bfd", "type": "electric_scooter", "is_reserved": 0, "lon": -77.01185733333334}, {"fusion_lat": 0.0, "name": "f980180474ad755b900d920a1e1fe26a", "is_disabled": 0, "rental_uris": {"android": "https://dc.lft.to/lastmile_qr_scan", "ios": "https://dc.lft.to/lastmile_qr_scan"}, "fusion_lon": 0.0, "lat": 38.8970145, "bike_id": "f980180474ad755b900d920a1e1fe26a", "type": "electric_scooter", "is_reserved": 0, "lon": -77.012964}, {"fusion_lat": 0.0, "name": "0b30192185fb81bd54707cab192f14d8", "is_disabled": 0, "rental_uris": {"android": "https://dc.lft.to/lastmile_qr_scan", "ios": "https://dc.lft.to/lastmile_qr_scan"}, "fusion_lon": 0.0, "lat": 38.961857, "bike_id": "0b30192185fb81bd54707cab192f14d8", "type": "electric_bike", "is_reserved": 0, "lon": -77.05268383333333}, {"fusion_lat": 0.0, "name": "eb8f3576230f8c44ffceb911473d2807", "is_disabled": 0, "rental_uris": {"android": "https://dc.lft.to/lastmile_qr_scan", "ios": "https://dc.lft.to/lastmile_qr_scan"}, "fusion_lon": 0.0, "lat": 38.920274166666665, "bike_id": "eb8f3576230f8c44ffceb911473d2807", "type": "electric_scooter", "is_reserved": 0, "lon": -77.01030083333333}, {"fusion_lat": 0.0, "name": "c13e9c946680f8e7ad34d58f0dffa9c3", "is_disabled": 0, "rental_uris": {"android": "https://dc.lft.to/lastmile_qr_scan", "ios": "https://dc.lft.to/lastmile_qr_scan"}, "fusion_lon": 0.0, "lat": 38.90182433333333, "bike_id": "c13e9c946680f8e7ad34d58f0dffa9c3", "type": "electric_scooter", "is_reserved": 0, "lon": -77.027351}, {"fusion_lat": 0.0, "name": "65693752d5d44b55208d54baf6e99e3c", "is_disabled": 0, "rental_uris": {"android": "https://dc.lft.to/lastmile_qr_scan", "ios": "https://dc.lft.to/lastmile_qr_scan"}, "fusion_lon": 0.0, "lat": 38.90983666666666, "bike_id": "65693752d5d44b55208d54baf6e99e3c", "type": "electric_scooter", "is_reserved": 0, "lon": -77.0847565}, {"fusion_lat": 0.0, "name": "5645dbda531c59841bdd8812dad9684f", "is_disabled": 0, "rental_uris": {"android": "https://dc.lft.to/lastmile_qr_scan", "ios": "https://dc.lft.to/lastmile_qr_scan"}, "fusion_lon": 0.0, "lat": 38.92356816666667, "bike_id": "5645dbda531c59841bdd8812dad9684f", "type": "electric_scooter", "is_reserved": 0, "lon": -77.03911916666667}, {"fusion_lat": 0.0, "name": "0cd61558644889e76d84425363663d4f", "is_disabled": 0, "rental_uris": {"android": "https://dc.lft.to/lastmile_qr_scan", "ios": "https://dc.lft.to/lastmile_qr_scan"}, "fusion_lon": 0.0, "lat": 38.902468666666664, "bike_id": "0cd61558644889e76d84425363663d4f", "type": "electric_scooter", "is_reserved": 0, "lon": -77.01805983333334}, {"fusion_lat": 0.0, "name": "21c3f97e0a3758f6810e08d646e0400d", "is_disabled": 0, "rental_uris": {"android": "https://dc.lft.to/lastmile_qr_scan", "ios": "https://dc.lft.to/lastmile_qr_scan"}, "fusion_lon": 0.0, "lat": 38.94275916666667, "bike_id": "21c3f97e0a3758f6810e08d646e0400d", "type": "electric_scooter", "is_reserved": 0, "lon": -77.03262433333333}, {"fusion_lat": 0.0, "name": "f91c1eb149e838908d962e23e3c36e81", "is_disabled": 0, "rental_uris": {"android": "https://dc.lft.to/lastmile_qr_scan", "ios": "https://dc.lft.to/lastmile_qr_scan"}, "fusion_lon": 0.0, "lat": 38.93479883333333, "bike_id": "f91c1eb149e838908d962e23e3c36e81", "type": "electric_scooter", "is_reserved": 0, "lon": -77.072595}, {"fusion_lat": 0.0, "name": "896571bb4123f96a22c854bbf4fb5eab", "is_disabled": 0, "rental_uris": {"android": "https://dc.lft.to/lastmile_qr_scan", "ios": "https://dc.lft.to/lastmile_qr_scan"}, "fusion_lon": 0.0, "lat": 38.89791666666667, "bike_id": "896571bb4123f96a22c854bbf4fb5eab", "type": "electric_scooter", "is_reserved": 0, "lon": -76.94731033333333}, {"fusion_lat": 0.0, "name": "adb919a9999040f6e7c1f7f19b3c167c", "is_disabled": 0, "rental_uris": {"android": "https://dc.lft.to/lastmile_qr_scan", "ios": "https://dc.lft.to/lastmile_qr_scan"}, "fusion_lon": 0.0, "lat": 38.91489033333333, "bike_id": "adb919a9999040f6e7c1f7f19b3c167c", "type": "electric_scooter", "is_reserved": 0, "lon": -77.04238133333334}, {"fusion_lat": 0.0, "name": "02df12bfe9360d04647fd17da98e6920", "is_disabled": 0, "rental_uris": {"android": "https://dc.lft.to/lastmile_qr_scan", "ios": "https://dc.lft.to/lastmile_qr_scan"}, "fusion_lon": 0.0, "lat": 38.902678, "bike_id": "02df12bfe9360d04647fd17da98e6920", "type": "electric_scooter", "is_reserved": 0, "lon": -77.03632616666667}, {"fusion_lat": 0.0, "name": "0ca66d8a6af50ca9776cbd62ba4dba3f", "is_disabled": 0, "rental_uris": {"android": "https://dc.lft.to/lastmile_qr_scan", "ios": "https://dc.lft.to/lastmile_qr_scan"}, "fusion_lon": 0.0, "lat": 38.8898865, "bike_id": "0ca66d8a6af50ca9776cbd62ba4dba3f", "type": "electric_bike", "is_reserved": 0, "lon": -77.071375}, {"fusion_lat": 0.0, "name": "7b5df7300066d24dbcbeac0eec077fe7", "is_disabled": 0, "rental_uris": {"android": "https://dc.lft.to/lastmile_qr_scan", "ios": "https://dc.lft.to/lastmile_qr_scan"}, "fusion_lon": 0.0, "lat": 38.938286166666664, "bike_id": "7b5df7300066d24dbcbeac0eec077fe7", "type": "electric_scooter", "is_reserved": 0, "lon": -76.99189066666666}, {"fusion_lat": 0.0, "name": "e542b9010ab27118d70d257dede40e4f", "is_disabled": 0, "rental_uris": {"android": "https://dc.lft.to/lastmile_qr_scan", "ios": "https://dc.lft.to/lastmile_qr_scan"}, "fusion_lon": 0.0, "lat": 38.903922666666666, "bike_id": "e542b9010ab27118d70d257dede40e4f", "type": "electric_scooter", "is_reserved": 0, "lon": -77.03851733333333}, {"fusion_lat": 0.0, "name": "4ed872f568a96a71e7769f28d41265ce", "is_disabled": 0, "rental_uris": {"android": "https://dc.lft.to/lastmile_qr_scan", "ios": "https://dc.lft.to/lastmile_qr_scan"}, "fusion_lon": 0.0, "lat": 38.91722516666667, "bike_id": "4ed872f568a96a71e7769f28d41265ce", "type": "electric_scooter", "is_reserved": 0, "lon": -77.026985}, {"fusion_lat": 0.0, "name": "88a807ee7fade44cb76ae9f635f9ccbb", "is_disabled": 0, "rental_uris": {"android": "https://dc.lft.to/lastmile_qr_scan", "ios": "https://dc.lft.to/lastmile_qr_scan"}, "fusion_lon": 0.0, "lat": 38.870806333333334, "bike_id": "88a807ee7fade44cb76ae9f635f9ccbb", "type": "electric_scooter", "is_reserved": 0, "lon": -77.01074683333333}, {"fusion_lat": 0.0, "name": "906b6c3f2ac925ff9538b2054e73e72c", "is_disabled": 0, "rental_uris": {"android": "https://dc.lft.to/lastmile_qr_scan", "ios": "https://dc.lft.to/lastmile_qr_scan"}, "fusion_lon": 0.0, "lat": 38.9076575, "bike_id": "906b6c3f2ac925ff9538b2054e73e72c", "type": "electric_scooter", "is_reserved": 0, "lon": -77.03516466666666}, {"fusion_lat": 0.0, "name": "f3e867c801555489747c9ec87f65955a", "is_disabled": 0, "rental_uris": {"android": "https://dc.lft.to/lastmile_qr_scan", "ios": "https://dc.lft.to/lastmile_qr_scan"}, "fusion_lon": 0.0, "lat": 38.90476016666667, "bike_id": "f3e867c801555489747c9ec87f65955a", "type": "electric_scooter", "is_reserved": 0, "lon": -77.02608083333334}, {"fusion_lat": 0.0, "name": "3f189c3311b359ecd4ce50a7e13b3469", "is_disabled": 0, "rental_uris": {"android": "https://dc.lft.to/lastmile_qr_scan", "ios": "https://dc.lft.to/lastmile_qr_scan"}, "fusion_lon": 0.0, "lat": 38.919470833333335, "bike_id": "3f189c3311b359ecd4ce50a7e13b3469", "type": "electric_bike", "is_reserved": 0, "lon": -77.22128816666667}, {"fusion_lat": 0.0, "name": "084a68055841e8f2c323fdf9ddf786fe", "is_disabled": 0, "rental_uris": {"android": "https://dc.lft.to/lastmile_qr_scan", "ios": "https://dc.lft.to/lastmile_qr_scan"}, "fusion_lon": 0.0, "lat": 38.906824666666665, "bike_id": "084a68055841e8f2c323fdf9ddf786fe", "type": "electric_scooter", "is_reserved": 0, "lon": -77.03654}, {"fusion_lat": 0.0, "name": "e8e95384af37e88644ab0a42dee63aec", "is_disabled": 0, "rental_uris": {"android": "https://dc.lft.to/lastmile_qr_scan", "ios": "https://dc.lft.to/lastmile_qr_scan"}, "fusion_lon": 0.0, "lat": 38.911041833333336, "bike_id": "e8e95384af37e88644ab0a42dee63aec", "type": "electric_scooter", "is_reserved": 0, "lon": -77.00213566666666}, {"fusion_lat": 0.0, "name": "e8c856bc5138298dd4562b0b55560a22", "is_disabled": 0, "rental_uris": {"android": "https://dc.lft.to/lastmile_qr_scan", "ios": "https://dc.lft.to/lastmile_qr_scan"}, "fusion_lon": 0.0, "lat": 38.917544, "bike_id": "e8c856bc5138298dd4562b0b55560a22", "type": "electric_scooter", "is_reserved": 0, "lon": -77.06933333333333}, {"fusion_lat": 0.0, "name": "66781378d6a16ddfccd1f57798a0c7c3", "is_disabled": 0, "rental_uris": {"android": "https://dc.lft.to/lastmile_qr_scan", "ios": "https://dc.lft.to/lastmile_qr_scan"}, "fusion_lon": 0.0, "lat": 38.899559333333336, "bike_id": "66781378d6a16ddfccd1f57798a0c7c3", "type": "electric_scooter", "is_reserved": 0, "lon": -77.05097883333333}, {"fusion_lat": 0.0, "name": "c4ce30916b8fd9e057078489ed82b0fa", "is_disabled": 0, "rental_uris": {"android": "https://dc.lft.to/lastmile_qr_scan", "ios": "https://dc.lft.to/lastmile_qr_scan"}, "fusion_lon": 0.0, "lat": 38.909164833333335, "bike_id": "c4ce30916b8fd9e057078489ed82b0fa", "type": "electric_scooter", "is_reserved": 0, "lon": -77.0421005}, {"fusion_lat": 0.0, "name": "5c7022af2e102ec5b21b7ce9a258797f", "is_disabled": 0, "rental_uris": {"android": "https://dc.lft.to/lastmile_qr_scan", "ios": "https://dc.lft.to/lastmile_qr_scan"}, "fusion_lon": 0.0, "lat": 38.916112166666665, "bike_id": "5c7022af2e102ec5b21b7ce9a258797f", "type": "electric_scooter", "is_reserved": 0, "lon": -77.02401466666667}, {"fusion_lat": 0.0, "name": "8ea5161b18638e8c3d53ce00aeac2cda", "is_disabled": 0, "rental_uris": {"android": "https://dc.lft.to/lastmile_qr_scan", "ios": "https://dc.lft.to/lastmile_qr_scan"}, "fusion_lon": 0.0, "lat": 38.901292833333336, "bike_id": "8ea5161b18638e8c3d53ce00aeac2cda", "type": "electric_scooter", "is_reserved": 0, "lon": -77.0260745}, {"fusion_lat": 0.0, "name": "a4ab238bd33cf45a05ef532ae9bf31dc", "is_disabled": 0, "rental_uris": {"android": "https://dc.lft.to/lastmile_qr_scan", "ios": "https://dc.lft.to/lastmile_qr_scan"}, "fusion_lon": 0.0, "lat": 38.915358, "bike_id": "a4ab238bd33cf45a05ef532ae9bf31dc", "type": "electric_scooter", "is_reserved": 0, "lon": -77.03206366666667}, {"fusion_lat": 0.0, "name": "acb36dcfe27523bcf7e4aec10a45523d", "is_disabled": 0, "rental_uris": {"android": "https://dc.lft.to/lastmile_qr_scan", "ios": "https://dc.lft.to/lastmile_qr_scan"}, "fusion_lon": 0.0, "lat": 38.923407166666664, "bike_id": "acb36dcfe27523bcf7e4aec10a45523d", "type": "electric_scooter", "is_reserved": 0, "lon": -77.0517405}, {"fusion_lat": 0.0, "name": "8a30108d788da59226399352da1ee73c", "is_disabled": 0, "rental_uris": {"android": "https://dc.lft.to/lastmile_qr_scan", "ios": "https://dc.lft.to/lastmile_qr_scan"}, "fusion_lon": 0.0, "lat": 38.921501, "bike_id": "8a30108d788da59226399352da1ee73c", "type": "electric_scooter", "is_reserved": 0, "lon": -77.04217483333333}, {"fusion_lat": 0.0, "name": "fa741aab5aa444c334adf8a3adc94d4b", "is_disabled": 0, "rental_uris": {"android": "https://dc.lft.to/lastmile_qr_scan", "ios": "https://dc.lft.to/lastmile_qr_scan"}, "fusion_lon": 0.0, "lat": 38.91005083333334, "bike_id": "fa741aab5aa444c334adf8a3adc94d4b", "type": "electric_scooter", "is_reserved": 0, "lon": -77.0491045}, {"fusion_lat": 0.0, "name": "025b610a51354f011c1d6aae55f4cd5e", "is_disabled": 0, "rental_uris": {"android": "https://dc.lft.to/lastmile_qr_scan", "ios": "https://dc.lft.to/lastmile_qr_scan"}, "fusion_lon": 0.0, "lat": 39.0525335, "bike_id": "025b610a51354f011c1d6aae55f4cd5e", "type": "electric_bike", "is_reserved": 0, "lon": -77.08069766666667}, {"fusion_lat": 0.0, "name": "e5ba795f50d135ac21afb9e4e89e82b6", "is_disabled": 0, "rental_uris": {"android": "https://dc.lft.to/lastmile_qr_scan", "ios": "https://dc.lft.to/lastmile_qr_scan"}, "fusion_lon": 0.0, "lat": 38.8874645, "bike_id": "e5ba795f50d135ac21afb9e4e89e82b6", "type": "electric_scooter", "is_reserved": 0, "lon": -77.02783716666667}, {"fusion_lat": 0.0, "name": "c25b8f26a403a0afe0610e23d2c80a5e", "is_disabled": 0, "rental_uris": {"android": "https://dc.lft.to/lastmile_qr_scan", "ios": "https://dc.lft.to/lastmile_qr_scan"}, "fusion_lon": 0.0, "lat": 38.88444766666667, "bike_id": "c25b8f26a403a0afe0610e23d2c80a5e", "type": "electric_scooter", "is_reserved": 0, "lon": -76.99631683333334}, {"fusion_lat": 0.0, "name": "b98ee72b56a254c0882bff64d65742a6", "is_disabled": 0, "rental_uris": {"android": "https://dc.lft.to/lastmile_qr_scan", "ios": "https://dc.lft.to/lastmile_qr_scan"}, "fusion_lon": 0.0, "lat": 38.895429166666666, "bike_id": "b98ee72b56a254c0882bff64d65742a6", "type": "electric_scooter", "is_reserved": 0, "lon": -76.9809715}, {"fusion_lat": 0.0, "name": "737f00db21d1b7be054aa2ff3b95cbec", "is_disabled": 0, "rental_uris": {"android": "https://dc.lft.to/lastmile_qr_scan", "ios": "https://dc.lft.to/lastmile_qr_scan"}, "fusion_lon": 0.0, "lat": 38.90129433333333, "bike_id": "737f00db21d1b7be054aa2ff3b95cbec", "type": "electric_scooter", "is_reserved": 0, "lon": -77.0393175}, {"fusion_lat": 0.0, "name": "3458da08d8316011e31de80659239125", "is_disabled": 0, "rental_uris": {"android": "https://dc.lft.to/lastmile_qr_scan", "ios": "https://dc.lft.to/lastmile_qr_scan"}, "fusion_lon": 0.0, "lat": 38.92495733333333, "bike_id": "3458da08d8316011e31de80659239125", "type": "electric_scooter", "is_reserved": 0, "lon": -77.02164383333333}, {"fusion_lat": 0.0, "name": "fcd7c970f6bb48f9df483035cbfa3f81", "is_disabled": 0, "rental_uris": {"android": "https://dc.lft.to/lastmile_qr_scan", "ios": "https://dc.lft.to/lastmile_qr_scan"}, "fusion_lon": 0.0, "lat": 38.903344, "bike_id": "fcd7c970f6bb48f9df483035cbfa3f81", "type": "electric_scooter", "is_reserved": 0, "lon": -77.062761}, {"fusion_lat": 0.0, "name": "533e6374c909a8ad5d4dc744531d9193", "is_disabled": 0, "rental_uris": {"android": "https://dc.lft.to/lastmile_qr_scan", "ios": "https://dc.lft.to/lastmile_qr_scan"}, "fusion_lon": 0.0, "lat": 38.84753666666667, "bike_id": "533e6374c909a8ad5d4dc744531d9193", "type": "electric_scooter", "is_reserved": 0, "lon": -76.99501166666667}, {"fusion_lat": 0.0, "name": "3db526ac255d01dbd842b4d6dae42596", "is_disabled": 0, "rental_uris": {"android": "https://dc.lft.to/lastmile_qr_scan", "ios": "https://dc.lft.to/lastmile_qr_scan"}, "fusion_lon": 0.0, "lat": 38.898790166666664, "bike_id": "3db526ac255d01dbd842b4d6dae42596", "type": "electric_scooter", "is_reserved": 0, "lon": -76.93183516666667}, {"fusion_lat": 0.0, "name": "e12bae03f9ecf8ac400eb5fb15afa4f4", "is_disabled": 0, "rental_uris": {"android": "https://dc.lft.to/lastmile_qr_scan", "ios": "https://dc.lft.to/lastmile_qr_scan"}, "fusion_lon": 0.0, "lat": 38.90077016666667, "bike_id": "e12bae03f9ecf8ac400eb5fb15afa4f4", "type": "electric_scooter", "is_reserved": 0, "lon": -77.03821616666667}, {"fusion_lat": 0.0, "name": "4c0bb9c48e72fba53fd4c79ba15abae2", "is_disabled": 0, "rental_uris": {"android": "https://dc.lft.to/lastmile_qr_scan", "ios": "https://dc.lft.to/lastmile_qr_scan"}, "fusion_lon": 0.0, "lat": 38.90588133333333, "bike_id": "4c0bb9c48e72fba53fd4c79ba15abae2", "type": "electric_scooter", "is_reserved": 0, "lon": -77.0029715}, {"fusion_lat": 0.0, "name": "0f45359e89220410e9ddabf1f33383a1", "is_disabled": 0, "rental_uris": {"android": "https://dc.lft.to/lastmile_qr_scan", "ios": "https://dc.lft.to/lastmile_qr_scan"}, "fusion_lon": 0.0, "lat": 38.887447, "bike_id": "0f45359e89220410e9ddabf1f33383a1", "type": "electric_scooter", "is_reserved": 0, "lon": -77.02130466666667}, {"fusion_lat": 0.0, "name": "0dea94268d54f51979e253c91e28dd44", "is_disabled": 0, "rental_uris": {"android": "https://dc.lft.to/lastmile_qr_scan", "ios": "https://dc.lft.to/lastmile_qr_scan"}, "fusion_lon": 0.0, "lat": 38.909567, "bike_id": "0dea94268d54f51979e253c91e28dd44", "type": "electric_scooter", "is_reserved": 0, "lon": -77.023836}, {"fusion_lat": 0.0, "name": "35d8efe2cc12448e170588963d4cc27f", "is_disabled": 0, "rental_uris": {"android": "https://dc.lft.to/lastmile_qr_scan", "ios": "https://dc.lft.to/lastmile_qr_scan"}, "fusion_lon": 0.0, "lat": 38.921313166666664, "bike_id": "35d8efe2cc12448e170588963d4cc27f", "type": "electric_scooter", "is_reserved": 0, "lon": -77.0442515}, {"fusion_lat": 0.0, "name": "e653e4cfadbcbcf3eaa67bfaa1ed5ae9", "is_disabled": 0, "rental_uris": {"android": "https://dc.lft.to/lastmile_qr_scan", "ios": "https://dc.lft.to/lastmile_qr_scan"}, "fusion_lon": 0.0, "lat": 38.924473666666664, "bike_id": "e653e4cfadbcbcf3eaa67bfaa1ed5ae9", "type": "electric_scooter", "is_reserved": 0, "lon": -77.039691}, {"fusion_lat": 0.0, "name": "f6dfe1f9ffe8f1fa94f9d00596d43379", "is_disabled": 0, "rental_uris": {"android": "https://dc.lft.to/lastmile_qr_scan", "ios": "https://dc.lft.to/lastmile_qr_scan"}, "fusion_lon": 0.0, "lat": 38.899302, "bike_id": "f6dfe1f9ffe8f1fa94f9d00596d43379", "type": "electric_scooter", "is_reserved": 0, "lon": -77.02212066666667}, {"fusion_lat": 0.0, "name": "fbfb4cb8a704e6088b10357edf40529b", "is_disabled": 0, "rental_uris": {"android": "https://dc.lft.to/lastmile_qr_scan", "ios": "https://dc.lft.to/lastmile_qr_scan"}, "fusion_lon": 0.0, "lat": 38.88457066666667, "bike_id": "fbfb4cb8a704e6088b10357edf40529b", "type": "electric_scooter", "is_reserved": 0, "lon": -76.92623183333333}, {"fusion_lat": 0.0, "name": "bdec6bbdf7968ee5abc25dea34dee7a6", "is_disabled": 0, "rental_uris": {"android": "https://dc.lft.to/lastmile_qr_scan", "ios": "https://dc.lft.to/lastmile_qr_scan"}, "fusion_lon": 0.0, "lat": 38.91709216666667, "bike_id": "bdec6bbdf7968ee5abc25dea34dee7a6", "type": "electric_scooter", "is_reserved": 0, "lon": -77.03473333333334}, {"fusion_lat": 0.0, "name": "7c593dbb6eead23d0711b91649c244ef", "is_disabled": 0, "rental_uris": {"android": "https://dc.lft.to/lastmile_qr_scan", "ios": "https://dc.lft.to/lastmile_qr_scan"}, "fusion_lon": 0.0, "lat": 38.909729166666665, "bike_id": "7c593dbb6eead23d0711b91649c244ef", "type": "electric_scooter", "is_reserved": 0, "lon": -77.04827233333333}, {"fusion_lat": 0.0, "name": "10d9f8d0ae15d515c757d9fb045b6ca7", "is_disabled": 0, "rental_uris": {"android": "https://dc.lft.to/lastmile_qr_scan", "ios": "https://dc.lft.to/lastmile_qr_scan"}, "fusion_lon": 0.0, "lat": 38.92343133333333, "bike_id": "10d9f8d0ae15d515c757d9fb045b6ca7", "type": "electric_scooter", "is_reserved": 0, "lon": -77.05181366666666}, {"fusion_lat": 0.0, "name": "5f243c38ffdb4608f9e85bff634b2df1", "is_disabled": 0, "rental_uris": {"android": "https://dc.lft.to/lastmile_qr_scan", "ios": "https://dc.lft.to/lastmile_qr_scan"}, "fusion_lon": 0.0, "lat": 38.905402, "bike_id": "5f243c38ffdb4608f9e85bff634b2df1", "type": "electric_scooter", "is_reserved": 0, "lon": -77.05912483333333}, {"fusion_lat": 0.0, "name": "443347665f7a4bb667c8f2875e4252c1", "is_disabled": 0, "rental_uris": {"android": "https://dc.lft.to/lastmile_qr_scan", "ios": "https://dc.lft.to/lastmile_qr_scan"}, "fusion_lon": 0.0, "lat": 38.93222383333333, "bike_id": "443347665f7a4bb667c8f2875e4252c1", "type": "electric_scooter", "is_reserved": 0, "lon": -76.9949125}, {"fusion_lat": 0.0, "name": "4c001a826ff21e22b200336e0df49c2e", "is_disabled": 0, "rental_uris": {"android": "https://dc.lft.to/lastmile_qr_scan", "ios": "https://dc.lft.to/lastmile_qr_scan"}, "fusion_lon": 0.0, "lat": 38.896410833333334, "bike_id": "4c001a826ff21e22b200336e0df49c2e", "type": "electric_scooter", "is_reserved": 0, "lon": -77.00926433333333}, {"fusion_lat": 0.0, "name": "9e670fa4df98991a57e55a86dab049ed", "is_disabled": 0, "rental_uris": {"android": "https://dc.lft.to/lastmile_qr_scan", "ios": "https://dc.lft.to/lastmile_qr_scan"}, "fusion_lon": 0.0, "lat": 38.89889333333333, "bike_id": "9e670fa4df98991a57e55a86dab049ed", "type": "electric_scooter", "is_reserved": 0, "lon": -77.02161}, {"fusion_lat": 0.0, "name": "108cab6df227fd938c6385d0ede22e5b", "is_disabled": 0, "rental_uris": {"android": "https://dc.lft.to/lastmile_qr_scan", "ios": "https://dc.lft.to/lastmile_qr_scan"}, "fusion_lon": 0.0, "lat": 38.896045, "bike_id": "108cab6df227fd938c6385d0ede22e5b", "type": "electric_scooter", "is_reserved": 0, "lon": -76.98108766666667}, {"fusion_lat": 0.0, "name": "cfd4e03045337fd6c414242e69a9824f", "is_disabled": 0, "rental_uris": {"android": "https://dc.lft.to/lastmile_qr_scan", "ios": "https://dc.lft.to/lastmile_qr_scan"}, "fusion_lon": 0.0, "lat": 38.906707, "bike_id": "cfd4e03045337fd6c414242e69a9824f", "type": "electric_scooter", "is_reserved": 0, "lon": -77.01058583333334}, {"fusion_lat": 0.0, "name": "6724e3d9feb618d4938a8e69a4911120", "is_disabled": 0, "rental_uris": {"android": "https://dc.lft.to/lastmile_qr_scan", "ios": "https://dc.lft.to/lastmile_qr_scan"}, "fusion_lon": 0.0, "lat": 38.897815666666666, "bike_id": "6724e3d9feb618d4938a8e69a4911120", "type": "electric_scooter", "is_reserved": 0, "lon": -77.02403516666666}, {"fusion_lat": 0.0, "name": "543e036d6b1d9a0717ecba3694ac36aa", "is_disabled": 0, "rental_uris": {"android": "https://dc.lft.to/lastmile_qr_scan", "ios": "https://dc.lft.to/lastmile_qr_scan"}, "fusion_lon": 0.0, "lat": 38.94199883333334, "bike_id": "543e036d6b1d9a0717ecba3694ac36aa", "type": "electric_scooter", "is_reserved": 0, "lon": -77.025665}, {"fusion_lat": 0.0, "name": "ff82f5bbb613a1de511649da3a31491b", "is_disabled": 0, "rental_uris": {"android": "https://dc.lft.to/lastmile_qr_scan", "ios": "https://dc.lft.to/lastmile_qr_scan"}, "fusion_lon": 0.0, "lat": 38.92374983333333, "bike_id": "ff82f5bbb613a1de511649da3a31491b", "type": "electric_scooter", "is_reserved": 0, "lon": -77.0525205}, {"fusion_lat": 0.0, "name": "c7333ba1975f49f061a9b06bd3c97481", "is_disabled": 0, "rental_uris": {"android": "https://dc.lft.to/lastmile_qr_scan", "ios": "https://dc.lft.to/lastmile_qr_scan"}, "fusion_lon": 0.0, "lat": 38.90728166666667, "bike_id": "c7333ba1975f49f061a9b06bd3c97481", "type": "electric_scooter", "is_reserved": 0, "lon": -77.04338233333333}, {"fusion_lat": 0.0, "name": "64ec25c79a3ecf59b1e0ebeb98138260", "is_disabled": 0, "rental_uris": {"android": "https://dc.lft.to/lastmile_qr_scan", "ios": "https://dc.lft.to/lastmile_qr_scan"}, "fusion_lon": 0.0, "lat": 38.924323666666666, "bike_id": "64ec25c79a3ecf59b1e0ebeb98138260", "type": "electric_scooter", "is_reserved": 0, "lon": -77.0354775}, {"fusion_lat": 0.0, "name": "38f5cdba91f2e47648d4875b18c317ba", "is_disabled": 0, "rental_uris": {"android": "https://dc.lft.to/lastmile_qr_scan", "ios": "https://dc.lft.to/lastmile_qr_scan"}, "fusion_lon": 0.0, "lat": 38.91874983333334, "bike_id": "38f5cdba91f2e47648d4875b18c317ba", "type": "electric_scooter", "is_reserved": 0, "lon": -77.03504216666667}, {"fusion_lat": 0.0, "name": "ba62ea48c51697f4d35238a2fcfe2ea0", "is_disabled": 0, "rental_uris": {"android": "https://dc.lft.to/lastmile_qr_scan", "ios": "https://dc.lft.to/lastmile_qr_scan"}, "fusion_lon": 0.0, "lat": 38.90061983333333, "bike_id": "ba62ea48c51697f4d35238a2fcfe2ea0", "type": "electric_scooter", "is_reserved": 0, "lon": -76.933859}, {"fusion_lat": 0.0, "name": "ca09f86281b6f903cd15aeb05952de84", "is_disabled": 0, "rental_uris": {"android": "https://dc.lft.to/lastmile_qr_scan", "ios": "https://dc.lft.to/lastmile_qr_scan"}, "fusion_lon": 0.0, "lat": 38.905199333333336, "bike_id": "ca09f86281b6f903cd15aeb05952de84", "type": "electric_scooter", "is_reserved": 0, "lon": -77.04795866666667}, {"fusion_lat": 0.0, "name": "2398338aa09c6034ac7e59209c8d7517", "is_disabled": 0, "rental_uris": {"android": "https://dc.lft.to/lastmile_qr_scan", "ios": "https://dc.lft.to/lastmile_qr_scan"}, "fusion_lon": 0.0, "lat": 38.912084666666665, "bike_id": "2398338aa09c6034ac7e59209c8d7517", "type": "electric_scooter", "is_reserved": 0, "lon": -77.03209633333333}, {"fusion_lat": 0.0, "name": "bd00e90468bd6a24833a7a399c4679f3", "is_disabled": 0, "rental_uris": {"android": "https://dc.lft.to/lastmile_qr_scan", "ios": "https://dc.lft.to/lastmile_qr_scan"}, "fusion_lon": 0.0, "lat": 38.889231833333334, "bike_id": "bd00e90468bd6a24833a7a399c4679f3", "type": "electric_bike", "is_reserved": 0, "lon": -76.99177933333333}, {"fusion_lat": 0.0, "name": "0e2be0cff2b838648a0559ef52188ac7", "is_disabled": 0, "rental_uris": {"android": "https://dc.lft.to/lastmile_qr_scan", "ios": "https://dc.lft.to/lastmile_qr_scan"}, "fusion_lon": 0.0, "lat": 38.953683166666664, "bike_id": "0e2be0cff2b838648a0559ef52188ac7", "type": "electric_scooter", "is_reserved": 0, "lon": -76.99840333333333}, {"fusion_lat": 0.0, "name": "65c7c5a9a48f202af3ce8986fba9e141", "is_disabled": 0, "rental_uris": {"android": "https://dc.lft.to/lastmile_qr_scan", "ios": "https://dc.lft.to/lastmile_qr_scan"}, "fusion_lon": 0.0, "lat": 38.876371666666664, "bike_id": "65c7c5a9a48f202af3ce8986fba9e141", "type": "electric_scooter", "is_reserved": 0, "lon": -77.0011275}, {"fusion_lat": 0.0, "name": "10493e977c498aedd0d7285778b819ba", "is_disabled": 0, "rental_uris": {"android": "https://dc.lft.to/lastmile_qr_scan", "ios": "https://dc.lft.to/lastmile_qr_scan"}, "fusion_lon": 0.0, "lat": 38.898325, "bike_id": "10493e977c498aedd0d7285778b819ba", "type": "electric_scooter", "is_reserved": 0, "lon": -76.94635966666667}, {"fusion_lat": 0.0, "name": "9914fb838367bff52c1c07d8f9df34c5", "is_disabled": 0, "rental_uris": {"android": "https://dc.lft.to/lastmile_qr_scan", "ios": "https://dc.lft.to/lastmile_qr_scan"}, "fusion_lon": 0.0, "lat": 38.9062175, "bike_id": "9914fb838367bff52c1c07d8f9df34c5", "type": "electric_scooter", "is_reserved": 0, "lon": -77.02606266666666}, {"fusion_lat": 0.0, "name": "2bbfe1eb0985c64b14a91cea24492685", "is_disabled": 0, "rental_uris": {"android": "https://dc.lft.to/lastmile_qr_scan", "ios": "https://dc.lft.to/lastmile_qr_scan"}, "fusion_lon": 0.0, "lat": 38.90500883333333, "bike_id": "2bbfe1eb0985c64b14a91cea24492685", "type": "electric_scooter", "is_reserved": 0, "lon": -77.0483105}, {"fusion_lat": 0.0, "name": "f8467464a5efba5f74210e5a22e2514d", "is_disabled": 0, "rental_uris": {"android": "https://dc.lft.to/lastmile_qr_scan", "ios": "https://dc.lft.to/lastmile_qr_scan"}, "fusion_lon": 0.0, "lat": 38.906010333333334, "bike_id": "f8467464a5efba5f74210e5a22e2514d", "type": "electric_scooter", "is_reserved": 0, "lon": -77.06294316666667}, {"fusion_lat": 0.0, "name": "185eb6bad8be152679c408451912b352", "is_disabled": 0, "rental_uris": {"android": "https://dc.lft.to/lastmile_qr_scan", "ios": "https://dc.lft.to/lastmile_qr_scan"}, "fusion_lon": 0.0, "lat": 38.907784166666666, "bike_id": "185eb6bad8be152679c408451912b352", "type": "electric_scooter", "is_reserved": 0, "lon": -77.03562316666667}, {"fusion_lat": 0.0, "name": "d3db2c598c9ce15e49bd9f6af3f393cc", "is_disabled": 0, "rental_uris": {"android": "https://dc.lft.to/lastmile_qr_scan", "ios": "https://dc.lft.to/lastmile_qr_scan"}, "fusion_lon": 0.0, "lat": 38.844251166666666, "bike_id": "d3db2c598c9ce15e49bd9f6af3f393cc", "type": "electric_scooter", "is_reserved": 0, "lon": -76.9977675}, {"fusion_lat": 0.0, "name": "2661cabfaa62fec695fc696794fa7b26", "is_disabled": 0, "rental_uris": {"android": "https://dc.lft.to/lastmile_qr_scan", "ios": "https://dc.lft.to/lastmile_qr_scan"}, "fusion_lon": 0.0, "lat": 38.916745666666664, "bike_id": "2661cabfaa62fec695fc696794fa7b26", "type": "electric_scooter", "is_reserved": 0, "lon": -77.027182}, {"fusion_lat": 0.0, "name": "f3aa329725aa7877be231e5bde71566c", "is_disabled": 0, "rental_uris": {"android": "https://dc.lft.to/lastmile_qr_scan", "ios": "https://dc.lft.to/lastmile_qr_scan"}, "fusion_lon": 0.0, "lat": 38.895805, "bike_id": "f3aa329725aa7877be231e5bde71566c", "type": "electric_scooter", "is_reserved": 0, "lon": -77.0220025}, {"fusion_lat": 0.0, "name": "496afb47b841d88d7226ee5be80a4862", "is_disabled": 0, "rental_uris": {"android": "https://dc.lft.to/lastmile_qr_scan", "ios": "https://dc.lft.to/lastmile_qr_scan"}, "fusion_lon": 0.0, "lat": 38.88679166666667, "bike_id": "496afb47b841d88d7226ee5be80a4862", "type": "electric_scooter", "is_reserved": 0, "lon": -77.00199633333334}, {"fusion_lat": 0.0, "name": "bf9ea1a9e2f0bcc9de37f135c4aa8941", "is_disabled": 0, "rental_uris": {"android": "https://dc.lft.to/lastmile_qr_scan", "ios": "https://dc.lft.to/lastmile_qr_scan"}, "fusion_lon": 0.0, "lat": 38.8994435, "bike_id": "bf9ea1a9e2f0bcc9de37f135c4aa8941", "type": "electric_scooter", "is_reserved": 0, "lon": -77.05099266666667}, {"fusion_lat": 0.0, "name": "d85766438f9b429794e7c6a22e9dc0be", "is_disabled": 0, "rental_uris": {"android": "https://dc.lft.to/lastmile_qr_scan", "ios": "https://dc.lft.to/lastmile_qr_scan"}, "fusion_lon": 0.0, "lat": 38.924790333333334, "bike_id": "d85766438f9b429794e7c6a22e9dc0be", "type": "electric_scooter", "is_reserved": 0, "lon": -77.05213633333334}, {"fusion_lat": 0.0, "name": "832c2cfb028e9a77160458206357be50", "is_disabled": 0, "rental_uris": {"android": "https://dc.lft.to/lastmile_qr_scan", "ios": "https://dc.lft.to/lastmile_qr_scan"}, "fusion_lon": 0.0, "lat": 38.91726383333334, "bike_id": "832c2cfb028e9a77160458206357be50", "type": "electric_scooter", "is_reserved": 0, "lon": -77.02886366666667}, {"fusion_lat": 0.0, "name": "f4a4e98a4439a6fc20d4ab3c3739a7e8", "is_disabled": 0, "rental_uris": {"android": "https://dc.lft.to/lastmile_qr_scan", "ios": "https://dc.lft.to/lastmile_qr_scan"}, "fusion_lon": 0.0, "lat": 38.92441066666667, "bike_id": "f4a4e98a4439a6fc20d4ab3c3739a7e8", "type": "electric_scooter", "is_reserved": 0, "lon": -77.01869916666666}, {"fusion_lat": 0.0, "name": "a6bdf4f49a4c00700a71abffa69dbfe8", "is_disabled": 0, "rental_uris": {"android": "https://dc.lft.to/lastmile_qr_scan", "ios": "https://dc.lft.to/lastmile_qr_scan"}, "fusion_lon": 0.0, "lat": 38.88379, "bike_id": "a6bdf4f49a4c00700a71abffa69dbfe8", "type": "electric_scooter", "is_reserved": 0, "lon": -77.00526266666667}, {"fusion_lat": 0.0, "name": "819b08b7ae4d00ec28965998f9e0cd96", "is_disabled": 0, "rental_uris": {"android": "https://dc.lft.to/lastmile_qr_scan", "ios": "https://dc.lft.to/lastmile_qr_scan"}, "fusion_lon": 0.0, "lat": 38.847686333333336, "bike_id": "819b08b7ae4d00ec28965998f9e0cd96", "type": "electric_bike", "is_reserved": 0, "lon": -76.96634433333334}, {"fusion_lat": 0.0, "name": "c244fce695e90efc30feebda538c754f", "is_disabled": 0, "rental_uris": {"android": "https://dc.lft.to/lastmile_qr_scan", "ios": "https://dc.lft.to/lastmile_qr_scan"}, "fusion_lon": 0.0, "lat": 38.914272, "bike_id": "c244fce695e90efc30feebda538c754f", "type": "electric_scooter", "is_reserved": 0, "lon": -77.02175433333333}, {"fusion_lat": 0.0, "name": "8d636403b648bd5d5583b526721a0cff", "is_disabled": 0, "rental_uris": {"android": "https://dc.lft.to/lastmile_qr_scan", "ios": "https://dc.lft.to/lastmile_qr_scan"}, "fusion_lon": 0.0, "lat": 38.93480733333333, "bike_id": "8d636403b648bd5d5583b526721a0cff", "type": "electric_scooter", "is_reserved": 0, "lon": -77.03395316666666}, {"fusion_lat": 0.0, "name": "aa62b1e92e0ae2cb4d5c4c8f78404f06", "is_disabled": 0, "rental_uris": {"android": "https://dc.lft.to/lastmile_qr_scan", "ios": "https://dc.lft.to/lastmile_qr_scan"}, "fusion_lon": 0.0, "lat": 38.8519955, "bike_id": "aa62b1e92e0ae2cb4d5c4c8f78404f06", "type": "electric_bike", "is_reserved": 0, "lon": -76.96296}, {"fusion_lat": 0.0, "name": "16440a4efd8ae41acd331c78f1f3b2ef", "is_disabled": 0, "rental_uris": {"android": "https://dc.lft.to/lastmile_qr_scan", "ios": "https://dc.lft.to/lastmile_qr_scan"}, "fusion_lon": 0.0, "lat": 38.886494, "bike_id": "16440a4efd8ae41acd331c78f1f3b2ef", "type": "electric_scooter", "is_reserved": 0, "lon": -77.01999616666667}, {"fusion_lat": 0.0, "name": "2b504f6e4e4a662b36befea0e7df01fb", "is_disabled": 0, "rental_uris": {"android": "https://dc.lft.to/lastmile_qr_scan", "ios": "https://dc.lft.to/lastmile_qr_scan"}, "fusion_lon": 0.0, "lat": 38.932229166666666, "bike_id": "2b504f6e4e4a662b36befea0e7df01fb", "type": "electric_scooter", "is_reserved": 0, "lon": -76.99489666666666}, {"fusion_lat": 0.0, "name": "43d31b25c4f4d98b661c8927d84a68c6", "is_disabled": 0, "rental_uris": {"android": "https://dc.lft.to/lastmile_qr_scan", "ios": "https://dc.lft.to/lastmile_qr_scan"}, "fusion_lon": 0.0, "lat": 38.923514833333336, "bike_id": "43d31b25c4f4d98b661c8927d84a68c6", "type": "electric_bike", "is_reserved": 0, "lon": -77.041488}, {"fusion_lat": 0.0, "name": "2597dd1e802c2339c4dc6187b1ca8428", "is_disabled": 0, "rental_uris": {"android": "https://dc.lft.to/lastmile_qr_scan", "ios": "https://dc.lft.to/lastmile_qr_scan"}, "fusion_lon": 0.0, "lat": 38.926876666666665, "bike_id": "2597dd1e802c2339c4dc6187b1ca8428", "type": "electric_scooter", "is_reserved": 0, "lon": -77.0254505}, {"fusion_lat": 0.0, "name": "f5b4e3c96a58b6eb5b5763e730ac13de", "is_disabled": 0, "rental_uris": {"android": "https://dc.lft.to/lastmile_qr_scan", "ios": "https://dc.lft.to/lastmile_qr_scan"}, "fusion_lon": 0.0, "lat": 38.917112333333336, "bike_id": "f5b4e3c96a58b6eb5b5763e730ac13de", "type": "electric_scooter", "is_reserved": 0, "lon": -77.03880383333333}, {"fusion_lat": 0.0, "name": "4613abf0c6a1d2e124a28e921876ef27", "is_disabled": 0, "rental_uris": {"android": "https://dc.lft.to/lastmile_qr_scan", "ios": "https://dc.lft.to/lastmile_qr_scan"}, "fusion_lon": 0.0, "lat": 38.882987166666666, "bike_id": "4613abf0c6a1d2e124a28e921876ef27", "type": "electric_scooter", "is_reserved": 0, "lon": -76.94857583333334}, {"fusion_lat": 0.0, "name": "a04c1d2658ad5557f56bc01295900bba", "is_disabled": 0, "rental_uris": {"android": "https://dc.lft.to/lastmile_qr_scan", "ios": "https://dc.lft.to/lastmile_qr_scan"}, "fusion_lon": 0.0, "lat": 38.807488166666666, "bike_id": "a04c1d2658ad5557f56bc01295900bba", "type": "electric_bike", "is_reserved": 0, "lon": -77.09448683333333}, {"fusion_lat": 0.0, "name": "90edffecd28c20c8cd197ddd2d6aaa81", "is_disabled": 0, "rental_uris": {"android": "https://dc.lft.to/lastmile_qr_scan", "ios": "https://dc.lft.to/lastmile_qr_scan"}, "fusion_lon": 0.0, "lat": 38.90762733333333, "bike_id": "90edffecd28c20c8cd197ddd2d6aaa81", "type": "electric_scooter", "is_reserved": 0, "lon": -77.03844433333333}, {"fusion_lat": 0.0, "name": "93277dbece0edb827acf0dcc0cc8b07c", "is_disabled": 0, "rental_uris": {"android": "https://dc.lft.to/lastmile_qr_scan", "ios": "https://dc.lft.to/lastmile_qr_scan"}, "fusion_lon": 0.0, "lat": 38.909142333333335, "bike_id": "93277dbece0edb827acf0dcc0cc8b07c", "type": "electric_scooter", "is_reserved": 0, "lon": -77.06427283333333}, {"fusion_lat": 0.0, "name": "8b03e5dd07e40fd521c77d2ac051a693", "is_disabled": 0, "rental_uris": {"android": "https://dc.lft.to/lastmile_qr_scan", "ios": "https://dc.lft.to/lastmile_qr_scan"}, "fusion_lon": 0.0, "lat": 38.85409716666667, "bike_id": "8b03e5dd07e40fd521c77d2ac051a693", "type": "electric_bike", "is_reserved": 0, "lon": -77.12077733333334}, {"fusion_lat": 0.0, "name": "3310dde52c789721b90cc80296ff4e58", "is_disabled": 0, "rental_uris": {"android": "https://dc.lft.to/lastmile_qr_scan", "ios": "https://dc.lft.to/lastmile_qr_scan"}, "fusion_lon": 0.0, "lat": 38.912052333333335, "bike_id": "3310dde52c789721b90cc80296ff4e58", "type": "electric_scooter", "is_reserved": 0, "lon": -77.00088466666666}, {"fusion_lat": 0.0, "name": "cc541f59ba18b0005b7742551f63751c", "is_disabled": 0, "rental_uris": {"android": "https://dc.lft.to/lastmile_qr_scan", "ios": "https://dc.lft.to/lastmile_qr_scan"}, "fusion_lon": 0.0, "lat": 38.9170985, "bike_id": "cc541f59ba18b0005b7742551f63751c", "type": "electric_scooter", "is_reserved": 0, "lon": -77.032325}, {"fusion_lat": 0.0, "name": "114556ac75fee5247462d76858889efc", "is_disabled": 0, "rental_uris": {"android": "https://dc.lft.to/lastmile_qr_scan", "ios": "https://dc.lft.to/lastmile_qr_scan"}, "fusion_lon": 0.0, "lat": 38.9098115, "bike_id": "114556ac75fee5247462d76858889efc", "type": "electric_scooter", "is_reserved": 0, "lon": -77.04795916666667}, {"fusion_lat": 0.0, "name": "7e607942ef091706e259cb9c9ac4254a", "is_disabled": 0, "rental_uris": {"android": "https://dc.lft.to/lastmile_qr_scan", "ios": "https://dc.lft.to/lastmile_qr_scan"}, "fusion_lon": 0.0, "lat": 38.91816216666667, "bike_id": "7e607942ef091706e259cb9c9ac4254a", "type": "electric_scooter", "is_reserved": 0, "lon": -77.0307235}, {"fusion_lat": 0.0, "name": "ec459a10d7ecdb36a3b8b17f6e1ad1c9", "is_disabled": 0, "rental_uris": {"android": "https://dc.lft.to/lastmile_qr_scan", "ios": "https://dc.lft.to/lastmile_qr_scan"}, "fusion_lon": 0.0, "lat": 38.91815416666667, "bike_id": "ec459a10d7ecdb36a3b8b17f6e1ad1c9", "type": "electric_scooter", "is_reserved": 0, "lon": -77.03755416666667}, {"fusion_lat": 0.0, "name": "733653cab4d856b4649276c0c0aba9d0", "is_disabled": 0, "rental_uris": {"android": "https://dc.lft.to/lastmile_qr_scan", "ios": "https://dc.lft.to/lastmile_qr_scan"}, "fusion_lon": 0.0, "lat": 38.923195, "bike_id": "733653cab4d856b4649276c0c0aba9d0", "type": "electric_scooter", "is_reserved": 0, "lon": -77.04028333333333}, {"fusion_lat": 0.0, "name": "5601c9537655873df329c5d88aeddb72", "is_disabled": 0, "rental_uris": {"android": "https://dc.lft.to/lastmile_qr_scan", "ios": "https://dc.lft.to/lastmile_qr_scan"}, "fusion_lon": 0.0, "lat": 38.87643, "bike_id": "5601c9537655873df329c5d88aeddb72", "type": "electric_scooter", "is_reserved": 0, "lon": -77.00109683333334}, {"fusion_lat": 0.0, "name": "21017ff87ac9c167c4e73074d0e0c199", "is_disabled": 0, "rental_uris": {"android": "https://dc.lft.to/lastmile_qr_scan", "ios": "https://dc.lft.to/lastmile_qr_scan"}, "fusion_lon": 0.0, "lat": 38.9250845, "bike_id": "21017ff87ac9c167c4e73074d0e0c199", "type": "electric_scooter", "is_reserved": 0, "lon": -77.02168016666667}, {"fusion_lat": 0.0, "name": "470072d6b24c04a73b8d3d4159a18902", "is_disabled": 0, "rental_uris": {"android": "https://dc.lft.to/lastmile_qr_scan", "ios": "https://dc.lft.to/lastmile_qr_scan"}, "fusion_lon": 0.0, "lat": 38.913385166666664, "bike_id": "470072d6b24c04a73b8d3d4159a18902", "type": "electric_scooter", "is_reserved": 0, "lon": -77.04787516666667}, {"fusion_lat": 0.0, "name": "264d953c4e2819a79f64dc4d257f5c4e", "is_disabled": 0, "rental_uris": {"android": "https://dc.lft.to/lastmile_qr_scan", "ios": "https://dc.lft.to/lastmile_qr_scan"}, "fusion_lon": 0.0, "lat": 38.91785216666667, "bike_id": "264d953c4e2819a79f64dc4d257f5c4e", "type": "electric_scooter", "is_reserved": 0, "lon": -77.02307316666666}, {"fusion_lat": 0.0, "name": "bb114b7c335b31399db358cb8e9112fc", "is_disabled": 0, "rental_uris": {"android": "https://dc.lft.to/lastmile_qr_scan", "ios": "https://dc.lft.to/lastmile_qr_scan"}, "fusion_lon": 0.0, "lat": 38.91845816666667, "bike_id": "bb114b7c335b31399db358cb8e9112fc", "type": "electric_scooter", "is_reserved": 0, "lon": -76.9655565}, {"fusion_lat": 0.0, "name": "c83dd847e57c1f0a53873a4cd9c7e26e", "is_disabled": 0, "rental_uris": {"android": "https://dc.lft.to/lastmile_qr_scan", "ios": "https://dc.lft.to/lastmile_qr_scan"}, "fusion_lon": 0.0, "lat": 38.8773585, "bike_id": "c83dd847e57c1f0a53873a4cd9c7e26e", "type": "electric_scooter", "is_reserved": 0, "lon": -77.00733633333333}, {"fusion_lat": 0.0, "name": "d91a4ea3a5e160bb406d62387e90d59f", "is_disabled": 0, "rental_uris": {"android": "https://dc.lft.to/lastmile_qr_scan", "ios": "https://dc.lft.to/lastmile_qr_scan"}, "fusion_lon": 0.0, "lat": 38.92550883333333, "bike_id": "d91a4ea3a5e160bb406d62387e90d59f", "type": "electric_scooter", "is_reserved": 0, "lon": -77.0429625}, {"fusion_lat": 0.0, "name": "06352e7bc652844490fa4e58d752c3fd", "is_disabled": 0, "rental_uris": {"android": "https://dc.lft.to/lastmile_qr_scan", "ios": "https://dc.lft.to/lastmile_qr_scan"}, "fusion_lon": 0.0, "lat": 38.9011095, "bike_id": "06352e7bc652844490fa4e58d752c3fd", "type": "electric_scooter", "is_reserved": 0, "lon": -77.02579333333334}, {"fusion_lat": 0.0, "name": "13c6c2a96bd574b71974c873b5fe82c7", "is_disabled": 0, "rental_uris": {"android": "https://dc.lft.to/lastmile_qr_scan", "ios": "https://dc.lft.to/lastmile_qr_scan"}, "fusion_lon": 0.0, "lat": 38.9141085, "bike_id": "13c6c2a96bd574b71974c873b5fe82c7", "type": "electric_scooter", "is_reserved": 0, "lon": -77.045049}, {"fusion_lat": 0.0, "name": "0644f951cb7ba3eee02e0e057d1da3f2", "is_disabled": 0, "rental_uris": {"android": "https://dc.lft.to/lastmile_qr_scan", "ios": "https://dc.lft.to/lastmile_qr_scan"}, "fusion_lon": 0.0, "lat": 38.91805266666667, "bike_id": "0644f951cb7ba3eee02e0e057d1da3f2", "type": "electric_scooter", "is_reserved": 0, "lon": -77.02684133333334}, {"fusion_lat": 0.0, "name": "b112940de454fff848686cf17c3a296f", "is_disabled": 0, "rental_uris": {"android": "https://dc.lft.to/lastmile_qr_scan", "ios": "https://dc.lft.to/lastmile_qr_scan"}, "fusion_lon": 0.0, "lat": 38.90565766666667, "bike_id": "b112940de454fff848686cf17c3a296f", "type": "electric_scooter", "is_reserved": 0, "lon": -77.04473633333333}, {"fusion_lat": 0.0, "name": "5f4308d010e44ada99ad3d60474b5a06", "is_disabled": 0, "rental_uris": {"android": "https://dc.lft.to/lastmile_qr_scan", "ios": "https://dc.lft.to/lastmile_qr_scan"}, "fusion_lon": 0.0, "lat": 38.9000185, "bike_id": "5f4308d010e44ada99ad3d60474b5a06", "type": "electric_scooter", "is_reserved": 0, "lon": -76.9984535}, {"fusion_lat": 0.0, "name": "839d60b4e07ab9b7c5505c981c5303c4", "is_disabled": 0, "rental_uris": {"android": "https://dc.lft.to/lastmile_qr_scan", "ios": "https://dc.lft.to/lastmile_qr_scan"}, "fusion_lon": 0.0, "lat": 38.9184535, "bike_id": "839d60b4e07ab9b7c5505c981c5303c4", "type": "electric_scooter", "is_reserved": 0, "lon": -77.02316033333334}, {"fusion_lat": 0.0, "name": "f793d131afff22a3e9dba7089dbaf287", "is_disabled": 0, "rental_uris": {"android": "https://dc.lft.to/lastmile_qr_scan", "ios": "https://dc.lft.to/lastmile_qr_scan"}, "fusion_lon": 0.0, "lat": 38.93009883333333, "bike_id": "f793d131afff22a3e9dba7089dbaf287", "type": "electric_scooter", "is_reserved": 0, "lon": -77.03252283333333}, {"fusion_lat": 0.0, "name": "ff010350b89df18c5cc3b562c31c5c00", "is_disabled": 0, "rental_uris": {"android": "https://dc.lft.to/lastmile_qr_scan", "ios": "https://dc.lft.to/lastmile_qr_scan"}, "fusion_lon": 0.0, "lat": 38.892207166666665, "bike_id": "ff010350b89df18c5cc3b562c31c5c00", "type": "electric_scooter", "is_reserved": 0, "lon": -77.023133}, {"fusion_lat": 0.0, "name": "827ec3a29d3f0d10a07e4f5905f84f44", "is_disabled": 0, "rental_uris": {"android": "https://dc.lft.to/lastmile_qr_scan", "ios": "https://dc.lft.to/lastmile_qr_scan"}, "fusion_lon": 0.0, "lat": 38.900154666666666, "bike_id": "827ec3a29d3f0d10a07e4f5905f84f44", "type": "electric_scooter", "is_reserved": 0, "lon": -76.99304583333333}, {"fusion_lat": 0.0, "name": "281b1f0330053fb5dc4c118f4148b12d", "is_disabled": 0, "rental_uris": {"android": "https://dc.lft.to/lastmile_qr_scan", "ios": "https://dc.lft.to/lastmile_qr_scan"}, "fusion_lon": 0.0, "lat": 38.9318225, "bike_id": "281b1f0330053fb5dc4c118f4148b12d", "type": "electric_scooter", "is_reserved": 0, "lon": -77.0330525}, {"fusion_lat": 0.0, "name": "2f0459f4c3986575a15c4a45ae75e36a", "is_disabled": 0, "rental_uris": {"android": "https://dc.lft.to/lastmile_qr_scan", "ios": "https://dc.lft.to/lastmile_qr_scan"}, "fusion_lon": 0.0, "lat": 38.9340955, "bike_id": "2f0459f4c3986575a15c4a45ae75e36a", "type": "electric_scooter", "is_reserved": 0, "lon": -77.02206483333333}, {"fusion_lat": 0.0, "name": "0e86493339a44ee5c85944e0b89ed6c3", "is_disabled": 0, "rental_uris": {"android": "https://dc.lft.to/lastmile_qr_scan", "ios": "https://dc.lft.to/lastmile_qr_scan"}, "fusion_lon": 0.0, "lat": 38.905473666666666, "bike_id": "0e86493339a44ee5c85944e0b89ed6c3", "type": "electric_scooter", "is_reserved": 0, "lon": -77.04677433333333}, {"fusion_lat": 0.0, "name": "3bec55a39f1f7b23c24a17adec8ffb40", "is_disabled": 0, "rental_uris": {"android": "https://dc.lft.to/lastmile_qr_scan", "ios": "https://dc.lft.to/lastmile_qr_scan"}, "fusion_lon": 0.0, "lat": 38.90137083333333, "bike_id": "3bec55a39f1f7b23c24a17adec8ffb40", "type": "electric_scooter", "is_reserved": 0, "lon": -77.0258455}, {"fusion_lat": 0.0, "name": "3db477015ece0d0561ae0e91319f56b6", "is_disabled": 0, "rental_uris": {"android": "https://dc.lft.to/lastmile_qr_scan", "ios": "https://dc.lft.to/lastmile_qr_scan"}, "fusion_lon": 0.0, "lat": 38.90061, "bike_id": "3db477015ece0d0561ae0e91319f56b6", "type": "electric_scooter", "is_reserved": 0, "lon": -76.94666366666667}, {"fusion_lat": 0.0, "name": "85a6a736c69dbe9ac7decfd73f4c2d45", "is_disabled": 0, "rental_uris": {"android": "https://dc.lft.to/lastmile_qr_scan", "ios": "https://dc.lft.to/lastmile_qr_scan"}, "fusion_lon": 0.0, "lat": 38.90958783333333, "bike_id": "85a6a736c69dbe9ac7decfd73f4c2d45", "type": "electric_scooter", "is_reserved": 0, "lon": -77.02759516666667}, {"fusion_lat": 0.0, "name": "e32c0835191b4455362e88805d56ad27", "is_disabled": 0, "rental_uris": {"android": "https://dc.lft.to/lastmile_qr_scan", "ios": "https://dc.lft.to/lastmile_qr_scan"}, "fusion_lon": 0.0, "lat": 38.90014016666667, "bike_id": "e32c0835191b4455362e88805d56ad27", "type": "electric_scooter", "is_reserved": 0, "lon": -77.006859}, {"fusion_lat": 0.0, "name": "3aa3ab2b0f0c734634950e44fdd8ff9a", "is_disabled": 0, "rental_uris": {"android": "https://dc.lft.to/lastmile_qr_scan", "ios": "https://dc.lft.to/lastmile_qr_scan"}, "fusion_lon": 0.0, "lat": 38.954205, "bike_id": "3aa3ab2b0f0c734634950e44fdd8ff9a", "type": "electric_scooter", "is_reserved": 0, "lon": -77.02764833333333}, {"fusion_lat": 0.0, "name": "4276204f02fe258294df73d4d70dc580", "is_disabled": 0, "rental_uris": {"android": "https://dc.lft.to/lastmile_qr_scan", "ios": "https://dc.lft.to/lastmile_qr_scan"}, "fusion_lon": 0.0, "lat": 38.90914083333333, "bike_id": "4276204f02fe258294df73d4d70dc580", "type": "electric_scooter", "is_reserved": 0, "lon": -77.04415383333334}, {"fusion_lat": 0.0, "name": "ba784549a80b4056bd72ec1a56b458c1", "is_disabled": 0, "rental_uris": {"android": "https://dc.lft.to/lastmile_qr_scan", "ios": "https://dc.lft.to/lastmile_qr_scan"}, "fusion_lon": 0.0, "lat": 38.89357616666667, "bike_id": "ba784549a80b4056bd72ec1a56b458c1", "type": "electric_scooter", "is_reserved": 0, "lon": -76.986553}, {"fusion_lat": 0.0, "name": "83ab49d5634dde1ae67aa1aa5be1e6e1", "is_disabled": 0, "rental_uris": {"android": "https://dc.lft.to/lastmile_qr_scan", "ios": "https://dc.lft.to/lastmile_qr_scan"}, "fusion_lon": 0.0, "lat": 38.916312, "bike_id": "83ab49d5634dde1ae67aa1aa5be1e6e1", "type": "electric_scooter", "is_reserved": 0, "lon": -77.05071266666667}, {"fusion_lat": 0.0, "name": "054182d47f353efd5f6126ea4568db7b", "is_disabled": 0, "rental_uris": {"android": "https://dc.lft.to/lastmile_qr_scan", "ios": "https://dc.lft.to/lastmile_qr_scan"}, "fusion_lon": 0.0, "lat": 38.893505166666664, "bike_id": "054182d47f353efd5f6126ea4568db7b", "type": "electric_scooter", "is_reserved": 0, "lon": -77.03968433333333}, {"fusion_lat": 0.0, "name": "f88d4000852ae9c68fe2a6a1670cfa88", "is_disabled": 0, "rental_uris": {"android": "https://dc.lft.to/lastmile_qr_scan", "ios": "https://dc.lft.to/lastmile_qr_scan"}, "fusion_lon": 0.0, "lat": 38.90726566666667, "bike_id": "f88d4000852ae9c68fe2a6a1670cfa88", "type": "electric_scooter", "is_reserved": 0, "lon": -77.04332266666667}, {"fusion_lat": 0.0, "name": "56c7eade4c9715a1bdbaf5a7e50755bc", "is_disabled": 0, "rental_uris": {"android": "https://dc.lft.to/lastmile_qr_scan", "ios": "https://dc.lft.to/lastmile_qr_scan"}, "fusion_lon": 0.0, "lat": 38.907317666666664, "bike_id": "56c7eade4c9715a1bdbaf5a7e50755bc", "type": "electric_scooter", "is_reserved": 0, "lon": -77.04337}, {"fusion_lat": 0.0, "name": "a0fd368dce738710271abafa3a2f56a4", "is_disabled": 0, "rental_uris": {"android": "https://dc.lft.to/lastmile_qr_scan", "ios": "https://dc.lft.to/lastmile_qr_scan"}, "fusion_lon": 0.0, "lat": 38.92087716666666, "bike_id": "a0fd368dce738710271abafa3a2f56a4", "type": "electric_scooter", "is_reserved": 0, "lon": -77.0241245}, {"fusion_lat": 0.0, "name": "62c449740af20d8da15c09741618a9d0", "is_disabled": 0, "rental_uris": {"android": "https://dc.lft.to/lastmile_qr_scan", "ios": "https://dc.lft.to/lastmile_qr_scan"}, "fusion_lon": 0.0, "lat": 38.9074905, "bike_id": "62c449740af20d8da15c09741618a9d0", "type": "electric_scooter", "is_reserved": 0, "lon": -77.03581866666667}, {"fusion_lat": 0.0, "name": "2654693dc89d1d3b07c7760785b945d3", "is_disabled": 0, "rental_uris": {"android": "https://dc.lft.to/lastmile_qr_scan", "ios": "https://dc.lft.to/lastmile_qr_scan"}, "fusion_lon": 0.0, "lat": 38.93063583333333, "bike_id": "2654693dc89d1d3b07c7760785b945d3", "type": "electric_scooter", "is_reserved": 0, "lon": -77.03217233333334}, {"fusion_lat": 0.0, "name": "12267b9f4863149d3ba15b1bdefa9f4b", "is_disabled": 0, "rental_uris": {"android": "https://dc.lft.to/lastmile_qr_scan", "ios": "https://dc.lft.to/lastmile_qr_scan"}, "fusion_lon": 0.0, "lat": 38.91523933333333, "bike_id": "12267b9f4863149d3ba15b1bdefa9f4b", "type": "electric_scooter", "is_reserved": 0, "lon": -77.07481916666667}, {"fusion_lat": 0.0, "name": "29edc4dab3e5861f17afd5d0d9e94114", "is_disabled": 0, "rental_uris": {"android": "https://dc.lft.to/lastmile_qr_scan", "ios": "https://dc.lft.to/lastmile_qr_scan"}, "fusion_lon": 0.0, "lat": 38.9235255, "bike_id": "29edc4dab3e5861f17afd5d0d9e94114", "type": "electric_scooter", "is_reserved": 0, "lon": -77.04152066666667}, {"fusion_lat": 0.0, "name": "b6033f556fa12a718433ba4dbd8e248b", "is_disabled": 0, "rental_uris": {"android": "https://dc.lft.to/lastmile_qr_scan", "ios": "https://dc.lft.to/lastmile_qr_scan"}, "fusion_lon": 0.0, "lat": 38.91978783333333, "bike_id": "b6033f556fa12a718433ba4dbd8e248b", "type": "electric_scooter", "is_reserved": 0, "lon": -77.0240435}, {"fusion_lat": 0.0, "name": "0fc7618bfb73ab64db726d032701d41b", "is_disabled": 0, "rental_uris": {"android": "https://dc.lft.to/lastmile_qr_scan", "ios": "https://dc.lft.to/lastmile_qr_scan"}, "fusion_lon": 0.0, "lat": 38.905161166666666, "bike_id": "0fc7618bfb73ab64db726d032701d41b", "type": "electric_scooter", "is_reserved": 0, "lon": -77.06460133333333}, {"fusion_lat": 0.0, "name": "9691a87da6d9dfe7d28c7165fe5966ce", "is_disabled": 0, "rental_uris": {"android": "https://dc.lft.to/lastmile_qr_scan", "ios": "https://dc.lft.to/lastmile_qr_scan"}, "fusion_lon": 0.0, "lat": 38.93340283333333, "bike_id": "9691a87da6d9dfe7d28c7165fe5966ce", "type": "electric_scooter", "is_reserved": 0, "lon": -77.0262355}, {"fusion_lat": 0.0, "name": "54c5c56835994b9c9ec0ba5d9f565dab", "is_disabled": 0, "rental_uris": {"android": "https://dc.lft.to/lastmile_qr_scan", "ios": "https://dc.lft.to/lastmile_qr_scan"}, "fusion_lon": 0.0, "lat": 38.895674666666665, "bike_id": "54c5c56835994b9c9ec0ba5d9f565dab", "type": "electric_scooter", "is_reserved": 0, "lon": -77.021748}, {"fusion_lat": 0.0, "name": "08ef91e7df13dd83faa547c72b42cb7e", "is_disabled": 0, "rental_uris": {"android": "https://dc.lft.to/lastmile_qr_scan", "ios": "https://dc.lft.to/lastmile_qr_scan"}, "fusion_lon": 0.0, "lat": 38.93130516666667, "bike_id": "08ef91e7df13dd83faa547c72b42cb7e", "type": "electric_scooter", "is_reserved": 0, "lon": -77.03854416666667}, {"fusion_lat": 0.0, "name": "bcc7ee498cbc78a306a1b392182d8f35", "is_disabled": 0, "rental_uris": {"android": "https://dc.lft.to/lastmile_qr_scan", "ios": "https://dc.lft.to/lastmile_qr_scan"}, "fusion_lon": 0.0, "lat": 38.914782833333334, "bike_id": "bcc7ee498cbc78a306a1b392182d8f35", "type": "electric_scooter", "is_reserved": 0, "lon": -77.0461465}, {"fusion_lat": 0.0, "name": "85055cd5a793efb502ed88374c0f0a23", "is_disabled": 0, "rental_uris": {"android": "https://dc.lft.to/lastmile_qr_scan", "ios": "https://dc.lft.to/lastmile_qr_scan"}, "fusion_lon": 0.0, "lat": 38.90064566666667, "bike_id": "85055cd5a793efb502ed88374c0f0a23", "type": "electric_scooter", "is_reserved": 0, "lon": -77.05031133333334}, {"fusion_lat": 0.0, "name": "b3f258191d5892dde24e02e7a3e994dd", "is_disabled": 0, "rental_uris": {"android": "https://dc.lft.to/lastmile_qr_scan", "ios": "https://dc.lft.to/lastmile_qr_scan"}, "fusion_lon": 0.0, "lat": 38.8972745, "bike_id": "b3f258191d5892dde24e02e7a3e994dd", "type": "electric_scooter", "is_reserved": 0, "lon": -77.02380316666667}, {"fusion_lat": 0.0, "name": "28e85f4e237e374fc42e89c0ffb9c46a", "is_disabled": 0, "rental_uris": {"android": "https://dc.lft.to/lastmile_qr_scan", "ios": "https://dc.lft.to/lastmile_qr_scan"}, "fusion_lon": 0.0, "lat": 38.91276716666667, "bike_id": "28e85f4e237e374fc42e89c0ffb9c46a", "type": "electric_scooter", "is_reserved": 0, "lon": -77.01975783333333}, {"fusion_lat": 0.0, "name": "433edc01b90359ddac76e86b03981ba6", "is_disabled": 0, "rental_uris": {"android": "https://dc.lft.to/lastmile_qr_scan", "ios": "https://dc.lft.to/lastmile_qr_scan"}, "fusion_lon": 0.0, "lat": 38.956429166666666, "bike_id": "433edc01b90359ddac76e86b03981ba6", "type": "electric_bike", "is_reserved": 0, "lon": -76.9387255}, {"fusion_lat": 0.0, "name": "f84374e3802612c4ece74ad37b19bdba", "is_disabled": 0, "rental_uris": {"android": "https://dc.lft.to/lastmile_qr_scan", "ios": "https://dc.lft.to/lastmile_qr_scan"}, "fusion_lon": 0.0, "lat": 38.89903616666667, "bike_id": "f84374e3802612c4ece74ad37b19bdba", "type": "electric_scooter", "is_reserved": 0, "lon": -76.9938785}, {"fusion_lat": 0.0, "name": "2d4f20e6e6fcfbb02009801479a4f2f1", "is_disabled": 0, "rental_uris": {"android": "https://dc.lft.to/lastmile_qr_scan", "ios": "https://dc.lft.to/lastmile_qr_scan"}, "fusion_lon": 0.0, "lat": 38.89502, "bike_id": "2d4f20e6e6fcfbb02009801479a4f2f1", "type": "electric_scooter", "is_reserved": 0, "lon": -77.03958983333334}, {"fusion_lat": 0.0, "name": "199880757323e23a426bec7e6ac1b46e", "is_disabled": 0, "rental_uris": {"android": "https://dc.lft.to/lastmile_qr_scan", "ios": "https://dc.lft.to/lastmile_qr_scan"}, "fusion_lon": 0.0, "lat": 38.8952445, "bike_id": "199880757323e23a426bec7e6ac1b46e", "type": "electric_scooter", "is_reserved": 0, "lon": -76.93411916666666}, {"fusion_lat": 0.0, "name": "579e5ed5ba721804064b4fa31958176f", "is_disabled": 0, "rental_uris": {"android": "https://dc.lft.to/lastmile_qr_scan", "ios": "https://dc.lft.to/lastmile_qr_scan"}, "fusion_lon": 0.0, "lat": 38.900986833333334, "bike_id": "579e5ed5ba721804064b4fa31958176f", "type": "electric_scooter", "is_reserved": 0, "lon": -76.98335783333333}, {"fusion_lat": 0.0, "name": "22da1db9d8dd9d99f5bebc2dc5b0655e", "is_disabled": 0, "rental_uris": {"android": "https://dc.lft.to/lastmile_qr_scan", "ios": "https://dc.lft.to/lastmile_qr_scan"}, "fusion_lon": 0.0, "lat": 38.8921765, "bike_id": "22da1db9d8dd9d99f5bebc2dc5b0655e", "type": "electric_scooter", "is_reserved": 0, "lon": -77.02654533333333}, {"fusion_lat": 0.0, "name": "79d1d4dde8fe7a10f1a8ddf38a69cd64", "is_disabled": 0, "rental_uris": {"android": "https://dc.lft.to/lastmile_qr_scan", "ios": "https://dc.lft.to/lastmile_qr_scan"}, "fusion_lon": 0.0, "lat": 38.935011833333334, "bike_id": "79d1d4dde8fe7a10f1a8ddf38a69cd64", "type": "electric_scooter", "is_reserved": 0, "lon": -77.036369}, {"fusion_lat": 0.0, "name": "4e0ec1533bca132211b939dc08b517e5", "is_disabled": 0, "rental_uris": {"android": "https://dc.lft.to/lastmile_qr_scan", "ios": "https://dc.lft.to/lastmile_qr_scan"}, "fusion_lon": 0.0, "lat": 38.900165333333334, "bike_id": "4e0ec1533bca132211b939dc08b517e5", "type": "electric_scooter", "is_reserved": 0, "lon": -77.044969}, {"fusion_lat": 0.0, "name": "b21d4d595bc268491c1baddbe26fde2e", "is_disabled": 0, "rental_uris": {"android": "https://dc.lft.to/lastmile_qr_scan", "ios": "https://dc.lft.to/lastmile_qr_scan"}, "fusion_lon": 0.0, "lat": 38.91712016666666, "bike_id": "b21d4d595bc268491c1baddbe26fde2e", "type": "electric_scooter", "is_reserved": 0, "lon": -77.02307116666667}, {"fusion_lat": 0.0, "name": "a2a30efcabc9d6bc6165523b4acc3c28", "is_disabled": 0, "rental_uris": {"android": "https://dc.lft.to/lastmile_qr_scan", "ios": "https://dc.lft.to/lastmile_qr_scan"}, "fusion_lon": 0.0, "lat": 38.89749533333333, "bike_id": "a2a30efcabc9d6bc6165523b4acc3c28", "type": "electric_scooter", "is_reserved": 0, "lon": -77.02702216666667}, {"fusion_lat": 0.0, "name": "0fc9a8f85d0420a9dc0312c5e57bc23c", "is_disabled": 0, "rental_uris": {"android": "https://dc.lft.to/lastmile_qr_scan", "ios": "https://dc.lft.to/lastmile_qr_scan"}, "fusion_lon": 0.0, "lat": 38.95060333333333, "bike_id": "0fc9a8f85d0420a9dc0312c5e57bc23c", "type": "electric_scooter", "is_reserved": 0, "lon": -77.08023416666667}, {"fusion_lat": 0.0, "name": "e15638ed6093b6f5fb86ee1e79654951", "is_disabled": 0, "rental_uris": {"android": "https://dc.lft.to/lastmile_qr_scan", "ios": "https://dc.lft.to/lastmile_qr_scan"}, "fusion_lon": 0.0, "lat": 38.924085166666664, "bike_id": "e15638ed6093b6f5fb86ee1e79654951", "type": "electric_scooter", "is_reserved": 0, "lon": -77.027149}, {"fusion_lat": 0.0, "name": "1e6cf5b7db03e0736a95dfcaf4e09caa", "is_disabled": 0, "rental_uris": {"android": "https://dc.lft.to/lastmile_qr_scan", "ios": "https://dc.lft.to/lastmile_qr_scan"}, "fusion_lon": 0.0, "lat": 38.914607, "bike_id": "1e6cf5b7db03e0736a95dfcaf4e09caa", "type": "electric_scooter", "is_reserved": 0, "lon": -77.00212333333333}, {"fusion_lat": 0.0, "name": "a98b3996bfd3251e1c4b5d223f207632", "is_disabled": 0, "rental_uris": {"android": "https://dc.lft.to/lastmile_qr_scan", "ios": "https://dc.lft.to/lastmile_qr_scan"}, "fusion_lon": 0.0, "lat": 38.940968166666664, "bike_id": "a98b3996bfd3251e1c4b5d223f207632", "type": "electric_scooter", "is_reserved": 0, "lon": -77.03283283333333}, {"fusion_lat": 0.0, "name": "4156d8dec39ea7c4f4fea663dbb8c00d", "is_disabled": 0, "rental_uris": {"android": "https://dc.lft.to/lastmile_qr_scan", "ios": "https://dc.lft.to/lastmile_qr_scan"}, "fusion_lon": 0.0, "lat": 38.9326285, "bike_id": "4156d8dec39ea7c4f4fea663dbb8c00d", "type": "electric_scooter", "is_reserved": 0, "lon": -77.01924666666666}, {"fusion_lat": 0.0, "name": "2e491ea6d7b33eb39395e9b1f11f7c2d", "is_disabled": 0, "rental_uris": {"android": "https://dc.lft.to/lastmile_qr_scan", "ios": "https://dc.lft.to/lastmile_qr_scan"}, "fusion_lon": 0.0, "lat": 38.930743166666666, "bike_id": "2e491ea6d7b33eb39395e9b1f11f7c2d", "type": "electric_scooter", "is_reserved": 0, "lon": -77.07770016666667}, {"fusion_lat": 0.0, "name": "573e3b4822597e8be4c2be37fab685f5", "is_disabled": 0, "rental_uris": {"android": "https://dc.lft.to/lastmile_qr_scan", "ios": "https://dc.lft.to/lastmile_qr_scan"}, "fusion_lon": 0.0, "lat": 38.90632083333333, "bike_id": "573e3b4822597e8be4c2be37fab685f5", "type": "electric_scooter", "is_reserved": 0, "lon": -77.04874}, {"fusion_lat": 0.0, "name": "ff827b88bb86ca02aee0c95bfaec3275", "is_disabled": 0, "rental_uris": {"android": "https://dc.lft.to/lastmile_qr_scan", "ios": "https://dc.lft.to/lastmile_qr_scan"}, "fusion_lon": 0.0, "lat": 38.860167833333335, "bike_id": "ff827b88bb86ca02aee0c95bfaec3275", "type": "electric_bike", "is_reserved": 0, "lon": -77.12807516666666}, {"fusion_lat": 0.0, "name": "1de00f448c27d2f697abb29e35bc9ac2", "is_disabled": 0, "rental_uris": {"android": "https://dc.lft.to/lastmile_qr_scan", "ios": "https://dc.lft.to/lastmile_qr_scan"}, "fusion_lon": 0.0, "lat": 38.87457283333333, "bike_id": "1de00f448c27d2f697abb29e35bc9ac2", "type": "electric_scooter", "is_reserved": 0, "lon": -77.00287616666667}, {"fusion_lat": 0.0, "name": "b3c1f92067f48c1069c7c232123f1d9b", "is_disabled": 0, "rental_uris": {"android": "https://dc.lft.to/lastmile_qr_scan", "ios": "https://dc.lft.to/lastmile_qr_scan"}, "fusion_lon": 0.0, "lat": 38.93079183333333, "bike_id": "b3c1f92067f48c1069c7c232123f1d9b", "type": "electric_scooter", "is_reserved": 0, "lon": -77.02800816666667}, {"fusion_lat": 0.0, "name": "747b5befe9c1e1157908c047d4812111", "is_disabled": 0, "rental_uris": {"android": "https://dc.lft.to/lastmile_qr_scan", "ios": "https://dc.lft.to/lastmile_qr_scan"}, "fusion_lon": 0.0, "lat": 38.919783833333334, "bike_id": "747b5befe9c1e1157908c047d4812111", "type": "electric_scooter", "is_reserved": 0, "lon": -77.025027}, {"fusion_lat": 0.0, "name": "b63392d03409d932f65bed0ca95d3344", "is_disabled": 0, "rental_uris": {"android": "https://dc.lft.to/lastmile_qr_scan", "ios": "https://dc.lft.to/lastmile_qr_scan"}, "fusion_lon": 0.0, "lat": 38.91478216666667, "bike_id": "b63392d03409d932f65bed0ca95d3344", "type": "electric_scooter", "is_reserved": 0, "lon": -77.04611383333334}, {"fusion_lat": 0.0, "name": "0a4ef8140f4cdbee43be9b7321a80778", "is_disabled": 0, "rental_uris": {"android": "https://dc.lft.to/lastmile_qr_scan", "ios": "https://dc.lft.to/lastmile_qr_scan"}, "fusion_lon": 0.0, "lat": 38.917263, "bike_id": "0a4ef8140f4cdbee43be9b7321a80778", "type": "electric_scooter", "is_reserved": 0, "lon": -77.01926666666667}, {"fusion_lat": 0.0, "name": "5714adb5ed3775d6d7d0a16378d17b0e", "is_disabled": 0, "rental_uris": {"android": "https://dc.lft.to/lastmile_qr_scan", "ios": "https://dc.lft.to/lastmile_qr_scan"}, "fusion_lon": 0.0, "lat": 38.920664, "bike_id": "5714adb5ed3775d6d7d0a16378d17b0e", "type": "electric_scooter", "is_reserved": 0, "lon": -77.03802083333333}, {"fusion_lat": 0.0, "name": "33c125230fb9258a2be2dd2d40eb3786", "is_disabled": 0, "rental_uris": {"android": "https://dc.lft.to/lastmile_qr_scan", "ios": "https://dc.lft.to/lastmile_qr_scan"}, "fusion_lon": 0.0, "lat": 38.92837766666667, "bike_id": "33c125230fb9258a2be2dd2d40eb3786", "type": "electric_scooter", "is_reserved": 0, "lon": -77.0141995}, {"fusion_lat": 0.0, "name": "c8fd8853ea4cd2140d7539d5b92c453c", "is_disabled": 0, "rental_uris": {"android": "https://dc.lft.to/lastmile_qr_scan", "ios": "https://dc.lft.to/lastmile_qr_scan"}, "fusion_lon": 0.0, "lat": 38.88496983333334, "bike_id": "c8fd8853ea4cd2140d7539d5b92c453c", "type": "electric_scooter", "is_reserved": 0, "lon": -77.014765}, {"fusion_lat": 0.0, "name": "66f72c50133b64c72cf269cc0cd083f5", "is_disabled": 0, "rental_uris": {"android": "https://dc.lft.to/lastmile_qr_scan", "ios": "https://dc.lft.to/lastmile_qr_scan"}, "fusion_lon": 0.0, "lat": 38.9216525, "bike_id": "66f72c50133b64c72cf269cc0cd083f5", "type": "electric_scooter", "is_reserved": 0, "lon": -77.03848883333333}, {"fusion_lat": 0.0, "name": "ffe4134ecbe0dc5d6320a13d60a377e3", "is_disabled": 0, "rental_uris": {"android": "https://dc.lft.to/lastmile_qr_scan", "ios": "https://dc.lft.to/lastmile_qr_scan"}, "fusion_lon": 0.0, "lat": 38.92899, "bike_id": "ffe4134ecbe0dc5d6320a13d60a377e3", "type": "electric_scooter", "is_reserved": 0, "lon": -77.03276983333333}, {"fusion_lat": 0.0, "name": "2df636a52f9e90a85ef766f15fa8904d", "is_disabled": 0, "rental_uris": {"android": "https://dc.lft.to/lastmile_qr_scan", "ios": "https://dc.lft.to/lastmile_qr_scan"}, "fusion_lon": 0.0, "lat": 38.8988645, "bike_id": "2df636a52f9e90a85ef766f15fa8904d", "type": "electric_scooter", "is_reserved": 0, "lon": -76.99361133333333}, {"fusion_lat": 0.0, "name": "34fc0e40509c93cc89d80fdd57da63b4", "is_disabled": 0, "rental_uris": {"android": "https://dc.lft.to/lastmile_qr_scan", "ios": "https://dc.lft.to/lastmile_qr_scan"}, "fusion_lon": 0.0, "lat": 38.89811533333334, "bike_id": "34fc0e40509c93cc89d80fdd57da63b4", "type": "electric_scooter", "is_reserved": 0, "lon": -77.03354116666667}, {"fusion_lat": 0.0, "name": "b4f12d43164c974e2df3d60f8be7393c", "is_disabled": 0, "rental_uris": {"android": "https://dc.lft.to/lastmile_qr_scan", "ios": "https://dc.lft.to/lastmile_qr_scan"}, "fusion_lon": 0.0, "lat": 38.89734083333333, "bike_id": "b4f12d43164c974e2df3d60f8be7393c", "type": "electric_scooter", "is_reserved": 0, "lon": -77.007792}, {"fusion_lat": 0.0, "name": "4af5bf3d37485628df89dfd5ea8bee66", "is_disabled": 0, "rental_uris": {"android": "https://dc.lft.to/lastmile_qr_scan", "ios": "https://dc.lft.to/lastmile_qr_scan"}, "fusion_lon": 0.0, "lat": 38.9237875, "bike_id": "4af5bf3d37485628df89dfd5ea8bee66", "type": "electric_scooter", "is_reserved": 0, "lon": -77.05151716666667}, {"fusion_lat": 0.0, "name": "59ef8c9fb78388ea25455f5adf2d2d3b", "is_disabled": 0, "rental_uris": {"android": "https://dc.lft.to/lastmile_qr_scan", "ios": "https://dc.lft.to/lastmile_qr_scan"}, "fusion_lon": 0.0, "lat": 38.95543033333333, "bike_id": "59ef8c9fb78388ea25455f5adf2d2d3b", "type": "electric_bike", "is_reserved": 0, "lon": -77.069365}, {"fusion_lat": 0.0, "name": "21431c90cf4d948086c2702f32baab67", "is_disabled": 0, "rental_uris": {"android": "https://dc.lft.to/lastmile_qr_scan", "ios": "https://dc.lft.to/lastmile_qr_scan"}, "fusion_lon": 0.0, "lat": 38.919358333333335, "bike_id": "21431c90cf4d948086c2702f32baab67", "type": "electric_scooter", "is_reserved": 0, "lon": -77.04928716666667}, {"fusion_lat": 0.0, "name": "c917dea647cf3401da69d24588c2a471", "is_disabled": 0, "rental_uris": {"android": "https://dc.lft.to/lastmile_qr_scan", "ios": "https://dc.lft.to/lastmile_qr_scan"}, "fusion_lon": 0.0, "lat": 38.8957, "bike_id": "c917dea647cf3401da69d24588c2a471", "type": "electric_scooter", "is_reserved": 0, "lon": -77.02191266666667}, {"fusion_lat": 0.0, "name": "6a72900bfa2488c58ad6cdc2f91e9175", "is_disabled": 0, "rental_uris": {"android": "https://dc.lft.to/lastmile_qr_scan", "ios": "https://dc.lft.to/lastmile_qr_scan"}, "fusion_lon": 0.0, "lat": 38.9527955, "bike_id": "6a72900bfa2488c58ad6cdc2f91e9175", "type": "electric_scooter", "is_reserved": 0, "lon": -77.068615}, {"fusion_lat": 0.0, "name": "5193ab1b36e1debacd0aba998f61ae7e", "is_disabled": 0, "rental_uris": {"android": "https://dc.lft.to/lastmile_qr_scan", "ios": "https://dc.lft.to/lastmile_qr_scan"}, "fusion_lon": 0.0, "lat": 38.90079516666667, "bike_id": "5193ab1b36e1debacd0aba998f61ae7e", "type": "electric_scooter", "is_reserved": 0, "lon": -77.01342283333334}, {"fusion_lat": 0.0, "name": "2e4a23bf4d8e1776d0117b198aeb9694", "is_disabled": 0, "rental_uris": {"android": "https://dc.lft.to/lastmile_qr_scan", "ios": "https://dc.lft.to/lastmile_qr_scan"}, "fusion_lon": 0.0, "lat": 38.92527116666667, "bike_id": "2e4a23bf4d8e1776d0117b198aeb9694", "type": "electric_scooter", "is_reserved": 0, "lon": -77.077067}, {"fusion_lat": 0.0, "name": "add8c9875c495231661d0826655767a0", "is_disabled": 0, "rental_uris": {"android": "https://dc.lft.to/lastmile_qr_scan", "ios": "https://dc.lft.to/lastmile_qr_scan"}, "fusion_lon": 0.0, "lat": 38.9164975, "bike_id": "add8c9875c495231661d0826655767a0", "type": "electric_scooter", "is_reserved": 0, "lon": -77.04778416666667}, {"fusion_lat": 0.0, "name": "d7c2eb4344ae6cc1af5f87b7ed84929f", "is_disabled": 0, "rental_uris": {"android": "https://dc.lft.to/lastmile_qr_scan", "ios": "https://dc.lft.to/lastmile_qr_scan"}, "fusion_lon": 0.0, "lat": 38.945122166666664, "bike_id": "d7c2eb4344ae6cc1af5f87b7ed84929f", "type": "electric_bike", "is_reserved": 0, "lon": -77.0068115}, {"fusion_lat": 0.0, "name": "598fcfc174a374ab4b55d414e5ffd0a5", "is_disabled": 0, "rental_uris": {"android": "https://dc.lft.to/lastmile_qr_scan", "ios": "https://dc.lft.to/lastmile_qr_scan"}, "fusion_lon": 0.0, "lat": 38.906993, "bike_id": "598fcfc174a374ab4b55d414e5ffd0a5", "type": "electric_scooter", "is_reserved": 0, "lon": -77.035947}, {"fusion_lat": 0.0, "name": "f04bef8945458b165fc0cbcd8daa688f", "is_disabled": 0, "rental_uris": {"android": "https://dc.lft.to/lastmile_qr_scan", "ios": "https://dc.lft.to/lastmile_qr_scan"}, "fusion_lon": 0.0, "lat": 38.897262833333336, "bike_id": "f04bef8945458b165fc0cbcd8daa688f", "type": "electric_scooter", "is_reserved": 0, "lon": -77.01920716666666}, {"fusion_lat": 0.0, "name": "502adc4b1e3894f6ae7371b835def404", "is_disabled": 0, "rental_uris": {"android": "https://dc.lft.to/lastmile_qr_scan", "ios": "https://dc.lft.to/lastmile_qr_scan"}, "fusion_lon": 0.0, "lat": 38.89724916666667, "bike_id": "502adc4b1e3894f6ae7371b835def404", "type": "electric_scooter", "is_reserved": 0, "lon": -77.023735}, {"fusion_lat": 0.0, "name": "35bdf03e1b9e5c8f21062ec0919bf189", "is_disabled": 0, "rental_uris": {"android": "https://dc.lft.to/lastmile_qr_scan", "ios": "https://dc.lft.to/lastmile_qr_scan"}, "fusion_lon": 0.0, "lat": 38.903505333333335, "bike_id": "35bdf03e1b9e5c8f21062ec0919bf189", "type": "electric_scooter", "is_reserved": 0, "lon": -77.04483483333334}, {"fusion_lat": 0.0, "name": "36944cb8b8ef37c21038be3a7080f9d7", "is_disabled": 0, "rental_uris": {"android": "https://dc.lft.to/lastmile_qr_scan", "ios": "https://dc.lft.to/lastmile_qr_scan"}, "fusion_lon": 0.0, "lat": 38.922489666666664, "bike_id": "36944cb8b8ef37c21038be3a7080f9d7", "type": "electric_scooter", "is_reserved": 0, "lon": -77.03083616666666}, {"fusion_lat": 0.0, "name": "2dffbcbb8475d61f41b2b4b330f1b858", "is_disabled": 0, "rental_uris": {"android": "https://dc.lft.to/lastmile_qr_scan", "ios": "https://dc.lft.to/lastmile_qr_scan"}, "fusion_lon": 0.0, "lat": 38.92324166666667, "bike_id": "2dffbcbb8475d61f41b2b4b330f1b858", "type": "electric_scooter", "is_reserved": 0, "lon": -77.040196}, {"fusion_lat": 0.0, "name": "ca3217507d1e511fad487d6c8c17f425", "is_disabled": 0, "rental_uris": {"android": "https://dc.lft.to/lastmile_qr_scan", "ios": "https://dc.lft.to/lastmile_qr_scan"}, "fusion_lon": 0.0, "lat": 38.90532233333333, "bike_id": "ca3217507d1e511fad487d6c8c17f425", "type": "electric_bike", "is_reserved": 0, "lon": -76.9980355}, {"fusion_lat": 0.0, "name": "3f9ac78f9b8fb0a3c93324d413c451d4", "is_disabled": 0, "rental_uris": {"android": "https://dc.lft.to/lastmile_qr_scan", "ios": "https://dc.lft.to/lastmile_qr_scan"}, "fusion_lon": 0.0, "lat": 38.895684833333334, "bike_id": "3f9ac78f9b8fb0a3c93324d413c451d4", "type": "electric_scooter", "is_reserved": 0, "lon": -76.9489735}, {"fusion_lat": 0.0, "name": "8b80de32db6ca87614f8f548d8bd7f64", "is_disabled": 0, "rental_uris": {"android": "https://dc.lft.to/lastmile_qr_scan", "ios": "https://dc.lft.to/lastmile_qr_scan"}, "fusion_lon": 0.0, "lat": 38.90929766666667, "bike_id": "8b80de32db6ca87614f8f548d8bd7f64", "type": "electric_scooter", "is_reserved": 0, "lon": -77.02813083333334}, {"fusion_lat": 0.0, "name": "e1aff0d24a2099b27129e2cd54b727e6", "is_disabled": 0, "rental_uris": {"android": "https://dc.lft.to/lastmile_qr_scan", "ios": "https://dc.lft.to/lastmile_qr_scan"}, "fusion_lon": 0.0, "lat": 38.8774635, "bike_id": "e1aff0d24a2099b27129e2cd54b727e6", "type": "electric_scooter", "is_reserved": 0, "lon": -77.003426}, {"fusion_lat": 0.0, "name": "f854482fb172bfe63c80bfacac0b0087", "is_disabled": 0, "rental_uris": {"android": "https://dc.lft.to/lastmile_qr_scan", "ios": "https://dc.lft.to/lastmile_qr_scan"}, "fusion_lon": 0.0, "lat": 38.93052333333333, "bike_id": "f854482fb172bfe63c80bfacac0b0087", "type": "electric_scooter", "is_reserved": 0, "lon": -77.03804633333333}, {"fusion_lat": 0.0, "name": "7a778f9f036893c7a182b50ec4dcf87a", "is_disabled": 0, "rental_uris": {"android": "https://dc.lft.to/lastmile_qr_scan", "ios": "https://dc.lft.to/lastmile_qr_scan"}, "fusion_lon": 0.0, "lat": 38.902526333333334, "bike_id": "7a778f9f036893c7a182b50ec4dcf87a", "type": "electric_scooter", "is_reserved": 0, "lon": -77.034306}, {"fusion_lat": 0.0, "name": "1d127b21cbd5fa307189a5270eba028a", "is_disabled": 0, "rental_uris": {"android": "https://dc.lft.to/lastmile_qr_scan", "ios": "https://dc.lft.to/lastmile_qr_scan"}, "fusion_lon": 0.0, "lat": 38.90756416666667, "bike_id": "1d127b21cbd5fa307189a5270eba028a", "type": "electric_scooter", "is_reserved": 0, "lon": -77.03587783333333}, {"fusion_lat": 0.0, "name": "bd6b3af7aa735088b8f12cd110cdcd6c", "is_disabled": 0, "rental_uris": {"android": "https://dc.lft.to/lastmile_qr_scan", "ios": "https://dc.lft.to/lastmile_qr_scan"}, "fusion_lon": 0.0, "lat": 38.8922455, "bike_id": "bd6b3af7aa735088b8f12cd110cdcd6c", "type": "electric_scooter", "is_reserved": 0, "lon": -77.04863933333333}, {"fusion_lat": 0.0, "name": "e41e3041f38315a721745f7126c6a061", "is_disabled": 0, "rental_uris": {"android": "https://dc.lft.to/lastmile_qr_scan", "ios": "https://dc.lft.to/lastmile_qr_scan"}, "fusion_lon": 0.0, "lat": 38.905591, "bike_id": "e41e3041f38315a721745f7126c6a061", "type": "electric_scooter", "is_reserved": 0, "lon": -77.00803166666667}, {"fusion_lat": 0.0, "name": "74078df43503d7e9a9375550972bd8d4", "is_disabled": 0, "rental_uris": {"android": "https://dc.lft.to/lastmile_qr_scan", "ios": "https://dc.lft.to/lastmile_qr_scan"}, "fusion_lon": 0.0, "lat": 38.91480816666667, "bike_id": "74078df43503d7e9a9375550972bd8d4", "type": "electric_scooter", "is_reserved": 0, "lon": -77.0425925}, {"fusion_lat": 0.0, "name": "6b7e6e8133bd69579efd56d35f9142b2", "is_disabled": 0, "rental_uris": {"android": "https://dc.lft.to/lastmile_qr_scan", "ios": "https://dc.lft.to/lastmile_qr_scan"}, "fusion_lon": 0.0, "lat": 38.897374666666664, "bike_id": "6b7e6e8133bd69579efd56d35f9142b2", "type": "electric_scooter", "is_reserved": 0, "lon": -77.003535}, {"fusion_lat": 0.0, "name": "c542493acf03c866e0995a40c1389ae6", "is_disabled": 0, "rental_uris": {"android": "https://dc.lft.to/lastmile_qr_scan", "ios": "https://dc.lft.to/lastmile_qr_scan"}, "fusion_lon": 0.0, "lat": 38.91273233333333, "bike_id": "c542493acf03c866e0995a40c1389ae6", "type": "electric_scooter", "is_reserved": 0, "lon": -77.04070616666667}, {"fusion_lat": 0.0, "name": "14ff1a5e91293dc8a0c29ce877520c63", "is_disabled": 0, "rental_uris": {"android": "https://dc.lft.to/lastmile_qr_scan", "ios": "https://dc.lft.to/lastmile_qr_scan"}, "fusion_lon": 0.0, "lat": 38.90357933333333, "bike_id": "14ff1a5e91293dc8a0c29ce877520c63", "type": "electric_scooter", "is_reserved": 0, "lon": -77.01737333333334}, {"fusion_lat": 0.0, "name": "f8659349976886f6f179f9ebf261f9d3", "is_disabled": 0, "rental_uris": {"android": "https://dc.lft.to/lastmile_qr_scan", "ios": "https://dc.lft.to/lastmile_qr_scan"}, "fusion_lon": 0.0, "lat": 38.90670316666667, "bike_id": "f8659349976886f6f179f9ebf261f9d3", "type": "electric_scooter", "is_reserved": 0, "lon": -77.03860516666667}, {"fusion_lat": 0.0, "name": "12287860bf1f34ffdab1889fe3d1e193", "is_disabled": 0, "rental_uris": {"android": "https://dc.lft.to/lastmile_qr_scan", "ios": "https://dc.lft.to/lastmile_qr_scan"}, "fusion_lon": 0.0, "lat": 38.9214845, "bike_id": "12287860bf1f34ffdab1889fe3d1e193", "type": "electric_scooter", "is_reserved": 0, "lon": -77.04364216666667}, {"fusion_lat": 0.0, "name": "37573f179298fdb71423d542831be7c4", "is_disabled": 0, "rental_uris": {"android": "https://dc.lft.to/lastmile_qr_scan", "ios": "https://dc.lft.to/lastmile_qr_scan"}, "fusion_lon": 0.0, "lat": 38.9001905, "bike_id": "37573f179298fdb71423d542831be7c4", "type": "electric_bike", "is_reserved": 0, "lon": -77.01129083333333}, {"fusion_lat": 0.0, "name": "55f510dbc800fe9f8cff0a42109aa626", "is_disabled": 0, "rental_uris": {"android": "https://dc.lft.to/lastmile_qr_scan", "ios": "https://dc.lft.to/lastmile_qr_scan"}, "fusion_lon": 0.0, "lat": 38.89761583333333, "bike_id": "55f510dbc800fe9f8cff0a42109aa626", "type": "electric_scooter", "is_reserved": 0, "lon": -77.045057}, {"fusion_lat": 0.0, "name": "631d6a7d444a9ff1dc71d8bdd609e329", "is_disabled": 0, "rental_uris": {"android": "https://dc.lft.to/lastmile_qr_scan", "ios": "https://dc.lft.to/lastmile_qr_scan"}, "fusion_lon": 0.0, "lat": 38.998479833333334, "bike_id": "631d6a7d444a9ff1dc71d8bdd609e329", "type": "electric_bike", "is_reserved": 0, "lon": -77.03047033333333}, {"fusion_lat": 0.0, "name": "284adddd97b557c5d44d49486e399e5b", "is_disabled": 0, "rental_uris": {"android": "https://dc.lft.to/lastmile_qr_scan", "ios": "https://dc.lft.to/lastmile_qr_scan"}, "fusion_lon": 0.0, "lat": 38.900833, "bike_id": "284adddd97b557c5d44d49486e399e5b", "type": "electric_scooter", "is_reserved": 0, "lon": -77.04915216666667}, {"fusion_lat": 0.0, "name": "cfeb0b18df0bf4441ad891419209651b", "is_disabled": 0, "rental_uris": {"android": "https://dc.lft.to/lastmile_qr_scan", "ios": "https://dc.lft.to/lastmile_qr_scan"}, "fusion_lon": 0.0, "lat": 38.9223515, "bike_id": "cfeb0b18df0bf4441ad891419209651b", "type": "electric_scooter", "is_reserved": 0, "lon": -77.04244933333334}, {"fusion_lat": 0.0, "name": "729f956064e70c942bcf9f8fd4a02ddf", "is_disabled": 0, "rental_uris": {"android": "https://dc.lft.to/lastmile_qr_scan", "ios": "https://dc.lft.to/lastmile_qr_scan"}, "fusion_lon": 0.0, "lat": 38.897622, "bike_id": "729f956064e70c942bcf9f8fd4a02ddf", "type": "electric_scooter", "is_reserved": 0, "lon": -77.03290666666666}, {"fusion_lat": 0.0, "name": "14543611c02ee94a32225bf6290a8e83", "is_disabled": 0, "rental_uris": {"android": "https://dc.lft.to/lastmile_qr_scan", "ios": "https://dc.lft.to/lastmile_qr_scan"}, "fusion_lon": 0.0, "lat": 38.90643416666666, "bike_id": "14543611c02ee94a32225bf6290a8e83", "type": "electric_scooter", "is_reserved": 0, "lon": -77.04333783333334}, {"fusion_lat": 0.0, "name": "47e024a7898a1f74209af7dd07db7caa", "is_disabled": 0, "rental_uris": {"android": "https://dc.lft.to/lastmile_qr_scan", "ios": "https://dc.lft.to/lastmile_qr_scan"}, "fusion_lon": 0.0, "lat": 38.92745166666667, "bike_id": "47e024a7898a1f74209af7dd07db7caa", "type": "electric_scooter", "is_reserved": 0, "lon": -77.0324105}, {"fusion_lat": 0.0, "name": "5d66f3a36d49c59b8aaf159065aa180a", "is_disabled": 0, "rental_uris": {"android": "https://dc.lft.to/lastmile_qr_scan", "ios": "https://dc.lft.to/lastmile_qr_scan"}, "fusion_lon": 0.0, "lat": 38.895032, "bike_id": "5d66f3a36d49c59b8aaf159065aa180a", "type": "electric_scooter", "is_reserved": 0, "lon": -77.003317}, {"fusion_lat": 0.0, "name": "bbd9d68cb36752aeb1229fd883ba5c42", "is_disabled": 0, "rental_uris": {"android": "https://dc.lft.to/lastmile_qr_scan", "ios": "https://dc.lft.to/lastmile_qr_scan"}, "fusion_lon": 0.0, "lat": 38.926081, "bike_id": "bbd9d68cb36752aeb1229fd883ba5c42", "type": "electric_scooter", "is_reserved": 0, "lon": -77.0238795}, {"fusion_lat": 0.0, "name": "685abf457f2edae3dbff26050ce594ea", "is_disabled": 0, "rental_uris": {"android": "https://dc.lft.to/lastmile_qr_scan", "ios": "https://dc.lft.to/lastmile_qr_scan"}, "fusion_lon": 0.0, "lat": 38.8811655, "bike_id": "685abf457f2edae3dbff26050ce594ea", "type": "electric_scooter", "is_reserved": 0, "lon": -77.02636216666667},