{"data": {"bikes": [{"is_reserved": 0, "rental_uris": {"ios": "https://dc.lft.to/lastmile_qr_scan", "android": "https://dc.lft.to/lastmile_qr_scan"}, "name": "b9cf82890b355f777e062630967ae177", "bike_id": "b9cf82890b355f777e062630967ae177", "type": "electric_scooter", "lat": 38.92004266666667, "fusion_lon": 0.0, "is_disabled": 0, "fusion_lat": 0.0, "lon": -77.0712485}, {"is_reserved": 0, "rental_uris": {"ios": "https://dc.lft.to/lastmile_qr_scan", "android": "https://dc.lft.to/lastmile_qr_scan"}, "name": "56e999c2959303061ba38dfc488bb048", "bike_id": "56e999c2959303061ba38dfc488bb048", "type": "electric_scooter", "lat": 38.925842833333334, "fusion_lon": 0.0, "is_disabled": 0, "fusion_lat": 0.0, "lon": -77.0391675}, {"is_reserved": 0, "rental_uris": {"ios": "https://dc.lft.to/lastmile_qr_scan", "android": "https://dc.lft.to/lastmile_qr_scan"}, "name": "109d5885f8ff7b66f1f36833d768bceb", "bike_id": "109d5885f8ff7b66f1f36833d768bceb", "type": "electric_scooter", "lat": 38.902762, "fusion_lon": 0.0, "is_disabled": 0, "fusion_lat": 0.0, "lon": -77.0397945}, {"is_reserved": 0, "rental_uris": {"ios": "https://dc.lft.to/lastmile_qr_scan", "android": "https://dc.lft.to/lastmile_qr_scan"}, "name": "77e6f37ffdfa2738d900ac332bac1e64", "bike_id": "77e6f37ffdfa2738d900ac332bac1e64", "type": "electric_bike", "lat": 38.8564455, "fusion_lon": 0.0, "is_disabled": 0, "fusion_lat": 0.0, "lon": -77.1124565}, {"is_reserved": 0, "rental_uris": {"ios": "https://dc.lft.to/lastmile_qr_scan", "android": "https://dc.lft.to/lastmile_qr_scan"}, "name": "3cec36a7ccd633eb9df7bab27b31bd4e", "bike_id": "3cec36a7ccd633eb9df7bab27b31bd4e", "type": "electric_scooter", "lat": 38.92283616666667, "fusion_lon": 0.0, "is_disabled": 0, "fusion_lat": 0.0, "lon": -77.036605}, {"is_reserved": 0, "rental_uris": {"ios": "https://dc.lft.to/lastmile_qr_scan", "android": "https://dc.lft.to/lastmile_qr_scan"}, "name": "a46bcfc63f4a38c724d4ca4bafeced2b", "bike_id": "a46bcfc63f4a38c724d4ca4bafeced2b", "type": "electric_scooter", "lat": 38.9288035, "fusion_lon": 0.0, "is_disabled": 0, "fusion_lat": 0.0, "lon": -77.0268835}, {"is_reserved": 0, "rental_uris": {"ios": "https://dc.lft.to/lastmile_qr_scan", "android": "https://dc.lft.to/lastmile_qr_scan"}, "name": "83045e7d0ed3dde029373f227ac1a4b6", "bike_id": "83045e7d0ed3dde029373f227ac1a4b6", "type": "electric_scooter", "lat": 38.907194833333335, "fusion_lon": 0.0, "is_disabled": 0, "fusion_lat": 0.0, "lon": -77.04490233333334}, {"is_reserved": 0, "rental_uris": {"ios": "https://dc.lft.to/lastmile_qr_scan", "android": "https://dc.lft.to/lastmile_qr_scan"}, "name": "dd1fe673c16575f5f2486cc9dcaa2164", "bike_id": "dd1fe673c16575f5f2486cc9dcaa2164", "type": "electric_scooter", "lat": 38.905169, "fusion_lon": 0.0, "is_disabled": 0, "fusion_lat": 0.0, "lon": -77.04487016666667}, {"is_reserved": 0, "rental_uris": {"ios": "https://dc.lft.to/lastmile_qr_scan", "android": "https://dc.lft.to/lastmile_qr_scan"}, "name": "967f55159c6976c489d38f6144503fbc", "bike_id": "967f55159c6976c489d38f6144503fbc", "type": "electric_scooter", "lat": 38.903763166666664, "fusion_lon": 0.0, "is_disabled": 0, "fusion_lat": 0.0, "lon": -77.04121316666667}, {"is_reserved": 0, "rental_uris": {"ios": "https://dc.lft.to/lastmile_qr_scan", "android": "https://dc.lft.to/lastmile_qr_scan"}, "name": "2684977011af8dee675812723377ebb8", "bike_id": "2684977011af8dee675812723377ebb8", "type": "electric_scooter", "lat": 38.9120835, "fusion_lon": 0.0, "is_disabled": 0, "fusion_lat": 0.0, "lon": -77.01215566666667}, {"is_reserved": 0, "rental_uris": {"ios": "https://dc.lft.to/lastmile_qr_scan", "android": "https://dc.lft.to/lastmile_qr_scan"}, "name": "cd7d91f78b659acca1a5a1dc87ff637b", "bike_id": "cd7d91f78b659acca1a5a1dc87ff637b", "type": "electric_scooter", "lat": 38.91872, "fusion_lon": 0.0, "is_disabled": 0, "fusion_lat": 0.0, "lon": -77.0354175}, {"is_reserved": 0, "rental_uris": {"ios": "https://dc.lft.to/lastmile_qr_scan", "android": "https://dc.lft.to/lastmile_qr_scan"}, "name": "7a15eeb67cbea2ccc918e80086018edd", "bike_id": "7a15eeb67cbea2ccc918e80086018edd", "type": "electric_scooter", "lat": 38.91700816666667, "fusion_lon": 0.0, "is_disabled": 0, "fusion_lat": 0.0, "lon": -77.03887783333333}, {"is_reserved": 0, "rental_uris": {"ios": "https://dc.lft.to/lastmile_qr_scan", "android": "https://dc.lft.to/lastmile_qr_scan"}, "name": "d81b5f143c848e4569fa3d795a265939", "bike_id": "d81b5f143c848e4569fa3d795a265939", "type": "electric_scooter", "lat": 38.8931365, "fusion_lon": 0.0, "is_disabled": 0, "fusion_lat": 0.0, "lon": -77.04484216666667}, {"is_reserved": 0, "rental_uris": {"ios": "https://dc.lft.to/lastmile_qr_scan", "android": "https://dc.lft.to/lastmile_qr_scan"}, "name": "10a4bb4470fd0ed29a0da757773b3865", "bike_id": "10a4bb4470fd0ed29a0da757773b3865", "type": "electric_scooter", "lat": 38.88739866666667, "fusion_lon": 0.0, "is_disabled": 0, "fusion_lat": 0.0, "lon": -77.02073666666666}, {"is_reserved": 0, "rental_uris": {"ios": "https://dc.lft.to/lastmile_qr_scan", "android": "https://dc.lft.to/lastmile_qr_scan"}, "name": "1ed70abd3f76ee4509e8dcdf9b1f0855", "bike_id": "1ed70abd3f76ee4509e8dcdf9b1f0855", "type": "electric_scooter", "lat": 38.947600666666666, "fusion_lon": 0.0, "is_disabled": 0, "fusion_lat": 0.0, "lon": -77.0656285}, {"is_reserved": 0, "rental_uris": {"ios": "https://dc.lft.to/lastmile_qr_scan", "android": "https://dc.lft.to/lastmile_qr_scan"}, "name": "5b31846e688e674af34885b4df412e22", "bike_id": "5b31846e688e674af34885b4df412e22", "type": "electric_scooter", "lat": 38.920541166666666, "fusion_lon": 0.0, "is_disabled": 0, "fusion_lat": 0.0, "lon": -77.02247966666667}, {"is_reserved": 0, "rental_uris": {"ios": "https://dc.lft.to/lastmile_qr_scan", "android": "https://dc.lft.to/lastmile_qr_scan"}, "name": "80ee5538badd175c950a9c49a1479e6e", "bike_id": "80ee5538badd175c950a9c49a1479e6e", "type": "electric_scooter", "lat": 38.90061816666667, "fusion_lon": 0.0, "is_disabled": 0, "fusion_lat": 0.0, "lon": -77.04344883333333}, {"is_reserved": 0, "rental_uris": {"ios": "https://dc.lft.to/lastmile_qr_scan", "android": "https://dc.lft.to/lastmile_qr_scan"}, "name": "2953968357784bf3c3b84fbf5cdcf76b", "bike_id": "2953968357784bf3c3b84fbf5cdcf76b", "type": "electric_scooter", "lat": 38.892300666666664, "fusion_lon": 0.0, "is_disabled": 0, "fusion_lat": 0.0, "lon": -77.0282715}, {"is_reserved": 0, "rental_uris": {"ios": "https://dc.lft.to/lastmile_qr_scan", "android": "https://dc.lft.to/lastmile_qr_scan"}, "name": "1995a29c235e2b6814673f372eedf3f9", "bike_id": "1995a29c235e2b6814673f372eedf3f9", "type": "electric_scooter", "lat": 38.9175355, "fusion_lon": 0.0, "is_disabled": 0, "fusion_lat": 0.0, "lon": -77.03187633333333}, {"is_reserved": 0, "rental_uris": {"ios": "https://dc.lft.to/lastmile_qr_scan", "android": "https://dc.lft.to/lastmile_qr_scan"}, "name": "7c5cd3ab3a2fca129d6b9c839f3b683a", "bike_id": "7c5cd3ab3a2fca129d6b9c839f3b683a", "type": "electric_scooter", "lat": 38.949776166666666, "fusion_lon": 0.0, "is_disabled": 0, "fusion_lat": 0.0, "lon": -77.02697883333333}, {"is_reserved": 0, "rental_uris": {"ios": "https://dc.lft.to/lastmile_qr_scan", "android": "https://dc.lft.to/lastmile_qr_scan"}, "name": "28c1ae31a7b84946cb4824ddab5161e1", "bike_id": "28c1ae31a7b84946cb4824ddab5161e1", "type": "electric_scooter", "lat": 38.89094383333333, "fusion_lon": 0.0, "is_disabled": 0, "fusion_lat": 0.0, "lon": -77.00196533333333}, {"is_reserved": 0, "rental_uris": {"ios": "https://dc.lft.to/lastmile_qr_scan", "android": "https://dc.lft.to/lastmile_qr_scan"}, "name": "bf6cd446391b2615407bd408960f7b12", "bike_id": "bf6cd446391b2615407bd408960f7b12", "type": "electric_scooter", "lat": 38.865575666666665, "fusion_lon": 0.0, "is_disabled": 0, "fusion_lat": 0.0, "lon": -76.98955816666667}, {"is_reserved": 0, "rental_uris": {"ios": "https://dc.lft.to/lastmile_qr_scan", "android": "https://dc.lft.to/lastmile_qr_scan"}, "name": "2132a793c786a75c8eef5978f699965c", "bike_id": "2132a793c786a75c8eef5978f699965c", "type": "electric_scooter", "lat": 38.94831966666667, "fusion_lon": 0.0, "is_disabled": 0, "fusion_lat": 0.0, "lon": -77.02558516666667}, {"is_reserved": 0, "rental_uris": {"ios": "https://dc.lft.to/lastmile_qr_scan", "android": "https://dc.lft.to/lastmile_qr_scan"}, "name": "7f20e73bd91ff31438ac9c377af01108", "bike_id": "7f20e73bd91ff31438ac9c377af01108", "type": "electric_scooter", "lat": 38.916876, "fusion_lon": 0.0, "is_disabled": 0, "fusion_lat": 0.0, "lon": -77.0308055}, {"is_reserved": 0, "rental_uris": {"ios": "https://dc.lft.to/lastmile_qr_scan", "android": "https://dc.lft.to/lastmile_qr_scan"}, "name": "db435c9781cde72743e601a8e4f38d76", "bike_id": "db435c9781cde72743e601a8e4f38d76", "type": "electric_scooter", "lat": 38.90515833333333, "fusion_lon": 0.0, "is_disabled": 0, "fusion_lat": 0.0, "lon": -77.051127}, {"is_reserved": 0, "rental_uris": {"ios": "https://dc.lft.to/lastmile_qr_scan", "android": "https://dc.lft.to/lastmile_qr_scan"}, "name": "7f57491fad30068b4499035e7d559db9", "bike_id": "7f57491fad30068b4499035e7d559db9", "type": "electric_scooter", "lat": 38.905375666666664, "fusion_lon": 0.0, "is_disabled": 0, "fusion_lat": 0.0, "lon": -77.05701466666666}, {"is_reserved": 0, "rental_uris": {"ios": "https://dc.lft.to/lastmile_qr_scan", "android": "https://dc.lft.to/lastmile_qr_scan"}, "name": "eb18d14e61f4f1c8370d09008cc43bfd", "bike_id": "eb18d14e61f4f1c8370d09008cc43bfd", "type": "electric_bike", "lat": 38.959555, "fusion_lon": 0.0, "is_disabled": 0, "fusion_lat": 0.0, "lon": -77.1009395}, {"is_reserved": 0, "rental_uris": {"ios": "https://dc.lft.to/lastmile_qr_scan", "android": "https://dc.lft.to/lastmile_qr_scan"}, "name": "78aba3ec2c36e36f9f97a8eca99fe96f", "bike_id": "78aba3ec2c36e36f9f97a8eca99fe96f", "type": "electric_scooter", "lat": 38.88712966666667, "fusion_lon": 0.0, "is_disabled": 0, "fusion_lat": 0.0, "lon": -77.01508733333333}, {"is_reserved": 0, "rental_uris": {"ios": "https://dc.lft.to/lastmile_qr_scan", "android": "https://dc.lft.to/lastmile_qr_scan"}, "name": "27d9681d970eee70a5133704f0a7d9ee", "bike_id": "27d9681d970eee70a5133704f0a7d9ee", "type": "electric_scooter", "lat": 38.905512, "fusion_lon": 0.0, "is_disabled": 0, "fusion_lat": 0.0, "lon": -77.056937}, {"is_reserved": 0, "rental_uris": {"ios": "https://dc.lft.to/lastmile_qr_scan", "android": "https://dc.lft.to/lastmile_qr_scan"}, "name": "5e513d692f3efabc1c7362fce71ff189", "bike_id": "5e513d692f3efabc1c7362fce71ff189", "type": "electric_bike", "lat": 38.86059016666667, "fusion_lon": 0.0, "is_disabled": 0, "fusion_lat": 0.0, "lon": -77.05643566666667}, {"is_reserved": 0, "rental_uris": {"ios": "https://dc.lft.to/lastmile_qr_scan", "android": "https://dc.lft.to/lastmile_qr_scan"}, "name": "3d52daf68ffdfc377a2f999d15c7e845", "bike_id": "3d52daf68ffdfc377a2f999d15c7e845", "type": "electric_scooter", "lat": 38.887414166666666, "fusion_lon": 0.0, "is_disabled": 0, "fusion_lat": 0.0, "lon": -77.02176133333333}, {"is_reserved": 0, "rental_uris": {"ios": "https://dc.lft.to/lastmile_qr_scan", "android": "https://dc.lft.to/lastmile_qr_scan"}, "name": "b6239dbff47788d9fbf94bf6d386ddb1", "bike_id": "b6239dbff47788d9fbf94bf6d386ddb1", "type": "electric_scooter", "lat": 38.905252833333336, "fusion_lon": 0.0, "is_disabled": 0, "fusion_lat": 0.0, "lon": -76.99639166666667}, {"is_reserved": 0, "rental_uris": {"ios": "https://dc.lft.to/lastmile_qr_scan", "android": "https://dc.lft.to/lastmile_qr_scan"}, "name": "938f3cf16216b162e0ed54619003aaf9", "bike_id": "938f3cf16216b162e0ed54619003aaf9", "type": "electric_scooter", "lat": 38.88498516666667, "fusion_lon": 0.0, "is_disabled": 0, "fusion_lat": 0.0, "lon": -77.00562183333334}, {"is_reserved": 0, "rental_uris": {"ios": "https://dc.lft.to/lastmile_qr_scan", "android": "https://dc.lft.to/lastmile_qr_scan"}, "name": "b78a280d16fbdf2465628f48dcc3c6c8", "bike_id": "b78a280d16fbdf2465628f48dcc3c6c8", "type": "electric_scooter", "lat": 38.888718, "fusion_lon": 0.0, "is_disabled": 0, "fusion_lat": 0.0, "lon": -76.99036216666667}, {"is_reserved": 0, "rental_uris": {"ios": "https://dc.lft.to/lastmile_qr_scan", "android": "https://dc.lft.to/lastmile_qr_scan"}, "name": "51948fea5418aed4cc4322385c9693f8", "bike_id": "51948fea5418aed4cc4322385c9693f8", "type": "electric_scooter", "lat": 38.8446245, "fusion_lon": 0.0, "is_disabled": 0, "fusion_lat": 0.0, "lon": -76.99863833333333}, {"is_reserved": 0, "rental_uris": {"ios": "https://dc.lft.to/lastmile_qr_scan", "android": "https://dc.lft.to/lastmile_qr_scan"}, "name": "94fe78c50e17afedb63577e4357d1753", "bike_id": "94fe78c50e17afedb63577e4357d1753", "type": "electric_scooter", "lat": 38.9357135, "fusion_lon": 0.0, "is_disabled": 0, "fusion_lat": 0.0, "lon": -77.0326855}, {"is_reserved": 0, "rental_uris": {"ios": "https://dc.lft.to/lastmile_qr_scan", "android": "https://dc.lft.to/lastmile_qr_scan"}, "name": "72344317ec2d2ddf71b91e4c64bec937", "bike_id": "72344317ec2d2ddf71b91e4c64bec937", "type": "electric_scooter", "lat": 38.88428, "fusion_lon": 0.0, "is_disabled": 0, "fusion_lat": 0.0, "lon": -77.03049666666666}, {"is_reserved": 0, "rental_uris": {"ios": "https://dc.lft.to/lastmile_qr_scan", "android": "https://dc.lft.to/lastmile_qr_scan"}, "name": "f2fe352ac05070a47a589302cbce4744", "bike_id": "f2fe352ac05070a47a589302cbce4744", "type": "electric_scooter", "lat": 38.88710016666667, "fusion_lon": 0.0, "is_disabled": 0, "fusion_lat": 0.0, "lon": -77.031859}, {"is_reserved": 0, "rental_uris": {"ios": "https://dc.lft.to/lastmile_qr_scan", "android": "https://dc.lft.to/lastmile_qr_scan"}, "name": "85fc3ced99683295d651e47a7a67e85a", "bike_id": "85fc3ced99683295d651e47a7a67e85a", "type": "electric_scooter", "lat": 38.961578833333334, "fusion_lon": 0.0, "is_disabled": 0, "fusion_lat": 0.0, "lon": -77.02810833333334}, {"is_reserved": 0, "rental_uris": {"ios": "https://dc.lft.to/lastmile_qr_scan", "android": "https://dc.lft.to/lastmile_qr_scan"}, "name": "5aaff27807abe4d81562882f6453d191", "bike_id": "5aaff27807abe4d81562882f6453d191", "type": "electric_scooter", "lat": 38.92511983333333, "fusion_lon": 0.0, "is_disabled": 0, "fusion_lat": 0.0, "lon": -77.04104933333333}, {"is_reserved": 0, "rental_uris": {"ios": "https://dc.lft.to/lastmile_qr_scan", "android": "https://dc.lft.to/lastmile_qr_scan"}, "name": "6c997451646e93024daa3644e387b269", "bike_id": "6c997451646e93024daa3644e387b269", "type": "electric_scooter", "lat": 38.919247666666664, "fusion_lon": 0.0, "is_disabled": 0, "fusion_lat": 0.0, "lon": -77.02506416666667}, {"is_reserved": 0, "rental_uris": {"ios": "https://dc.lft.to/lastmile_qr_scan", "android": "https://dc.lft.to/lastmile_qr_scan"}, "name": "e0611ddb33bd1eb65df27dae8d975926", "bike_id": "e0611ddb33bd1eb65df27dae8d975926", "type": "electric_bike", "lat": 38.887026, "fusion_lon": 0.0, "is_disabled": 0, "fusion_lat": 0.0, "lon": -77.095406}, {"is_reserved": 0, "rental_uris": {"ios": "https://dc.lft.to/lastmile_qr_scan", "android": "https://dc.lft.to/lastmile_qr_scan"}, "name": "ec7155bd2b3aa2a3fcb83c492c239cb9", "bike_id": "ec7155bd2b3aa2a3fcb83c492c239cb9", "type": "electric_scooter", "lat": 38.90967666666667, "fusion_lon": 0.0, "is_disabled": 0, "fusion_lat": 0.0, "lon": -77.03337866666666}, {"is_reserved": 0, "rental_uris": {"ios": "https://dc.lft.to/lastmile_qr_scan", "android": "https://dc.lft.to/lastmile_qr_scan"}, "name": "61daa0023c44c2685f40899c1682cc5d", "bike_id": "61daa0023c44c2685f40899c1682cc5d", "type": "electric_bike", "lat": 38.86067716666667, "fusion_lon": 0.0, "is_disabled": 0, "fusion_lat": 0.0, "lon": -77.0563705}, {"is_reserved": 0, "rental_uris": {"ios": "https://dc.lft.to/lastmile_qr_scan", "android": "https://dc.lft.to/lastmile_qr_scan"}, "name": "730a3d472a1b8c60e18b309010a6c111", "bike_id": "730a3d472a1b8c60e18b309010a6c111", "type": "electric_scooter", "lat": 38.914062666666666, "fusion_lon": 0.0, "is_disabled": 0, "fusion_lat": 0.0, "lon": -77.03155116666667}, {"is_reserved": 0, "rental_uris": {"ios": "https://dc.lft.to/lastmile_qr_scan", "android": "https://dc.lft.to/lastmile_qr_scan"}, "name": "f02a88c379a53df372b2fa524a22244c", "bike_id": "f02a88c379a53df372b2fa524a22244c", "type": "electric_scooter", "lat": 38.91025616666667, "fusion_lon": 0.0, "is_disabled": 0, "fusion_lat": 0.0, "lon": -77.03836633333333}, {"is_reserved": 0, "rental_uris": {"ios": "https://dc.lft.to/lastmile_qr_scan", "android": "https://dc.lft.to/lastmile_qr_scan"}, "name": "2d7d9f17aeb78862b1e42d20f8444c15", "bike_id": "2d7d9f17aeb78862b1e42d20f8444c15", "type": "electric_scooter", "lat": 38.91988583333333, "fusion_lon": 0.0, "is_disabled": 0, "fusion_lat": 0.0, "lon": -76.973069}, {"is_reserved": 0, "rental_uris": {"ios": "https://dc.lft.to/lastmile_qr_scan", "android": "https://dc.lft.to/lastmile_qr_scan"}, "name": "8a19f09e4600ec53e687c5e8ebc83db0", "bike_id": "8a19f09e4600ec53e687c5e8ebc83db0", "type": "electric_scooter", "lat": 38.906339333333335, "fusion_lon": 0.0, "is_disabled": 0, "fusion_lat": 0.0, "lon": -77.00836483333333}, {"is_reserved": 0, "rental_uris": {"ios": "https://dc.lft.to/lastmile_qr_scan", "android": "https://dc.lft.to/lastmile_qr_scan"}, "name": "f2b23f9e73c08a43384b89cf841bc95b", "bike_id": "f2b23f9e73c08a43384b89cf841bc95b", "type": "electric_scooter", "lat": 38.89744966666667, "fusion_lon": 0.0, "is_disabled": 0, "fusion_lat": 0.0, "lon": -76.9926075}, {"is_reserved": 0, "rental_uris": {"ios": "https://dc.lft.to/lastmile_qr_scan", "android": "https://dc.lft.to/lastmile_qr_scan"}, "name": "532b699290434433e229ac30d80ddc19", "bike_id": "532b699290434433e229ac30d80ddc19", "type": "electric_scooter", "lat": 38.905615166666664, "fusion_lon": 0.0, "is_disabled": 0, "fusion_lat": 0.0, "lon": -77.04452083333334}, {"is_reserved": 0, "rental_uris": {"ios": "https://dc.lft.to/lastmile_qr_scan", "android": "https://dc.lft.to/lastmile_qr_scan"}, "name": "cf7a861b159c4a4de4841192f25c52f7", "bike_id": "cf7a861b159c4a4de4841192f25c52f7", "type": "electric_scooter", "lat": 38.907157833333336, "fusion_lon": 0.0, "is_disabled": 0, "fusion_lat": 0.0, "lon": -77.02544883333333}, {"is_reserved": 0, "rental_uris": {"ios": "https://dc.lft.to/lastmile_qr_scan", "android": "https://dc.lft.to/lastmile_qr_scan"}, "name": "b718f604d380d3480bd99c0bde10d0a3", "bike_id": "b718f604d380d3480bd99c0bde10d0a3", "type": "electric_scooter", "lat": 38.911052, "fusion_lon": 0.0, "is_disabled": 0, "fusion_lat": 0.0, "lon": -77.04511}, {"is_reserved": 0, "rental_uris": {"ios": "https://dc.lft.to/lastmile_qr_scan", "android": "https://dc.lft.to/lastmile_qr_scan"}, "name": "b621b5b94a053010659959a5511818fe", "bike_id": "b621b5b94a053010659959a5511818fe", "type": "electric_scooter", "lat": 38.917548, "fusion_lon": 0.0, "is_disabled": 0, "fusion_lat": 0.0, "lon": -77.02598066666667}, {"is_reserved": 0, "rental_uris": {"ios": "https://dc.lft.to/lastmile_qr_scan", "android": "https://dc.lft.to/lastmile_qr_scan"}, "name": "bf48afd1682830ee6858017c2856e6c8", "bike_id": "bf48afd1682830ee6858017c2856e6c8", "type": "electric_scooter", "lat": 38.89219283333333, "fusion_lon": 0.0, "is_disabled": 0, "fusion_lat": 0.0, "lon": -77.02775733333333}, {"is_reserved": 0, "rental_uris": {"ios": "https://dc.lft.to/lastmile_qr_scan", "android": "https://dc.lft.to/lastmile_qr_scan"}, "name": "4047a8f98a315db978f2a582ca1c71d2", "bike_id": "4047a8f98a315db978f2a582ca1c71d2", "type": "electric_scooter", "lat": 38.888544333333336, "fusion_lon": 0.0, "is_disabled": 0, "fusion_lat": 0.0, "lon": -77.001215}, {"is_reserved": 0, "rental_uris": {"ios": "https://dc.lft.to/lastmile_qr_scan", "android": "https://dc.lft.to/lastmile_qr_scan"}, "name": "042f5a9310be608dafc22c756ab1645c", "bike_id": "042f5a9310be608dafc22c756ab1645c", "type": "electric_scooter", "lat": 38.914167, "fusion_lon": 0.0, "is_disabled": 0, "fusion_lat": 0.0, "lon": -77.03396933333333}, {"is_reserved": 0, "rental_uris": {"ios": "https://dc.lft.to/lastmile_qr_scan", "android": "https://dc.lft.to/lastmile_qr_scan"}, "name": "1f80c0e7b65c570c26d4d9da1f5f0fdd", "bike_id": "1f80c0e7b65c570c26d4d9da1f5f0fdd", "type": "electric_scooter", "lat": 38.8666245, "fusion_lon": 0.0, "is_disabled": 0, "fusion_lat": 0.0, "lon": -76.98904116666667}, {"is_reserved": 0, "rental_uris": {"ios": "https://dc.lft.to/lastmile_qr_scan", "android": "https://dc.lft.to/lastmile_qr_scan"}, "name": "a1fdf713e7f91cebaa946a51ccbf6ee9", "bike_id": "a1fdf713e7f91cebaa946a51ccbf6ee9", "type": "electric_scooter", "lat": 38.903550833333334, "fusion_lon": 0.0, "is_disabled": 0, "fusion_lat": 0.0, "lon": -77.0487845}, {"is_reserved": 0, "rental_uris": {"ios": "https://dc.lft.to/lastmile_qr_scan", "android": "https://dc.lft.to/lastmile_qr_scan"}, "name": "e04383f335a32a65f0b5cf0efab7a302", "bike_id": "e04383f335a32a65f0b5cf0efab7a302", "type": "electric_scooter", "lat": 38.929657166666665, "fusion_lon": 0.0, "is_disabled": 0, "fusion_lat": 0.0, "lon": -77.031828}, {"is_reserved": 0, "rental_uris": {"ios": "https://dc.lft.to/lastmile_qr_scan", "android": "https://dc.lft.to/lastmile_qr_scan"}, "name": "1571c98b6f3904ec2a04ae9faa1f442d", "bike_id": "1571c98b6f3904ec2a04ae9faa1f442d", "type": "electric_scooter", "lat": 38.911086166666664, "fusion_lon": 0.0, "is_disabled": 0, "fusion_lat": 0.0, "lon": -77.04357133333333}, {"is_reserved": 0, "rental_uris": {"ios": "https://dc.lft.to/lastmile_qr_scan", "android": "https://dc.lft.to/lastmile_qr_scan"}, "name": "81095683b413854ce76c2cd30a13e620", "bike_id": "81095683b413854ce76c2cd30a13e620", "type": "electric_scooter", "lat": 38.863741833333336, "fusion_lon": 0.0, "is_disabled": 0, "fusion_lat": 0.0, "lon": -76.99057433333333}, {"is_reserved": 0, "rental_uris": {"ios": "https://dc.lft.to/lastmile_qr_scan", "android": "https://dc.lft.to/lastmile_qr_scan"}, "name": "a4f6fe2a0ff6f4cf4598bdc4e3da6cc6", "bike_id": "a4f6fe2a0ff6f4cf4598bdc4e3da6cc6", "type": "electric_scooter", "lat": 38.902286333333336, "fusion_lon": 0.0, "is_disabled": 0, "fusion_lat": 0.0, "lon": -77.02657116666667}, {"is_reserved": 0, "rental_uris": {"ios": "https://dc.lft.to/lastmile_qr_scan", "android": "https://dc.lft.to/lastmile_qr_scan"}, "name": "c07a3a58c911d297b5e5a7edc6d434de", "bike_id": "c07a3a58c911d297b5e5a7edc6d434de", "type": "electric_scooter", "lat": 38.9050375, "fusion_lon": 0.0, "is_disabled": 0, "fusion_lat": 0.0, "lon": -77.0513315}, {"is_reserved": 0, "rental_uris": {"ios": "https://dc.lft.to/lastmile_qr_scan", "android": "https://dc.lft.to/lastmile_qr_scan"}, "name": "b97f6e2e9d4febf850e26f501c6b3bf3", "bike_id": "b97f6e2e9d4febf850e26f501c6b3bf3", "type": "electric_scooter", "lat": 38.90951616666667, "fusion_lon": 0.0, "is_disabled": 0, "fusion_lat": 0.0, "lon": -77.04807416666667}, {"is_reserved": 0, "rental_uris": {"ios": "https://dc.lft.to/lastmile_qr_scan", "android": "https://dc.lft.to/lastmile_qr_scan"}, "name": "6e19fbfdff0446f6e486f302036b3b93", "bike_id": "6e19fbfdff0446f6e486f302036b3b93", "type": "electric_scooter", "lat": 38.8652435, "fusion_lon": 0.0, "is_disabled": 0, "fusion_lat": 0.0, "lon": -76.990426}, {"is_reserved": 0, "rental_uris": {"ios": "https://dc.lft.to/lastmile_qr_scan", "android": "https://dc.lft.to/lastmile_qr_scan"}, "name": "f91c040867a14023097df19e49891db8", "bike_id": "f91c040867a14023097df19e49891db8", "type": "electric_scooter", "lat": 38.937021, "fusion_lon": 0.0, "is_disabled": 0, "fusion_lat": 0.0, "lon": -77.024015}, {"is_reserved": 0, "rental_uris": {"ios": "https://dc.lft.to/lastmile_qr_scan", "android": "https://dc.lft.to/lastmile_qr_scan"}, "name": "6c219a3572eff1bd7547bae21b260c3f", "bike_id": "6c219a3572eff1bd7547bae21b260c3f", "type": "electric_scooter", "lat": 38.919079333333336, "fusion_lon": 0.0, "is_disabled": 0, "fusion_lat": 0.0, "lon": -77.0462775}, {"is_reserved": 0, "rental_uris": {"ios": "https://dc.lft.to/lastmile_qr_scan", "android": "https://dc.lft.to/lastmile_qr_scan"}, "name": "1b1a6b59ff5c9188c87e66f3974f273b", "bike_id": "1b1a6b59ff5c9188c87e66f3974f273b", "type": "electric_bike", "lat": 38.952791, "fusion_lon": 0.0, "is_disabled": 0, "fusion_lat": 0.0, "lon": -77.06990433333333}, {"is_reserved": 0, "rental_uris": {"ios": "https://dc.lft.to/lastmile_qr_scan", "android": "https://dc.lft.to/lastmile_qr_scan"}, "name": "6f5ba2f05f94d2ce62469ab9085f8c89", "bike_id": "6f5ba2f05f94d2ce62469ab9085f8c89", "type": "electric_bike", "lat": 38.857829833333334, "fusion_lon": 0.0, "is_disabled": 0, "fusion_lat": 0.0, "lon": -77.099686}, {"is_reserved": 0, "rental_uris": {"ios": "https://dc.lft.to/lastmile_qr_scan", "android": "https://dc.lft.to/lastmile_qr_scan"}, "name": "0f4357c8915963c937058c18eb31ce15", "bike_id": "0f4357c8915963c937058c18eb31ce15", "type": "electric_scooter", "lat": 38.9121185, "fusion_lon": 0.0, "is_disabled": 0, "fusion_lat": 0.0, "lon": -77.03842133333333}, {"is_reserved": 0, "rental_uris": {"ios": "https://dc.lft.to/lastmile_qr_scan", "android": "https://dc.lft.to/lastmile_qr_scan"}, "name": "1b22377da95f0edd38cdbbc966da9f5f", "bike_id": "1b22377da95f0edd38cdbbc966da9f5f", "type": "electric_scooter", "lat": 38.939129666666666, "fusion_lon": 0.0, "is_disabled": 0, "fusion_lat": 0.0, "lon": -77.0603905}, {"is_reserved": 0, "rental_uris": {"ios": "https://dc.lft.to/lastmile_qr_scan", "android": "https://dc.lft.to/lastmile_qr_scan"}, "name": "3456fbb160cede868a37b90c81a27fe1", "bike_id": "3456fbb160cede868a37b90c81a27fe1", "type": "electric_scooter", "lat": 38.93244033333333, "fusion_lon": 0.0, "is_disabled": 0, "fusion_lat": 0.0, "lon": -77.02975383333333}, {"is_reserved": 0, "rental_uris": {"ios": "https://dc.lft.to/lastmile_qr_scan", "android": "https://dc.lft.to/lastmile_qr_scan"}, "name": "a412be07a45936291026bbcb69afd900", "bike_id": "a412be07a45936291026bbcb69afd900", "type": "electric_bike", "lat": 38.804423166666666, "fusion_lon": 0.0, "is_disabled": 0, "fusion_lat": 0.0, "lon": -77.04237283333333}, {"is_reserved": 0, "rental_uris": {"ios": "https://dc.lft.to/lastmile_qr_scan", "android": "https://dc.lft.to/lastmile_qr_scan"}, "name": "8a0309d4d9a96fb78740d4cab724daa5", "bike_id": "8a0309d4d9a96fb78740d4cab724daa5", "type": "electric_bike", "lat": 38.906750333333335, "fusion_lon": 0.0, "is_disabled": 0, "fusion_lat": 0.0, "lon": -77.02460566666667}, {"is_reserved": 0, "rental_uris": {"ios": "https://dc.lft.to/lastmile_qr_scan", "android": "https://dc.lft.to/lastmile_qr_scan"}, "name": "220b23199c5111440f05af0f3e3a5716", "bike_id": "220b23199c5111440f05af0f3e3a5716", "type": "electric_scooter", "lat": 38.96599583333333, "fusion_lon": 0.0, "is_disabled": 0, "fusion_lat": 0.0, "lon": -77.02329166666667}, {"is_reserved": 0, "rental_uris": {"ios": "https://dc.lft.to/lastmile_qr_scan", "android": "https://dc.lft.to/lastmile_qr_scan"}, "name": "2ea4114583d927359dc5b48fcfaf19e1", "bike_id": "2ea4114583d927359dc5b48fcfaf19e1", "type": "electric_bike", "lat": 38.827813666666664, "fusion_lon": 0.0, "is_disabled": 0, "fusion_lat": 0.0, "lon": -77.00918966666667}, {"is_reserved": 0, "rental_uris": {"ios": "https://dc.lft.to/lastmile_qr_scan", "android": "https://dc.lft.to/lastmile_qr_scan"}, "name": "92554fdb90c3fc3bd3fc6752be4ccbba", "bike_id": "92554fdb90c3fc3bd3fc6752be4ccbba", "type": "electric_scooter", "lat": 38.90750333333333, "fusion_lon": 0.0, "is_disabled": 0, "fusion_lat": 0.0, "lon": -77.023852}, {"is_reserved": 0, "rental_uris": {"ios": "https://dc.lft.to/lastmile_qr_scan", "android": "https://dc.lft.to/lastmile_qr_scan"}, "name": "dd8f1456e2a37ce532616dd890c4920f", "bike_id": "dd8f1456e2a37ce532616dd890c4920f", "type": "electric_scooter", "lat": 38.900584, "fusion_lon": 0.0, "is_disabled": 0, "fusion_lat": 0.0, "lon": -77.00762316666666}, {"is_reserved": 0, "rental_uris": {"ios": "https://dc.lft.to/lastmile_qr_scan", "android": "https://dc.lft.to/lastmile_qr_scan"}, "name": "87ed5a5706f80d92f658bc201961900e", "bike_id": "87ed5a5706f80d92f658bc201961900e", "type": "electric_scooter", "lat": 38.98425133333333, "fusion_lon": 0.0, "is_disabled": 0, "fusion_lat": 0.0, "lon": -77.0267085}, {"is_reserved": 0, "rental_uris": {"ios": "https://dc.lft.to/lastmile_qr_scan", "android": "https://dc.lft.to/lastmile_qr_scan"}, "name": "f45ae502ddcde41609aed6ffe3ed4322", "bike_id": "f45ae502ddcde41609aed6ffe3ed4322", "type": "electric_scooter", "lat": 38.93889033333333, "fusion_lon": 0.0, "is_disabled": 0, "fusion_lat": 0.0, "lon": -77.03334233333334}, {"is_reserved": 0, "rental_uris": {"ios": "https://dc.lft.to/lastmile_qr_scan", "android": "https://dc.lft.to/lastmile_qr_scan"}, "name": "78c9d2a48bbc9bf0ce1b98005976bf69", "bike_id": "78c9d2a48bbc9bf0ce1b98005976bf69", "type": "electric_scooter", "lat": 38.9284045, "fusion_lon": 0.0, "is_disabled": 0, "fusion_lat": 0.0, "lon": -77.03264066666667}, {"is_reserved": 0, "rental_uris": {"ios": "https://dc.lft.to/lastmile_qr_scan", "android": "https://dc.lft.to/lastmile_qr_scan"}, "name": "b536fb044668cfc889ed07e3235c7a48", "bike_id": "b536fb044668cfc889ed07e3235c7a48", "type": "electric_scooter", "lat": 38.88793066666667, "fusion_lon": 0.0, "is_disabled": 0, "fusion_lat": 0.0, "lon": -76.93361033333333}, {"is_reserved": 0, "rental_uris": {"ios": "https://dc.lft.to/lastmile_qr_scan", "android": "https://dc.lft.to/lastmile_qr_scan"}, "name": "6eb8903f3b62b0fec82a05737e66ef20", "bike_id": "6eb8903f3b62b0fec82a05737e66ef20", "type": "electric_scooter", "lat": 38.8670035, "fusion_lon": 0.0, "is_disabled": 0, "fusion_lat": 0.0, "lon": -76.98073466666666}, {"is_reserved": 0, "rental_uris": {"ios": "https://dc.lft.to/lastmile_qr_scan", "android": "https://dc.lft.to/lastmile_qr_scan"}, "name": "5d8392ce6eec3281c8c077bd33fc3d42", "bike_id": "5d8392ce6eec3281c8c077bd33fc3d42", "type": "electric_scooter", "lat": 38.89697483333333, "fusion_lon": 0.0, "is_disabled": 0, "fusion_lat": 0.0, "lon": -77.03188666666667}, {"is_reserved": 0, "rental_uris": {"ios": "https://dc.lft.to/lastmile_qr_scan", "android": "https://dc.lft.to/lastmile_qr_scan"}, "name": "f553b03f57067713867e151459241d7a", "bike_id": "f553b03f57067713867e151459241d7a", "type": "electric_scooter", "lat": 38.90005133333333, "fusion_lon": 0.0, "is_disabled": 0, "fusion_lat": 0.0, "lon": -77.01183433333334}, {"is_reserved": 0, "rental_uris": {"ios": "https://dc.lft.to/lastmile_qr_scan", "android": "https://dc.lft.to/lastmile_qr_scan"}, "name": "4a0f8d84206ae015fea9d8b7e1b91d52", "bike_id": "4a0f8d84206ae015fea9d8b7e1b91d52", "type": "electric_scooter", "lat": 38.8981925, "fusion_lon": 0.0, "is_disabled": 0, "fusion_lat": 0.0, "lon": -77.02880233333333}, {"is_reserved": 0, "rental_uris": {"ios": "https://dc.lft.to/lastmile_qr_scan", "android": "https://dc.lft.to/lastmile_qr_scan"}, "name": "4e145b7cc40ef522ecda390bf0f10864", "bike_id": "4e145b7cc40ef522ecda390bf0f10864", "type": "electric_scooter", "lat": 38.90573116666667, "fusion_lon": 0.0, "is_disabled": 0, "fusion_lat": 0.0, "lon": -76.98873183333333}, {"is_reserved": 0, "rental_uris": {"ios": "https://dc.lft.to/lastmile_qr_scan", "android": "https://dc.lft.to/lastmile_qr_scan"}, "name": "60a4b1112c6ea91024dff9493cd3fe3b", "bike_id": "60a4b1112c6ea91024dff9493cd3fe3b", "type": "electric_scooter", "lat": 38.905568, "fusion_lon": 0.0, "is_disabled": 0, "fusion_lat": 0.0, "lon": -77.04479583333334}, {"is_reserved": 0, "rental_uris": {"ios": "https://dc.lft.to/lastmile_qr_scan", "android": "https://dc.lft.to/lastmile_qr_scan"}, "name": "23dff313d00516ec678c8ff8c9011223", "bike_id": "23dff313d00516ec678c8ff8c9011223", "type": "electric_scooter", "lat": 38.92470316666667, "fusion_lon": 0.0, "is_disabled": 0, "fusion_lat": 0.0, "lon": -77.0283705}, {"is_reserved": 0, "rental_uris": {"ios": "https://dc.lft.to/lastmile_qr_scan", "android": "https://dc.lft.to/lastmile_qr_scan"}, "name": "bd3fb7e09f1633edbba64416b8ed5783", "bike_id": "bd3fb7e09f1633edbba64416b8ed5783", "type": "electric_scooter", "lat": 38.92309183333333, "fusion_lon": 0.0, "is_disabled": 0, "fusion_lat": 0.0, "lon": -77.03963866666666}, {"is_reserved": 0, "rental_uris": {"ios": "https://dc.lft.to/lastmile_qr_scan", "android": "https://dc.lft.to/lastmile_qr_scan"}, "name": "ac0d59ac08a775aded40ad9d495bd91c", "bike_id": "ac0d59ac08a775aded40ad9d495bd91c", "type": "electric_scooter", "lat": 38.933445, "fusion_lon": 0.0, "is_disabled": 0, "fusion_lat": 0.0, "lon": -77.05865066666667}, {"is_reserved": 0, "rental_uris": {"ios": "https://dc.lft.to/lastmile_qr_scan", "android": "https://dc.lft.to/lastmile_qr_scan"}, "name": "a78a75507cf10a9db7812777bcf90a3c", "bike_id": "a78a75507cf10a9db7812777bcf90a3c", "type": "electric_scooter", "lat": 38.9316545, "fusion_lon": 0.0, "is_disabled": 0, "fusion_lat": 0.0, "lon": -77.03631766666666}, {"is_reserved": 0, "rental_uris": {"ios": "https://dc.lft.to/lastmile_qr_scan", "android": "https://dc.lft.to/lastmile_qr_scan"}, "name": "29013e29eb70cfe1efd8423154e35211", "bike_id": "29013e29eb70cfe1efd8423154e35211", "type": "electric_scooter", "lat": 38.934312, "fusion_lon": 0.0, "is_disabled": 0, "fusion_lat": 0.0, "lon": -76.96509816666666}, {"is_reserved": 0, "rental_uris": {"ios": "https://dc.lft.to/lastmile_qr_scan", "android": "https://dc.lft.to/lastmile_qr_scan"}, "name": "8642f4471c110f44c3ca6d331a25a99f", "bike_id": "8642f4471c110f44c3ca6d331a25a99f", "type": "electric_scooter", "lat": 38.91555016666667, "fusion_lon": 0.0, "is_disabled": 0, "fusion_lat": 0.0, "lon": -77.0386785}, {"is_reserved": 0, "rental_uris": {"ios": "https://dc.lft.to/lastmile_qr_scan", "android": "https://dc.lft.to/lastmile_qr_scan"}, "name": "09430e8c89556c3ca969e75127af8ad5", "bike_id": "09430e8c89556c3ca969e75127af8ad5", "type": "electric_bike", "lat": 38.887120833333334, "fusion_lon": 0.0, "is_disabled": 0, "fusion_lat": 0.0, "lon": -77.13306516666667}, {"is_reserved": 0, "rental_uris": {"ios": "https://dc.lft.to/lastmile_qr_scan", "android": "https://dc.lft.to/lastmile_qr_scan"}, "name": "fdefb2e379c3d5c37479d3d5440e9984", "bike_id": "fdefb2e379c3d5c37479d3d5440e9984", "type": "electric_scooter", "lat": 38.91812566666667, "fusion_lon": 0.0, "is_disabled": 0, "fusion_lat": 0.0, "lon": -77.02706566666667}, {"is_reserved": 0, "rental_uris": {"ios": "https://dc.lft.to/lastmile_qr_scan", "android": "https://dc.lft.to/lastmile_qr_scan"}, "name": "9c295c3bbe023e4d8ed1e001bce2c7de", "bike_id": "9c295c3bbe023e4d8ed1e001bce2c7de", "type": "electric_bike", "lat": 38.885465333333336, "fusion_lon": 0.0, "is_disabled": 0, "fusion_lat": 0.0, "lon": -77.11789533333334}, {"is_reserved": 0, "rental_uris": {"ios": "https://dc.lft.to/lastmile_qr_scan", "android": "https://dc.lft.to/lastmile_qr_scan"}, "name": "ad986b88e47080540a527e285bafa183", "bike_id": "ad986b88e47080540a527e285bafa183", "type": "electric_scooter", "lat": 38.89816916666667, "fusion_lon": 0.0, "is_disabled": 0, "fusion_lat": 0.0, "lon": -77.0332455}, {"is_reserved": 0, "rental_uris": {"ios": "https://dc.lft.to/lastmile_qr_scan", "android": "https://dc.lft.to/lastmile_qr_scan"}, "name": "1394c220c2818948fbe4a4811d70f36a", "bike_id": "1394c220c2818948fbe4a4811d70f36a", "type": "electric_scooter", "lat": 38.91266016666667, "fusion_lon": 0.0, "is_disabled": 0, "fusion_lat": 0.0, "lon": -77.03909433333334}, {"is_reserved": 0, "rental_uris": {"ios": "https://dc.lft.to/lastmile_qr_scan", "android": "https://dc.lft.to/lastmile_qr_scan"}, "name": "2272aca472ba9565d7caff96442540be", "bike_id": "2272aca472ba9565d7caff96442540be", "type": "electric_scooter", "lat": 38.88437733333333, "fusion_lon": 0.0, "is_disabled": 0, "fusion_lat": 0.0, "lon": -76.92953416666667}, {"is_reserved": 0, "rental_uris": {"ios": "https://dc.lft.to/lastmile_qr_scan", "android": "https://dc.lft.to/lastmile_qr_scan"}, "name": "8976d8a1b405812c4e9386a82341ef98", "bike_id": "8976d8a1b405812c4e9386a82341ef98", "type": "electric_bike", "lat": 38.99828683333333, "fusion_lon": 0.0, "is_disabled": 0, "fusion_lat": 0.0, "lon": -77.02912783333333}, {"is_reserved": 0, "rental_uris": {"ios": "https://dc.lft.to/lastmile_qr_scan", "android": "https://dc.lft.to/lastmile_qr_scan"}, "name": "a33238930ebf0baa4c46f348b9d92f03", "bike_id": "a33238930ebf0baa4c46f348b9d92f03", "type": "electric_scooter", "lat": 38.871939166666664, "fusion_lon": 0.0, "is_disabled": 0, "fusion_lat": 0.0, "lon": -77.00611733333334}, {"is_reserved": 0, "rental_uris": {"ios": "https://dc.lft.to/lastmile_qr_scan", "android": "https://dc.lft.to/lastmile_qr_scan"}, "name": "55d2ae6448a756857680a4aa53af9127", "bike_id": "55d2ae6448a756857680a4aa53af9127", "type": "electric_scooter", "lat": 38.92835866666667, "fusion_lon": 0.0, "is_disabled": 0, "fusion_lat": 0.0, "lon": -77.0160355}, {"is_reserved": 0, "rental_uris": {"ios": "https://dc.lft.to/lastmile_qr_scan", "android": "https://dc.lft.to/lastmile_qr_scan"}, "name": "1f02a33284144e4bf719686f0ef09bb9", "bike_id": "1f02a33284144e4bf719686f0ef09bb9", "type": "electric_scooter", "lat": 38.937557166666664, "fusion_lon": 0.0, "is_disabled": 0, "fusion_lat": 0.0, "lon": -77.03288083333334}, {"is_reserved": 0, "rental_uris": {"ios": "https://dc.lft.to/lastmile_qr_scan", "android": "https://dc.lft.to/lastmile_qr_scan"}, "name": "cdea8cd73072c46b8d271c13942543b1", "bike_id": "cdea8cd73072c46b8d271c13942543b1", "type": "electric_scooter", "lat": 38.89987983333333, "fusion_lon": 0.0, "is_disabled": 0, "fusion_lat": 0.0, "lon": -77.0403955}, {"is_reserved": 0, "rental_uris": {"ios": "https://dc.lft.to/lastmile_qr_scan", "android": "https://dc.lft.to/lastmile_qr_scan"}, "name": "2ee705d3b48274ecfc6f4d70bb9f994c", "bike_id": "2ee705d3b48274ecfc6f4d70bb9f994c", "type": "electric_scooter", "lat": 38.89223533333333, "fusion_lon": 0.0, "is_disabled": 0, "fusion_lat": 0.0, "lon": -77.0322205}, {"is_reserved": 0, "rental_uris": {"ios": "https://dc.lft.to/lastmile_qr_scan", "android": "https://dc.lft.to/lastmile_qr_scan"}, "name": "6f8707e4556f2782d5df886d9dabcae6", "bike_id": "6f8707e4556f2782d5df886d9dabcae6", "type": "electric_scooter", "lat": 38.936047, "fusion_lon": 0.0, "is_disabled": 0, "fusion_lat": 0.0, "lon": -77.0574475}, {"is_reserved": 0, "rental_uris": {"ios": "https://dc.lft.to/lastmile_qr_scan", "android": "https://dc.lft.to/lastmile_qr_scan"}, "name": "b9226d2438b57af560464b0d76d6920d", "bike_id": "b9226d2438b57af560464b0d76d6920d", "type": "electric_scooter", "lat": 38.922246333333334, "fusion_lon": 0.0, "is_disabled": 0, "fusion_lat": 0.0, "lon": -77.03333633333334}, {"is_reserved": 0, "rental_uris": {"ios": "https://dc.lft.to/lastmile_qr_scan", "android": "https://dc.lft.to/lastmile_qr_scan"}, "name": "a43a95ee16881658b95f55df07ece7ab", "bike_id": "a43a95ee16881658b95f55df07ece7ab", "type": "electric_scooter", "lat": 38.91757666666667, "fusion_lon": 0.0, "is_disabled": 0, "fusion_lat": 0.0, "lon": -77.0160375}, {"is_reserved": 0, "rental_uris": {"ios": "https://dc.lft.to/lastmile_qr_scan", "android": "https://dc.lft.to/lastmile_qr_scan"}, "name": "d5ce3160b7527d06c9ef1e99038b5314", "bike_id": "d5ce3160b7527d06c9ef1e99038b5314", "type": "electric_scooter", "lat": 38.937689166666665, "fusion_lon": 0.0, "is_disabled": 0, "fusion_lat": 0.0, "lon": -77.0222665}, {"is_reserved": 0, "rental_uris": {"ios": "https://dc.lft.to/lastmile_qr_scan", "android": "https://dc.lft.to/lastmile_qr_scan"}, "name": "c198eafd81acc1ddfc7fe62b7716fbe9", "bike_id": "c198eafd81acc1ddfc7fe62b7716fbe9", "type": "electric_scooter", "lat": 38.92074983333333, "fusion_lon": 0.0, "is_disabled": 0, "fusion_lat": 0.0, "lon": -77.02313116666667}, {"is_reserved": 0, "rental_uris": {"ios": "https://dc.lft.to/lastmile_qr_scan", "android": "https://dc.lft.to/lastmile_qr_scan"}, "name": "4ebcc12acdb3cfc97eadd175aed86446", "bike_id": "4ebcc12acdb3cfc97eadd175aed86446", "type": "electric_scooter", "lat": 38.90500316666667, "fusion_lon": 0.0, "is_disabled": 0, "fusion_lat": 0.0, "lon": -77.051363}, {"is_reserved": 0, "rental_uris": {"ios": "https://dc.lft.to/lastmile_qr_scan", "android": "https://dc.lft.to/lastmile_qr_scan"}, "name": "03bdbc26b33d42ff67a8073ecee476d0", "bike_id": "03bdbc26b33d42ff67a8073ecee476d0", "type": "electric_scooter", "lat": 38.920632833333336, "fusion_lon": 0.0, "is_disabled": 0, "fusion_lat": 0.0, "lon": -77.04283366666667}, {"is_reserved": 0, "rental_uris": {"ios": "https://dc.lft.to/lastmile_qr_scan", "android": "https://dc.lft.to/lastmile_qr_scan"}, "name": "c47f967ae1588a470806532fbf66a237", "bike_id": "c47f967ae1588a470806532fbf66a237", "type": "electric_scooter", "lat": 38.917105666666664, "fusion_lon": 0.0, "is_disabled": 0, "fusion_lat": 0.0, "lon": -77.029639}, {"is_reserved": 0, "rental_uris": {"ios": "https://dc.lft.to/lastmile_qr_scan", "android": "https://dc.lft.to/lastmile_qr_scan"}, "name": "4d09dfc6c8ccf113818bb0cfba573a0b", "bike_id": "4d09dfc6c8ccf113818bb0cfba573a0b", "type": "electric_scooter", "lat": 38.9301545, "fusion_lon": 0.0, "is_disabled": 0, "fusion_lat": 0.0, "lon": -77.0552295}, {"is_reserved": 0, "rental_uris": {"ios": "https://dc.lft.to/lastmile_qr_scan", "android": "https://dc.lft.to/lastmile_qr_scan"}, "name": "ee07334eefe11cf4244aa807644a50b0", "bike_id": "ee07334eefe11cf4244aa807644a50b0", "type": "electric_scooter", "lat": 38.91815783333333, "fusion_lon": 0.0, "is_disabled": 0, "fusion_lat": 0.0, "lon": -77.02783166666667}, {"is_reserved": 0, "rental_uris": {"ios": "https://dc.lft.to/lastmile_qr_scan", "android": "https://dc.lft.to/lastmile_qr_scan"}, "name": "29110232bc4e7f5f9ce3ff1f6fc4e655", "bike_id": "29110232bc4e7f5f9ce3ff1f6fc4e655", "type": "electric_bike", "lat": 38.9324925, "fusion_lon": 0.0, "is_disabled": 0, "fusion_lat": 0.0, "lon": -76.99641916666667}, {"is_reserved": 0, "rental_uris": {"ios": "https://dc.lft.to/lastmile_qr_scan", "android": "https://dc.lft.to/lastmile_qr_scan"}, "name": "51a1c6f0b976cebead800292fbaca4ea", "bike_id": "51a1c6f0b976cebead800292fbaca4ea", "type": "electric_scooter", "lat": 38.91808433333333, "fusion_lon": 0.0, "is_disabled": 0, "fusion_lat": 0.0, "lon": -77.031843}, {"is_reserved": 0, "rental_uris": {"ios": "https://dc.lft.to/lastmile_qr_scan", "android": "https://dc.lft.to/lastmile_qr_scan"}, "name": "8ee43fa8abd15cfa74c035d7b134d343", "bike_id": "8ee43fa8abd15cfa74c035d7b134d343", "type": "electric_scooter", "lat": 38.90269883333333, "fusion_lon": 0.0, "is_disabled": 0, "fusion_lat": 0.0, "lon": -77.03481783333334}, {"is_reserved": 0, "rental_uris": {"ios": "https://dc.lft.to/lastmile_qr_scan", "android": "https://dc.lft.to/lastmile_qr_scan"}, "name": "2ab7c8e721262bcf442e63f59047502f", "bike_id": "2ab7c8e721262bcf442e63f59047502f", "type": "electric_bike", "lat": 38.8804255, "fusion_lon": 0.0, "is_disabled": 0, "fusion_lat": 0.0, "lon": -77.00569383333334}, {"is_reserved": 0, "rental_uris": {"ios": "https://dc.lft.to/lastmile_qr_scan", "android": "https://dc.lft.to/lastmile_qr_scan"}, "name": "2f633d4de280dcf212976bc9508d50eb", "bike_id": "2f633d4de280dcf212976bc9508d50eb", "type": "electric_scooter", "lat": 38.91342183333333, "fusion_lon": 0.0, "is_disabled": 0, "fusion_lat": 0.0, "lon": -77.0106245}, {"is_reserved": 0, "rental_uris": {"ios": "https://dc.lft.to/lastmile_qr_scan", "android": "https://dc.lft.to/lastmile_qr_scan"}, "name": "55238c1d761d73d75257955243837071", "bike_id": "55238c1d761d73d75257955243837071", "type": "electric_scooter", "lat": 38.94631416666667, "fusion_lon": 0.0, "is_disabled": 0, "fusion_lat": 0.0, "lon": -77.0252205}, {"is_reserved": 0, "rental_uris": {"ios": "https://dc.lft.to/lastmile_qr_scan", "android": "https://dc.lft.to/lastmile_qr_scan"}, "name": "cef97f15ed9db9ee8843cb3282920c58", "bike_id": "cef97f15ed9db9ee8843cb3282920c58", "type": "electric_scooter", "lat": 38.87479833333333, "fusion_lon": 0.0, "is_disabled": 0, "fusion_lat": 0.0, "lon": -77.00124}, {"is_reserved": 0, "rental_uris": {"ios": "https://dc.lft.to/lastmile_qr_scan", "android": "https://dc.lft.to/lastmile_qr_scan"}, "name": "c68addc5d7a805bb204bf6221f4c0e7b", "bike_id": "c68addc5d7a805bb204bf6221f4c0e7b", "type": "electric_scooter", "lat": 38.926761, "fusion_lon": 0.0, "is_disabled": 0, "fusion_lat": 0.0, "lon": -77.09562216666667}, {"is_reserved": 0, "rental_uris": {"ios": "https://dc.lft.to/lastmile_qr_scan", "android": "https://dc.lft.to/lastmile_qr_scan"}, "name": "e1ec7c6b8bb75d3d4cffe4ee33c259e4", "bike_id": "e1ec7c6b8bb75d3d4cffe4ee33c259e4", "type": "electric_scooter", "lat": 38.9215225, "fusion_lon": 0.0, "is_disabled": 0, "fusion_lat": 0.0, "lon": -77.042394}, {"is_reserved": 0, "rental_uris": {"ios": "https://dc.lft.to/lastmile_qr_scan", "android": "https://dc.lft.to/lastmile_qr_scan"}, "name": "1ebad1268927e84071b16f5f3a6a7566", "bike_id": "1ebad1268927e84071b16f5f3a6a7566", "type": "electric_scooter", "lat": 38.892475166666664, "fusion_lon": 0.0, "is_disabled": 0, "fusion_lat": 0.0, "lon": -77.027899}, {"is_reserved": 0, "rental_uris": {"ios": "https://dc.lft.to/lastmile_qr_scan", "android": "https://dc.lft.to/lastmile_qr_scan"}, "name": "a31f5f7b08f03e10942b76a9663d3675", "bike_id": "a31f5f7b08f03e10942b76a9663d3675", "type": "electric_bike", "lat": 38.855162666666665, "fusion_lon": 0.0, "is_disabled": 0, "fusion_lat": 0.0, "lon": -76.98400916666667}, {"is_reserved": 0, "rental_uris": {"ios": "https://dc.lft.to/lastmile_qr_scan", "android": "https://dc.lft.to/lastmile_qr_scan"}, "name": "aca1261cc7270497b5853a7eb5f1d553", "bike_id": "aca1261cc7270497b5853a7eb5f1d553", "type": "electric_scooter", "lat": 38.897506666666665, "fusion_lon": 0.0, "is_disabled": 0, "fusion_lat": 0.0, "lon": -76.94187233333334}, {"is_reserved": 0, "rental_uris": {"ios": "https://dc.lft.to/lastmile_qr_scan", "android": "https://dc.lft.to/lastmile_qr_scan"}, "name": "b3b16c9ec50c87efc16471fed4e25578", "bike_id": "b3b16c9ec50c87efc16471fed4e25578", "type": "electric_scooter", "lat": 38.89793483333333, "fusion_lon": 0.0, "is_disabled": 0, "fusion_lat": 0.0, "lon": -77.032146}, {"is_reserved": 0, "rental_uris": {"ios": "https://dc.lft.to/lastmile_qr_scan", "android": "https://dc.lft.to/lastmile_qr_scan"}, "name": "665bbcdcc39d89cb6e2e5fbf140f8fa8", "bike_id": "665bbcdcc39d89cb6e2e5fbf140f8fa8", "type": "electric_scooter", "lat": 38.912562666666666, "fusion_lon": 0.0, "is_disabled": 0, "fusion_lat": 0.0, "lon": -77.0386325}, {"is_reserved": 0, "rental_uris": {"ios": "https://dc.lft.to/lastmile_qr_scan", "android": "https://dc.lft.to/lastmile_qr_scan"}, "name": "02022593e4a51b4156e8e297b40eeb74", "bike_id": "02022593e4a51b4156e8e297b40eeb74", "type": "electric_scooter", "lat": 38.8904465, "fusion_lon": 0.0, "is_disabled": 0, "fusion_lat": 0.0, "lon": -76.937462}, {"is_reserved": 0, "rental_uris": {"ios": "https://dc.lft.to/lastmile_qr_scan", "android": "https://dc.lft.to/lastmile_qr_scan"}, "name": "3cdb481ecc7174729db01821e2f7c928", "bike_id": "3cdb481ecc7174729db01821e2f7c928", "type": "electric_scooter", "lat": 38.905148833333335, "fusion_lon": 0.0, "is_disabled": 0, "fusion_lat": 0.0, "lon": -77.0517395}, {"is_reserved": 0, "rental_uris": {"ios": "https://dc.lft.to/lastmile_qr_scan", "android": "https://dc.lft.to/lastmile_qr_scan"}, "name": "0769a47a564b2dde701100bea5d96f74", "bike_id": "0769a47a564b2dde701100bea5d96f74", "type": "electric_scooter", "lat": 38.92467833333333, "fusion_lon": 0.0, "is_disabled": 0, "fusion_lat": 0.0, "lon": -77.0272505}, {"is_reserved": 0, "rental_uris": {"ios": "https://dc.lft.to/lastmile_qr_scan", "android": "https://dc.lft.to/lastmile_qr_scan"}, "name": "24f778fc9e48d65054cf4e3126ebffa5", "bike_id": "24f778fc9e48d65054cf4e3126ebffa5", "type": "electric_scooter", "lat": 38.906239, "fusion_lon": 0.0, "is_disabled": 0, "fusion_lat": 0.0, "lon": -77.04315116666666}, {"is_reserved": 0, "rental_uris": {"ios": "https://dc.lft.to/lastmile_qr_scan", "android": "https://dc.lft.to/lastmile_qr_scan"}, "name": "e405b344e53896e964963cab499ea574", "bike_id": "e405b344e53896e964963cab499ea574", "type": "electric_scooter", "lat": 38.89456216666667, "fusion_lon": 0.0, "is_disabled": 0, "fusion_lat": 0.0, "lon": -77.0467845}, {"is_reserved": 0, "rental_uris": {"ios": "https://dc.lft.to/lastmile_qr_scan", "android": "https://dc.lft.to/lastmile_qr_scan"}, "name": "66e9d44416695e83bef8038ac594fc69", "bike_id": "66e9d44416695e83bef8038ac594fc69", "type": "electric_scooter", "lat": 38.884322833333336, "fusion_lon": 0.0, "is_disabled": 0, "fusion_lat": 0.0, "lon": -76.95755916666667}, {"is_reserved": 0, "rental_uris": {"ios": "https://dc.lft.to/lastmile_qr_scan", "android": "https://dc.lft.to/lastmile_qr_scan"}, "name": "fd471851c0f2e6097963d84c108b2e67", "bike_id": "fd471851c0f2e6097963d84c108b2e67", "type": "electric_bike", "lat": 38.8709995, "fusion_lon": 0.0, "is_disabled": 0, "fusion_lat": 0.0, "lon": -77.00646366666666}, {"is_reserved": 0, "rental_uris": {"ios": "https://dc.lft.to/lastmile_qr_scan", "android": "https://dc.lft.to/lastmile_qr_scan"}, "name": "9d04e99197dacb90ff10c6b605fe76a0", "bike_id": "9d04e99197dacb90ff10c6b605fe76a0", "type": "electric_scooter", "lat": 38.954895666666665, "fusion_lon": 0.0, "is_disabled": 0, "fusion_lat": 0.0, "lon": -77.06559616666667}, {"is_reserved": 0, "rental_uris": {"ios": "https://dc.lft.to/lastmile_qr_scan", "android": "https://dc.lft.to/lastmile_qr_scan"}, "name": "3da4ffd2f10ff8d1c42bf6f35a7028bc", "bike_id": "3da4ffd2f10ff8d1c42bf6f35a7028bc", "type": "electric_scooter", "lat": 38.922419833333336, "fusion_lon": 0.0, "is_disabled": 0, "fusion_lat": 0.0, "lon": -77.04251033333334}, {"is_reserved": 0, "rental_uris": {"ios": "https://dc.lft.to/lastmile_qr_scan", "android": "https://dc.lft.to/lastmile_qr_scan"}, "name": "d35bb91af047258b4513fcc85ca9b7fa", "bike_id": "d35bb91af047258b4513fcc85ca9b7fa", "type": "electric_scooter", "lat": 38.9223245, "fusion_lon": 0.0, "is_disabled": 0, "fusion_lat": 0.0, "lon": -77.04394083333334}, {"is_reserved": 0, "rental_uris": {"ios": "https://dc.lft.to/lastmile_qr_scan", "android": "https://dc.lft.to/lastmile_qr_scan"}, "name": "1f1bddf45c282564f737775a41402a2f", "bike_id": "1f1bddf45c282564f737775a41402a2f", "type": "electric_scooter", "lat": 38.90028383333333, "fusion_lon": 0.0, "is_disabled": 0, "fusion_lat": 0.0, "lon": -77.02895633333333}, {"is_reserved": 0, "rental_uris": {"ios": "https://dc.lft.to/lastmile_qr_scan", "android": "https://dc.lft.to/lastmile_qr_scan"}, "name": "1a01fb60afc9cc2a0212da353a9b7ec6", "bike_id": "1a01fb60afc9cc2a0212da353a9b7ec6", "type": "electric_scooter", "lat": 38.866543, "fusion_lon": 0.0, "is_disabled": 0, "fusion_lat": 0.0, "lon": -76.98885683333333}, {"is_reserved": 0, "rental_uris": {"ios": "https://dc.lft.to/lastmile_qr_scan", "android": "https://dc.lft.to/lastmile_qr_scan"}, "name": "d6bbea027da195c67785db502f9fba84", "bike_id": "d6bbea027da195c67785db502f9fba84", "type": "electric_scooter", "lat": 38.904719166666666, "fusion_lon": 0.0, "is_disabled": 0, "fusion_lat": 0.0, "lon": -77.03220533333334}, {"is_reserved": 0, "rental_uris": {"ios": "https://dc.lft.to/lastmile_qr_scan", "android": "https://dc.lft.to/lastmile_qr_scan"}, "name": "66f7776b3b768181c1987a4f65a6ebd7", "bike_id": "66f7776b3b768181c1987a4f65a6ebd7", "type": "electric_scooter", "lat": 38.895178666666666, "fusion_lon": 0.0, "is_disabled": 0, "fusion_lat": 0.0, "lon": -76.97732966666666}, {"is_reserved": 0, "rental_uris": {"ios": "https://dc.lft.to/lastmile_qr_scan", "android": "https://dc.lft.to/lastmile_qr_scan"}, "name": "24d2c814b860c58fe5e6257934d6e636", "bike_id": "24d2c814b860c58fe5e6257934d6e636", "type": "electric_scooter", "lat": 38.8724215, "fusion_lon": 0.0, "is_disabled": 0, "fusion_lat": 0.0, "lon": -77.01639416666667}, {"is_reserved": 0, "rental_uris": {"ios": "https://dc.lft.to/lastmile_qr_scan", "android": "https://dc.lft.to/lastmile_qr_scan"}, "name": "064fb67a3e1d954bfcd7119c51637a8e", "bike_id": "064fb67a3e1d954bfcd7119c51637a8e", "type": "electric_scooter", "lat": 38.9338975, "fusion_lon": 0.0, "is_disabled": 0, "fusion_lat": 0.0, "lon": -77.04129383333333}, {"is_reserved": 0, "rental_uris": {"ios": "https://dc.lft.to/lastmile_qr_scan", "android": "https://dc.lft.to/lastmile_qr_scan"}, "name": "2bceab401c48bf4715dca6a38370cddd", "bike_id": "2bceab401c48bf4715dca6a38370cddd", "type": "electric_scooter", "lat": 38.928963833333334, "fusion_lon": 0.0, "is_disabled": 0, "fusion_lat": 0.0, "lon": -77.03312883333334}, {"is_reserved": 0, "rental_uris": {"ios": "https://dc.lft.to/lastmile_qr_scan", "android": "https://dc.lft.to/lastmile_qr_scan"}, "name": "52fe9d872a618a035f0ec30ec8bd0597", "bike_id": "52fe9d872a618a035f0ec30ec8bd0597", "type": "electric_scooter", "lat": 38.923373, "fusion_lon": 0.0, "is_disabled": 0, "fusion_lat": 0.0, "lon": -77.03513883333333}, {"is_reserved": 0, "rental_uris": {"ios": "https://dc.lft.to/lastmile_qr_scan", "android": "https://dc.lft.to/lastmile_qr_scan"}, "name": "c02bac89eb2a92c2ef7048682256d16e", "bike_id": "c02bac89eb2a92c2ef7048682256d16e", "type": "electric_bike", "lat": 38.850495, "fusion_lon": 0.0, "is_disabled": 0, "fusion_lat": 0.0, "lon": -76.97319516666667}, {"is_reserved": 0, "rental_uris": {"ios": "https://dc.lft.to/lastmile_qr_scan", "android": "https://dc.lft.to/lastmile_qr_scan"}, "name": "48a0bf7f7ddf28d3bb1ecefc8109c351", "bike_id": "48a0bf7f7ddf28d3bb1ecefc8109c351", "type": "electric_scooter", "lat": 38.940186, "fusion_lon": 0.0, "is_disabled": 0, "fusion_lat": 0.0, "lon": -77.0717425}, {"is_reserved": 0, "rental_uris": {"ios": "https://dc.lft.to/lastmile_qr_scan", "android": "https://dc.lft.to/lastmile_qr_scan"}, "name": "f30e7541939e41d018c292190041b236", "bike_id": "f30e7541939e41d018c292190041b236", "type": "electric_scooter", "lat": 38.92236783333333, "fusion_lon": 0.0, "is_disabled": 0, "fusion_lat": 0.0, "lon": -77.045767}, {"is_reserved": 0, "rental_uris": {"ios": "https://dc.lft.to/lastmile_qr_scan", "android": "https://dc.lft.to/lastmile_qr_scan"}, "name": "e8dab0276255e4cc8e8a40ad901edce3", "bike_id": "e8dab0276255e4cc8e8a40ad901edce3", "type": "electric_scooter", "lat": 38.9049665, "fusion_lon": 0.0, "is_disabled": 0, "fusion_lat": 0.0, "lon": -77.062065}, {"is_reserved": 0, "rental_uris": {"ios": "https://dc.lft.to/lastmile_qr_scan", "android": "https://dc.lft.to/lastmile_qr_scan"}, "name": "91226bf1d0ffa1b7485965f4dc93912b", "bike_id": "91226bf1d0ffa1b7485965f4dc93912b", "type": "electric_scooter", "lat": 38.90637433333333, "fusion_lon": 0.0, "is_disabled": 0, "fusion_lat": 0.0, "lon": -77.04322933333333}, {"is_reserved": 0, "rental_uris": {"ios": "https://dc.lft.to/lastmile_qr_scan", "android": "https://dc.lft.to/lastmile_qr_scan"}, "name": "a8b66f01641df31b63b23fdd841a5e52", "bike_id": "a8b66f01641df31b63b23fdd841a5e52", "type": "electric_scooter", "lat": 38.905537833333334, "fusion_lon": 0.0, "is_disabled": 0, "fusion_lat": 0.0, "lon": -77.046655}, {"is_reserved": 0, "rental_uris": {"ios": "https://dc.lft.to/lastmile_qr_scan", "android": "https://dc.lft.to/lastmile_qr_scan"}, "name": "1ffd1ee1c1e91db84604cc3d2caabfdc", "bike_id": "1ffd1ee1c1e91db84604cc3d2caabfdc", "type": "electric_scooter", "lat": 38.911233833333334, "fusion_lon": 0.0, "is_disabled": 0, "fusion_lat": 0.0, "lon": -77.04361533333334}, {"is_reserved": 0, "rental_uris": {"ios": "https://dc.lft.to/lastmile_qr_scan", "android": "https://dc.lft.to/lastmile_qr_scan"}, "name": "d3972ed9cb4eed467d24b11b103e3999", "bike_id": "d3972ed9cb4eed467d24b11b103e3999", "type": "electric_scooter", "lat": 38.907127, "fusion_lon": 0.0, "is_disabled": 0, "fusion_lat": 0.0, "lon": -77.04902633333333}, {"is_reserved": 0, "rental_uris": {"ios": "https://dc.lft.to/lastmile_qr_scan", "android": "https://dc.lft.to/lastmile_qr_scan"}, "name": "68a0cc97a5493dfdcf152b744b6301ea", "bike_id": "68a0cc97a5493dfdcf152b744b6301ea", "type": "electric_scooter", "lat": 38.8988395, "fusion_lon": 0.0, "is_disabled": 0, "fusion_lat": 0.0, "lon": -76.93177483333334}, {"is_reserved": 0, "rental_uris": {"ios": "https://dc.lft.to/lastmile_qr_scan", "android": "https://dc.lft.to/lastmile_qr_scan"}, "name": "c57677c6217c264a8c4f0e9a54e0cd42", "bike_id": "c57677c6217c264a8c4f0e9a54e0cd42", "type": "electric_scooter", "lat": 38.92068233333333, "fusion_lon": 0.0, "is_disabled": 0, "fusion_lat": 0.0, "lon": -77.0437965}, {"is_reserved": 0, "rental_uris": {"ios": "https://dc.lft.to/lastmile_qr_scan", "android": "https://dc.lft.to/lastmile_qr_scan"}, "name": "dcc53890384a728f6dfe57e16b4f84cf", "bike_id": "dcc53890384a728f6dfe57e16b4f84cf", "type": "electric_scooter", "lat": 38.9145735, "fusion_lon": 0.0, "is_disabled": 0, "fusion_lat": 0.0, "lon": -77.04612}, {"is_reserved": 0, "rental_uris": {"ios": "https://dc.lft.to/lastmile_qr_scan", "android": "https://dc.lft.to/lastmile_qr_scan"}, "name": "ac50ca5b57a39f31acae127480b400f3", "bike_id": "ac50ca5b57a39f31acae127480b400f3", "type": "electric_scooter", "lat": 38.919173, "fusion_lon": 0.0, "is_disabled": 0, "fusion_lat": 0.0, "lon": -77.034311}, {"is_reserved": 0, "rental_uris": {"ios": "https://dc.lft.to/lastmile_qr_scan", "android": "https://dc.lft.to/lastmile_qr_scan"}, "name": "f858b8747109fb8e5955161a36abae46", "bike_id": "f858b8747109fb8e5955161a36abae46", "type": "electric_scooter", "lat": 38.903824666666665, "fusion_lon": 0.0, "is_disabled": 0, "fusion_lat": 0.0, "lon": -77.05793683333333}, {"is_reserved": 0, "rental_uris": {"ios": "https://dc.lft.to/lastmile_qr_scan", "android": "https://dc.lft.to/lastmile_qr_scan"}, "name": "9ecc2ff84cc905c4df338c9d101be632", "bike_id": "9ecc2ff84cc905c4df338c9d101be632", "type": "electric_bike", "lat": 38.935142, "fusion_lon": 0.0, "is_disabled": 0, "fusion_lat": 0.0, "lon": -76.98354016666667}, {"is_reserved": 0, "rental_uris": {"ios": "https://dc.lft.to/lastmile_qr_scan", "android": "https://dc.lft.to/lastmile_qr_scan"}, "name": "e0abb10c5b1cf9ea05d3a3ad88edb9b8", "bike_id": "e0abb10c5b1cf9ea05d3a3ad88edb9b8", "type": "electric_scooter", "lat": 38.916827166666664, "fusion_lon": 0.0, "is_disabled": 0, "fusion_lat": 0.0, "lon": -77.02966633333334}, {"is_reserved": 0, "rental_uris": {"ios": "https://dc.lft.to/lastmile_qr_scan", "android": "https://dc.lft.to/lastmile_qr_scan"}, "name": "49e780f87425f0da322f7b6b37f11830", "bike_id": "49e780f87425f0da322f7b6b37f11830", "type": "electric_scooter", "lat": 38.88591266666667, "fusion_lon": 0.0, "is_disabled": 0, "fusion_lat": 0.0, "lon": -77.01983483333333}, {"is_reserved": 0, "rental_uris": {"ios": "https://dc.lft.to/lastmile_qr_scan", "android": "https://dc.lft.to/lastmile_qr_scan"}, "name": "4c131722d3981865b77a88fc061263f9", "bike_id": "4c131722d3981865b77a88fc061263f9", "type": "electric_scooter", "lat": 38.8993455, "fusion_lon": 0.0, "is_disabled": 0, "fusion_lat": 0.0, "lon": -77.041793}, {"is_reserved": 0, "rental_uris": {"ios": "https://dc.lft.to/lastmile_qr_scan", "android": "https://dc.lft.to/lastmile_qr_scan"}, "name": "5e49eee2693730041026265bf9bb8e55", "bike_id": "5e49eee2693730041026265bf9bb8e55", "type": "electric_scooter", "lat": 38.897315166666665, "fusion_lon": 0.0, "is_disabled": 0, "fusion_lat": 0.0, "lon": -76.947235}, {"is_reserved": 0, "rental_uris": {"ios": "https://dc.lft.to/lastmile_qr_scan", "android": "https://dc.lft.to/lastmile_qr_scan"}, "name": "94805750909aacdbe9d4221af2726082", "bike_id": "94805750909aacdbe9d4221af2726082", "type": "electric_scooter", "lat": 38.90588783333333, "fusion_lon": 0.0, "is_disabled": 0, "fusion_lat": 0.0, "lon": -76.98626516666667}, {"is_reserved": 0, "rental_uris": {"ios": "https://dc.lft.to/lastmile_qr_scan", "android": "https://dc.lft.to/lastmile_qr_scan"}, "name": "2507477f1689f1d5c068860890caaf2f", "bike_id": "2507477f1689f1d5c068860890caaf2f", "type": "electric_scooter", "lat": 38.914456, "fusion_lon": 0.0, "is_disabled": 0, "fusion_lat": 0.0, "lon": -77.03644166666666}, {"is_reserved": 0, "rental_uris": {"ios": "https://dc.lft.to/lastmile_qr_scan", "android": "https://dc.lft.to/lastmile_qr_scan"}, "name": "5395484739af4bc105e923ff26b54533", "bike_id": "5395484739af4bc105e923ff26b54533", "type": "electric_scooter", "lat": 38.90818316666667, "fusion_lon": 0.0, "is_disabled": 0, "fusion_lat": 0.0, "lon": -76.99852266666667}, {"is_reserved": 0, "rental_uris": {"ios": "https://dc.lft.to/lastmile_qr_scan", "android": "https://dc.lft.to/lastmile_qr_scan"}, "name": "102aaed3b9864571b4c4c9baafa6df6c", "bike_id": "102aaed3b9864571b4c4c9baafa6df6c", "type": "electric_scooter", "lat": 38.924543, "fusion_lon": 0.0, "is_disabled": 0, "fusion_lat": 0.0, "lon": -77.03951133333334}, {"is_reserved": 0, "rental_uris": {"ios": "https://dc.lft.to/lastmile_qr_scan", "android": "https://dc.lft.to/lastmile_qr_scan"}, "name": "ebc41f7599c5d0788c379718ca49abc2", "bike_id": "ebc41f7599c5d0788c379718ca49abc2", "type": "electric_scooter", "lat": 38.900033666666666, "fusion_lon": 0.0, "is_disabled": 0, "fusion_lat": 0.0, "lon": -77.011829}, {"is_reserved": 0, "rental_uris": {"ios": "https://dc.lft.to/lastmile_qr_scan", "android": "https://dc.lft.to/lastmile_qr_scan"}, "name": "9826f723c48edeef2ab514f6b75ca7bb", "bike_id": "9826f723c48edeef2ab514f6b75ca7bb", "type": "electric_scooter", "lat": 38.91129, "fusion_lon": 0.0, "is_disabled": 0, "fusion_lat": 0.0, "lon": -77.03208766666667}, {"is_reserved": 0, "rental_uris": {"ios": "https://dc.lft.to/lastmile_qr_scan", "android": "https://dc.lft.to/lastmile_qr_scan"}, "name": "f46b19b66fd885dd82009ddbda5acaf1", "bike_id": "f46b19b66fd885dd82009ddbda5acaf1", "type": "electric_scooter", "lat": 38.92066416666667, "fusion_lon": 0.0, "is_disabled": 0, "fusion_lat": 0.0, "lon": -77.04558516666667}, {"is_reserved": 0, "rental_uris": {"ios": "https://dc.lft.to/lastmile_qr_scan", "android": "https://dc.lft.to/lastmile_qr_scan"}, "name": "8172d88a36227df019e81db02c719e78", "bike_id": "8172d88a36227df019e81db02c719e78", "type": "electric_scooter", "lat": 38.897326666666665, "fusion_lon": 0.0, "is_disabled": 0, "fusion_lat": 0.0, "lon": -77.04677366666667}, {"is_reserved": 0, "rental_uris": {"ios": "https://dc.lft.to/lastmile_qr_scan", "android": "https://dc.lft.to/lastmile_qr_scan"}, "name": "9ab46d08ef5a0f90a2f6ac4e50717ff6", "bike_id": "9ab46d08ef5a0f90a2f6ac4e50717ff6", "type": "electric_bike", "lat": 38.8932625, "fusion_lon": 0.0, "is_disabled": 0, "fusion_lat": 0.0, "lon": -76.92112816666666}, {"is_reserved": 0, "rental_uris": {"ios": "https://dc.lft.to/lastmile_qr_scan", "android": "https://dc.lft.to/lastmile_qr_scan"}, "name": "2c03c27b248f76efd39a815e712f306c", "bike_id": "2c03c27b248f76efd39a815e712f306c", "type": "electric_scooter", "lat": 38.916945166666665, "fusion_lon": 0.0, "is_disabled": 0, "fusion_lat": 0.0, "lon": -77.03274133333333}, {"is_reserved": 0, "rental_uris": {"ios": "https://dc.lft.to/lastmile_qr_scan", "android": "https://dc.lft.to/lastmile_qr_scan"}, "name": "a7b5d68a5bf3dcf5e5f89dbf5c0f9a8a", "bike_id": "a7b5d68a5bf3dcf5e5f89dbf5c0f9a8a", "type": "electric_scooter", "lat": 38.92339666666667, "fusion_lon": 0.0, "is_disabled": 0, "fusion_lat": 0.0, "lon": -77.05075416666666}, {"is_reserved": 0, "rental_uris": {"ios": "https://dc.lft.to/lastmile_qr_scan", "android": "https://dc.lft.to/lastmile_qr_scan"}, "name": "1aee69e11c89e49af1cfcff7b5c4ec87", "bike_id": "1aee69e11c89e49af1cfcff7b5c4ec87", "type": "electric_scooter", "lat": 38.916998, "fusion_lon": 0.0, "is_disabled": 0, "fusion_lat": 0.0, "lon": -77.03887216666666}, {"is_reserved": 0, "rental_uris": {"ios": "https://dc.lft.to/lastmile_qr_scan", "android": "https://dc.lft.to/lastmile_qr_scan"}, "name": "b065e7a49c76fda3ebf37eb5f1f3b3fe", "bike_id": "b065e7a49c76fda3ebf37eb5f1f3b3fe", "type": "electric_scooter", "lat": 38.896009, "fusion_lon": 0.0, "is_disabled": 0, "fusion_lat": 0.0, "lon": -77.04503483333333}, {"is_reserved": 0, "rental_uris": {"ios": "https://dc.lft.to/lastmile_qr_scan", "android": "https://dc.lft.to/lastmile_qr_scan"}, "name": "d636b2489e99ae05bbdd2c3f55149b59", "bike_id": "d636b2489e99ae05bbdd2c3f55149b59", "type": "electric_scooter", "lat": 38.939261, "fusion_lon": 0.0, "is_disabled": 0, "fusion_lat": 0.0, "lon": -77.02218366666666}, {"is_reserved": 0, "rental_uris": {"ios": "https://dc.lft.to/lastmile_qr_scan", "android": "https://dc.lft.to/lastmile_qr_scan"}, "name": "bc11e6bb54bbfcaacc81ad344d1b4354", "bike_id": "bc11e6bb54bbfcaacc81ad344d1b4354", "type": "electric_bike", "lat": 38.966108, "fusion_lon": 0.0, "is_disabled": 0, "fusion_lat": 0.0, "lon": -77.0364915}, {"is_reserved": 0, "rental_uris": {"ios": "https://dc.lft.to/lastmile_qr_scan", "android": "https://dc.lft.to/lastmile_qr_scan"}, "name": "ce282828528394bd52886253beb64418", "bike_id": "ce282828528394bd52886253beb64418", "type": "electric_scooter", "lat": 38.866192, "fusion_lon": 0.0, "is_disabled": 0, "fusion_lat": 0.0, "lon": -76.9866405}, {"is_reserved": 0, "rental_uris": {"ios": "https://dc.lft.to/lastmile_qr_scan", "android": "https://dc.lft.to/lastmile_qr_scan"}, "name": "9489363fc2491c1814246c1f976bc4d0", "bike_id": "9489363fc2491c1814246c1f976bc4d0", "type": "electric_bike", "lat": 38.845893833333335, "fusion_lon": 0.0, "is_disabled": 0, "fusion_lat": 0.0, "lon": -77.076846}, {"is_reserved": 0, "rental_uris": {"ios": "https://dc.lft.to/lastmile_qr_scan", "android": "https://dc.lft.to/lastmile_qr_scan"}, "name": "e9cd7a319732c08ab3159667ed1ac79b", "bike_id": "e9cd7a319732c08ab3159667ed1ac79b", "type": "electric_scooter", "lat": 38.9083965, "fusion_lon": 0.0, "is_disabled": 0, "fusion_lat": 0.0, "lon": -77.0126005}, {"is_reserved": 0, "rental_uris": {"ios": "https://dc.lft.to/lastmile_qr_scan", "android": "https://dc.lft.to/lastmile_qr_scan"}, "name": "4b8b3854e49969704a68c980251db594", "bike_id": "4b8b3854e49969704a68c980251db594", "type": "electric_scooter", "lat": 38.90710216666667, "fusion_lon": 0.0, "is_disabled": 0, "fusion_lat": 0.0, "lon": -77.04003066666667}, {"is_reserved": 0, "rental_uris": {"ios": "https://dc.lft.to/lastmile_qr_scan", "android": "https://dc.lft.to/lastmile_qr_scan"}, "name": "42edf3a19d00e63ac9c38591804d1c34", "bike_id": "42edf3a19d00e63ac9c38591804d1c34", "type": "electric_scooter", "lat": 38.93469, "fusion_lon": 0.0, "is_disabled": 0, "fusion_lat": 0.0, "lon": -77.01928783333334}, {"is_reserved": 0, "rental_uris": {"ios": "https://dc.lft.to/lastmile_qr_scan", "android": "https://dc.lft.to/lastmile_qr_scan"}, "name": "274ed2a0cf0c9765b5db8f5e704116ed", "bike_id": "274ed2a0cf0c9765b5db8f5e704116ed", "type": "electric_scooter", "lat": 38.90280283333333, "fusion_lon": 0.0, "is_disabled": 0, "fusion_lat": 0.0, "lon": -77.0385595}, {"is_reserved": 0, "rental_uris": {"ios": "https://dc.lft.to/lastmile_qr_scan", "android": "https://dc.lft.to/lastmile_qr_scan"}, "name": "7eb1dc67b456d8090ea0369b67677704", "bike_id": "7eb1dc67b456d8090ea0369b67677704", "type": "electric_scooter", "lat": 38.944256333333335, "fusion_lon": 0.0, "is_disabled": 0, "fusion_lat": 0.0, "lon": -76.99210833333333}, {"is_reserved": 0, "rental_uris": {"ios": "https://dc.lft.to/lastmile_qr_scan", "android": "https://dc.lft.to/lastmile_qr_scan"}, "name": "80a1d467628efe302a02cb1a8470cadc", "bike_id": "80a1d467628efe302a02cb1a8470cadc", "type": "electric_scooter", "lat": 38.88502283333333, "fusion_lon": 0.0, "is_disabled": 0, "fusion_lat": 0.0, "lon": -77.00567366666667}, {"is_reserved": 0, "rental_uris": {"ios": "https://dc.lft.to/lastmile_qr_scan", "android": "https://dc.lft.to/lastmile_qr_scan"}, "name": "e993395ca43a6e2ca74badd5b2d34b16", "bike_id": "e993395ca43a6e2ca74badd5b2d34b16", "type": "electric_scooter", "lat": 38.89399866666667, "fusion_lon": 0.0, "is_disabled": 0, "fusion_lat": 0.0, "lon": -77.0107995}, {"is_reserved": 0, "rental_uris": {"ios": "https://dc.lft.to/lastmile_qr_scan", "android": "https://dc.lft.to/lastmile_qr_scan"}, "name": "299396642b71ab26e9fa0a94185e66f6", "bike_id": "299396642b71ab26e9fa0a94185e66f6", "type": "electric_scooter", "lat": 38.9323155, "fusion_lon": 0.0, "is_disabled": 0, "fusion_lat": 0.0, "lon": -77.03851233333333}, {"is_reserved": 0, "rental_uris": {"ios": "https://dc.lft.to/lastmile_qr_scan", "android": "https://dc.lft.to/lastmile_qr_scan"}, "name": "552cf656090d4be8af2bd9a8ed61c548", "bike_id": "552cf656090d4be8af2bd9a8ed61c548", "type": "electric_scooter", "lat": 38.9194575, "fusion_lon": 0.0, "is_disabled": 0, "fusion_lat": 0.0, "lon": -77.04149166666667}, {"is_reserved": 0, "rental_uris": {"ios": "https://dc.lft.to/lastmile_qr_scan", "android": "https://dc.lft.to/lastmile_qr_scan"}, "name": "064b2a8719af24fafcfc5610a0078eff", "bike_id": "064b2a8719af24fafcfc5610a0078eff", "type": "electric_scooter", "lat": 38.90598216666667, "fusion_lon": 0.0, "is_disabled": 0, "fusion_lat": 0.0, "lon": -77.04130683333334}, {"is_reserved": 0, "rental_uris": {"ios": "https://dc.lft.to/lastmile_qr_scan", "android": "https://dc.lft.to/lastmile_qr_scan"}, "name": "9b913e0b7b48bb8d0d3c249c77c766e6", "bike_id": "9b913e0b7b48bb8d0d3c249c77c766e6", "type": "electric_scooter", "lat": 38.912495, "fusion_lon": 0.0, "is_disabled": 0, "fusion_lat": 0.0, "lon": -77.04447633333334}, {"is_reserved": 0, "rental_uris": {"ios": "https://dc.lft.to/lastmile_qr_scan", "android": "https://dc.lft.to/lastmile_qr_scan"}, "name": "da50ebd8823e0f15595686a9e3cd69e1", "bike_id": "da50ebd8823e0f15595686a9e3cd69e1", "type": "electric_bike", "lat": 38.895139, "fusion_lon": 0.0, "is_disabled": 0, "fusion_lat": 0.0, "lon": -77.0738745}, {"is_reserved": 0, "rental_uris": {"ios": "https://dc.lft.to/lastmile_qr_scan", "android": "https://dc.lft.to/lastmile_qr_scan"}, "name": "35c19952e89ee54411e41a2b323d77a5", "bike_id": "35c19952e89ee54411e41a2b323d77a5", "type": "electric_scooter", "lat": 38.893434166666665, "fusion_lon": 0.0, "is_disabled": 0, "fusion_lat": 0.0, "lon": -76.94938233333333}, {"is_reserved": 0, "rental_uris": {"ios": "https://dc.lft.to/lastmile_qr_scan", "android": "https://dc.lft.to/lastmile_qr_scan"}, "name": "e93af262c15357c5a98c22b130ae2f8a", "bike_id": "e93af262c15357c5a98c22b130ae2f8a", "type": "electric_scooter", "lat": 38.895042833333335, "fusion_lon": 0.0, "is_disabled": 0, "fusion_lat": 0.0, "lon": -77.0229945}, {"is_reserved": 0, "rental_uris": {"ios": "https://dc.lft.to/lastmile_qr_scan", "android": "https://dc.lft.to/lastmile_qr_scan"}, "name": "de0e620c09d2c19be32b4db55e3a7766", "bike_id": "de0e620c09d2c19be32b4db55e3a7766", "type": "electric_scooter", "lat": 38.9215755, "fusion_lon": 0.0, "is_disabled": 0, "fusion_lat": 0.0, "lon": -77.03383166666667}, {"is_reserved": 0, "rental_uris": {"ios": "https://dc.lft.to/lastmile_qr_scan", "android": "https://dc.lft.to/lastmile_qr_scan"}, "name": "1549e0a2982b51097a9b7aeb45fd5d2e", "bike_id": "1549e0a2982b51097a9b7aeb45fd5d2e", "type": "electric_bike", "lat": 38.90681683333333, "fusion_lon": 0.0, "is_disabled": 0, "fusion_lat": 0.0, "lon": -76.95191166666666}, {"is_reserved": 0, "rental_uris": {"ios": "https://dc.lft.to/lastmile_qr_scan", "android": "https://dc.lft.to/lastmile_qr_scan"}, "name": "b51761492a613b0254078f9153b13725", "bike_id": "b51761492a613b0254078f9153b13725", "type": "electric_scooter", "lat": 38.910355333333335, "fusion_lon": 0.0, "is_disabled": 0, "fusion_lat": 0.0, "lon": -77.042626}, {"is_reserved": 0, "rental_uris": {"ios": "https://dc.lft.to/lastmile_qr_scan", "android": "https://dc.lft.to/lastmile_qr_scan"}, "name": "9d4ea34b96571d3455caa2ec603a61fb", "bike_id": "9d4ea34b96571d3455caa2ec603a61fb", "type": "electric_scooter", "lat": 38.862559166666664, "fusion_lon": 0.0, "is_disabled": 0, "fusion_lat": 0.0, "lon": -76.98704483333333}, {"is_reserved": 0, "rental_uris": {"ios": "https://dc.lft.to/lastmile_qr_scan", "android": "https://dc.lft.to/lastmile_qr_scan"}, "name": "cb91f580631f85fa4ce4e8241fc74f29", "bike_id": "cb91f580631f85fa4ce4e8241fc74f29", "type": "electric_scooter", "lat": 38.92237266666667, "fusion_lon": 0.0, "is_disabled": 0, "fusion_lat": 0.0, "lon": -77.0389105}, {"is_reserved": 0, "rental_uris": {"ios": "https://dc.lft.to/lastmile_qr_scan", "android": "https://dc.lft.to/lastmile_qr_scan"}, "name": "009d8eb86722bd8f55a8892e1c6f88b6", "bike_id": "009d8eb86722bd8f55a8892e1c6f88b6", "type": "electric_scooter", "lat": 38.907624, "fusion_lon": 0.0, "is_disabled": 0, "fusion_lat": 0.0, "lon": -77.0206565}, {"is_reserved": 0, "rental_uris": {"ios": "https://dc.lft.to/lastmile_qr_scan", "android": "https://dc.lft.to/lastmile_qr_scan"}, "name": "3fdd332090ea8a0a07eb04d7f1478ba0", "bike_id": "3fdd332090ea8a0a07eb04d7f1478ba0", "type": "electric_scooter", "lat": 38.8921985, "fusion_lon": 0.0, "is_disabled": 0, "fusion_lat": 0.0, "lon": -77.02847233333334}, {"is_reserved": 0, "rental_uris": {"ios": "https://dc.lft.to/lastmile_qr_scan", "android": "https://dc.lft.to/lastmile_qr_scan"}, "name": "02cc29817620b2276b95b499f8115e09", "bike_id": "02cc29817620b2276b95b499f8115e09", "type": "electric_bike", "lat": 38.80223266666667, "fusion_lon": 0.0, "is_disabled": 0, "fusion_lat": 0.0, "lon": -77.0791895}, {"is_reserved": 0, "rental_uris": {"ios": "https://dc.lft.to/lastmile_qr_scan", "android": "https://dc.lft.to/lastmile_qr_scan"}, "name": "f05f8f4050ee5effdcf786003be8ff07", "bike_id": "f05f8f4050ee5effdcf786003be8ff07", "type": "electric_scooter", "lat": 38.86615583333333, "fusion_lon": 0.0, "is_disabled": 0, "fusion_lat": 0.0, "lon": -76.98652883333334}, {"is_reserved": 0, "rental_uris": {"ios": "https://dc.lft.to/lastmile_qr_scan", "android": "https://dc.lft.to/lastmile_qr_scan"}, "name": "7069320d3bd0c0f085a0f16cf596e5e7", "bike_id": "7069320d3bd0c0f085a0f16cf596e5e7", "type": "electric_scooter", "lat": 38.8929115, "fusion_lon": 0.0, "is_disabled": 0, "fusion_lat": 0.0, "lon": -77.03351883333333}, {"is_reserved": 0, "rental_uris": {"ios": "https://dc.lft.to/lastmile_qr_scan", "android": "https://dc.lft.to/lastmile_qr_scan"}, "name": "02c75cf70c96d2b7f5879274c664884e", "bike_id": "02c75cf70c96d2b7f5879274c664884e", "type": "electric_scooter", "lat": 38.885844666666664, "fusion_lon": 0.0, "is_disabled": 0, "fusion_lat": 0.0, "lon": -76.99141216666666}, {"is_reserved": 0, "rental_uris": {"ios": "https://dc.lft.to/lastmile_qr_scan", "android": "https://dc.lft.to/lastmile_qr_scan"}, "name": "15769699065e8ac672b6a4b0b2dbb930", "bike_id": "15769699065e8ac672b6a4b0b2dbb930", "type": "electric_scooter", "lat": 38.909389833333336, "fusion_lon": 0.0, "is_disabled": 0, "fusion_lat": 0.0, "lon": -77.04463033333333}, {"is_reserved": 0, "rental_uris": {"ios": "https://dc.lft.to/lastmile_qr_scan", "android": "https://dc.lft.to/lastmile_qr_scan"}, "name": "b8408f1777a5ee7b9c50313694f48284", "bike_id": "b8408f1777a5ee7b9c50313694f48284", "type": "electric_scooter", "lat": 38.93228716666667, "fusion_lon": 0.0, "is_disabled": 0, "fusion_lat": 0.0, "lon": -77.0326625}, {"is_reserved": 0, "rental_uris": {"ios": "https://dc.lft.to/lastmile_qr_scan", "android": "https://dc.lft.to/lastmile_qr_scan"}, "name": "f12b5f8e84d3ccff475ae3269f708faf", "bike_id": "f12b5f8e84d3ccff475ae3269f708faf", "type": "electric_scooter", "lat": 38.844215, "fusion_lon": 0.0, "is_disabled": 0, "fusion_lat": 0.0, "lon": -76.99781766666666}, {"is_reserved": 0, "rental_uris": {"ios": "https://dc.lft.to/lastmile_qr_scan", "android": "https://dc.lft.to/lastmile_qr_scan"}, "name": "03916e0940d130a80c1c0bb30e7a42b4", "bike_id": "03916e0940d130a80c1c0bb30e7a42b4", "type": "electric_scooter", "lat": 38.909604333333334, "fusion_lon": 0.0, "is_disabled": 0, "fusion_lat": 0.0, "lon": -77.03380283333334}, {"is_reserved": 0, "rental_uris": {"ios": "https://dc.lft.to/lastmile_qr_scan", "android": "https://dc.lft.to/lastmile_qr_scan"}, "name": "8add56473ddda17548750e2844d98afd", "bike_id": "8add56473ddda17548750e2844d98afd", "type": "electric_scooter", "lat": 38.890582, "fusion_lon": 0.0, "is_disabled": 0, "fusion_lat": 0.0, "lon": -77.02289083333334}, {"is_reserved": 0, "rental_uris": {"ios": "https://dc.lft.to/lastmile_qr_scan", "android": "https://dc.lft.to/lastmile_qr_scan"}, "name": "9e961d48dbff4cf49240b405f343beef", "bike_id": "9e961d48dbff4cf49240b405f343beef", "type": "electric_bike", "lat": 38.908557333333334, "fusion_lon": 0.0, "is_disabled": 0, "fusion_lat": 0.0, "lon": -77.0808395}, {"is_reserved": 0, "rental_uris": {"ios": "https://dc.lft.to/lastmile_qr_scan", "android": "https://dc.lft.to/lastmile_qr_scan"}, "name": "4ef42b3478a1940b38914dddd2fa421c", "bike_id": "4ef42b3478a1940b38914dddd2fa421c", "type": "electric_scooter", "lat": 38.950775, "fusion_lon": 0.0, "is_disabled": 0, "fusion_lat": 0.0, "lon": -77.00875133333334}, {"is_reserved": 0, "rental_uris": {"ios": "https://dc.lft.to/lastmile_qr_scan", "android": "https://dc.lft.to/lastmile_qr_scan"}, "name": "55a98a1cdaa08ff7f4920967a54cc897", "bike_id": "55a98a1cdaa08ff7f4920967a54cc897", "type": "electric_scooter", "lat": 38.87564733333333, "fusion_lon": 0.0, "is_disabled": 0, "fusion_lat": 0.0, "lon": -77.012529}, {"is_reserved": 0, "rental_uris": {"ios": "https://dc.lft.to/lastmile_qr_scan", "android": "https://dc.lft.to/lastmile_qr_scan"}, "name": "2305c0aca138f6f32efff55dc538077a", "bike_id": "2305c0aca138f6f32efff55dc538077a", "type": "electric_scooter", "lat": 38.91895566666667, "fusion_lon": 0.0, "is_disabled": 0, "fusion_lat": 0.0, "lon": -77.04155516666667}, {"is_reserved": 0, "rental_uris": {"ios": "https://dc.lft.to/lastmile_qr_scan", "android": "https://dc.lft.to/lastmile_qr_scan"}, "name": "66eb965e6dd27edba037ead996844974", "bike_id": "66eb965e6dd27edba037ead996844974", "type": "electric_scooter", "lat": 38.91715933333333, "fusion_lon": 0.0, "is_disabled": 0, "fusion_lat": 0.0, "lon": -77.03206266666666}, {"is_reserved": 0, "rental_uris": {"ios": "https://dc.lft.to/lastmile_qr_scan", "android": "https://dc.lft.to/lastmile_qr_scan"}, "name": "784cc2aa9214b54297f46adb00cc3335", "bike_id": "784cc2aa9214b54297f46adb00cc3335", "type": "electric_bike", "lat": 39.0293095, "fusion_lon": 0.0, "is_disabled": 0, "fusion_lat": 0.0, "lon": -77.049336}, {"is_reserved": 0, "rental_uris": {"ios": "https://dc.lft.to/lastmile_qr_scan", "android": "https://dc.lft.to/lastmile_qr_scan"}, "name": "0ee6c53ba68a301ec0059202bd71ae7f", "bike_id": "0ee6c53ba68a301ec0059202bd71ae7f", "type": "electric_scooter", "lat": 38.88371333333333, "fusion_lon": 0.0, "is_disabled": 0, "fusion_lat": 0.0, "lon": -76.99488083333334}, {"is_reserved": 0, "rental_uris": {"ios": "https://dc.lft.to/lastmile_qr_scan", "android": "https://dc.lft.to/lastmile_qr_scan"}, "name": "cc31489a236f638e3a00f36575f1168a", "bike_id": "cc31489a236f638e3a00f36575f1168a", "type": "electric_scooter", "lat": 38.879741, "fusion_lon": 0.0, "is_disabled": 0, "fusion_lat": 0.0, "lon": -76.98553783333334}, {"is_reserved": 0, "rental_uris": {"ios": "https://dc.lft.to/lastmile_qr_scan", "android": "https://dc.lft.to/lastmile_qr_scan"}, "name": "71dacbb00b0876205ed50ebbf61c4d4a", "bike_id": "71dacbb00b0876205ed50ebbf61c4d4a", "type": "electric_scooter", "lat": 38.914383666666666, "fusion_lon": 0.0, "is_disabled": 0, "fusion_lat": 0.0, "lon": -77.0122115}, {"is_reserved": 0, "rental_uris": {"ios": "https://dc.lft.to/lastmile_qr_scan", "android": "https://dc.lft.to/lastmile_qr_scan"}, "name": "4b2df5e8e02c3a2b15d58903b3664d97", "bike_id": "4b2df5e8e02c3a2b15d58903b3664d97", "type": "electric_scooter", "lat": 38.95220333333333, "fusion_lon": 0.0, "is_disabled": 0, "fusion_lat": 0.0, "lon": -77.00262833333333}, {"is_reserved": 0, "rental_uris": {"ios": "https://dc.lft.to/lastmile_qr_scan", "android": "https://dc.lft.to/lastmile_qr_scan"}, "name": "55c27a396439a378d048e9d8c229416d", "bike_id": "55c27a396439a378d048e9d8c229416d", "type": "electric_scooter", "lat": 38.919820666666666, "fusion_lon": 0.0, "is_disabled": 0, "fusion_lat": 0.0, "lon": -76.973079}, {"is_reserved": 0, "rental_uris": {"ios": "https://dc.lft.to/lastmile_qr_scan", "android": "https://dc.lft.to/lastmile_qr_scan"}, "name": "1b885fd16ec3c27ea8b9b1249a66db30", "bike_id": "1b885fd16ec3c27ea8b9b1249a66db30", "type": "electric_bike", "lat": 38.960164, "fusion_lon": 0.0, "is_disabled": 0, "fusion_lat": 0.0, "lon": -77.01730516666667}, {"is_reserved": 0, "rental_uris": {"ios": "https://dc.lft.to/lastmile_qr_scan", "android": "https://dc.lft.to/lastmile_qr_scan"}, "name": "b042afd9b13971e1033f44f2c29a7aa1", "bike_id": "b042afd9b13971e1033f44f2c29a7aa1", "type": "electric_scooter", "lat": 38.954024, "fusion_lon": 0.0, "is_disabled": 0, "fusion_lat": 0.0, "lon": -77.02749966666667}, {"is_reserved": 0, "rental_uris": {"ios": "https://dc.lft.to/lastmile_qr_scan", "android": "https://dc.lft.to/lastmile_qr_scan"}, "name": "8b8bc1bfb6a8a665c8e848b2d70108d5", "bike_id": "8b8bc1bfb6a8a665c8e848b2d70108d5", "type": "electric_bike", "lat": 38.874219333333336, "fusion_lon": 0.0, "is_disabled": 0, "fusion_lat": 0.0, "lon": -77.08567666666667}, {"is_reserved": 0, "rental_uris": {"ios": "https://dc.lft.to/lastmile_qr_scan", "android": "https://dc.lft.to/lastmile_qr_scan"}, "name": "fe8da021f6eaaa71f0559ea800eecb63", "bike_id": "fe8da021f6eaaa71f0559ea800eecb63", "type": "electric_scooter", "lat": 38.892204666666665, "fusion_lon": 0.0, "is_disabled": 0, "fusion_lat": 0.0, "lon": -77.041988}, {"is_reserved": 0, "rental_uris": {"ios": "https://dc.lft.to/lastmile_qr_scan", "android": "https://dc.lft.to/lastmile_qr_scan"}, "name": "2dabb71a67aefb1a3f1d0f6c91116bec", "bike_id": "2dabb71a67aefb1a3f1d0f6c91116bec", "type": "electric_scooter", "lat": 38.919798, "fusion_lon": 0.0, "is_disabled": 0, "fusion_lat": 0.0, "lon": -77.041766}, {"is_reserved": 0, "rental_uris": {"ios": "https://dc.lft.to/lastmile_qr_scan", "android": "https://dc.lft.to/lastmile_qr_scan"}, "name": "844fafab5398099c4f3a312c3a7c5ef4", "bike_id": "844fafab5398099c4f3a312c3a7c5ef4", "type": "electric_scooter", "lat": 38.922144333333335, "fusion_lon": 0.0, "is_disabled": 0, "fusion_lat": 0.0, "lon": -77.042542}, {"is_reserved": 0, "rental_uris": {"ios": "https://dc.lft.to/lastmile_qr_scan", "android": "https://dc.lft.to/lastmile_qr_scan"}, "name": "b03b7d3cb454115a92c72b4d92cf9786", "bike_id": "b03b7d3cb454115a92c72b4d92cf9786", "type": "electric_bike", "lat": 38.9051165, "fusion_lon": 0.0, "is_disabled": 0, "fusion_lat": 0.0, "lon": -77.06000483333334}, {"is_reserved": 0, "rental_uris": {"ios": "https://dc.lft.to/lastmile_qr_scan", "android": "https://dc.lft.to/lastmile_qr_scan"}, "name": "4dd42de4f1a62d15422d48d401cb016a", "bike_id": "4dd42de4f1a62d15422d48d401cb016a", "type": "electric_scooter", "lat": 38.905484, "fusion_lon": 0.0, "is_disabled": 0, "fusion_lat": 0.0, "lon": -77.04723666666666}, {"is_reserved": 0, "rental_uris": {"ios": "https://dc.lft.to/lastmile_qr_scan", "android": "https://dc.lft.to/lastmile_qr_scan"}, "name": "b4f4dc1c05e900b508149f4214db42f1", "bike_id": "b4f4dc1c05e900b508149f4214db42f1", "type": "electric_scooter", "lat": 38.842893333333336, "fusion_lon": 0.0, "is_disabled": 0, "fusion_lat": 0.0, "lon": -76.9995135}, {"is_reserved": 0, "rental_uris": {"ios": "https://dc.lft.to/lastmile_qr_scan", "android": "https://dc.lft.to/lastmile_qr_scan"}, "name": "b68b696db42e621007018ced78a3ad4f", "bike_id": "b68b696db42e621007018ced78a3ad4f", "type": "electric_scooter", "lat": 38.973679, "fusion_lon": 0.0, "is_disabled": 0, "fusion_lat": 0.0, "lon": -77.01864566666667}, {"is_reserved": 0, "rental_uris": {"ios": "https://dc.lft.to/lastmile_qr_scan", "android": "https://dc.lft.to/lastmile_qr_scan"}, "name": "f35fee39d68bd2df7a9c063612482ac1", "bike_id": "f35fee39d68bd2df7a9c063612482ac1", "type": "electric_scooter", "lat": 38.90689783333333, "fusion_lon": 0.0, "is_disabled": 0, "fusion_lat": 0.0, "lon": -76.99956233333333}, {"is_reserved": 0, "rental_uris": {"ios": "https://dc.lft.to/lastmile_qr_scan", "android": "https://dc.lft.to/lastmile_qr_scan"}, "name": "b6042aa9f65db707c9b8a418f6ebea0b", "bike_id": "b6042aa9f65db707c9b8a418f6ebea0b", "type": "electric_scooter", "lat": 38.86731016666667, "fusion_lon": 0.0, "is_disabled": 0, "fusion_lat": 0.0, "lon": -76.987861}, {"is_reserved": 0, "rental_uris": {"ios": "https://dc.lft.to/lastmile_qr_scan", "android": "https://dc.lft.to/lastmile_qr_scan"}, "name": "90c5126d4109d1c6d84de78668ac8b55", "bike_id": "90c5126d4109d1c6d84de78668ac8b55", "type": "electric_scooter", "lat": 38.91666766666667, "fusion_lon": 0.0, "is_disabled": 0, "fusion_lat": 0.0, "lon": -77.00656933333333}, {"is_reserved": 0, "rental_uris": {"ios": "https://dc.lft.to/lastmile_qr_scan", "android": "https://dc.lft.to/lastmile_qr_scan"}, "name": "6e537e01fee977c0ec16e5a0361b3ae1", "bike_id": "6e537e01fee977c0ec16e5a0361b3ae1", "type": "electric_scooter", "lat": 38.9404955, "fusion_lon": 0.0, "is_disabled": 0, "fusion_lat": 0.0, "lon": -77.09271383333333}, {"is_reserved": 0, "rental_uris": {"ios": "https://dc.lft.to/lastmile_qr_scan", "android": "https://dc.lft.to/lastmile_qr_scan"}, "name": "fef838e132c81f599246fe389a1ec831", "bike_id": "fef838e132c81f599246fe389a1ec831", "type": "electric_bike", "lat": 38.936998833333334, "fusion_lon": 0.0, "is_disabled": 0, "fusion_lat": 0.0, "lon": -77.02119366666666}, {"is_reserved": 0, "rental_uris": {"ios": "https://dc.lft.to/lastmile_qr_scan", "android": "https://dc.lft.to/lastmile_qr_scan"}, "name": "484c68b3cccab24b5606c1bf062b3af2", "bike_id": "484c68b3cccab24b5606c1bf062b3af2", "type": "electric_scooter", "lat": 38.9225255, "fusion_lon": 0.0, "is_disabled": 0, "fusion_lat": 0.0, "lon": -77.0414035}, {"is_reserved": 0, "rental_uris": {"ios": "https://dc.lft.to/lastmile_qr_scan", "android": "https://dc.lft.to/lastmile_qr_scan"}, "name": "2e8c8888bfbbb6ebc8350bb165cb46cb", "bike_id": "2e8c8888bfbbb6ebc8350bb165cb46cb", "type": "electric_scooter", "lat": 38.90367883333333, "fusion_lon": 0.0, "is_disabled": 0, "fusion_lat": 0.0, "lon": -77.046787}, {"is_reserved": 0, "rental_uris": {"ios": "https://dc.lft.to/lastmile_qr_scan", "android": "https://dc.lft.to/lastmile_qr_scan"}, "name": "a3c79bde55f50801af485f553c540c80", "bike_id": "a3c79bde55f50801af485f553c540c80", "type": "electric_scooter", "lat": 38.8722335, "fusion_lon": 0.0, "is_disabled": 0, "fusion_lat": 0.0, "lon": -77.01206866666666}, {"is_reserved": 0, "rental_uris": {"ios": "https://dc.lft.to/lastmile_qr_scan", "android": "https://dc.lft.to/lastmile_qr_scan"}, "name": "ae96e4713c8b4dd8703fe0ae09e16b01", "bike_id": "ae96e4713c8b4dd8703fe0ae09e16b01", "type": "electric_scooter", "lat": 38.923068666666666, "fusion_lon": 0.0, "is_disabled": 0, "fusion_lat": 0.0, "lon": -77.04264433333333}, {"is_reserved": 0, "rental_uris": {"ios": "https://dc.lft.to/lastmile_qr_scan", "android": "https://dc.lft.to/lastmile_qr_scan"}, "name": "8b11b831124e281728a21e967d7354ec", "bike_id": "8b11b831124e281728a21e967d7354ec", "type": "electric_scooter", "lat": 38.903577, "fusion_lon": 0.0, "is_disabled": 0, "fusion_lat": 0.0, "lon": -77.0456215}, {"is_reserved": 0, "rental_uris": {"ios": "https://dc.lft.to/lastmile_qr_scan", "android": "https://dc.lft.to/lastmile_qr_scan"}, "name": "487d10a653b493f4345f52c4881cf167", "bike_id": "487d10a653b493f4345f52c4881cf167", "type": "electric_scooter", "lat": 38.9073135, "fusion_lon": 0.0, "is_disabled": 0, "fusion_lat": 0.0, "lon": -77.03982966666666}, {"is_reserved": 0, "rental_uris": {"ios": "https://dc.lft.to/lastmile_qr_scan", "android": "https://dc.lft.to/lastmile_qr_scan"}, "name": "e49244830e625f5d1c04b029e9df7d05", "bike_id": "e49244830e625f5d1c04b029e9df7d05", "type": "electric_scooter", "lat": 38.8934565, "fusion_lon": 0.0, "is_disabled": 0, "fusion_lat": 0.0, "lon": -77.00336083333333}, {"is_reserved": 0, "rental_uris": {"ios": "https://dc.lft.to/lastmile_qr_scan", "android": "https://dc.lft.to/lastmile_qr_scan"}, "name": "1e0cf67d4948da8af2a7c0c69d4db181", "bike_id": "1e0cf67d4948da8af2a7c0c69d4db181", "type": "electric_scooter", "lat": 38.9169295, "fusion_lon": 0.0, "is_disabled": 0, "fusion_lat": 0.0, "lon": -77.03628183333333}, {"is_reserved": 0, "rental_uris": {"ios": "https://dc.lft.to/lastmile_qr_scan", "android": "https://dc.lft.to/lastmile_qr_scan"}, "name": "7fc825666199a433da1ad4f228bc46d8", "bike_id": "7fc825666199a433da1ad4f228bc46d8", "type": "electric_scooter", "lat": 38.93232716666667, "fusion_lon": 0.0, "is_disabled": 0, "fusion_lat": 0.0, "lon": -77.03852333333333}, {"is_reserved": 0, "rental_uris": {"ios": "https://dc.lft.to/lastmile_qr_scan", "android": "https://dc.lft.to/lastmile_qr_scan"}, "name": "b2cbb13c35e1c5de585a55032d91e16a", "bike_id": "b2cbb13c35e1c5de585a55032d91e16a", "type": "electric_scooter", "lat": 38.9307035, "fusion_lon": 0.0, "is_disabled": 0, "fusion_lat": 0.0, "lon": -77.023926}, {"is_reserved": 0, "rental_uris": {"ios": "https://dc.lft.to/lastmile_qr_scan", "android": "https://dc.lft.to/lastmile_qr_scan"}, "name": "fef486fdb4030e7a31cbb0354b4e55bc", "bike_id": "fef486fdb4030e7a31cbb0354b4e55bc", "type": "electric_scooter", "lat": 38.939798, "fusion_lon": 0.0, "is_disabled": 0, "fusion_lat": 0.0, "lon": -77.03267266666667}, {"is_reserved": 0, "rental_uris": {"ios": "https://dc.lft.to/lastmile_qr_scan", "android": "https://dc.lft.to/lastmile_qr_scan"}, "name": "b16752602c46ae2cbc496414198a4000", "bike_id": "b16752602c46ae2cbc496414198a4000", "type": "electric_scooter", "lat": 38.88738883333333, "fusion_lon": 0.0, "is_disabled": 0, "fusion_lat": 0.0, "lon": -77.02077883333334}, {"is_reserved": 0, "rental_uris": {"ios": "https://dc.lft.to/lastmile_qr_scan", "android": "https://dc.lft.to/lastmile_qr_scan"}, "name": "185cbf9e1f15a34c684c1790bd541ea7", "bike_id": "185cbf9e1f15a34c684c1790bd541ea7", "type": "electric_scooter", "lat": 38.91413983333333, "fusion_lon": 0.0, "is_disabled": 0, "fusion_lat": 0.0, "lon": -77.03261783333333}, {"is_reserved": 0, "rental_uris": {"ios": "https://dc.lft.to/lastmile_qr_scan", "android": "https://dc.lft.to/lastmile_qr_scan"}, "name": "6cff8ed4f9747eac4f4a956760999bf7", "bike_id": "6cff8ed4f9747eac4f4a956760999bf7", "type": "electric_scooter", "lat": 38.916148666666665, "fusion_lon": 0.0, "is_disabled": 0, "fusion_lat": 0.0, "lon": -77.03166216666666}, {"is_reserved": 0, "rental_uris": {"ios": "https://dc.lft.to/lastmile_qr_scan", "android": "https://dc.lft.to/lastmile_qr_scan"}, "name": "aedcf04ffdf7378b8baa045dd0990c63", "bike_id": "aedcf04ffdf7378b8baa045dd0990c63", "type": "electric_scooter", "lat": 38.89609, "fusion_lon": 0.0, "is_disabled": 0, "fusion_lat": 0.0, "lon": -76.95648083333333}, {"is_reserved": 0, "rental_uris": {"ios": "https://dc.lft.to/lastmile_qr_scan", "android": "https://dc.lft.to/lastmile_qr_scan"}, "name": "28c429dd51fc11c3f7dc53a3bdd43c7d", "bike_id": "28c429dd51fc11c3f7dc53a3bdd43c7d", "type": "electric_scooter", "lat": 38.89610583333334, "fusion_lon": 0.0, "is_disabled": 0, "fusion_lat": 0.0, "lon": -77.00553033333334}, {"is_reserved": 0, "rental_uris": {"ios": "https://dc.lft.to/lastmile_qr_scan", "android": "https://dc.lft.to/lastmile_qr_scan"}, "name": "ea434962f8c84a58e3e10f82b489fc6c", "bike_id": "ea434962f8c84a58e3e10f82b489fc6c", "type": "electric_scooter", "lat": 38.844287, "fusion_lon": 0.0, "is_disabled": 0, "fusion_lat": 0.0, "lon": -76.9977905}, {"is_reserved": 0, "rental_uris": {"ios": "https://dc.lft.to/lastmile_qr_scan", "android": "https://dc.lft.to/lastmile_qr_scan"}, "name": "92d7b49f1a15bf119bcb7ceb6e2df382", "bike_id": "92d7b49f1a15bf119bcb7ceb6e2df382", "type": "electric_bike", "lat": 38.81045966666667, "fusion_lon": 0.0, "is_disabled": 0, "fusion_lat": 0.0, "lon": -77.0851185}, {"is_reserved": 0, "rental_uris": {"ios": "https://dc.lft.to/lastmile_qr_scan", "android": "https://dc.lft.to/lastmile_qr_scan"}, "name": "7282e03262c3d601bb6bf210f90b56b8", "bike_id": "7282e03262c3d601bb6bf210f90b56b8", "type": "electric_scooter", "lat": 38.9238355, "fusion_lon": 0.0, "is_disabled": 0, "fusion_lat": 0.0, "lon": -77.02758833333333}, {"is_reserved": 0, "rental_uris": {"ios": "https://dc.lft.to/lastmile_qr_scan", "android": "https://dc.lft.to/lastmile_qr_scan"}, "name": "b9f9f485b21520969941ad01015a2276", "bike_id": "b9f9f485b21520969941ad01015a2276", "type": "electric_scooter", "lat": 38.915455666666666, "fusion_lon": 0.0, "is_disabled": 0, "fusion_lat": 0.0, "lon": -77.009794}, {"is_reserved": 0, "rental_uris": {"ios": "https://dc.lft.to/lastmile_qr_scan", "android": "https://dc.lft.to/lastmile_qr_scan"}, "name": "42eb6d867e3b16bacc73261f0b098be6", "bike_id": "42eb6d867e3b16bacc73261f0b098be6", "type": "electric_scooter", "lat": 38.9094715, "fusion_lon": 0.0, "is_disabled": 0, "fusion_lat": 0.0, "lon": -77.046619}, {"is_reserved": 0, "rental_uris": {"ios": "https://dc.lft.to/lastmile_qr_scan", "android": "https://dc.lft.to/lastmile_qr_scan"}, "name": "659b86d209ca787381d44459f899e065", "bike_id": "659b86d209ca787381d44459f899e065", "type": "electric_scooter", "lat": 38.904000333333336, "fusion_lon": 0.0, "is_disabled": 0, "fusion_lat": 0.0, "lon": -77.05324033333333}, {"is_reserved": 0, "rental_uris": {"ios": "https://dc.lft.to/lastmile_qr_scan", "android": "https://dc.lft.to/lastmile_qr_scan"}, "name": "da82b2a595a00823be1a6b4f9a74fdc0", "bike_id": "da82b2a595a00823be1a6b4f9a74fdc0", "type": "electric_scooter", "lat": 38.921147833333336, "fusion_lon": 0.0, "is_disabled": 0, "fusion_lat": 0.0, "lon": -77.04218583333333}, {"is_reserved": 0, "rental_uris": {"ios": "https://dc.lft.to/lastmile_qr_scan", "android": "https://dc.lft.to/lastmile_qr_scan"}, "name": "bca96544efa3b0c8cbd1bc9e1b123dbb", "bike_id": "bca96544efa3b0c8cbd1bc9e1b123dbb", "type": "electric_scooter", "lat": 38.93425633333333, "fusion_lon": 0.0, "is_disabled": 0, "fusion_lat": 0.0, "lon": -77.028478}, {"is_reserved": 0, "rental_uris": {"ios": "https://dc.lft.to/lastmile_qr_scan", "android": "https://dc.lft.to/lastmile_qr_scan"}, "name": "79e6816ee6781516456e602e32e0a5ad", "bike_id": "79e6816ee6781516456e602e32e0a5ad", "type": "electric_scooter", "lat": 38.906426333333336, "fusion_lon": 0.0, "is_disabled": 0, "fusion_lat": 0.0, "lon": -77.01142933333334}, {"is_reserved": 0, "rental_uris": {"ios": "https://dc.lft.to/lastmile_qr_scan", "android": "https://dc.lft.to/lastmile_qr_scan"}, "name": "d1f936f39e6ad489e9090a5542d9066b", "bike_id": "d1f936f39e6ad489e9090a5542d9066b", "type": "electric_scooter", "lat": 38.8922075, "fusion_lon": 0.0, "is_disabled": 0, "fusion_lat": 0.0, "lon": -77.0486365}, {"is_reserved": 0, "rental_uris": {"ios": "https://dc.lft.to/lastmile_qr_scan", "android": "https://dc.lft.to/lastmile_qr_scan"}, "name": "6c76786f1da5420dab6ad06b05ae16cc", "bike_id": "6c76786f1da5420dab6ad06b05ae16cc", "type": "electric_scooter", "lat": 38.925975, "fusion_lon": 0.0, "is_disabled": 0, "fusion_lat": 0.0, "lon": -77.056983}, {"is_reserved": 0, "rental_uris": {"ios": "https://dc.lft.to/lastmile_qr_scan", "android": "https://dc.lft.to/lastmile_qr_scan"}, "name": "bbac45aebe998855533c10a05d267636", "bike_id": "bbac45aebe998855533c10a05d267636", "type": "electric_scooter", "lat": 38.8867755, "fusion_lon": 0.0, "is_disabled": 0, "fusion_lat": 0.0, "lon": -77.00218083333333}, {"is_reserved": 0, "rental_uris": {"ios": "https://dc.lft.to/lastmile_qr_scan", "android": "https://dc.lft.to/lastmile_qr_scan"}, "name": "1287411534b0136cfe88f7293072752d", "bike_id": "1287411534b0136cfe88f7293072752d", "type": "electric_bike", "lat": 38.854243333333336, "fusion_lon": 0.0, "is_disabled": 0, "fusion_lat": 0.0, "lon": -76.90967066666667}, {"is_reserved": 0, "rental_uris": {"ios": "https://dc.lft.to/lastmile_qr_scan", "android": "https://dc.lft.to/lastmile_qr_scan"}, "name": "d1ef4577d30e3a5e1594bfbe09f68ff4", "bike_id": "d1ef4577d30e3a5e1594bfbe09f68ff4", "type": "electric_scooter", "lat": 38.88445333333333, "fusion_lon": 0.0, "is_disabled": 0, "fusion_lat": 0.0, "lon": -76.99506366666667}, {"is_reserved": 0, "rental_uris": {"ios": "https://dc.lft.to/lastmile_qr_scan", "android": "https://dc.lft.to/lastmile_qr_scan"}, "name": "42bc8e478e8c2fc4a59c6e132badf519", "bike_id": "42bc8e478e8c2fc4a59c6e132badf519", "type": "electric_bike", "lat": 38.985064333333334, "fusion_lon": 0.0, "is_disabled": 0, "fusion_lat": 0.0, "lon": -76.98203116666667}, {"is_reserved": 0, "rental_uris": {"ios": "https://dc.lft.to/lastmile_qr_scan", "android": "https://dc.lft.to/lastmile_qr_scan"}, "name": "919336b72da9104ab59bb6da2f5f3d1a", "bike_id": "919336b72da9104ab59bb6da2f5f3d1a", "type": "electric_bike", "lat": 38.82263416666667, "fusion_lon": 0.0, "is_disabled": 0, "fusion_lat": 0.0, "lon": -77.05813816666667}, {"is_reserved": 0, "rental_uris": {"ios": "https://dc.lft.to/lastmile_qr_scan", "android": "https://dc.lft.to/lastmile_qr_scan"}, "name": "7f3ced4f3c3246edc1adc669d017b816", "bike_id": "7f3ced4f3c3246edc1adc669d017b816", "type": "electric_scooter", "lat": 38.85793533333333, "fusion_lon": 0.0, "is_disabled": 0, "fusion_lat": 0.0, "lon": -76.98650916666666}, {"is_reserved": 0, "rental_uris": {"ios": "https://dc.lft.to/lastmile_qr_scan", "android": "https://dc.lft.to/lastmile_qr_scan"}, "name": "7323a2c8312dafd8ea8fe00a70a00efa", "bike_id": "7323a2c8312dafd8ea8fe00a70a00efa", "type": "electric_scooter", "lat": 38.93250483333333, "fusion_lon": 0.0, "is_disabled": 0, "fusion_lat": 0.0, "lon": -77.03280983333333}, {"is_reserved": 0, "rental_uris": {"ios": "https://dc.lft.to/lastmile_qr_scan", "android": "https://dc.lft.to/lastmile_qr_scan"}, "name": "5965ef1ea0a2fec06b82692b42f1f81c", "bike_id": "5965ef1ea0a2fec06b82692b42f1f81c", "type": "electric_scooter", "lat": 38.89645133333333, "fusion_lon": 0.0, "is_disabled": 0, "fusion_lat": 0.0, "lon": -77.00894966666667}, {"is_reserved": 0, "rental_uris": {"ios": "https://dc.lft.to/lastmile_qr_scan", "android": "https://dc.lft.to/lastmile_qr_scan"}, "name": "c83912c1f5ef94abf301017b29cd1a78", "bike_id": "c83912c1f5ef94abf301017b29cd1a78", "type": "electric_scooter", "lat": 38.908368833333334, "fusion_lon": 0.0, "is_disabled": 0, "fusion_lat": 0.0, "lon": -76.99699916666667}, {"is_reserved": 0, "rental_uris": {"ios": "https://dc.lft.to/lastmile_qr_scan", "android": "https://dc.lft.to/lastmile_qr_scan"}, "name": "1907774683cd4b236ffe24a4683fe3b6", "bike_id": "1907774683cd4b236ffe24a4683fe3b6", "type": "electric_scooter", "lat": 38.93880866666667, "fusion_lon": 0.0, "is_disabled": 0, "fusion_lat": 0.0, "lon": -77.03285483333333}, {"is_reserved": 0, "rental_uris": {"ios": "https://dc.lft.to/lastmile_qr_scan", "android": "https://dc.lft.to/lastmile_qr_scan"}, "name": "21bfeb391002bf2ea6771ec8a43f333b", "bike_id": "21bfeb391002bf2ea6771ec8a43f333b", "type": "electric_bike", "lat": 38.869962, "fusion_lon": 0.0, "is_disabled": 0, "fusion_lat": 0.0, "lon": -76.959894}, {"is_reserved": 0, "rental_uris": {"ios": "https://dc.lft.to/lastmile_qr_scan", "android": "https://dc.lft.to/lastmile_qr_scan"}, "name": "e2f768e17f8828abc11295e7e03895ed", "bike_id": "e2f768e17f8828abc11295e7e03895ed", "type": "electric_scooter", "lat": 38.907964, "fusion_lon": 0.0, "is_disabled": 0, "fusion_lat": 0.0, "lon": -77.03677583333334}, {"is_reserved": 0, "rental_uris": {"ios": "https://dc.lft.to/lastmile_qr_scan", "android": "https://dc.lft.to/lastmile_qr_scan"}, "name": "c6b6e9fab57f4c433a335f25e6da2ba2", "bike_id": "c6b6e9fab57f4c433a335f25e6da2ba2", "type": "electric_scooter", "lat": 38.88494633333333, "fusion_lon": 0.0, "is_disabled": 0, "fusion_lat": 0.0, "lon": -77.00715816666667}, {"is_reserved": 0, "rental_uris": {"ios": "https://dc.lft.to/lastmile_qr_scan", "android": "https://dc.lft.to/lastmile_qr_scan"}, "name": "b08c806d62c0924ed9c9e7d45b203fdc", "bike_id": "b08c806d62c0924ed9c9e7d45b203fdc", "type": "electric_scooter", "lat": 38.9416905, "fusion_lon": 0.0, "is_disabled": 0, "fusion_lat": 0.0, "lon": -77.02536466666666}, {"is_reserved": 0, "rental_uris": {"ios": "https://dc.lft.to/lastmile_qr_scan", "android": "https://dc.lft.to/lastmile_qr_scan"}, "name": "587ab87e93b1f9b6ab2be0253bea729b", "bike_id": "587ab87e93b1f9b6ab2be0253bea729b", "type": "electric_scooter", "lat": 38.87491416666667, "fusion_lon": 0.0, "is_disabled": 0, "fusion_lat": 0.0, "lon": -77.00176733333333}, {"is_reserved": 0, "rental_uris": {"ios": "https://dc.lft.to/lastmile_qr_scan", "android": "https://dc.lft.to/lastmile_qr_scan"}, "name": "e78d1a43a8f2f0b2fdb3cae36bddcd8d", "bike_id": "e78d1a43a8f2f0b2fdb3cae36bddcd8d", "type": "electric_scooter", "lat": 38.8982985, "fusion_lon": 0.0, "is_disabled": 0, "fusion_lat": 0.0, "lon": -77.03159416666666}, {"is_reserved": 0, "rental_uris": {"ios": "https://dc.lft.to/lastmile_qr_scan", "android": "https://dc.lft.to/lastmile_qr_scan"},