{"data": {"bikes": [{"name": "19d909eee5209d805a316b7fbfe606ea", "fusion_lat": 0.0, "type": "electric_scooter", "lat": 38.918449333333335, "is_reserved": 0, "is_disabled": 0, "fusion_lon": 0.0, "bike_id": "19d909eee5209d805a316b7fbfe606ea", "lon": -77.04450983333334, "rental_uris": {"ios": "https://dc.lft.to/lastmile_qr_scan", "android": "https://dc.lft.to/lastmile_qr_scan"}}, {"name": "c81f4da4f10e096a7321b1680f876fc4", "fusion_lat": 0.0, "type": "electric_scooter", "lat": 38.91724266666667, "is_reserved": 0, "is_disabled": 0, "fusion_lon": 0.0, "bike_id": "c81f4da4f10e096a7321b1680f876fc4", "lon": -77.00010116666667, "rental_uris": {"ios": "https://dc.lft.to/lastmile_qr_scan", "android": "https://dc.lft.to/lastmile_qr_scan"}}, {"name": "8e7bfde9ce7cc042ab5089d7457d70bb", "fusion_lat": 0.0, "type": "electric_scooter", "lat": 38.898265333333335, "is_reserved": 0, "is_disabled": 0, "fusion_lon": 0.0, "bike_id": "8e7bfde9ce7cc042ab5089d7457d70bb", "lon": -77.03346316666666, "rental_uris": {"ios": "https://dc.lft.to/lastmile_qr_scan", "android": "https://dc.lft.to/lastmile_qr_scan"}}, {"name": "2c64099e38ef74903d6e7e7268667362", "fusion_lat": 0.0, "type": "electric_scooter", "lat": 38.90011883333333, "is_reserved": 0, "is_disabled": 0, "fusion_lon": 0.0, "bike_id": "2c64099e38ef74903d6e7e7268667362", "lon": -77.04499116666666, "rental_uris": {"ios": "https://dc.lft.to/lastmile_qr_scan", "android": "https://dc.lft.to/lastmile_qr_scan"}}, {"name": "9ad27ab5862e51053bb826b5a2148708", "fusion_lat": 0.0, "type": "electric_scooter", "lat": 38.919083666666666, "is_reserved": 0, "is_disabled": 0, "fusion_lon": 0.0, "bike_id": "9ad27ab5862e51053bb826b5a2148708", "lon": -77.02134016666666, "rental_uris": {"ios": "https://dc.lft.to/lastmile_qr_scan", "android": "https://dc.lft.to/lastmile_qr_scan"}}, {"name": "f530a14590dfba5ae88509ff96eb5dc1", "fusion_lat": 0.0, "type": "electric_scooter", "lat": 38.90343283333333, "is_reserved": 0, "is_disabled": 0, "fusion_lon": 0.0, "bike_id": "f530a14590dfba5ae88509ff96eb5dc1", "lon": -76.97566366666666, "rental_uris": {"ios": "https://dc.lft.to/lastmile_qr_scan", "android": "https://dc.lft.to/lastmile_qr_scan"}}, {"name": "7b9abef0b77172d201c265a4e6bda2e0", "fusion_lat": 0.0, "type": "electric_scooter", "lat": 38.911086, "is_reserved": 0, "is_disabled": 0, "fusion_lon": 0.0, "bike_id": "7b9abef0b77172d201c265a4e6bda2e0", "lon": -77.0314565, "rental_uris": {"ios": "https://dc.lft.to/lastmile_qr_scan", "android": "https://dc.lft.to/lastmile_qr_scan"}}, {"name": "20ef439ef4d12c0d86efbc41db79fa89", "fusion_lat": 0.0, "type": "electric_scooter", "lat": 38.8800315, "is_reserved": 0, "is_disabled": 0, "fusion_lon": 0.0, "bike_id": "20ef439ef4d12c0d86efbc41db79fa89", "lon": -76.98544866666667, "rental_uris": {"ios": "https://dc.lft.to/lastmile_qr_scan", "android": "https://dc.lft.to/lastmile_qr_scan"}}, {"name": "9d0fd6180df55257b777bf5a1b950bb5", "fusion_lat": 0.0, "type": "electric_scooter", "lat": 38.90950183333333, "is_reserved": 0, "is_disabled": 0, "fusion_lon": 0.0, "bike_id": "9d0fd6180df55257b777bf5a1b950bb5", "lon": -77.03865616666667, "rental_uris": {"ios": "https://dc.lft.to/lastmile_qr_scan", "android": "https://dc.lft.to/lastmile_qr_scan"}}, {"name": "bd0d90b35c01ad550dc4d202c1e5fd27", "fusion_lat": 0.0, "type": "electric_scooter", "lat": 38.92479866666667, "is_reserved": 0, "is_disabled": 0, "fusion_lon": 0.0, "bike_id": "bd0d90b35c01ad550dc4d202c1e5fd27", "lon": -77.05215483333333, "rental_uris": {"ios": "https://dc.lft.to/lastmile_qr_scan", "android": "https://dc.lft.to/lastmile_qr_scan"}}, {"name": "ceac88358c7cf0cb9a5706b0004d2ef1", "fusion_lat": 0.0, "type": "electric_scooter", "lat": 38.88515616666667, "is_reserved": 0, "is_disabled": 0, "fusion_lon": 0.0, "bike_id": "ceac88358c7cf0cb9a5706b0004d2ef1", "lon": -77.0334535, "rental_uris": {"ios": "https://dc.lft.to/lastmile_qr_scan", "android": "https://dc.lft.to/lastmile_qr_scan"}}, {"name": "f1db67405e889e00cc75997355e76437", "fusion_lat": 0.0, "type": "electric_scooter", "lat": 38.9174685, "is_reserved": 0, "is_disabled": 0, "fusion_lon": 0.0, "bike_id": "f1db67405e889e00cc75997355e76437", "lon": -77.03640233333333, "rental_uris": {"ios": "https://dc.lft.to/lastmile_qr_scan", "android": "https://dc.lft.to/lastmile_qr_scan"}}, {"name": "a6bc3f0b6636e90954137b34e4755b42", "fusion_lat": 0.0, "type": "electric_scooter", "lat": 38.91873116666667, "is_reserved": 0, "is_disabled": 0, "fusion_lon": 0.0, "bike_id": "a6bc3f0b6636e90954137b34e4755b42", "lon": -76.96544583333333, "rental_uris": {"ios": "https://dc.lft.to/lastmile_qr_scan", "android": "https://dc.lft.to/lastmile_qr_scan"}}, {"name": "dec10b606540b01a79b2e04c6d01a06c", "fusion_lat": 0.0, "type": "electric_bike", "lat": 39.0268115, "is_reserved": 0, "is_disabled": 0, "fusion_lon": 0.0, "bike_id": "dec10b606540b01a79b2e04c6d01a06c", "lon": -77.125989, "rental_uris": {"ios": "https://dc.lft.to/lastmile_qr_scan", "android": "https://dc.lft.to/lastmile_qr_scan"}}, {"name": "431c116eb5a4124954b3ac8ff3354828", "fusion_lat": 0.0, "type": "electric_scooter", "lat": 38.936352, "is_reserved": 0, "is_disabled": 0, "fusion_lon": 0.0, "bike_id": "431c116eb5a4124954b3ac8ff3354828", "lon": -77.02056783333333, "rental_uris": {"ios": "https://dc.lft.to/lastmile_qr_scan", "android": "https://dc.lft.to/lastmile_qr_scan"}}, {"name": "782b53f960fc825a0e4aca85457c02c0", "fusion_lat": 0.0, "type": "electric_scooter", "lat": 38.8990015, "is_reserved": 0, "is_disabled": 0, "fusion_lon": 0.0, "bike_id": "782b53f960fc825a0e4aca85457c02c0", "lon": -77.03274916666666, "rental_uris": {"ios": "https://dc.lft.to/lastmile_qr_scan", "android": "https://dc.lft.to/lastmile_qr_scan"}}, {"name": "e20db9c94088b9b04a59e993603ed491", "fusion_lat": 0.0, "type": "electric_bike", "lat": 38.85430866666667, "is_reserved": 0, "is_disabled": 0, "fusion_lon": 0.0, "bike_id": "e20db9c94088b9b04a59e993603ed491", "lon": -76.909687, "rental_uris": {"ios": "https://dc.lft.to/lastmile_qr_scan", "android": "https://dc.lft.to/lastmile_qr_scan"}}, {"name": "5d2816d29639ed27e57374861dd07328", "fusion_lat": 0.0, "type": "electric_scooter", "lat": 38.89522, "is_reserved": 0, "is_disabled": 0, "fusion_lon": 0.0, "bike_id": "5d2816d29639ed27e57374861dd07328", "lon": -76.94890416666667, "rental_uris": {"ios": "https://dc.lft.to/lastmile_qr_scan", "android": "https://dc.lft.to/lastmile_qr_scan"}}, {"name": "d974ff7acc52d0384765cc8f91369bcf", "fusion_lat": 0.0, "type": "electric_bike", "lat": 38.81050116666667, "is_reserved": 0, "is_disabled": 0, "fusion_lon": 0.0, "bike_id": "d974ff7acc52d0384765cc8f91369bcf", "lon": -77.08512816666666, "rental_uris": {"ios": "https://dc.lft.to/lastmile_qr_scan", "android": "https://dc.lft.to/lastmile_qr_scan"}}, {"name": "10b5073ea62c221e4ea61edc5a475f44", "fusion_lat": 0.0, "type": "electric_scooter", "lat": 38.90199483333333, "is_reserved": 0, "is_disabled": 0, "fusion_lon": 0.0, "bike_id": "10b5073ea62c221e4ea61edc5a475f44", "lon": -77.0217595, "rental_uris": {"ios": "https://dc.lft.to/lastmile_qr_scan", "android": "https://dc.lft.to/lastmile_qr_scan"}}, {"name": "d275e6f44d47dae99c736fdb69aa4e8d", "fusion_lat": 0.0, "type": "electric_scooter", "lat": 38.90025766666667, "is_reserved": 0, "is_disabled": 0, "fusion_lon": 0.0, "bike_id": "d275e6f44d47dae99c736fdb69aa4e8d", "lon": -77.002039, "rental_uris": {"ios": "https://dc.lft.to/lastmile_qr_scan", "android": "https://dc.lft.to/lastmile_qr_scan"}}, {"name": "021c5fcc71d78c800d758e7e211fa3ed", "fusion_lat": 0.0, "type": "electric_scooter", "lat": 38.89351966666667, "is_reserved": 0, "is_disabled": 0, "fusion_lon": 0.0, "bike_id": "021c5fcc71d78c800d758e7e211fa3ed", "lon": -77.003368, "rental_uris": {"ios": "https://dc.lft.to/lastmile_qr_scan", "android": "https://dc.lft.to/lastmile_qr_scan"}}, {"name": "cea76014b12c7b6a4373be5f55ef297a", "fusion_lat": 0.0, "type": "electric_scooter", "lat": 38.9126215, "is_reserved": 0, "is_disabled": 0, "fusion_lon": 0.0, "bike_id": "cea76014b12c7b6a4373be5f55ef297a", "lon": -77.03148016666667, "rental_uris": {"ios": "https://dc.lft.to/lastmile_qr_scan", "android": "https://dc.lft.to/lastmile_qr_scan"}}, {"name": "551e5513c97802fa924700d8b211231e", "fusion_lat": 0.0, "type": "electric_scooter", "lat": 38.93532866666666, "is_reserved": 0, "is_disabled": 0, "fusion_lon": 0.0, "bike_id": "551e5513c97802fa924700d8b211231e", "lon": -77.034032, "rental_uris": {"ios": "https://dc.lft.to/lastmile_qr_scan", "android": "https://dc.lft.to/lastmile_qr_scan"}}, {"name": "a4dff8346e4abf15bcdc381c8bff0fb4", "fusion_lat": 0.0, "type": "electric_scooter", "lat": 38.9042635, "is_reserved": 0, "is_disabled": 0, "fusion_lon": 0.0, "bike_id": "a4dff8346e4abf15bcdc381c8bff0fb4", "lon": -77.05340716666667, "rental_uris": {"ios": "https://dc.lft.to/lastmile_qr_scan", "android": "https://dc.lft.to/lastmile_qr_scan"}}, {"name": "a0d9d30fe22a55f581e2a9bbb63e7bd7", "fusion_lat": 0.0, "type": "electric_scooter", "lat": 38.959033166666664, "is_reserved": 0, "is_disabled": 0, "fusion_lon": 0.0, "bike_id": "a0d9d30fe22a55f581e2a9bbb63e7bd7", "lon": -77.08073233333333, "rental_uris": {"ios": "https://dc.lft.to/lastmile_qr_scan", "android": "https://dc.lft.to/lastmile_qr_scan"}}, {"name": "31dfe773a28b8d54e1f9786c91d9c2e1", "fusion_lat": 0.0, "type": "electric_scooter", "lat": 38.903023166666664, "is_reserved": 0, "is_disabled": 0, "fusion_lon": 0.0, "bike_id": "31dfe773a28b8d54e1f9786c91d9c2e1", "lon": -77.02365766666667, "rental_uris": {"ios": "https://dc.lft.to/lastmile_qr_scan", "android": "https://dc.lft.to/lastmile_qr_scan"}}, {"name": "af95062727c3d60d7738a6597ce9b661", "fusion_lat": 0.0, "type": "electric_scooter", "lat": 38.8952895, "is_reserved": 0, "is_disabled": 0, "fusion_lon": 0.0, "bike_id": "af95062727c3d60d7738a6597ce9b661", "lon": -77.0320765, "rental_uris": {"ios": "https://dc.lft.to/lastmile_qr_scan", "android": "https://dc.lft.to/lastmile_qr_scan"}}, {"name": "782cd4aa22319511f8636522a574b510", "fusion_lat": 0.0, "type": "electric_scooter", "lat": 38.90283, "is_reserved": 0, "is_disabled": 0, "fusion_lon": 0.0, "bike_id": "782cd4aa22319511f8636522a574b510", "lon": -77.036478, "rental_uris": {"ios": "https://dc.lft.to/lastmile_qr_scan", "android": "https://dc.lft.to/lastmile_qr_scan"}}, {"name": "232bfdbd0dde4c5f6fa80c87db8d60f9", "fusion_lat": 0.0, "type": "electric_scooter", "lat": 38.857853, "is_reserved": 0, "is_disabled": 0, "fusion_lon": 0.0, "bike_id": "232bfdbd0dde4c5f6fa80c87db8d60f9", "lon": -76.99092483333334, "rental_uris": {"ios": "https://dc.lft.to/lastmile_qr_scan", "android": "https://dc.lft.to/lastmile_qr_scan"}}, {"name": "025e9ebbab935bd11b53c3a46c580fe5", "fusion_lat": 0.0, "type": "electric_scooter", "lat": 38.9564425, "is_reserved": 0, "is_disabled": 0, "fusion_lon": 0.0, "bike_id": "025e9ebbab935bd11b53c3a46c580fe5", "lon": -77.03285616666666, "rental_uris": {"ios": "https://dc.lft.to/lastmile_qr_scan", "android": "https://dc.lft.to/lastmile_qr_scan"}}, {"name": "c66c0d6a6e189e925bcf7d1889965b45", "fusion_lat": 0.0, "type": "electric_bike", "lat": 39.0037495, "is_reserved": 0, "is_disabled": 0, "fusion_lon": 0.0, "bike_id": "c66c0d6a6e189e925bcf7d1889965b45", "lon": -77.01289566666667, "rental_uris": {"ios": "https://dc.lft.to/lastmile_qr_scan", "android": "https://dc.lft.to/lastmile_qr_scan"}}, {"name": "40f89ec35edac8f0959a87aafce2dc21", "fusion_lat": 0.0, "type": "electric_scooter", "lat": 38.915741, "is_reserved": 0, "is_disabled": 0, "fusion_lon": 0.0, "bike_id": "40f89ec35edac8f0959a87aafce2dc21", "lon": -77.03190266666667, "rental_uris": {"ios": "https://dc.lft.to/lastmile_qr_scan", "android": "https://dc.lft.to/lastmile_qr_scan"}}, {"name": "0ba2da143316c2230d96dbb29cc4fc9c", "fusion_lat": 0.0, "type": "electric_scooter", "lat": 38.92482733333333, "is_reserved": 0, "is_disabled": 0, "fusion_lon": 0.0, "bike_id": "0ba2da143316c2230d96dbb29cc4fc9c", "lon": -77.052151, "rental_uris": {"ios": "https://dc.lft.to/lastmile_qr_scan", "android": "https://dc.lft.to/lastmile_qr_scan"}}, {"name": "f2c9c31aaf3617f95dcc6d80d61f93f1", "fusion_lat": 0.0, "type": "electric_scooter", "lat": 38.89426566666667, "is_reserved": 0, "is_disabled": 0, "fusion_lon": 0.0, "bike_id": "f2c9c31aaf3617f95dcc6d80d61f93f1", "lon": -76.93262283333334, "rental_uris": {"ios": "https://dc.lft.to/lastmile_qr_scan", "android": "https://dc.lft.to/lastmile_qr_scan"}}, {"name": "0ad32128441aaf54dc83100d0e202fbd", "fusion_lat": 0.0, "type": "electric_scooter", "lat": 38.90273083333334, "is_reserved": 0, "is_disabled": 0, "fusion_lon": 0.0, "bike_id": "0ad32128441aaf54dc83100d0e202fbd", "lon": -77.03829616666667, "rental_uris": {"ios": "https://dc.lft.to/lastmile_qr_scan", "android": "https://dc.lft.to/lastmile_qr_scan"}}, {"name": "d849983929a696c894144e36a56b5d82", "fusion_lat": 0.0, "type": "electric_scooter", "lat": 38.919784666666665, "is_reserved": 0, "is_disabled": 0, "fusion_lon": 0.0, "bike_id": "d849983929a696c894144e36a56b5d82", "lon": -77.04159666666666, "rental_uris": {"ios": "https://dc.lft.to/lastmile_qr_scan", "android": "https://dc.lft.to/lastmile_qr_scan"}}, {"name": "068fb8976b6df319a0b6ba11893ea56a", "fusion_lat": 0.0, "type": "electric_scooter", "lat": 38.90269, "is_reserved": 0, "is_disabled": 0, "fusion_lon": 0.0, "bike_id": "068fb8976b6df319a0b6ba11893ea56a", "lon": -77.03831466666666, "rental_uris": {"ios": "https://dc.lft.to/lastmile_qr_scan", "android": "https://dc.lft.to/lastmile_qr_scan"}}, {"name": "4fd407f53e62d3f5f7443ac2121966db", "fusion_lat": 0.0, "type": "electric_scooter", "lat": 38.904276833333334, "is_reserved": 0, "is_disabled": 0, "fusion_lon": 0.0, "bike_id": "4fd407f53e62d3f5f7443ac2121966db", "lon": -77.05343666666667, "rental_uris": {"ios": "https://dc.lft.to/lastmile_qr_scan", "android": "https://dc.lft.to/lastmile_qr_scan"}}, {"name": "b0f13525a50d0960f821d0473a88526b", "fusion_lat": 0.0, "type": "electric_bike", "lat": 38.852435166666666, "is_reserved": 0, "is_disabled": 0, "fusion_lon": 0.0, "bike_id": "b0f13525a50d0960f821d0473a88526b", "lon": -77.11431383333333, "rental_uris": {"ios": "https://dc.lft.to/lastmile_qr_scan", "android": "https://dc.lft.to/lastmile_qr_scan"}}, {"name": "27d2ccd6704723cd2d6265d74222739c", "fusion_lat": 0.0, "type": "electric_scooter", "lat": 38.922322333333334, "is_reserved": 0, "is_disabled": 0, "fusion_lon": 0.0, "bike_id": "27d2ccd6704723cd2d6265d74222739c", "lon": -77.04247633333334, "rental_uris": {"ios": "https://dc.lft.to/lastmile_qr_scan", "android": "https://dc.lft.to/lastmile_qr_scan"}}, {"name": "af3637564ccbcd5c48609fe9263012bd", "fusion_lat": 0.0, "type": "electric_scooter", "lat": 38.9586875, "is_reserved": 0, "is_disabled": 0, "fusion_lon": 0.0, "bike_id": "af3637564ccbcd5c48609fe9263012bd", "lon": -77.02049, "rental_uris": {"ios": "https://dc.lft.to/lastmile_qr_scan", "android": "https://dc.lft.to/lastmile_qr_scan"}}, {"name": "9b034d6bf6b1cbb03b89853db7550ce4", "fusion_lat": 0.0, "type": "electric_scooter", "lat": 38.90115516666667, "is_reserved": 0, "is_disabled": 0, "fusion_lon": 0.0, "bike_id": "9b034d6bf6b1cbb03b89853db7550ce4", "lon": -77.04391333333334, "rental_uris": {"ios": "https://dc.lft.to/lastmile_qr_scan", "android": "https://dc.lft.to/lastmile_qr_scan"}}, {"name": "c4ec60972d81f0d7f8525d70a46a50ab", "fusion_lat": 0.0, "type": "electric_scooter", "lat": 38.928654333333334, "is_reserved": 0, "is_disabled": 0, "fusion_lon": 0.0, "bike_id": "c4ec60972d81f0d7f8525d70a46a50ab", "lon": -77.034034, "rental_uris": {"ios": "https://dc.lft.to/lastmile_qr_scan", "android": "https://dc.lft.to/lastmile_qr_scan"}}, {"name": "02793094a94a92f4327ff4a24936e89b", "fusion_lat": 0.0, "type": "electric_scooter", "lat": 38.9070795, "is_reserved": 0, "is_disabled": 0, "fusion_lon": 0.0, "bike_id": "02793094a94a92f4327ff4a24936e89b", "lon": -77.04089133333333, "rental_uris": {"ios": "https://dc.lft.to/lastmile_qr_scan", "android": "https://dc.lft.to/lastmile_qr_scan"}}, {"name": "6d823eda938bb1157dc0f8c191d95a6b", "fusion_lat": 0.0, "type": "electric_scooter", "lat": 38.929039, "is_reserved": 0, "is_disabled": 0, "fusion_lon": 0.0, "bike_id": "6d823eda938bb1157dc0f8c191d95a6b", "lon": -77.02613366666667, "rental_uris": {"ios": "https://dc.lft.to/lastmile_qr_scan", "android": "https://dc.lft.to/lastmile_qr_scan"}}, {"name": "8a0110e974a136df2e240430f9920fde", "fusion_lat": 0.0, "type": "electric_scooter", "lat": 38.90954416666667, "is_reserved": 0, "is_disabled": 0, "fusion_lon": 0.0, "bike_id": "8a0110e974a136df2e240430f9920fde", "lon": -77.04131716666667, "rental_uris": {"ios": "https://dc.lft.to/lastmile_qr_scan", "android": "https://dc.lft.to/lastmile_qr_scan"}}, {"name": "23d4917ae0729197efb76248e66c84ea", "fusion_lat": 0.0, "type": "electric_scooter", "lat": 38.95402583333333, "is_reserved": 0, "is_disabled": 0, "fusion_lon": 0.0, "bike_id": "23d4917ae0729197efb76248e66c84ea", "lon": -77.02745816666666, "rental_uris": {"ios": "https://dc.lft.to/lastmile_qr_scan", "android": "https://dc.lft.to/lastmile_qr_scan"}}, {"name": "17f77a079eb43bd6ab2017b98ae2bf35", "fusion_lat": 0.0, "type": "electric_scooter", "lat": 38.9037625, "is_reserved": 0, "is_disabled": 0, "fusion_lon": 0.0, "bike_id": "17f77a079eb43bd6ab2017b98ae2bf35", "lon": -77.04333433333333, "rental_uris": {"ios": "https://dc.lft.to/lastmile_qr_scan", "android": "https://dc.lft.to/lastmile_qr_scan"}}, {"name": "5cd47090347e34bb9f74f246eb506878", "fusion_lat": 0.0, "type": "electric_scooter", "lat": 38.84286266666667, "is_reserved": 0, "is_disabled": 0, "fusion_lon": 0.0, "bike_id": "5cd47090347e34bb9f74f246eb506878", "lon": -76.999463, "rental_uris": {"ios": "https://dc.lft.to/lastmile_qr_scan", "android": "https://dc.lft.to/lastmile_qr_scan"}}, {"name": "a3eebbbd3f463ef533c52230a34f6f25", "fusion_lat": 0.0, "type": "electric_scooter", "lat": 38.896256, "is_reserved": 0, "is_disabled": 0, "fusion_lon": 0.0, "bike_id": "a3eebbbd3f463ef533c52230a34f6f25", "lon": -77.02675833333333, "rental_uris": {"ios": "https://dc.lft.to/lastmile_qr_scan", "android": "https://dc.lft.to/lastmile_qr_scan"}}, {"name": "bf058655b37bbaaaf67b94571de72b1b", "fusion_lat": 0.0, "type": "electric_scooter", "lat": 38.95921166666667, "is_reserved": 0, "is_disabled": 0, "fusion_lon": 0.0, "bike_id": "bf058655b37bbaaaf67b94571de72b1b", "lon": -77.03322466666667, "rental_uris": {"ios": "https://dc.lft.to/lastmile_qr_scan", "android": "https://dc.lft.to/lastmile_qr_scan"}}, {"name": "2cf297670d5309cbf9d1fd1a1efa93d8", "fusion_lat": 0.0, "type": "electric_scooter", "lat": 38.89769866666666, "is_reserved": 0, "is_disabled": 0, "fusion_lon": 0.0, "bike_id": "2cf297670d5309cbf9d1fd1a1efa93d8", "lon": -77.04785566666666, "rental_uris": {"ios": "https://dc.lft.to/lastmile_qr_scan", "android": "https://dc.lft.to/lastmile_qr_scan"}}, {"name": "2294b3425e19b539ac38ce0a5fbf12e4", "fusion_lat": 0.0, "type": "electric_scooter", "lat": 38.9004085, "is_reserved": 0, "is_disabled": 0, "fusion_lon": 0.0, "bike_id": "2294b3425e19b539ac38ce0a5fbf12e4", "lon": -76.9191455, "rental_uris": {"ios": "https://dc.lft.to/lastmile_qr_scan", "android": "https://dc.lft.to/lastmile_qr_scan"}}, {"name": "0dd541c33015835f55b0dbe838b640de", "fusion_lat": 0.0, "type": "electric_scooter", "lat": 38.89802783333333, "is_reserved": 0, "is_disabled": 0, "fusion_lon": 0.0, "bike_id": "0dd541c33015835f55b0dbe838b640de", "lon": -76.99496733333334, "rental_uris": {"ios": "https://dc.lft.to/lastmile_qr_scan", "android": "https://dc.lft.to/lastmile_qr_scan"}}, {"name": "3a1e42a641602b60169da577e7e6f61d", "fusion_lat": 0.0, "type": "electric_scooter", "lat": 38.90331883333333, "is_reserved": 0, "is_disabled": 0, "fusion_lon": 0.0, "bike_id": "3a1e42a641602b60169da577e7e6f61d", "lon": -77.03842966666667, "rental_uris": {"ios": "https://dc.lft.to/lastmile_qr_scan", "android": "https://dc.lft.to/lastmile_qr_scan"}}, {"name": "09c3f06af8a96f70a2155b0546c55b28", "fusion_lat": 0.0, "type": "electric_scooter", "lat": 38.906724833333335, "is_reserved": 0, "is_disabled": 0, "fusion_lon": 0.0, "bike_id": "09c3f06af8a96f70a2155b0546c55b28", "lon": -77.03826016666666, "rental_uris": {"ios": "https://dc.lft.to/lastmile_qr_scan", "android": "https://dc.lft.to/lastmile_qr_scan"}}, {"name": "a0ab6e1b90c7925a650ad055c89e3770", "fusion_lat": 0.0, "type": "electric_scooter", "lat": 38.923405833333334, "is_reserved": 0, "is_disabled": 0, "fusion_lon": 0.0, "bike_id": "a0ab6e1b90c7925a650ad055c89e3770", "lon": -77.0509965, "rental_uris": {"ios": "https://dc.lft.to/lastmile_qr_scan", "android": "https://dc.lft.to/lastmile_qr_scan"}}, {"name": "84f36d311bafebc131a29dfd67fd52a8", "fusion_lat": 0.0, "type": "electric_scooter", "lat": 38.862191333333335, "is_reserved": 0, "is_disabled": 0, "fusion_lon": 0.0, "bike_id": "84f36d311bafebc131a29dfd67fd52a8", "lon": -76.9948635, "rental_uris": {"ios": "https://dc.lft.to/lastmile_qr_scan", "android": "https://dc.lft.to/lastmile_qr_scan"}}, {"name": "f58d69e755d6f0d170cf214e18ae9894", "fusion_lat": 0.0, "type": "electric_scooter", "lat": 38.905634166666665, "is_reserved": 0, "is_disabled": 0, "fusion_lon": 0.0, "bike_id": "f58d69e755d6f0d170cf214e18ae9894", "lon": -77.02213666666667, "rental_uris": {"ios": "https://dc.lft.to/lastmile_qr_scan", "android": "https://dc.lft.to/lastmile_qr_scan"}}, {"name": "bce0729df7c6d2cf206a0f75ddafef05", "fusion_lat": 0.0, "type": "electric_bike", "lat": 38.9103455, "is_reserved": 0, "is_disabled": 0, "fusion_lon": 0.0, "bike_id": "bce0729df7c6d2cf206a0f75ddafef05", "lon": -77.034381, "rental_uris": {"ios": "https://dc.lft.to/lastmile_qr_scan", "android": "https://dc.lft.to/lastmile_qr_scan"}}, {"name": "74a1584c80029d9c1e3f9b53e6e41aa7", "fusion_lat": 0.0, "type": "electric_scooter", "lat": 38.90647333333333, "is_reserved": 0, "is_disabled": 0, "fusion_lon": 0.0, "bike_id": "74a1584c80029d9c1e3f9b53e6e41aa7", "lon": -77.02500116666667, "rental_uris": {"ios": "https://dc.lft.to/lastmile_qr_scan", "android": "https://dc.lft.to/lastmile_qr_scan"}}, {"name": "a4c5228f7865e50b8e4554f2c8392bf0", "fusion_lat": 0.0, "type": "electric_scooter", "lat": 38.9033215, "is_reserved": 0, "is_disabled": 0, "fusion_lon": 0.0, "bike_id": "a4c5228f7865e50b8e4554f2c8392bf0", "lon": -76.99842616666666, "rental_uris": {"ios": "https://dc.lft.to/lastmile_qr_scan", "android": "https://dc.lft.to/lastmile_qr_scan"}}, {"name": "f17ca29468e866d4c75d7d15afb4ddfd", "fusion_lat": 0.0, "type": "electric_scooter", "lat": 38.9021975, "is_reserved": 0, "is_disabled": 0, "fusion_lon": 0.0, "bike_id": "f17ca29468e866d4c75d7d15afb4ddfd", "lon": -77.04403633333334, "rental_uris": {"ios": "https://dc.lft.to/lastmile_qr_scan", "android": "https://dc.lft.to/lastmile_qr_scan"}}, {"name": "9e46ed35485d9edcb50ab3cb67b38ac6", "fusion_lat": 0.0, "type": "electric_scooter", "lat": 38.93883916666667, "is_reserved": 0, "is_disabled": 0, "fusion_lon": 0.0, "bike_id": "9e46ed35485d9edcb50ab3cb67b38ac6", "lon": -77.02459, "rental_uris": {"ios": "https://dc.lft.to/lastmile_qr_scan", "android": "https://dc.lft.to/lastmile_qr_scan"}}, {"name": "13ad9f2c73959d947ed8f1d990e4f863", "fusion_lat": 0.0, "type": "electric_scooter", "lat": 38.895322166666666, "is_reserved": 0, "is_disabled": 0, "fusion_lon": 0.0, "bike_id": "13ad9f2c73959d947ed8f1d990e4f863", "lon": -77.04287583333333, "rental_uris": {"ios": "https://dc.lft.to/lastmile_qr_scan", "android": "https://dc.lft.to/lastmile_qr_scan"}}, {"name": "5d44c8c0503aea2d89c6953a09f4544d", "fusion_lat": 0.0, "type": "electric_scooter", "lat": 38.934123, "is_reserved": 0, "is_disabled": 0, "fusion_lon": 0.0, "bike_id": "5d44c8c0503aea2d89c6953a09f4544d", "lon": -77.0724265, "rental_uris": {"ios": "https://dc.lft.to/lastmile_qr_scan", "android": "https://dc.lft.to/lastmile_qr_scan"}}, {"name": "26c7c601d709bd8c302ccbe56a5d46ee", "fusion_lat": 0.0, "type": "electric_scooter", "lat": 38.899789166666665, "is_reserved": 0, "is_disabled": 0, "fusion_lon": 0.0, "bike_id": "26c7c601d709bd8c302ccbe56a5d46ee", "lon": -77.0315655, "rental_uris": {"ios": "https://dc.lft.to/lastmile_qr_scan", "android": "https://dc.lft.to/lastmile_qr_scan"}}, {"name": "6a35dba972f436e599eccc51ac248b44", "fusion_lat": 0.0, "type": "electric_scooter", "lat": 38.892151, "is_reserved": 0, "is_disabled": 0, "fusion_lon": 0.0, "bike_id": "6a35dba972f436e599eccc51ac248b44", "lon": -77.03092483333333, "rental_uris": {"ios": "https://dc.lft.to/lastmile_qr_scan", "android": "https://dc.lft.to/lastmile_qr_scan"}}, {"name": "489d8202fdf0bfa31637007b386a1bdb", "fusion_lat": 0.0, "type": "electric_scooter", "lat": 38.944390166666665, "is_reserved": 0, "is_disabled": 0, "fusion_lon": 0.0, "bike_id": "489d8202fdf0bfa31637007b386a1bdb", "lon": -77.06350266666666, "rental_uris": {"ios": "https://dc.lft.to/lastmile_qr_scan", "android": "https://dc.lft.to/lastmile_qr_scan"}}, {"name": "ea0507ff109bc7f535fac5d1de04ea43", "fusion_lat": 0.0, "type": "electric_scooter", "lat": 38.89722366666667, "is_reserved": 0, "is_disabled": 0, "fusion_lon": 0.0, "bike_id": "ea0507ff109bc7f535fac5d1de04ea43", "lon": -77.0311315, "rental_uris": {"ios": "https://dc.lft.to/lastmile_qr_scan", "android": "https://dc.lft.to/lastmile_qr_scan"}}, {"name": "5fd84d07a337a63019d0adf8ba7bf1e2", "fusion_lat": 0.0, "type": "electric_scooter", "lat": 38.906769833333335, "is_reserved": 0, "is_disabled": 0, "fusion_lon": 0.0, "bike_id": "5fd84d07a337a63019d0adf8ba7bf1e2", "lon": -77.010934, "rental_uris": {"ios": "https://dc.lft.to/lastmile_qr_scan", "android": "https://dc.lft.to/lastmile_qr_scan"}}, {"name": "a4f147f449654ec1f18ff642ed87f339", "fusion_lat": 0.0, "type": "electric_bike", "lat": 38.90685083333334, "is_reserved": 0, "is_disabled": 0, "fusion_lon": 0.0, "bike_id": "a4f147f449654ec1f18ff642ed87f339", "lon": -76.95185616666667, "rental_uris": {"ios": "https://dc.lft.to/lastmile_qr_scan", "android": "https://dc.lft.to/lastmile_qr_scan"}}, {"name": "b075f77d5ad3a83cdfccdfe3e09d1d50", "fusion_lat": 0.0, "type": "electric_scooter", "lat": 38.91254983333333, "is_reserved": 0, "is_disabled": 0, "fusion_lon": 0.0, "bike_id": "b075f77d5ad3a83cdfccdfe3e09d1d50", "lon": -77.03839183333334, "rental_uris": {"ios": "https://dc.lft.to/lastmile_qr_scan", "android": "https://dc.lft.to/lastmile_qr_scan"}}, {"name": "9c07cdeb2b2ad6ec20d4a3a73ad4d823", "fusion_lat": 0.0, "type": "electric_scooter", "lat": 38.903519, "is_reserved": 0, "is_disabled": 0, "fusion_lon": 0.0, "bike_id": "9c07cdeb2b2ad6ec20d4a3a73ad4d823", "lon": -77.01100666666666, "rental_uris": {"ios": "https://dc.lft.to/lastmile_qr_scan", "android": "https://dc.lft.to/lastmile_qr_scan"}}, {"name": "abc345a2bd120aff381c60fec3b9dbea", "fusion_lat": 0.0, "type": "electric_scooter", "lat": 38.90750333333333, "is_reserved": 0, "is_disabled": 0, "fusion_lon": 0.0, "bike_id": "abc345a2bd120aff381c60fec3b9dbea", "lon": -77.03214233333334, "rental_uris": {"ios": "https://dc.lft.to/lastmile_qr_scan", "android": "https://dc.lft.to/lastmile_qr_scan"}}, {"name": "8f93be47d04969bc391584b610a9c51e", "fusion_lat": 0.0, "type": "electric_scooter", "lat": 38.887297, "is_reserved": 0, "is_disabled": 0, "fusion_lon": 0.0, "bike_id": "8f93be47d04969bc391584b610a9c51e", "lon": -77.02208583333334, "rental_uris": {"ios": "https://dc.lft.to/lastmile_qr_scan", "android": "https://dc.lft.to/lastmile_qr_scan"}}, {"name": "328ff9f0e852a7a9124b26f15dac05e9", "fusion_lat": 0.0, "type": "electric_bike", "lat": 38.80224, "is_reserved": 0, "is_disabled": 0, "fusion_lon": 0.0, "bike_id": "328ff9f0e852a7a9124b26f15dac05e9", "lon": -77.0791595, "rental_uris": {"ios": "https://dc.lft.to/lastmile_qr_scan", "android": "https://dc.lft.to/lastmile_qr_scan"}}, {"name": "1ae8b9e3dbce00d8897c98640f93fa7f", "fusion_lat": 0.0, "type": "electric_scooter", "lat": 38.9073605, "is_reserved": 0, "is_disabled": 0, "fusion_lon": 0.0, "bike_id": "1ae8b9e3dbce00d8897c98640f93fa7f", "lon": -77.046586, "rental_uris": {"ios": "https://dc.lft.to/lastmile_qr_scan", "android": "https://dc.lft.to/lastmile_qr_scan"}}, {"name": "e326aaad4f57886cee3bba3d3c45be33", "fusion_lat": 0.0, "type": "electric_scooter", "lat": 38.90267516666667, "is_reserved": 0, "is_disabled": 0, "fusion_lon": 0.0, "bike_id": "e326aaad4f57886cee3bba3d3c45be33", "lon": -77.01538216666667, "rental_uris": {"ios": "https://dc.lft.to/lastmile_qr_scan", "android": "https://dc.lft.to/lastmile_qr_scan"}}, {"name": "7584377bb47d6c772e4695a5127f4896", "fusion_lat": 0.0, "type": "electric_scooter", "lat": 38.8955365, "is_reserved": 0, "is_disabled": 0, "fusion_lon": 0.0, "bike_id": "7584377bb47d6c772e4695a5127f4896", "lon": -77.011075, "rental_uris": {"ios": "https://dc.lft.to/lastmile_qr_scan", "android": "https://dc.lft.to/lastmile_qr_scan"}}, {"name": "d0bd5aa946cf460daf03a74543a9a840", "fusion_lat": 0.0, "type": "electric_scooter", "lat": 38.9052155, "is_reserved": 0, "is_disabled": 0, "fusion_lon": 0.0, "bike_id": "d0bd5aa946cf460daf03a74543a9a840", "lon": -77.04978733333333, "rental_uris": {"ios": "https://dc.lft.to/lastmile_qr_scan", "android": "https://dc.lft.to/lastmile_qr_scan"}}, {"name": "62637326aaf378059c71a3151e9929e1", "fusion_lat": 0.0, "type": "electric_scooter", "lat": 38.92315116666666, "is_reserved": 0, "is_disabled": 0, "fusion_lon": 0.0, "bike_id": "62637326aaf378059c71a3151e9929e1", "lon": -77.03952166666667, "rental_uris": {"ios": "https://dc.lft.to/lastmile_qr_scan", "android": "https://dc.lft.to/lastmile_qr_scan"}}, {"name": "734647d79eee7d29e4e6e4fbbb1fa64f", "fusion_lat": 0.0, "type": "electric_scooter", "lat": 38.905296, "is_reserved": 0, "is_disabled": 0, "fusion_lon": 0.0, "bike_id": "734647d79eee7d29e4e6e4fbbb1fa64f", "lon": -77.0628415, "rental_uris": {"ios": "https://dc.lft.to/lastmile_qr_scan", "android": "https://dc.lft.to/lastmile_qr_scan"}}, {"name": "473017f67af32a3152fcdc91031a8767", "fusion_lat": 0.0, "type": "electric_scooter", "lat": 38.950835833333336, "is_reserved": 0, "is_disabled": 0, "fusion_lon": 0.0, "bike_id": "473017f67af32a3152fcdc91031a8767", "lon": -77.02838983333334, "rental_uris": {"ios": "https://dc.lft.to/lastmile_qr_scan", "android": "https://dc.lft.to/lastmile_qr_scan"}}, {"name": "eb46db884a7d33a2218a2c23c808dd0c", "fusion_lat": 0.0, "type": "electric_scooter", "lat": 38.905043, "is_reserved": 0, "is_disabled": 0, "fusion_lon": 0.0, "bike_id": "eb46db884a7d33a2218a2c23c808dd0c", "lon": -77.06937233333333, "rental_uris": {"ios": "https://dc.lft.to/lastmile_qr_scan", "android": "https://dc.lft.to/lastmile_qr_scan"}}, {"name": "6b1dfd8205b04b8e2470a06e2c495210", "fusion_lat": 0.0, "type": "electric_scooter", "lat": 38.892422, "is_reserved": 0, "is_disabled": 0, "fusion_lon": 0.0, "bike_id": "6b1dfd8205b04b8e2470a06e2c495210", "lon": -77.03183266666667, "rental_uris": {"ios": "https://dc.lft.to/lastmile_qr_scan", "android": "https://dc.lft.to/lastmile_qr_scan"}}, {"name": "6572ec748afcc9ee5e09759eb572080b", "fusion_lat": 0.0, "type": "electric_scooter", "lat": 38.938642333333334, "is_reserved": 0, "is_disabled": 0, "fusion_lon": 0.0, "bike_id": "6572ec748afcc9ee5e09759eb572080b", "lon": -77.03213883333333, "rental_uris": {"ios": "https://dc.lft.to/lastmile_qr_scan", "android": "https://dc.lft.to/lastmile_qr_scan"}}, {"name": "4ccf134b06cab993a0c5621e77702303", "fusion_lat": 0.0, "type": "electric_scooter", "lat": 38.90551683333333, "is_reserved": 0, "is_disabled": 0, "fusion_lon": 0.0, "bike_id": "4ccf134b06cab993a0c5621e77702303", "lon": -77.0380105, "rental_uris": {"ios": "https://dc.lft.to/lastmile_qr_scan", "android": "https://dc.lft.to/lastmile_qr_scan"}}, {"name": "4990a3de78c70f20189651cbf490aa3e", "fusion_lat": 0.0, "type": "electric_scooter", "lat": 38.91110066666667, "is_reserved": 0, "is_disabled": 0, "fusion_lon": 0.0, "bike_id": "4990a3de78c70f20189651cbf490aa3e", "lon": -77.0106155, "rental_uris": {"ios": "https://dc.lft.to/lastmile_qr_scan", "android": "https://dc.lft.to/lastmile_qr_scan"}}, {"name": "570c4e52c042448035c5123b28fc840a", "fusion_lat": 0.0, "type": "electric_scooter", "lat": 38.90592016666667, "is_reserved": 0, "is_disabled": 0, "fusion_lon": 0.0, "bike_id": "570c4e52c042448035c5123b28fc840a", "lon": -77.00351916666666, "rental_uris": {"ios": "https://dc.lft.to/lastmile_qr_scan", "android": "https://dc.lft.to/lastmile_qr_scan"}}, {"name": "a06aed120406ddbecf3cfee3605810d6", "fusion_lat": 0.0, "type": "electric_scooter", "lat": 38.899830333333334, "is_reserved": 0, "is_disabled": 0, "fusion_lon": 0.0, "bike_id": "a06aed120406ddbecf3cfee3605810d6", "lon": -77.02701683333333, "rental_uris": {"ios": "https://dc.lft.to/lastmile_qr_scan", "android": "https://dc.lft.to/lastmile_qr_scan"}}, {"name": "38a93d4ff206f7f1837406f6042d4190", "fusion_lat": 0.0, "type": "electric_scooter", "lat": 38.956475, "is_reserved": 0, "is_disabled": 0, "fusion_lon": 0.0, "bike_id": "38a93d4ff206f7f1837406f6042d4190", "lon": -77.03289216666667, "rental_uris": {"ios": "https://dc.lft.to/lastmile_qr_scan", "android": "https://dc.lft.to/lastmile_qr_scan"}}, {"name": "7aab60985ded75e75e84a8cf5f448695", "fusion_lat": 0.0, "type": "electric_bike", "lat": 39.0885635, "is_reserved": 0, "is_disabled": 0, "fusion_lon": 0.0, "bike_id": "7aab60985ded75e75e84a8cf5f448695", "lon": -77.17842933333333, "rental_uris": {"ios": "https://dc.lft.to/lastmile_qr_scan", "android": "https://dc.lft.to/lastmile_qr_scan"}}, {"name": "5a22663220c28fab2525e43029fa377e", "fusion_lat": 0.0, "type": "electric_bike", "lat": 39.053568, "is_reserved": 0, "is_disabled": 0, "fusion_lon": 0.0, "bike_id": "5a22663220c28fab2525e43029fa377e", "lon": -77.0472595, "rental_uris": {"ios": "https://dc.lft.to/lastmile_qr_scan", "android": "https://dc.lft.to/lastmile_qr_scan"}}, {"name": "28758a5700fd07856825cbf2fef74409", "fusion_lat": 0.0, "type": "electric_scooter", "lat": 38.89792816666667, "is_reserved": 0, "is_disabled": 0, "fusion_lon": 0.0, "bike_id": "28758a5700fd07856825cbf2fef74409", "lon": -77.02808466666667, "rental_uris": {"ios": "https://dc.lft.to/lastmile_qr_scan", "android": "https://dc.lft.to/lastmile_qr_scan"}}, {"name": "3bd0b40fba27fc4e75b6474ef19b959f", "fusion_lat": 0.0, "type": "electric_bike", "lat": 38.92852233333333, "is_reserved": 0, "is_disabled": 0, "fusion_lon": 0.0, "bike_id": "3bd0b40fba27fc4e75b6474ef19b959f", "lon": -77.2222705, "rental_uris": {"ios": "https://dc.lft.to/lastmile_qr_scan", "android": "https://dc.lft.to/lastmile_qr_scan"}}, {"name": "6d88117ccdc66fe4b6258c1bf3cdc92a", "fusion_lat": 0.0, "type": "electric_scooter", "lat": 38.92737966666667, "is_reserved": 0, "is_disabled": 0, "fusion_lon": 0.0, "bike_id": "6d88117ccdc66fe4b6258c1bf3cdc92a", "lon": -77.01200133333333, "rental_uris": {"ios": "https://dc.lft.to/lastmile_qr_scan", "android": "https://dc.lft.to/lastmile_qr_scan"}}, {"name": "ec35b0fbe4b01324fdddf164e03ceacc", "fusion_lat": 0.0, "type": "electric_scooter", "lat": 38.89861233333333, "is_reserved": 0, "is_disabled": 0, "fusion_lon": 0.0, "bike_id": "ec35b0fbe4b01324fdddf164e03ceacc", "lon": -77.0317745, "rental_uris": {"ios": "https://dc.lft.to/lastmile_qr_scan", "android": "https://dc.lft.to/lastmile_qr_scan"}}, {"name": "a032747408b737dee88e8c5b6ab55353", "fusion_lat": 0.0, "type": "electric_scooter", "lat": 38.86535333333333, "is_reserved": 0, "is_disabled": 0, "fusion_lon": 0.0, "bike_id": "a032747408b737dee88e8c5b6ab55353", "lon": -76.98702383333334, "rental_uris": {"ios": "https://dc.lft.to/lastmile_qr_scan", "android": "https://dc.lft.to/lastmile_qr_scan"}}, {"name": "2706f8308d6ec8c7e47691d9747e7e6a", "fusion_lat": 0.0, "type": "electric_scooter", "lat": 38.90279866666667, "is_reserved": 0, "is_disabled": 0, "fusion_lon": 0.0, "bike_id": "2706f8308d6ec8c7e47691d9747e7e6a", "lon": -77.03641833333333, "rental_uris": {"ios": "https://dc.lft.to/lastmile_qr_scan", "android": "https://dc.lft.to/lastmile_qr_scan"}}, {"name": "efd90d5535bcbbb734acdcb6ee0aacba", "fusion_lat": 0.0, "type": "electric_bike", "lat": 38.93521, "is_reserved": 0, "is_disabled": 0, "fusion_lon": 0.0, "bike_id": "efd90d5535bcbbb734acdcb6ee0aacba", "lon": -76.9506255, "rental_uris": {"ios": "https://dc.lft.to/lastmile_qr_scan", "android": "https://dc.lft.to/lastmile_qr_scan"}}, {"name": "989f0291cac7866b7e7b95407fac1985", "fusion_lat": 0.0, "type": "electric_scooter", "lat": 38.90560816666667, "is_reserved": 0, "is_disabled": 0, "fusion_lon": 0.0, "bike_id": "989f0291cac7866b7e7b95407fac1985", "lon": -77.02228683333334, "rental_uris": {"ios": "https://dc.lft.to/lastmile_qr_scan", "android": "https://dc.lft.to/lastmile_qr_scan"}}, {"name": "45d335ec5cb230be52b2103bc2d6250e", "fusion_lat": 0.0, "type": "electric_scooter", "lat": 38.901178333333334, "is_reserved": 0, "is_disabled": 0, "fusion_lon": 0.0, "bike_id": "45d335ec5cb230be52b2103bc2d6250e", "lon": -77.04229733333334, "rental_uris": {"ios": "https://dc.lft.to/lastmile_qr_scan", "android": "https://dc.lft.to/lastmile_qr_scan"}}, {"name": "773bc346e2b3d9c4e936e44854187f1e", "fusion_lat": 0.0, "type": "electric_scooter", "lat": 38.90718316666667, "is_reserved": 0, "is_disabled": 0, "fusion_lon": 0.0, "bike_id": "773bc346e2b3d9c4e936e44854187f1e", "lon": -77.03262183333334, "rental_uris": {"ios": "https://dc.lft.to/lastmile_qr_scan", "android": "https://dc.lft.to/lastmile_qr_scan"}}, {"name": "0b49b3f7d3b0695eafe720d22fc0745f", "fusion_lat": 0.0, "type": "electric_bike", "lat": 38.945006666666664, "is_reserved": 0, "is_disabled": 0, "fusion_lon": 0.0, "bike_id": "0b49b3f7d3b0695eafe720d22fc0745f", "lon": -77.0066425, "rental_uris": {"ios": "https://dc.lft.to/lastmile_qr_scan", "android": "https://dc.lft.to/lastmile_qr_scan"}}, {"name": "82f27b7ccf99b8fbc4fec3bfbd2d78f4", "fusion_lat": 0.0, "type": "electric_scooter", "lat": 38.92441, "is_reserved": 0, "is_disabled": 0, "fusion_lon": 0.0, "bike_id": "82f27b7ccf99b8fbc4fec3bfbd2d78f4", "lon": -77.02038583333334, "rental_uris": {"ios": "https://dc.lft.to/lastmile_qr_scan", "android": "https://dc.lft.to/lastmile_qr_scan"}}, {"name": "7c85f7d7ac87099e7c469017ef98c829", "fusion_lat": 0.0, "type": "electric_scooter", "lat": 38.9180925, "is_reserved": 0, "is_disabled": 0, "fusion_lon": 0.0, "bike_id": "7c85f7d7ac87099e7c469017ef98c829", "lon": -77.034706, "rental_uris": {"ios": "https://dc.lft.to/lastmile_qr_scan", "android": "https://dc.lft.to/lastmile_qr_scan"}}, {"name": "27d7b90e7ad7d369043588b10d43b103", "fusion_lat": 0.0, "type": "electric_scooter", "lat": 38.90143883333333, "is_reserved": 0, "is_disabled": 0, "fusion_lon": 0.0, "bike_id": "27d7b90e7ad7d369043588b10d43b103", "lon": -77.0332255, "rental_uris": {"ios": "https://dc.lft.to/lastmile_qr_scan", "android": "https://dc.lft.to/lastmile_qr_scan"}}, {"name": "4ab6c2b4deb26441a1021c5e259b227a", "fusion_lat": 0.0, "type": "electric_scooter", "lat": 38.86410933333333, "is_reserved": 0, "is_disabled": 0, "fusion_lon": 0.0, "bike_id": "4ab6c2b4deb26441a1021c5e259b227a", "lon": -76.980417, "rental_uris": {"ios": "https://dc.lft.to/lastmile_qr_scan", "android": "https://dc.lft.to/lastmile_qr_scan"}}, {"name": "034be8cbea676ae68a3646d97b7c8956", "fusion_lat": 0.0, "type": "electric_bike", "lat": 38.896345333333336, "is_reserved": 0, "is_disabled": 0, "fusion_lon": 0.0, "bike_id": "034be8cbea676ae68a3646d97b7c8956", "lon": -77.1045825, "rental_uris": {"ios": "https://dc.lft.to/lastmile_qr_scan", "android": "https://dc.lft.to/lastmile_qr_scan"}}, {"name": "39f99848d5540f5584455ae504c7f7a5", "fusion_lat": 0.0, "type": "electric_scooter", "lat": 38.926018, "is_reserved": 0, "is_disabled": 0, "fusion_lon": 0.0, "bike_id": "39f99848d5540f5584455ae504c7f7a5", "lon": -77.02156433333333, "rental_uris": {"ios": "https://dc.lft.to/lastmile_qr_scan", "android": "https://dc.lft.to/lastmile_qr_scan"}}, {"name": "1141ffaea6bce73e7dace7eeda827bf0", "fusion_lat": 0.0, "type": "electric_scooter", "lat": 38.92488083333333, "is_reserved": 0, "is_disabled": 0, "fusion_lon": 0.0, "bike_id": "1141ffaea6bce73e7dace7eeda827bf0", "lon": -77.05213916666666, "rental_uris": {"ios": "https://dc.lft.to/lastmile_qr_scan", "android": "https://dc.lft.to/lastmile_qr_scan"}}, {"name": "0d08ec4568374ac71ba0457bed66d8f7", "fusion_lat": 0.0, "type": "electric_scooter", "lat": 38.85524516666667, "is_reserved": 0, "is_disabled": 0, "fusion_lon": 0.0, "bike_id": "0d08ec4568374ac71ba0457bed66d8f7", "lon": -76.96916533333334, "rental_uris": {"ios": "https://dc.lft.to/lastmile_qr_scan", "android": "https://dc.lft.to/lastmile_qr_scan"}}, {"name": "9c2a33c3e01bad1e4aaa587524abf61c", "fusion_lat": 0.0, "type": "electric_scooter", "lat": 38.95263583333333, "is_reserved": 0, "is_disabled": 0, "fusion_lon": 0.0, "bike_id": "9c2a33c3e01bad1e4aaa587524abf61c", "lon": -77.025663, "rental_uris": {"ios": "https://dc.lft.to/lastmile_qr_scan", "android": "https://dc.lft.to/lastmile_qr_scan"}}, {"name": "044ddca87bc4f7de8a78d0aadcc57055", "fusion_lat": 0.0, "type": "electric_scooter", "lat": 38.89400833333333, "is_reserved": 0, "is_disabled": 0, "fusion_lon": 0.0, "bike_id": "044ddca87bc4f7de8a78d0aadcc57055", "lon": -76.9480285, "rental_uris": {"ios": "https://dc.lft.to/lastmile_qr_scan", "android": "https://dc.lft.to/lastmile_qr_scan"}}, {"name": "0c2c76ee5722a4e4ccfd44c0a4cf9b0f", "fusion_lat": 0.0, "type": "electric_scooter", "lat": 38.90522816666667, "is_reserved": 0, "is_disabled": 0, "fusion_lon": 0.0, "bike_id": "0c2c76ee5722a4e4ccfd44c0a4cf9b0f", "lon": -77.04984033333334, "rental_uris": {"ios": "https://dc.lft.to/lastmile_qr_scan", "android": "https://dc.lft.to/lastmile_qr_scan"}}, {"name": "e0568fc44a7100fdb5ae13d51fb4ae3b", "fusion_lat": 0.0, "type": "electric_scooter", "lat": 38.88400166666667, "is_reserved": 0, "is_disabled": 0, "fusion_lon": 0.0, "bike_id": "e0568fc44a7100fdb5ae13d51fb4ae3b", "lon": -76.985876, "rental_uris": {"ios": "https://dc.lft.to/lastmile_qr_scan", "android": "https://dc.lft.to/lastmile_qr_scan"}}, {"name": "06bd49ffb8fa3203a380861d908f16b8", "fusion_lat": 0.0, "type": "electric_scooter", "lat": 38.93954816666667, "is_reserved": 0, "is_disabled": 0, "fusion_lon": 0.0, "bike_id": "06bd49ffb8fa3203a380861d908f16b8", "lon": -77.072421, "rental_uris": {"ios": "https://dc.lft.to/lastmile_qr_scan", "android": "https://dc.lft.to/lastmile_qr_scan"}}, {"name": "2ab4e21bc69ce3aa7d256f3863625b3c", "fusion_lat": 0.0, "type": "electric_scooter", "lat": 38.93603616666667, "is_reserved": 0, "is_disabled": 0, "fusion_lon": 0.0, "bike_id": "2ab4e21bc69ce3aa7d256f3863625b3c", "lon": -77.0586155, "rental_uris": {"ios": "https://dc.lft.to/lastmile_qr_scan", "android": "https://dc.lft.to/lastmile_qr_scan"}}, {"name": "d09782b4e0dad7a43a5bb89903c55f48", "fusion_lat": 0.0, "type": "electric_scooter", "lat": 38.89681016666667, "is_reserved": 0, "is_disabled": 0, "fusion_lon": 0.0, "bike_id": "d09782b4e0dad7a43a5bb89903c55f48", "lon": -77.00497566666667, "rental_uris": {"ios": "https://dc.lft.to/lastmile_qr_scan", "android": "https://dc.lft.to/lastmile_qr_scan"}}, {"name": "b70fdfd50f3a4fd7879a7f9ad9f3f476", "fusion_lat": 0.0, "type": "electric_bike", "lat": 39.03343866666667, "is_reserved": 0, "is_disabled": 0, "fusion_lon": 0.0, "bike_id": "b70fdfd50f3a4fd7879a7f9ad9f3f476", "lon": -77.04904433333333, "rental_uris": {"ios": "https://dc.lft.to/lastmile_qr_scan", "android": "https://dc.lft.to/lastmile_qr_scan"}}, {"name": "6684cc82ee184c75d60baf31a834c6c0", "fusion_lat": 0.0, "type": "electric_scooter", "lat": 38.9236565, "is_reserved": 0, "is_disabled": 0, "fusion_lon": 0.0, "bike_id": "6684cc82ee184c75d60baf31a834c6c0", "lon": -77.01912033333333, "rental_uris": {"ios": "https://dc.lft.to/lastmile_qr_scan", "android": "https://dc.lft.to/lastmile_qr_scan"}}, {"name": "cea7a7e785e103917aee7b74f59e0f95", "fusion_lat": 0.0, "type": "electric_scooter", "lat": 38.906355166666664, "is_reserved": 0, "is_disabled": 0, "fusion_lon": 0.0, "bike_id": "cea7a7e785e103917aee7b74f59e0f95", "lon": -77.05143116666666, "rental_uris": {"ios": "https://dc.lft.to/lastmile_qr_scan", "android": "https://dc.lft.to/lastmile_qr_scan"}}, {"name": "bf3bacf3c699a69d0a0e7415e0b5662d", "fusion_lat": 0.0, "type": "electric_scooter", "lat": 38.910047666666664, "is_reserved": 0, "is_disabled": 0, "fusion_lon": 0.0, "bike_id": "bf3bacf3c699a69d0a0e7415e0b5662d", "lon": -77.0442345, "rental_uris": {"ios": "https://dc.lft.to/lastmile_qr_scan", "android": "https://dc.lft.to/lastmile_qr_scan"}}, {"name": "a0366db4408b275c504a4f3a385d7f2e", "fusion_lat": 0.0, "type": "electric_scooter", "lat": 38.91564733333333, "is_reserved": 0, "is_disabled": 0, "fusion_lon": 0.0, "bike_id": "a0366db4408b275c504a4f3a385d7f2e", "lon": -77.04676666666667, "rental_uris": {"ios": "https://dc.lft.to/lastmile_qr_scan", "android": "https://dc.lft.to/lastmile_qr_scan"}}, {"name": "36c0a64ba222406270819d6fe4ef9140", "fusion_lat": 0.0, "type": "electric_scooter", "lat": 38.90778783333333, "is_reserved": 0, "is_disabled": 0, "fusion_lon": 0.0, "bike_id": "36c0a64ba222406270819d6fe4ef9140", "lon": -77.0382975, "rental_uris": {"ios": "https://dc.lft.to/lastmile_qr_scan", "android": "https://dc.lft.to/lastmile_qr_scan"}}, {"name": "f6f44dc2d2a6f4b1ddcf975060a7b901", "fusion_lat": 0.0, "type": "electric_scooter", "lat": 38.933069333333336, "is_reserved": 0, "is_disabled": 0, "fusion_lon": 0.0, "bike_id": "f6f44dc2d2a6f4b1ddcf975060a7b901", "lon": -77.03766933333333, "rental_uris": {"ios": "https://dc.lft.to/lastmile_qr_scan", "android": "https://dc.lft.to/lastmile_qr_scan"}}, {"name": "68fd3767587acb978a5ef4940bfe6346", "fusion_lat": 0.0, "type": "electric_bike", "lat": 38.86273766666667, "is_reserved": 0, "is_disabled": 0, "fusion_lon": 0.0, "bike_id": "68fd3767587acb978a5ef4940bfe6346", "lon": -77.05974983333333, "rental_uris": {"ios": "https://dc.lft.to/lastmile_qr_scan", "android": "https://dc.lft.to/lastmile_qr_scan"}}, {"name": "231604e05c46ec6efe90797c40cc90fe", "fusion_lat": 0.0, "type": "electric_scooter", "lat": 38.900854333333335, "is_reserved": 0, "is_disabled": 0, "fusion_lon": 0.0, "bike_id": "231604e05c46ec6efe90797c40cc90fe", "lon": -77.05042633333333, "rental_uris": {"ios": "https://dc.lft.to/lastmile_qr_scan", "android": "https://dc.lft.to/lastmile_qr_scan"}}, {"name": "f34da93c6f29a17ca3dec060dcb0d2e5", "fusion_lat": 0.0, "type": "electric_scooter", "lat": 38.895855166666664, "is_reserved": 0, "is_disabled": 0, "fusion_lon": 0.0, "bike_id": "f34da93c6f29a17ca3dec060dcb0d2e5", "lon": -76.99359433333333, "rental_uris": {"ios": "https://dc.lft.to/lastmile_qr_scan", "android": "https://dc.lft.to/lastmile_qr_scan"}}, {"name": "7e7e4b65d2a2d528dd02e19ab26dac7e", "fusion_lat": 0.0, "type": "electric_scooter", "lat": 38.92977466666667, "is_reserved": 0, "is_disabled": 0, "fusion_lon": 0.0, "bike_id": "7e7e4b65d2a2d528dd02e19ab26dac7e", "lon": -77.01449233333334, "rental_uris": {"ios": "https://dc.lft.to/lastmile_qr_scan", "android": "https://dc.lft.to/lastmile_qr_scan"}}, {"name": "9daa9de2bbddea5dd67c9caf67623559", "fusion_lat": 0.0, "type": "electric_scooter", "lat": 38.91266516666666, "is_reserved": 0, "is_disabled": 0, "fusion_lon": 0.0, "bike_id": "9daa9de2bbddea5dd67c9caf67623559", "lon": -77.03828416666667, "rental_uris": {"ios": "https://dc.lft.to/lastmile_qr_scan", "android": "https://dc.lft.to/lastmile_qr_scan"}}, {"name": "4bb48082468a5994eddc126ad399fb2d", "fusion_lat": 0.0, "type": "electric_scooter", "lat": 38.915625666666664, "is_reserved": 0, "is_disabled": 0, "fusion_lon": 0.0, "bike_id": "4bb48082468a5994eddc126ad399fb2d", "lon": -77.0383205, "rental_uris": {"ios": "https://dc.lft.to/lastmile_qr_scan", "android": "https://dc.lft.to/lastmile_qr_scan"}}, {"name": "d7a5195056495b76451838970aefc933", "fusion_lat": 0.0, "type": "electric_scooter", "lat": 38.866563666666664, "is_reserved": 0, "is_disabled": 0, "fusion_lon": 0.0, "bike_id": "d7a5195056495b76451838970aefc933", "lon": -76.9901075, "rental_uris": {"ios": "https://dc.lft.to/lastmile_qr_scan", "android": "https://dc.lft.to/lastmile_qr_scan"}}, {"name": "4a41830daafe5bfa152e4cb7a993258d", "fusion_lat": 0.0, "type": "electric_scooter", "lat": 38.9430795, "is_reserved": 0, "is_disabled": 0, "fusion_lon": 0.0, "bike_id": "4a41830daafe5bfa152e4cb7a993258d", "lon": -77.02485, "rental_uris": {"ios": "https://dc.lft.to/lastmile_qr_scan", "android": "https://dc.lft.to/lastmile_qr_scan"}}, {"name": "9b30fc1eb8599c9ef1b48aea6a66b7e8", "fusion_lat": 0.0, "type": "electric_scooter", "lat": 38.89223166666667, "is_reserved": 0, "is_disabled": 0, "fusion_lon": 0.0, "bike_id": "9b30fc1eb8599c9ef1b48aea6a66b7e8", "lon": -77.03110383333333, "rental_uris": {"ios": "https://dc.lft.to/lastmile_qr_scan", "android": "https://dc.lft.to/lastmile_qr_scan"}}, {"name": "0404ff6e8ecf92a789d2a5ccd2b942d1", "fusion_lat": 0.0, "type": "electric_scooter", "lat": 38.892159, "is_reserved": 0, "is_disabled": 0, "fusion_lon": 0.0, "bike_id": "0404ff6e8ecf92a789d2a5ccd2b942d1", "lon": -77.02226783333333, "rental_uris": {"ios": "https://dc.lft.to/lastmile_qr_scan", "android": "https://dc.lft.to/lastmile_qr_scan"}}, {"name": "69342a4734bde47291f951ea39131466", "fusion_lat": 0.0, "type": "electric_bike", "lat": 38.83989283333333, "is_reserved": 0, "is_disabled": 0, "fusion_lon": 0.0, "bike_id": "69342a4734bde47291f951ea39131466", "lon": -77.00567033333333, "rental_uris": {"ios": "https://dc.lft.to/lastmile_qr_scan", "android": "https://dc.lft.to/lastmile_qr_scan"}}, {"name": "7f58ce7ca33de300b6ec735547d5a700", "fusion_lat": 0.0, "type": "electric_scooter", "lat": 38.91246133333333, "is_reserved": 0, "is_disabled": 0, "fusion_lon": 0.0, "bike_id": "7f58ce7ca33de300b6ec735547d5a700", "lon": -77.0383585, "rental_uris": {"ios": "https://dc.lft.to/lastmile_qr_scan", "android": "https://dc.lft.to/lastmile_qr_scan"}}, {"name": "bb2ddb4b5018fa839561e6d729d524b9", "fusion_lat": 0.0, "type": "electric_scooter", "lat": 38.896256666666666, "is_reserved": 0, "is_disabled": 0, "fusion_lon": 0.0, "bike_id": "bb2ddb4b5018fa839561e6d729d524b9", "lon": -77.023764, "rental_uris": {"ios": "https://dc.lft.to/lastmile_qr_scan", "android": "https://dc.lft.to/lastmile_qr_scan"}}, {"name": "d780db2e380c8b986156ce2acefabea6", "fusion_lat": 0.0, "type": "electric_scooter", "lat": 38.9394715, "is_reserved": 0, "is_disabled": 0, "fusion_lon": 0.0, "bike_id": "d780db2e380c8b986156ce2acefabea6", "lon": -77.03263716666666, "rental_uris": {"ios": "https://dc.lft.to/lastmile_qr_scan", "android": "https://dc.lft.to/lastmile_qr_scan"}}, {"name": "206ec6fe1f76ec8e446a0a0a9eec5aed", "fusion_lat": 0.0, "type": "electric_bike", "lat": 38.984494166666664, "is_reserved": 0, "is_disabled": 0, "fusion_lon": 0.0, "bike_id": "206ec6fe1f76ec8e446a0a0a9eec5aed", "lon": -76.95521416666666, "rental_uris": {"ios": "https://dc.lft.to/lastmile_qr_scan", "android": "https://dc.lft.to/lastmile_qr_scan"}}, {"name": "2fa5e64eb911eb87e7423964c0db792b", "fusion_lat": 0.0, "type": "electric_scooter", "lat": 38.93946016666666, "is_reserved": 0, "is_disabled": 0, "fusion_lon": 0.0, "bike_id": "2fa5e64eb911eb87e7423964c0db792b", "lon": -77.03267483333333, "rental_uris": {"ios": "https://dc.lft.to/lastmile_qr_scan", "android": "https://dc.lft.to/lastmile_qr_scan"}}, {"name": "43620c30e55c485701cab6e26018a577", "fusion_lat": 0.0, "type": "electric_bike", "lat": 38.86595533333333, "is_reserved": 0, "is_disabled": 0, "fusion_lon": 0.0, "bike_id": "43620c30e55c485701cab6e26018a577", "lon": -76.93229966666667, "rental_uris": {"ios": "https://dc.lft.to/lastmile_qr_scan", "android": "https://dc.lft.to/lastmile_qr_scan"}}, {"name": "3e0cb57b9b45a2319fe5fa4da533b92d", "fusion_lat": 0.0, "type": "electric_bike", "lat": 38.878735666666664, "is_reserved": 0, "is_disabled": 0, "fusion_lon": 0.0, "bike_id": "3e0cb57b9b45a2319fe5fa4da533b92d", "lon": -77.02320366666666, "rental_uris": {"ios": "https://dc.lft.to/lastmile_qr_scan", "android": "https://dc.lft.to/lastmile_qr_scan"}}, {"name": "3d62f07537aa907ef0f9f41c08bcace4", "fusion_lat": 0.0, "type": "electric_scooter", "lat": 38.90276466666667, "is_reserved": 0, "is_disabled": 0, "fusion_lon": 0.0, "bike_id": "3d62f07537aa907ef0f9f41c08bcace4", "lon": -77.040478, "rental_uris": {"ios": "https://dc.lft.to/lastmile_qr_scan", "android": "https://dc.lft.to/lastmile_qr_scan"}}, {"name": "5f1cf1723b87a30ef668f5ba39534b8c", "fusion_lat": 0.0, "type": "electric_scooter", "lat": 38.915696833333335, "is_reserved": 0, "is_disabled": 0, "fusion_lon": 0.0, "bike_id": "5f1cf1723b87a30ef668f5ba39534b8c", "lon": -77.03193783333333, "rental_uris": {"ios": "https://dc.lft.to/lastmile_qr_scan", "android": "https://dc.lft.to/lastmile_qr_scan"}}, {"name": "cd9316b1f82617dc4120dcc0dc3e90f7", "fusion_lat": 0.0, "type": "electric_scooter", "lat": 38.8778095, "is_reserved": 0, "is_disabled": 0, "fusion_lon": 0.0, "bike_id": "cd9316b1f82617dc4120dcc0dc3e90f7", "lon": -76.9940925, "rental_uris": {"ios": "https://dc.lft.to/lastmile_qr_scan", "android": "https://dc.lft.to/lastmile_qr_scan"}}, {"name": "e5ccb578dcad8dbe2aa9a9069e5ae11f", "fusion_lat": 0.0, "type": "electric_bike", "lat": 38.819291666666665, "is_reserved": 0, "is_disabled": 0, "fusion_lon": 0.0, "bike_id": "e5ccb578dcad8dbe2aa9a9069e5ae11f", "lon": -77.00225366666666, "rental_uris": {"ios": "https://dc.lft.to/lastmile_qr_scan", "android": "https://dc.lft.to/lastmile_qr_scan"}}, {"name": "e01676e2603342fbcb83360115b26573", "fusion_lat": 0.0, "type": "electric_scooter", "lat": 38.91726966666667, "is_reserved": 0, "is_disabled": 0, "fusion_lon": 0.0, "bike_id": "e01676e2603342fbcb83360115b26573", "lon": -77.03840883333334, "rental_uris": {"ios": "https://dc.lft.to/lastmile_qr_scan", "android": "https://dc.lft.to/lastmile_qr_scan"}}, {"name": "da6e4b6dddd30fd30731913b5d5b903f", "fusion_lat": 0.0, "type": "electric_scooter", "lat": 38.92894016666666, "is_reserved": 0, "is_disabled": 0, "fusion_lon": 0.0, "bike_id": "da6e4b6dddd30fd30731913b5d5b903f", "lon": -77.05456, "rental_uris": {"ios": "https://dc.lft.to/lastmile_qr_scan", "android": "https://dc.lft.to/lastmile_qr_scan"}}, {"name": "9c3e6025585722a696fca9c10d352906", "fusion_lat": 0.0, "type": "electric_bike", "lat": 38.85221216666667, "is_reserved": 0, "is_disabled": 0, "fusion_lon": 0.0, "bike_id": "9c3e6025585722a696fca9c10d352906", "lon": -77.1296235, "rental_uris": {"ios": "https://dc.lft.to/lastmile_qr_scan", "android": "https://dc.lft.to/lastmile_qr_scan"}}, {"name": "d8d9915698bb04e5e0de8a982599d37b", "fusion_lat": 0.0, "type": "electric_scooter", "lat": 38.9161525, "is_reserved": 0, "is_disabled": 0, "fusion_lon": 0.0, "bike_id": "d8d9915698bb04e5e0de8a982599d37b", "lon": -77.03166683333333, "rental_uris": {"ios": "https://dc.lft.to/lastmile_qr_scan", "android": "https://dc.lft.to/lastmile_qr_scan"}}, {"name": "ac4b0902f008504d95a82cc7910fcecf", "fusion_lat": 0.0, "type": "electric_scooter", "lat": 38.91946866666667, "is_reserved": 0, "is_disabled": 0, "fusion_lon": 0.0, "bike_id": "ac4b0902f008504d95a82cc7910fcecf", "lon": -77.01391616666666, "rental_uris": {"ios": "https://dc.lft.to/lastmile_qr_scan", "android": "https://dc.lft.to/lastmile_qr_scan"}}, {"name": "30c2c7e15cfca9dc96c021665dca3a7f", "fusion_lat": 0.0, "type": "electric_scooter", "lat": 38.90827016666667, "is_reserved": 0, "is_disabled": 0, "fusion_lon": 0.0, "bike_id": "30c2c7e15cfca9dc96c021665dca3a7f", "lon": -76.99971766666667, "rental_uris": {"ios": "https://dc.lft.to/lastmile_qr_scan", "android": "https://dc.lft.to/lastmile_qr_scan"}}, {"name": "4e6ea877d8d4d4d5f0bcc7c1a3377d82", "fusion_lat": 0.0, "type": "electric_scooter", "lat": 38.931210666666665, "is_reserved": 0, "is_disabled": 0, "fusion_lon": 0.0, "bike_id": "4e6ea877d8d4d4d5f0bcc7c1a3377d82", "lon": -77.03598483333333, "rental_uris": {"ios": "https://dc.lft.to/lastmile_qr_scan", "android": "https://dc.lft.to/lastmile_qr_scan"}}, {"name": "4aa8b3bd8d912f778385dc82832cf50b", "fusion_lat": 0.0, "type": "electric_scooter", "lat": 38.931526166666664, "is_reserved": 0, "is_disabled": 0, "fusion_lon": 0.0, "bike_id": "4aa8b3bd8d912f778385dc82832cf50b", "lon": -77.03885866666667, "rental_uris": {"ios": "https://dc.lft.to/lastmile_qr_scan", "android": "https://dc.lft.to/lastmile_qr_scan"}}, {"name": "5cda5e376a27307c702d5b59c2d47fc1", "fusion_lat": 0.0, "type": "electric_scooter", "lat": 38.900953666666666, "is_reserved": 0, "is_disabled": 0, "fusion_lon": 0.0, "bike_id": "5cda5e376a27307c702d5b59c2d47fc1", "lon": -77.01354016666667, "rental_uris": {"ios": "https://dc.lft.to/lastmile_qr_scan", "android": "https://dc.lft.to/lastmile_qr_scan"}}, {"name": "ec93d8ecbaf34a4d3fb9fa847b7022ab", "fusion_lat": 0.0, "type": "electric_scooter", "lat": 38.883961, "is_reserved": 0, "is_disabled": 0, "fusion_lon": 0.0, "bike_id": "ec93d8ecbaf34a4d3fb9fa847b7022ab", "lon": -76.93044366666666, "rental_uris": {"ios": "https://dc.lft.to/lastmile_qr_scan", "android": "https://dc.lft.to/lastmile_qr_scan"}}, {"name": "3172d020ab5533e23bc747d54bb67a1b", "fusion_lat": 0.0, "type": "electric_scooter", "lat": 38.914075, "is_reserved": 0, "is_disabled": 0, "fusion_lon": 0.0, "bike_id": "3172d020ab5533e23bc747d54bb67a1b", "lon": -77.03912683333333, "rental_uris": {"ios": "https://dc.lft.to/lastmile_qr_scan", "android": "https://dc.lft.to/lastmile_qr_scan"}}, {"name": "4f0d963fa19bcc97f56da274702b1a51", "fusion_lat": 0.0, "type": "electric_scooter", "lat": 38.91815533333333, "is_reserved": 0, "is_disabled": 0, "fusion_lon": 0.0, "bike_id": "4f0d963fa19bcc97f56da274702b1a51", "lon": -77.03170916666667, "rental_uris": {"ios": "https://dc.lft.to/lastmile_qr_scan", "android": "https://dc.lft.to/lastmile_qr_scan"}}, {"name": "0b728e294471dc970920bb6a8a802f9e", "fusion_lat": 0.0, "type": "electric_scooter", "lat": 38.9285955, "is_reserved": 0, "is_disabled": 0, "fusion_lon": 0.0, "bike_id": "0b728e294471dc970920bb6a8a802f9e", "lon": -77.013695, "rental_uris": {"ios": "https://dc.lft.to/lastmile_qr_scan", "android": "https://dc.lft.to/lastmile_qr_scan"}}, {"name": "fa963657d879b3f5cafefb7fab2b8606", "fusion_lat": 0.0, "type": "electric_scooter", "lat": 38.939945333333334, "is_reserved": 0, "is_disabled": 0, "fusion_lon": 0.0, "bike_id": "fa963657d879b3f5cafefb7fab2b8606", "lon": -77.02959366666667, "rental_uris": {"ios": "https://dc.lft.to/lastmile_qr_scan", "android": "https://dc.lft.to/lastmile_qr_scan"}}, {"name": "467988dcd1f6fd6d3e527f54b12c5d33", "fusion_lat": 0.0, "type": "electric_scooter", "lat": 38.90762983333333, "is_reserved": 0, "is_disabled": 0, "fusion_lon": 0.0, "bike_id": "467988dcd1f6fd6d3e527f54b12c5d33", "lon": -77.00033216666667, "rental_uris": {"ios": "https://dc.lft.to/lastmile_qr_scan", "android": "https://dc.lft.to/lastmile_qr_scan"}}, {"name": "0e8ec1074a828eddbfabe430d3efd2e4", "fusion_lat": 0.0, "type": "electric_scooter", "lat": 38.89346066666667, "is_reserved": 0, "is_disabled": 0, "fusion_lon": 0.0, "bike_id": "0e8ec1074a828eddbfabe430d3efd2e4", "lon": -77.0463815, "rental_uris": {"ios": "https://dc.lft.to/lastmile_qr_scan", "android": "https://dc.lft.to/lastmile_qr_scan"}}, {"name": "03aebcf16f02732b65d0e45921e38b45", "fusion_lat": 0.0, "type": "electric_scooter", "lat": 38.94183533333333, "is_reserved": 0, "is_disabled": 0, "fusion_lon": 0.0, "bike_id": "03aebcf16f02732b65d0e45921e38b45", "lon": -77.02485916666667, "rental_uris": {"ios": "https://dc.lft.to/lastmile_qr_scan", "android": "https://dc.lft.to/lastmile_qr_scan"}}, {"name": "3ffaf2d4915aa88d3fd78749013ba407", "fusion_lat": 0.0, "type": "electric_scooter", "lat": 38.892780333333334, "is_reserved": 0, "is_disabled": 0, "fusion_lon": 0.0, "bike_id": "3ffaf2d4915aa88d3fd78749013ba407", "lon": -77.03223066666666, "rental_uris": {"ios": "https://dc.lft.to/lastmile_qr_scan", "android": "https://dc.lft.to/lastmile_qr_scan"}}, {"name": "bd07b33c5024153325ea7e031b61ac55", "fusion_lat": 0.0, "type": "electric_scooter", "lat": 38.91611866666667, "is_reserved": 0, "is_disabled": 0, "fusion_lon": 0.0, "bike_id": "bd07b33c5024153325ea7e031b61ac55", "lon": -77.03848833333333, "rental_uris": {"ios": "https://dc.lft.to/lastmile_qr_scan", "android": "https://dc.lft.to/lastmile_qr_scan"}}, {"name": "d2c3bb21251537486109bfc954185de5", "fusion_lat": 0.0, "type": "electric_bike", "lat": 38.97327533333333, "is_reserved": 0, "is_disabled": 0, "fusion_lon": 0.0, "bike_id": "d2c3bb21251537486109bfc954185de5", "lon": -77.0214705, "rental_uris": {"ios": "https://dc.lft.to/lastmile_qr_scan", "android": "https://dc.lft.to/lastmile_qr_scan"}}, {"name": "ac1b6d4bbf884fea0c2db67b69fdfbbe", "fusion_lat": 0.0, "type": "electric_bike", "lat": 38.9455175, "is_reserved": 0, "is_disabled": 0, "fusion_lon": 0.0, "bike_id": "ac1b6d4bbf884fea0c2db67b69fdfbbe", "lon": -76.895364, "rental_uris": {"ios": "https://dc.lft.to/lastmile_qr_scan", "android": "https://dc.lft.to/lastmile_qr_scan"}}, {"name": "6ecfd3fa8d8a718322b35769b4bf8d6c", "fusion_lat": 0.0, "type": "electric_scooter", "lat": 38.86690933333333, "is_reserved": 0, "is_disabled": 0, "fusion_lon": 0.0, "bike_id": "6ecfd3fa8d8a718322b35769b4bf8d6c", "lon": -76.98707133333333, "rental_uris": {"ios": "https://dc.lft.to/lastmile_qr_scan", "android": "https://dc.lft.to/lastmile_qr_scan"}}, {"name": "72ea7732380784576a2fc0779cdab361", "fusion_lat": 0.0, "type": "electric_scooter", "lat": 38.89852033333333, "is_reserved": 0, "is_disabled": 0, "fusion_lon": 0.0, "bike_id": "72ea7732380784576a2fc0779cdab361", "lon": -76.99030083333334, "rental_uris": {"ios": "https://dc.lft.to/lastmile_qr_scan", "android": "https://dc.lft.to/lastmile_qr_scan"}}, {"name": "a755aa89337152f76e726ca01f235149", "fusion_lat": 0.0, "type": "electric_scooter", "lat": 38.89480116666667, "is_reserved": 0, "is_disabled": 0, "fusion_lon": 0.0, "bike_id": "a755aa89337152f76e726ca01f235149", "lon": -76.94871683333334, "rental_uris": {"ios": "https://dc.lft.to/lastmile_qr_scan", "android": "https://dc.lft.to/lastmile_qr_scan"}}, {"name": "e8473c072937e594b862b8a0f50f51db", "fusion_lat": 0.0, "type": "electric_scooter", "lat": 38.932514166666664, "is_reserved": 0, "is_disabled": 0, "fusion_lon": 0.0, "bike_id": "e8473c072937e594b862b8a0f50f51db", "lon": -77.04000866666667, "rental_uris": {"ios": "https://dc.lft.to/lastmile_qr_scan", "android": "https://dc.lft.to/lastmile_qr_scan"}}, {"name": "c5e8324e6855a08a9a1db835b52a7533", "fusion_lat": 0.0, "type": "electric_scooter", "lat": 38.90124483333334, "is_reserved": 0, "is_disabled": 0, "fusion_lon": 0.0, "bike_id": "c5e8324e6855a08a9a1db835b52a7533", "lon": -77.04301466666666, "rental_uris": {"ios": "https://dc.lft.to/lastmile_qr_scan", "android": "https://dc.lft.to/lastmile_qr_scan"}}, {"name": "aaa79e536c1a8a40dbda563c535702d8", "fusion_lat": 0.0, "type": "electric_scooter", "lat": 38.8996555, "is_reserved": 0, "is_disabled": 0, "fusion_lon": 0.0, "bike_id": "aaa79e536c1a8a40dbda563c535702d8", "lon": -77.057018, "rental_uris": {"ios": "https://dc.lft.to/lastmile_qr_scan", "android": "https://dc.lft.to/lastmile_qr_scan"}}, {"name": "9d5929d05e27f662c438f0bb08124248", "fusion_lat": 0.0, "type": "electric_bike", "lat": 38.990898, "is_reserved": 0, "is_disabled": 0, "fusion_lon": 0.0, "bike_id": "9d5929d05e27f662c438f0bb08124248", "lon": -76.8749465, "rental_uris": {"ios": "https://dc.lft.to/lastmile_qr_scan", "android": "https://dc.lft.to/lastmile_qr_scan"}}, {"name": "39a680f72d760613042a84f04039900f", "fusion_lat": 0.0, "type": "electric_scooter", "lat": 38.88523983333333, "is_reserved": 0, "is_disabled": 0, "fusion_lon": 0.0, "bike_id": "39a680f72d760613042a84f04039900f", "lon": -77.0058575, "rental_uris": {"ios": "https://dc.lft.to/lastmile_qr_scan", "android": "https://dc.lft.to/lastmile_qr_scan"}}, {"name": "187dbe5b2a600e19ac07e49ecc140be8", "fusion_lat": 0.0, "type": "electric_bike", "lat": 38.828743833333334, "is_reserved": 0, "is_disabled": 0, "fusion_lon": 0.0, "bike_id": "187dbe5b2a600e19ac07e49ecc140be8", "lon": -77.11217133333334, "rental_uris": {"ios": "https://dc.lft.to/lastmile_qr_scan", "android": "https://dc.lft.to/lastmile_qr_scan"}}, {"name": "6195149a5088c27f9c462b0c532cd394", "fusion_lat": 0.0, "type": "electric_scooter", "lat": 38.91411766666667, "is_reserved": 0, "is_disabled": 0, "fusion_lon": 0.0, "bike_id": "6195149a5088c27f9c462b0c532cd394", "lon": -77.03995683333333, "rental_uris": {"ios": "https://dc.lft.to/lastmile_qr_scan", "android": "https://dc.lft.to/lastmile_qr_scan"}}, {"name": "95c023b6139f5ebac2c76914858b38d2", "fusion_lat": 0.0, "type": "electric_scooter", "lat": 38.892177, "is_reserved": 0, "is_disabled": 0, "fusion_lon": 0.0, "bike_id": "95c023b6139f5ebac2c76914858b38d2", "lon": -77.03092133333334, "rental_uris": {"ios": "https://dc.lft.to/lastmile_qr_scan", "android": "https://dc.lft.to/lastmile_qr_scan"}}, {"name": "e55dc524b735579b8d786f7e8bd74a04", "fusion_lat": 0.0, "type": "electric_scooter", "lat": 38.952548666666665, "is_reserved": 0, "is_disabled": 0, "fusion_lon": 0.0, "bike_id": "e55dc524b735579b8d786f7e8bd74a04", "lon": -77.001887, "rental_uris": {"ios": "https://dc.lft.to/lastmile_qr_scan", "android": "https://dc.lft.to/lastmile_qr_scan"}}, {"name": "06923beb22e3c2222f870656d63a00a4", "fusion_lat": 0.0, "type": "electric_scooter", "lat": 38.906532166666665, "is_reserved": 0, "is_disabled": 0, "fusion_lon": 0.0, "bike_id": "06923beb22e3c2222f870656d63a00a4", "lon": -77.038709, "rental_uris": {"ios": "https://dc.lft.to/lastmile_qr_scan", "android": "https://dc.lft.to/lastmile_qr_scan"}}, {"name": "ad1afecb1cf8ecaea5bebf78fdc8130c", "fusion_lat": 0.0, "type": "electric_scooter", "lat": 38.90654416666667, "is_reserved": 0, "is_disabled": 0, "fusion_lon": 0.0, "bike_id": "ad1afecb1cf8ecaea5bebf78fdc8130c", "lon": -77.03863583333333, "rental_uris": {"ios": "https://dc.lft.to/lastmile_qr_scan", "android": "https://dc.lft.to/lastmile_qr_scan"}}, {"name": "e39c46dea625f65c1ae446b8445ce337", "fusion_lat": 0.0, "type": "electric_scooter", "lat": 38.883992, "is_reserved": 0, "is_disabled": 0, "fusion_lon": 0.0, "bike_id": "e39c46dea625f65c1ae446b8445ce337", "lon": -77.01529483333333, "rental_uris": {"ios": "https://dc.lft.to/lastmile_qr_scan", "android": "https://dc.lft.to/lastmile_qr_scan"}}, {"name": "7b5065f1e9827beb323c67fcf7811196", "fusion_lat": 0.0, "type": "electric_scooter", "lat": 38.92440333333333, "is_reserved": 0, "is_disabled": 0, "fusion_lon": 0.0, "bike_id": "7b5065f1e9827beb323c67fcf7811196", "lon": -77.03355666666667, "rental_uris": {"ios": "https://dc.lft.to/lastmile_qr_scan", "android": "https://dc.lft.to/lastmile_qr_scan"}}, {"name": "fd6e317345ca19085948f57b46a28273", "fusion_lat": 0.0, "type": "electric_scooter", "lat": 38.92285833333333, "is_reserved": 0, "is_disabled": 0, "fusion_lon": 0.0, "bike_id": "fd6e317345ca19085948f57b46a28273", "lon": -77.020677, "rental_uris": {"ios": "https://dc.lft.to/lastmile_qr_scan", "android": "https://dc.lft.to/lastmile_qr_scan"}}, {"name": "e800b7ae2f85fbe3552b88ca3b365514", "fusion_lat": 0.0, "type": "electric_bike", "lat": 38.905258833333335, "is_reserved": 0, "is_disabled": 0, "fusion_lon": 0.0, "bike_id": "e800b7ae2f85fbe3552b88ca3b365514", "lon": -76.99803233333333, "rental_uris": {"ios": "https://dc.lft.to/lastmile_qr_scan", "android": "https://dc.lft.to/lastmile_qr_scan"}}, {"name": "2da55d640ba6b46d1e3ddb1f5042b09b", "fusion_lat": 0.0, "type": "electric_scooter", "lat": 38.908637666666664, "is_reserved": 0, "is_disabled": 0, "fusion_lon": 0.0, "bike_id": "2da55d640ba6b46d1e3ddb1f5042b09b", "lon": -77.0271425, "rental_uris": {"ios": "https://dc.lft.to/lastmile_qr_scan", "android": "https://dc.lft.to/lastmile_qr_scan"}}, {"name": "08ce4c3cdc6b1d4e0b7b3b9525f3f760", "fusion_lat": 0.0, "type": "electric_scooter", "lat": 38.916847833333335, "is_reserved": 0, "is_disabled": 0, "fusion_lon": 0.0, "bike_id": "08ce4c3cdc6b1d4e0b7b3b9525f3f760", "lon": -77.03894966666667, "rental_uris": {"ios": "https://dc.lft.to/lastmile_qr_scan", "android": "https://dc.lft.to/lastmile_qr_scan"}}, {"name": "2d78ace6d158a2177f55bd209db7f2e8", "fusion_lat": 0.0, "type": "electric_scooter", "lat": 38.91924483333333, "is_reserved": 0, "is_disabled": 0, "fusion_lon": 0.0, "bike_id": "2d78ace6d158a2177f55bd209db7f2e8", "lon": -77.03221833333333, "rental_uris": {"ios": "https://dc.lft.to/lastmile_qr_scan", "android": "https://dc.lft.to/lastmile_qr_scan"}}, {"name": "5aec1bf45d74ea0a959a42c1618071f9", "fusion_lat": 0.0, "type": "electric_scooter", "lat": 38.9053595, "is_reserved": 0, "is_disabled": 0, "fusion_lon": 0.0, "bike_id": "5aec1bf45d74ea0a959a42c1618071f9", "lon": -77.040926, "rental_uris": {"ios": "https://dc.lft.to/lastmile_qr_scan", "android": "https://dc.lft.to/lastmile_qr_scan"}}, {"name": "5eb2822800720ef8e4369258290a0efa", "fusion_lat": 0.0, "type": "electric_bike", "lat": 38.99089466666667, "is_reserved": 0, "is_disabled": 0, "fusion_lon": 0.0, "bike_id": "5eb2822800720ef8e4369258290a0efa", "lon": -76.874964, "rental_uris": {"ios": "https://dc.lft.to/lastmile_qr_scan", "android": "https://dc.lft.to/lastmile_qr_scan"}}, {"name": "cb8aee362f5c3f28f4d40ac3cded55a5", "fusion_lat": 0.0, "type": "electric_scooter", "lat": 38.937127, "is_reserved": 0, "is_disabled": 0, "fusion_lon": 0.0, "bike_id": "cb8aee362f5c3f28f4d40ac3cded55a5", "lon": -77.0364925, "rental_uris": {"ios": "https://dc.lft.to/lastmile_qr_scan", "android": "https://dc.lft.to/lastmile_qr_scan"}}, {"name": "231f0789caa682534c36220076433512", "fusion_lat": 0.0, "type": "electric_scooter", "lat": 38.89984033333333, "is_reserved": 0, "is_disabled": 0, "fusion_lon": 0.0, "bike_id": "231f0789caa682534c36220076433512", "lon": -77.02718983333334, "rental_uris": {"ios": "https://dc.lft.to/lastmile_qr_scan", "android": "https://dc.lft.to/lastmile_qr_scan"}}, {"name": "f4b4c515b8f6a84b147e6a1c6a3daa1e", "fusion_lat": 0.0, "type": "electric_scooter", "lat": 38.9111955, "is_reserved": 0, "is_disabled": 0, "fusion_lon": 0.0, "bike_id": "f4b4c515b8f6a84b147e6a1c6a3daa1e", "lon": -77.04414616666666, "rental_uris": {"ios": "https://dc.lft.to/lastmile_qr_scan", "android": "https://dc.lft.to/lastmile_qr_scan"}}, {"name": "415ea2b48b215751d7c206c051579190", "fusion_lat": 0.0, "type": "electric_scooter", "lat": 38.90531566666667, "is_reserved": 0, "is_disabled": 0, "fusion_lon": 0.0, "bike_id": "415ea2b48b215751d7c206c051579190", "lon": -77.00581083333333, "rental_uris": {"ios": "https://dc.lft.to/lastmile_qr_scan", "android": "https://dc.lft.to/lastmile_qr_scan"}}, {"name": "020840846dc9cccd78a4f9092cca02f3", "fusion_lat": 0.0, "type": "electric_scooter", "lat": 38.900461666666665, "is_reserved": 0, "is_disabled": 0, "fusion_lon": 0.0, "bike_id": "020840846dc9cccd78a4f9092cca02f3", "lon": -77.04330983333334, "rental_uris": {"ios": "https://dc.lft.to/lastmile_qr_scan", "android": "https://dc.lft.to/lastmile_qr_scan"}}, {"name": "f526fc0ae1f0d1b4e72072bd48fbbb5c", "fusion_lat": 0.0, "type": "electric_scooter", "lat": 38.9040535, "is_reserved": 0, "is_disabled": 0, "fusion_lon": 0.0, "bike_id": "f526fc0ae1f0d1b4e72072bd48fbbb5c", "lon": -77.01860233333333, "rental_uris": {"ios": "https://dc.lft.to/lastmile_qr_scan", "android": "https://dc.lft.to/lastmile_qr_scan"}}, {"name": "ac9cf8f5ee5fa05923db5f6313a8506f", "fusion_lat": 0.0, "type": "electric_scooter", "lat": 38.899078, "is_reserved": 0, "is_disabled": 0, "fusion_lon": 0.0, "bike_id": "ac9cf8f5ee5fa05923db5f6313a8506f", "lon": -77.03331966666667, "rental_uris": {"ios": "https://dc.lft.to/lastmile_qr_scan", "android": "https://dc.lft.to/lastmile_qr_scan"}}, {"name": "3b2b21357a00f040b026cd876f8a3632", "fusion_lat": 0.0, "type": "electric_bike", "lat": 38.96121983333333, "is_reserved": 0, "is_disabled": 0, "fusion_lon": 0.0, "bike_id": "3b2b21357a00f040b026cd876f8a3632", "lon": -77.032697, "rental_uris": {"ios": "https://dc.lft.to/lastmile_qr_scan", "android": "https://dc.lft.to/lastmile_qr_scan"}}, {"name": "2a25b7cb7f72b055a0a8808d30914dc7", "fusion_lat": 0.0, "type": "electric_scooter", "lat": 38.92356433333333, "is_reserved": 0, "is_disabled": 0, "fusion_lon": 0.0, "bike_id": "2a25b7cb7f72b055a0a8808d30914dc7", "lon": -77.05235266666666, "rental_uris": {"ios": "https://dc.lft.to/lastmile_qr_scan", "android": "https://dc.lft.to/lastmile_qr_scan"}}, {"name": "acc2d7a0ed386fba16521645f57ba998", "fusion_lat": 0.0, "type": "electric_scooter", "lat": 38.89484683333333, "is_reserved": 0, "is_disabled": 0, "fusion_lon": 0.0, "bike_id": "acc2d7a0ed386fba16521645f57ba998", "lon": -77.0231335, "rental_uris": {"ios": "https://dc.lft.to/lastmile_qr_scan", "android": "https://dc.lft.to/lastmile_qr_scan"}}, {"name": "f09d41b71048fbdf6ac9f92c00642819", "fusion_lat": 0.0, "type": "electric_scooter", "lat": 38.9181905, "is_reserved": 0, "is_disabled": 0, "fusion_lon": 0.0, "bike_id": "f09d41b71048fbdf6ac9f92c00642819", "lon": -77.03998166666666, "rental_uris": {"ios": "https://dc.lft.to/lastmile_qr_scan", "android": "https://dc.lft.to/lastmile_qr_scan"}}, {"name": "825d81021b43847670141157d0d3e28e", "fusion_lat": 0.0, "type": "electric_scooter", "lat": 38.917298833333334, "is_reserved": 0, "is_disabled": 0, "fusion_lon": 0.0, "bike_id": "825d81021b43847670141157d0d3e28e", "lon": -77.01029516666667, "rental_uris": {"ios": "https://dc.lft.to/lastmile_qr_scan", "android": "https://dc.lft.to/lastmile_qr_scan"}}, {"name": "5b9be6616b63a7267d358ffed63126b1", "fusion_lat": 0.0, "type": "electric_scooter", "lat": 38.9191125, "is_reserved": 0, "is_disabled": 0, "fusion_lon": 0.0, "bike_id": "5b9be6616b63a7267d358ffed63126b1", "lon": -77.02169233333333, "rental_uris": {"ios": "https://dc.lft.to/lastmile_qr_scan", "android": "https://dc.lft.to/lastmile_qr_scan"}}, {"name": "f4f998e15b9ec46e749d593a911e1e2f", "fusion_lat": 0.0, "type": "electric_scooter", "lat": 38.92976483333333, "is_reserved": 0, "is_disabled": 0, "fusion_lon": 0.0, "bike_id": "f4f998e15b9ec46e749d593a911e1e2f", "lon": -77.03264833333333, "rental_uris": {"ios": "https://dc.lft.to/lastmile_qr_scan", "android": "https://dc.lft.to/lastmile_qr_scan"}}, {"name": "c2ead352e2c4eb20d7858cacb0a66cc8", "fusion_lat": 0.0, "type": "electric_scooter", "lat": 38.908846833333335, "is_reserved": 0, "is_disabled": 0, "fusion_lon": 0.0, "bike_id": "c2ead352e2c4eb20d7858cacb0a66cc8", "lon": -77.00574866666666, "rental_uris": {"ios": "https://dc.lft.to/lastmile_qr_scan", "android": "https://dc.lft.to/lastmile_qr_scan"}}, {"name": "dba2a8975f87f22b2a65735ca002b7fa", "fusion_lat": 0.0, "type": "electric_scooter", "lat": 38.9280015, "is_reserved": 0, "is_disabled": 0, "fusion_lon": 0.0, "bike_id": "dba2a8975f87f22b2a65735ca002b7fa", "lon": -77.03973, "rental_uris": {"ios": "https://dc.lft.to/lastmile_qr_scan", "android": "https://dc.lft.to/lastmile_qr_scan"}}, {"name": "52e54b8cd2ed859d4748adc8661bce16", "fusion_lat": 0.0, "type": "electric_scooter", "lat": 38.919290333333336, "is_reserved": 0, "is_disabled": 0, "fusion_lon": 0.0, "bike_id": "52e54b8cd2ed859d4748adc8661bce16", "lon": -77.04490416666667, "rental_uris": {"ios": "https://dc.lft.to/lastmile_qr_scan", "android": "https://dc.lft.to/lastmile_qr_scan"}}, {"name": "668b34932c749dc1e0141b90b68ed984", "fusion_lat": 0.0, "type": "electric_scooter", "lat": 38.8615425, "is_reserved": 0, "is_disabled": 0, "fusion_lon": 0.0, "bike_id": "668b34932c749dc1e0141b90b68ed984", "lon": -76.9889775, "rental_uris": {"ios": "https://dc.lft.to/lastmile_qr_scan", "android": "https://dc.lft.to/lastmile_qr_scan"}}, {"name": "6944816e3512fbc4e85b7649d3f7554e", "fusion_lat": 0.0, "type": "electric_scooter", "lat": 38.91752066666667, "is_reserved": 0, "is_disabled": 0, "fusion_lon": 0.0, "bike_id": "6944816e3512fbc4e85b7649d3f7554e", "lon": -77.01882216666667, "rental_uris": {"ios": "https://dc.lft.to/lastmile_qr_scan", "android": "https://dc.lft.to/lastmile_qr_scan"}}, {"name": "8817c75039e4b668e56536fb5b4c226a", "fusion_lat": 0.0, "type": "electric_scooter", "lat": 38.8987705, "is_reserved": 0, "is_disabled": 0, "fusion_lon": 0.0, "bike_id": "8817c75039e4b668e56536fb5b4c226a", "lon": -76.9315995, "rental_uris": {"ios": "https://dc.lft.to/lastmile_qr_scan", "android": "https://dc.lft.to/lastmile_qr_scan"}}, {"name": "10dbbc27e042983d190d972ad8916763", "fusion_lat": 0.0, "type": "electric_scooter", "lat": 38.93889766666667, "is_reserved": 0, "is_disabled": 0, "fusion_lon": 0.0, "bike_id": "10dbbc27e042983d190d972ad8916763", "lon": -77.032634, "rental_uris": {"ios": "https://dc.lft.to/lastmile_qr_scan", "android": "https://dc.lft.to/lastmile_qr_scan"}}, {"name": "0acaf079f48bc8dcbc8d434a3802db43", "fusion_lat": 0.0, "type": "electric_scooter", "lat": 38.9084955, "is_reserved": 0, "is_disabled": 0, "fusion_lon": 0.0, "bike_id": "0acaf079f48bc8dcbc8d434a3802db43", "lon": -77.01325616666666, "rental_uris": {"ios": "https://dc.lft.to/lastmile_qr_scan", "android": "https://dc.lft.to/lastmile_qr_scan"}}, {"name": "afac722c7c68c974e84c2d107d99898d", "fusion_lat": 0.0, "type": "electric_scooter", "lat": 38.92444916666667, "is_reserved": 0, "is_disabled": 0, "fusion_lon": 0.0, "bike_id": "afac722c7c68c974e84c2d107d99898d", "lon": -76.99333833333333, "rental_uris": {"ios": "https://dc.lft.to/lastmile_qr_scan", "android": "https://dc.lft.to/lastmile_qr_scan"}}, {"name": "020ef2df1810454d05d57f327e9fe543", "fusion_lat": 0.0, "type": "electric_scooter", "lat": 38.92477866666667, "is_reserved": 0, "is_disabled": 0, "fusion_lon": 0.0, "bike_id": "020ef2df1810454d05d57f327e9fe543", "lon": -77.02997166666667, "rental_uris": {"ios": "https://dc.lft.to/lastmile_qr_scan", "android": "https://dc.lft.to/lastmile_qr_scan"}}, {"name": "17b5c7751be07e0a9c4d23a7e9225350", "fusion_lat": 0.0, "type": "electric_scooter", "lat": 38.86826683333334, "is_reserved": 0, "is_disabled": 0, "fusion_lon": 0.0, "bike_id": "17b5c7751be07e0a9c4d23a7e9225350", "lon": -76.986109, "rental_uris": {"ios": "https://dc.lft.to/lastmile_qr_scan", "android": "https://dc.lft.to/lastmile_qr_scan"}}, {"name": "a0dce8e8117c680a0f904b8e08fa1c78", "fusion_lat": 0.0, "type": "electric_scooter", "lat": 38.927501, "is_reserved": 0, "is_disabled": 0, "fusion_lon": 0.0, "bike_id": "a0dce8e8117c680a0f904b8e08fa1c78", "lon": -77.02305783333334, "rental_uris": {"ios": "https://dc.lft.to/lastmile_qr_scan", "android": "https://dc.lft.to/lastmile_qr_scan"}}, {"name": "0688351c9311e419ccdeaa4d9b585b1c", "fusion_lat": 0.0, "type": "electric_scooter", "lat": 38.88578966666667, "is_reserved": 0, "is_disabled": 0, "fusion_lon": 0.0, "bike_id": "0688351c9311e419ccdeaa4d9b585b1c", "lon": -76.99495833333333, "rental_uris": {"ios": "https://dc.lft.to/lastmile_qr_scan", "android": "https://dc.lft.to/lastmile_qr_scan"}}, {"name": "a886750279fd779b52963cafef484122", "fusion_lat": 0.0, "type": "electric_scooter", "lat": 38.91585233333333, "is_reserved": 0, "is_disabled": 0, "fusion_lon": 0.0, "bike_id": "a886750279fd779b52963cafef484122", "lon": -77.04256916666667, "rental_uris": {"ios": "https://dc.lft.to/lastmile_qr_scan", "android": "https://dc.lft.to/lastmile_qr_scan"}}, {"name": "f3613e9969117b42c4ed735955c2b617", "fusion_lat": 0.0, "type": "electric_scooter", "lat": 38.906445833333336, "is_reserved": 0, "is_disabled": 0, "fusion_lon": 0.0, "bike_id": "f3613e9969117b42c4ed735955c2b617", "lon": -77.048777, "rental_uris": {"ios": "https://dc.lft.to/lastmile_qr_scan", "android": "https://dc.lft.to/lastmile_qr_scan"}}, {"name": "9834ebe32cda2b80d3098d5983a5df83", "fusion_lat": 0.0, "type": "electric_scooter", "lat": 38.927765666666666, "is_reserved": 0, "is_disabled": 0, "fusion_lon": 0.0, "bike_id": "9834ebe32cda2b80d3098d5983a5df83", "lon": -77.01410033333333, "rental_uris": {"ios": "https://dc.lft.to/lastmile_qr_scan", "android": "https://dc.lft.to/lastmile_qr_scan"}}, {"name": "a0deb61b57f7b71b1c3eef166665dffb", "fusion_lat": 0.0, "type": "electric_scooter", "lat": 38.895775, "is_reserved": 0, "is_disabled": 0, "fusion_lon": 0.0, "bike_id": "a0deb61b57f7b71b1c3eef166665dffb", "lon": -76.94885783333334, "rental_uris": {"ios": "https://dc.lft.to/lastmile_qr_scan", "android": "https://dc.lft.to/lastmile_qr_scan"}}, {"name": "077e75b928b2960e06ff435acaa6af9f", "fusion_lat": 0.0, "type": "electric_scooter", "lat": 38.900661166666666, "is_reserved": 0, "is_disabled": 0, "fusion_lon": 0.0, "bike_id": "077e75b928b2960e06ff435acaa6af9f", "lon": -77.04994866666667, "rental_uris": {"ios": "https://dc.lft.to/lastmile_qr_scan", "android": "https://dc.lft.to/lastmile_qr_scan"}}, {"name": "8049e95b2706368af4d89002a7de0e3f", "fusion_lat": 0.0, "type": "electric_scooter", "lat": 38.898280666666665, "is_reserved": 0, "is_disabled": 0, "fusion_lon": 0.0, "bike_id": "8049e95b2706368af4d89002a7de0e3f", "lon": -77.03347166666667, "rental_uris": {"ios": "https://dc.lft.to/lastmile_qr_scan", "android": "https://dc.lft.to/lastmile_qr_scan"}}, {"name": "e30728b197cd18e162b1aca0083ddce6", "fusion_lat": 0.0, "type": "electric_bike", "lat": 38.96870916666666, "is_reserved": 0, "is_disabled": 0, "fusion_lon": 0.0, "bike_id": "e30728b197cd18e162b1aca0083ddce6", "lon": -77.03336316666666, "rental_uris": {"ios": "https://dc.lft.to/lastmile_qr_scan", "android": "https://dc.lft.to/lastmile_qr_scan"}}, {"name": "d6b8d945948fa9ea1b9f13732b16a642", "fusion_lat": 0.0, "type": "electric_scooter", "lat": 38.89982366666667, "is_reserved": 0, "is_disabled": 0, "fusion_lon": 0.0, "bike_id": "d6b8d945948fa9ea1b9f13732b16a642", "lon": -77.03126766666666, "rental_uris": {"ios": "https://dc.lft.to/lastmile_qr_scan", "android": "https://dc.lft.to/lastmile_qr_scan"}}, {"name": "0917409b6c67d15abbdbd004c69bd087", "fusion_lat": 0.0, "type": "electric_bike", "lat": 38.95908083333333, "is_reserved": 0, "is_disabled": 0, "fusion_lon": 0.0, "bike_id": "0917409b6c67d15abbdbd004c69bd087", "lon": -77.00150683333334, "rental_uris": {"ios": "https://dc.lft.to/lastmile_qr_scan", "android": "https://dc.lft.to/lastmile_qr_scan"}}, {"name": "a2b59c088058bde3a420d6c0e4675643", "fusion_lat": 0.0, "type": "electric_scooter", "lat": 38.90248366666667, "is_reserved": 0, "is_disabled": 0, "fusion_lon": 0.0, "bike_id": "a2b59c088058bde3a420d6c0e4675643", "lon": -77.03143583333333, "rental_uris": {"ios": "https://dc.lft.to/lastmile_qr_scan", "android": "https://dc.lft.to/lastmile_qr_scan"}}, {"name": "a9c06c35bb40f16102134cdaecb77950", "fusion_lat": 0.0, "type": "electric_scooter", "lat": 38.89719483333333, "is_reserved": 0, "is_disabled": 0, "fusion_lon": 0.0, "bike_id": "a9c06c35bb40f16102134cdaecb77950", "lon": -77.0326925, "rental_uris": {"ios": "https://dc.lft.to/lastmile_qr_scan", "android": "https://dc.lft.to/lastmile_qr_scan"}}, {"name": "dd89d873554ed3a5d0241b7459ba355c", "fusion_lat": 0.0, "type": "electric_scooter", "lat": 38.927520666666666, "is_reserved": 0, "is_disabled": 0, "fusion_lon": 0.0, "bike_id": "dd89d873554ed3a5d0241b7459ba355c", "lon": -77.0326785, "rental_uris": {"ios": "https://dc.lft.to/lastmile_qr_scan", "android": "https://dc.lft.to/lastmile_qr_scan"}}, {"name": "de6d868cd155e56f95ce607d42a52614", "fusion_lat": 0.0, "type": "electric_scooter", "lat": 38.90025383333333, "is_reserved": 0, "is_disabled": 0, "fusion_lon": 0.0, "bike_id": "de6d868cd155e56f95ce607d42a52614", "lon": -77.0118435, "rental_uris": {"ios": "https://dc.lft.to/lastmile_qr_scan", "android": "https://dc.lft.to/lastmile_qr_scan"}}, {"name": "5c7ac55e4e00f8cee3e60dfc19a76a4b", "fusion_lat": 0.0, "type": "electric_scooter", "lat": 38.9371345, "is_reserved": 0, "is_disabled": 0, "fusion_lon": 0.0, "bike_id": "5c7ac55e4e00f8cee3e60dfc19a76a4b", "lon": -77.0364835, "rental_uris": {"ios": "https://dc.lft.to/lastmile_qr_scan", "android": "https://dc.lft.to/lastmile_qr_scan"}}, {"name": "60e29931d0f64f580b9455c8f9112a37", "fusion_lat": 0.0, "type": "electric_scooter", "lat": 38.90118966666667, "is_reserved": 0, "is_disabled": 0, "fusion_lon": 0.0, "bike_id": "60e29931d0f64f580b9455c8f9112a37", "lon": -77.04029316666667, "rental_uris": {"ios": "https://dc.lft.to/lastmile_qr_scan", "android": "https://dc.lft.to/lastmile_qr_scan"}}, {"name": "afbdf40608655e208899a3bf1757dbae", "fusion_lat": 0.0, "type": "electric_scooter", "lat": 38.918025666666665, "is_reserved": 0, "is_disabled": 0, "fusion_lon": 0.0, "bike_id": "afbdf40608655e208899a3bf1757dbae", "lon": -77.03217166666667, "rental_uris": {"ios": "https://dc.lft.to/lastmile_qr_scan", "android": "https://dc.lft.to/lastmile_qr_scan"}}, {"name": "731827f96f0780d9f4f1a98d78b7e1d6", "fusion_lat": 0.0, "type": "electric_scooter", "lat": 38.91489166666667, "is_reserved": 0, "is_disabled": 0, "fusion_lon": 0.0, "bike_id": "731827f96f0780d9f4f1a98d78b7e1d6", "lon": -77.03249433333333, "rental_uris": {"ios": "https://dc.lft.to/lastmile_qr_scan", "android": "https://dc.lft.to/lastmile_qr_scan"}}, {"name": "9e322b53b6ad79ac9e2c552410f94abc", "fusion_lat": 0.0, "type": "electric_scooter", "lat": 38.8985425, "is_reserved": 0, "is_disabled": 0, "fusion_lon": 0.0, "bike_id": "9e322b53b6ad79ac9e2c552410f94abc", "lon": -77.03177466666666, "rental_uris": {"ios": "https://dc.lft.to/lastmile_qr_scan", "android": "https://dc.lft.to/lastmile_qr_scan"}}, {"name": "201eb3c2d98c168cabdc75853bfb9321", "fusion_lat": 0.0, "type": "electric_scooter", "lat": 38.90377183333333, "is_reserved": 0, "is_disabled": 0, "fusion_lon": 0.0, "bike_id": "201eb3c2d98c168cabdc75853bfb9321", "lon": -77.03398783333333, "rental_uris": {"ios": "https://dc.lft.to/lastmile_qr_scan", "android": "https://dc.lft.to/lastmile_qr_scan"}}, {"name": "a35a10198dff701dcdcda07148a603a0", "fusion_lat": 0.0, "type": "electric_scooter", "lat": 38.8742835, "is_reserved": 0, "is_disabled": 0, "fusion_lon": 0.0, "bike_id": "a35a10198dff701dcdcda07148a603a0", "lon": -77.0206555, "rental_uris": {"ios": "https://dc.lft.to/lastmile_qr_scan", "android": "https://dc.lft.to/lastmile_qr_scan"}}, {"name": "223c278a892161e79cc3dc5d7f090a0d", "fusion_lat": 0.0, "type": "electric_scooter", "lat": 38.891984, "is_reserved": 0, "is_disabled": 0, "fusion_lon": 0.0, "bike_id": "223c278a892161e79cc3dc5d7f090a0d", "lon": -77.0028955, "rental_uris": {"ios": "https://dc.lft.to/lastmile_qr_scan", "android": "https://dc.lft.to/lastmile_qr_scan"}}, {"name": "0b7eddc86c4403ade0e9a27785f1b217", "fusion_lat": 0.0, "type": "electric_scooter", "lat": 38.8984535, "is_reserved": 0, "is_disabled": 0, "fusion_lon": 0.0, "bike_id": "0b7eddc86c4403ade0e9a27785f1b217", "lon": -77.039527, "rental_uris": {"ios": "https://dc.lft.to/lastmile_qr_scan", "android": "https://dc.lft.to/lastmile_qr_scan"}}, {"name": "f495e7c67de3288e41362ffaa0c8adff", "fusion_lat": 0.0, "type": "electric_scooter", "lat": 38.89096333333333, "is_reserved": 0, "is_disabled": 0, "fusion_lon": 0.0, "bike_id": "f495e7c67de3288e41362ffaa0c8adff", "lon": -76.9820315, "rental_uris": {"ios": "https://dc.lft.to/lastmile_qr_scan", "android": "https://dc.lft.to/lastmile_qr_scan"}}, {"name": "cdf70356dbb72194f05b7f4d5dc17380", "fusion_lat": 0.0, "type": "electric_scooter", "lat": 38.91112866666667, "is_reserved": 0, "is_disabled": 0, "fusion_lon": 0.0, "bike_id": "cdf70356dbb72194f05b7f4d5dc17380", "lon": -77.0446145, "rental_uris": {"ios": "https://dc.lft.to/lastmile_qr_scan", "android": "https://dc.lft.to/lastmile_qr_scan"}}, {"name": "759a271fd927312b516cb528bd0ff659", "fusion_lat": 0.0, "type": "electric_scooter", "lat": 38.91264066666667, "is_reserved": 0, "is_disabled": 0, "fusion_lon": 0.0, "bike_id": "759a271fd927312b516cb528bd0ff659", "lon": -77.03141216666667, "rental_uris": {"ios": "https://dc.lft.to/lastmile_qr_scan", "android": "https://dc.lft.to/lastmile_qr_scan"}}, {"name": "cfb1e56fad6b29d322c63a60ea699d8e", "fusion_lat": 0.0, "type": "electric_scooter", "lat": 38.884448, "is_reserved": 0, "is_disabled": 0, "fusion_lon": 0.0, "bike_id": "cfb1e56fad6b29d322c63a60ea699d8e", "lon": -77.02602233333333, "rental_uris": {"ios": "https://dc.lft.to/lastmile_qr_scan", "android": "https://dc.lft.to/lastmile_qr_scan"}}, {"name": "1e8e16e49ca5c09505dd94a245806633", "fusion_lat": 0.0, "type": "electric_scooter", "lat": 38.899929166666666, "is_reserved": 0, "is_disabled": 0, "fusion_lon": 0.0, "bike_id": "1e8e16e49ca5c09505dd94a245806633", "lon": -76.98558883333334, "rental_uris": {"ios": "https://dc.lft.to/lastmile_qr_scan", "android": "https://dc.lft.to/lastmile_qr_scan"}}, {"name": "108f55817e4ec30c4880ed9d26520bbc", "fusion_lat": 0.0, "type": "electric_scooter", "lat": 38.914036833333334, "is_reserved": 0, "is_disabled": 0, "fusion_lon": 0.0, "bike_id": "108f55817e4ec30c4880ed9d26520bbc", "lon": -77.03907266666667, "rental_uris": {"ios": "https://dc.lft.to/lastmile_qr_scan", "android": "https://dc.lft.to/lastmile_qr_scan"}}, {"name": "0833d1008db2ce99f9292958ca48b08f", "fusion_lat": 0.0, "type": "electric_scooter", "lat": 38.90044016666667, "is_reserved": 0, "is_disabled": 0, "fusion_lon": 0.0, "bike_id": "0833d1008db2ce99f9292958ca48b08f", "lon": -77.04481033333333, "rental_uris": {"ios": "https://dc.lft.to/lastmile_qr_scan", "android": "https://dc.lft.to/lastmile_qr_scan"}}, {"name": "b80ee1b7ecdc0901dfd67b2713a8d223", "fusion_lat": 0.0, "type": "electric_bike", "lat": 38.846095, "is_reserved": 0, "is_disabled": 0, "fusion_lon": 0.0, "bike_id": "b80ee1b7ecdc0901dfd67b2713a8d223", "lon": -76.97826483333333, "rental_uris": {"ios": "https://dc.lft.to/lastmile_qr_scan", "android": "https://dc.lft.to/lastmile_qr_scan"}}, {"name": "2a6e3aff6bbc18098b3d6bc14c8ed2b2", "fusion_lat": 0.0, "type": "electric_scooter", "lat": 38.908318666666666, "is_reserved": 0, "is_disabled": 0, "fusion_lon": 0.0, "bike_id": "2a6e3aff6bbc18098b3d6bc14c8ed2b2", "lon": -77.00108933333334, "rental_uris": {"ios": "https://dc.lft.to/lastmile_qr_scan", "android": "https://dc.lft.to/lastmile_qr_scan"}}, {"name": "1d4061dd161de88db00c13f69ed9c9d9", "fusion_lat": 0.0, "type": "electric_scooter", "lat": 38.9090895, "is_reserved": 0, "is_disabled": 0, "fusion_lon": 0.0, "bike_id": "1d4061dd161de88db00c13f69ed9c9d9", "lon": -77.03666533333333, "rental_uris": {"ios": "https://dc.lft.to/lastmile_qr_scan", "android": "https://dc.lft.to/lastmile_qr_scan"}}, {"name": "86dc72aca417ec9c97ed4a8eb2c06dcc", "fusion_lat": 0.0, "type": "electric_scooter", "lat": 38.9066705, "is_reserved": 0, "is_disabled": 0, "fusion_lon": 0.0, "bike_id": "86dc72aca417ec9c97ed4a8eb2c06dcc", "lon": -77.02708083333333, "rental_uris": {"ios": "https://dc.lft.to/lastmile_qr_scan", "android": "https://dc.lft.to/lastmile_qr_scan"}}, {"name": "04e43d8cc17cb9323685183d498bb33e", "fusion_lat": 0.0, "type": "electric_scooter", "lat": 38.90893716666667, "is_reserved": 0, "is_disabled": 0, "fusion_lon": 0.0, "bike_id": "04e43d8cc17cb9323685183d498bb33e", "lon": -77.02807916666667, "rental_uris": {"ios": "https://dc.lft.to/lastmile_qr_scan", "android": "https://dc.lft.to/lastmile_qr_scan"}}, {"name": "4ff6ae977b5ff425ae95af30e3324676", "fusion_lat": 0.0, "type": "electric_scooter", "lat": 38.9033945, "is_reserved": 0, "is_disabled": 0, "fusion_lon": 0.0, "bike_id": "4ff6ae977b5ff425ae95af30e3324676", "lon": -77.0529435, "rental_uris": {"ios": "https://dc.lft.to/lastmile_qr_scan", "android": "https://dc.lft.to/lastmile_qr_scan"}}, {"name": "983d232a11ef67d85cf91c10f90b473b", "fusion_lat": 0.0, "type": "electric_scooter", "lat": 38.897281166666666, "is_reserved": 0, "is_disabled": 0, "fusion_lon": 0.0, "bike_id": "983d232a11ef67d85cf91c10f90b473b", "lon": -77.00930616666666, "rental_uris": {"ios": "https://dc.lft.to/lastmile_qr_scan", "android": "https://dc.lft.to/lastmile_qr_scan"}}, {"name": "ec0bb0978a9755732e7e38bdaa3bb4e8", "fusion_lat": 0.0, "type": "electric_scooter", "lat": 38.913329833333336, "is_reserved": 0, "is_disabled": 0, "fusion_lon": 0.0, "bike_id": "ec0bb0978a9755732e7e38bdaa3bb4e8", "lon": -77.04566783333334, "rental_uris": {"ios": "https://dc.lft.to/lastmile_qr_scan", "android": "https://dc.lft.to/lastmile_qr_scan"}}, {"name": "87ba54f64606061ab5b8b4a79ce6213c", "fusion_lat": 0.0, "type": "electric_scooter", "lat": 38.919623666666666, "is_reserved": 0, "is_disabled": 0, "fusion_lon": 0.0, "bike_id": "87ba54f64606061ab5b8b4a79ce6213c", "lon": -77.03854516666667, "rental_uris": {"ios": "https://dc.lft.to/lastmile_qr_scan", "android": "https://dc.lft.to/lastmile_qr_scan"}}, {"name": "c30aca2553984f81baa1f8b4f7db3b34", "fusion_lat": 0.0, "type": "electric_scooter", "lat": 38.898988333333335, "is_reserved": 0, "is_disabled": 0, "fusion_lon": 0.0, "bike_id": "c30aca2553984f81baa1f8b4f7db3b34", "lon": -77.03270666666667, "rental_uris": {"ios": "https://dc.lft.to/lastmile_qr_scan", "android": "https://dc.lft.to/lastmile_qr_scan"}}, {"name": "ffe33650c5f7ffbfd97bb3b8995f19be", "fusion_lat": 0.0, "type": "electric_bike", "lat": 39.05811533333333, "is_reserved": 0, "is_disabled": 0, "fusion_lon": 0.0, "bike_id": "ffe33650c5f7ffbfd97bb3b8995f19be", "lon": -77.12622583333334, "rental_uris": {"ios": "https://dc.lft.to/lastmile_qr_scan", "android": "https://dc.lft.to/lastmile_qr_scan"}}, {"name": "7c13e979bf7ac6b5fe6eac008573c5ef", "fusion_lat": 0.0, "type": "electric_scooter", "lat": 38.915608166666665, "is_reserved": 0, "is_disabled": 0, "fusion_lon": 0.0, "bike_id": "7c13e979bf7ac6b5fe6eac008573c5ef", "lon": -77.02940633333333, "rental_uris": {"ios": "https://dc.lft.to/lastmile_qr_scan", "android": "https://dc.lft.to/lastmile_qr_scan"}}, {"name": "fd34168aee5713fd9aeb70e2cd18b714", "fusion_lat": 0.0, "type": "electric_scooter", "lat": 38.928756, "is_reserved": 0, "is_disabled": 0, "fusion_lon": 0.0, "bike_id": "fd34168aee5713fd9aeb70e2cd18b714", "lon": -77.027076, "rental_uris": {"ios": "https://dc.lft.to/lastmile_qr_scan", "android": "https://dc.lft.to/lastmile_qr_scan"}}, {"name": "08df5a9a38ec2304961042b67faf8c28", "fusion_lat": 0.0, "type": "electric_bike", "lat": 38.9025935, "is_reserved": 0, "is_disabled": 0, "fusion_lon": 0.0, "bike_id": "08df5a9a38ec2304961042b67faf8c28", "lon": -77.03324616666667, "rental_uris": {"ios": "https://dc.lft.to/lastmile_qr_scan", "android": "https://dc.lft.to/lastmile_qr_scan"}}, {"name": "0308deb123cb56086fbf4c05b3405885", "fusion_lat": 0.0, "type": "electric_scooter", "lat": 38.9273855, "is_reserved": 0, "is_disabled": 0, "fusion_lon": 0.0, "bike_id": "0308deb123cb56086fbf4c05b3405885", "lon": -77.02250883333333, "rental_uris": {"ios": "https://dc.lft.to/lastmile_qr_scan", "android": "https://dc.lft.to/lastmile_qr_scan"}}, {"name": "f73c2fdf65199d2bacc74c9f8a2af904", "fusion_lat": 0.0, "type": "electric_scooter", "lat": 38.920891, "is_reserved": 0, "is_disabled": 0, "fusion_lon": 0.0, "bike_id": "f73c2fdf65199d2bacc74c9f8a2af904", "lon": -77.039727, "rental_uris": {"ios": "https://dc.lft.to/lastmile_qr_scan", "android": "https://dc.lft.to/lastmile_qr_scan"}}, {"name": "dbd9ab45414bfd4d27e57307a0b0fabd", "fusion_lat": 0.0, "type": "electric_scooter", "lat": 38.90647416666667, "is_reserved": 0, "is_disabled": 0, "fusion_lon": 0.0, "bike_id": "dbd9ab45414bfd4d27e57307a0b0fabd", "lon": -77.04333816666667, "rental_uris": {"ios": "https://dc.lft.to/lastmile_qr_scan", "android": "https://dc.lft.to/lastmile_qr_scan"}}, {"name": "75552a9035a1ac86d22286cfc9eaad52", "fusion_lat": 0.0, "type": "electric_scooter", "lat": 38.90003216666667, "is_reserved": 0, "is_disabled": 0, "fusion_lon": 0.0, "bike_id": "75552a9035a1ac86d22286cfc9eaad52", "lon": -77.04036016666667, "rental_uris": {"ios": "https://dc.lft.to/lastmile_qr_scan", "android": "https://dc.lft.to/lastmile_qr_scan"}}, {"name": "2c16737e3425de291d7c951c4ffaac0c", "fusion_lat": 0.0, "type": "electric_scooter", "lat": 38.8783315, "is_reserved": 0, "is_disabled": 0, "fusion_lon": 0.0, "bike_id": "2c16737e3425de291d7c951c4ffaac0c", "lon": -76.99035833333333, "rental_uris": {"ios": "https://dc.lft.to/lastmile_qr_scan", "android": "https://dc.lft.to/lastmile_qr_scan"}}, {"name": "f7263d6d0b0df4c1e65d25f76fde0222", "fusion_lat": 0.0, "type": "electric_scooter", "lat": 38.910080666666666, "is_reserved": 0, "is_disabled": 0, "fusion_lon": 0.0, "bike_id": "f7263d6d0b0df4c1e65d25f76fde0222", "lon": -76.99668066666666, "rental_uris": {"ios": "https://dc.lft.to/lastmile_qr_scan", "android": "https://dc.lft.to/lastmile_qr_scan"}}, {"name": "0a5dcbd089df354839759c72ac1ccc31", "fusion_lat": 0.0, "type": "electric_scooter", "lat": 38.9156095, "is_reserved": 0, "is_disabled": 0, "fusion_lon": 0.0, "bike_id": "0a5dcbd089df354839759c72ac1ccc31", "lon": -77.02942816666666, "rental_uris": {"ios": "https://dc.lft.to/lastmile_qr_scan", "android": "https://dc.lft.to/lastmile_qr_scan"}}, {"name": "067d402f101ad5aba848656b98bbc6f7", "fusion_lat": 0.0, "type": "electric_scooter", "lat": 38.90133683333333, "is_reserved": 0, "is_disabled": 0, "fusion_lon": 0.0, "bike_id": "067d402f101ad5aba848656b98bbc6f7", "lon": -77.0470915, "rental_uris": {"ios": "https://dc.lft.to/lastmile_qr_scan", "android": "https://dc.lft.to/lastmile_qr_scan"}}, {"name": "e5f82069a09b6a02edf0ad3a3200f767", "fusion_lat": 0.0, "type": "electric_scooter", "lat": 38.939104, "is_reserved": 0, "is_disabled": 0, "fusion_lon": 0.0, "bike_id": "e5f82069a09b6a02edf0ad3a3200f767", "lon": -77.06038566666666, "rental_uris": {"ios": "https://dc.lft.to/lastmile_qr_scan", "android": "https://dc.lft.to/lastmile_qr_scan"}}, {"name": "2a6884b0a4fe6ec410bdd885ece2dfee", "fusion_lat": 0.0, "type": "electric_scooter", "lat": 38.89969033333333, "is_reserved": 0, "is_disabled": 0, "fusion_lon": 0.0, "bike_id": "2a6884b0a4fe6ec410bdd885ece2dfee", "lon": -77.05298733333333, "rental_uris": {"ios": "https://dc.lft.to/lastmile_qr_scan", "android": "https://dc.lft.to/lastmile_qr_scan"}}, {"name": "bec239ca472a0e2be386b1b09cec47dd", "fusion_lat": 0.0, "type": "electric_scooter", "lat": 38.883261166666664, "is_reserved": 0, "is_disabled": 0, "fusion_lon": 0.0, "bike_id": "bec239ca472a0e2be386b1b09cec47dd", "lon": -77.01532583333334, "rental_uris": {"ios": "https://dc.lft.to/lastmile_qr_scan", "android": "https://dc.lft.to/lastmile_qr_scan"}}, {"name": "4ee30bfd412b3d948fa860f50132d562", "fusion_lat": 0.0, "type": "electric_scooter", "lat": 38.92740366666666, "is_reserved": 0, "is_disabled": 0, "fusion_lon": 0.0, "bike_id": "4ee30bfd412b3d948fa860f50132d562", "lon": -77.02492916666667, "rental_uris": {"ios": "https://dc.lft.to/lastmile_qr_scan", "android": "https://dc.lft.to/lastmile_qr_scan"}}, {"name": "3e73dd38806f0aff6212db7bd82c26a1", "fusion_lat": 0.0, "type": "electric_scooter", "lat": 38.8951445, "is_reserved": 0, "is_disabled": 0, "fusion_lon": 0.0, "bike_id": "3e73dd38806f0aff6212db7bd82c26a1", "lon": -76.992093, "rental_uris": {"ios": "https://dc.lft.to/lastmile_qr_scan", "android": "https://dc.lft.to/lastmile_qr_scan"}}, {"name": "abe87b8cbf384ea71ce400d4ca54d125", "fusion_lat": 0.0, "type": "electric_scooter", "lat": 38.903569833333336, "is_reserved": 0, "is_disabled": 0, "fusion_lon": 0.0, "bike_id": "abe87b8cbf384ea71ce400d4ca54d125", "lon": -77.03836416666667, "rental_uris": {"ios": "https://dc.lft.to/lastmile_qr_scan", "android": "https://dc.lft.to/lastmile_qr_scan"}}, {"name": "625e26820285a1b8a694c908316855bc", "fusion_lat": 0.0, "type": "electric_scooter", "lat": 38.91214333333333, "is_reserved": 0, "is_disabled": 0, "fusion_lon": 0.0, "bike_id": "625e26820285a1b8a694c908316855bc", "lon": -77.03647416666666, "rental_uris": {"ios": "https://dc.lft.to/lastmile_qr_scan", "android": "https://dc.lft.to/lastmile_qr_scan"}}, {"name": "fab089b5b0a204be233d3ada3f78df42", "fusion_lat": 0.0, "type": "electric_scooter", "lat": 38.9042865, "is_reserved": 0, "is_disabled": 0, "fusion_lon": 0.0, "bike_id": "fab089b5b0a204be233d3ada3f78df42", "lon": -77.0345545, "rental_uris": {"ios": "https://dc.lft.to/lastmile_qr_scan", "android": "https://dc.lft.to/lastmile_qr_scan"}}, {"name": "fe6d4104c8abe374520ca0c57c2f5443", "fusion_lat": 0.0, "type": "electric_scooter", "lat": 38.905367, "is_reserved": 0, "is_disabled": 0, "fusion_lon": 0.0, "bike_id": "fe6d4104c8abe374520ca0c57c2f5443", "lon": -77.02205416666666, "rental_uris": {"ios": "https://dc.lft.to/lastmile_qr_scan", "android": "https://dc.lft.to/lastmile_qr_scan"}}, {"name": "9201064c0757f6ac824039e932f7de26", "fusion_lat": 0.0, "type": "electric_scooter", "lat": 38.912452333333334, "is_reserved": 0, "is_disabled": 0, "fusion_lon": 0.0, "bike_id": "9201064c0757f6ac824039e932f7de26", "lon": -77.03644983333334, "rental_uris": {"ios": "https://dc.lft.to/lastmile_qr_scan", "android": "https://dc.lft.to/lastmile_qr_scan"}},