{"data": {"bikes": [{"rental_uris": {"ios": "https://dc.lft.to/lastmile_qr_scan", "android": "https://dc.lft.to/lastmile_qr_scan"}, "lon": -76.8782475, "type": "electric_bike", "fusion_lat": 0.0, "lat": 38.99238, "name": "bc1f0e0f0fb31dfa0a9d2f6f5bd993b8", "fusion_lon": 0.0, "bike_id": "bc1f0e0f0fb31dfa0a9d2f6f5bd993b8", "is_disabled": 0, "is_reserved": 0}, {"rental_uris": {"ios": "https://dc.lft.to/lastmile_qr_scan", "android": "https://dc.lft.to/lastmile_qr_scan"}, "lon": -76.95764766666667, "type": "electric_bike", "fusion_lat": 0.0, "lat": 38.884220666666664, "name": "8651d8508397c68498d26a2e961acda2", "fusion_lon": 0.0, "bike_id": "8651d8508397c68498d26a2e961acda2", "is_disabled": 0, "is_reserved": 0}, {"rental_uris": {"ios": "https://dc.lft.to/lastmile_qr_scan", "android": "https://dc.lft.to/lastmile_qr_scan"}, "lon": -77.0318605, "type": "electric_scooter", "fusion_lat": 0.0, "lat": 38.91400566666667, "name": "01b4a3f0e53d32f64423869381a54837", "fusion_lon": 0.0, "bike_id": "01b4a3f0e53d32f64423869381a54837", "is_disabled": 0, "is_reserved": 0}, {"rental_uris": {"ios": "https://dc.lft.to/lastmile_qr_scan", "android": "https://dc.lft.to/lastmile_qr_scan"}, "lon": -76.94666216666667, "type": "electric_scooter", "fusion_lat": 0.0, "lat": 38.90338166666667, "name": "afe70d77a1e99b9121663fefffa0fc4c", "fusion_lon": 0.0, "bike_id": "afe70d77a1e99b9121663fefffa0fc4c", "is_disabled": 0, "is_reserved": 0}, {"rental_uris": {"ios": "https://dc.lft.to/lastmile_qr_scan", "android": "https://dc.lft.to/lastmile_qr_scan"}, "lon": -77.03227033333333, "type": "electric_scooter", "fusion_lat": 0.0, "lat": 38.9288665, "name": "f2167f25c78c51b2c40e0e65978e347e", "fusion_lon": 0.0, "bike_id": "f2167f25c78c51b2c40e0e65978e347e", "is_disabled": 0, "is_reserved": 0}, {"rental_uris": {"ios": "https://dc.lft.to/lastmile_qr_scan", "android": "https://dc.lft.to/lastmile_qr_scan"}, "lon": -77.00297183333333, "type": "electric_bike", "fusion_lat": 0.0, "lat": 38.916129, "name": "6cbe365d05365aa2998938f0498bfcb9", "fusion_lon": 0.0, "bike_id": "6cbe365d05365aa2998938f0498bfcb9", "is_disabled": 0, "is_reserved": 0}, {"rental_uris": {"ios": "https://dc.lft.to/lastmile_qr_scan", "android": "https://dc.lft.to/lastmile_qr_scan"}, "lon": -77.026216, "type": "electric_scooter", "fusion_lat": 0.0, "lat": 38.89223666666667, "name": "0e7507977e9da3e39344cea6c6bdc7ad", "fusion_lon": 0.0, "bike_id": "0e7507977e9da3e39344cea6c6bdc7ad", "is_disabled": 0, "is_reserved": 0}, {"rental_uris": {"ios": "https://dc.lft.to/lastmile_qr_scan", "android": "https://dc.lft.to/lastmile_qr_scan"}, "lon": -76.993666, "type": "electric_scooter", "fusion_lat": 0.0, "lat": 38.900405666666664, "name": "dbd01c4211ae1e429f4d649640de883c", "fusion_lon": 0.0, "bike_id": "dbd01c4211ae1e429f4d649640de883c", "is_disabled": 0, "is_reserved": 0}, {"rental_uris": {"ios": "https://dc.lft.to/lastmile_qr_scan", "android": "https://dc.lft.to/lastmile_qr_scan"}, "lon": -76.99521016666667, "type": "electric_scooter", "fusion_lat": 0.0, "lat": 38.894842, "name": "27a5dbf9b6fdcd718d2d1707f0e05fd9", "fusion_lon": 0.0, "bike_id": "27a5dbf9b6fdcd718d2d1707f0e05fd9", "is_disabled": 0, "is_reserved": 0}, {"rental_uris": {"ios": "https://dc.lft.to/lastmile_qr_scan", "android": "https://dc.lft.to/lastmile_qr_scan"}, "lon": -76.9979355, "type": "electric_scooter", "fusion_lat": 0.0, "lat": 38.92189883333333, "name": "430d3d00c7f15713370f055c5156146c", "fusion_lon": 0.0, "bike_id": "430d3d00c7f15713370f055c5156146c", "is_disabled": 0, "is_reserved": 0}, {"rental_uris": {"ios": "https://dc.lft.to/lastmile_qr_scan", "android": "https://dc.lft.to/lastmile_qr_scan"}, "lon": -76.9950035, "type": "electric_bike", "fusion_lat": 0.0, "lat": 39.00007983333333, "name": "99713f3b6190fceb9344d31e7f912808", "fusion_lon": 0.0, "bike_id": "99713f3b6190fceb9344d31e7f912808", "is_disabled": 0, "is_reserved": 0}, {"rental_uris": {"ios": "https://dc.lft.to/lastmile_qr_scan", "android": "https://dc.lft.to/lastmile_qr_scan"}, "lon": -77.05151466666666, "type": "electric_scooter", "fusion_lat": 0.0, "lat": 38.901296, "name": "4bccf429892dc34ac6d26d70e629c146", "fusion_lon": 0.0, "bike_id": "4bccf429892dc34ac6d26d70e629c146", "is_disabled": 0, "is_reserved": 0}, {"rental_uris": {"ios": "https://dc.lft.to/lastmile_qr_scan", "android": "https://dc.lft.to/lastmile_qr_scan"}, "lon": -76.999798, "type": "electric_scooter", "fusion_lat": 0.0, "lat": 38.8383345, "name": "d2bf1fbba91d2afc9b713151c82efab5", "fusion_lon": 0.0, "bike_id": "d2bf1fbba91d2afc9b713151c82efab5", "is_disabled": 0, "is_reserved": 0}, {"rental_uris": {"ios": "https://dc.lft.to/lastmile_qr_scan", "android": "https://dc.lft.to/lastmile_qr_scan"}, "lon": -77.005127, "type": "electric_scooter", "fusion_lat": 0.0, "lat": 38.91713683333333, "name": "27dd54e2302fa77f81974888ea234cbd", "fusion_lon": 0.0, "bike_id": "27dd54e2302fa77f81974888ea234cbd", "is_disabled": 0, "is_reserved": 0}, {"rental_uris": {"ios": "https://dc.lft.to/lastmile_qr_scan", "android": "https://dc.lft.to/lastmile_qr_scan"}, "lon": -77.06984966666667, "type": "electric_scooter", "fusion_lat": 0.0, "lat": 38.9548625, "name": "e529db90d38fe7851d14d7d1f58390e7", "fusion_lon": 0.0, "bike_id": "e529db90d38fe7851d14d7d1f58390e7", "is_disabled": 0, "is_reserved": 0}, {"rental_uris": {"ios": "https://dc.lft.to/lastmile_qr_scan", "android": "https://dc.lft.to/lastmile_qr_scan"}, "lon": -77.0087555, "type": "electric_scooter", "fusion_lat": 0.0, "lat": 38.879121166666664, "name": "8eec64fa9b1644b0513d3907f71742db", "fusion_lon": 0.0, "bike_id": "8eec64fa9b1644b0513d3907f71742db", "is_disabled": 0, "is_reserved": 0}, {"rental_uris": {"ios": "https://dc.lft.to/lastmile_qr_scan", "android": "https://dc.lft.to/lastmile_qr_scan"}, "lon": -76.99182283333333, "type": "electric_scooter", "fusion_lat": 0.0, "lat": 38.9045585, "name": "bf8290df171e7d730e74d204cbd94156", "fusion_lon": 0.0, "bike_id": "bf8290df171e7d730e74d204cbd94156", "is_disabled": 0, "is_reserved": 0}, {"rental_uris": {"ios": "https://dc.lft.to/lastmile_qr_scan", "android": "https://dc.lft.to/lastmile_qr_scan"}, "lon": -77.02742833333333, "type": "electric_scooter", "fusion_lat": 0.0, "lat": 38.88150666666667, "name": "2196d13173cff372f8403fe713a5301d", "fusion_lon": 0.0, "bike_id": "2196d13173cff372f8403fe713a5301d", "is_disabled": 0, "is_reserved": 0}, {"rental_uris": {"ios": "https://dc.lft.to/lastmile_qr_scan", "android": "https://dc.lft.to/lastmile_qr_scan"}, "lon": -77.0496895, "type": "electric_scooter", "fusion_lat": 0.0, "lat": 38.91601716666667, "name": "65c6c3b5d9d66d5c678cf9d9e8d2c99b", "fusion_lon": 0.0, "bike_id": "65c6c3b5d9d66d5c678cf9d9e8d2c99b", "is_disabled": 0, "is_reserved": 0}, {"rental_uris": {"ios": "https://dc.lft.to/lastmile_qr_scan", "android": "https://dc.lft.to/lastmile_qr_scan"}, "lon": -76.87496633333333, "type": "electric_bike", "fusion_lat": 0.0, "lat": 38.990908, "name": "e010bb6b30ed7d118ccdac3057bc2a20", "fusion_lon": 0.0, "bike_id": "e010bb6b30ed7d118ccdac3057bc2a20", "is_disabled": 0, "is_reserved": 0}, {"rental_uris": {"ios": "https://dc.lft.to/lastmile_qr_scan", "android": "https://dc.lft.to/lastmile_qr_scan"}, "lon": -77.0215975, "type": "electric_scooter", "fusion_lat": 0.0, "lat": 38.926081, "name": "43599191f9dda3ab377bb758debac99b", "fusion_lon": 0.0, "bike_id": "43599191f9dda3ab377bb758debac99b", "is_disabled": 0, "is_reserved": 0}, {"rental_uris": {"ios": "https://dc.lft.to/lastmile_qr_scan", "android": "https://dc.lft.to/lastmile_qr_scan"}, "lon": -77.03936183333333, "type": "electric_scooter", "fusion_lat": 0.0, "lat": 38.92113116666667, "name": "0a91110f026c3f56fced042c9a36db72", "fusion_lon": 0.0, "bike_id": "0a91110f026c3f56fced042c9a36db72", "is_disabled": 0, "is_reserved": 0}, {"rental_uris": {"ios": "https://dc.lft.to/lastmile_qr_scan", "android": "https://dc.lft.to/lastmile_qr_scan"}, "lon": -77.11226633333334, "type": "electric_bike", "fusion_lat": 0.0, "lat": 38.82871683333333, "name": "47bfd686a3a9f51af2b6f6d9b304da7a", "fusion_lon": 0.0, "bike_id": "47bfd686a3a9f51af2b6f6d9b304da7a", "is_disabled": 0, "is_reserved": 0}, {"rental_uris": {"ios": "https://dc.lft.to/lastmile_qr_scan", "android": "https://dc.lft.to/lastmile_qr_scan"}, "lon": -77.02470783333334, "type": "electric_scooter", "fusion_lat": 0.0, "lat": 38.9381465, "name": "e66b39aa4fee7e325401222ab4af9a7c", "fusion_lon": 0.0, "bike_id": "e66b39aa4fee7e325401222ab4af9a7c", "is_disabled": 0, "is_reserved": 0}, {"rental_uris": {"ios": "https://dc.lft.to/lastmile_qr_scan", "android": "https://dc.lft.to/lastmile_qr_scan"}, "lon": -77.0143595, "type": "electric_scooter", "fusion_lat": 0.0, "lat": 38.90641683333333, "name": "c2a0a16d24053d584c9c7f18616f07bb", "fusion_lon": 0.0, "bike_id": "c2a0a16d24053d584c9c7f18616f07bb", "is_disabled": 0, "is_reserved": 0}, {"rental_uris": {"ios": "https://dc.lft.to/lastmile_qr_scan", "android": "https://dc.lft.to/lastmile_qr_scan"}, "lon": -77.00716166666666, "type": "electric_scooter", "fusion_lat": 0.0, "lat": 38.884929666666665, "name": "b2e4727464b3b8ebd4fdeeb05f3f0cd7", "fusion_lon": 0.0, "bike_id": "b2e4727464b3b8ebd4fdeeb05f3f0cd7", "is_disabled": 0, "is_reserved": 0}, {"rental_uris": {"ios": "https://dc.lft.to/lastmile_qr_scan", "android": "https://dc.lft.to/lastmile_qr_scan"}, "lon": -76.94631533333333, "type": "electric_bike", "fusion_lat": 0.0, "lat": 38.83237116666667, "name": "e488d9fbd3fc825fe5fbb9bda65fa317", "fusion_lon": 0.0, "bike_id": "e488d9fbd3fc825fe5fbb9bda65fa317", "is_disabled": 0, "is_reserved": 0}, {"rental_uris": {"ios": "https://dc.lft.to/lastmile_qr_scan", "android": "https://dc.lft.to/lastmile_qr_scan"}, "lon": -77.054649, "type": "electric_scooter", "fusion_lat": 0.0, "lat": 38.8966875, "name": "35be31be693872c2f3c02e9869d1ee24", "fusion_lon": 0.0, "bike_id": "35be31be693872c2f3c02e9869d1ee24", "is_disabled": 0, "is_reserved": 0}, {"rental_uris": {"ios": "https://dc.lft.to/lastmile_qr_scan", "android": "https://dc.lft.to/lastmile_qr_scan"}, "lon": -77.04677816666667, "type": "electric_scooter", "fusion_lat": 0.0, "lat": 38.9053865, "name": "7289fe4db997b2792879250e8941fe16", "fusion_lon": 0.0, "bike_id": "7289fe4db997b2792879250e8941fe16", "is_disabled": 0, "is_reserved": 0}, {"rental_uris": {"ios": "https://dc.lft.to/lastmile_qr_scan", "android": "https://dc.lft.to/lastmile_qr_scan"}, "lon": -77.0436975, "type": "electric_scooter", "fusion_lat": 0.0, "lat": 38.93336133333333, "name": "47f17b5b935ea7eacca5a4b4b389a54f", "fusion_lon": 0.0, "bike_id": "47f17b5b935ea7eacca5a4b4b389a54f", "is_disabled": 0, "is_reserved": 0}, {"rental_uris": {"ios": "https://dc.lft.to/lastmile_qr_scan", "android": "https://dc.lft.to/lastmile_qr_scan"}, "lon": -76.9807325, "type": "electric_scooter", "fusion_lat": 0.0, "lat": 38.90171433333333, "name": "fadb4a3d7a2dbd2aab3e266a5f07f0a2", "fusion_lon": 0.0, "bike_id": "fadb4a3d7a2dbd2aab3e266a5f07f0a2", "is_disabled": 0, "is_reserved": 0}, {"rental_uris": {"ios": "https://dc.lft.to/lastmile_qr_scan", "android": "https://dc.lft.to/lastmile_qr_scan"}, "lon": -76.93927366666667, "type": "electric_scooter", "fusion_lat": 0.0, "lat": 38.89301, "name": "87244707023171fc8147bb51284b5b82", "fusion_lon": 0.0, "bike_id": "87244707023171fc8147bb51284b5b82", "is_disabled": 0, "is_reserved": 0}, {"rental_uris": {"ios": "https://dc.lft.to/lastmile_qr_scan", "android": "https://dc.lft.to/lastmile_qr_scan"}, "lon": -77.0426885, "type": "electric_scooter", "fusion_lat": 0.0, "lat": 38.92300016666667, "name": "5c936ff13e4d74d3610e88ff4b70cf4b", "fusion_lon": 0.0, "bike_id": "5c936ff13e4d74d3610e88ff4b70cf4b", "is_disabled": 0, "is_reserved": 0}, {"rental_uris": {"ios": "https://dc.lft.to/lastmile_qr_scan", "android": "https://dc.lft.to/lastmile_qr_scan"}, "lon": -76.98545983333334, "type": "electric_scooter", "fusion_lat": 0.0, "lat": 38.904229666666666, "name": "019ba44bd25b35d108547edd1c64e57b", "fusion_lon": 0.0, "bike_id": "019ba44bd25b35d108547edd1c64e57b", "is_disabled": 0, "is_reserved": 0}, {"rental_uris": {"ios": "https://dc.lft.to/lastmile_qr_scan", "android": "https://dc.lft.to/lastmile_qr_scan"}, "lon": -77.0179215, "type": "electric_scooter", "fusion_lat": 0.0, "lat": 38.9411715, "name": "53ebc742fc1ad6c4329ffcb6b6d7abae", "fusion_lon": 0.0, "bike_id": "53ebc742fc1ad6c4329ffcb6b6d7abae", "is_disabled": 0, "is_reserved": 0}, {"rental_uris": {"ios": "https://dc.lft.to/lastmile_qr_scan", "android": "https://dc.lft.to/lastmile_qr_scan"}, "lon": -77.03262433333333, "type": "electric_scooter", "fusion_lat": 0.0, "lat": 38.9441625, "name": "c2c300cdfb4a6cb3e36832bd34490906", "fusion_lon": 0.0, "bike_id": "c2c300cdfb4a6cb3e36832bd34490906", "is_disabled": 0, "is_reserved": 0}, {"rental_uris": {"ios": "https://dc.lft.to/lastmile_qr_scan", "android": "https://dc.lft.to/lastmile_qr_scan"}, "lon": -77.0303875, "type": "electric_scooter", "fusion_lat": 0.0, "lat": 38.92252516666667, "name": "1f4e43ce04d43ca4d322ebbd278d428d", "fusion_lon": 0.0, "bike_id": "1f4e43ce04d43ca4d322ebbd278d428d", "is_disabled": 0, "is_reserved": 0}, {"rental_uris": {"ios": "https://dc.lft.to/lastmile_qr_scan", "android": "https://dc.lft.to/lastmile_qr_scan"}, "lon": -77.02023166666666, "type": "electric_scooter", "fusion_lat": 0.0, "lat": 38.932486, "name": "b368582a89bb7cdef9c19eecdaff2dc6", "fusion_lon": 0.0, "bike_id": "b368582a89bb7cdef9c19eecdaff2dc6", "is_disabled": 0, "is_reserved": 0}, {"rental_uris": {"ios": "https://dc.lft.to/lastmile_qr_scan", "android": "https://dc.lft.to/lastmile_qr_scan"}, "lon": -76.99779433333333, "type": "electric_scooter", "fusion_lat": 0.0, "lat": 38.84431416666666, "name": "d64e77ec7b9c6f96e8e52dae879d71ed", "fusion_lon": 0.0, "bike_id": "d64e77ec7b9c6f96e8e52dae879d71ed", "is_disabled": 0, "is_reserved": 0}, {"rental_uris": {"ios": "https://dc.lft.to/lastmile_qr_scan", "android": "https://dc.lft.to/lastmile_qr_scan"}, "lon": -77.02195316666666, "type": "electric_scooter", "fusion_lat": 0.0, "lat": 38.89768216666667, "name": "1d17e4c1cc74b22103a5d81cd1b09b94", "fusion_lon": 0.0, "bike_id": "1d17e4c1cc74b22103a5d81cd1b09b94", "is_disabled": 0, "is_reserved": 0}, {"rental_uris": {"ios": "https://dc.lft.to/lastmile_qr_scan", "android": "https://dc.lft.to/lastmile_qr_scan"}, "lon": -77.03197733333333, "type": "electric_scooter", "fusion_lat": 0.0, "lat": 38.90763066666667, "name": "f402ced44c7d27573385489f3ee9ae70", "fusion_lon": 0.0, "bike_id": "f402ced44c7d27573385489f3ee9ae70", "is_disabled": 0, "is_reserved": 0}, {"rental_uris": {"ios": "https://dc.lft.to/lastmile_qr_scan", "android": "https://dc.lft.to/lastmile_qr_scan"}, "lon": -76.978341, "type": "electric_bike", "fusion_lat": 0.0, "lat": 38.8461315, "name": "37b3ad578524081b9882684c9d6e10e3", "fusion_lon": 0.0, "bike_id": "37b3ad578524081b9882684c9d6e10e3", "is_disabled": 0, "is_reserved": 0}, {"rental_uris": {"ios": "https://dc.lft.to/lastmile_qr_scan", "android": "https://dc.lft.to/lastmile_qr_scan"}, "lon": -77.17852083333334, "type": "electric_bike", "fusion_lat": 0.0, "lat": 39.08901083333333, "name": "29a4e44541d25de3e7df74c76735df58", "fusion_lon": 0.0, "bike_id": "29a4e44541d25de3e7df74c76735df58", "is_disabled": 0, "is_reserved": 0}, {"rental_uris": {"ios": "https://dc.lft.to/lastmile_qr_scan", "android": "https://dc.lft.to/lastmile_qr_scan"}, "lon": -77.04670083333333, "type": "electric_scooter", "fusion_lat": 0.0, "lat": 38.905437166666665, "name": "c21f13dddef0775a5afdc9cd0dec9cfe", "fusion_lon": 0.0, "bike_id": "c21f13dddef0775a5afdc9cd0dec9cfe", "is_disabled": 0, "is_reserved": 0}, {"rental_uris": {"ios": "https://dc.lft.to/lastmile_qr_scan", "android": "https://dc.lft.to/lastmile_qr_scan"}, "lon": -77.00252766666667, "type": "electric_bike", "fusion_lat": 0.0, "lat": 38.9521795, "name": "13c49e279a1316bedc5ebcaf88a730de", "fusion_lon": 0.0, "bike_id": "13c49e279a1316bedc5ebcaf88a730de", "is_disabled": 0, "is_reserved": 0}, {"rental_uris": {"ios": "https://dc.lft.to/lastmile_qr_scan", "android": "https://dc.lft.to/lastmile_qr_scan"}, "lon": -77.01410666666666, "type": "electric_scooter", "fusion_lat": 0.0, "lat": 38.928243, "name": "6730c8c988726fce9e37b6f70ee3d42b", "fusion_lon": 0.0, "bike_id": "6730c8c988726fce9e37b6f70ee3d42b", "is_disabled": 0, "is_reserved": 0}, {"rental_uris": {"ios": "https://dc.lft.to/lastmile_qr_scan", "android": "https://dc.lft.to/lastmile_qr_scan"}, "lon": -77.03930833333334, "type": "electric_scooter", "fusion_lat": 0.0, "lat": 38.9210795, "name": "17b33a331af280be1c40a569b5a88095", "fusion_lon": 0.0, "bike_id": "17b33a331af280be1c40a569b5a88095", "is_disabled": 0, "is_reserved": 0}, {"rental_uris": {"ios": "https://dc.lft.to/lastmile_qr_scan", "android": "https://dc.lft.to/lastmile_qr_scan"}, "lon": -77.03870183333333, "type": "electric_scooter", "fusion_lat": 0.0, "lat": 38.90971433333333, "name": "12747e15cc9122cda4fa90d31b65ea32", "fusion_lon": 0.0, "bike_id": "12747e15cc9122cda4fa90d31b65ea32", "is_disabled": 0, "is_reserved": 0}, {"rental_uris": {"ios": "https://dc.lft.to/lastmile_qr_scan", "android": "https://dc.lft.to/lastmile_qr_scan"}, "lon": -77.126278, "type": "electric_bike", "fusion_lat": 0.0, "lat": 39.0581285, "name": "e5891d4651b4385a52d758e279bde801", "fusion_lon": 0.0, "bike_id": "e5891d4651b4385a52d758e279bde801", "is_disabled": 0, "is_reserved": 0}, {"rental_uris": {"ios": "https://dc.lft.to/lastmile_qr_scan", "android": "https://dc.lft.to/lastmile_qr_scan"}, "lon": -77.00980833333334, "type": "electric_scooter", "fusion_lat": 0.0, "lat": 38.9141615, "name": "7f97fd5db7bf043d50a446f7589c3869", "fusion_lon": 0.0, "bike_id": "7f97fd5db7bf043d50a446f7589c3869", "is_disabled": 0, "is_reserved": 0}, {"rental_uris": {"ios": "https://dc.lft.to/lastmile_qr_scan", "android": "https://dc.lft.to/lastmile_qr_scan"}, "lon": -77.031952, "type": "electric_scooter", "fusion_lat": 0.0, "lat": 38.89954183333333, "name": "3d736c7c52bdcaef734999597d77226e", "fusion_lon": 0.0, "bike_id": "3d736c7c52bdcaef734999597d77226e", "is_disabled": 0, "is_reserved": 0}, {"rental_uris": {"ios": "https://dc.lft.to/lastmile_qr_scan", "android": "https://dc.lft.to/lastmile_qr_scan"}, "lon": -76.91663683333333, "type": "electric_bike", "fusion_lat": 0.0, "lat": 38.86869016666667, "name": "7787def83452135b67744796eb5f2a54", "fusion_lon": 0.0, "bike_id": "7787def83452135b67744796eb5f2a54", "is_disabled": 0, "is_reserved": 0}, {"rental_uris": {"ios": "https://dc.lft.to/lastmile_qr_scan", "android": "https://dc.lft.to/lastmile_qr_scan"}, "lon": -77.16234766666666, "type": "electric_bike", "fusion_lat": 0.0, "lat": 38.886612166666666, "name": "c3ebfb166584b801ba41857d03abcc9a", "fusion_lon": 0.0, "bike_id": "c3ebfb166584b801ba41857d03abcc9a", "is_disabled": 0, "is_reserved": 0}, {"rental_uris": {"ios": "https://dc.lft.to/lastmile_qr_scan", "android": "https://dc.lft.to/lastmile_qr_scan"}, "lon": -76.94867383333333, "type": "electric_scooter", "fusion_lat": 0.0, "lat": 38.89593383333333, "name": "b6abe80e488827436cc692e4462745a9", "fusion_lon": 0.0, "bike_id": "b6abe80e488827436cc692e4462745a9", "is_disabled": 0, "is_reserved": 0}, {"rental_uris": {"ios": "https://dc.lft.to/lastmile_qr_scan", "android": "https://dc.lft.to/lastmile_qr_scan"}, "lon": -77.0329295, "type": "electric_scooter", "fusion_lat": 0.0, "lat": 38.909647, "name": "72188b94330883161e9d77febba11e94", "fusion_lon": 0.0, "bike_id": "72188b94330883161e9d77febba11e94", "is_disabled": 0, "is_reserved": 0}, {"rental_uris": {"ios": "https://dc.lft.to/lastmile_qr_scan", "android": "https://dc.lft.to/lastmile_qr_scan"}, "lon": -77.02804166666667, "type": "electric_scooter", "fusion_lat": 0.0, "lat": 38.91063966666667, "name": "a2f1494bb570bd95ac35172cb0ce064e", "fusion_lon": 0.0, "bike_id": "a2f1494bb570bd95ac35172cb0ce064e", "is_disabled": 0, "is_reserved": 0}, {"rental_uris": {"ios": "https://dc.lft.to/lastmile_qr_scan", "android": "https://dc.lft.to/lastmile_qr_scan"}, "lon": -77.01072683333334, "type": "electric_scooter", "fusion_lat": 0.0, "lat": 38.874763, "name": "8edca9c3ca3ce66db6beb06ac71d598b", "fusion_lon": 0.0, "bike_id": "8edca9c3ca3ce66db6beb06ac71d598b", "is_disabled": 0, "is_reserved": 0}, {"rental_uris": {"ios": "https://dc.lft.to/lastmile_qr_scan", "android": "https://dc.lft.to/lastmile_qr_scan"}, "lon": -77.046767, "type": "electric_scooter", "fusion_lat": 0.0, "lat": 38.89232583333333, "name": "f045b640e92febbe8ebe6636efe21c66", "fusion_lon": 0.0, "bike_id": "f045b640e92febbe8ebe6636efe21c66", "is_disabled": 0, "is_reserved": 0}, {"rental_uris": {"ios": "https://dc.lft.to/lastmile_qr_scan", "android": "https://dc.lft.to/lastmile_qr_scan"}, "lon": -76.9900895, "type": "electric_scooter", "fusion_lat": 0.0, "lat": 38.903985, "name": "a5f46995445ffcf302a8fab56ad4bfc6", "fusion_lon": 0.0, "bike_id": "a5f46995445ffcf302a8fab56ad4bfc6", "is_disabled": 0, "is_reserved": 0}, {"rental_uris": {"ios": "https://dc.lft.to/lastmile_qr_scan", "android": "https://dc.lft.to/lastmile_qr_scan"}, "lon": -77.0112765, "type": "electric_scooter", "fusion_lat": 0.0, "lat": 38.91264816666666, "name": "b4f28a37f33feddab24902f59e94545b", "fusion_lon": 0.0, "bike_id": "b4f28a37f33feddab24902f59e94545b", "is_disabled": 0, "is_reserved": 0}, {"rental_uris": {"ios": "https://dc.lft.to/lastmile_qr_scan", "android": "https://dc.lft.to/lastmile_qr_scan"}, "lon": -77.024026, "type": "electric_scooter", "fusion_lat": 0.0, "lat": 38.8949805, "name": "dbd02f4654dcba1f7bfd909937efc782", "fusion_lon": 0.0, "bike_id": "dbd02f4654dcba1f7bfd909937efc782", "is_disabled": 0, "is_reserved": 0}, {"rental_uris": {"ios": "https://dc.lft.to/lastmile_qr_scan", "android": "https://dc.lft.to/lastmile_qr_scan"}, "lon": -76.972226, "type": "electric_bike", "fusion_lat": 0.0, "lat": 38.8448245, "name": "0fbfa404ab5f7828c7a476c624d27b1c", "fusion_lon": 0.0, "bike_id": "0fbfa404ab5f7828c7a476c624d27b1c", "is_disabled": 0, "is_reserved": 0}, {"rental_uris": {"ios": "https://dc.lft.to/lastmile_qr_scan", "android": "https://dc.lft.to/lastmile_qr_scan"}, "lon": -77.03220516666667, "type": "electric_scooter", "fusion_lat": 0.0, "lat": 38.933908833333334, "name": "9311d47ff67a719e05c2fc9c85545c58", "fusion_lon": 0.0, "bike_id": "9311d47ff67a719e05c2fc9c85545c58", "is_disabled": 0, "is_reserved": 0}, {"rental_uris": {"ios": "https://dc.lft.to/lastmile_qr_scan", "android": "https://dc.lft.to/lastmile_qr_scan"}, "lon": -77.03207666666667, "type": "electric_scooter", "fusion_lat": 0.0, "lat": 38.9099045, "name": "a28a77f9e50652b6f9b614ea2ba2c049", "fusion_lon": 0.0, "bike_id": "a28a77f9e50652b6f9b614ea2ba2c049", "is_disabled": 0, "is_reserved": 0}, {"rental_uris": {"ios": "https://dc.lft.to/lastmile_qr_scan", "android": "https://dc.lft.to/lastmile_qr_scan"}, "lon": -76.944413, "type": "electric_bike", "fusion_lat": 0.0, "lat": 38.90297966666667, "name": "75d30bcfa813aaf9f1acb645571845b2", "fusion_lon": 0.0, "bike_id": "75d30bcfa813aaf9f1acb645571845b2", "is_disabled": 0, "is_reserved": 0}, {"rental_uris": {"ios": "https://dc.lft.to/lastmile_qr_scan", "android": "https://dc.lft.to/lastmile_qr_scan"}, "lon": -77.04717516666666, "type": "electric_scooter", "fusion_lat": 0.0, "lat": 38.91675016666667, "name": "0c6bd94770023a801a1579925bb87ff7", "fusion_lon": 0.0, "bike_id": "0c6bd94770023a801a1579925bb87ff7", "is_disabled": 0, "is_reserved": 0}, {"rental_uris": {"ios": "https://dc.lft.to/lastmile_qr_scan", "android": "https://dc.lft.to/lastmile_qr_scan"}, "lon": -77.04013616666667, "type": "electric_scooter", "fusion_lat": 0.0, "lat": 38.93257216666667, "name": "82eee97bd67ffd3ea34f0fe12889b7cd", "fusion_lon": 0.0, "bike_id": "82eee97bd67ffd3ea34f0fe12889b7cd", "is_disabled": 0, "is_reserved": 0}, {"rental_uris": {"ios": "https://dc.lft.to/lastmile_qr_scan", "android": "https://dc.lft.to/lastmile_qr_scan"}, "lon": -77.046777, "type": "electric_scooter", "fusion_lat": 0.0, "lat": 38.89232883333333, "name": "c51960b9fec224658804b864a2c38525", "fusion_lon": 0.0, "bike_id": "c51960b9fec224658804b864a2c38525", "is_disabled": 0, "is_reserved": 0}, {"rental_uris": {"ios": "https://dc.lft.to/lastmile_qr_scan", "android": "https://dc.lft.to/lastmile_qr_scan"}, "lon": -77.020218, "type": "electric_scooter", "fusion_lat": 0.0, "lat": 38.91643233333333, "name": "b4d51fb3f7db70e51bc9f7a71c4fd958", "fusion_lon": 0.0, "bike_id": "b4d51fb3f7db70e51bc9f7a71c4fd958", "is_disabled": 0, "is_reserved": 0}, {"rental_uris": {"ios": "https://dc.lft.to/lastmile_qr_scan", "android": "https://dc.lft.to/lastmile_qr_scan"}, "lon": -77.03261833333333, "type": "electric_scooter", "fusion_lat": 0.0, "lat": 38.9325865, "name": "ca2627a16138a4c7ea1f040a563103e6", "fusion_lon": 0.0, "bike_id": "ca2627a16138a4c7ea1f040a563103e6", "is_disabled": 0, "is_reserved": 0}, {"rental_uris": {"ios": "https://dc.lft.to/lastmile_qr_scan", "android": "https://dc.lft.to/lastmile_qr_scan"}, "lon": -77.034706, "type": "electric_scooter", "fusion_lat": 0.0, "lat": 38.91991066666667, "name": "e9885c217d77a52c2ce15d16cca8080e", "fusion_lon": 0.0, "bike_id": "e9885c217d77a52c2ce15d16cca8080e", "is_disabled": 0, "is_reserved": 0}, {"rental_uris": {"ios": "https://dc.lft.to/lastmile_qr_scan", "android": "https://dc.lft.to/lastmile_qr_scan"}, "lon": -77.03208066666667, "type": "electric_scooter", "fusion_lat": 0.0, "lat": 38.91801316666667, "name": "677d811788810954f7d76433fe0cb027", "fusion_lon": 0.0, "bike_id": "677d811788810954f7d76433fe0cb027", "is_disabled": 0, "is_reserved": 0}, {"rental_uris": {"ios": "https://dc.lft.to/lastmile_qr_scan", "android": "https://dc.lft.to/lastmile_qr_scan"}, "lon": -76.967569, "type": "electric_bike", "fusion_lat": 0.0, "lat": 38.87551066666666, "name": "f283f0eadbd76a7f5ded35ce3fc653e5", "fusion_lon": 0.0, "bike_id": "f283f0eadbd76a7f5ded35ce3fc653e5", "is_disabled": 0, "is_reserved": 0}, {"rental_uris": {"ios": "https://dc.lft.to/lastmile_qr_scan", "android": "https://dc.lft.to/lastmile_qr_scan"}, "lon": -76.99380983333333, "type": "electric_scooter", "fusion_lat": 0.0, "lat": 38.89746516666666, "name": "92d389ac6367b2e0fe0dd9cca4453e80", "fusion_lon": 0.0, "bike_id": "92d389ac6367b2e0fe0dd9cca4453e80", "is_disabled": 0, "is_reserved": 0}, {"rental_uris": {"ios": "https://dc.lft.to/lastmile_qr_scan", "android": "https://dc.lft.to/lastmile_qr_scan"}, "lon": -77.01125033333334, "type": "electric_scooter", "fusion_lat": 0.0, "lat": 38.89968433333333, "name": "d3659e414409b83dee05b35b3875b930", "fusion_lon": 0.0, "bike_id": "d3659e414409b83dee05b35b3875b930", "is_disabled": 0, "is_reserved": 0}, {"rental_uris": {"ios": "https://dc.lft.to/lastmile_qr_scan", "android": "https://dc.lft.to/lastmile_qr_scan"}, "lon": -77.0442195, "type": "electric_scooter", "fusion_lat": 0.0, "lat": 38.9057675, "name": "4c2efddbdd29417f703ce5b61d8ba48c", "fusion_lon": 0.0, "bike_id": "4c2efddbdd29417f703ce5b61d8ba48c", "is_disabled": 0, "is_reserved": 0}, {"rental_uris": {"ios": "https://dc.lft.to/lastmile_qr_scan", "android": "https://dc.lft.to/lastmile_qr_scan"}, "lon": -77.0544605, "type": "electric_scooter", "fusion_lat": 0.0, "lat": 38.896104, "name": "8fb77acdeea4c5f70414e311220dc531", "fusion_lon": 0.0, "bike_id": "8fb77acdeea4c5f70414e311220dc531", "is_disabled": 0, "is_reserved": 0}, {"rental_uris": {"ios": "https://dc.lft.to/lastmile_qr_scan", "android": "https://dc.lft.to/lastmile_qr_scan"}, "lon": -77.02684266666667, "type": "electric_scooter", "fusion_lat": 0.0, "lat": 38.90724066666667, "name": "c1a5ffc4cebfb17650ef4cc6f070a5a3", "fusion_lon": 0.0, "bike_id": "c1a5ffc4cebfb17650ef4cc6f070a5a3", "is_disabled": 0, "is_reserved": 0}, {"rental_uris": {"ios": "https://dc.lft.to/lastmile_qr_scan", "android": "https://dc.lft.to/lastmile_qr_scan"}, "lon": -77.06391066666667, "type": "electric_scooter", "fusion_lat": 0.0, "lat": 38.90821366666667, "name": "cf99a8ce5a529851304588246621ce10", "fusion_lon": 0.0, "bike_id": "cf99a8ce5a529851304588246621ce10", "is_disabled": 0, "is_reserved": 0}, {"rental_uris": {"ios": "https://dc.lft.to/lastmile_qr_scan", "android": "https://dc.lft.to/lastmile_qr_scan"}, "lon": -77.03293266666667, "type": "electric_scooter", "fusion_lat": 0.0, "lat": 38.928503166666665, "name": "45b4c6675aeb004c30902c4543c40c95", "fusion_lon": 0.0, "bike_id": "45b4c6675aeb004c30902c4543c40c95", "is_disabled": 0, "is_reserved": 0}, {"rental_uris": {"ios": "https://dc.lft.to/lastmile_qr_scan", "android": "https://dc.lft.to/lastmile_qr_scan"}, "lon": -76.93103766666667, "type": "electric_scooter", "fusion_lat": 0.0, "lat": 38.901429, "name": "d54a1635faf5439734c5557941a69597", "fusion_lon": 0.0, "bike_id": "d54a1635faf5439734c5557941a69597", "is_disabled": 0, "is_reserved": 0}, {"rental_uris": {"ios": "https://dc.lft.to/lastmile_qr_scan", "android": "https://dc.lft.to/lastmile_qr_scan"}, "lon": -77.00769633333333, "type": "electric_scooter", "fusion_lat": 0.0, "lat": 38.911198166666665, "name": "adfce1d92a7367913676b97f68ee0764", "fusion_lon": 0.0, "bike_id": "adfce1d92a7367913676b97f68ee0764", "is_disabled": 0, "is_reserved": 0}, {"rental_uris": {"ios": "https://dc.lft.to/lastmile_qr_scan", "android": "https://dc.lft.to/lastmile_qr_scan"}, "lon": -76.985562, "type": "electric_scooter", "fusion_lat": 0.0, "lat": 38.897675666666665, "name": "e768ebd84f5777328b30110573319195", "fusion_lon": 0.0, "bike_id": "e768ebd84f5777328b30110573319195", "is_disabled": 0, "is_reserved": 0}, {"rental_uris": {"ios": "https://dc.lft.to/lastmile_qr_scan", "android": "https://dc.lft.to/lastmile_qr_scan"}, "lon": -77.05349266666667, "type": "electric_scooter", "fusion_lat": 0.0, "lat": 38.90240516666667, "name": "7a5b289b0e3e5e72cc14fddf94c011fb", "fusion_lon": 0.0, "bike_id": "7a5b289b0e3e5e72cc14fddf94c011fb", "is_disabled": 0, "is_reserved": 0}, {"rental_uris": {"ios": "https://dc.lft.to/lastmile_qr_scan", "android": "https://dc.lft.to/lastmile_qr_scan"}, "lon": -77.024093, "type": "electric_scooter", "fusion_lat": 0.0, "lat": 38.89499083333333, "name": "ab5ad4fcba00a076bc97fbc677faf6ad", "fusion_lon": 0.0, "bike_id": "ab5ad4fcba00a076bc97fbc677faf6ad", "is_disabled": 0, "is_reserved": 0}, {"rental_uris": {"ios": "https://dc.lft.to/lastmile_qr_scan", "android": "https://dc.lft.to/lastmile_qr_scan"}, "lon": -77.01700916666667, "type": "electric_scooter", "fusion_lat": 0.0, "lat": 38.920188333333336, "name": "78e2dee55b00c12092e73cda89d7c968", "fusion_lon": 0.0, "bike_id": "78e2dee55b00c12092e73cda89d7c968", "is_disabled": 0, "is_reserved": 0}, {"rental_uris": {"ios": "https://dc.lft.to/lastmile_qr_scan", "android": "https://dc.lft.to/lastmile_qr_scan"}, "lon": -77.04017133333333, "type": "electric_scooter", "fusion_lat": 0.0, "lat": 38.92165216666667, "name": "3377bac4e0248307b8b2fee4498dec6c", "fusion_lon": 0.0, "bike_id": "3377bac4e0248307b8b2fee4498dec6c", "is_disabled": 0, "is_reserved": 0}, {"rental_uris": {"ios": "https://dc.lft.to/lastmile_qr_scan", "android": "https://dc.lft.to/lastmile_qr_scan"}, "lon": -77.0353705, "type": "electric_scooter", "fusion_lat": 0.0, "lat": 38.9329165, "name": "0c9c5bd58d7afc2219482fd4abe3580b", "fusion_lon": 0.0, "bike_id": "0c9c5bd58d7afc2219482fd4abe3580b", "is_disabled": 0, "is_reserved": 0}, {"rental_uris": {"ios": "https://dc.lft.to/lastmile_qr_scan", "android": "https://dc.lft.to/lastmile_qr_scan"}, "lon": -77.0334575, "type": "electric_scooter", "fusion_lat": 0.0, "lat": 38.934192333333336, "name": "b5fc11aefa1fb6ed9ca57fbdcba1114c", "fusion_lon": 0.0, "bike_id": "b5fc11aefa1fb6ed9ca57fbdcba1114c", "is_disabled": 0, "is_reserved": 0}, {"rental_uris": {"ios": "https://dc.lft.to/lastmile_qr_scan", "android": "https://dc.lft.to/lastmile_qr_scan"}, "lon": -77.02272933333333, "type": "electric_scooter", "fusion_lat": 0.0, "lat": 38.924643333333336, "name": "399c522d994b054e4cfed1defd1988ad", "fusion_lon": 0.0, "bike_id": "399c522d994b054e4cfed1defd1988ad", "is_disabled": 0, "is_reserved": 0}, {"rental_uris": {"ios": "https://dc.lft.to/lastmile_qr_scan", "android": "https://dc.lft.to/lastmile_qr_scan"}, "lon": -77.04809683333333, "type": "electric_scooter", "fusion_lat": 0.0, "lat": 38.920497, "name": "fa31294ce4983d82beea38c4ce3908b8", "fusion_lon": 0.0, "bike_id": "fa31294ce4983d82beea38c4ce3908b8", "is_disabled": 0, "is_reserved": 0}, {"rental_uris": {"ios": "https://dc.lft.to/lastmile_qr_scan", "android": "https://dc.lft.to/lastmile_qr_scan"}, "lon": -77.01296333333333, "type": "electric_scooter", "fusion_lat": 0.0, "lat": 38.90059566666667, "name": "0caecb514e37ff9adee83bb34626913c", "fusion_lon": 0.0, "bike_id": "0caecb514e37ff9adee83bb34626913c", "is_disabled": 0, "is_reserved": 0}, {"rental_uris": {"ios": "https://dc.lft.to/lastmile_qr_scan", "android": "https://dc.lft.to/lastmile_qr_scan"}, "lon": -77.03412516666667, "type": "electric_scooter", "fusion_lat": 0.0, "lat": 38.93550283333333, "name": "08c769bc132eb88b2bcb584864d8e3d5", "fusion_lon": 0.0, "bike_id": "08c769bc132eb88b2bcb584864d8e3d5", "is_disabled": 0, "is_reserved": 0}, {"rental_uris": {"ios": "https://dc.lft.to/lastmile_qr_scan", "android": "https://dc.lft.to/lastmile_qr_scan"}, "lon": -77.02860833333334, "type": "electric_scooter", "fusion_lat": 0.0, "lat": 38.9282095, "name": "17378967cd8a6f4e9c2300b1ca2e820b", "fusion_lon": 0.0, "bike_id": "17378967cd8a6f4e9c2300b1ca2e820b", "is_disabled": 0, "is_reserved": 0}, {"rental_uris": {"ios": "https://dc.lft.to/lastmile_qr_scan", "android": "https://dc.lft.to/lastmile_qr_scan"}, "lon": -77.06284683333334, "type": "electric_bike", "fusion_lat": 0.0, "lat": 38.90458366666667, "name": "c7b92672e2970a7ca82eeda723422c2e", "fusion_lon": 0.0, "bike_id": "c7b92672e2970a7ca82eeda723422c2e", "is_disabled": 0, "is_reserved": 0}, {"rental_uris": {"ios": "https://dc.lft.to/lastmile_qr_scan", "android": "https://dc.lft.to/lastmile_qr_scan"}, "lon": -77.02359783333333, "type": "electric_scooter", "fusion_lat": 0.0, "lat": 38.925094, "name": "d40d653c09b17570e7a177589c92415a", "fusion_lon": 0.0, "bike_id": "d40d653c09b17570e7a177589c92415a", "is_disabled": 0, "is_reserved": 0}, {"rental_uris": {"ios": "https://dc.lft.to/lastmile_qr_scan", "android": "https://dc.lft.to/lastmile_qr_scan"}, "lon": -76.9949465, "type": "electric_scooter", "fusion_lat": 0.0, "lat": 38.862433333333335, "name": "abcb1fcccf69df8eec26a9be9b8e76f2", "fusion_lon": 0.0, "bike_id": "abcb1fcccf69df8eec26a9be9b8e76f2", "is_disabled": 0, "is_reserved": 0}, {"rental_uris": {"ios": "https://dc.lft.to/lastmile_qr_scan", "android": "https://dc.lft.to/lastmile_qr_scan"}, "lon": -77.03361916666667, "type": "electric_bike", "fusion_lat": 0.0, "lat": 38.968093, "name": "18abd586af413ecdc2c357d99710380a", "fusion_lon": 0.0, "bike_id": "18abd586af413ecdc2c357d99710380a", "is_disabled": 0, "is_reserved": 0}, {"rental_uris": {"ios": "https://dc.lft.to/lastmile_qr_scan", "android": "https://dc.lft.to/lastmile_qr_scan"}, "lon": -77.04691716666666, "type": "electric_scooter", "fusion_lat": 0.0, "lat": 38.89610716666667, "name": "16df0af1f66db3d092ce8003f1a39dcd", "fusion_lon": 0.0, "bike_id": "16df0af1f66db3d092ce8003f1a39dcd", "is_disabled": 0, "is_reserved": 0}, {"rental_uris": {"ios": "https://dc.lft.to/lastmile_qr_scan", "android": "https://dc.lft.to/lastmile_qr_scan"}, "lon": -76.98681866666666, "type": "electric_scooter", "fusion_lat": 0.0, "lat": 38.882093833333336, "name": "d8a742ee5fb3d8796285eb4a5ca868a8", "fusion_lon": 0.0, "bike_id": "d8a742ee5fb3d8796285eb4a5ca868a8", "is_disabled": 0, "is_reserved": 0}, {"rental_uris": {"ios": "https://dc.lft.to/lastmile_qr_scan", "android": "https://dc.lft.to/lastmile_qr_scan"}, "lon": -77.04789016666666, "type": "electric_scooter", "fusion_lat": 0.0, "lat": 38.90855333333333, "name": "eaeb2108a49d0faff44f634e4207ac03", "fusion_lon": 0.0, "bike_id": "eaeb2108a49d0faff44f634e4207ac03", "is_disabled": 0, "is_reserved": 0}, {"rental_uris": {"ios": "https://dc.lft.to/lastmile_qr_scan", "android": "https://dc.lft.to/lastmile_qr_scan"}, "lon": -77.03194683333334, "type": "electric_scooter", "fusion_lat": 0.0, "lat": 38.9077455, "name": "bd3e6cdbe22a977ab387ac34cca22780", "fusion_lon": 0.0, "bike_id": "bd3e6cdbe22a977ab387ac34cca22780", "is_disabled": 0, "is_reserved": 0}, {"rental_uris": {"ios": "https://dc.lft.to/lastmile_qr_scan", "android": "https://dc.lft.to/lastmile_qr_scan"}, "lon": -77.03863516666667, "type": "electric_scooter", "fusion_lat": 0.0, "lat": 38.915593, "name": "b319489a689e4ce79a95371f94170bf2", "fusion_lon": 0.0, "bike_id": "b319489a689e4ce79a95371f94170bf2", "is_disabled": 0, "is_reserved": 0}, {"rental_uris": {"ios": "https://dc.lft.to/lastmile_qr_scan", "android": "https://dc.lft.to/lastmile_qr_scan"}, "lon": -77.03169516666667, "type": "electric_scooter", "fusion_lat": 0.0, "lat": 38.9111965, "name": "09071c896aa551cf0bc4ef4ed3bf045c", "fusion_lon": 0.0, "bike_id": "09071c896aa551cf0bc4ef4ed3bf045c", "is_disabled": 0, "is_reserved": 0}, {"rental_uris": {"ios": "https://dc.lft.to/lastmile_qr_scan", "android": "https://dc.lft.to/lastmile_qr_scan"}, "lon": -77.03126116666667, "type": "electric_scooter", "fusion_lat": 0.0, "lat": 38.91331683333333, "name": "28ea9acd1a2a212f809aaf35d82fdbb0", "fusion_lon": 0.0, "bike_id": "28ea9acd1a2a212f809aaf35d82fdbb0", "is_disabled": 0, "is_reserved": 0}, {"rental_uris": {"ios": "https://dc.lft.to/lastmile_qr_scan", "android": "https://dc.lft.to/lastmile_qr_scan"}, "lon": -77.0289755, "type": "electric_scooter", "fusion_lat": 0.0, "lat": 38.92571433333333, "name": "dd66a30734e4ad93c1bea05f7a69a052", "fusion_lon": 0.0, "bike_id": "dd66a30734e4ad93c1bea05f7a69a052", "is_disabled": 0, "is_reserved": 0}, {"rental_uris": {"ios": "https://dc.lft.to/lastmile_qr_scan", "android": "https://dc.lft.to/lastmile_qr_scan"}, "lon": -77.05885916666666, "type": "electric_scooter", "fusion_lat": 0.0, "lat": 38.93639233333333, "name": "b0b3e5c468add5e8e14893037985356f", "fusion_lon": 0.0, "bike_id": "b0b3e5c468add5e8e14893037985356f", "is_disabled": 0, "is_reserved": 0}, {"rental_uris": {"ios": "https://dc.lft.to/lastmile_qr_scan", "android": "https://dc.lft.to/lastmile_qr_scan"}, "lon": -77.0449775, "type": "electric_scooter", "fusion_lat": 0.0, "lat": 38.912243333333336, "name": "68af8250f85f187cb0a6df41ab2727a2", "fusion_lon": 0.0, "bike_id": "68af8250f85f187cb0a6df41ab2727a2", "is_disabled": 0, "is_reserved": 0}, {"rental_uris": {"ios": "https://dc.lft.to/lastmile_qr_scan", "android": "https://dc.lft.to/lastmile_qr_scan"}, "lon": -77.0020155, "type": "electric_bike", "fusion_lat": 0.0, "lat": 38.883062333333335, "name": "451f36c2dc8615f231d97ac8cd80c710", "fusion_lon": 0.0, "bike_id": "451f36c2dc8615f231d97ac8cd80c710", "is_disabled": 0, "is_reserved": 0}, {"rental_uris": {"ios": "https://dc.lft.to/lastmile_qr_scan", "android": "https://dc.lft.to/lastmile_qr_scan"}, "lon": -77.02385783333334, "type": "electric_scooter", "fusion_lat": 0.0, "lat": 38.89981083333333, "name": "1f38285963d5d620e4fc0696b407a751", "fusion_lon": 0.0, "bike_id": "1f38285963d5d620e4fc0696b407a751", "is_disabled": 0, "is_reserved": 0}, {"rental_uris": {"ios": "https://dc.lft.to/lastmile_qr_scan", "android": "https://dc.lft.to/lastmile_qr_scan"}, "lon": -77.01175866666667, "type": "electric_scooter", "fusion_lat": 0.0, "lat": 38.90023466666667, "name": "e643305bdec12b01150224757be9d10b", "fusion_lon": 0.0, "bike_id": "e643305bdec12b01150224757be9d10b", "is_disabled": 0, "is_reserved": 0}, {"rental_uris": {"ios": "https://dc.lft.to/lastmile_qr_scan", "android": "https://dc.lft.to/lastmile_qr_scan"}, "lon": -77.03186833333334, "type": "electric_scooter", "fusion_lat": 0.0, "lat": 38.916529833333335, "name": "259fc785a53dc6e203aac13c8fc9916d", "fusion_lon": 0.0, "bike_id": "259fc785a53dc6e203aac13c8fc9916d", "is_disabled": 0, "is_reserved": 0}, {"rental_uris": {"ios": "https://dc.lft.to/lastmile_qr_scan", "android": "https://dc.lft.to/lastmile_qr_scan"}, "lon": -76.98619983333333, "type": "electric_scooter", "fusion_lat": 0.0, "lat": 38.868325166666665, "name": "4fb89abf909b48373265199995b4da59", "fusion_lon": 0.0, "bike_id": "4fb89abf909b48373265199995b4da59", "is_disabled": 0, "is_reserved": 0}, {"rental_uris": {"ios": "https://dc.lft.to/lastmile_qr_scan", "android": "https://dc.lft.to/lastmile_qr_scan"}, "lon": -77.0417925, "type": "electric_scooter", "fusion_lat": 0.0, "lat": 38.90051783333333, "name": "c4e924c417d4d84914adedda80ba3273", "fusion_lon": 0.0, "bike_id": "c4e924c417d4d84914adedda80ba3273", "is_disabled": 0, "is_reserved": 0}, {"rental_uris": {"ios": "https://dc.lft.to/lastmile_qr_scan", "android": "https://dc.lft.to/lastmile_qr_scan"}, "lon": -77.13598516666667, "type": "electric_bike", "fusion_lat": 0.0, "lat": 39.05349533333333, "name": "006d4e34b22779332f7f348650beb9a1", "fusion_lon": 0.0, "bike_id": "006d4e34b22779332f7f348650beb9a1", "is_disabled": 0, "is_reserved": 0}, {"rental_uris": {"ios": "https://dc.lft.to/lastmile_qr_scan", "android": "https://dc.lft.to/lastmile_qr_scan"}, "lon": -77.07885916666666, "type": "electric_scooter", "fusion_lat": 0.0, "lat": 38.92549233333333, "name": "ac4647c0b2dc8028df92b9f3e3517027", "fusion_lon": 0.0, "bike_id": "ac4647c0b2dc8028df92b9f3e3517027", "is_disabled": 0, "is_reserved": 0}, {"rental_uris": {"ios": "https://dc.lft.to/lastmile_qr_scan", "android": "https://dc.lft.to/lastmile_qr_scan"}, "lon": -77.04196266666666, "type": "electric_scooter", "fusion_lat": 0.0, "lat": 38.920220666666665, "name": "20923b1a738cece242d58bb6250a7311", "fusion_lon": 0.0, "bike_id": "20923b1a738cece242d58bb6250a7311", "is_disabled": 0, "is_reserved": 0}, {"rental_uris": {"ios": "https://dc.lft.to/lastmile_qr_scan", "android": "https://dc.lft.to/lastmile_qr_scan"}, "lon": -76.98720016666667, "type": "electric_scooter", "fusion_lat": 0.0, "lat": 38.8626945, "name": "bafe851df5d234ed0790123b10008015", "fusion_lon": 0.0, "bike_id": "bafe851df5d234ed0790123b10008015", "is_disabled": 0, "is_reserved": 0}, {"rental_uris": {"ios": "https://dc.lft.to/lastmile_qr_scan", "android": "https://dc.lft.to/lastmile_qr_scan"}, "lon": -77.01257, "type": "electric_scooter", "fusion_lat": 0.0, "lat": 38.8996545, "name": "21cac4c4bbdad46cb7b0ed17c19fc9fc", "fusion_lon": 0.0, "bike_id": "21cac4c4bbdad46cb7b0ed17c19fc9fc", "is_disabled": 0, "is_reserved": 0}, {"rental_uris": {"ios": "https://dc.lft.to/lastmile_qr_scan", "android": "https://dc.lft.to/lastmile_qr_scan"}, "lon": -76.99153566666666, "type": "electric_scooter", "fusion_lat": 0.0, "lat": 38.9004565, "name": "cfac4094ec3f917c677fb141873a3baa", "fusion_lon": 0.0, "bike_id": "cfac4094ec3f917c677fb141873a3baa", "is_disabled": 0, "is_reserved": 0}, {"rental_uris": {"ios": "https://dc.lft.to/lastmile_qr_scan", "android": "https://dc.lft.to/lastmile_qr_scan"}, "lon": -77.01781, "type": "electric_bike", "fusion_lat": 0.0, "lat": 38.91489683333333, "name": "9517cdd8fbbdc2ab85caea8d5db58cfe", "fusion_lon": 0.0, "bike_id": "9517cdd8fbbdc2ab85caea8d5db58cfe", "is_disabled": 0, "is_reserved": 0}, {"rental_uris": {"ios": "https://dc.lft.to/lastmile_qr_scan", "android": "https://dc.lft.to/lastmile_qr_scan"}, "lon": -77.03647783333334, "type": "electric_scooter", "fusion_lat": 0.0, "lat": 38.91732583333334, "name": "195617e117fdfb75c2db00731daab3ff", "fusion_lon": 0.0, "bike_id": "195617e117fdfb75c2db00731daab3ff", "is_disabled": 0, "is_reserved": 0}, {"rental_uris": {"ios": "https://dc.lft.to/lastmile_qr_scan", "android": "https://dc.lft.to/lastmile_qr_scan"}, "lon": -77.141236, "type": "electric_bike", "fusion_lat": 0.0, "lat": 38.816040666666666, "name": "c9a7e52187b2c8fd99eae63e5616228b", "fusion_lon": 0.0, "bike_id": "c9a7e52187b2c8fd99eae63e5616228b", "is_disabled": 0, "is_reserved": 0}, {"rental_uris": {"ios": "https://dc.lft.to/lastmile_qr_scan", "android": "https://dc.lft.to/lastmile_qr_scan"}, "lon": -77.04275566666666, "type": "electric_scooter", "fusion_lat": 0.0, "lat": 38.917038166666664, "name": "93009eecdb54f47da9b05dc268a84115", "fusion_lon": 0.0, "bike_id": "93009eecdb54f47da9b05dc268a84115", "is_disabled": 0, "is_reserved": 0}, {"rental_uris": {"ios": "https://dc.lft.to/lastmile_qr_scan", "android": "https://dc.lft.to/lastmile_qr_scan"}, "lon": -77.01096383333334, "type": "electric_scooter", "fusion_lat": 0.0, "lat": 38.91637933333333, "name": "1c7ee4345ce61d8b68239d9d47bbce6a", "fusion_lon": 0.0, "bike_id": "1c7ee4345ce61d8b68239d9d47bbce6a", "is_disabled": 0, "is_reserved": 0}, {"rental_uris": {"ios": "https://dc.lft.to/lastmile_qr_scan", "android": "https://dc.lft.to/lastmile_qr_scan"}, "lon": -77.02857483333334, "type": "electric_scooter", "fusion_lat": 0.0, "lat": 38.9347555, "name": "ad1c3472afd3bada3b639ea4f2218d59", "fusion_lon": 0.0, "bike_id": "ad1c3472afd3bada3b639ea4f2218d59", "is_disabled": 0, "is_reserved": 0}, {"rental_uris": {"ios": "https://dc.lft.to/lastmile_qr_scan", "android": "https://dc.lft.to/lastmile_qr_scan"}, "lon": -77.0181155, "type": "electric_scooter", "fusion_lat": 0.0, "lat": 38.942031, "name": "3661542d8c31bd2336c814d6cfff8689", "fusion_lon": 0.0, "bike_id": "3661542d8c31bd2336c814d6cfff8689", "is_disabled": 0, "is_reserved": 0}, {"rental_uris": {"ios": "https://dc.lft.to/lastmile_qr_scan", "android": "https://dc.lft.to/lastmile_qr_scan"}, "lon": -77.02982033333333, "type": "electric_scooter", "fusion_lat": 0.0, "lat": 38.96228883333333, "name": "1969194d27c9cb40d7d33fc9da3cf02c", "fusion_lon": 0.0, "bike_id": "1969194d27c9cb40d7d33fc9da3cf02c", "is_disabled": 0, "is_reserved": 0}, {"rental_uris": {"ios": "https://dc.lft.to/lastmile_qr_scan", "android": "https://dc.lft.to/lastmile_qr_scan"}, "lon": -77.0040785, "type": "electric_scooter", "fusion_lat": 0.0, "lat": 38.879161333333336, "name": "48fe10f6fef5bacf81123f844c7f8888", "fusion_lon": 0.0, "bike_id": "48fe10f6fef5bacf81123f844c7f8888", "is_disabled": 0, "is_reserved": 0}, {"rental_uris": {"ios": "https://dc.lft.to/lastmile_qr_scan", "android": "https://dc.lft.to/lastmile_qr_scan"}, "lon": -77.051418, "type": "electric_scooter", "fusion_lat": 0.0, "lat": 38.9023855, "name": "591bf80caf1d63d0aa23d5ca8d8ee791", "fusion_lon": 0.0, "bike_id": "591bf80caf1d63d0aa23d5ca8d8ee791", "is_disabled": 0, "is_reserved": 0}, {"rental_uris": {"ios": "https://dc.lft.to/lastmile_qr_scan", "android": "https://dc.lft.to/lastmile_qr_scan"}, "lon": -77.0281485, "type": "electric_scooter", "fusion_lat": 0.0, "lat": 38.88183433333333, "name": "2158777424a11094e3b31b22be7af6fb", "fusion_lon": 0.0, "bike_id": "2158777424a11094e3b31b22be7af6fb", "is_disabled": 0, "is_reserved": 0}, {"rental_uris": {"ios": "https://dc.lft.to/lastmile_qr_scan", "android": "https://dc.lft.to/lastmile_qr_scan"}, "lon": -77.03186116666667, "type": "electric_scooter", "fusion_lat": 0.0, "lat": 38.91926083333333, "name": "fd9a0622d9703e1e120f51928c7f6699", "fusion_lon": 0.0, "bike_id": "fd9a0622d9703e1e120f51928c7f6699", "is_disabled": 0, "is_reserved": 0}, {"rental_uris": {"ios": "https://dc.lft.to/lastmile_qr_scan", "android": "https://dc.lft.to/lastmile_qr_scan"}, "lon": -77.02145733333333, "type": "electric_scooter", "fusion_lat": 0.0, "lat": 38.915572833333336, "name": "34d0c3e2c25475f2578b67f3295c74a2", "fusion_lon": 0.0, "bike_id": "34d0c3e2c25475f2578b67f3295c74a2", "is_disabled": 0, "is_reserved": 0}, {"rental_uris": {"ios": "https://dc.lft.to/lastmile_qr_scan", "android": "https://dc.lft.to/lastmile_qr_scan"}, "lon": -77.042697, "type": "electric_scooter", "fusion_lat": 0.0, "lat": 38.923131166666664, "name": "8bc1a2fb997bf9eb580df839010c5a08", "fusion_lon": 0.0, "bike_id": "8bc1a2fb997bf9eb580df839010c5a08", "is_disabled": 0, "is_reserved": 0}, {"rental_uris": {"ios": "https://dc.lft.to/lastmile_qr_scan", "android": "https://dc.lft.to/lastmile_qr_scan"}, "lon": -77.00844766666667, "type": "electric_bike", "fusion_lat": 0.0, "lat": 38.9492015, "name": "30eedfe4a84eb613edc7dfba50249f21", "fusion_lon": 0.0, "bike_id": "30eedfe4a84eb613edc7dfba50249f21", "is_disabled": 0, "is_reserved": 0}, {"rental_uris": {"ios": "https://dc.lft.to/lastmile_qr_scan", "android": "https://dc.lft.to/lastmile_qr_scan"}, "lon": -77.02583283333334, "type": "electric_scooter", "fusion_lat": 0.0, "lat": 38.882340666666664, "name": "24cb6b01f3899f54ee3301fa20906c46", "fusion_lon": 0.0, "bike_id": "24cb6b01f3899f54ee3301fa20906c46", "is_disabled": 0, "is_reserved": 0}, {"rental_uris": {"ios": "https://dc.lft.to/lastmile_qr_scan", "android": "https://dc.lft.to/lastmile_qr_scan"}, "lon": -77.0293345, "type": "electric_scooter", "fusion_lat": 0.0, "lat": 38.895426, "name": "7de0201c58f05aee2ccb8806fec532e9", "fusion_lon": 0.0, "bike_id": "7de0201c58f05aee2ccb8806fec532e9", "is_disabled": 0, "is_reserved": 0}, {"rental_uris": {"ios": "https://dc.lft.to/lastmile_qr_scan", "android": "https://dc.lft.to/lastmile_qr_scan"}, "lon": -76.99524983333333, "type": "electric_scooter", "fusion_lat": 0.0, "lat": 38.862592666666664, "name": "3bd06a64976fa5095f442bb061373e19", "fusion_lon": 0.0, "bike_id": "3bd06a64976fa5095f442bb061373e19", "is_disabled": 0, "is_reserved": 0}, {"rental_uris": {"ios": "https://dc.lft.to/lastmile_qr_scan", "android": "https://dc.lft.to/lastmile_qr_scan"}, "lon": -77.05274683333333, "type": "electric_scooter", "fusion_lat": 0.0, "lat": 38.910174, "name": "4136533723936e8a492af6cc3788de25", "fusion_lon": 0.0, "bike_id": "4136533723936e8a492af6cc3788de25", "is_disabled": 0, "is_reserved": 0}, {"rental_uris": {"ios": "https://dc.lft.to/lastmile_qr_scan", "android": "https://dc.lft.to/lastmile_qr_scan"}, "lon": -77.02720383333333, "type": "electric_scooter", "fusion_lat": 0.0, "lat": 38.906895166666665, "name": "8cdf10da6f1bce14685e11e9986567dd", "fusion_lon": 0.0, "bike_id": "8cdf10da6f1bce14685e11e9986567dd", "is_disabled": 0, "is_reserved": 0}, {"rental_uris": {"ios": "https://dc.lft.to/lastmile_qr_scan", "android": "https://dc.lft.to/lastmile_qr_scan"}, "lon": -77.01994, "type": "electric_scooter", "fusion_lat": 0.0, "lat": 38.885798666666666, "name": "3593a2e164fee2a90f53f1903071ca28", "fusion_lon": 0.0, "bike_id": "3593a2e164fee2a90f53f1903071ca28", "is_disabled": 0, "is_reserved": 0}, {"rental_uris": {"ios": "https://dc.lft.to/lastmile_qr_scan", "android": "https://dc.lft.to/lastmile_qr_scan"}, "lon": -77.07802083333333, "type": "electric_scooter", "fusion_lat": 0.0, "lat": 38.9407575, "name": "d285b4869cf166faeb5dec572ac4a877", "fusion_lon": 0.0, "bike_id": "d285b4869cf166faeb5dec572ac4a877", "is_disabled": 0, "is_reserved": 0}, {"rental_uris": {"ios": "https://dc.lft.to/lastmile_qr_scan", "android": "https://dc.lft.to/lastmile_qr_scan"}, "lon": -77.0071535, "type": "electric_scooter", "fusion_lat": 0.0, "lat": 38.91343833333333, "name": "c4c29641920650c1290a0134c22e23bd", "fusion_lon": 0.0, "bike_id": "c4c29641920650c1290a0134c22e23bd", "is_disabled": 0, "is_reserved": 0}, {"rental_uris": {"ios": "https://dc.lft.to/lastmile_qr_scan", "android": "https://dc.lft.to/lastmile_qr_scan"}, "lon": -77.01592566666666, "type": "electric_scooter", "fusion_lat": 0.0, "lat": 38.896211, "name": "fb9e0f3159f587e437c523fd070762f5", "fusion_lon": 0.0, "bike_id": "fb9e0f3159f587e437c523fd070762f5", "is_disabled": 0, "is_reserved": 0}, {"rental_uris": {"ios": "https://dc.lft.to/lastmile_qr_scan", "android": "https://dc.lft.to/lastmile_qr_scan"}, "lon": -76.93956883333334, "type": "electric_scooter", "fusion_lat": 0.0, "lat": 38.894174, "name": "38938cb86f1d326f0e3ee60f916d02d2", "fusion_lon": 0.0, "bike_id": "38938cb86f1d326f0e3ee60f916d02d2", "is_disabled": 0, "is_reserved": 0}, {"rental_uris": {"ios": "https://dc.lft.to/lastmile_qr_scan", "android": "https://dc.lft.to/lastmile_qr_scan"}, "lon": -76.9299815, "type": "electric_bike", "fusion_lat": 0.0, "lat": 38.888002166666666, "name": "a4a22fedad004f105c304877275832e2", "fusion_lon": 0.0, "bike_id": "a4a22fedad004f105c304877275832e2", "is_disabled": 0, "is_reserved": 0}, {"rental_uris": {"ios": "https://dc.lft.to/lastmile_qr_scan", "android": "https://dc.lft.to/lastmile_qr_scan"}, "lon": -77.02300083333333, "type": "electric_scooter", "fusion_lat": 0.0, "lat": 38.90749233333333, "name": "35ac16b83c4aca7135c0fabc06fd581b", "fusion_lon": 0.0, "bike_id": "35ac16b83c4aca7135c0fabc06fd581b", "is_disabled": 0, "is_reserved": 0}, {"rental_uris": {"ios": "https://dc.lft.to/lastmile_qr_scan", "android": "https://dc.lft.to/lastmile_qr_scan"}, "lon": -77.03181766666667, "type": "electric_scooter", "fusion_lat": 0.0, "lat": 38.91798466666667, "name": "cb330585211990dac9ac1d1bb1e37fb4", "fusion_lon": 0.0, "bike_id": "cb330585211990dac9ac1d1bb1e37fb4", "is_disabled": 0, "is_reserved": 0}, {"rental_uris": {"ios": "https://dc.lft.to/lastmile_qr_scan", "android": "https://dc.lft.to/lastmile_qr_scan"}, "lon": -77.049287, "type": "electric_scooter", "fusion_lat": 0.0, "lat": 38.89607983333333, "name": "ed5a6857e04beccde2eee60596dd5ef5", "fusion_lon": 0.0, "bike_id": "ed5a6857e04beccde2eee60596dd5ef5", "is_disabled": 0, "is_reserved": 0}, {"rental_uris": {"ios": "https://dc.lft.to/lastmile_qr_scan", "android": "https://dc.lft.to/lastmile_qr_scan"}, "lon": -77.01635216666666, "type": "electric_scooter", "fusion_lat": 0.0, "lat": 38.90365933333333, "name": "8e6bc3ba0a76f4b2006929e40326420e", "fusion_lon": 0.0, "bike_id": "8e6bc3ba0a76f4b2006929e40326420e", "is_disabled": 0, "is_reserved": 0}, {"rental_uris": {"ios": "https://dc.lft.to/lastmile_qr_scan", "android": "https://dc.lft.to/lastmile_qr_scan"}, "lon": -77.02577116666667, "type": "electric_scooter", "fusion_lat": 0.0, "lat": 38.9020915, "name": "cab4d84c8a78a36d5d7ba4d66367d916", "fusion_lon": 0.0, "bike_id": "cab4d84c8a78a36d5d7ba4d66367d916", "is_disabled": 0, "is_reserved": 0}, {"rental_uris": {"ios": "https://dc.lft.to/lastmile_qr_scan", "android": "https://dc.lft.to/lastmile_qr_scan"}, "lon": -77.00934266666667, "type": "electric_scooter", "fusion_lat": 0.0, "lat": 38.872029833333336, "name": "8fbd377a9f56b7b88173c3f237966fce", "fusion_lon": 0.0, "bike_id": "8fbd377a9f56b7b88173c3f237966fce", "is_disabled": 0, "is_reserved": 0}, {"rental_uris": {"ios": "https://dc.lft.to/lastmile_qr_scan", "android": "https://dc.lft.to/lastmile_qr_scan"}, "lon": -77.04146183333333, "type": "electric_scooter", "fusion_lat": 0.0, "lat": 38.92209033333334, "name": "f6645f8dcb97e9f7dfb5da03291fda35", "fusion_lon": 0.0, "bike_id": "f6645f8dcb97e9f7dfb5da03291fda35", "is_disabled": 0, "is_reserved": 0}, {"rental_uris": {"ios": "https://dc.lft.to/lastmile_qr_scan", "android": "https://dc.lft.to/lastmile_qr_scan"}, "lon": -77.063652, "type": "electric_scooter", "fusion_lat": 0.0, "lat": 38.909311, "name": "d382c13507206b5637ebd1f5d27d0129", "fusion_lon": 0.0, "bike_id": "d382c13507206b5637ebd1f5d27d0129", "is_disabled": 0, "is_reserved": 0}, {"rental_uris": {"ios": "https://dc.lft.to/lastmile_qr_scan", "android": "https://dc.lft.to/lastmile_qr_scan"}, "lon": -77.07046733333334, "type": "electric_bike", "fusion_lat": 0.0, "lat": 38.824464, "name": "6bb44b109c75322a0be37cda2f4b6105", "fusion_lon": 0.0, "bike_id": "6bb44b109c75322a0be37cda2f4b6105", "is_disabled": 0, "is_reserved": 0}, {"rental_uris": {"ios": "https://dc.lft.to/lastmile_qr_scan", "android": "https://dc.lft.to/lastmile_qr_scan"}, "lon": -77.04052133333333, "type": "electric_scooter", "fusion_lat": 0.0, "lat": 38.92645566666667, "name": "15b5e522317b9f5c2b469ac7dae4290e", "fusion_lon": 0.0, "bike_id": "15b5e522317b9f5c2b469ac7dae4290e", "is_disabled": 0, "is_reserved": 0}, {"rental_uris": {"ios": "https://dc.lft.to/lastmile_qr_scan", "android": "https://dc.lft.to/lastmile_qr_scan"}, "lon": -77.03988816666667, "type": "electric_scooter", "fusion_lat": 0.0, "lat": 38.90297183333333, "name": "cde38d7ff70c9ec449b2f5420430d678", "fusion_lon": 0.0, "bike_id": "cde38d7ff70c9ec449b2f5420430d678", "is_disabled": 0, "is_reserved": 0}, {"rental_uris": {"ios": "https://dc.lft.to/lastmile_qr_scan", "android": "https://dc.lft.to/lastmile_qr_scan"}, "lon": -76.9994895, "type": "electric_scooter", "fusion_lat": 0.0, "lat": 38.842927833333334, "name": "3f5bedae052407f52e2c486ab9a5c612", "fusion_lon": 0.0, "bike_id": "3f5bedae052407f52e2c486ab9a5c612", "is_disabled": 0, "is_reserved": 0}, {"rental_uris": {"ios": "https://dc.lft.to/lastmile_qr_scan", "android": "https://dc.lft.to/lastmile_qr_scan"}, "lon": -77.01979233333333, "type": "electric_bike", "fusion_lat": 0.0, "lat": 38.956670833333334, "name": "d9aafb6e5b40fce5750cb3b2424df987", "fusion_lon": 0.0, "bike_id": "d9aafb6e5b40fce5750cb3b2424df987", "is_disabled": 0, "is_reserved": 0}, {"rental_uris": {"ios": "https://dc.lft.to/lastmile_qr_scan", "android": "https://dc.lft.to/lastmile_qr_scan"}, "lon": -76.98511733333333, "type": "electric_scooter", "fusion_lat": 0.0, "lat": 38.9008955, "name": "3db732410ad317d73b21a67aa0fd8602", "fusion_lon": 0.0, "bike_id": "3db732410ad317d73b21a67aa0fd8602", "is_disabled": 0, "is_reserved": 0}, {"rental_uris": {"ios": "https://dc.lft.to/lastmile_qr_scan", "android": "https://dc.lft.to/lastmile_qr_scan"}, "lon": -77.0271085, "type": "electric_scooter", "fusion_lat": 0.0, "lat": 38.90679016666667, "name": "9101db0cac75860cadfd2945f2164f78", "fusion_lon": 0.0, "bike_id": "9101db0cac75860cadfd2945f2164f78", "is_disabled": 0, "is_reserved": 0}, {"rental_uris": {"ios": "https://dc.lft.to/lastmile_qr_scan", "android": "https://dc.lft.to/lastmile_qr_scan"}, "lon": -77.04203933333334, "type": "electric_scooter", "fusion_lat": 0.0, "lat": 38.9110835, "name": "f3a5361da07e2995f7567f95e15c4405", "fusion_lon": 0.0, "bike_id": "f3a5361da07e2995f7567f95e15c4405", "is_disabled": 0, "is_reserved": 0}, {"rental_uris": {"ios": "https://dc.lft.to/lastmile_qr_scan", "android": "https://dc.lft.to/lastmile_qr_scan"}, "lon": -77.09161316666666, "type": "electric_bike", "fusion_lat": 0.0, "lat": 38.967601333333334, "name": "9094f69660ad23d6b0da9ba9f11d034b", "fusion_lon": 0.0, "bike_id": "9094f69660ad23d6b0da9ba9f11d034b", "is_disabled": 0, "is_reserved": 0}, {"rental_uris": {"ios": "https://dc.lft.to/lastmile_qr_scan", "android": "https://dc.lft.to/lastmile_qr_scan"}, "lon": -77.02587633333333, "type": "electric_scooter", "fusion_lat": 0.0, "lat": 38.91552816666667, "name": "fb5f09162e4e28b4d698cb49ed01274d", "fusion_lon": 0.0, "bike_id": "fb5f09162e4e28b4d698cb49ed01274d", "is_disabled": 0, "is_reserved": 0}, {"rental_uris": {"ios": "https://dc.lft.to/lastmile_qr_scan", "android": "https://dc.lft.to/lastmile_qr_scan"}, "lon": -77.04702366666666, "type": "electric_scooter", "fusion_lat": 0.0, "lat": 38.89746366666667, "name": "a69ca1a4f4e7c54ef4f0bc7e0094ccd9", "fusion_lon": 0.0, "bike_id": "a69ca1a4f4e7c54ef4f0bc7e0094ccd9", "is_disabled": 0, "is_reserved": 0}, {"rental_uris": {"ios": "https://dc.lft.to/lastmile_qr_scan", "android": "https://dc.lft.to/lastmile_qr_scan"}, "lon": -77.0541215, "type": "electric_scooter", "fusion_lat": 0.0, "lat": 38.903998666666666, "name": "9517421950d0bd52a7d2d8b0b230a426", "fusion_lon": 0.0, "bike_id": "9517421950d0bd52a7d2d8b0b230a426", "is_disabled": 0, "is_reserved": 0}, {"rental_uris": {"ios": "https://dc.lft.to/lastmile_qr_scan", "android": "https://dc.lft.to/lastmile_qr_scan"}, "lon": -76.99079366666666, "type": "electric_scooter", "fusion_lat": 0.0, "lat": 38.904200333333335, "name": "40d7f5adc43bfb16e397b6e78ce967e4", "fusion_lon": 0.0, "bike_id": "40d7f5adc43bfb16e397b6e78ce967e4", "is_disabled": 0, "is_reserved": 0}, {"rental_uris": {"ios": "https://dc.lft.to/lastmile_qr_scan", "android": "https://dc.lft.to/lastmile_qr_scan"}, "lon": -77.13094083333333, "type": "electric_bike", "fusion_lat": 0.0, "lat": 38.8616325, "name": "7ad834b79d801f93e5242dc8df5424e4", "fusion_lon": 0.0, "bike_id": "7ad834b79d801f93e5242dc8df5424e4", "is_disabled": 0, "is_reserved": 0}, {"rental_uris": {"ios": "https://dc.lft.to/lastmile_qr_scan", "android": "https://dc.lft.to/lastmile_qr_scan"}, "lon": -77.03997733333334, "type": "electric_scooter", "fusion_lat": 0.0, "lat": 38.90131066666667, "name": "58a5c4229beb3548ab9bf6cc8340af21", "fusion_lon": 0.0, "bike_id": "58a5c4229beb3548ab9bf6cc8340af21", "is_disabled": 0, "is_reserved": 0}, {"rental_uris": {"ios": "https://dc.lft.to/lastmile_qr_scan", "android": "https://dc.lft.to/lastmile_qr_scan"}, "lon": -77.0142285, "type": "electric_scooter", "fusion_lat": 0.0, "lat": 38.90573333333333, "name": "f7dafc2d4ba6764218fea6e83c5c8022", "fusion_lon": 0.0, "bike_id": "f7dafc2d4ba6764218fea6e83c5c8022", "is_disabled": 0, "is_reserved": 0}, {"rental_uris": {"ios": "https://dc.lft.to/lastmile_qr_scan", "android": "https://dc.lft.to/lastmile_qr_scan"}, "lon": -77.04374633333333, "type": "electric_scooter", "fusion_lat": 0.0, "lat": 38.92064033333333, "name": "c7fdfd4642afdffbc53d9ace7ab2137f", "fusion_lon": 0.0, "bike_id": "c7fdfd4642afdffbc53d9ace7ab2137f", "is_disabled": 0, "is_reserved": 0}, {"rental_uris": {"ios": "https://dc.lft.to/lastmile_qr_scan", "android": "https://dc.lft.to/lastmile_qr_scan"}, "lon": -77.02313333333333, "type": "electric_scooter", "fusion_lat": 0.0, "lat": 38.8835065, "name": "8b43ffcd386ec50e639587162532d9b6", "fusion_lon": 0.0, "bike_id": "8b43ffcd386ec50e639587162532d9b6", "is_disabled": 0, "is_reserved": 0}, {"rental_uris": {"ios": "https://dc.lft.to/lastmile_qr_scan", "android": "https://dc.lft.to/lastmile_qr_scan"}, "lon": -76.97330016666666, "type": "electric_bike", "fusion_lat": 0.0, "lat": 38.85065616666667, "name": "cd2001ffd548efb4a874ee3a19b5609b", "fusion_lon": 0.0, "bike_id": "cd2001ffd548efb4a874ee3a19b5609b", "is_disabled": 0, "is_reserved": 0}, {"rental_uris": {"ios": "https://dc.lft.to/lastmile_qr_scan", "android": "https://dc.lft.to/lastmile_qr_scan"}, "lon": -77.05033366666666, "type": "electric_scooter", "fusion_lat": 0.0, "lat": 38.89661233333333, "name": "07e4335cadd0c98bcf04b5103c6ba815", "fusion_lon": 0.0, "bike_id": "07e4335cadd0c98bcf04b5103c6ba815", "is_disabled": 0, "is_reserved": 0}, {"rental_uris": {"ios": "https://dc.lft.to/lastmile_qr_scan", "android": "https://dc.lft.to/lastmile_qr_scan"}, "lon": -77.046895, "type": "electric_scooter", "fusion_lat": 0.0, "lat": 38.89610583333334, "name": "e8a10ce49ed828d813855814ee78c927", "fusion_lon": 0.0, "bike_id": "e8a10ce49ed828d813855814ee78c927", "is_disabled": 0, "is_reserved": 0}, {"rental_uris": {"ios": "https://dc.lft.to/lastmile_qr_scan", "android": "https://dc.lft.to/lastmile_qr_scan"}, "lon": -77.03968566666667, "type": "electric_scooter", "fusion_lat": 0.0, "lat": 38.90270866666667, "name": "a539e4bd6e19e157bd36a6cc176631d6", "fusion_lon": 0.0, "bike_id": "a539e4bd6e19e157bd36a6cc176631d6", "is_disabled": 0, "is_reserved": 0}, {"rental_uris": {"ios": "https://dc.lft.to/lastmile_qr_scan", "android": "https://dc.lft.to/lastmile_qr_scan"}, "lon": -76.97731083333333, "type": "electric_scooter", "fusion_lat": 0.0, "lat": 38.872463, "name": "dbfab79abbae77658e4b0df52c8a0141", "fusion_lon": 0.0, "bike_id": "dbfab79abbae77658e4b0df52c8a0141", "is_disabled": 0, "is_reserved": 0}, {"rental_uris": {"ios": "https://dc.lft.to/lastmile_qr_scan", "android": "https://dc.lft.to/lastmile_qr_scan"}, "lon": -77.03667416666667, "type": "electric_scooter", "fusion_lat": 0.0, "lat": 38.9299375, "name": "6b8adc9e30efd883033b644b92b8a1df", "fusion_lon": 0.0, "bike_id": "6b8adc9e30efd883033b644b92b8a1df", "is_disabled": 0, "is_reserved": 0}, {"rental_uris": {"ios": "https://dc.lft.to/lastmile_qr_scan", "android": "https://dc.lft.to/lastmile_qr_scan"}, "lon": -77.024202, "type": "electric_scooter", "fusion_lat": 0.0, "lat": 38.91822466666667, "name": "5a0bc74ac5e24258b0b8184d6615d70c", "fusion_lon": 0.0, "bike_id": "5a0bc74ac5e24258b0b8184d6615d70c", "is_disabled": 0, "is_reserved": 0}, {"rental_uris": {"ios": "https://dc.lft.to/lastmile_qr_scan", "android": "https://dc.lft.to/lastmile_qr_scan"}, "lon": -77.04797816666667, "type": "electric_scooter", "fusion_lat": 0.0, "lat": 38.90731666666667, "name": "fab1c0919ca01449757645bf97e86ad3", "fusion_lon": 0.0, "bike_id": "fab1c0919ca01449757645bf97e86ad3", "is_disabled": 0, "is_reserved": 0}, {"rental_uris": {"ios": "https://dc.lft.to/lastmile_qr_scan", "android": "https://dc.lft.to/lastmile_qr_scan"}, "lon": -77.0245755, "type": "electric_scooter", "fusion_lat": 0.0, "lat": 38.97936, "name": "29e61f120229077f71d956c9b1bf5f95", "fusion_lon": 0.0, "bike_id": "29e61f120229077f71d956c9b1bf5f95", "is_disabled": 0, "is_reserved": 0}, {"rental_uris": {"ios": "https://dc.lft.to/lastmile_qr_scan", "android": "https://dc.lft.to/lastmile_qr_scan"}, "lon": -77.05326016666666, "type": "electric_scooter", "fusion_lat": 0.0, "lat": 38.90419383333333, "name": "2aaba842401091173f1e283d8c773f40", "fusion_lon": 0.0, "bike_id": "2aaba842401091173f1e283d8c773f40", "is_disabled": 0, "is_reserved": 0}, {"rental_uris": {"ios": "https://dc.lft.to/lastmile_qr_scan", "android": "https://dc.lft.to/lastmile_qr_scan"}, "lon": -77.0322965, "type": "electric_scooter", "fusion_lat": 0.0, "lat": 38.938757833333334, "name": "31c44073af8ddad78d3d5390c3eef750", "fusion_lon": 0.0, "bike_id": "31c44073af8ddad78d3d5390c3eef750", "is_disabled": 0, "is_reserved": 0}, {"rental_uris": {"ios": "https://dc.lft.to/lastmile_qr_scan", "android": "https://dc.lft.to/lastmile_qr_scan"}, "lon": -77.0460095, "type": "electric_scooter", "fusion_lat": 0.0, "lat": 38.902287333333334, "name": "7646ed74e7c3ab4935b2a65f63f06688", "fusion_lon": 0.0, "bike_id": "7646ed74e7c3ab4935b2a65f63f06688", "is_disabled": 0, "is_reserved": 0}, {"rental_uris": {"ios": "https://dc.lft.to/lastmile_qr_scan", "android": "https://dc.lft.to/lastmile_qr_scan"}, "lon": -77.046268, "type": "electric_scooter", "fusion_lat": 0.0, "lat": 38.91520666666667, "name": "33144fd33766a24d309b35388f22a861", "fusion_lon": 0.0, "bike_id": "33144fd33766a24d309b35388f22a861", "is_disabled": 0, "is_reserved": 0}, {"rental_uris": {"ios": "https://dc.lft.to/lastmile_qr_scan", "android": "https://dc.lft.to/lastmile_qr_scan"}, "lon": -77.016381, "type": "electric_scooter", "fusion_lat": 0.0, "lat": 38.929375, "name": "dc172927e4abc97fdbd8b13654477089", "fusion_lon": 0.0, "bike_id": "dc172927e4abc97fdbd8b13654477089", "is_disabled": 0, "is_reserved": 0}, {"rental_uris": {"ios": "https://dc.lft.to/lastmile_qr_scan", "android": "https://dc.lft.to/lastmile_qr_scan"}, "lon": -77.043462, "type": "electric_scooter", "fusion_lat": 0.0, "lat": 38.91038116666667, "name": "6cd2b19855bfdc241a077e66b471f790", "fusion_lon": 0.0, "bike_id": "6cd2b19855bfdc241a077e66b471f790", "is_disabled": 0, "is_reserved": 0}, {"rental_uris": {"ios": "https://dc.lft.to/lastmile_qr_scan", "android": "https://dc.lft.to/lastmile_qr_scan"}, "lon": -77.02446333333333, "type": "electric_scooter", "fusion_lat": 0.0, "lat": 38.95637416666667, "name": "d14bf85a3901ab80e8af9cd3f1a3bbcf", "fusion_lon": 0.0, "bike_id": "d14bf85a3901ab80e8af9cd3f1a3bbcf", "is_disabled": 0, "is_reserved": 0}, {"rental_uris": {"ios": "https://dc.lft.to/lastmile_qr_scan", "android": "https://dc.lft.to/lastmile_qr_scan"}, "lon": -77.069388, "type": "electric_scooter", "fusion_lat": 0.0, "lat": 38.9051375, "name": "c3ce408a89b6b57c6f7ea830f9fd943f", "fusion_lon": 0.0, "bike_id": "c3ce408a89b6b57c6f7ea830f9fd943f", "is_disabled": 0, "is_reserved": 0}, {"rental_uris": {"ios": "https://dc.lft.to/lastmile_qr_scan", "android": "https://dc.lft.to/lastmile_qr_scan"}, "lon": -77.037748, "type": "electric_scooter", "fusion_lat": 0.0, "lat": 38.9169875, "name": "983be296b6a5808444cada584db7f38a", "fusion_lon": 0.0, "bike_id": "983be296b6a5808444cada584db7f38a", "is_disabled": 0, "is_reserved": 0}, {"rental_uris": {"ios": "https://dc.lft.to/lastmile_qr_scan", "android": "https://dc.lft.to/lastmile_qr_scan"}, "lon": -77.02955533333333, "type": "electric_scooter", "fusion_lat": 0.0, "lat": 38.915862, "name": "1b90e9f3425b4e7c186f96419ba59536", "fusion_lon": 0.0, "bike_id": "1b90e9f3425b4e7c186f96419ba59536", "is_disabled": 0, "is_reserved": 0}, {"rental_uris": {"ios": "https://dc.lft.to/lastmile_qr_scan", "android": "https://dc.lft.to/lastmile_qr_scan"}, "lon": -77.06882283333333, "type": "electric_scooter", "fusion_lat": 0.0, "lat": 38.90508116666667, "name": "bf567f507f85ec9b2df81c6d0dcbe9de", "fusion_lon": 0.0, "bike_id": "bf567f507f85ec9b2df81c6d0dcbe9de", "is_disabled": 0, "is_reserved": 0}, {"rental_uris": {"ios": "https://dc.lft.to/lastmile_qr_scan", "android": "https://dc.lft.to/lastmile_qr_scan"}, "lon": -76.998643, "type": "electric_scooter", "fusion_lat": 0.0, "lat": 38.90023816666667, "name": "51f27661ca2c57af4494b6d4a81e764c", "fusion_lon": 0.0, "bike_id": "51f27661ca2c57af4494b6d4a81e764c", "is_disabled": 0, "is_reserved": 0}, {"rental_uris": {"ios": "https://dc.lft.to/lastmile_qr_scan", "android": "https://dc.lft.to/lastmile_qr_scan"}, "lon": -77.0321225, "type": "electric_scooter", "fusion_lat": 0.0, "lat": 38.91119583333333, "name": "d146a62bf2e7f77c829214e17ed94fe4", "fusion_lon": 0.0, "bike_id": "d146a62bf2e7f77c829214e17ed94fe4", "is_disabled": 0, "is_reserved": 0}, {"rental_uris": {"ios": "https://dc.lft.to/lastmile_qr_scan", "android": "https://dc.lft.to/lastmile_qr_scan"}, "lon": -76.99777083333333, "type": "electric_scooter", "fusion_lat": 0.0, "lat": 38.908697833333335, "name": "17f16a1a39d5d86b7f8afef74b1a9d88", "fusion_lon": 0.0, "bike_id": "17f16a1a39d5d86b7f8afef74b1a9d88", "is_disabled": 0, "is_reserved": 0}, {"rental_uris": {"ios": "https://dc.lft.to/lastmile_qr_scan", "android": "https://dc.lft.to/lastmile_qr_scan"}, "lon": -77.0223165, "type": "electric_scooter", "fusion_lat": 0.0, "lat": 38.891996666666664, "name": "4d7dbe0dbc049fa4ff1add2505ea245f", "fusion_lon": 0.0, "bike_id": "4d7dbe0dbc049fa4ff1add2505ea245f", "is_disabled": 0, "is_reserved": 0}, {"rental_uris": {"ios": "https://dc.lft.to/lastmile_qr_scan", "android": "https://dc.lft.to/lastmile_qr_scan"}, "lon": -77.0367665, "type": "electric_scooter", "fusion_lat": 0.0, "lat": 38.92936783333333, "name": "9cc137a97fcd6e8134a8b5bf956e61b5", "fusion_lon": 0.0, "bike_id": "9cc137a97fcd6e8134a8b5bf956e61b5", "is_disabled": 0, "is_reserved": 0}, {"rental_uris": {"ios": "https://dc.lft.to/lastmile_qr_scan", "android": "https://dc.lft.to/lastmile_qr_scan"}, "lon": -77.07322516666666, "type": "electric_scooter", "fusion_lat": 0.0, "lat": 38.92497766666666, "name": "fc5824d505c21a2d904bd4c9e1a76aff", "fusion_lon": 0.0, "bike_id": "fc5824d505c21a2d904bd4c9e1a76aff", "is_disabled": 0, "is_reserved": 0}, {"rental_uris": {"ios": "https://dc.lft.to/lastmile_qr_scan", "android": "https://dc.lft.to/lastmile_qr_scan"}, "lon": -77.04506633333334, "type": "electric_scooter", "fusion_lat": 0.0, "lat": 38.91115383333333, "name": "7e93134fc3ec3ac42665cd2da5003745", "fusion_lon": 0.0, "bike_id": "7e93134fc3ec3ac42665cd2da5003745", "is_disabled": 0, "is_reserved": 0}, {"rental_uris": {"ios": "https://dc.lft.to/lastmile_qr_scan", "android": "https://dc.lft.to/lastmile_qr_scan"}, "lon": -77.01742033333333, "type": "electric_scooter", "fusion_lat": 0.0, "lat": 38.8841165, "name": "baf4185486dac94b5707c95bff1fc791", "fusion_lon": 0.0, "bike_id": "baf4185486dac94b5707c95bff1fc791", "is_disabled": 0, "is_reserved": 0}, {"rental_uris": {"ios": "https://dc.lft.to/lastmile_qr_scan", "android": "https://dc.lft.to/lastmile_qr_scan"}, "lon": -77.02801833333334, "type": "electric_scooter", "fusion_lat": 0.0, "lat": 38.89637916666667, "name": "da705dc5ce2a526d379ad0d837c67378", "fusion_lon": 0.0, "bike_id": "da705dc5ce2a526d379ad0d837c67378", "is_disabled": 0, "is_reserved": 0}, {"rental_uris": {"ios": "https://dc.lft.to/lastmile_qr_scan", "android": "https://dc.lft.to/lastmile_qr_scan"}, "lon": -77.03270233333333, "type": "electric_scooter", "fusion_lat": 0.0, "lat": 38.9323065, "name": "8b93b76c5382577070f18ce425aa2832", "fusion_lon": 0.0, "bike_id": "8b93b76c5382577070f18ce425aa2832", "is_disabled": 0, "is_reserved": 0}, {"rental_uris": {"ios": "https://dc.lft.to/lastmile_qr_scan", "android": "https://dc.lft.to/lastmile_qr_scan"}, "lon": -77.12900433333333, "type": "electric_bike", "fusion_lat": 0.0, "lat": 38.863782, "name": "991d07d3d777aa6d1ccf303cd9f2c3a8", "fusion_lon": 0.0, "bike_id": "991d07d3d777aa6d1ccf303cd9f2c3a8", "is_disabled": 0, "is_reserved": 0}, {"rental_uris": {"ios": "https://dc.lft.to/lastmile_qr_scan", "android": "https://dc.lft.to/lastmile_qr_scan"}, "lon": -77.03228666666666, "type": "electric_scooter", "fusion_lat": 0.0, "lat": 38.92669216666667, "name": "e52ea304f13675ee895341c9781655a4", "fusion_lon": 0.0, "bike_id": "e52ea304f13675ee895341c9781655a4", "is_disabled": 0, "is_reserved": 0}, {"rental_uris": {"ios": "https://dc.lft.to/lastmile_qr_scan", "android": "https://dc.lft.to/lastmile_qr_scan"}, "lon": -76.98958166666667, "type": "electric_scooter", "fusion_lat": 0.0, "lat": 38.90026183333333, "name": "4066c9a6722946701cdf777fc068cec2", "fusion_lon": 0.0, "bike_id": "4066c9a6722946701cdf777fc068cec2", "is_disabled": 0, "is_reserved": 0}, {"rental_uris": {"ios": "https://dc.lft.to/lastmile_qr_scan", "android": "https://dc.lft.to/lastmile_qr_scan"}, "lon": -77.04873266666667, "type": "electric_scooter", "fusion_lat": 0.0, "lat": 38.90305, "name": "6d07c9f8f726a0ab6b5201da9913a8f2", "fusion_lon": 0.0, "bike_id": "6d07c9f8f726a0ab6b5201da9913a8f2", "is_disabled": 0, "is_reserved": 0}, {"rental_uris": {"ios": "https://dc.lft.to/lastmile_qr_scan", "android": "https://dc.lft.to/lastmile_qr_scan"}, "lon": -77.00855283333334, "type": "electric_scooter", "fusion_lat": 0.0, "lat": 38.9259425, "name": "15be15794871cd0e89b07b0caffd2f59", "fusion_lon": 0.0, "bike_id": "15be15794871cd0e89b07b0caffd2f59", "is_disabled": 0, "is_reserved": 0}, {"rental_uris": {"ios": "https://dc.lft.to/lastmile_qr_scan", "android": "https://dc.lft.to/lastmile_qr_scan"}, "lon": -76.97886916666667, "type": "electric_scooter", "fusion_lat": 0.0, "lat": 38.916728, "name": "a079bc84fc790cd96ad0e87031bb83f3", "fusion_lon": 0.0, "bike_id": "a079bc84fc790cd96ad0e87031bb83f3", "is_disabled": 0, "is_reserved": 0}, {"rental_uris": {"ios": "https://dc.lft.to/lastmile_qr_scan", "android": "https://dc.lft.to/lastmile_qr_scan"}, "lon": -76.93794383333334, "type": "electric_scooter", "fusion_lat": 0.0, "lat": 38.9128885, "name": "c0532f8bd301fe41c22011b37c8bba0b", "fusion_lon": 0.0, "bike_id": "c0532f8bd301fe41c22011b37c8bba0b", "is_disabled": 0, "is_reserved": 0}, {"rental_uris": {"ios": "https://dc.lft.to/lastmile_qr_scan", "android": "https://dc.lft.to/lastmile_qr_scan"}, "lon": -77.12745533333333, "type": "electric_bike", "fusion_lat": 0.0, "lat": 38.88822733333333, "name": "f7f01f682fc176d0e48e7c5bd21f9f02", "fusion_lon": 0.0, "bike_id": "f7f01f682fc176d0e48e7c5bd21f9f02", "is_disabled": 0, "is_reserved": 0}, {"rental_uris": {"ios": "https://dc.lft.to/lastmile_qr_scan", "android": "https://dc.lft.to/lastmile_qr_scan"}, "lon": -77.08369533333334, "type": "electric_scooter", "fusion_lat": 0.0, "lat": 38.9304045, "name": "5360d81b336a0c66d207ea42395b937d", "fusion_lon": 0.0, "bike_id": "5360d81b336a0c66d207ea42395b937d", "is_disabled": 0, "is_reserved": 0}, {"rental_uris": {"ios": "https://dc.lft.to/lastmile_qr_scan", "android": "https://dc.lft.to/lastmile_qr_scan"}, "lon": -76.98774183333333, "type": "electric_scooter", "fusion_lat": 0.0, "lat": 38.911755, "name": "f640ddd2f1c36840f79cbb18d2c3418d", "fusion_lon": 0.0, "bike_id": "f640ddd2f1c36840f79cbb18d2c3418d", "is_disabled": 0, "is_reserved": 0}, {"rental_uris": {"ios": "https://dc.lft.to/lastmile_qr_scan", "android": "https://dc.lft.to/lastmile_qr_scan"}, "lon": -77.05143333333334, "type": "electric_scooter", "fusion_lat": 0.0, "lat": 38.90245516666667, "name": "464f2854ad0d42648f474b6befae0834", "fusion_lon": 0.0, "bike_id": "464f2854ad0d42648f474b6befae0834", "is_disabled": 0, "is_reserved": 0}, {"rental_uris": {"ios": "https://dc.lft.to/lastmile_qr_scan", "android": "https://dc.lft.to/lastmile_qr_scan"}, "lon": -76.99541183333334, "type": "electric_scooter", "fusion_lat": 0.0, "lat": 38.92666883333333, "name": "572013ad5ca113b9d0601c4a3b782d46", "fusion_lon": 0.0, "bike_id": "572013ad5ca113b9d0601c4a3b782d46", "is_disabled": 0, "is_reserved": 0}, {"rental_uris": {"ios": "https://dc.lft.to/lastmile_qr_scan", "android": "https://dc.lft.to/lastmile_qr_scan"}, "lon": -77.04240983333334, "type": "electric_scooter", "fusion_lat": 0.0, "lat": 38.908183666666666, "name": "6194b6bb32c02bc540a794701a9c828e", "fusion_lon": 0.0, "bike_id": "6194b6bb32c02bc540a794701a9c828e", "is_disabled": 0, "is_reserved": 0}, {"rental_uris": {"ios": "https://dc.lft.to/lastmile_qr_scan", "android": "https://dc.lft.to/lastmile_qr_scan"}, "lon": -77.04923266666667, "type": "electric_scooter", "fusion_lat": 0.0, "lat": 38.89681383333333, "name": "2d8a0caa3ed6bb4218c383e87a27c30e", "fusion_lon": 0.0, "bike_id": "2d8a0caa3ed6bb4218c383e87a27c30e", "is_disabled": 0, "is_reserved": 0}, {"rental_uris": {"ios": "https://dc.lft.to/lastmile_qr_scan", "android": "https://dc.lft.to/lastmile_qr_scan"}, "lon": -77.05108616666666, "type": "electric_scooter", "fusion_lat": 0.0, "lat": 38.905210833333335, "name": "84abb5055eef2c20939ecbcd6f520aa7", "fusion_lon": 0.0, "bike_id": "84abb5055eef2c20939ecbcd6f520aa7", "is_disabled": 0, "is_reserved": 0}, {"rental_uris": {"ios": "https://dc.lft.to/lastmile_qr_scan", "android": "https://dc.lft.to/lastmile_qr_scan"}, "lon": -77.02615083333333, "type": "electric_scooter", "fusion_lat": 0.0, "lat": 38.916933, "name": "9e9d473cb14ee659f483cd19064af1cc", "fusion_lon": 0.0, "bike_id": "9e9d473cb14ee659f483cd19064af1cc", "is_disabled": 0, "is_reserved": 0}, {"rental_uris": {"ios": "https://dc.lft.to/lastmile_qr_scan", "android": "https://dc.lft.to/lastmile_qr_scan"}, "lon": -77.02712533333333, "type": "electric_scooter", "fusion_lat": 0.0, "lat": 38.924828, "name": "f42f1f10e2793d064d6ca5b7c329beab", "fusion_lon": 0.0, "bike_id": "f42f1f10e2793d064d6ca5b7c329beab", "is_disabled": 0, "is_reserved": 0}, {"rental_uris": {"ios": "https://dc.lft.to/lastmile_qr_scan", "android": "https://dc.lft.to/lastmile_qr_scan"}, "lon": -77.0481795, "type": "electric_scooter", "fusion_lat": 0.0, "lat": 38.896249, "name": "f67d610424fa8a5cf32365c2a08a444a", "fusion_lon": 0.0, "bike_id": "f67d610424fa8a5cf32365c2a08a444a", "is_disabled": 0, "is_reserved": 0}, {"rental_uris": {"ios": "https://dc.lft.to/lastmile_qr_scan", "android": "https://dc.lft.to/lastmile_qr_scan"}, "lon": -77.02963383333334, "type": "electric_scooter", "fusion_lat": 0.0, "lat": 38.90643383333333, "name": "d861775591b796cc69241ec5e51ef150", "fusion_lon": 0.0, "bike_id": "d861775591b796cc69241ec5e51ef150", "is_disabled": 0, "is_reserved": 0}, {"rental_uris": {"ios": "https://dc.lft.to/lastmile_qr_scan", "android": "https://dc.lft.to/lastmile_qr_scan"}, "lon": -77.03092216666667, "type": "electric_scooter", "fusion_lat": 0.0, "lat": 38.934738333333335, "name": "3b793a5c9e20b5f998ecc6168f31cc84", "fusion_lon": 0.0, "bike_id": "3b793a5c9e20b5f998ecc6168f31cc84", "is_disabled": 0, "is_reserved": 0}, {"rental_uris": {"ios": "https://dc.lft.to/lastmile_qr_scan", "android": "https://dc.lft.to/lastmile_qr_scan"}, "lon": -77.1499415, "type": "electric_bike", "fusion_lat": 0.0, "lat": 39.09461483333333, "name": "aa9932e7c72e515705fde58ae33d51e4", "fusion_lon": 0.0, "bike_id": "aa9932e7c72e515705fde58ae33d51e4", "is_disabled": 0, "is_reserved": 0}, {"rental_uris": {"ios": "https://dc.lft.to/lastmile_qr_scan", "android": "https://dc.lft.to/lastmile_qr_scan"}, "lon": -76.93361316666666, "type": "electric_scooter", "fusion_lat": 0.0, "lat": 38.89919916666667, "name": "603a65a57fde88b5819a86118fc3b6c9", "fusion_lon": 0.0, "bike_id": "603a65a57fde88b5819a86118fc3b6c9", "is_disabled": 0, "is_reserved": 0}, {"rental_uris": {"ios": "https://dc.lft.to/lastmile_qr_scan", "android": "https://dc.lft.to/lastmile_qr_scan"}, "lon": -77.0343865, "type": "electric_scooter", "fusion_lat": 0.0, "lat": 38.904353666666665, "name": "c5331adfaa24b108c6b99fefe1c82a3c", "fusion_lon": 0.0, "bike_id": "c5331adfaa24b108c6b99fefe1c82a3c", "is_disabled": 0, "is_reserved": 0}, {"rental_uris": {"ios": "https://dc.lft.to/lastmile_qr_scan", "android": "https://dc.lft.to/lastmile_qr_scan"}, "lon": -77.047161, "type": "electric_scooter", "fusion_lat": 0.0, "lat": 38.91677216666667, "name": "5d81e6dec954fbe92cc27594a564c2fe", "fusion_lon": 0.0, "bike_id": "5d81e6dec954fbe92cc27594a564c2fe", "is_disabled": 0, "is_reserved": 0}, {"rental_uris": {"ios": "https://dc.lft.to/lastmile_qr_scan", "android": "https://dc.lft.to/lastmile_qr_scan"}, "lon": -77.04604866666666, "type": "electric_scooter", "fusion_lat": 0.0, "lat": 38.919125666666666, "name": "ccdc1b0197b074b4a9900de953422dda", "fusion_lon": 0.0, "bike_id": "ccdc1b0197b074b4a9900de953422dda", "is_disabled": 0, "is_reserved": 0}, {"rental_uris": {"ios": "https://dc.lft.to/lastmile_qr_scan", "android": "https://dc.lft.to/lastmile_qr_scan"}, "lon": -77.1990995, "type": "electric_bike", "fusion_lat": 0.0, "lat": 38.87531283333333, "name": "81722baf1b8c8e216d7556334c09f8de", "fusion_lon": 0.0, "bike_id": "81722baf1b8c8e216d7556334c09f8de", "is_disabled": 0, "is_reserved": 0}, {"rental_uris": {"ios": "https://dc.lft.to/lastmile_qr_scan", "android": "https://dc.lft.to/lastmile_qr_scan"}, "lon": -77.0056955, "type": "electric_scooter", "fusion_lat": 0.0, "lat": 38.88008333333333, "name": "18384c09de6328ae2f9b0b19a72b1b65", "fusion_lon": 0.0, "bike_id": "18384c09de6328ae2f9b0b19a72b1b65", "is_disabled": 0, "is_reserved": 0}, {"rental_uris": {"ios": "https://dc.lft.to/lastmile_qr_scan", "android": "https://dc.lft.to/lastmile_qr_scan"}, "lon": -76.97493716666666, "type": "electric_scooter", "fusion_lat": 0.0, "lat": 38.86913833333333, "name": "aef9f74948473699271c1c79b74fa101", "fusion_lon": 0.0, "bike_id": "aef9f74948473699271c1c79b74fa101", "is_disabled": 0, "is_reserved": 0}, {"rental_uris": {"ios": "https://dc.lft.to/lastmile_qr_scan", "android": "https://dc.lft.to/lastmile_qr_scan"}, "lon": -76.931765, "type": "electric_scooter", "fusion_lat": 0.0, "lat": 38.898863, "name": "1c130d68a553904165a0a3ad6afde6b9", "fusion_lon": 0.0, "bike_id": "1c130d68a553904165a0a3ad6afde6b9", "is_disabled": 0, "is_reserved": 0}, {"rental_uris": {"ios": "https://dc.lft.to/lastmile_qr_scan", "android": "https://dc.lft.to/lastmile_qr_scan"}, "lon": -77.02074283333333, "type": "electric_scooter", "fusion_lat": 0.0, "lat": 38.915561333333336, "name": "d3a7488258f08aab2a21c27dcdb76e99", "fusion_lon": 0.0, "bike_id": "d3a7488258f08aab2a21c27dcdb76e99", "is_disabled": 0, "is_reserved": 0}, {"rental_uris": {"ios": "https://dc.lft.to/lastmile_qr_scan", "android": "https://dc.lft.to/lastmile_qr_scan"}, "lon": -77.04967333333333, "type": "electric_scooter", "fusion_lat": 0.0, "lat": 38.901089666666664, "name": "d41894432df8b132a5ce7a7ab244fa47", "fusion_lon": 0.0, "bike_id": "d41894432df8b132a5ce7a7ab244fa47", "is_disabled": 0, "is_reserved": 0}, {"rental_uris": {"ios": "https://dc.lft.to/lastmile_qr_scan", "android": "https://dc.lft.to/lastmile_qr_scan"}, "lon": -77.03523633333333, "type": "electric_scooter", "fusion_lat": 0.0, "lat": 38.923376, "name": "2d498529e1e81d563fd47d1107f636ea", "fusion_lon": 0.0, "bike_id": "2d498529e1e81d563fd47d1107f636ea", "is_disabled": 0, "is_reserved": 0}, {"rental_uris": {"ios": "https://dc.lft.to/lastmile_qr_scan", "android": "https://dc.lft.to/lastmile_qr_scan"}, "lon": -76.99505083333334, "type": "electric_scooter", "fusion_lat": 0.0, "lat": 38.899619666666666, "name": "803836b94f7f17c34efcddd1ff7ca0d1", "fusion_lon": 0.0, "bike_id": "803836b94f7f17c34efcddd1ff7ca0d1", "is_disabled": 0, "is_reserved": 0}, {"rental_uris": {"ios": "https://dc.lft.to/lastmile_qr_scan", "android": "https://dc.lft.to/lastmile_qr_scan"}, "lon": -77.35312583333334, "type": "electric_bike", "fusion_lat": 0.0, "lat": 38.9500275, "name": "09872f553f6ebbeaa35d69e8fb9c3345", "fusion_lon": 0.0, "bike_id": "09872f553f6ebbeaa35d69e8fb9c3345", "is_disabled": 0, "is_reserved": 0}, {"rental_uris": {"ios": "https://dc.lft.to/lastmile_qr_scan", "android": "https://dc.lft.to/lastmile_qr_scan"}, "lon": -77.0228035, "type": "electric_scooter", "fusion_lat": 0.0, "lat": 38.916591833333335, "name": "377b47f4e7be26a5127beaf9d36a1e0c", "fusion_lon": 0.0, "bike_id": "377b47f4e7be26a5127beaf9d36a1e0c", "is_disabled": 0, "is_reserved": 0}, {"rental_uris": {"ios": "https://dc.lft.to/lastmile_qr_scan", "android": "https://dc.lft.to/lastmile_qr_scan"}, "lon": -77.0452735, "type": "electric_scooter", "fusion_lat": 0.0, "lat": 38.90372433333334, "name": "464dd74441f30a78a43426e151600824", "fusion_lon": 0.0, "bike_id": "464dd74441f30a78a43426e151600824", "is_disabled": 0, "is_reserved": 0}, {"rental_uris": {"ios": "https://dc.lft.to/lastmile_qr_scan", "android": "https://dc.lft.to/lastmile_qr_scan"}, "lon": -77.07067783333333, "type": "electric_scooter", "fusion_lat": 0.0, "lat": 38.95218916666666, "name": "a54bb79fca89cb9097f656f47d9234a2", "fusion_lon": 0.0, "bike_id": "a54bb79fca89cb9097f656f47d9234a2", "is_disabled": 0, "is_reserved": 0}, {"rental_uris": {"ios": "https://dc.lft.to/lastmile_qr_scan", "android": "https://dc.lft.to/lastmile_qr_scan"}, "lon": -77.0418205, "type": "electric_scooter", "fusion_lat": 0.0, "lat": 38.90348016666667, "name": "78ef24120cfff8d2adbbe4c54ecfa39d", "fusion_lon": 0.0, "bike_id": "78ef24120cfff8d2adbbe4c54ecfa39d", "is_disabled": 0, "is_reserved": 0}, {"rental_uris": {"ios": "https://dc.lft.to/lastmile_qr_scan", "android": "https://dc.lft.to/lastmile_qr_scan"}, "lon": -77.0541175, "type": "electric_scooter", "fusion_lat": 0.0, "lat": 38.9025475, "name": "a347da573eecc360eb9ff4264be95eed", "fusion_lon": 0.0, "bike_id": "a347da573eecc360eb9ff4264be95eed", "is_disabled": 0, "is_reserved": 0}, {"rental_uris": {"ios": "https://dc.lft.to/lastmile_qr_scan", "android": "https://dc.lft.to/lastmile_qr_scan"}, "lon": -77.02404583333333, "type": "electric_scooter", "fusion_lat": 0.0, "lat": 38.8950005, "name": "6d8edf1ef7d83b59f9ff86fa6f954f8a", "fusion_lon": 0.0, "bike_id": "6d8edf1ef7d83b59f9ff86fa6f954f8a", "is_disabled": 0, "is_reserved": 0}, {"rental_uris": {"ios": "https://dc.lft.to/lastmile_qr_scan", "android": "https://dc.lft.to/lastmile_qr_scan"}, "lon": -77.04719333333334, "type": "electric_scooter", "fusion_lat": 0.0, "lat": 38.922436166666664, "name": "98e22fef905366d6f6ad5f84841fce6e", "fusion_lon": 0.0, "bike_id": "98e22fef905366d6f6ad5f84841fce6e", "is_disabled": 0, "is_reserved": 0}, {"rental_uris": {"ios": "https://dc.lft.to/lastmile_qr_scan", "android": "https://dc.lft.to/lastmile_qr_scan"}, "lon": -77.01773966666667, "type": "electric_scooter", "fusion_lat": 0.0, "lat": 38.92095, "name": "038d398878d509ec562ce421d6f8d44b", "fusion_lon": 0.0, "bike_id": "038d398878d509ec562ce421d6f8d44b", "is_disabled": 0, "is_reserved": 0}, {"rental_uris": {"ios": "https://dc.lft.to/lastmile_qr_scan", "android": "https://dc.lft.to/lastmile_qr_scan"}, "lon": -77.03504483333333, "type": "electric_scooter", "fusion_lat": 0.0, "lat": 38.92149233333333, "name": "98109e9047d9b8a7e611a1440b724bb1", "fusion_lon": 0.0, "bike_id": "98109e9047d9b8a7e611a1440b724bb1", "is_disabled": 0, "is_reserved": 0}, {"rental_uris": {"ios": "https://dc.lft.to/lastmile_qr_scan", "android": "https://dc.lft.to/lastmile_qr_scan"}, "lon": -77.031135, "type": "electric_scooter", "fusion_lat": 0.0, "lat": 38.914194, "name": "7530f465158a7196cb96a8ecc94396e3", "fusion_lon": 0.0, "bike_id": "7530f465158a7196cb96a8ecc94396e3", "is_disabled": 0, "is_reserved": 0}, {"rental_uris": {"ios": "https://dc.lft.to/lastmile_qr_scan", "android": "https://dc.lft.to/lastmile_qr_scan"}, "lon": -77.0268805, "type": "electric_scooter", "fusion_lat": 0.0, "lat": 38.90545616666667, "name": "7940de2772613b89092510a541870009", "fusion_lon": 0.0, "bike_id": "7940de2772613b89092510a541870009", "is_disabled": 0, "is_reserved": 0}, {"rental_uris": {"ios": "https://dc.lft.to/lastmile_qr_scan", "android": "https://dc.lft.to/lastmile_qr_scan"}, "lon": -77.02711466666666, "type": "electric_scooter", "fusion_lat": 0.0, "lat": 38.901367, "name": "acc216f9253e9423ec2b8c674381fbfe", "fusion_lon": 0.0, "bike_id": "acc216f9253e9423ec2b8c674381fbfe", "is_disabled": 0, "is_reserved": 0}, {"rental_uris": {"ios": "https://dc.lft.to/lastmile_qr_scan", "android": "https://dc.lft.to/lastmile_qr_scan"}, "lon": -76.9489285, "type": "electric_scooter", "fusion_lat": 0.0, "lat": 38.89528083333333, "name": "f250a0955cd27bcb9f9008c5b3dd5423", "fusion_lon": 0.0, "bike_id": "f250a0955cd27bcb9f9008c5b3dd5423", "is_disabled": 0, "is_reserved": 0}, {"rental_uris": {"ios": "https://dc.lft.to/lastmile_qr_scan", "android": "https://dc.lft.to/lastmile_qr_scan"}, "lon": -77.05291116666666, "type": "electric_scooter", "fusion_lat": 0.0, "lat": 38.918942, "name": "75af19ec1911626000217c5e5fbb2772", "fusion_lon": 0.0, "bike_id": "75af19ec1911626000217c5e5fbb2772", "is_disabled": 0, "is_reserved": 0}, {"rental_uris": {"ios": "https://dc.lft.to/lastmile_qr_scan", "android": "https://dc.lft.to/lastmile_qr_scan"}, "lon": -77.05496533333333, "type": "electric_scooter", "fusion_lat": 0.0, "lat": 38.929747166666665, "name": "b0fbb6267494bfbb7be63473fa7c15ff", "fusion_lon": 0.0, "bike_id": "b0fbb6267494bfbb7be63473fa7c15ff", "is_disabled": 0, "is_reserved": 0}, {"rental_uris": {"ios": "https://dc.lft.to/lastmile_qr_scan", "android": "https://dc.lft.to/lastmile_qr_scan"}, "lon": -76.99002333333334, "type": "electric_scooter", "fusion_lat": 0.0, "lat": 38.865036333333336, "name": "bfb728f1f141d646a1db3326db441720", "fusion_lon": 0.0, "bike_id": "bfb728f1f141d646a1db3326db441720", "is_disabled": 0, "is_reserved": 0}, {"rental_uris": {"ios": "https://dc.lft.to/lastmile_qr_scan", "android": "https://dc.lft.to/lastmile_qr_scan"}, "lon": -77.00864033333333, "type": "electric_bike", "fusion_lat": 0.0, "lat": 38.82730183333334, "name": "8d2d07e96cb4eb7b999a19055f1a181d", "fusion_lon": 0.0, "bike_id": "8d2d07e96cb4eb7b999a19055f1a181d", "is_disabled": 0, "is_reserved": 0}, {"rental_uris": {"ios": "https://dc.lft.to/lastmile_qr_scan", "android": "https://dc.lft.to/lastmile_qr_scan"}, "lon": -77.08199466666667, "type": "electric_bike", "fusion_lat": 0.0, "lat": 38.922084, "name": "37fe05674eefb8fa31d836cd140b81d5", "fusion_lon": 0.0, "bike_id": "37fe05674eefb8fa31d836cd140b81d5", "is_disabled": 0, "is_reserved": 0}, {"rental_uris": {"ios": "https://dc.lft.to/lastmile_qr_scan", "android": "https://dc.lft.to/lastmile_qr_scan"}, "lon": -77.04291733333334, "type": "electric_scooter", "fusion_lat": 0.0, "lat": 38.8953535, "name": "1c74de0f4888d1a54a5176b3a6dc8640", "fusion_lon": 0.0, "bike_id": "1c74de0f4888d1a54a5176b3a6dc8640", "is_disabled": 0, "is_reserved": 0}, {"rental_uris": {"ios": "https://dc.lft.to/lastmile_qr_scan", "android": "https://dc.lft.to/lastmile_qr_scan"}, "lon": -77.01379483333334, "type": "electric_scooter", "fusion_lat": 0.0, "lat": 38.886550666666665, "name": "84c15a85294fbaa44b5a2c2fd7b1b091", "fusion_lon": 0.0, "bike_id": "84c15a85294fbaa44b5a2c2fd7b1b091", "is_disabled": 0, "is_reserved": 0}, {"rental_uris": {"ios": "https://dc.lft.to/lastmile_qr_scan", "android": "https://dc.lft.to/lastmile_qr_scan"}, "lon": -77.0238085, "type": "electric_scooter", "fusion_lat": 0.0, "lat": 38.936177, "name": "c4c0dfc5a2960f40d6716e257567e62a", "fusion_lon": 0.0, "bike_id": "c4c0dfc5a2960f40d6716e257567e62a", "is_disabled": 0, "is_reserved": 0}, {"rental_uris": {"ios": "https://dc.lft.to/lastmile_qr_scan", "android": "https://dc.lft.to/lastmile_qr_scan"}, "lon": -76.95193083333334, "type": "electric_bike", "fusion_lat": 0.0, "lat": 38.90692683333333, "name": "b745c2128f880d89432e65649793f24d", "fusion_lon": 0.0, "bike_id": "b745c2128f880d89432e65649793f24d", "is_disabled": 0, "is_reserved": 0}, {"rental_uris": {"ios": "https://dc.lft.to/lastmile_qr_scan", "android": "https://dc.lft.to/lastmile_qr_scan"}, "lon": -77.0286445, "type": "electric_scooter", "fusion_lat": 0.0, "lat": 38.908629833333336, "name": "91de991a0d0cf9939687a37db288f155", "fusion_lon": 0.0, "bike_id": "91de991a0d0cf9939687a37db288f155", "is_disabled": 0, "is_reserved": 0}, {"rental_uris": {"ios": "https://dc.lft.to/lastmile_qr_scan", "android": "https://dc.lft.to/lastmile_qr_scan"}, "lon": -76.9590555, "type": "electric_scooter", "fusion_lat": 0.0, "lat": 38.926891166666664, "name": "b0cd01ae6bda0726f6d99e44e560fda3", "fusion_lon": 0.0, "bike_id": "b0cd01ae6bda0726f6d99e44e560fda3", "is_disabled": 0, "is_reserved": 0}, {"rental_uris": {"ios": "https://dc.lft.to/lastmile_qr_scan", "android": "https://dc.lft.to/lastmile_qr_scan"}, "lon": -77.04877616666667, "type": "electric_scooter", "fusion_lat": 0.0, "lat": 38.90583983333333, "name": "3e9bb92e963d1bde3fb670ef458fd26a", "fusion_lon": 0.0, "bike_id": "3e9bb92e963d1bde3fb670ef458fd26a", "is_disabled": 0, "is_reserved": 0}, {"rental_uris": {"ios": "https://dc.lft.to/lastmile_qr_scan", "android": "https://dc.lft.to/lastmile_qr_scan"}, "lon": -77.0527175, "type": "electric_scooter", "fusion_lat": 0.0, "lat": 38.93434, "name": "65378fd925fcf1bfb5439a55ae6c8c31", "fusion_lon": 0.0, "bike_id": "65378fd925fcf1bfb5439a55ae6c8c31", "is_disabled": 0, "is_reserved": 0}, {"rental_uris": {"ios": "https://dc.lft.to/lastmile_qr_scan", "android": "https://dc.lft.to/lastmile_qr_scan"}, "lon": -77.00198866666666, "type": "electric_scooter", "fusion_lat": 0.0, "lat": 38.9003435, "name": "3d84baa9592f2186cc2c72b61611deea", "fusion_lon": 0.0, "bike_id": "3d84baa9592f2186cc2c72b61611deea", "is_disabled": 0, "is_reserved": 0}, {"rental_uris": {"ios": "https://dc.lft.to/lastmile_qr_scan", "android": "https://dc.lft.to/lastmile_qr_scan"}, "lon": -76.98002866666667, "type": "electric_bike", "fusion_lat": 0.0, "lat": 38.9001325, "name": "02ca923658642278f3f7d8cb23451a78", "fusion_lon": 0.0, "bike_id": "02ca923658642278f3f7d8cb23451a78", "is_disabled": 0, "is_reserved": 0}, {"rental_uris": {"ios": "https://dc.lft.to/lastmile_qr_scan", "android": "https://dc.lft.to/lastmile_qr_scan"}, "lon": -77.03684566666666, "type": "electric_scooter", "fusion_lat": 0.0, "lat": 38.91873833333333, "name": "ac562dbedc1fa4b8549fc649d5d25980", "fusion_lon": 0.0, "bike_id": "ac562dbedc1fa4b8549fc649d5d25980", "is_disabled": 0, "is_reserved": 0}, {"rental_uris": {"ios": "https://dc.lft.to/lastmile_qr_scan", "android": "https://dc.lft.to/lastmile_qr_scan"}, "lon": -77.04337283333334, "type": "electric_scooter", "fusion_lat": 0.0, "lat": 38.913963833333334, "name": "0386c465928a7a8d2a3819be6e089a13", "fusion_lon": 0.0, "bike_id": "0386c465928a7a8d2a3819be6e089a13", "is_disabled": 0, "is_reserved": 0}, {"rental_uris": {"ios": "https://dc.lft.to/lastmile_qr_scan", "android": "https://dc.lft.to/lastmile_qr_scan"}, "lon": -77.04416516666667, "type": "electric_scooter", "fusion_lat": 0.0, "lat": 38.913200833333335, "name": "b3c53bbd4e21dee90ecca3844ebd7f46", "fusion_lon": 0.0, "bike_id": "b3c53bbd4e21dee90ecca3844ebd7f46", "is_disabled": 0, "is_reserved": 0}, {"rental_uris": {"ios": "https://dc.lft.to/lastmile_qr_scan", "android": "https://dc.lft.to/lastmile_qr_scan"}, "lon": -77.0111325, "type": "electric_scooter", "fusion_lat": 0.0, "lat": 38.9035795, "name": "3175194293e02ed14901986228e71f04", "fusion_lon": 0.0, "bike_id": "3175194293e02ed14901986228e71f04", "is_disabled": 0, "is_reserved": 0}, {"rental_uris": {"ios": "https://dc.lft.to/lastmile_qr_scan", "android": "https://dc.lft.to/lastmile_qr_scan"}, "lon": -76.93178833333333, "type": "electric_scooter", "fusion_lat": 0.0, "lat": 38.8988445, "name": "0ce64b242523d847526d56c3b53e4c28", "fusion_lon": 0.0, "bike_id": "0ce64b242523d847526d56c3b53e4c28", "is_disabled": 0, "is_reserved": 0}, {"rental_uris": {"ios": "https://dc.lft.to/lastmile_qr_scan", "android": "https://dc.lft.to/lastmile_qr_scan"}, "lon": -77.01125783333333, "type": "electric_scooter", "fusion_lat": 0.0, "lat": 38.911824833333334, "name": "3961390b1192e8b14ae9e7c9d2a8706e", "fusion_lon": 0.0, "bike_id": "3961390b1192e8b14ae9e7c9d2a8706e", "is_disabled": 0, "is_reserved": 0}, {"rental_uris": {"ios": "https://dc.lft.to/lastmile_qr_scan", "android": "https://dc.lft.to/lastmile_qr_scan"}, "lon": -77.03220316666666, "type": "electric_scooter", "fusion_lat": 0.0, "lat": 38.91405666666667, "name": "5befb3a702f7552727d8667396f2e2e2", "fusion_lon": 0.0, "bike_id": "5befb3a702f7552727d8667396f2e2e2", "is_disabled": 0, "is_reserved": 0}, {"rental_uris": {"ios": "https://dc.lft.to/lastmile_qr_scan", "android": "https://dc.lft.to/lastmile_qr_scan"}, "lon": -77.04218133333333, "type": "electric_scooter", "fusion_lat": 0.0, "lat": 38.914072166666664, "name": "36d5cf2f0b72f8ec5d27fb39c3f7c26f", "fusion_lon": 0.0, "bike_id": "36d5cf2f0b72f8ec5d27fb39c3f7c26f", "is_disabled": 0, "is_reserved": 0}, {"rental_uris": {"ios": "https://dc.lft.to/lastmile_qr_scan", "android": "https://dc.lft.to/lastmile_qr_scan"}, "lon": -76.99163366666667, "type": "electric_scooter", "fusion_lat": 0.0, "lat": 38.893431166666666, "name": "d5f00b884fed43c9b6c6041f0e9f8b4a", "fusion_lon": 0.0, "bike_id": "d5f00b884fed43c9b6c6041f0e9f8b4a", "is_disabled": 0, "is_reserved": 0}, {"rental_uris": {"ios": "https://dc.lft.to/lastmile_qr_scan", "android": "https://dc.lft.to/lastmile_qr_scan"}, "lon": -76.99365083333333, "type": "electric_scooter", "fusion_lat": 0.0, "lat": 38.900417, "name": "ea1808cc379ed58af6b1dbb97d56ffb8", "fusion_lon": 0.0, "bike_id": "ea1808cc379ed58af6b1dbb97d56ffb8", "is_disabled": 0, "is_reserved": 0}, {"rental_uris": {"ios": "https://dc.lft.to/lastmile_qr_scan", "android": "https://dc.lft.to/lastmile_qr_scan"}, "lon": -77.02004483333333, "type": "electric_scooter", "fusion_lat": 0.0, "lat": 38.905560666666666, "name": "56c779bcc2c1ef4244e52ac1eab2525d", "fusion_lon": 0.0, "bike_id": "56c779bcc2c1ef4244e52ac1eab2525d", "is_disabled": 0, "is_reserved": 0}, {"rental_uris": {"ios": "https://dc.lft.to/lastmile_qr_scan", "android": "https://dc.lft.to/lastmile_qr_scan"}, "lon": -77.04810233333333, "type": "electric_scooter", "fusion_lat": 0.0, "lat": 38.8972605, "name": "8d3f0c70b9adf7e8f7ba998ffcb53ba6", "fusion_lon": 0.0, "bike_id": "8d3f0c70b9adf7e8f7ba998ffcb53ba6", "is_disabled": 0, "is_reserved": 0}, {"rental_uris": {"ios": "https://dc.lft.to/lastmile_qr_scan", "android": "https://dc.lft.to/lastmile_qr_scan"}, "lon": -77.048276, "type": "electric_scooter", "fusion_lat": 0.0, "lat": 38.900559, "name": "a6cc86408c71bcbb8ca5aa72e12fd998", "fusion_lon": 0.0, "bike_id": "a6cc86408c71bcbb8ca5aa72e12fd998", "is_disabled": 0, "is_reserved": 0}, {"rental_uris": {"ios": "https://dc.lft.to/lastmile_qr_scan", "android": "https://dc.lft.to/lastmile_qr_scan"}, "lon": -77.0121855, "type": "electric_scooter", "fusion_lat": 0.0, "lat": 38.9203795, "name": "79084909dc1556523362a61d4b66e0eb", "fusion_lon": 0.0, "bike_id": "79084909dc1556523362a61d4b66e0eb", "is_disabled": 0, "is_reserved": 0}, {"rental_uris": {"ios": "https://dc.lft.to/lastmile_qr_scan", "android": "https://dc.lft.to/lastmile_qr_scan"}, "lon": -77.0453895, "type": "electric_scooter", "fusion_lat": 0.0, "lat": 38.90377933333333, "name": "b6ca31e1a717ac36cf360f908b140c01", "fusion_lon": 0.0, "bike_id": "b6ca31e1a717ac36cf360f908b140c01", "is_disabled": 0, "is_reserved": 0}, {"rental_uris": {"ios": "https://dc.lft.to/lastmile_qr_scan", "android": "https://dc.lft.to/lastmile_qr_scan"}, "lon": -76.89541683333333, "type": "electric_bike", "fusion_lat": 0.0, "lat": 38.94555366666667, "name": "02455ed6152bd9aa4c852f839e4a7673", "fusion_lon": 0.0, "bike_id": "02455ed6152bd9aa4c852f839e4a7673", "is_disabled": 0, "is_reserved": 0}, {"rental_uris": {"ios": "https://dc.lft.to/lastmile_qr_scan", "android": "https://dc.lft.to/lastmile_qr_scan"}, "lon": -77.02980433333333, "type": "electric_scooter", "fusion_lat": 0.0, "lat": 38.916270833333336, "name": "1a93fcf2e955dfc015d0f6df7420c633", "fusion_lon": 0.0, "bike_id": "1a93fcf2e955dfc015d0f6df7420c633", "is_disabled": 0, "is_reserved": 0}, {"rental_uris": {"ios": "https://dc.lft.to/lastmile_qr_scan", "android": "https://dc.lft.to/lastmile_qr_scan"}, "lon": -76.98437416666667, "type": "electric_scooter", "fusion_lat": 0.0, "lat": 38.914560333333334, "name": "2d5ce33f12d5ecd4a479e6674f8e5188", "fusion_lon": 0.0, "bike_id": "2d5ce33f12d5ecd4a479e6674f8e5188", "is_disabled": 0, "is_reserved": 0}, {"rental_uris": {"ios": "https://dc.lft.to/lastmile_qr_scan", "android": "https://dc.lft.to/lastmile_qr_scan"},