{"data": {"bikes": [{"name": "8c5b6d1ea3091d64b9797c51f6643b99", "lat": 38.9119725, "type": "electric_scooter", "is_disabled": 0, "fusion_lon": 0.0, "fusion_lat": 0.0, "lon": -77.03203066666667, "is_reserved": 0, "rental_uris": {"android": "https://dc.lft.to/lastmile_qr_scan", "ios": "https://dc.lft.to/lastmile_qr_scan"}, "bike_id": "8c5b6d1ea3091d64b9797c51f6643b99"}, {"name": "d1173af332da01aba4a124d690af8371", "lat": 38.895475833333336, "type": "electric_scooter", "is_disabled": 0, "fusion_lon": 0.0, "fusion_lat": 0.0, "lon": -77.00922783333333, "is_reserved": 0, "rental_uris": {"android": "https://dc.lft.to/lastmile_qr_scan", "ios": "https://dc.lft.to/lastmile_qr_scan"}, "bike_id": "d1173af332da01aba4a124d690af8371"}, {"name": "1c60897e03fe652a1371cd197c4da296", "lat": 38.923642, "type": "electric_scooter", "is_disabled": 0, "fusion_lon": 0.0, "fusion_lat": 0.0, "lon": -77.050394, "is_reserved": 0, "rental_uris": {"android": "https://dc.lft.to/lastmile_qr_scan", "ios": "https://dc.lft.to/lastmile_qr_scan"}, "bike_id": "1c60897e03fe652a1371cd197c4da296"}, {"name": "7c1a8410bbbff24fddc8da66241510a1", "lat": 38.897304, "type": "electric_scooter", "is_disabled": 0, "fusion_lon": 0.0, "fusion_lat": 0.0, "lon": -76.9258915, "is_reserved": 0, "rental_uris": {"android": "https://dc.lft.to/lastmile_qr_scan", "ios": "https://dc.lft.to/lastmile_qr_scan"}, "bike_id": "7c1a8410bbbff24fddc8da66241510a1"}, {"name": "8cccb06a0abdd48224d9f32a8c6c2d9b", "lat": 38.85508683333333, "type": "electric_scooter", "is_disabled": 0, "fusion_lon": 0.0, "fusion_lat": 0.0, "lon": -76.98649983333334, "is_reserved": 0, "rental_uris": {"android": "https://dc.lft.to/lastmile_qr_scan", "ios": "https://dc.lft.to/lastmile_qr_scan"}, "bike_id": "8cccb06a0abdd48224d9f32a8c6c2d9b"}, {"name": "32c9883fdffda8049d8c63393763c94b", "lat": 38.9077005, "type": "electric_scooter", "is_disabled": 0, "fusion_lon": 0.0, "fusion_lat": 0.0, "lon": -77.02434383333333, "is_reserved": 0, "rental_uris": {"android": "https://dc.lft.to/lastmile_qr_scan", "ios": "https://dc.lft.to/lastmile_qr_scan"}, "bike_id": "32c9883fdffda8049d8c63393763c94b"}, {"name": "979ba59da7884ab283d9e263c1862156", "lat": 38.899507666666665, "type": "electric_scooter", "is_disabled": 0, "fusion_lon": 0.0, "fusion_lat": 0.0, "lon": -77.04502866666667, "is_reserved": 0, "rental_uris": {"android": "https://dc.lft.to/lastmile_qr_scan", "ios": "https://dc.lft.to/lastmile_qr_scan"}, "bike_id": "979ba59da7884ab283d9e263c1862156"}, {"name": "cab331c35aaa2c090e510a069f16995d", "lat": 38.91894, "type": "electric_scooter", "is_disabled": 0, "fusion_lon": 0.0, "fusion_lat": 0.0, "lon": -77.03456966666667, "is_reserved": 0, "rental_uris": {"android": "https://dc.lft.to/lastmile_qr_scan", "ios": "https://dc.lft.to/lastmile_qr_scan"}, "bike_id": "cab331c35aaa2c090e510a069f16995d"}, {"name": "9f1cc16e0925c67d8895c983f8362038", "lat": 38.87464833333333, "type": "electric_scooter", "is_disabled": 0, "fusion_lon": 0.0, "fusion_lat": 0.0, "lon": -77.00894866666667, "is_reserved": 0, "rental_uris": {"android": "https://dc.lft.to/lastmile_qr_scan", "ios": "https://dc.lft.to/lastmile_qr_scan"}, "bike_id": "9f1cc16e0925c67d8895c983f8362038"}, {"name": "1752e9897c956a418e6bc794bde79026", "lat": 38.903150333333336, "type": "electric_scooter", "is_disabled": 0, "fusion_lon": 0.0, "fusion_lat": 0.0, "lon": -77.01896833333333, "is_reserved": 0, "rental_uris": {"android": "https://dc.lft.to/lastmile_qr_scan", "ios": "https://dc.lft.to/lastmile_qr_scan"}, "bike_id": "1752e9897c956a418e6bc794bde79026"}, {"name": "2037e23719973881b246cb1e203426a6", "lat": 38.9268705, "type": "electric_scooter", "is_disabled": 0, "fusion_lon": 0.0, "fusion_lat": 0.0, "lon": -77.0156725, "is_reserved": 0, "rental_uris": {"android": "https://dc.lft.to/lastmile_qr_scan", "ios": "https://dc.lft.to/lastmile_qr_scan"}, "bike_id": "2037e23719973881b246cb1e203426a6"}, {"name": "5385289b91e4fc7b92f0832df790138c", "lat": 38.895417, "type": "electric_scooter", "is_disabled": 0, "fusion_lon": 0.0, "fusion_lat": 0.0, "lon": -76.98247583333334, "is_reserved": 0, "rental_uris": {"android": "https://dc.lft.to/lastmile_qr_scan", "ios": "https://dc.lft.to/lastmile_qr_scan"}, "bike_id": "5385289b91e4fc7b92f0832df790138c"}, {"name": "d8e7e68ad433c3be52a65e236321d637", "lat": 38.924739333333335, "type": "electric_scooter", "is_disabled": 0, "fusion_lon": 0.0, "fusion_lat": 0.0, "lon": -77.02232666666667, "is_reserved": 0, "rental_uris": {"android": "https://dc.lft.to/lastmile_qr_scan", "ios": "https://dc.lft.to/lastmile_qr_scan"}, "bike_id": "d8e7e68ad433c3be52a65e236321d637"}, {"name": "610364e0d16bdfca874da9b1bba63b4c", "lat": 38.9034715, "type": "electric_scooter", "is_disabled": 0, "fusion_lon": 0.0, "fusion_lat": 0.0, "lon": -77.04519366666666, "is_reserved": 0, "rental_uris": {"android": "https://dc.lft.to/lastmile_qr_scan", "ios": "https://dc.lft.to/lastmile_qr_scan"}, "bike_id": "610364e0d16bdfca874da9b1bba63b4c"}, {"name": "8f593d73e516085cb53019f435715718", "lat": 38.909586833333336, "type": "electric_scooter", "is_disabled": 0, "fusion_lon": 0.0, "fusion_lat": 0.0, "lon": -77.0118855, "is_reserved": 0, "rental_uris": {"android": "https://dc.lft.to/lastmile_qr_scan", "ios": "https://dc.lft.to/lastmile_qr_scan"}, "bike_id": "8f593d73e516085cb53019f435715718"}, {"name": "68ac44e476e6882276a7ece2d1d481c0", "lat": 38.897192, "type": "electric_scooter", "is_disabled": 0, "fusion_lon": 0.0, "fusion_lat": 0.0, "lon": -77.0320335, "is_reserved": 0, "rental_uris": {"android": "https://dc.lft.to/lastmile_qr_scan", "ios": "https://dc.lft.to/lastmile_qr_scan"}, "bike_id": "68ac44e476e6882276a7ece2d1d481c0"}, {"name": "0772325a9aa11479e225fbc257413339", "lat": 38.800527333333335, "type": "electric_bike", "is_disabled": 0, "fusion_lon": 0.0, "fusion_lat": 0.0, "lon": -77.12836366666667, "is_reserved": 0, "rental_uris": {"android": "https://dc.lft.to/lastmile_qr_scan", "ios": "https://dc.lft.to/lastmile_qr_scan"}, "bike_id": "0772325a9aa11479e225fbc257413339"}, {"name": "f6863e23cdfb70f2c4fd297d5eb7e230", "lat": 38.9249825, "type": "electric_scooter", "is_disabled": 0, "fusion_lon": 0.0, "fusion_lat": 0.0, "lon": -77.03930466666667, "is_reserved": 0, "rental_uris": {"android": "https://dc.lft.to/lastmile_qr_scan", "ios": "https://dc.lft.to/lastmile_qr_scan"}, "bike_id": "f6863e23cdfb70f2c4fd297d5eb7e230"}, {"name": "05e694e5d93065cecf075b41c2f3fd0d", "lat": 38.9524545, "type": "electric_scooter", "is_disabled": 0, "fusion_lon": 0.0, "fusion_lat": 0.0, "lon": -77.007899, "is_reserved": 0, "rental_uris": {"android": "https://dc.lft.to/lastmile_qr_scan", "ios": "https://dc.lft.to/lastmile_qr_scan"}, "bike_id": "05e694e5d93065cecf075b41c2f3fd0d"}, {"name": "d3b9866f50ab9d2b69aba4e3afbfdbd8", "lat": 38.91708233333333, "type": "electric_scooter", "is_disabled": 0, "fusion_lon": 0.0, "fusion_lat": 0.0, "lon": -77.02440716666666, "is_reserved": 0, "rental_uris": {"android": "https://dc.lft.to/lastmile_qr_scan", "ios": "https://dc.lft.to/lastmile_qr_scan"}, "bike_id": "d3b9866f50ab9d2b69aba4e3afbfdbd8"}, {"name": "40570076045fd5a7ab51ba2c7ebc89f5", "lat": 38.939381, "type": "electric_scooter", "is_disabled": 0, "fusion_lon": 0.0, "fusion_lat": 0.0, "lon": -77.0326825, "is_reserved": 0, "rental_uris": {"android": "https://dc.lft.to/lastmile_qr_scan", "ios": "https://dc.lft.to/lastmile_qr_scan"}, "bike_id": "40570076045fd5a7ab51ba2c7ebc89f5"}, {"name": "cf784082e98d2a16273e4c77f9497f30", "lat": 38.8772815, "type": "electric_scooter", "is_disabled": 0, "fusion_lon": 0.0, "fusion_lat": 0.0, "lon": -77.007284, "is_reserved": 0, "rental_uris": {"android": "https://dc.lft.to/lastmile_qr_scan", "ios": "https://dc.lft.to/lastmile_qr_scan"}, "bike_id": "cf784082e98d2a16273e4c77f9497f30"}, {"name": "55b87b4c142a9e8386ecf070338f6727", "lat": 38.90822683333333, "type": "electric_scooter", "is_disabled": 0, "fusion_lon": 0.0, "fusion_lat": 0.0, "lon": -76.991598, "is_reserved": 0, "rental_uris": {"android": "https://dc.lft.to/lastmile_qr_scan", "ios": "https://dc.lft.to/lastmile_qr_scan"}, "bike_id": "55b87b4c142a9e8386ecf070338f6727"}, {"name": "ed4d160eb2be4e30db08cbf226eb16d9", "lat": 38.985260833333335, "type": "electric_bike", "is_disabled": 0, "fusion_lon": 0.0, "fusion_lat": 0.0, "lon": -77.00415016666666, "is_reserved": 0, "rental_uris": {"android": "https://dc.lft.to/lastmile_qr_scan", "ios": "https://dc.lft.to/lastmile_qr_scan"}, "bike_id": "ed4d160eb2be4e30db08cbf226eb16d9"}, {"name": "f2ea53ea78b35e634e41716e55a88aaa", "lat": 38.9180585, "type": "electric_scooter", "is_disabled": 0, "fusion_lon": 0.0, "fusion_lat": 0.0, "lon": -77.0387395, "is_reserved": 0, "rental_uris": {"android": "https://dc.lft.to/lastmile_qr_scan", "ios": "https://dc.lft.to/lastmile_qr_scan"}, "bike_id": "f2ea53ea78b35e634e41716e55a88aaa"}, {"name": "9c8a88459df9a51a1f697719203aab48", "lat": 38.91266366666667, "type": "electric_scooter", "is_disabled": 0, "fusion_lon": 0.0, "fusion_lat": 0.0, "lon": -77.03143883333334, "is_reserved": 0, "rental_uris": {"android": "https://dc.lft.to/lastmile_qr_scan", "ios": "https://dc.lft.to/lastmile_qr_scan"}, "bike_id": "9c8a88459df9a51a1f697719203aab48"}, {"name": "3ed96263d0c5bbb019c51d7c71ec089e", "lat": 38.899667, "type": "electric_scooter", "is_disabled": 0, "fusion_lon": 0.0, "fusion_lat": 0.0, "lon": -77.04682, "is_reserved": 0, "rental_uris": {"android": "https://dc.lft.to/lastmile_qr_scan", "ios": "https://dc.lft.to/lastmile_qr_scan"}, "bike_id": "3ed96263d0c5bbb019c51d7c71ec089e"}, {"name": "a77b3d1cb55c86a7817b17dd19c85fbb", "lat": 38.920549, "type": "electric_scooter", "is_disabled": 0, "fusion_lon": 0.0, "fusion_lat": 0.0, "lon": -77.0157975, "is_reserved": 0, "rental_uris": {"android": "https://dc.lft.to/lastmile_qr_scan", "ios": "https://dc.lft.to/lastmile_qr_scan"}, "bike_id": "a77b3d1cb55c86a7817b17dd19c85fbb"}, {"name": "1cb568a9dbe2b1273389ac9f9263bc7d", "lat": 38.90032566666667, "type": "electric_scooter", "is_disabled": 0, "fusion_lon": 0.0, "fusion_lat": 0.0, "lon": -77.01181566666666, "is_reserved": 0, "rental_uris": {"android": "https://dc.lft.to/lastmile_qr_scan", "ios": "https://dc.lft.to/lastmile_qr_scan"}, "bike_id": "1cb568a9dbe2b1273389ac9f9263bc7d"}, {"name": "55fc23bd2884af77e9aa6e1b0215a619", "lat": 38.901283, "type": "electric_scooter", "is_disabled": 0, "fusion_lon": 0.0, "fusion_lat": 0.0, "lon": -76.93016266666666, "is_reserved": 0, "rental_uris": {"android": "https://dc.lft.to/lastmile_qr_scan", "ios": "https://dc.lft.to/lastmile_qr_scan"}, "bike_id": "55fc23bd2884af77e9aa6e1b0215a619"}, {"name": "eff1056279a9a3852eb59489d99f9cb0", "lat": 38.90024233333333, "type": "electric_scooter", "is_disabled": 0, "fusion_lon": 0.0, "fusion_lat": 0.0, "lon": -77.04499966666667, "is_reserved": 0, "rental_uris": {"android": "https://dc.lft.to/lastmile_qr_scan", "ios": "https://dc.lft.to/lastmile_qr_scan"}, "bike_id": "eff1056279a9a3852eb59489d99f9cb0"}, {"name": "89c0394766e337308832833a11aa9ca2", "lat": 38.92422416666667, "type": "electric_scooter", "is_disabled": 0, "fusion_lon": 0.0, "fusion_lat": 0.0, "lon": -77.0194695, "is_reserved": 0, "rental_uris": {"android": "https://dc.lft.to/lastmile_qr_scan", "ios": "https://dc.lft.to/lastmile_qr_scan"}, "bike_id": "89c0394766e337308832833a11aa9ca2"}, {"name": "60e4d0d043637cd0bad6cbf9007497ad", "lat": 38.89505483333333, "type": "electric_scooter", "is_disabled": 0, "fusion_lon": 0.0, "fusion_lat": 0.0, "lon": -77.02294066666667, "is_reserved": 0, "rental_uris": {"android": "https://dc.lft.to/lastmile_qr_scan", "ios": "https://dc.lft.to/lastmile_qr_scan"}, "bike_id": "60e4d0d043637cd0bad6cbf9007497ad"}, {"name": "b82accca65a753b0e9992cd1810df80e", "lat": 38.90262383333334, "type": "electric_scooter", "is_disabled": 0, "fusion_lon": 0.0, "fusion_lat": 0.0, "lon": -76.99848516666667, "is_reserved": 0, "rental_uris": {"android": "https://dc.lft.to/lastmile_qr_scan", "ios": "https://dc.lft.to/lastmile_qr_scan"}, "bike_id": "b82accca65a753b0e9992cd1810df80e"}, {"name": "c6239f95e415da79b3312698098e8dd3", "lat": 38.923214, "type": "electric_scooter", "is_disabled": 0, "fusion_lon": 0.0, "fusion_lat": 0.0, "lon": -77.019517, "is_reserved": 0, "rental_uris": {"android": "https://dc.lft.to/lastmile_qr_scan", "ios": "https://dc.lft.to/lastmile_qr_scan"}, "bike_id": "c6239f95e415da79b3312698098e8dd3"}, {"name": "42b967247a785cdb6a479bbb885123c8", "lat": 38.92480183333333, "type": "electric_scooter", "is_disabled": 0, "fusion_lon": 0.0, "fusion_lat": 0.0, "lon": -77.02230583333333, "is_reserved": 0, "rental_uris": {"android": "https://dc.lft.to/lastmile_qr_scan", "ios": "https://dc.lft.to/lastmile_qr_scan"}, "bike_id": "42b967247a785cdb6a479bbb885123c8"}, {"name": "3efc42a0617dcad29ab3a6a738c4f5ed", "lat": 38.8985035, "type": "electric_scooter", "is_disabled": 0, "fusion_lon": 0.0, "fusion_lat": 0.0, "lon": -77.02902216666666, "is_reserved": 0, "rental_uris": {"android": "https://dc.lft.to/lastmile_qr_scan", "ios": "https://dc.lft.to/lastmile_qr_scan"}, "bike_id": "3efc42a0617dcad29ab3a6a738c4f5ed"}, {"name": "9e39b4775ff63d93df6130503c6c2678", "lat": 38.899679666666664, "type": "electric_bike", "is_disabled": 0, "fusion_lon": 0.0, "fusion_lat": 0.0, "lon": -76.98673066666667, "is_reserved": 0, "rental_uris": {"android": "https://dc.lft.to/lastmile_qr_scan", "ios": "https://dc.lft.to/lastmile_qr_scan"}, "bike_id": "9e39b4775ff63d93df6130503c6c2678"}, {"name": "b4b14d2c1f8b0eb13326ad01f2b11140", "lat": 38.921986, "type": "electric_scooter", "is_disabled": 0, "fusion_lon": 0.0, "fusion_lat": 0.0, "lon": -77.01837416666666, "is_reserved": 0, "rental_uris": {"android": "https://dc.lft.to/lastmile_qr_scan", "ios": "https://dc.lft.to/lastmile_qr_scan"}, "bike_id": "b4b14d2c1f8b0eb13326ad01f2b11140"}, {"name": "0fdff7bf7ec3245fd3626996675de1ee", "lat": 38.927214166666666, "type": "electric_scooter", "is_disabled": 0, "fusion_lon": 0.0, "fusion_lat": 0.0, "lon": -77.02067866666667, "is_reserved": 0, "rental_uris": {"android": "https://dc.lft.to/lastmile_qr_scan", "ios": "https://dc.lft.to/lastmile_qr_scan"}, "bike_id": "0fdff7bf7ec3245fd3626996675de1ee"}, {"name": "8ce55a76355141919758ca1cee806c95", "lat": 38.946857, "type": "electric_bike", "is_disabled": 0, "fusion_lon": 0.0, "fusion_lat": 0.0, "lon": -77.02047916666666, "is_reserved": 0, "rental_uris": {"android": "https://dc.lft.to/lastmile_qr_scan", "ios": "https://dc.lft.to/lastmile_qr_scan"}, "bike_id": "8ce55a76355141919758ca1cee806c95"}, {"name": "72f6341a402b40efea8fd149dfc5e82c", "lat": 38.911810833333334, "type": "electric_scooter", "is_disabled": 0, "fusion_lon": 0.0, "fusion_lat": 0.0, "lon": -77.04257116666666, "is_reserved": 0, "rental_uris": {"android": "https://dc.lft.to/lastmile_qr_scan", "ios": "https://dc.lft.to/lastmile_qr_scan"}, "bike_id": "72f6341a402b40efea8fd149dfc5e82c"}, {"name": "a5ba49b8824501be27697c7dbe06d1db", "lat": 38.9521345, "type": "electric_bike", "is_disabled": 0, "fusion_lon": 0.0, "fusion_lat": 0.0, "lon": -77.0965455, "is_reserved": 0, "rental_uris": {"android": "https://dc.lft.to/lastmile_qr_scan", "ios": "https://dc.lft.to/lastmile_qr_scan"}, "bike_id": "a5ba49b8824501be27697c7dbe06d1db"}, {"name": "f58f8c5b9809978568b37f085aa65deb", "lat": 38.898494666666664, "type": "electric_scooter", "is_disabled": 0, "fusion_lon": 0.0, "fusion_lat": 0.0, "lon": -77.02842783333334, "is_reserved": 0, "rental_uris": {"android": "https://dc.lft.to/lastmile_qr_scan", "ios": "https://dc.lft.to/lastmile_qr_scan"}, "bike_id": "f58f8c5b9809978568b37f085aa65deb"}, {"name": "9ec21e9321509484686adef1378a9e14", "lat": 38.92460466666667, "type": "electric_scooter", "is_disabled": 0, "fusion_lon": 0.0, "fusion_lat": 0.0, "lon": -77.022693, "is_reserved": 0, "rental_uris": {"android": "https://dc.lft.to/lastmile_qr_scan", "ios": "https://dc.lft.to/lastmile_qr_scan"}, "bike_id": "9ec21e9321509484686adef1378a9e14"}, {"name": "7ccc707f0b8e9523b97ac30a8204c46b", "lat": 38.90035566666667, "type": "electric_scooter", "is_disabled": 0, "fusion_lon": 0.0, "fusion_lat": 0.0, "lon": -77.00199716666667, "is_reserved": 0, "rental_uris": {"android": "https://dc.lft.to/lastmile_qr_scan", "ios": "https://dc.lft.to/lastmile_qr_scan"}, "bike_id": "7ccc707f0b8e9523b97ac30a8204c46b"}, {"name": "25a7230be69c4db0ff0093fbbef895f1", "lat": 38.91590083333333, "type": "electric_scooter", "is_disabled": 0, "fusion_lon": 0.0, "fusion_lat": 0.0, "lon": -77.01455483333334, "is_reserved": 0, "rental_uris": {"android": "https://dc.lft.to/lastmile_qr_scan", "ios": "https://dc.lft.to/lastmile_qr_scan"}, "bike_id": "25a7230be69c4db0ff0093fbbef895f1"}, {"name": "0f6de05fcd50dbe8bedc5ed914729fef", "lat": 38.8811945, "type": "electric_bike", "is_disabled": 0, "fusion_lon": 0.0, "fusion_lat": 0.0, "lon": -76.99795, "is_reserved": 0, "rental_uris": {"android": "https://dc.lft.to/lastmile_qr_scan", "ios": "https://dc.lft.to/lastmile_qr_scan"}, "bike_id": "0f6de05fcd50dbe8bedc5ed914729fef"}, {"name": "fce66974cb65caf364aa8bafd0fd5a98", "lat": 38.89957966666667, "type": "electric_scooter", "is_disabled": 0, "fusion_lon": 0.0, "fusion_lat": 0.0, "lon": -77.028224, "is_reserved": 0, "rental_uris": {"android": "https://dc.lft.to/lastmile_qr_scan", "ios": "https://dc.lft.to/lastmile_qr_scan"}, "bike_id": "fce66974cb65caf364aa8bafd0fd5a98"}, {"name": "28fdc31c7baebba4c0191ee35d9df34f", "lat": 38.91932933333333, "type": "electric_scooter", "is_disabled": 0, "fusion_lon": 0.0, "fusion_lat": 0.0, "lon": -77.03420766666666, "is_reserved": 0, "rental_uris": {"android": "https://dc.lft.to/lastmile_qr_scan", "ios": "https://dc.lft.to/lastmile_qr_scan"}, "bike_id": "28fdc31c7baebba4c0191ee35d9df34f"}, {"name": "6225dea8179f70ab586337fcd34954c4", "lat": 38.8380775, "type": "electric_bike", "is_disabled": 0, "fusion_lon": 0.0, "fusion_lat": 0.0, "lon": -77.00284083333334, "is_reserved": 0, "rental_uris": {"android": "https://dc.lft.to/lastmile_qr_scan", "ios": "https://dc.lft.to/lastmile_qr_scan"}, "bike_id": "6225dea8179f70ab586337fcd34954c4"}, {"name": "d517ce06f871d92b759bac5bda238e67", "lat": 38.9664905, "type": "electric_scooter", "is_disabled": 0, "fusion_lon": 0.0, "fusion_lat": 0.0, "lon": -77.02744683333333, "is_reserved": 0, "rental_uris": {"android": "https://dc.lft.to/lastmile_qr_scan", "ios": "https://dc.lft.to/lastmile_qr_scan"}, "bike_id": "d517ce06f871d92b759bac5bda238e67"}, {"name": "776754cf4d14768c2c7def7b66c4dada", "lat": 38.928691666666666, "type": "electric_scooter", "is_disabled": 0, "fusion_lon": 0.0, "fusion_lat": 0.0, "lon": -77.03390216666666, "is_reserved": 0, "rental_uris": {"android": "https://dc.lft.to/lastmile_qr_scan", "ios": "https://dc.lft.to/lastmile_qr_scan"}, "bike_id": "776754cf4d14768c2c7def7b66c4dada"}, {"name": "8019938cf6d7b2a1c5b95dbc7d752fff", "lat": 38.906066833333334, "type": "electric_scooter", "is_disabled": 0, "fusion_lon": 0.0, "fusion_lat": 0.0, "lon": -77.02688883333333, "is_reserved": 0, "rental_uris": {"android": "https://dc.lft.to/lastmile_qr_scan", "ios": "https://dc.lft.to/lastmile_qr_scan"}, "bike_id": "8019938cf6d7b2a1c5b95dbc7d752fff"}, {"name": "18baa473482e22c6fec6c4c38613f752", "lat": 38.914814, "type": "electric_scooter", "is_disabled": 0, "fusion_lon": 0.0, "fusion_lat": 0.0, "lon": -77.01887416666666, "is_reserved": 0, "rental_uris": {"android": "https://dc.lft.to/lastmile_qr_scan", "ios": "https://dc.lft.to/lastmile_qr_scan"}, "bike_id": "18baa473482e22c6fec6c4c38613f752"}, {"name": "c2607095d9bb89a7d8019179bc6c066a", "lat": 38.899973833333334, "type": "electric_scooter", "is_disabled": 0, "fusion_lon": 0.0, "fusion_lat": 0.0, "lon": -77.0245315, "is_reserved": 0, "rental_uris": {"android": "https://dc.lft.to/lastmile_qr_scan", "ios": "https://dc.lft.to/lastmile_qr_scan"}, "bike_id": "c2607095d9bb89a7d8019179bc6c066a"}, {"name": "0766d3664ba4eda4c77c814fdadbe285", "lat": 38.836040833333335, "type": "electric_bike", "is_disabled": 0, "fusion_lon": 0.0, "fusion_lat": 0.0, "lon": -77.00372383333334, "is_reserved": 0, "rental_uris": {"android": "https://dc.lft.to/lastmile_qr_scan", "ios": "https://dc.lft.to/lastmile_qr_scan"}, "bike_id": "0766d3664ba4eda4c77c814fdadbe285"}, {"name": "01f70ba3494bac3eee1642a9ea7db01c", "lat": 38.9000745, "type": "electric_scooter", "is_disabled": 0, "fusion_lon": 0.0, "fusion_lat": 0.0, "lon": -77.0331195, "is_reserved": 0, "rental_uris": {"android": "https://dc.lft.to/lastmile_qr_scan", "ios": "https://dc.lft.to/lastmile_qr_scan"}, "bike_id": "01f70ba3494bac3eee1642a9ea7db01c"}, {"name": "5a4154b834e6024abcd329f19b908040", "lat": 38.92419533333333, "type": "electric_scooter", "is_disabled": 0, "fusion_lon": 0.0, "fusion_lat": 0.0, "lon": -77.01943516666667, "is_reserved": 0, "rental_uris": {"android": "https://dc.lft.to/lastmile_qr_scan", "ios": "https://dc.lft.to/lastmile_qr_scan"}, "bike_id": "5a4154b834e6024abcd329f19b908040"}, {"name": "74a71fceb5e548459a9e9d066cd39540", "lat": 38.8973965, "type": "electric_scooter", "is_disabled": 0, "fusion_lon": 0.0, "fusion_lat": 0.0, "lon": -77.007837, "is_reserved": 0, "rental_uris": {"android": "https://dc.lft.to/lastmile_qr_scan", "ios": "https://dc.lft.to/lastmile_qr_scan"}, "bike_id": "74a71fceb5e548459a9e9d066cd39540"}, {"name": "96635020ac202d3031d254da1fffb56d", "lat": 38.99224533333334, "type": "electric_bike", "is_disabled": 0, "fusion_lon": 0.0, "fusion_lat": 0.0, "lon": -77.03586716666666, "is_reserved": 0, "rental_uris": {"android": "https://dc.lft.to/lastmile_qr_scan", "ios": "https://dc.lft.to/lastmile_qr_scan"}, "bike_id": "96635020ac202d3031d254da1fffb56d"}, {"name": "5d33e2df1466a9863cd1ab2745ea8506", "lat": 38.923629, "type": "electric_scooter", "is_disabled": 0, "fusion_lon": 0.0, "fusion_lat": 0.0, "lon": -77.05034833333333, "is_reserved": 0, "rental_uris": {"android": "https://dc.lft.to/lastmile_qr_scan", "ios": "https://dc.lft.to/lastmile_qr_scan"}, "bike_id": "5d33e2df1466a9863cd1ab2745ea8506"}, {"name": "e0a9192be016792a7041b382b802ddf0", "lat": 38.877395166666666, "type": "electric_bike", "is_disabled": 0, "fusion_lon": 0.0, "fusion_lat": 0.0, "lon": -77.14871433333333, "is_reserved": 0, "rental_uris": {"android": "https://dc.lft.to/lastmile_qr_scan", "ios": "https://dc.lft.to/lastmile_qr_scan"}, "bike_id": "e0a9192be016792a7041b382b802ddf0"}, {"name": "02068f63e677785ce9507464c411411e", "lat": 38.91517733333333, "type": "electric_scooter", "is_disabled": 0, "fusion_lon": 0.0, "fusion_lat": 0.0, "lon": -77.034636, "is_reserved": 0, "rental_uris": {"android": "https://dc.lft.to/lastmile_qr_scan", "ios": "https://dc.lft.to/lastmile_qr_scan"}, "bike_id": "02068f63e677785ce9507464c411411e"}, {"name": "f49da72fbbf42b80d463ab6d4df9a5db", "lat": 38.905592666666664, "type": "electric_scooter", "is_disabled": 0, "fusion_lon": 0.0, "fusion_lat": 0.0, "lon": -77.02099866666667, "is_reserved": 0, "rental_uris": {"android": "https://dc.lft.to/lastmile_qr_scan", "ios": "https://dc.lft.to/lastmile_qr_scan"}, "bike_id": "f49da72fbbf42b80d463ab6d4df9a5db"}, {"name": "c6fc3399751a96739e03c2b0c96c2f90", "lat": 38.89499083333333, "type": "electric_scooter", "is_disabled": 0, "fusion_lon": 0.0, "fusion_lat": 0.0, "lon": -76.948734, "is_reserved": 0, "rental_uris": {"android": "https://dc.lft.to/lastmile_qr_scan", "ios": "https://dc.lft.to/lastmile_qr_scan"}, "bike_id": "c6fc3399751a96739e03c2b0c96c2f90"}, {"name": "cd27aba9dffc2bed940409ceaf7bea3b", "lat": 38.94185083333333, "type": "electric_scooter", "is_disabled": 0, "fusion_lon": 0.0, "fusion_lat": 0.0, "lon": -77.024031, "is_reserved": 0, "rental_uris": {"android": "https://dc.lft.to/lastmile_qr_scan", "ios": "https://dc.lft.to/lastmile_qr_scan"}, "bike_id": "cd27aba9dffc2bed940409ceaf7bea3b"}, {"name": "8e89dc1fc011503f7e74e37221e97725", "lat": 38.89826866666667, "type": "electric_scooter", "is_disabled": 0, "fusion_lon": 0.0, "fusion_lat": 0.0, "lon": -77.04608233333333, "is_reserved": 0, "rental_uris": {"android": "https://dc.lft.to/lastmile_qr_scan", "ios": "https://dc.lft.to/lastmile_qr_scan"}, "bike_id": "8e89dc1fc011503f7e74e37221e97725"}, {"name": "59be890744b501a5045ae7681df5a888", "lat": 38.90237033333333, "type": "electric_scooter", "is_disabled": 0, "fusion_lon": 0.0, "fusion_lat": 0.0, "lon": -77.00204233333334, "is_reserved": 0, "rental_uris": {"android": "https://dc.lft.to/lastmile_qr_scan", "ios": "https://dc.lft.to/lastmile_qr_scan"}, "bike_id": "59be890744b501a5045ae7681df5a888"}, {"name": "f9e0f3ed3aca379b0c81388fe853f334", "lat": 38.905041833333335, "type": "electric_scooter", "is_disabled": 0, "fusion_lon": 0.0, "fusion_lat": 0.0, "lon": -77.029516, "is_reserved": 0, "rental_uris": {"android": "https://dc.lft.to/lastmile_qr_scan", "ios": "https://dc.lft.to/lastmile_qr_scan"}, "bike_id": "f9e0f3ed3aca379b0c81388fe853f334"}, {"name": "b194878ed057bf158fa0de77a37a9656", "lat": 38.8849905, "type": "electric_scooter", "is_disabled": 0, "fusion_lon": 0.0, "fusion_lat": 0.0, "lon": -77.01946583333333, "is_reserved": 0, "rental_uris": {"android": "https://dc.lft.to/lastmile_qr_scan", "ios": "https://dc.lft.to/lastmile_qr_scan"}, "bike_id": "b194878ed057bf158fa0de77a37a9656"}, {"name": "6873dff1ec454bb3331f36a661446408", "lat": 38.9015225, "type": "electric_scooter", "is_disabled": 0, "fusion_lon": 0.0, "fusion_lat": 0.0, "lon": -77.059275, "is_reserved": 0, "rental_uris": {"android": "https://dc.lft.to/lastmile_qr_scan", "ios": "https://dc.lft.to/lastmile_qr_scan"}, "bike_id": "6873dff1ec454bb3331f36a661446408"}, {"name": "5d8d1547a1a780b9099d76c0f6682162", "lat": 38.911063166666665, "type": "electric_scooter", "is_disabled": 0, "fusion_lon": 0.0, "fusion_lat": 0.0, "lon": -77.00331766666666, "is_reserved": 0, "rental_uris": {"android": "https://dc.lft.to/lastmile_qr_scan", "ios": "https://dc.lft.to/lastmile_qr_scan"}, "bike_id": "5d8d1547a1a780b9099d76c0f6682162"}, {"name": "f3793be4f69d086a97faf9ff68023861", "lat": 38.903799666666664, "type": "electric_scooter", "is_disabled": 0, "fusion_lon": 0.0, "fusion_lat": 0.0, "lon": -77.03110116666667, "is_reserved": 0, "rental_uris": {"android": "https://dc.lft.to/lastmile_qr_scan", "ios": "https://dc.lft.to/lastmile_qr_scan"}, "bike_id": "f3793be4f69d086a97faf9ff68023861"}, {"name": "342b0a2e7843f92d56cb0d01a5db4a95", "lat": 38.91929616666667, "type": "electric_scooter", "is_disabled": 0, "fusion_lon": 0.0, "fusion_lat": 0.0, "lon": -77.04492833333333, "is_reserved": 0, "rental_uris": {"android": "https://dc.lft.to/lastmile_qr_scan", "ios": "https://dc.lft.to/lastmile_qr_scan"}, "bike_id": "342b0a2e7843f92d56cb0d01a5db4a95"}, {"name": "635b4fa9caae030bdcc3dadb48141899", "lat": 38.894003166666664, "type": "electric_scooter", "is_disabled": 0, "fusion_lon": 0.0, "fusion_lat": 0.0, "lon": -77.02164966666666, "is_reserved": 0, "rental_uris": {"android": "https://dc.lft.to/lastmile_qr_scan", "ios": "https://dc.lft.to/lastmile_qr_scan"}, "bike_id": "635b4fa9caae030bdcc3dadb48141899"}, {"name": "acc8547e70f481e3051985e03ff8094e", "lat": 38.883928833333336, "type": "electric_scooter", "is_disabled": 0, "fusion_lon": 0.0, "fusion_lat": 0.0, "lon": -76.9544475, "is_reserved": 0, "rental_uris": {"android": "https://dc.lft.to/lastmile_qr_scan", "ios": "https://dc.lft.to/lastmile_qr_scan"}, "bike_id": "acc8547e70f481e3051985e03ff8094e"}, {"name": "831883cd4dac21c177488689b3936758", "lat": 38.87664066666667, "type": "electric_scooter", "is_disabled": 0, "fusion_lon": 0.0, "fusion_lat": 0.0, "lon": -77.00301483333334, "is_reserved": 0, "rental_uris": {"android": "https://dc.lft.to/lastmile_qr_scan", "ios": "https://dc.lft.to/lastmile_qr_scan"}, "bike_id": "831883cd4dac21c177488689b3936758"}, {"name": "9549b30c7db3357631d26f0c7429b59a", "lat": 38.936050333333334, "type": "electric_bike", "is_disabled": 0, "fusion_lon": 0.0, "fusion_lat": 0.0, "lon": -77.03469633333333, "is_reserved": 0, "rental_uris": {"android": "https://dc.lft.to/lastmile_qr_scan", "ios": "https://dc.lft.to/lastmile_qr_scan"}, "bike_id": "9549b30c7db3357631d26f0c7429b59a"}, {"name": "573be581dff58c50952afd21abb58ce5", "lat": 38.919238, "type": "electric_scooter", "is_disabled": 0, "fusion_lon": 0.0, "fusion_lat": 0.0, "lon": -77.0342415, "is_reserved": 0, "rental_uris": {"android": "https://dc.lft.to/lastmile_qr_scan", "ios": "https://dc.lft.to/lastmile_qr_scan"}, "bike_id": "573be581dff58c50952afd21abb58ce5"}, {"name": "e15f987e1ada6f40ff673c6fa5268907", "lat": 38.859672333333336, "type": "electric_scooter", "is_disabled": 0, "fusion_lon": 0.0, "fusion_lat": 0.0, "lon": -76.987108, "is_reserved": 0, "rental_uris": {"android": "https://dc.lft.to/lastmile_qr_scan", "ios": "https://dc.lft.to/lastmile_qr_scan"}, "bike_id": "e15f987e1ada6f40ff673c6fa5268907"}, {"name": "d2a0e553b3523df5ff1ab221d5d313fe", "lat": 38.89939, "type": "electric_scooter", "is_disabled": 0, "fusion_lon": 0.0, "fusion_lat": 0.0, "lon": -77.04506516666666, "is_reserved": 0, "rental_uris": {"android": "https://dc.lft.to/lastmile_qr_scan", "ios": "https://dc.lft.to/lastmile_qr_scan"}, "bike_id": "d2a0e553b3523df5ff1ab221d5d313fe"}, {"name": "ff42813e6e600ffc54d0fcb91d395f39", "lat": 38.91919866666667, "type": "electric_scooter", "is_disabled": 0, "fusion_lon": 0.0, "fusion_lat": 0.0, "lon": -77.03095383333333, "is_reserved": 0, "rental_uris": {"android": "https://dc.lft.to/lastmile_qr_scan", "ios": "https://dc.lft.to/lastmile_qr_scan"}, "bike_id": "ff42813e6e600ffc54d0fcb91d395f39"}, {"name": "320716c48a9a2d8c4f30a0089ea82b1e", "lat": 38.919805333333336, "type": "electric_scooter", "is_disabled": 0, "fusion_lon": 0.0, "fusion_lat": 0.0, "lon": -77.03340366666667, "is_reserved": 0, "rental_uris": {"android": "https://dc.lft.to/lastmile_qr_scan", "ios": "https://dc.lft.to/lastmile_qr_scan"}, "bike_id": "320716c48a9a2d8c4f30a0089ea82b1e"}, {"name": "baf5789dfae2fb3b4d359bcaeb5f26c4", "lat": 38.90871283333333, "type": "electric_scooter", "is_disabled": 0, "fusion_lon": 0.0, "fusion_lat": 0.0, "lon": -77.031903, "is_reserved": 0, "rental_uris": {"android": "https://dc.lft.to/lastmile_qr_scan", "ios": "https://dc.lft.to/lastmile_qr_scan"}, "bike_id": "baf5789dfae2fb3b4d359bcaeb5f26c4"}, {"name": "35653da0a768c0fc898da91f5e09e795", "lat": 38.92299783333333, "type": "electric_scooter", "is_disabled": 0, "fusion_lon": 0.0, "fusion_lat": 0.0, "lon": -77.04146566666667, "is_reserved": 0, "rental_uris": {"android": "https://dc.lft.to/lastmile_qr_scan", "ios": "https://dc.lft.to/lastmile_qr_scan"}, "bike_id": "35653da0a768c0fc898da91f5e09e795"}, {"name": "801ac8f5864d805b08aecb32c823a5c7", "lat": 38.899462, "type": "electric_scooter", "is_disabled": 0, "fusion_lon": 0.0, "fusion_lat": 0.0, "lon": -77.04856366666667, "is_reserved": 0, "rental_uris": {"android": "https://dc.lft.to/lastmile_qr_scan", "ios": "https://dc.lft.to/lastmile_qr_scan"}, "bike_id": "801ac8f5864d805b08aecb32c823a5c7"}, {"name": "c9eb0fa1c11e2420fc400c91421da164", "lat": 38.919362, "type": "electric_scooter", "is_disabled": 0, "fusion_lon": 0.0, "fusion_lat": 0.0, "lon": -77.02470816666667, "is_reserved": 0, "rental_uris": {"android": "https://dc.lft.to/lastmile_qr_scan", "ios": "https://dc.lft.to/lastmile_qr_scan"}, "bike_id": "c9eb0fa1c11e2420fc400c91421da164"}, {"name": "5f3711650647dc156943ee6728461c0e", "lat": 38.86888483333333, "type": "electric_scooter", "is_disabled": 0, "fusion_lon": 0.0, "fusion_lat": 0.0, "lon": -76.98233283333333, "is_reserved": 0, "rental_uris": {"android": "https://dc.lft.to/lastmile_qr_scan", "ios": "https://dc.lft.to/lastmile_qr_scan"}, "bike_id": "5f3711650647dc156943ee6728461c0e"}, {"name": "503c4c106153ad48964e8e02193e5791", "lat": 38.898679666666666, "type": "electric_scooter", "is_disabled": 0, "fusion_lon": 0.0, "fusion_lat": 0.0, "lon": -76.94663733333333, "is_reserved": 0, "rental_uris": {"android": "https://dc.lft.to/lastmile_qr_scan", "ios": "https://dc.lft.to/lastmile_qr_scan"}, "bike_id": "503c4c106153ad48964e8e02193e5791"}, {"name": "b81d4462abbc6e5f8b00e6cfa25e9591", "lat": 38.904934, "type": "electric_scooter", "is_disabled": 0, "fusion_lon": 0.0, "fusion_lat": 0.0, "lon": -77.02594033333334, "is_reserved": 0, "rental_uris": {"android": "https://dc.lft.to/lastmile_qr_scan", "ios": "https://dc.lft.to/lastmile_qr_scan"}, "bike_id": "b81d4462abbc6e5f8b00e6cfa25e9591"}, {"name": "7121b21c83823a54a6d0011ba0162f64", "lat": 38.91404333333333, "type": "electric_scooter", "is_disabled": 0, "fusion_lon": 0.0, "fusion_lat": 0.0, "lon": -77.02894816666667, "is_reserved": 0, "rental_uris": {"android": "https://dc.lft.to/lastmile_qr_scan", "ios": "https://dc.lft.to/lastmile_qr_scan"}, "bike_id": "7121b21c83823a54a6d0011ba0162f64"}, {"name": "adb4a7eaf983333d90e1b4514808835d", "lat": 38.964702, "type": "electric_bike", "is_disabled": 0, "fusion_lon": 0.0, "fusion_lat": 0.0, "lon": -77.03562166666667, "is_reserved": 0, "rental_uris": {"android": "https://dc.lft.to/lastmile_qr_scan", "ios": "https://dc.lft.to/lastmile_qr_scan"}, "bike_id": "adb4a7eaf983333d90e1b4514808835d"}, {"name": "82849433a14334fb03d17d66e2461848", "lat": 38.99780483333333, "type": "electric_bike", "is_disabled": 0, "fusion_lon": 0.0, "fusion_lat": 0.0, "lon": -77.00756283333334, "is_reserved": 0, "rental_uris": {"android": "https://dc.lft.to/lastmile_qr_scan", "ios": "https://dc.lft.to/lastmile_qr_scan"}, "bike_id": "82849433a14334fb03d17d66e2461848"}, {"name": "5c46cc15d224527f05a9d09ff929293e", "lat": 38.8961555, "type": "electric_scooter", "is_disabled": 0, "fusion_lon": 0.0, "fusion_lat": 0.0, "lon": -77.02654583333333, "is_reserved": 0, "rental_uris": {"android": "https://dc.lft.to/lastmile_qr_scan", "ios": "https://dc.lft.to/lastmile_qr_scan"}, "bike_id": "5c46cc15d224527f05a9d09ff929293e"}, {"name": "721e19dd214f9f4321db4d33bc0165d6", "lat": 38.96123883333333, "type": "electric_bike", "is_disabled": 0, "fusion_lon": 0.0, "fusion_lat": 0.0, "lon": -77.032755, "is_reserved": 0, "rental_uris": {"android": "https://dc.lft.to/lastmile_qr_scan", "ios": "https://dc.lft.to/lastmile_qr_scan"}, "bike_id": "721e19dd214f9f4321db4d33bc0165d6"}, {"name": "ed7fce0aa94f731277123a9eac9972c3", "lat": 38.92154216666667, "type": "electric_scooter", "is_disabled": 0, "fusion_lon": 0.0, "fusion_lat": 0.0, "lon": -77.033812, "is_reserved": 0, "rental_uris": {"android": "https://dc.lft.to/lastmile_qr_scan", "ios": "https://dc.lft.to/lastmile_qr_scan"}, "bike_id": "ed7fce0aa94f731277123a9eac9972c3"}, {"name": "e5aaea9553f7e424932706a8874f81dd", "lat": 38.93100483333333, "type": "electric_scooter", "is_disabled": 0, "fusion_lon": 0.0, "fusion_lat": 0.0, "lon": -77.09101083333333, "is_reserved": 0, "rental_uris": {"android": "https://dc.lft.to/lastmile_qr_scan", "ios": "https://dc.lft.to/lastmile_qr_scan"}, "bike_id": "e5aaea9553f7e424932706a8874f81dd"}, {"name": "e384fce653e1e640695749c4a7aa8a19", "lat": 38.88736383333333, "type": "electric_scooter", "is_disabled": 0, "fusion_lon": 0.0, "fusion_lat": 0.0, "lon": -77.02573683333334, "is_reserved": 0, "rental_uris": {"android": "https://dc.lft.to/lastmile_qr_scan", "ios": "https://dc.lft.to/lastmile_qr_scan"}, "bike_id": "e384fce653e1e640695749c4a7aa8a19"}, {"name": "bf28fc35cda2d0eec6b58e888c142d57", "lat": 38.9002425, "type": "electric_scooter", "is_disabled": 0, "fusion_lon": 0.0, "fusion_lat": 0.0, "lon": -77.03330166666667, "is_reserved": 0, "rental_uris": {"android": "https://dc.lft.to/lastmile_qr_scan", "ios": "https://dc.lft.to/lastmile_qr_scan"}, "bike_id": "bf28fc35cda2d0eec6b58e888c142d57"}, {"name": "53a4c7a991dca0e96f0a4e6067afae37", "lat": 38.89868766666667, "type": "electric_scooter", "is_disabled": 0, "fusion_lon": 0.0, "fusion_lat": 0.0, "lon": -76.946636, "is_reserved": 0, "rental_uris": {"android": "https://dc.lft.to/lastmile_qr_scan", "ios": "https://dc.lft.to/lastmile_qr_scan"}, "bike_id": "53a4c7a991dca0e96f0a4e6067afae37"}, {"name": "acb60b99df8e9b9745572ce1eafab180", "lat": 38.892284333333336, "type": "electric_scooter", "is_disabled": 0, "fusion_lon": 0.0, "fusion_lat": 0.0, "lon": -77.02800916666666, "is_reserved": 0, "rental_uris": {"android": "https://dc.lft.to/lastmile_qr_scan", "ios": "https://dc.lft.to/lastmile_qr_scan"}, "bike_id": "acb60b99df8e9b9745572ce1eafab180"}, {"name": "dcf843142da3034befd39cde9913f49e", "lat": 38.924050666666666, "type": "electric_scooter", "is_disabled": 0, "fusion_lon": 0.0, "fusion_lat": 0.0, "lon": -77.02080216666667, "is_reserved": 0, "rental_uris": {"android": "https://dc.lft.to/lastmile_qr_scan", "ios": "https://dc.lft.to/lastmile_qr_scan"}, "bike_id": "dcf843142da3034befd39cde9913f49e"}, {"name": "7f9cf1b254acd289d4765772d6c06346", "lat": 38.91178333333333, "type": "electric_scooter", "is_disabled": 0, "fusion_lon": 0.0, "fusion_lat": 0.0, "lon": -77.0445915, "is_reserved": 0, "rental_uris": {"android": "https://dc.lft.to/lastmile_qr_scan", "ios": "https://dc.lft.to/lastmile_qr_scan"}, "bike_id": "7f9cf1b254acd289d4765772d6c06346"}, {"name": "46e2166d780a2472dca2cf0cfd46fdca", "lat": 38.874088, "type": "electric_scooter", "is_disabled": 0, "fusion_lon": 0.0, "fusion_lat": 0.0, "lon": -77.00069633333334, "is_reserved": 0, "rental_uris": {"android": "https://dc.lft.to/lastmile_qr_scan", "ios": "https://dc.lft.to/lastmile_qr_scan"}, "bike_id": "46e2166d780a2472dca2cf0cfd46fdca"}, {"name": "416db20ab679a959bf9474aaf60e4ae9", "lat": 38.887246166666664, "type": "electric_scooter", "is_disabled": 0, "fusion_lon": 0.0, "fusion_lat": 0.0, "lon": -76.98341833333333, "is_reserved": 0, "rental_uris": {"android": "https://dc.lft.to/lastmile_qr_scan", "ios": "https://dc.lft.to/lastmile_qr_scan"}, "bike_id": "416db20ab679a959bf9474aaf60e4ae9"}, {"name": "34dad06b0b8fbb352e688b823300afac", "lat": 38.90049, "type": "electric_scooter", "is_disabled": 0, "fusion_lon": 0.0, "fusion_lat": 0.0, "lon": -77.02721983333333, "is_reserved": 0, "rental_uris": {"android": "https://dc.lft.to/lastmile_qr_scan", "ios": "https://dc.lft.to/lastmile_qr_scan"}, "bike_id": "34dad06b0b8fbb352e688b823300afac"}, {"name": "62c1fb6b0e84bca7501713fcc819da17", "lat": 38.88747266666667, "type": "electric_scooter", "is_disabled": 0, "fusion_lon": 0.0, "fusion_lat": 0.0, "lon": -77.03145933333333, "is_reserved": 0, "rental_uris": {"android": "https://dc.lft.to/lastmile_qr_scan", "ios": "https://dc.lft.to/lastmile_qr_scan"}, "bike_id": "62c1fb6b0e84bca7501713fcc819da17"}, {"name": "137498a82fabfc145615499a18a95639", "lat": 38.92156266666667, "type": "electric_scooter", "is_disabled": 0, "fusion_lon": 0.0, "fusion_lat": 0.0, "lon": -77.0332425, "is_reserved": 0, "rental_uris": {"android": "https://dc.lft.to/lastmile_qr_scan", "ios": "https://dc.lft.to/lastmile_qr_scan"}, "bike_id": "137498a82fabfc145615499a18a95639"}, {"name": "aa54a88c20ef750a2ed929856277450f", "lat": 38.90278216666667, "type": "electric_scooter", "is_disabled": 0, "fusion_lon": 0.0, "fusion_lat": 0.0, "lon": -77.06000883333333, "is_reserved": 0, "rental_uris": {"android": "https://dc.lft.to/lastmile_qr_scan", "ios": "https://dc.lft.to/lastmile_qr_scan"}, "bike_id": "aa54a88c20ef750a2ed929856277450f"}, {"name": "465489cf63f8308aa9263e77fba40ae8", "lat": 38.88450683333333, "type": "electric_scooter", "is_disabled": 0, "fusion_lon": 0.0, "fusion_lat": 0.0, "lon": -76.9295645, "is_reserved": 0, "rental_uris": {"android": "https://dc.lft.to/lastmile_qr_scan", "ios": "https://dc.lft.to/lastmile_qr_scan"}, "bike_id": "465489cf63f8308aa9263e77fba40ae8"}, {"name": "68fae1a57eb9ad7b7d0418d6ea07bd9d", "lat": 38.926194333333335, "type": "electric_scooter", "is_disabled": 0, "fusion_lon": 0.0, "fusion_lat": 0.0, "lon": -77.04333833333334, "is_reserved": 0, "rental_uris": {"android": "https://dc.lft.to/lastmile_qr_scan", "ios": "https://dc.lft.to/lastmile_qr_scan"}, "bike_id": "68fae1a57eb9ad7b7d0418d6ea07bd9d"}, {"name": "478378a313b3f898ad622dd0c9644fe4", "lat": 38.896182333333336, "type": "electric_scooter", "is_disabled": 0, "fusion_lon": 0.0, "fusion_lat": 0.0, "lon": -76.98565516666666, "is_reserved": 0, "rental_uris": {"android": "https://dc.lft.to/lastmile_qr_scan", "ios": "https://dc.lft.to/lastmile_qr_scan"}, "bike_id": "478378a313b3f898ad622dd0c9644fe4"}, {"name": "683a65b82c769c3fa4080347dcd43890", "lat": 38.903957, "type": "electric_scooter", "is_disabled": 0, "fusion_lon": 0.0, "fusion_lat": 0.0, "lon": -77.03509816666667, "is_reserved": 0, "rental_uris": {"android": "https://dc.lft.to/lastmile_qr_scan", "ios": "https://dc.lft.to/lastmile_qr_scan"}, "bike_id": "683a65b82c769c3fa4080347dcd43890"}, {"name": "9e2351594ffe796b7d617890f19e34cd", "lat": 38.90028366666667, "type": "electric_scooter", "is_disabled": 0, "fusion_lon": 0.0, "fusion_lat": 0.0, "lon": -76.98793133333334, "is_reserved": 0, "rental_uris": {"android": "https://dc.lft.to/lastmile_qr_scan", "ios": "https://dc.lft.to/lastmile_qr_scan"}, "bike_id": "9e2351594ffe796b7d617890f19e34cd"}, {"name": "0c67785e0df195216c97b4bfbff7d688", "lat": 38.91817133333333, "type": "electric_scooter", "is_disabled": 0, "fusion_lon": 0.0, "fusion_lat": 0.0, "lon": -76.99967416666667, "is_reserved": 0, "rental_uris": {"android": "https://dc.lft.to/lastmile_qr_scan", "ios": "https://dc.lft.to/lastmile_qr_scan"}, "bike_id": "0c67785e0df195216c97b4bfbff7d688"}, {"name": "9a43e767dac8b20f9ba2819207e4e2ab", "lat": 38.902311, "type": "electric_scooter", "is_disabled": 0, "fusion_lon": 0.0, "fusion_lat": 0.0, "lon": -77.02843216666666, "is_reserved": 0, "rental_uris": {"android": "https://dc.lft.to/lastmile_qr_scan", "ios": "https://dc.lft.to/lastmile_qr_scan"}, "bike_id": "9a43e767dac8b20f9ba2819207e4e2ab"}, {"name": "46576f09d08c66d9a8e104c0b582ac99", "lat": 38.95295316666667, "type": "electric_scooter", "is_disabled": 0, "fusion_lon": 0.0, "fusion_lat": 0.0, "lon": -77.02905066666666, "is_reserved": 0, "rental_uris": {"android": "https://dc.lft.to/lastmile_qr_scan", "ios": "https://dc.lft.to/lastmile_qr_scan"}, "bike_id": "46576f09d08c66d9a8e104c0b582ac99"}, {"name": "b1c6e80b2144cbefa6ceb91ce49188e8", "lat": 38.936769166666664, "type": "electric_bike", "is_disabled": 0, "fusion_lon": 0.0, "fusion_lat": 0.0, "lon": -77.09031683333333, "is_reserved": 0, "rental_uris": {"android": "https://dc.lft.to/lastmile_qr_scan", "ios": "https://dc.lft.to/lastmile_qr_scan"}, "bike_id": "b1c6e80b2144cbefa6ceb91ce49188e8"}, {"name": "4f0c64e66857ce67266cdba354e0e816", "lat": 38.923182833333335, "type": "electric_scooter", "is_disabled": 0, "fusion_lon": 0.0, "fusion_lat": 0.0, "lon": -77.0280405, "is_reserved": 0, "rental_uris": {"android": "https://dc.lft.to/lastmile_qr_scan", "ios": "https://dc.lft.to/lastmile_qr_scan"}, "bike_id": "4f0c64e66857ce67266cdba354e0e816"}, {"name": "02afc7d6d5d5d932c3d82ba45358e7db", "lat": 38.87893566666666, "type": "electric_scooter", "is_disabled": 0, "fusion_lon": 0.0, "fusion_lat": 0.0, "lon": -77.013891, "is_reserved": 0, "rental_uris": {"android": "https://dc.lft.to/lastmile_qr_scan", "ios": "https://dc.lft.to/lastmile_qr_scan"}, "bike_id": "02afc7d6d5d5d932c3d82ba45358e7db"}, {"name": "a71b50d7bf6450a78a1f3bb56bab30e5", "lat": 38.876094, "type": "electric_scooter", "is_disabled": 0, "fusion_lon": 0.0, "fusion_lat": 0.0, "lon": -77.02085816666667, "is_reserved": 0, "rental_uris": {"android": "https://dc.lft.to/lastmile_qr_scan", "ios": "https://dc.lft.to/lastmile_qr_scan"}, "bike_id": "a71b50d7bf6450a78a1f3bb56bab30e5"}, {"name": "9b6078a004f601d6e8a511ce55352605", "lat": 38.884316166666665, "type": "electric_scooter", "is_disabled": 0, "fusion_lon": 0.0, "fusion_lat": 0.0, "lon": -77.00138733333333, "is_reserved": 0, "rental_uris": {"android": "https://dc.lft.to/lastmile_qr_scan", "ios": "https://dc.lft.to/lastmile_qr_scan"}, "bike_id": "9b6078a004f601d6e8a511ce55352605"}, {"name": "2edac29c5b23c66519814e0d27a86ad5", "lat": 38.90995616666667, "type": "electric_scooter", "is_disabled": 0, "fusion_lon": 0.0, "fusion_lat": 0.0, "lon": -77.04004383333333, "is_reserved": 0, "rental_uris": {"android": "https://dc.lft.to/lastmile_qr_scan", "ios": "https://dc.lft.to/lastmile_qr_scan"}, "bike_id": "2edac29c5b23c66519814e0d27a86ad5"}, {"name": "f449c3afac6914bb6c580f614e9cc927", "lat": 38.905207833333336, "type": "electric_scooter", "is_disabled": 0, "fusion_lon": 0.0, "fusion_lat": 0.0, "lon": -77.043492, "is_reserved": 0, "rental_uris": {"android": "https://dc.lft.to/lastmile_qr_scan", "ios": "https://dc.lft.to/lastmile_qr_scan"}, "bike_id": "f449c3afac6914bb6c580f614e9cc927"}, {"name": "78e08c1dfe4093fa7cc6ffccff42c041", "lat": 38.88113166666667, "type": "electric_scooter", "is_disabled": 0, "fusion_lon": 0.0, "fusion_lat": 0.0, "lon": -77.01649, "is_reserved": 0, "rental_uris": {"android": "https://dc.lft.to/lastmile_qr_scan", "ios": "https://dc.lft.to/lastmile_qr_scan"}, "bike_id": "78e08c1dfe4093fa7cc6ffccff42c041"}, {"name": "1a35c1a1cd43e6a8fdb62b24a2eaa368", "lat": 38.879672, "type": "electric_scooter", "is_disabled": 0, "fusion_lon": 0.0, "fusion_lat": 0.0, "lon": -76.987477, "is_reserved": 0, "rental_uris": {"android": "https://dc.lft.to/lastmile_qr_scan", "ios": "https://dc.lft.to/lastmile_qr_scan"}, "bike_id": "1a35c1a1cd43e6a8fdb62b24a2eaa368"}, {"name": "49acd0722e2cd94ff71f243b654009e2", "lat": 38.8919535, "type": "electric_scooter", "is_disabled": 0, "fusion_lon": 0.0, "fusion_lat": 0.0, "lon": -76.98837616666667, "is_reserved": 0, "rental_uris": {"android": "https://dc.lft.to/lastmile_qr_scan", "ios": "https://dc.lft.to/lastmile_qr_scan"}, "bike_id": "49acd0722e2cd94ff71f243b654009e2"}, {"name": "ed1ff0c0b5274755f7532efc336b0b99", "lat": 38.89155933333333, "type": "electric_scooter", "is_disabled": 0, "fusion_lon": 0.0, "fusion_lat": 0.0, "lon": -76.99151816666667, "is_reserved": 0, "rental_uris": {"android": "https://dc.lft.to/lastmile_qr_scan", "ios": "https://dc.lft.to/lastmile_qr_scan"}, "bike_id": "ed1ff0c0b5274755f7532efc336b0b99"}, {"name": "d031a914617ab5081b92d256e113a71d", "lat": 38.93826633333333, "type": "electric_scooter", "is_disabled": 0, "fusion_lon": 0.0, "fusion_lat": 0.0, "lon": -76.986181, "is_reserved": 0, "rental_uris": {"android": "https://dc.lft.to/lastmile_qr_scan", "ios": "https://dc.lft.to/lastmile_qr_scan"}, "bike_id": "d031a914617ab5081b92d256e113a71d"}, {"name": "a45cedb92e8d1034201edb16de52386d", "lat": 38.91264666666667, "type": "electric_scooter", "is_disabled": 0, "fusion_lon": 0.0, "fusion_lat": 0.0, "lon": -77.03822933333333, "is_reserved": 0, "rental_uris": {"android": "https://dc.lft.to/lastmile_qr_scan", "ios": "https://dc.lft.to/lastmile_qr_scan"}, "bike_id": "a45cedb92e8d1034201edb16de52386d"}, {"name": "6f706694b92d253a9007f1e81c54492c", "lat": 38.921076, "type": "electric_scooter", "is_disabled": 0, "fusion_lon": 0.0, "fusion_lat": 0.0, "lon": -77.04358333333333, "is_reserved": 0, "rental_uris": {"android": "https://dc.lft.to/lastmile_qr_scan", "ios": "https://dc.lft.to/lastmile_qr_scan"}, "bike_id": "6f706694b92d253a9007f1e81c54492c"}, {"name": "7fe6647e79bedf60a7e982f472119982", "lat": 38.82206766666667, "type": "electric_bike", "is_disabled": 0, "fusion_lon": 0.0, "fusion_lat": 0.0, "lon": -76.97702783333334, "is_reserved": 0, "rental_uris": {"android": "https://dc.lft.to/lastmile_qr_scan", "ios": "https://dc.lft.to/lastmile_qr_scan"}, "bike_id": "7fe6647e79bedf60a7e982f472119982"}, {"name": "4e1250b171838d0f62024d72525f56cf", "lat": 38.92364166666667, "type": "electric_scooter", "is_disabled": 0, "fusion_lon": 0.0, "fusion_lat": 0.0, "lon": -77.07228416666666, "is_reserved": 0, "rental_uris": {"android": "https://dc.lft.to/lastmile_qr_scan", "ios": "https://dc.lft.to/lastmile_qr_scan"}, "bike_id": "4e1250b171838d0f62024d72525f56cf"}, {"name": "600fa118723cdb88bc91568689a46b36", "lat": 38.892246, "type": "electric_scooter", "is_disabled": 0, "fusion_lon": 0.0, "fusion_lat": 0.0, "lon": -77.04497233333333, "is_reserved": 0, "rental_uris": {"android": "https://dc.lft.to/lastmile_qr_scan", "ios": "https://dc.lft.to/lastmile_qr_scan"}, "bike_id": "600fa118723cdb88bc91568689a46b36"}, {"name": "571783a50936c0af067776165c34ec6f", "lat": 38.92918133333333, "type": "electric_scooter", "is_disabled": 0, "fusion_lon": 0.0, "fusion_lat": 0.0, "lon": -77.03487333333334, "is_reserved": 0, "rental_uris": {"android": "https://dc.lft.to/lastmile_qr_scan", "ios": "https://dc.lft.to/lastmile_qr_scan"}, "bike_id": "571783a50936c0af067776165c34ec6f"}, {"name": "6c3dab9248dfe9ccb7e728fbfa13dd13", "lat": 38.87896083333333, "type": "electric_scooter", "is_disabled": 0, "fusion_lon": 0.0, "fusion_lat": 0.0, "lon": -76.9352025, "is_reserved": 0, "rental_uris": {"android": "https://dc.lft.to/lastmile_qr_scan", "ios": "https://dc.lft.to/lastmile_qr_scan"}, "bike_id": "6c3dab9248dfe9ccb7e728fbfa13dd13"}, {"name": "36ad563b3ebe6c66a53973cdbe493f21", "lat": 38.95738166666667, "type": "electric_scooter", "is_disabled": 0, "fusion_lon": 0.0, "fusion_lat": 0.0, "lon": -77.0238875, "is_reserved": 0, "rental_uris": {"android": "https://dc.lft.to/lastmile_qr_scan", "ios": "https://dc.lft.to/lastmile_qr_scan"}, "bike_id": "36ad563b3ebe6c66a53973cdbe493f21"}, {"name": "7dad2ef691da641aa56984b20a6df45d", "lat": 38.89977, "type": "electric_scooter", "is_disabled": 0, "fusion_lon": 0.0, "fusion_lat": 0.0, "lon": -76.991471, "is_reserved": 0, "rental_uris": {"android": "https://dc.lft.to/lastmile_qr_scan", "ios": "https://dc.lft.to/lastmile_qr_scan"}, "bike_id": "7dad2ef691da641aa56984b20a6df45d"}, {"name": "a8eafb25336cb5efb3952b79391f828e", "lat": 38.9059375, "type": "electric_scooter", "is_disabled": 0, "fusion_lon": 0.0, "fusion_lat": 0.0, "lon": -76.98538066666667, "is_reserved": 0, "rental_uris": {"android": "https://dc.lft.to/lastmile_qr_scan", "ios": "https://dc.lft.to/lastmile_qr_scan"}, "bike_id": "a8eafb25336cb5efb3952b79391f828e"}, {"name": "c24f325de99f2ab5183efade40b058cd", "lat": 38.87638116666667, "type": "electric_scooter", "is_disabled": 0, "fusion_lon": 0.0, "fusion_lat": 0.0, "lon": -77.00567016666666, "is_reserved": 0, "rental_uris": {"android": "https://dc.lft.to/lastmile_qr_scan", "ios": "https://dc.lft.to/lastmile_qr_scan"}, "bike_id": "c24f325de99f2ab5183efade40b058cd"}, {"name": "cdf7abd19169fd1d90676d3ed10ac37c", "lat": 38.9168595, "type": "electric_scooter", "is_disabled": 0, "fusion_lon": 0.0, "fusion_lat": 0.0, "lon": -77.02956283333333, "is_reserved": 0, "rental_uris": {"android": "https://dc.lft.to/lastmile_qr_scan", "ios": "https://dc.lft.to/lastmile_qr_scan"}, "bike_id": "cdf7abd19169fd1d90676d3ed10ac37c"}, {"name": "643e5d36fdc99a3dc0898cdf4c90a2b7", "lat": 38.915823333333336, "type": "electric_scooter", "is_disabled": 0, "fusion_lon": 0.0, "fusion_lat": 0.0, "lon": -76.98397, "is_reserved": 0, "rental_uris": {"android": "https://dc.lft.to/lastmile_qr_scan", "ios": "https://dc.lft.to/lastmile_qr_scan"}, "bike_id": "643e5d36fdc99a3dc0898cdf4c90a2b7"}, {"name": "faab7fa397aeda99644d34df7efbacbd", "lat": 38.93940416666667, "type": "electric_scooter", "is_disabled": 0, "fusion_lon": 0.0, "fusion_lat": 0.0, "lon": -77.03269016666667, "is_reserved": 0, "rental_uris": {"android": "https://dc.lft.to/lastmile_qr_scan", "ios": "https://dc.lft.to/lastmile_qr_scan"}, "bike_id": "faab7fa397aeda99644d34df7efbacbd"}, {"name": "4686abb1d2fded2165724935804c8cad", "lat": 38.89262866666667, "type": "electric_scooter", "is_disabled": 0, "fusion_lon": 0.0, "fusion_lat": 0.0, "lon": -76.98372716666667, "is_reserved": 0, "rental_uris": {"android": "https://dc.lft.to/lastmile_qr_scan", "ios": "https://dc.lft.to/lastmile_qr_scan"}, "bike_id": "4686abb1d2fded2165724935804c8cad"}, {"name": "3d91aad16787d5eb7d6360efde459a84", "lat": 38.841917, "type": "electric_bike", "is_disabled": 0, "fusion_lon": 0.0, "fusion_lat": 0.0, "lon": -77.0775455, "is_reserved": 0, "rental_uris": {"android": "https://dc.lft.to/lastmile_qr_scan", "ios": "https://dc.lft.to/lastmile_qr_scan"}, "bike_id": "3d91aad16787d5eb7d6360efde459a84"}, {"name": "59c9806b538e3ec0b59669983a38bd77", "lat": 38.930582333333334, "type": "electric_scooter", "is_disabled": 0, "fusion_lon": 0.0, "fusion_lat": 0.0, "lon": -77.03943416666667, "is_reserved": 0, "rental_uris": {"android": "https://dc.lft.to/lastmile_qr_scan", "ios": "https://dc.lft.to/lastmile_qr_scan"}, "bike_id": "59c9806b538e3ec0b59669983a38bd77"}, {"name": "526d83779d7c03e2ef16156703cb1de6", "lat": 38.926681333333335, "type": "electric_scooter", "is_disabled": 0, "fusion_lon": 0.0, "fusion_lat": 0.0, "lon": -77.04051366666667, "is_reserved": 0, "rental_uris": {"android": "https://dc.lft.to/lastmile_qr_scan", "ios": "https://dc.lft.to/lastmile_qr_scan"}, "bike_id": "526d83779d7c03e2ef16156703cb1de6"}, {"name": "0a3166076ce1158a74a727d4c2f6f49e", "lat": 38.899079, "type": "electric_scooter", "is_disabled": 0, "fusion_lon": 0.0, "fusion_lat": 0.0, "lon": -77.04995983333333, "is_reserved": 0, "rental_uris": {"android": "https://dc.lft.to/lastmile_qr_scan", "ios": "https://dc.lft.to/lastmile_qr_scan"}, "bike_id": "0a3166076ce1158a74a727d4c2f6f49e"}, {"name": "56dbda1091733d61c3472252eef5d441", "lat": 38.9019935, "type": "electric_scooter", "is_disabled": 0, "fusion_lon": 0.0, "fusion_lat": 0.0, "lon": -77.03848366666666, "is_reserved": 0, "rental_uris": {"android": "https://dc.lft.to/lastmile_qr_scan", "ios": "https://dc.lft.to/lastmile_qr_scan"}, "bike_id": "56dbda1091733d61c3472252eef5d441"}, {"name": "abb78c45a33acf41f0e3358f0afe2f85", "lat": 38.9216395, "type": "electric_scooter", "is_disabled": 0, "fusion_lon": 0.0, "fusion_lat": 0.0, "lon": -77.03337283333333, "is_reserved": 0, "rental_uris": {"android": "https://dc.lft.to/lastmile_qr_scan", "ios": "https://dc.lft.to/lastmile_qr_scan"}, "bike_id": "abb78c45a33acf41f0e3358f0afe2f85"}, {"name": "2cdf494602945085192daae1761a6954", "lat": 38.92472133333333, "type": "electric_scooter", "is_disabled": 0, "fusion_lon": 0.0, "fusion_lat": 0.0, "lon": -77.03378816666667, "is_reserved": 0, "rental_uris": {"android": "https://dc.lft.to/lastmile_qr_scan", "ios": "https://dc.lft.to/lastmile_qr_scan"}, "bike_id": "2cdf494602945085192daae1761a6954"}, {"name": "5af8b6ca049f19009f926c697d6d5204", "lat": 38.9086075, "type": "electric_scooter", "is_disabled": 0, "fusion_lon": 0.0, "fusion_lat": 0.0, "lon": -77.0243695, "is_reserved": 0, "rental_uris": {"android": "https://dc.lft.to/lastmile_qr_scan", "ios": "https://dc.lft.to/lastmile_qr_scan"}, "bike_id": "5af8b6ca049f19009f926c697d6d5204"}, {"name": "5141875e0556cc6af61a38c76da1ba61", "lat": 38.916314, "type": "electric_scooter", "is_disabled": 0, "fusion_lon": 0.0, "fusion_lat": 0.0, "lon": -77.0349775, "is_reserved": 0, "rental_uris": {"android": "https://dc.lft.to/lastmile_qr_scan", "ios": "https://dc.lft.to/lastmile_qr_scan"}, "bike_id": "5141875e0556cc6af61a38c76da1ba61"}, {"name": "ed4434800b646843e31ef349de37f51f", "lat": 38.89415066666667, "type": "electric_scooter", "is_disabled": 0, "fusion_lon": 0.0, "fusion_lat": 0.0, "lon": -77.02214333333333, "is_reserved": 0, "rental_uris": {"android": "https://dc.lft.to/lastmile_qr_scan", "ios": "https://dc.lft.to/lastmile_qr_scan"}, "bike_id": "ed4434800b646843e31ef349de37f51f"}, {"name": "32892ae675d16b74a5c61fbfb6a0fe7a", "lat": 38.90453633333333, "type": "electric_scooter", "is_disabled": 0, "fusion_lon": 0.0, "fusion_lat": 0.0, "lon": -77.01710716666666, "is_reserved": 0, "rental_uris": {"android": "https://dc.lft.to/lastmile_qr_scan", "ios": "https://dc.lft.to/lastmile_qr_scan"}, "bike_id": "32892ae675d16b74a5c61fbfb6a0fe7a"}, {"name": "fb4f406461f70da674dee3c90b946d48", "lat": 38.880841333333336, "type": "electric_scooter", "is_disabled": 0, "fusion_lon": 0.0, "fusion_lat": 0.0, "lon": -76.9949835, "is_reserved": 0, "rental_uris": {"android": "https://dc.lft.to/lastmile_qr_scan", "ios": "https://dc.lft.to/lastmile_qr_scan"}, "bike_id": "fb4f406461f70da674dee3c90b946d48"}, {"name": "fc2227ef75c621577d2324e2bf6df69a", "lat": 38.91344483333334, "type": "electric_scooter", "is_disabled": 0, "fusion_lon": 0.0, "fusion_lat": 0.0, "lon": -77.00921933333333, "is_reserved": 0, "rental_uris": {"android": "https://dc.lft.to/lastmile_qr_scan", "ios": "https://dc.lft.to/lastmile_qr_scan"}, "bike_id": "fc2227ef75c621577d2324e2bf6df69a"}, {"name": "6f9fa0823752f15c6fc287b256df5730", "lat": 38.90420183333333, "type": "electric_scooter", "is_disabled": 0, "fusion_lon": 0.0, "fusion_lat": 0.0, "lon": -77.02633133333333, "is_reserved": 0, "rental_uris": {"android": "https://dc.lft.to/lastmile_qr_scan", "ios": "https://dc.lft.to/lastmile_qr_scan"}, "bike_id": "6f9fa0823752f15c6fc287b256df5730"}, {"name": "74751900311b303eb79c3baf2906b15b", "lat": 38.89545533333333, "type": "electric_scooter", "is_disabled": 0, "fusion_lon": 0.0, "fusion_lat": 0.0, "lon": -76.98331016666667, "is_reserved": 0, "rental_uris": {"android": "https://dc.lft.to/lastmile_qr_scan", "ios": "https://dc.lft.to/lastmile_qr_scan"}, "bike_id": "74751900311b303eb79c3baf2906b15b"}, {"name": "11eca1a4d678a59fa47f7fe2b244bb4c", "lat": 38.9112265, "type": "electric_scooter", "is_disabled": 0, "fusion_lon": 0.0, "fusion_lat": 0.0, "lon": -77.0373145, "is_reserved": 0, "rental_uris": {"android": "https://dc.lft.to/lastmile_qr_scan", "ios": "https://dc.lft.to/lastmile_qr_scan"}, "bike_id": "11eca1a4d678a59fa47f7fe2b244bb4c"}, {"name": "38f7601373c54c3c7a722438aa52dffe", "lat": 38.88507666666667, "type": "electric_scooter", "is_disabled": 0, "fusion_lon": 0.0, "fusion_lat": 0.0, "lon": -77.02085233333334, "is_reserved": 0, "rental_uris": {"android": "https://dc.lft.to/lastmile_qr_scan", "ios": "https://dc.lft.to/lastmile_qr_scan"}, "bike_id": "38f7601373c54c3c7a722438aa52dffe"}, {"name": "26782b4eaf8950697b7ac47918e72fe7", "lat": 38.9178775, "type": "electric_scooter", "is_disabled": 0, "fusion_lon": 0.0, "fusion_lat": 0.0, "lon": -77.02377216666666, "is_reserved": 0, "rental_uris": {"android": "https://dc.lft.to/lastmile_qr_scan", "ios": "https://dc.lft.to/lastmile_qr_scan"}, "bike_id": "26782b4eaf8950697b7ac47918e72fe7"}, {"name": "277c3e1a4250cb7f4a0a538ee439814c", "lat": 38.923654666666664, "type": "electric_scooter", "is_disabled": 0, "fusion_lon": 0.0, "fusion_lat": 0.0, "lon": -77.04130166666667, "is_reserved": 0, "rental_uris": {"android": "https://dc.lft.to/lastmile_qr_scan", "ios": "https://dc.lft.to/lastmile_qr_scan"}, "bike_id": "277c3e1a4250cb7f4a0a538ee439814c"}, {"name": "5104247fc29d9f4d105987299ad32833", "lat": 38.9243395, "type": "electric_scooter", "is_disabled": 0, "fusion_lon": 0.0, "fusion_lat": 0.0, "lon": -77.020354, "is_reserved": 0, "rental_uris": {"android": "https://dc.lft.to/lastmile_qr_scan", "ios": "https://dc.lft.to/lastmile_qr_scan"}, "bike_id": "5104247fc29d9f4d105987299ad32833"}, {"name": "7973f31fddc706070b8bc27e31bfb7cb", "lat": 38.873977833333335, "type": "electric_scooter", "is_disabled": 0, "fusion_lon": 0.0, "fusion_lat": 0.0, "lon": -77.00014916666667, "is_reserved": 0, "rental_uris": {"android": "https://dc.lft.to/lastmile_qr_scan", "ios": "https://dc.lft.to/lastmile_qr_scan"}, "bike_id": "7973f31fddc706070b8bc27e31bfb7cb"}, {"name": "e2d6c7a24ead416d9f0989aae4b53d0f", "lat": 38.892245333333335, "type": "electric_scooter", "is_disabled": 0, "fusion_lon": 0.0, "fusion_lat": 0.0, "lon": -77.04503116666666, "is_reserved": 0, "rental_uris": {"android": "https://dc.lft.to/lastmile_qr_scan", "ios": "https://dc.lft.to/lastmile_qr_scan"}, "bike_id": "e2d6c7a24ead416d9f0989aae4b53d0f"}, {"name": "aa47a13b944dd9e61483b248076a5aa9", "lat": 38.8732245, "type": "electric_bike", "is_disabled": 0, "fusion_lon": 0.0, "fusion_lat": 0.0, "lon": -77.11403266666667, "is_reserved": 0, "rental_uris": {"android": "https://dc.lft.to/lastmile_qr_scan", "ios": "https://dc.lft.to/lastmile_qr_scan"}, "bike_id": "aa47a13b944dd9e61483b248076a5aa9"}, {"name": "f7e724a0758d99b336b135d2081a7b73", "lat": 38.89925683333333, "type": "electric_scooter", "is_disabled": 0, "fusion_lon": 0.0, "fusion_lat": 0.0, "lon": -77.0043085, "is_reserved": 0, "rental_uris": {"android": "https://dc.lft.to/lastmile_qr_scan", "ios": "https://dc.lft.to/lastmile_qr_scan"}, "bike_id": "f7e724a0758d99b336b135d2081a7b73"}, {"name": "a91ae911c84aa317adaece5f130f8427", "lat": 38.894100333333334, "type": "electric_scooter", "is_disabled": 0, "fusion_lon": 0.0, "fusion_lat": 0.0, "lon": -77.0221955, "is_reserved": 0, "rental_uris": {"android": "https://dc.lft.to/lastmile_qr_scan", "ios": "https://dc.lft.to/lastmile_qr_scan"}, "bike_id": "a91ae911c84aa317adaece5f130f8427"}, {"name": "e1f74347b1d59a598e39faaf5f5ab552", "lat": 38.949515, "type": "electric_scooter", "is_disabled": 0, "fusion_lon": 0.0, "fusion_lat": 0.0, "lon": -77.0665455, "is_reserved": 0, "rental_uris": {"android": "https://dc.lft.to/lastmile_qr_scan", "ios": "https://dc.lft.to/lastmile_qr_scan"}, "bike_id": "e1f74347b1d59a598e39faaf5f5ab552"}, {"name": "9c79459c4391a57bb747e6cb843cbd87", "lat": 38.90529683333333, "type": "electric_scooter", "is_disabled": 0, "fusion_lon": 0.0, "fusion_lat": 0.0, "lon": -77.051499, "is_reserved": 0, "rental_uris": {"android": "https://dc.lft.to/lastmile_qr_scan", "ios": "https://dc.lft.to/lastmile_qr_scan"}, "bike_id": "9c79459c4391a57bb747e6cb843cbd87"}, {"name": "3b19b447cdadff433cedbe4b52aa69d2", "lat": 38.92449, "type": "electric_scooter", "is_disabled": 0, "fusion_lon": 0.0, "fusion_lat": 0.0, "lon": -77.02262133333333, "is_reserved": 0, "rental_uris": {"android": "https://dc.lft.to/lastmile_qr_scan", "ios": "https://dc.lft.to/lastmile_qr_scan"}, "bike_id": "3b19b447cdadff433cedbe4b52aa69d2"}, {"name": "cbf923cf295f5150c7bc62a3c8c764cc", "lat": 38.923216333333336, "type": "electric_scooter", "is_disabled": 0, "fusion_lon": 0.0, "fusion_lat": 0.0, "lon": -77.04326616666667, "is_reserved": 0, "rental_uris": {"android": "https://dc.lft.to/lastmile_qr_scan", "ios": "https://dc.lft.to/lastmile_qr_scan"}, "bike_id": "cbf923cf295f5150c7bc62a3c8c764cc"}, {"name": "6e88c68fea2ee4cac345d23e1edbc67f", "lat": 38.91818033333333, "type": "electric_scooter", "is_disabled": 0, "fusion_lon": 0.0, "fusion_lat": 0.0, "lon": -77.04176383333333, "is_reserved": 0, "rental_uris": {"android": "https://dc.lft.to/lastmile_qr_scan", "ios": "https://dc.lft.to/lastmile_qr_scan"}, "bike_id": "6e88c68fea2ee4cac345d23e1edbc67f"}, {"name": "585ba10c556d664358924420aa2b0cc0", "lat": 38.897468333333336, "type": "electric_scooter", "is_disabled": 0, "fusion_lon": 0.0, "fusion_lat": 0.0, "lon": -77.041586, "is_reserved": 0, "rental_uris": {"android": "https://dc.lft.to/lastmile_qr_scan", "ios": "https://dc.lft.to/lastmile_qr_scan"}, "bike_id": "585ba10c556d664358924420aa2b0cc0"}, {"name": "cd965faba8b28b98b7e8ee300e8a4408", "lat": 38.9061785, "type": "electric_scooter", "is_disabled": 0, "fusion_lon": 0.0, "fusion_lat": 0.0, "lon": -77.02405016666667, "is_reserved": 0, "rental_uris": {"android": "https://dc.lft.to/lastmile_qr_scan", "ios": "https://dc.lft.to/lastmile_qr_scan"}, "bike_id": "cd965faba8b28b98b7e8ee300e8a4408"}, {"name": "5473c1e979963914808a3d1cf7ea27ff", "lat": 38.9276065, "type": "electric_scooter", "is_disabled": 0, "fusion_lon": 0.0, "fusion_lat": 0.0, "lon": -77.0326965, "is_reserved": 0, "rental_uris": {"android": "https://dc.lft.to/lastmile_qr_scan", "ios": "https://dc.lft.to/lastmile_qr_scan"}, "bike_id": "5473c1e979963914808a3d1cf7ea27ff"}, {"name": "19b39f5045c7aab80eb2931a7299e17c", "lat": 38.9159325, "type": "electric_scooter", "is_disabled": 0, "fusion_lon": 0.0, "fusion_lat": 0.0, "lon": -77.0363445, "is_reserved": 0, "rental_uris": {"android": "https://dc.lft.to/lastmile_qr_scan", "ios": "https://dc.lft.to/lastmile_qr_scan"}, "bike_id": "19b39f5045c7aab80eb2931a7299e17c"}, {"name": "7e2f493fb71765c9501b3df7a49a8dfa", "lat": 38.923273333333334, "type": "electric_scooter", "is_disabled": 0, "fusion_lon": 0.0, "fusion_lat": 0.0, "lon": -77.01955933333333, "is_reserved": 0, "rental_uris": {"android": "https://dc.lft.to/lastmile_qr_scan", "ios": "https://dc.lft.to/lastmile_qr_scan"}, "bike_id": "7e2f493fb71765c9501b3df7a49a8dfa"}, {"name": "d60fa60b6714209ed9021b60e3fead74", "lat": 38.926516166666666, "type": "electric_scooter", "is_disabled": 0, "fusion_lon": 0.0, "fusion_lat": 0.0, "lon": -77.02298766666667, "is_reserved": 0, "rental_uris": {"android": "https://dc.lft.to/lastmile_qr_scan", "ios": "https://dc.lft.to/lastmile_qr_scan"}, "bike_id": "d60fa60b6714209ed9021b60e3fead74"}, {"name": "3495227ab6d1a3c4944f6f640b3bae04", "lat": 38.88713, "type": "electric_scooter", "is_disabled": 0, "fusion_lon": 0.0, "fusion_lat": 0.0, "lon": -77.003504, "is_reserved": 0, "rental_uris": {"android": "https://dc.lft.to/lastmile_qr_scan", "ios": "https://dc.lft.to/lastmile_qr_scan"}, "bike_id": "3495227ab6d1a3c4944f6f640b3bae04"}, {"name": "a4d9525d3ed5885a94ea2a2be22aede7", "lat": 38.89973466666667, "type": "electric_scooter", "is_disabled": 0, "fusion_lon": 0.0, "fusion_lat": 0.0, "lon": -77.01616883333334, "is_reserved": 0, "rental_uris": {"android": "https://dc.lft.to/lastmile_qr_scan", "ios": "https://dc.lft.to/lastmile_qr_scan"}, "bike_id": "a4d9525d3ed5885a94ea2a2be22aede7"}, {"name": "ac9830ce238ab16a6559a8a07311bb3e", "lat": 38.911171, "type": "electric_scooter", "is_disabled": 0, "fusion_lon": 0.0, "fusion_lat": 0.0, "lon": -77.0373775, "is_reserved": 0, "rental_uris": {"android": "https://dc.lft.to/lastmile_qr_scan", "ios": "https://dc.lft.to/lastmile_qr_scan"}, "bike_id": "ac9830ce238ab16a6559a8a07311bb3e"}, {"name": "11bc11684c6dc87d4f9a0195ee5362aa", "lat": 38.929211333333335, "type": "electric_scooter", "is_disabled": 0, "fusion_lon": 0.0, "fusion_lat": 0.0, "lon": -77.0186415, "is_reserved": 0, "rental_uris": {"android": "https://dc.lft.to/lastmile_qr_scan", "ios": "https://dc.lft.to/lastmile_qr_scan"}, "bike_id": "11bc11684c6dc87d4f9a0195ee5362aa"}, {"name": "d1118b86b76960dea372d51dfdb4886f", "lat": 38.9072915, "type": "electric_scooter", "is_disabled": 0, "fusion_lon": 0.0, "fusion_lat": 0.0, "lon": -77.04006166666667, "is_reserved": 0, "rental_uris": {"android": "https://dc.lft.to/lastmile_qr_scan", "ios": "https://dc.lft.to/lastmile_qr_scan"}, "bike_id": "d1118b86b76960dea372d51dfdb4886f"}, {"name": "6fd26bfda7faf7182603c3d9ae54c3aa", "lat": 38.89474333333333, "type": "electric_scooter", "is_disabled": 0, "fusion_lon": 0.0, "fusion_lat": 0.0, "lon": -76.95836533333333, "is_reserved": 0, "rental_uris": {"android": "https://dc.lft.to/lastmile_qr_scan", "ios": "https://dc.lft.to/lastmile_qr_scan"}, "bike_id": "6fd26bfda7faf7182603c3d9ae54c3aa"}, {"name": "9060624f4430b2bfea9f3566a6d66dad", "lat": 38.90581433333333, "type": "electric_scooter", "is_disabled": 0, "fusion_lon": 0.0, "fusion_lat": 0.0, "lon": -77.0443675, "is_reserved": 0, "rental_uris": {"android": "https://dc.lft.to/lastmile_qr_scan", "ios": "https://dc.lft.to/lastmile_qr_scan"}, "bike_id": "9060624f4430b2bfea9f3566a6d66dad"}, {"name": "9a1faa437b8e6093e621aaf8cda1acd5", "lat": 38.922411833333335, "type": "electric_scooter", "is_disabled": 0, "fusion_lon": 0.0, "fusion_lat": 0.0, "lon": -77.0195265, "is_reserved": 0, "rental_uris": {"android": "https://dc.lft.to/lastmile_qr_scan", "ios": "https://dc.lft.to/lastmile_qr_scan"}, "bike_id": "9a1faa437b8e6093e621aaf8cda1acd5"}, {"name": "7838ca82e28f5cc3cdab91d133f35b6f", "lat": 38.904907333333334, "type": "electric_scooter", "is_disabled": 0, "fusion_lon": 0.0, "fusion_lat": 0.0, "lon": -77.05152666666666, "is_reserved": 0, "rental_uris": {"android": "https://dc.lft.to/lastmile_qr_scan", "ios": "https://dc.lft.to/lastmile_qr_scan"}, "bike_id": "7838ca82e28f5cc3cdab91d133f35b6f"}, {"name": "b9179fcfa5e7c6debb0a748c1c3c2dc8", "lat": 38.903842166666664, "type": "electric_scooter", "is_disabled": 0, "fusion_lon": 0.0, "fusion_lat": 0.0, "lon": -77.04276283333333, "is_reserved": 0, "rental_uris": {"android": "https://dc.lft.to/lastmile_qr_scan", "ios": "https://dc.lft.to/lastmile_qr_scan"}, "bike_id": "b9179fcfa5e7c6debb0a748c1c3c2dc8"}, {"name": "8439cb26c0d5f6d54a61b89df053d908", "lat": 38.905522833333336, "type": "electric_scooter", "is_disabled": 0, "fusion_lon": 0.0, "fusion_lat": 0.0, "lon": -77.00585833333334, "is_reserved": 0, "rental_uris": {"android": "https://dc.lft.to/lastmile_qr_scan", "ios": "https://dc.lft.to/lastmile_qr_scan"}, "bike_id": "8439cb26c0d5f6d54a61b89df053d908"}, {"name": "71a22034e661fbf218ae39bebe3baca2", "lat": 38.914754333333335, "type": "electric_scooter", "is_disabled": 0, "fusion_lon": 0.0, "fusion_lat": 0.0, "lon": -77.0219015, "is_reserved": 0, "rental_uris": {"android": "https://dc.lft.to/lastmile_qr_scan", "ios": "https://dc.lft.to/lastmile_qr_scan"}, "bike_id": "71a22034e661fbf218ae39bebe3baca2"}, {"name": "49265a55dd6b3125d2bff2c98583532f", "lat": 38.922624166666665, "type": "electric_scooter", "is_disabled": 0, "fusion_lon": 0.0, "fusion_lat": 0.0, "lon": -77.036719, "is_reserved": 0, "rental_uris": {"android": "https://dc.lft.to/lastmile_qr_scan", "ios": "https://dc.lft.to/lastmile_qr_scan"}, "bike_id": "49265a55dd6b3125d2bff2c98583532f"}, {"name": "7bb3499de20631684e0ab7561e9b3ee4", "lat": 38.89278083333333, "type": "electric_scooter", "is_disabled": 0, "fusion_lon": 0.0, "fusion_lat": 0.0, "lon": -77.05037783333333, "is_reserved": 0, "rental_uris": {"android": "https://dc.lft.to/lastmile_qr_scan", "ios": "https://dc.lft.to/lastmile_qr_scan"}, "bike_id": "7bb3499de20631684e0ab7561e9b3ee4"}, {"name": "38d492104e54f73302623345652566af", "lat": 38.899799, "type": "electric_scooter", "is_disabled": 0, "fusion_lon": 0.0, "fusion_lat": 0.0, "lon": -77.00919166666667, "is_reserved": 0, "rental_uris": {"android": "https://dc.lft.to/lastmile_qr_scan", "ios": "https://dc.lft.to/lastmile_qr_scan"}, "bike_id": "38d492104e54f73302623345652566af"}, {"name": "6dde1e957fad4a557f9a51aa5c98ad27", "lat": 38.874607166666664, "type": "electric_scooter", "is_disabled": 0, "fusion_lon": 0.0, "fusion_lat": 0.0, "lon": -77.00921383333333, "is_reserved": 0, "rental_uris": {"android": "https://dc.lft.to/lastmile_qr_scan", "ios": "https://dc.lft.to/lastmile_qr_scan"}, "bike_id": "6dde1e957fad4a557f9a51aa5c98ad27"}, {"name": "09a236541ce652e1140e9b1711a64042", "lat": 39.034180166666665, "type": "electric_bike", "is_disabled": 0, "fusion_lon": 0.0, "fusion_lat": 0.0, "lon": -77.04329383333334, "is_reserved": 0, "rental_uris": {"android": "https://dc.lft.to/lastmile_qr_scan", "ios": "https://dc.lft.to/lastmile_qr_scan"}, "bike_id": "09a236541ce652e1140e9b1711a64042"}, {"name": "c88b1286be6b1d5187c5e9b0a06dba12", "lat": 38.937803, "type": "electric_scooter", "is_disabled": 0, "fusion_lon": 0.0, "fusion_lat": 0.0, "lon": -77.07458883333334, "is_reserved": 0, "rental_uris": {"android": "https://dc.lft.to/lastmile_qr_scan", "ios": "https://dc.lft.to/lastmile_qr_scan"}, "bike_id": "c88b1286be6b1d5187c5e9b0a06dba12"}, {"name": "4604de65d68291d17b5db65ea3244e12", "lat": 38.87382816666667, "type": "electric_scooter", "is_disabled": 0, "fusion_lon": 0.0, "fusion_lat": 0.0, "lon": -77.00123833333333, "is_reserved": 0, "rental_uris": {"android": "https://dc.lft.to/lastmile_qr_scan", "ios": "https://dc.lft.to/lastmile_qr_scan"}, "bike_id": "4604de65d68291d17b5db65ea3244e12"}, {"name": "07fc24f35f253614d797412facedea0b", "lat": 38.920043666666665, "type": "electric_scooter", "is_disabled": 0, "fusion_lon": 0.0, "fusion_lat": 0.0, "lon": -76.985026, "is_reserved": 0, "rental_uris": {"android": "https://dc.lft.to/lastmile_qr_scan", "ios": "https://dc.lft.to/lastmile_qr_scan"}, "bike_id": "07fc24f35f253614d797412facedea0b"}, {"name": "9d10effaaceef607d787cb5ec303097d", "lat": 38.88360466666666, "type": "electric_scooter", "is_disabled": 0, "fusion_lon": 0.0, "fusion_lat": 0.0, "lon": -77.03101283333334, "is_reserved": 0, "rental_uris": {"android": "https://dc.lft.to/lastmile_qr_scan", "ios": "https://dc.lft.to/lastmile_qr_scan"}, "bike_id": "9d10effaaceef607d787cb5ec303097d"}, {"name": "8229b0b66e174faaade84f32e325af36", "lat": 38.919816833333336, "type": "electric_scooter", "is_disabled": 0, "fusion_lon": 0.0, "fusion_lat": 0.0, "lon": -77.03269733333333, "is_reserved": 0, "rental_uris": {"android": "https://dc.lft.to/lastmile_qr_scan", "ios": "https://dc.lft.to/lastmile_qr_scan"}, "bike_id": "8229b0b66e174faaade84f32e325af36"}, {"name": "449371102c2c0580170b938d29bef2ef", "lat": 38.919095166666665, "type": "electric_scooter", "is_disabled": 0, "fusion_lon": 0.0, "fusion_lat": 0.0, "lon": -77.0217265, "is_reserved": 0, "rental_uris": {"android": "https://dc.lft.to/lastmile_qr_scan", "ios": "https://dc.lft.to/lastmile_qr_scan"}, "bike_id": "449371102c2c0580170b938d29bef2ef"}, {"name": "a17ad13954e5147a93ce8792762d0d79", "lat": 38.90034466666667, "type": "electric_scooter", "is_disabled": 0, "fusion_lon": 0.0, "fusion_lat": 0.0, "lon": -77.01201533333334, "is_reserved": 0, "rental_uris": {"android": "https://dc.lft.to/lastmile_qr_scan", "ios": "https://dc.lft.to/lastmile_qr_scan"}, "bike_id": "a17ad13954e5147a93ce8792762d0d79"}, {"name": "00e65c396dbdcfb68a957976361c3148", "lat": 38.8978745, "type": "electric_scooter", "is_disabled": 0, "fusion_lon": 0.0, "fusion_lat": 0.0, "lon": -77.00759433333333, "is_reserved": 0, "rental_uris": {"android": "https://dc.lft.to/lastmile_qr_scan", "ios": "https://dc.lft.to/lastmile_qr_scan"}, "bike_id": "00e65c396dbdcfb68a957976361c3148"}, {"name": "d310e4f78d8ed603ce5ec163757c6198", "lat": 38.8821605, "type": "electric_bike", "is_disabled": 0, "fusion_lon": 0.0, "fusion_lat": 0.0, "lon": -77.023836, "is_reserved": 0, "rental_uris": {"android": "https://dc.lft.to/lastmile_qr_scan", "ios": "https://dc.lft.to/lastmile_qr_scan"}, "bike_id": "d310e4f78d8ed603ce5ec163757c6198"}, {"name": "f745d70b439f9b07471b0e09845a2167", "lat": 38.9192665, "type": "electric_scooter", "is_disabled": 0, "fusion_lon": 0.0, "fusion_lat": 0.0, "lon": -77.03419316666667, "is_reserved": 0, "rental_uris": {"android": "https://dc.lft.to/lastmile_qr_scan", "ios": "https://dc.lft.to/lastmile_qr_scan"}, "bike_id": "f745d70b439f9b07471b0e09845a2167"}, {"name": "81c98174d973805bfcb2a82c65ff8747", "lat": 38.924781, "type": "electric_scooter", "is_disabled": 0, "fusion_lon": 0.0, "fusion_lat": 0.0, "lon": -77.02224316666667, "is_reserved": 0, "rental_uris": {"android": "https://dc.lft.to/lastmile_qr_scan", "ios": "https://dc.lft.to/lastmile_qr_scan"}, "bike_id": "81c98174d973805bfcb2a82c65ff8747"}, {"name": "cf11463397476b85d5093e8e6d76ba7f", "lat": 38.916993166666664, "type": "electric_scooter", "is_disabled": 0, "fusion_lon": 0.0, "fusion_lat": 0.0, "lon": -77.02838766666666, "is_reserved": 0, "rental_uris": {"android": "https://dc.lft.to/lastmile_qr_scan", "ios": "https://dc.lft.to/lastmile_qr_scan"}, "bike_id": "cf11463397476b85d5093e8e6d76ba7f"}, {"name": "c6b8f446d15d3eb0c62c69cd82a00eef", "lat": 38.90088033333333, "type": "electric_scooter", "is_disabled": 0, "fusion_lon": 0.0, "fusion_lat": 0.0, "lon": -77.04891233333333, "is_reserved": 0, "rental_uris": {"android": "https://dc.lft.to/lastmile_qr_scan", "ios": "https://dc.lft.to/lastmile_qr_scan"}, "bike_id": "c6b8f446d15d3eb0c62c69cd82a00eef"}, {"name": "b8f7afb8144d5f52daef840cf55aa913", "lat": 38.9025645, "type": "electric_scooter", "is_disabled": 0, "fusion_lon": 0.0, "fusion_lat": 0.0, "lon": -77.02792916666667, "is_reserved": 0, "rental_uris": {"android": "https://dc.lft.to/lastmile_qr_scan", "ios": "https://dc.lft.to/lastmile_qr_scan"}, "bike_id": "b8f7afb8144d5f52daef840cf55aa913"}, {"name": "d2b983d03b25c0bd370885edb2acee32", "lat": 38.876811000000004, "type": "electric_scooter", "is_disabled": 0, "fusion_lon": 0.0, "fusion_lat": 0.0, "lon": -77.00346783333333, "is_reserved": 0, "rental_uris": {"android": "https://dc.lft.to/lastmile_qr_scan", "ios": "https://dc.lft.to/lastmile_qr_scan"}, "bike_id": "d2b983d03b25c0bd370885edb2acee32"}, {"name": "6d2695ae82e9a3bec3fcbebd936616e5", "lat": 38.949795, "type": "electric_scooter", "is_disabled": 0, "fusion_lon": 0.0, "fusion_lat": 0.0, "lon": -77.02445133333333, "is_reserved": 0, "rental_uris": {"android": "https://dc.lft.to/lastmile_qr_scan", "ios": "https://dc.lft.to/lastmile_qr_scan"}, "bike_id": "6d2695ae82e9a3bec3fcbebd936616e5"}, {"name": "0b34c593232ee261d614bac5c309f2ef", "lat": 38.9206465, "type": "electric_scooter", "is_disabled": 0, "fusion_lon": 0.0, "fusion_lat": 0.0, "lon": -77.03249466666666, "is_reserved": 0, "rental_uris": {"android": "https://dc.lft.to/lastmile_qr_scan", "ios": "https://dc.lft.to/lastmile_qr_scan"}, "bike_id": "0b34c593232ee261d614bac5c309f2ef"}, {"name": "03e1961e42e7801c25237ec1480d7416", "lat": 38.916580833333335, "type": "electric_scooter", "is_disabled": 0, "fusion_lon": 0.0, "fusion_lat": 0.0, "lon": -77.0257295, "is_reserved": 0, "rental_uris": {"android": "https://dc.lft.to/lastmile_qr_scan", "ios": "https://dc.lft.to/lastmile_qr_scan"}, "bike_id": "03e1961e42e7801c25237ec1480d7416"}, {"name": "b22b3d9e59f40abc6d1797c7596794a1", "lat": 38.935460666666664, "type": "electric_scooter", "is_disabled": 0, "fusion_lon": 0.0, "fusion_lat": 0.0, "lon": -77.03092883333333, "is_reserved": 0, "rental_uris": {"android": "https://dc.lft.to/lastmile_qr_scan", "ios": "https://dc.lft.to/lastmile_qr_scan"}, "bike_id": "b22b3d9e59f40abc6d1797c7596794a1"}, {"name": "e54557375ad50bb4dde827d9e1a70a3d", "lat": 38.942793333333334, "type": "electric_scooter", "is_disabled": 0, "fusion_lon": 0.0, "fusion_lat": 0.0, "lon": -77.02933333333333, "is_reserved": 0, "rental_uris": {"android": "https://dc.lft.to/lastmile_qr_scan", "ios": "https://dc.lft.to/lastmile_qr_scan"}, "bike_id": "e54557375ad50bb4dde827d9e1a70a3d"}, {"name": "a2d20c2ef71b190407c584884bf62f41", "lat": 38.92656566666667, "type": "electric_scooter", "is_disabled": 0, "fusion_lon": 0.0, "fusion_lat": 0.0, "lon": -77.0259905, "is_reserved": 0, "rental_uris": {"android": "https://dc.lft.to/lastmile_qr_scan", "ios": "https://dc.lft.to/lastmile_qr_scan"}, "bike_id": "a2d20c2ef71b190407c584884bf62f41"}, {"name": "9d7458c28b314f723f4bc8db95220bbc", "lat": 38.92713916666666, "type": "electric_scooter", "is_disabled": 0, "fusion_lon": 0.0, "fusion_lat": 0.0, "lon": -77.05981066666666, "is_reserved": 0, "rental_uris": {"android": "https://dc.lft.to/lastmile_qr_scan", "ios": "https://dc.lft.to/lastmile_qr_scan"}, "bike_id": "9d7458c28b314f723f4bc8db95220bbc"}, {"name": "7e025986aca39714960b3a00ceaf4763", "lat": 38.90134166666667, "type": "electric_scooter", "is_disabled": 0, "fusion_lon": 0.0, "fusion_lat": 0.0, "lon": -77.01775566666667, "is_reserved": 0, "rental_uris": {"android": "https://dc.lft.to/lastmile_qr_scan", "ios": "https://dc.lft.to/lastmile_qr_scan"}, "bike_id": "7e025986aca39714960b3a00ceaf4763"}, {"name": "3c461802246199fb51d7e85130908415", "lat": 38.9967325, "type": "electric_bike", "is_disabled": 0, "fusion_lon": 0.0, "fusion_lat": 0.0, "lon": -77.03786716666667, "is_reserved": 0, "rental_uris": {"android": "https://dc.lft.to/lastmile_qr_scan", "ios": "https://dc.lft.to/lastmile_qr_scan"}, "bike_id": "3c461802246199fb51d7e85130908415"}, {"name": "9f3532e7c497f15da8d779a42d0df17c", "lat": 38.916550666666666, "type": "electric_scooter", "is_disabled": 0, "fusion_lon": 0.0, "fusion_lat": 0.0, "lon": -77.02280816666666, "is_reserved": 0, "rental_uris": {"android": "https://dc.lft.to/lastmile_qr_scan", "ios": "https://dc.lft.to/lastmile_qr_scan"}, "bike_id": "9f3532e7c497f15da8d779a42d0df17c"}, {"name": "ae725537479c3fb1ff772f9cce79631a", "lat": 38.93517683333334, "type": "electric_bike", "is_disabled": 0, "fusion_lon": 0.0, "fusion_lat": 0.0, "lon": -77.05416783333334, "is_reserved": 0, "rental_uris": {"android": "https://dc.lft.to/lastmile_qr_scan", "ios": "https://dc.lft.to/lastmile_qr_scan"}, "bike_id": "ae725537479c3fb1ff772f9cce79631a"}, {"name": "84beb420890a2e34440faac30abc2fcd", "lat": 38.944519166666666, "type": "electric_scooter", "is_disabled": 0, "fusion_lon": 0.0, "fusion_lat": 0.0, "lon": -77.02334983333333, "is_reserved": 0, "rental_uris": {"android": "https://dc.lft.to/lastmile_qr_scan", "ios": "https://dc.lft.to/lastmile_qr_scan"}, "bike_id": "84beb420890a2e34440faac30abc2fcd"}, {"name": "719830fd3041878ac82fddc82a1d2059", "lat": 38.893544, "type": "electric_scooter", "is_disabled": 0, "fusion_lon": 0.0, "fusion_lat": 0.0, "lon": -77.00342183333333, "is_reserved": 0, "rental_uris": {"android": "https://dc.lft.to/lastmile_qr_scan", "ios": "https://dc.lft.to/lastmile_qr_scan"}, "bike_id": "719830fd3041878ac82fddc82a1d2059"}, {"name": "ff7eca9bc0dbef6778c4b5edbce6beda", "lat": 38.91864483333333, "type": "electric_scooter", "is_disabled": 0, "fusion_lon": 0.0, "fusion_lat": 0.0, "lon": -77.0420155, "is_reserved": 0, "rental_uris": {"android": "https://dc.lft.to/lastmile_qr_scan", "ios": "https://dc.lft.to/lastmile_qr_scan"}, "bike_id": "ff7eca9bc0dbef6778c4b5edbce6beda"}, {"name": "ead0b61b332b2ef92a460d1f8ffda545", "lat": 38.88122116666667, "type": "electric_scooter", "is_disabled": 0, "fusion_lon": 0.0, "fusion_lat": 0.0, "lon": -76.99348816666667, "is_reserved": 0, "rental_uris": {"android": "https://dc.lft.to/lastmile_qr_scan", "ios": "https://dc.lft.to/lastmile_qr_scan"}, "bike_id": "ead0b61b332b2ef92a460d1f8ffda545"}, {"name": "fa905886db15cd070972f91fff59349e", "lat": 38.936189666666664, "type": "electric_scooter", "is_disabled": 0, "fusion_lon": 0.0, "fusion_lat": 0.0, "lon": -77.03279833333333, "is_reserved": 0, "rental_uris": {"android": "https://dc.lft.to/lastmile_qr_scan", "ios": "https://dc.lft.to/lastmile_qr_scan"}, "bike_id": "fa905886db15cd070972f91fff59349e"}, {"name": "2e01e4299396e3a415ea4b5bad102010", "lat": 38.8972155, "type": "electric_scooter", "is_disabled": 0, "fusion_lon": 0.0, "fusion_lat": 0.0, "lon": -76.983572, "is_reserved": 0, "rental_uris": {"android": "https://dc.lft.to/lastmile_qr_scan", "ios": "https://dc.lft.to/lastmile_qr_scan"}, "bike_id": "2e01e4299396e3a415ea4b5bad102010"}, {"name": "9976e03747d0e74c947d78e60f4616b8", "lat": 38.88734616666667, "type": "electric_scooter", "is_disabled": 0, "fusion_lon": 0.0, "fusion_lat": 0.0, "lon": -77.016283, "is_reserved": 0, "rental_uris": {"android": "https://dc.lft.to/lastmile_qr_scan", "ios": "https://dc.lft.to/lastmile_qr_scan"}, "bike_id": "9976e03747d0e74c947d78e60f4616b8"}, {"name": "95f44e5e23e91247093496c17d193955", "lat": 38.922289166666665, "type": "electric_scooter", "is_disabled": 0, "fusion_lon": 0.0, "fusion_lat": 0.0, "lon": -77.03368933333333, "is_reserved": 0, "rental_uris": {"android": "https://dc.lft.to/lastmile_qr_scan", "ios": "https://dc.lft.to/lastmile_qr_scan"}, "bike_id": "95f44e5e23e91247093496c17d193955"}, {"name": "e63c6126bd6bceb79a3e1558c051d239", "lat": 38.876302, "type": "electric_scooter", "is_disabled": 0, "fusion_lon": 0.0, "fusion_lat": 0.0, "lon": -77.00954783333333, "is_reserved": 0, "rental_uris": {"android": "https://dc.lft.to/lastmile_qr_scan", "ios": "https://dc.lft.to/lastmile_qr_scan"}, "bike_id": "e63c6126bd6bceb79a3e1558c051d239"}, {"name": "725e4c7731155d694c811d91d3b92c3a", "lat": 38.9235685, "type": "electric_scooter", "is_disabled": 0, "fusion_lon": 0.0, "fusion_lat": 0.0, "lon": -77.0340585, "is_reserved": 0, "rental_uris": {"android": "https://dc.lft.to/lastmile_qr_scan", "ios": "https://dc.lft.to/lastmile_qr_scan"}, "bike_id": "725e4c7731155d694c811d91d3b92c3a"}, {"name": "58fba3d4790c038556db80c89e8fb787", "lat": 38.90146983333333, "type": "electric_scooter", "is_disabled": 0, "fusion_lon": 0.0, "fusion_lat": 0.0, "lon": -77.05916733333333, "is_reserved": 0, "rental_uris": {"android": "https://dc.lft.to/lastmile_qr_scan", "ios": "https://dc.lft.to/lastmile_qr_scan"}, "bike_id": "58fba3d4790c038556db80c89e8fb787"}, {"name": "2e8c8e311542e18da288b9da9c2bc093", "lat": 38.9099335, "type": "electric_scooter", "is_disabled": 0, "fusion_lon": 0.0, "fusion_lat": 0.0, "lon": -77.04008783333333, "is_reserved": 0, "rental_uris": {"android": "https://dc.lft.to/lastmile_qr_scan", "ios": "https://dc.lft.to/lastmile_qr_scan"}, "bike_id": "2e8c8e311542e18da288b9da9c2bc093"}, {"name": "cac6d62592cc913e74dff18890ec95fb", "lat": 38.91479966666667, "type": "electric_scooter", "is_disabled": 0, "fusion_lon": 0.0, "fusion_lat": 0.0, "lon": -77.04571483333334, "is_reserved": 0, "rental_uris": {"android": "https://dc.lft.to/lastmile_qr_scan", "ios": "https://dc.lft.to/lastmile_qr_scan"}, "bike_id": "cac6d62592cc913e74dff18890ec95fb"}, {"name": "aa186cabee53d3e63dbcdc5bcac7470c", "lat": 38.895494666666664, "type": "electric_scooter", "is_disabled": 0, "fusion_lon": 0.0, "fusion_lat": 0.0, "lon": -77.009136, "is_reserved": 0, "rental_uris": {"android": "https://dc.lft.to/lastmile_qr_scan", "ios": "https://dc.lft.to/lastmile_qr_scan"}, "bike_id": "aa186cabee53d3e63dbcdc5bcac7470c"}, {"name": "7267dafbaf3713ca48d59858c7cceb26", "lat": 38.900577166666665, "type": "electric_scooter", "is_disabled": 0, "fusion_lon": 0.0, "fusion_lat": 0.0, "lon": -77.02984783333333, "is_reserved": 0, "rental_uris": {"android": "https://dc.lft.to/lastmile_qr_scan", "ios": "https://dc.lft.to/lastmile_qr_scan"}, "bike_id": "7267dafbaf3713ca48d59858c7cceb26"}, {"name": "82939d5c5ce077d6dded1919ee71f77d", "lat": 38.92658983333333, "type": "electric_scooter", "is_disabled": 0, "fusion_lon": 0.0, "fusion_lat": 0.0, "lon": -76.99554266666667, "is_reserved": 0, "rental_uris": {"android": "https://dc.lft.to/lastmile_qr_scan", "ios": "https://dc.lft.to/lastmile_qr_scan"}, "bike_id": "82939d5c5ce077d6dded1919ee71f77d"}, {"name": "623518d73357ea86214a4cf530e34a72", "lat": 38.90692766666667, "type": "electric_bike", "is_disabled": 0, "fusion_lon": 0.0, "fusion_lat": 0.0, "lon": -76.952529, "is_reserved": 0, "rental_uris": {"android": "https://dc.lft.to/lastmile_qr_scan", "ios": "https://dc.lft.to/lastmile_qr_scan"}, "bike_id": "623518d73357ea86214a4cf530e34a72"}, {"name": "27b43d6b72f0dd2960ad53939f4d4a0f", "lat": 38.91191283333333, "type": "electric_scooter", "is_disabled": 0, "fusion_lon": 0.0, "fusion_lat": 0.0, "lon": -77.00730433333334, "is_reserved": 0, "rental_uris": {"android": "https://dc.lft.to/lastmile_qr_scan", "ios": "https://dc.lft.to/lastmile_qr_scan"}, "bike_id": "27b43d6b72f0dd2960ad53939f4d4a0f"}, {"name": "e6bd1ef284827232fe6e6cf2c1c3bbb4", "lat": 38.92657366666667, "type": "electric_scooter", "is_disabled": 0, "fusion_lon": 0.0, "fusion_lat": 0.0, "lon": -77.024162, "is_reserved": 0, "rental_uris": {"android": "https://dc.lft.to/lastmile_qr_scan", "ios": "https://dc.lft.to/lastmile_qr_scan"}, "bike_id": "e6bd1ef284827232fe6e6cf2c1c3bbb4"}, {"name": "96a790e3f8d4ddadd78f7236881be0d2", "lat": 38.95612666666667, "type": "electric_scooter", "is_disabled": 0, "fusion_lon": 0.0, "fusion_lat": 0.0, "lon": -77.02758983333334, "is_reserved": 0, "rental_uris": {"android": "https://dc.lft.to/lastmile_qr_scan", "ios": "https://dc.lft.to/lastmile_qr_scan"}, "bike_id": "96a790e3f8d4ddadd78f7236881be0d2"}, {"name": "2e61401000ef6003a914fe0900346787", "lat": 38.924222666666665, "type": "electric_scooter", "is_disabled": 0, "fusion_lon": 0.0, "fusion_lat": 0.0, "lon": -77.03539383333333, "is_reserved": 0, "rental_uris": {"android": "https://dc.lft.to/lastmile_qr_scan", "ios": "https://dc.lft.to/lastmile_qr_scan"}, "bike_id": "2e61401000ef6003a914fe0900346787"}, {"name": "bc01a3abd1d6950ec3eae2c994619509", "lat": 38.88492866666667, "type": "electric_scooter", "is_disabled": 0, "fusion_lon": 0.0, "fusion_lat": 0.0, "lon": -76.99597516666667, "is_reserved": 0, "rental_uris": {"android": "https://dc.lft.to/lastmile_qr_scan", "ios": "https://dc.lft.to/lastmile_qr_scan"}, "bike_id": "bc01a3abd1d6950ec3eae2c994619509"}, {"name": "0eb6ef7363f6a0fcac13dac96e763c9e", "lat": 38.916114, "type": "electric_scooter", "is_disabled": 0, "fusion_lon": 0.0, "fusion_lat": 0.0, "lon": -77.0416655, "is_reserved": 0, "rental_uris": {"android": "https://dc.lft.to/lastmile_qr_scan", "ios": "https://dc.lft.to/lastmile_qr_scan"}, "bike_id": "0eb6ef7363f6a0fcac13dac96e763c9e"}, {"name": "f933bc7db4f88b7de8134f0047b7b16f", "lat": 38.925984166666666, "type": "electric_scooter", "is_disabled": 0, "fusion_lon": 0.0, "fusion_lat": 0.0, "lon": -77.0353575, "is_reserved": 0, "rental_uris": {"android": "https://dc.lft.to/lastmile_qr_scan", "ios": "https://dc.lft.to/lastmile_qr_scan"}, "bike_id": "f933bc7db4f88b7de8134f0047b7b16f"}, {"name": "78bf6adef31adbd8487ce3079a2a04a9", "lat": 38.910989, "type": "electric_scooter", "is_disabled": 0, "fusion_lon": 0.0, "fusion_lat": 0.0, "lon": -77.02972983333333, "is_reserved": 0, "rental_uris": {"android": "https://dc.lft.to/lastmile_qr_scan", "ios": "https://dc.lft.to/lastmile_qr_scan"}, "bike_id": "78bf6adef31adbd8487ce3079a2a04a9"}, {"name": "433a6dc6e762db25a840fa39d9314ab7", "lat": 38.8860145, "type": "electric_scooter", "is_disabled": 0, "fusion_lon": 0.0, "fusion_lat": 0.0, "lon": -76.92502633333334, "is_reserved": 0, "rental_uris": {"android": "https://dc.lft.to/lastmile_qr_scan", "ios": "https://dc.lft.to/lastmile_qr_scan"}, "bike_id": "433a6dc6e762db25a840fa39d9314ab7"}, {"name": "59cbba00fa455cf28d610fab512f2cf5", "lat": 38.87678916666667, "type": "electric_scooter", "is_disabled": 0, "fusion_lon": 0.0, "fusion_lat": 0.0, "lon": -77.00059766666666, "is_reserved": 0, "rental_uris": {"android": "https://dc.lft.to/lastmile_qr_scan", "ios": "https://dc.lft.to/lastmile_qr_scan"}, "bike_id": "59cbba00fa455cf28d610fab512f2cf5"}, {"name": "cde2d4014051045fc40a48f39b2e52c8", "lat": 38.872880333333335, "type": "electric_scooter", "is_disabled": 0, "fusion_lon": 0.0, "fusion_lat": 0.0, "lon": -77.0170385, "is_reserved": 0, "rental_uris": {"android": "https://dc.lft.to/lastmile_qr_scan", "ios": "https://dc.lft.to/lastmile_qr_scan"}, "bike_id": "cde2d4014051045fc40a48f39b2e52c8"}, {"name": "6fb7c64d598f658c99b884bef01aaac3", "lat": 38.900074000000004, "type": "electric_scooter", "is_disabled": 0, "fusion_lon": 0.0, "fusion_lat": 0.0, "lon": -77.04361283333333, "is_reserved": 0, "rental_uris": {"android": "https://dc.lft.to/lastmile_qr_scan", "ios": "https://dc.lft.to/lastmile_qr_scan"}, "bike_id": "6fb7c64d598f658c99b884bef01aaac3"}, {"name": "cc8d3b4caa1d40fae6a3ebd10c61bb55", "lat": 38.9322325, "type": "electric_scooter", "is_disabled": 0, "fusion_lon": 0.0, "fusion_lat": 0.0, "lon": -77.04118233333334, "is_reserved": 0, "rental_uris": {"android": "https://dc.lft.to/lastmile_qr_scan", "ios": "https://dc.lft.to/lastmile_qr_scan"}, "bike_id": "cc8d3b4caa1d40fae6a3ebd10c61bb55"}, {"name": "239aa85155fc85fd3d24368f61450626", "lat": 38.94297433333333, "type": "electric_scooter", "is_disabled": 0, "fusion_lon": 0.0, "fusion_lat": 0.0, "lon": -77.05930466666666, "is_reserved": 0, "rental_uris": {"android": "https://dc.lft.to/lastmile_qr_scan", "ios": "https://dc.lft.to/lastmile_qr_scan"}, "bike_id": "239aa85155fc85fd3d24368f61450626"}, {"name": "6a8f09dfbbdc4d4f542f0395eef97fa9", "lat": 38.8985555, "type": "electric_scooter", "is_disabled": 0, "fusion_lon": 0.0, "fusion_lat": 0.0, "lon": -76.93183583333334, "is_reserved": 0, "rental_uris": {"android": "https://dc.lft.to/lastmile_qr_scan", "ios": "https://dc.lft.to/lastmile_qr_scan"}, "bike_id": "6a8f09dfbbdc4d4f542f0395eef97fa9"}, {"name": "be85fa839e5a9ba1211fd5f8f06e5a80", "lat": 38.964976166666666, "type": "electric_scooter", "is_disabled": 0, "fusion_lon": 0.0, "fusion_lat": 0.0, "lon": -77.06278816666666, "is_reserved": 0, "rental_uris": {"android": "https://dc.lft.to/lastmile_qr_scan", "ios": "https://dc.lft.to/lastmile_qr_scan"}, "bike_id": "be85fa839e5a9ba1211fd5f8f06e5a80"}, {"name": "a17bf4b91e2d78669763e27a5e89e043", "lat": 38.919778666666666, "type": "electric_scooter", "is_disabled": 0, "fusion_lon": 0.0, "fusion_lat": 0.0, "lon": -77.0710875, "is_reserved": 0, "rental_uris": {"android": "https://dc.lft.to/lastmile_qr_scan", "ios": "https://dc.lft.to/lastmile_qr_scan"}, "bike_id": "a17bf4b91e2d78669763e27a5e89e043"}, {"name": "4d1a3f8774717315d0b9110a95eeaea0", "lat": 38.903621333333334, "type": "electric_scooter", "is_disabled": 0, "fusion_lon": 0.0, "fusion_lat": 0.0, "lon": -77.02204416666666, "is_reserved": 0, "rental_uris": {"android": "https://dc.lft.to/lastmile_qr_scan", "ios": "https://dc.lft.to/lastmile_qr_scan"}, "bike_id": "4d1a3f8774717315d0b9110a95eeaea0"}, {"name": "8aa1be96df33ef85d88a45040ed63f0e", "lat": 38.9180615, "type": "electric_scooter", "is_disabled": 0, "fusion_lon": 0.0, "fusion_lat": 0.0, "lon": -77.06818516666667, "is_reserved": 0, "rental_uris": {"android": "https://dc.lft.to/lastmile_qr_scan", "ios": "https://dc.lft.to/lastmile_qr_scan"}, "bike_id": "8aa1be96df33ef85d88a45040ed63f0e"}, {"name": "88a673361bdf92fb666e52d25bc0cae0", "lat": 38.91784283333333, "type": "electric_scooter", "is_disabled": 0, "fusion_lon": 0.0, "fusion_lat": 0.0, "lon": -77.03455833333334, "is_reserved": 0, "rental_uris": {"android": "https://dc.lft.to/lastmile_qr_scan", "ios": "https://dc.lft.to/lastmile_qr_scan"}, "bike_id": "88a673361bdf92fb666e52d25bc0cae0"}, {"name": "3ee68dc222960e3e3bdd15136c2fa633", "lat": 38.905864666666666, "type": "electric_scooter", "is_disabled": 0, "fusion_lon": 0.0, "fusion_lat": 0.0, "lon": -76.9862115, "is_reserved": 0, "rental_uris": {"android": "https://dc.lft.to/lastmile_qr_scan", "ios": "https://dc.lft.to/lastmile_qr_scan"}, "bike_id": "3ee68dc222960e3e3bdd15136c2fa633"}, {"name": "4573f3d9702e4f5684d7b9d26afe6023", "lat": 38.90789183333333, "type": "electric_scooter", "is_disabled": 0, "fusion_lon": 0.0, "fusion_lat": 0.0, "lon": -77.00015283333333, "is_reserved": 0, "rental_uris": {"android": "https://dc.lft.to/lastmile_qr_scan", "ios": "https://dc.lft.to/lastmile_qr_scan"}, "bike_id": "4573f3d9702e4f5684d7b9d26afe6023"}, {"name": "b2711341df053dd3cb0f893063864f05", "lat": 38.94472066666667, "type": "electric_bike", "is_disabled": 0, "fusion_lon": 0.0, "fusion_lat": 0.0, "lon": -76.98681983333333, "is_reserved": 0, "rental_uris": {"android": "https://dc.lft.to/lastmile_qr_scan", "ios": "https://dc.lft.to/lastmile_qr_scan"}, "bike_id": "b2711341df053dd3cb0f893063864f05"}, {"name": "f435506dd0ca6b577b033a350c8fcb66", "lat": 38.89551516666667, "type": "electric_scooter", "is_disabled": 0, "fusion_lon": 0.0, "fusion_lat": 0.0, "lon": -77.00921283333334, "is_reserved": 0, "rental_uris": {"android": "https://dc.lft.to/lastmile_qr_scan", "ios": "https://dc.lft.to/lastmile_qr_scan"}, "bike_id": "f435506dd0ca6b577b033a350c8fcb66"}, {"name": "6014af6382a850273f18ba783d2dfa0c", "lat": 38.90081516666667, "type": "electric_scooter", "is_disabled": 0, "fusion_lon": 0.0, "fusion_lat": 0.0, "lon": -77.01831516666667, "is_reserved": 0, "rental_uris": {"android": "https://dc.lft.to/lastmile_qr_scan", "ios": "https://dc.lft.to/lastmile_qr_scan"}, "bike_id": "6014af6382a850273f18ba783d2dfa0c"}, {"name": "0e4af0d85a4d931a58b2c246d3f6ecdb", "lat": 38.95183433333333, "type": "electric_scooter", "is_disabled": 0, "fusion_lon": 0.0, "fusion_lat": 0.0, "lon": -77.02638566666667, "is_reserved": 0, "rental_uris": {"android": "https://dc.lft.to/lastmile_qr_scan", "ios": "https://dc.lft.to/lastmile_qr_scan"}, "bike_id": "0e4af0d85a4d931a58b2c246d3f6ecdb"}, {"name": "b30cbb57eba3a1c61a132eaefea4fdd1", "lat": 38.922466, "type": "electric_scooter", "is_disabled": 0, "fusion_lon": 0.0, "fusion_lat": 0.0, "lon": -77.03069866666667, "is_reserved": 0, "rental_uris": {"android": "https://dc.lft.to/lastmile_qr_scan", "ios": "https://dc.lft.to/lastmile_qr_scan"}, "bike_id": "b30cbb57eba3a1c61a132eaefea4fdd1"}, {"name": "512454d30799838e97de2d68a68695fe", "lat": 38.9185495, "type": "electric_bike", "is_disabled": 0, "fusion_lon": 0.0, "fusion_lat": 0.0, "lon": -76.96090216666667, "is_reserved": 0, "rental_uris": {"android": "https://dc.lft.to/lastmile_qr_scan", "ios": "https://dc.lft.to/lastmile_qr_scan"}, "bike_id": "512454d30799838e97de2d68a68695fe"}, {"name": "ede56195b84ac375f717f905821d31e4", "lat": 38.895311166666666, "type": "electric_scooter", "is_disabled": 0, "fusion_lon": 0.0, "fusion_lat": 0.0, "lon": -77.02907916666666, "is_reserved": 0, "rental_uris": {"android": "https://dc.lft.to/lastmile_qr_scan", "ios": "https://dc.lft.to/lastmile_qr_scan"}, "bike_id": "ede56195b84ac375f717f905821d31e4"}, {"name": "8ab72284846e182359f4a92153bf846a", "lat": 38.819403333333334, "type": "electric_bike", "is_disabled": 0, "fusion_lon": 0.0, "fusion_lat": 0.0, "lon": -77.0020455, "is_reserved": 0, "rental_uris": {"android": "https://dc.lft.to/lastmile_qr_scan", "ios": "https://dc.lft.to/lastmile_qr_scan"}, "bike_id": "8ab72284846e182359f4a92153bf846a"}, {"name": "51daf539398a85fd8850801c57aa848a", "lat": 38.90247516666667, "type": "electric_scooter", "is_disabled": 0, "fusion_lon": 0.0, "fusion_lat": 0.0, "lon": -77.03735133333333, "is_reserved": 0, "rental_uris": {"android": "https://dc.lft.to/lastmile_qr_scan", "ios": "https://dc.lft.to/lastmile_qr_scan"}, "bike_id": "51daf539398a85fd8850801c57aa848a"}, {"name": "012be33acae4c64794f1902d249a0882", "lat": 38.900152, "type": "electric_scooter", "is_disabled": 0, "fusion_lon": 0.0, "fusion_lat": 0.0, "lon": -77.0072025, "is_reserved": 0, "rental_uris": {"android": "https://dc.lft.to/lastmile_qr_scan", "ios": "https://dc.lft.to/lastmile_qr_scan"}, "bike_id": "012be33acae4c64794f1902d249a0882"}, {"name": "7eb530e95fbc5484b3abda06cd6db4db", "lat": 39.022974833333336, "type": "electric_bike", "is_disabled": 0, "fusion_lon": 0.0, "fusion_lat": 0.0, "lon": -77.02108733333333, "is_reserved": 0, "rental_uris": {"android": "https://dc.lft.to/lastmile_qr_scan", "ios": "https://dc.lft.to/lastmile_qr_scan"}, "bike_id": "7eb530e95fbc5484b3abda06cd6db4db"}, {"name": "f2f08b690d9c31a17e445cb125d7ab1b", "lat": 38.90294633333333, "type": "electric_scooter", "is_disabled": 0, "fusion_lon": 0.0, "fusion_lat": 0.0, "lon": -77.02414933333333, "is_reserved": 0, "rental_uris": {"android": "https://dc.lft.to/lastmile_qr_scan", "ios": "https://dc.lft.to/lastmile_qr_scan"}, "bike_id": "f2f08b690d9c31a17e445cb125d7ab1b"}, {"name": "9ffca640f8bba0a1bf629e0e7c923158", "lat": 38.904621666666664, "type": "electric_scooter", "is_disabled": 0, "fusion_lon": 0.0, "fusion_lat": 0.0, "lon": -77.02818516666666, "is_reserved": 0, "rental_uris": {"android": "https://dc.lft.to/lastmile_qr_scan", "ios": "https://dc.lft.to/lastmile_qr_scan"}, "bike_id": "9ffca640f8bba0a1bf629e0e7c923158"}, {"name": "65787eb87c1ad9d12e19b22c581e9b8e", "lat": 38.96273883333333, "type": "electric_scooter", "is_disabled": 0, "fusion_lon": 0.0, "fusion_lat": 0.0, "lon": -77.0302435, "is_reserved": 0, "rental_uris": {"android": "https://dc.lft.to/lastmile_qr_scan", "ios": "https://dc.lft.to/lastmile_qr_scan"}, "bike_id": "65787eb87c1ad9d12e19b22c581e9b8e"}, {"name": "58ef78d8b7c0a569d0be16569a8855ab", "lat": 38.916538333333335, "type": "electric_scooter", "is_disabled": 0, "fusion_lon": 0.0, "fusion_lat": 0.0, "lon": -77.02306316666666, "is_reserved": 0, "rental_uris": {"android": "https://dc.lft.to/lastmile_qr_scan", "ios": "https://dc.lft.to/lastmile_qr_scan"}, "bike_id": "58ef78d8b7c0a569d0be16569a8855ab"}, {"name": "43fb2b17a63336a2fc63460d6edf1925", "lat": 38.917274166666665, "type": "electric_scooter", "is_disabled": 0, "fusion_lon": 0.0, "fusion_lat": 0.0, "lon": -77.06842283333333, "is_reserved": 0, "rental_uris": {"android": "https://dc.lft.to/lastmile_qr_scan", "ios": "https://dc.lft.to/lastmile_qr_scan"}, "bike_id": "43fb2b17a63336a2fc63460d6edf1925"}, {"name": "c9351e87395f849fc097fc6fa393aa9f", "lat": 38.92328033333333, "type": "electric_scooter", "is_disabled": 0, "fusion_lon": 0.0, "fusion_lat": 0.0, "lon": -77.019517, "is_reserved": 0, "rental_uris": {"android": "https://dc.lft.to/lastmile_qr_scan", "ios": "https://dc.lft.to/lastmile_qr_scan"}, "bike_id": "c9351e87395f849fc097fc6fa393aa9f"}, {"name": "d3f77115626e7d8f41162b39d2a7e188", "lat": 38.92037766666667, "type": "electric_scooter", "is_disabled": 0, "fusion_lon": 0.0, "fusion_lat": 0.0, "lon": -77.0389645, "is_reserved": 0, "rental_uris": {"android": "https://dc.lft.to/lastmile_qr_scan", "ios": "https://dc.lft.to/lastmile_qr_scan"}, "bike_id": "d3f77115626e7d8f41162b39d2a7e188"}, {"name": "127127cc435f70425dc61cdded77e366", "lat": 38.94569366666666, "type": "electric_bike", "is_disabled": 0, "fusion_lon": 0.0, "fusion_lat": 0.0, "lon": -76.981093, "is_reserved": 0, "rental_uris": {"android": "https://dc.lft.to/lastmile_qr_scan", "ios": "https://dc.lft.to/lastmile_qr_scan"}, "bike_id": "127127cc435f70425dc61cdded77e366"},