{"data": {"bikes": [{"bike_id": "666d087cacbb25503174fdbb266611c3", "is_reserved": 0, "fusion_lon": 0.0, "lat": 38.903764, "is_disabled": 0, "name": "666d087cacbb25503174fdbb266611c3", "fusion_lat": 0.0, "rental_uris": {"ios": "https://dc.lft.to/lastmile_qr_scan", "android": "https://dc.lft.to/lastmile_qr_scan"}, "lon": -77.01100183333334, "type": "electric_scooter"}, {"bike_id": "47d54f90fc7c5b7721fd42ced67c9c16", "is_reserved": 0, "fusion_lon": 0.0, "lat": 38.89880866666667, "is_disabled": 0, "name": "47d54f90fc7c5b7721fd42ced67c9c16", "fusion_lat": 0.0, "rental_uris": {"ios": "https://dc.lft.to/lastmile_qr_scan", "android": "https://dc.lft.to/lastmile_qr_scan"}, "lon": -76.93161716666667, "type": "electric_scooter"}, {"bike_id": "cbb04ac7bb24d91f1d986e8a90e1623c", "is_reserved": 0, "fusion_lon": 0.0, "lat": 38.916825, "is_disabled": 0, "name": "cbb04ac7bb24d91f1d986e8a90e1623c", "fusion_lat": 0.0, "rental_uris": {"ios": "https://dc.lft.to/lastmile_qr_scan", "android": "https://dc.lft.to/lastmile_qr_scan"}, "lon": -77.012353, "type": "electric_scooter"}, {"bike_id": "e5f86dd09a43bc3ddadde19a11806145", "is_reserved": 0, "fusion_lon": 0.0, "lat": 38.99815683333333, "is_disabled": 0, "name": "e5f86dd09a43bc3ddadde19a11806145", "fusion_lat": 0.0, "rental_uris": {"ios": "https://dc.lft.to/lastmile_qr_scan", "android": "https://dc.lft.to/lastmile_qr_scan"}, "lon": -76.88370383333333, "type": "electric_bike"}, {"bike_id": "20ed0e0fbf98ee587258ff51ea8b2bc6", "is_reserved": 0, "fusion_lon": 0.0, "lat": 38.928968166666664, "is_disabled": 0, "name": "20ed0e0fbf98ee587258ff51ea8b2bc6", "fusion_lat": 0.0, "rental_uris": {"ios": "https://dc.lft.to/lastmile_qr_scan", "android": "https://dc.lft.to/lastmile_qr_scan"}, "lon": -77.05447766666667, "type": "electric_scooter"}, {"bike_id": "dabb18da27ddecdae17da25c5ab2858c", "is_reserved": 0, "fusion_lon": 0.0, "lat": 38.92145033333333, "is_disabled": 0, "name": "dabb18da27ddecdae17da25c5ab2858c", "fusion_lat": 0.0, "rental_uris": {"ios": "https://dc.lft.to/lastmile_qr_scan", "android": "https://dc.lft.to/lastmile_qr_scan"}, "lon": -77.0349775, "type": "electric_scooter"}, {"bike_id": "a3691294dbd28cd41b41c2bb93b9567f", "is_reserved": 0, "fusion_lon": 0.0, "lat": 38.908442666666666, "is_disabled": 0, "name": "a3691294dbd28cd41b41c2bb93b9567f", "fusion_lat": 0.0, "rental_uris": {"ios": "https://dc.lft.to/lastmile_qr_scan", "android": "https://dc.lft.to/lastmile_qr_scan"}, "lon": -77.04494016666666, "type": "electric_scooter"}, {"bike_id": "320124744713a5c82867925e3cdffc51", "is_reserved": 0, "fusion_lon": 0.0, "lat": 38.9417295, "is_disabled": 0, "name": "320124744713a5c82867925e3cdffc51", "fusion_lat": 0.0, "rental_uris": {"ios": "https://dc.lft.to/lastmile_qr_scan", "android": "https://dc.lft.to/lastmile_qr_scan"}, "lon": -77.04132533333333, "type": "electric_scooter"}, {"bike_id": "e4b16127bf65c36e21c00048447d9968", "is_reserved": 0, "fusion_lon": 0.0, "lat": 38.9573075, "is_disabled": 0, "name": "e4b16127bf65c36e21c00048447d9968", "fusion_lat": 0.0, "rental_uris": {"ios": "https://dc.lft.to/lastmile_qr_scan", "android": "https://dc.lft.to/lastmile_qr_scan"}, "lon": -76.98017883333333, "type": "electric_bike"}, {"bike_id": "6a74526e2df19622ec94cb1acf42735e", "is_reserved": 0, "fusion_lon": 0.0, "lat": 38.903262166666664, "is_disabled": 0, "name": "6a74526e2df19622ec94cb1acf42735e", "fusion_lat": 0.0, "rental_uris": {"ios": "https://dc.lft.to/lastmile_qr_scan", "android": "https://dc.lft.to/lastmile_qr_scan"}, "lon": -77.0664655, "type": "electric_scooter"}, {"bike_id": "332a12105f0e12f12aea3cdb93b98135", "is_reserved": 0, "fusion_lon": 0.0, "lat": 38.898477666666665, "is_disabled": 0, "name": "332a12105f0e12f12aea3cdb93b98135", "fusion_lat": 0.0, "rental_uris": {"ios": "https://dc.lft.to/lastmile_qr_scan", "android": "https://dc.lft.to/lastmile_qr_scan"}, "lon": -77.00738, "type": "electric_scooter"}, {"bike_id": "55f792bc2ae5eda33484e42141cd0caa", "is_reserved": 0, "fusion_lon": 0.0, "lat": 38.86383383333333, "is_disabled": 0, "name": "55f792bc2ae5eda33484e42141cd0caa", "fusion_lat": 0.0, "rental_uris": {"ios": "https://dc.lft.to/lastmile_qr_scan", "android": "https://dc.lft.to/lastmile_qr_scan"}, "lon": -76.98989333333333, "type": "electric_bike"}, {"bike_id": "c49915d75730e6e5d2870fe924dc054d", "is_reserved": 0, "fusion_lon": 0.0, "lat": 38.8922095, "is_disabled": 0, "name": "c49915d75730e6e5d2870fe924dc054d", "fusion_lat": 0.0, "rental_uris": {"ios": "https://dc.lft.to/lastmile_qr_scan", "android": "https://dc.lft.to/lastmile_qr_scan"}, "lon": -77.043638, "type": "electric_scooter"}, {"bike_id": "c65495b5414d462711b8f842b4695202", "is_reserved": 0, "fusion_lon": 0.0, "lat": 38.90674283333333, "is_disabled": 0, "name": "c65495b5414d462711b8f842b4695202", "fusion_lat": 0.0, "rental_uris": {"ios": "https://dc.lft.to/lastmile_qr_scan", "android": "https://dc.lft.to/lastmile_qr_scan"}, "lon": -77.06264316666666, "type": "electric_bike"}, {"bike_id": "1e9c356d6fafa156e15a82dbc4bf4966", "is_reserved": 0, "fusion_lon": 0.0, "lat": 38.934021666666666, "is_disabled": 0, "name": "1e9c356d6fafa156e15a82dbc4bf4966", "fusion_lat": 0.0, "rental_uris": {"ios": "https://dc.lft.to/lastmile_qr_scan", "android": "https://dc.lft.to/lastmile_qr_scan"}, "lon": -77.027296, "type": "electric_scooter"}, {"bike_id": "ac3a16ae2744333fa409aff8f177f987", "is_reserved": 0, "fusion_lon": 0.0, "lat": 38.90509333333333, "is_disabled": 0, "name": "ac3a16ae2744333fa409aff8f177f987", "fusion_lat": 0.0, "rental_uris": {"ios": "https://dc.lft.to/lastmile_qr_scan", "android": "https://dc.lft.to/lastmile_qr_scan"}, "lon": -77.063837, "type": "electric_scooter"}, {"bike_id": "f5cdf716fa6a8cc59deb2d03b59b4918", "is_reserved": 0, "fusion_lon": 0.0, "lat": 38.910119, "is_disabled": 0, "name": "f5cdf716fa6a8cc59deb2d03b59b4918", "fusion_lat": 0.0, "rental_uris": {"ios": "https://dc.lft.to/lastmile_qr_scan", "android": "https://dc.lft.to/lastmile_qr_scan"}, "lon": -76.99384016666667, "type": "electric_scooter"}, {"bike_id": "234d8cb8a53b76c2071de3b5cdc6cc52", "is_reserved": 0, "fusion_lon": 0.0, "lat": 38.89904933333333, "is_disabled": 0, "name": "234d8cb8a53b76c2071de3b5cdc6cc52", "fusion_lat": 0.0, "rental_uris": {"ios": "https://dc.lft.to/lastmile_qr_scan", "android": "https://dc.lft.to/lastmile_qr_scan"}, "lon": -77.04077433333333, "type": "electric_scooter"}, {"bike_id": "8293da4ff5edecc32b7eed29e54c25fe", "is_reserved": 0, "fusion_lon": 0.0, "lat": 38.92360516666667, "is_disabled": 0, "name": "8293da4ff5edecc32b7eed29e54c25fe", "fusion_lat": 0.0, "rental_uris": {"ios": "https://dc.lft.to/lastmile_qr_scan", "android": "https://dc.lft.to/lastmile_qr_scan"}, "lon": -77.05127916666666, "type": "electric_scooter"}, {"bike_id": "acef09e68a464abadcfae918fb45b8b0", "is_reserved": 0, "fusion_lon": 0.0, "lat": 38.92055966666667, "is_disabled": 0, "name": "acef09e68a464abadcfae918fb45b8b0", "fusion_lat": 0.0, "rental_uris": {"ios": "https://dc.lft.to/lastmile_qr_scan", "android": "https://dc.lft.to/lastmile_qr_scan"}, "lon": -76.97799483333333, "type": "electric_scooter"}, {"bike_id": "9baf3bb4f3cdf2e61410916e818db8a3", "is_reserved": 0, "fusion_lon": 0.0, "lat": 38.905864666666666, "is_disabled": 0, "name": "9baf3bb4f3cdf2e61410916e818db8a3", "fusion_lat": 0.0, "rental_uris": {"ios": "https://dc.lft.to/lastmile_qr_scan", "android": "https://dc.lft.to/lastmile_qr_scan"}, "lon": -77.06521416666666, "type": "electric_scooter"}, {"bike_id": "ac68a2553a075a03ec0273cea433b46f", "is_reserved": 0, "fusion_lon": 0.0, "lat": 38.91873783333333, "is_disabled": 0, "name": "ac68a2553a075a03ec0273cea433b46f", "fusion_lat": 0.0, "rental_uris": {"ios": "https://dc.lft.to/lastmile_qr_scan", "android": "https://dc.lft.to/lastmile_qr_scan"}, "lon": -77.04182366666667, "type": "electric_scooter"}, {"bike_id": "251e345019b16eac02dce0b62059da5d", "is_reserved": 0, "fusion_lon": 0.0, "lat": 38.92342566666667, "is_disabled": 0, "name": "251e345019b16eac02dce0b62059da5d", "fusion_lat": 0.0, "rental_uris": {"ios": "https://dc.lft.to/lastmile_qr_scan", "android": "https://dc.lft.to/lastmile_qr_scan"}, "lon": -77.01906566666666, "type": "electric_scooter"}, {"bike_id": "acd82b27ca0b75e7971877773356c9f7", "is_reserved": 0, "fusion_lon": 0.0, "lat": 38.907058, "is_disabled": 0, "name": "acd82b27ca0b75e7971877773356c9f7", "fusion_lat": 0.0, "rental_uris": {"ios": "https://dc.lft.to/lastmile_qr_scan", "android": "https://dc.lft.to/lastmile_qr_scan"}, "lon": -77.03209516666666, "type": "electric_scooter"}, {"bike_id": "8a9c5d0a8cf6d64072170224a1e0ac2a", "is_reserved": 0, "fusion_lon": 0.0, "lat": 38.905909, "is_disabled": 0, "name": "8a9c5d0a8cf6d64072170224a1e0ac2a", "fusion_lat": 0.0, "rental_uris": {"ios": "https://dc.lft.to/lastmile_qr_scan", "android": "https://dc.lft.to/lastmile_qr_scan"}, "lon": -77.04678233333334, "type": "electric_scooter"}, {"bike_id": "e4f7127fc2042e937f40d1e8e5104071", "is_reserved": 0, "fusion_lon": 0.0, "lat": 38.896619666666666, "is_disabled": 0, "name": "e4f7127fc2042e937f40d1e8e5104071", "fusion_lat": 0.0, "rental_uris": {"ios": "https://dc.lft.to/lastmile_qr_scan", "android": "https://dc.lft.to/lastmile_qr_scan"}, "lon": -77.02969583333334, "type": "electric_scooter"}, {"bike_id": "75d352a88d1c01cc269852cbd6147e62", "is_reserved": 0, "fusion_lon": 0.0, "lat": 38.87627466666667, "is_disabled": 0, "name": "75d352a88d1c01cc269852cbd6147e62", "fusion_lat": 0.0, "rental_uris": {"ios": "https://dc.lft.to/lastmile_qr_scan", "android": "https://dc.lft.to/lastmile_qr_scan"}, "lon": -76.96527, "type": "electric_scooter"}, {"bike_id": "ca094d68101114bef5817c2f4d9af1e4", "is_reserved": 0, "fusion_lon": 0.0, "lat": 38.898531166666665, "is_disabled": 0, "name": "ca094d68101114bef5817c2f4d9af1e4", "fusion_lat": 0.0, "rental_uris": {"ios": "https://dc.lft.to/lastmile_qr_scan", "android": "https://dc.lft.to/lastmile_qr_scan"}, "lon": -77.0074005, "type": "electric_scooter"}, {"bike_id": "3b2ecc1fc1f31b5af889647b99e241eb", "is_reserved": 0, "fusion_lon": 0.0, "lat": 38.896193833333335, "is_disabled": 0, "name": "3b2ecc1fc1f31b5af889647b99e241eb", "fusion_lat": 0.0, "rental_uris": {"ios": "https://dc.lft.to/lastmile_qr_scan", "android": "https://dc.lft.to/lastmile_qr_scan"}, "lon": -77.04491366666667, "type": "electric_scooter"}, {"bike_id": "1cdd584a88d46055dd59f58462c1eb21", "is_reserved": 0, "fusion_lon": 0.0, "lat": 38.91578916666667, "is_disabled": 0, "name": "1cdd584a88d46055dd59f58462c1eb21", "fusion_lat": 0.0, "rental_uris": {"ios": "https://dc.lft.to/lastmile_qr_scan", "android": "https://dc.lft.to/lastmile_qr_scan"}, "lon": -77.01237033333334, "type": "electric_scooter"}, {"bike_id": "18569febc94cc26ae9d05c81627e1d65", "is_reserved": 0, "fusion_lon": 0.0, "lat": 38.896124666666665, "is_disabled": 0, "name": "18569febc94cc26ae9d05c81627e1d65", "fusion_lat": 0.0, "rental_uris": {"ios": "https://dc.lft.to/lastmile_qr_scan", "android": "https://dc.lft.to/lastmile_qr_scan"}, "lon": -77.04597983333333, "type": "electric_scooter"}, {"bike_id": "97dec3d3e24d30b7eebe4739eaa78636", "is_reserved": 0, "fusion_lon": 0.0, "lat": 38.89853216666667, "is_disabled": 0, "name": "97dec3d3e24d30b7eebe4739eaa78636", "fusion_lat": 0.0, "rental_uris": {"ios": "https://dc.lft.to/lastmile_qr_scan", "android": "https://dc.lft.to/lastmile_qr_scan"}, "lon": -77.0327325, "type": "electric_scooter"}, {"bike_id": "54dd1a7ef08991cd72ba8aa818272f85", "is_reserved": 0, "fusion_lon": 0.0, "lat": 38.92367933333333, "is_disabled": 0, "name": "54dd1a7ef08991cd72ba8aa818272f85", "fusion_lat": 0.0, "rental_uris": {"ios": "https://dc.lft.to/lastmile_qr_scan", "android": "https://dc.lft.to/lastmile_qr_scan"}, "lon": -77.01951783333334, "type": "electric_scooter"}, {"bike_id": "2916494e10044bd31d496ca2192ab844", "is_reserved": 0, "fusion_lon": 0.0, "lat": 38.90372033333333, "is_disabled": 0, "name": "2916494e10044bd31d496ca2192ab844", "fusion_lat": 0.0, "rental_uris": {"ios": "https://dc.lft.to/lastmile_qr_scan", "android": "https://dc.lft.to/lastmile_qr_scan"}, "lon": -77.043547, "type": "electric_scooter"}, {"bike_id": "5e979ad5c4386d245f8141576cdf925f", "is_reserved": 0, "fusion_lon": 0.0, "lat": 38.90178783333333, "is_disabled": 0, "name": "5e979ad5c4386d245f8141576cdf925f", "fusion_lat": 0.0, "rental_uris": {"ios": "https://dc.lft.to/lastmile_qr_scan", "android": "https://dc.lft.to/lastmile_qr_scan"}, "lon": -76.98070583333333, "type": "electric_scooter"}, {"bike_id": "5a0bd0099da9035d64865e60063b4a84", "is_reserved": 0, "fusion_lon": 0.0, "lat": 38.873800333333335, "is_disabled": 0, "name": "5a0bd0099da9035d64865e60063b4a84", "fusion_lat": 0.0, "rental_uris": {"ios": "https://dc.lft.to/lastmile_qr_scan", "android": "https://dc.lft.to/lastmile_qr_scan"}, "lon": -77.00086933333333, "type": "electric_scooter"}, {"bike_id": "c08cbc9d13c57ae98b3e38fedbf5f95a", "is_reserved": 0, "fusion_lon": 0.0, "lat": 38.92665266666667, "is_disabled": 0, "name": "c08cbc9d13c57ae98b3e38fedbf5f95a", "fusion_lat": 0.0, "rental_uris": {"ios": "https://dc.lft.to/lastmile_qr_scan", "android": "https://dc.lft.to/lastmile_qr_scan"}, "lon": -76.995395, "type": "electric_scooter"}, {"bike_id": "86c051498e11a23f2dad4959f657b3bd", "is_reserved": 0, "fusion_lon": 0.0, "lat": 38.91774783333334, "is_disabled": 0, "name": "86c051498e11a23f2dad4959f657b3bd", "fusion_lat": 0.0, "rental_uris": {"ios": "https://dc.lft.to/lastmile_qr_scan", "android": "https://dc.lft.to/lastmile_qr_scan"}, "lon": -77.04745483333333, "type": "electric_scooter"}, {"bike_id": "bdcd2a4e2d1305b09ec636e44f768916", "is_reserved": 0, "fusion_lon": 0.0, "lat": 38.90517833333333, "is_disabled": 0, "name": "bdcd2a4e2d1305b09ec636e44f768916", "fusion_lat": 0.0, "rental_uris": {"ios": "https://dc.lft.to/lastmile_qr_scan", "android": "https://dc.lft.to/lastmile_qr_scan"}, "lon": -77.04989883333333, "type": "electric_scooter"}, {"bike_id": "182977e8f757e739c059b1d1c2cfb685", "is_reserved": 0, "fusion_lon": 0.0, "lat": 38.89329583333333, "is_disabled": 0, "name": "182977e8f757e739c059b1d1c2cfb685", "fusion_lat": 0.0, "rental_uris": {"ios": "https://dc.lft.to/lastmile_qr_scan", "android": "https://dc.lft.to/lastmile_qr_scan"}, "lon": -76.92990983333334, "type": "electric_scooter"}, {"bike_id": "9b4a9676f585fd3929878600d2d4091e", "is_reserved": 0, "fusion_lon": 0.0, "lat": 38.915604, "is_disabled": 0, "name": "9b4a9676f585fd3929878600d2d4091e", "fusion_lat": 0.0, "rental_uris": {"ios": "https://dc.lft.to/lastmile_qr_scan", "android": "https://dc.lft.to/lastmile_qr_scan"}, "lon": -77.022061, "type": "electric_scooter"}, {"bike_id": "81841d6af36d90d1adeeb82b68e5dd64", "is_reserved": 0, "fusion_lon": 0.0, "lat": 38.8903035, "is_disabled": 0, "name": "81841d6af36d90d1adeeb82b68e5dd64", "fusion_lat": 0.0, "rental_uris": {"ios": "https://dc.lft.to/lastmile_qr_scan", "android": "https://dc.lft.to/lastmile_qr_scan"}, "lon": -76.93595416666666, "type": "electric_scooter"}, {"bike_id": "1b9c3efd8d1cc74eb094bb713fcd4a44", "is_reserved": 0, "fusion_lon": 0.0, "lat": 38.92382466666667, "is_disabled": 0, "name": "1b9c3efd8d1cc74eb094bb713fcd4a44", "fusion_lat": 0.0, "rental_uris": {"ios": "https://dc.lft.to/lastmile_qr_scan", "android": "https://dc.lft.to/lastmile_qr_scan"}, "lon": -77.223202, "type": "electric_bike"}, {"bike_id": "a77979ce94c5afd3638f2af60b920526", "is_reserved": 0, "fusion_lon": 0.0, "lat": 38.97093, "is_disabled": 0, "name": "a77979ce94c5afd3638f2af60b920526", "fusion_lat": 0.0, "rental_uris": {"ios": "https://dc.lft.to/lastmile_qr_scan", "android": "https://dc.lft.to/lastmile_qr_scan"}, "lon": -77.06969166666667, "type": "electric_bike"}, {"bike_id": "9cd6c6f8f8cf1c2e11472924c4e7b4b8", "is_reserved": 0, "fusion_lon": 0.0, "lat": 38.9250775, "is_disabled": 0, "name": "9cd6c6f8f8cf1c2e11472924c4e7b4b8", "fusion_lat": 0.0, "rental_uris": {"ios": "https://dc.lft.to/lastmile_qr_scan", "android": "https://dc.lft.to/lastmile_qr_scan"}, "lon": -77.03887433333334, "type": "electric_scooter"}, {"bike_id": "2d33f4d676416db5809a59f07e98271e", "is_reserved": 0, "fusion_lon": 0.0, "lat": 38.93572183333333, "is_disabled": 0, "name": "2d33f4d676416db5809a59f07e98271e", "fusion_lat": 0.0, "rental_uris": {"ios": "https://dc.lft.to/lastmile_qr_scan", "android": "https://dc.lft.to/lastmile_qr_scan"}, "lon": -77.02770733333334, "type": "electric_scooter"}, {"bike_id": "f46f78f89d50af85e657732e61ca348e", "is_reserved": 0, "fusion_lon": 0.0, "lat": 38.89908416666667, "is_disabled": 0, "name": "f46f78f89d50af85e657732e61ca348e", "fusion_lat": 0.0, "rental_uris": {"ios": "https://dc.lft.to/lastmile_qr_scan", "android": "https://dc.lft.to/lastmile_qr_scan"}, "lon": -77.0329775, "type": "electric_scooter"}, {"bike_id": "c8e36da23b0136cd40203b2cd423e206", "is_reserved": 0, "fusion_lon": 0.0, "lat": 38.929608, "is_disabled": 0, "name": "c8e36da23b0136cd40203b2cd423e206", "fusion_lat": 0.0, "rental_uris": {"ios": "https://dc.lft.to/lastmile_qr_scan", "android": "https://dc.lft.to/lastmile_qr_scan"}, "lon": -77.0549995, "type": "electric_scooter"}, {"bike_id": "c777dc745a57fc268822c5ec521b3181", "is_reserved": 0, "fusion_lon": 0.0, "lat": 38.925800833333334, "is_disabled": 0, "name": "c777dc745a57fc268822c5ec521b3181", "fusion_lat": 0.0, "rental_uris": {"ios": "https://dc.lft.to/lastmile_qr_scan", "android": "https://dc.lft.to/lastmile_qr_scan"}, "lon": -77.00472783333333, "type": "electric_scooter"}, {"bike_id": "f8608c992a887468223dcfaea10e82d4", "is_reserved": 0, "fusion_lon": 0.0, "lat": 38.8650575, "is_disabled": 0, "name": "f8608c992a887468223dcfaea10e82d4", "fusion_lat": 0.0, "rental_uris": {"ios": "https://dc.lft.to/lastmile_qr_scan", "android": "https://dc.lft.to/lastmile_qr_scan"}, "lon": -76.989771, "type": "electric_scooter"}, {"bike_id": "704e039056d2818df7f2da28b3131ef9", "is_reserved": 0, "fusion_lon": 0.0, "lat": 38.92627316666667, "is_disabled": 0, "name": "704e039056d2818df7f2da28b3131ef9", "fusion_lat": 0.0, "rental_uris": {"ios": "https://dc.lft.to/lastmile_qr_scan", "android": "https://dc.lft.to/lastmile_qr_scan"}, "lon": -77.03787316666667, "type": "electric_scooter"}, {"bike_id": "dd6068728f23f6e12a8c1386664e133a", "is_reserved": 0, "fusion_lon": 0.0, "lat": 38.913274, "is_disabled": 0, "name": "dd6068728f23f6e12a8c1386664e133a", "fusion_lat": 0.0, "rental_uris": {"ios": "https://dc.lft.to/lastmile_qr_scan", "android": "https://dc.lft.to/lastmile_qr_scan"}, "lon": -77.04869283333333, "type": "electric_scooter"}, {"bike_id": "e3fa88c993574cbc96c4895398f852db", "is_reserved": 0, "fusion_lon": 0.0, "lat": 38.899496166666665, "is_disabled": 0, "name": "e3fa88c993574cbc96c4895398f852db", "fusion_lat": 0.0, "rental_uris": {"ios": "https://dc.lft.to/lastmile_qr_scan", "android": "https://dc.lft.to/lastmile_qr_scan"}, "lon": -77.03150233333334, "type": "electric_scooter"}, {"bike_id": "fafdd376b0da0fc50a5c9f798220b81e", "is_reserved": 0, "fusion_lon": 0.0, "lat": 38.87848266666666, "is_disabled": 0, "name": "fafdd376b0da0fc50a5c9f798220b81e", "fusion_lat": 0.0, "rental_uris": {"ios": "https://dc.lft.to/lastmile_qr_scan", "android": "https://dc.lft.to/lastmile_qr_scan"}, "lon": -77.004999, "type": "electric_scooter"}, {"bike_id": "0ad49094ca0d3541eca08183f3387b8b", "is_reserved": 0, "fusion_lon": 0.0, "lat": 38.88513533333333, "is_disabled": 0, "name": "0ad49094ca0d3541eca08183f3387b8b", "fusion_lat": 0.0, "rental_uris": {"ios": "https://dc.lft.to/lastmile_qr_scan", "android": "https://dc.lft.to/lastmile_qr_scan"}, "lon": -77.0155335, "type": "electric_scooter"}, {"bike_id": "765ebecc65dbfceb238de648b8c547fb", "is_reserved": 0, "fusion_lon": 0.0, "lat": 38.893402333333334, "is_disabled": 0, "name": "765ebecc65dbfceb238de648b8c547fb", "fusion_lat": 0.0, "rental_uris": {"ios": "https://dc.lft.to/lastmile_qr_scan", "android": "https://dc.lft.to/lastmile_qr_scan"}, "lon": -76.98459933333334, "type": "electric_scooter"}, {"bike_id": "828fb28f3ce3d3b50af5f585e55b8f75", "is_reserved": 0, "fusion_lon": 0.0, "lat": 38.87080433333333, "is_disabled": 0, "name": "828fb28f3ce3d3b50af5f585e55b8f75", "fusion_lat": 0.0, "rental_uris": {"ios": "https://dc.lft.to/lastmile_qr_scan", "android": "https://dc.lft.to/lastmile_qr_scan"}, "lon": -77.01206983333333, "type": "electric_bike"}, {"bike_id": "cff5c4bcb795aa4a4445bfcfa71e3a19", "is_reserved": 0, "fusion_lon": 0.0, "lat": 38.896815, "is_disabled": 0, "name": "cff5c4bcb795aa4a4445bfcfa71e3a19", "fusion_lat": 0.0, "rental_uris": {"ios": "https://dc.lft.to/lastmile_qr_scan", "android": "https://dc.lft.to/lastmile_qr_scan"}, "lon": -76.99628133333333, "type": "electric_scooter"}, {"bike_id": "fc22b9d04a0b6da65d87b2fdda3f29d2", "is_reserved": 0, "fusion_lon": 0.0, "lat": 38.90532916666667, "is_disabled": 0, "name": "fc22b9d04a0b6da65d87b2fdda3f29d2", "fusion_lat": 0.0, "rental_uris": {"ios": "https://dc.lft.to/lastmile_qr_scan", "android": "https://dc.lft.to/lastmile_qr_scan"}, "lon": -77.0434885, "type": "electric_scooter"}, {"bike_id": "5ab7e17bce59c4fbb2e890388acd3b6e", "is_reserved": 0, "fusion_lon": 0.0, "lat": 38.892208833333335, "is_disabled": 0, "name": "5ab7e17bce59c4fbb2e890388acd3b6e", "fusion_lat": 0.0, "rental_uris": {"ios": "https://dc.lft.to/lastmile_qr_scan", "android": "https://dc.lft.to/lastmile_qr_scan"}, "lon": -77.04191283333333, "type": "electric_scooter"}, {"bike_id": "a73519e62754752abaafce20c57f53e7", "is_reserved": 0, "fusion_lon": 0.0, "lat": 38.879146666666664, "is_disabled": 0, "name": "a73519e62754752abaafce20c57f53e7", "fusion_lat": 0.0, "rental_uris": {"ios": "https://dc.lft.to/lastmile_qr_scan", "android": "https://dc.lft.to/lastmile_qr_scan"}, "lon": -76.99507233333334, "type": "electric_scooter"}, {"bike_id": "2970e39e86aa9d879ed70cf2dcdf4b29", "is_reserved": 0, "fusion_lon": 0.0, "lat": 38.89101516666667, "is_disabled": 0, "name": "2970e39e86aa9d879ed70cf2dcdf4b29", "fusion_lat": 0.0, "rental_uris": {"ios": "https://dc.lft.to/lastmile_qr_scan", "android": "https://dc.lft.to/lastmile_qr_scan"}, "lon": -76.98705916666667, "type": "electric_scooter"}, {"bike_id": "4415b6bdcc3e964a0ea9d057c8913add", "is_reserved": 0, "fusion_lon": 0.0, "lat": 38.9025075, "is_disabled": 0, "name": "4415b6bdcc3e964a0ea9d057c8913add", "fusion_lat": 0.0, "rental_uris": {"ios": "https://dc.lft.to/lastmile_qr_scan", "android": "https://dc.lft.to/lastmile_qr_scan"}, "lon": -77.0435885, "type": "electric_scooter"}, {"bike_id": "fc428b6b70d341d7dd7da73c8b9d9d55", "is_reserved": 0, "fusion_lon": 0.0, "lat": 38.90833766666667, "is_disabled": 0, "name": "fc428b6b70d341d7dd7da73c8b9d9d55", "fusion_lat": 0.0, "rental_uris": {"ios": "https://dc.lft.to/lastmile_qr_scan", "android": "https://dc.lft.to/lastmile_qr_scan"}, "lon": -77.039445, "type": "electric_scooter"}, {"bike_id": "dfe21f7015a8f7ff7c9a148a33c53193", "is_reserved": 0, "fusion_lon": 0.0, "lat": 38.9286335, "is_disabled": 0, "name": "dfe21f7015a8f7ff7c9a148a33c53193", "fusion_lat": 0.0, "rental_uris": {"ios": "https://dc.lft.to/lastmile_qr_scan", "android": "https://dc.lft.to/lastmile_qr_scan"}, "lon": -77.01374783333333, "type": "electric_scooter"}, {"bike_id": "c57108901865de60c861b8e45ee9d8d0", "is_reserved": 0, "fusion_lon": 0.0, "lat": 38.925012833333334, "is_disabled": 0, "name": "c57108901865de60c861b8e45ee9d8d0", "fusion_lat": 0.0, "rental_uris": {"ios": "https://dc.lft.to/lastmile_qr_scan", "android": "https://dc.lft.to/lastmile_qr_scan"}, "lon": -77.021759, "type": "electric_scooter"}, {"bike_id": "3902858e0bf0098f4901fba774874b9d", "is_reserved": 0, "fusion_lon": 0.0, "lat": 38.895355, "is_disabled": 0, "name": "3902858e0bf0098f4901fba774874b9d", "fusion_lat": 0.0, "rental_uris": {"ios": "https://dc.lft.to/lastmile_qr_scan", "android": "https://dc.lft.to/lastmile_qr_scan"}, "lon": -77.01928933333333, "type": "electric_scooter"}, {"bike_id": "566dc594f70b9afc8c797faa943a5a69", "is_reserved": 0, "fusion_lon": 0.0, "lat": 38.916716, "is_disabled": 0, "name": "566dc594f70b9afc8c797faa943a5a69", "fusion_lat": 0.0, "rental_uris": {"ios": "https://dc.lft.to/lastmile_qr_scan", "android": "https://dc.lft.to/lastmile_qr_scan"}, "lon": -77.02964433333334, "type": "electric_scooter"}, {"bike_id": "3c5eb62b6cc98ed776ef50692673ee00", "is_reserved": 0, "fusion_lon": 0.0, "lat": 38.861619, "is_disabled": 0, "name": "3c5eb62b6cc98ed776ef50692673ee00", "fusion_lat": 0.0, "rental_uris": {"ios": "https://dc.lft.to/lastmile_qr_scan", "android": "https://dc.lft.to/lastmile_qr_scan"}, "lon": -77.130929, "type": "electric_bike"}, {"bike_id": "6237dbb48cc9882d0007ca209084e92d", "is_reserved": 0, "fusion_lon": 0.0, "lat": 38.90414283333333, "is_disabled": 0, "name": "6237dbb48cc9882d0007ca209084e92d", "fusion_lat": 0.0, "rental_uris": {"ios": "https://dc.lft.to/lastmile_qr_scan", "android": "https://dc.lft.to/lastmile_qr_scan"}, "lon": -77.02959183333333, "type": "electric_scooter"}, {"bike_id": "80022971b137049eedb36c90ef31d2aa", "is_reserved": 0, "fusion_lon": 0.0, "lat": 38.909674333333335, "is_disabled": 0, "name": "80022971b137049eedb36c90ef31d2aa", "fusion_lat": 0.0, "rental_uris": {"ios": "https://dc.lft.to/lastmile_qr_scan", "android": "https://dc.lft.to/lastmile_qr_scan"}, "lon": -77.0272475, "type": "electric_scooter"}, {"bike_id": "3231f39355b150ca9a80ca8bafda2e73", "is_reserved": 0, "fusion_lon": 0.0, "lat": 38.901031833333334, "is_disabled": 0, "name": "3231f39355b150ca9a80ca8bafda2e73", "fusion_lat": 0.0, "rental_uris": {"ios": "https://dc.lft.to/lastmile_qr_scan", "android": "https://dc.lft.to/lastmile_qr_scan"}, "lon": -77.04399433333333, "type": "electric_scooter"}, {"bike_id": "8ddeb8aeaaef5abf743af4b3445a98bf", "is_reserved": 0, "fusion_lon": 0.0, "lat": 38.92583966666667, "is_disabled": 0, "name": "8ddeb8aeaaef5abf743af4b3445a98bf", "fusion_lat": 0.0, "rental_uris": {"ios": "https://dc.lft.to/lastmile_qr_scan", "android": "https://dc.lft.to/lastmile_qr_scan"}, "lon": -77.0045995, "type": "electric_scooter"}, {"bike_id": "943f4085bfde00fa31ca4dc8561a8fb2", "is_reserved": 0, "fusion_lon": 0.0, "lat": 38.89617916666667, "is_disabled": 0, "name": "943f4085bfde00fa31ca4dc8561a8fb2", "fusion_lat": 0.0, "rental_uris": {"ios": "https://dc.lft.to/lastmile_qr_scan", "android": "https://dc.lft.to/lastmile_qr_scan"}, "lon": -76.99571816666666, "type": "electric_scooter"}, {"bike_id": "25c99eb524d8f2012cf745cb06792d1b", "is_reserved": 0, "fusion_lon": 0.0, "lat": 38.89552233333333, "is_disabled": 0, "name": "25c99eb524d8f2012cf745cb06792d1b", "fusion_lat": 0.0, "rental_uris": {"ios": "https://dc.lft.to/lastmile_qr_scan", "android": "https://dc.lft.to/lastmile_qr_scan"}, "lon": -76.98077316666667, "type": "electric_scooter"}, {"bike_id": "3d547d6b31c9c28c76b276508869f3c0", "is_reserved": 0, "fusion_lon": 0.0, "lat": 38.89221416666667, "is_disabled": 0, "name": "3d547d6b31c9c28c76b276508869f3c0", "fusion_lat": 0.0, "rental_uris": {"ios": "https://dc.lft.to/lastmile_qr_scan", "android": "https://dc.lft.to/lastmile_qr_scan"}, "lon": -77.03337466666666, "type": "electric_scooter"}, {"bike_id": "274271cbcb446170b9c60aeeefed8aaa", "is_reserved": 0, "fusion_lon": 0.0, "lat": 38.90646516666666, "is_disabled": 0, "name": "274271cbcb446170b9c60aeeefed8aaa", "fusion_lat": 0.0, "rental_uris": {"ios": "https://dc.lft.to/lastmile_qr_scan", "android": "https://dc.lft.to/lastmile_qr_scan"}, "lon": -77.0386335, "type": "electric_scooter"}, {"bike_id": "3cb0343a83e21846f95a3544f996915f", "is_reserved": 0, "fusion_lon": 0.0, "lat": 38.9675925, "is_disabled": 0, "name": "3cb0343a83e21846f95a3544f996915f", "fusion_lat": 0.0, "rental_uris": {"ios": "https://dc.lft.to/lastmile_qr_scan", "android": "https://dc.lft.to/lastmile_qr_scan"}, "lon": -77.091637, "type": "electric_bike"}, {"bike_id": "f500445a8f4962efb25006ca9ec18673", "is_reserved": 0, "fusion_lon": 0.0, "lat": 38.90576016666667, "is_disabled": 0, "name": "f500445a8f4962efb25006ca9ec18673", "fusion_lat": 0.0, "rental_uris": {"ios": "https://dc.lft.to/lastmile_qr_scan", "android": "https://dc.lft.to/lastmile_qr_scan"}, "lon": -77.04431433333333, "type": "electric_scooter"}, {"bike_id": "3bf89e231386c4c75df92dfdf4e8ebe2", "is_reserved": 0, "fusion_lon": 0.0, "lat": 38.902995, "is_disabled": 0, "name": "3bf89e231386c4c75df92dfdf4e8ebe2", "fusion_lat": 0.0, "rental_uris": {"ios": "https://dc.lft.to/lastmile_qr_scan", "android": "https://dc.lft.to/lastmile_qr_scan"}, "lon": -77.02585783333333, "type": "electric_scooter"}, {"bike_id": "7f8a278dda00b719aed74bc6f326726e", "is_reserved": 0, "fusion_lon": 0.0, "lat": 38.913345666666665, "is_disabled": 0, "name": "7f8a278dda00b719aed74bc6f326726e", "fusion_lat": 0.0, "rental_uris": {"ios": "https://dc.lft.to/lastmile_qr_scan", "android": "https://dc.lft.to/lastmile_qr_scan"}, "lon": -77.03448333333333, "type": "electric_scooter"}, {"bike_id": "726617ca13fa72fdcab7c61f3ed3fe21", "is_reserved": 0, "fusion_lon": 0.0, "lat": 38.902334333333336, "is_disabled": 0, "name": "726617ca13fa72fdcab7c61f3ed3fe21", "fusion_lat": 0.0, "rental_uris": {"ios": "https://dc.lft.to/lastmile_qr_scan", "android": "https://dc.lft.to/lastmile_qr_scan"}, "lon": -76.97414366666666, "type": "electric_scooter"}, {"bike_id": "3bedfc66e13331ea4606dd44472c3405", "is_reserved": 0, "fusion_lon": 0.0, "lat": 38.90656216666667, "is_disabled": 0, "name": "3bedfc66e13331ea4606dd44472c3405", "fusion_lat": 0.0, "rental_uris": {"ios": "https://dc.lft.to/lastmile_qr_scan", "android": "https://dc.lft.to/lastmile_qr_scan"}, "lon": -77.00984266666667, "type": "electric_scooter"}, {"bike_id": "a1860f20790b0e986a147b44653b2f94", "is_reserved": 0, "fusion_lon": 0.0, "lat": 38.902723333333334, "is_disabled": 0, "name": "a1860f20790b0e986a147b44653b2f94", "fusion_lat": 0.0, "rental_uris": {"ios": "https://dc.lft.to/lastmile_qr_scan", "android": "https://dc.lft.to/lastmile_qr_scan"}, "lon": -77.03840916666667, "type": "electric_scooter"}, {"bike_id": "f9adf4cc9f776c0b2a5b7ee853e34b9a", "is_reserved": 0, "fusion_lon": 0.0, "lat": 38.90240583333333, "is_disabled": 0, "name": "f9adf4cc9f776c0b2a5b7ee853e34b9a", "fusion_lat": 0.0, "rental_uris": {"ios": "https://dc.lft.to/lastmile_qr_scan", "android": "https://dc.lft.to/lastmile_qr_scan"}, "lon": -77.03947266666667, "type": "electric_scooter"}, {"bike_id": "ef458b4babf680aab0b5f45ce1ab9683", "is_reserved": 0, "fusion_lon": 0.0, "lat": 38.903851833333334, "is_disabled": 0, "name": "ef458b4babf680aab0b5f45ce1ab9683", "fusion_lat": 0.0, "rental_uris": {"ios": "https://dc.lft.to/lastmile_qr_scan", "android": "https://dc.lft.to/lastmile_qr_scan"}, "lon": -77.04531766666666, "type": "electric_scooter"}, {"bike_id": "523ba5b6de686a60cd579f2c3d295149", "is_reserved": 0, "fusion_lon": 0.0, "lat": 38.89005816666667, "is_disabled": 0, "name": "523ba5b6de686a60cd579f2c3d295149", "fusion_lat": 0.0, "rental_uris": {"ios": "https://dc.lft.to/lastmile_qr_scan", "android": "https://dc.lft.to/lastmile_qr_scan"}, "lon": -76.93743966666666, "type": "electric_scooter"}, {"bike_id": "07d8f6ddb0fc19f06c2a92c40ddd9102", "is_reserved": 0, "fusion_lon": 0.0, "lat": 38.84586316666667, "is_disabled": 0, "name": "07d8f6ddb0fc19f06c2a92c40ddd9102", "fusion_lat": 0.0, "rental_uris": {"ios": "https://dc.lft.to/lastmile_qr_scan", "android": "https://dc.lft.to/lastmile_qr_scan"}, "lon": -76.98161, "type": "electric_scooter"}, {"bike_id": "d9d4fb170686f1e570569aa36cf73af2", "is_reserved": 0, "fusion_lon": 0.0, "lat": 38.93516433333333, "is_disabled": 0, "name": "d9d4fb170686f1e570569aa36cf73af2", "fusion_lat": 0.0, "rental_uris": {"ios": "https://dc.lft.to/lastmile_qr_scan", "android": "https://dc.lft.to/lastmile_qr_scan"}, "lon": -77.03298266666667, "type": "electric_scooter"}, {"bike_id": "2cef31a92450e2fcf658ad8f64ee7092", "is_reserved": 0, "fusion_lon": 0.0, "lat": 38.892204166666666, "is_disabled": 0, "name": "2cef31a92450e2fcf658ad8f64ee7092", "fusion_lat": 0.0, "rental_uris": {"ios": "https://dc.lft.to/lastmile_qr_scan", "android": "https://dc.lft.to/lastmile_qr_scan"}, "lon": -77.03219483333334, "type": "electric_scooter"}, {"bike_id": "bdc8e2151537a12adfc9ece14f54a0ac", "is_reserved": 0, "fusion_lon": 0.0, "lat": 38.9239815, "is_disabled": 0, "name": "bdc8e2151537a12adfc9ece14f54a0ac", "fusion_lat": 0.0, "rental_uris": {"ios": "https://dc.lft.to/lastmile_qr_scan", "android": "https://dc.lft.to/lastmile_qr_scan"}, "lon": -77.01958916666666, "type": "electric_scooter"}, {"bike_id": "26f7236b744970ff15b61a8ac07f1ab6", "is_reserved": 0, "fusion_lon": 0.0, "lat": 38.88673566666667, "is_disabled": 0, "name": "26f7236b744970ff15b61a8ac07f1ab6", "fusion_lat": 0.0, "rental_uris": {"ios": "https://dc.lft.to/lastmile_qr_scan", "android": "https://dc.lft.to/lastmile_qr_scan"}, "lon": -77.01369283333334, "type": "electric_scooter"}, {"bike_id": "e15f68d05de2ccddc8c182fef0b932c4", "is_reserved": 0, "fusion_lon": 0.0, "lat": 38.9120565, "is_disabled": 0, "name": "e15f68d05de2ccddc8c182fef0b932c4", "fusion_lat": 0.0, "rental_uris": {"ios": "https://dc.lft.to/lastmile_qr_scan", "android": "https://dc.lft.to/lastmile_qr_scan"}, "lon": -77.02962033333333, "type": "electric_scooter"}, {"bike_id": "b51b6b503b62e91fb4e0bfb701782617", "is_reserved": 0, "fusion_lon": 0.0, "lat": 38.915615, "is_disabled": 0, "name": "b51b6b503b62e91fb4e0bfb701782617", "fusion_lat": 0.0, "rental_uris": {"ios": "https://dc.lft.to/lastmile_qr_scan", "android": "https://dc.lft.to/lastmile_qr_scan"}, "lon": -77.033701, "type": "electric_scooter"}, {"bike_id": "d150cde6c584e559f0621bb16147a622", "is_reserved": 0, "fusion_lon": 0.0, "lat": 38.80227416666666, "is_disabled": 0, "name": "d150cde6c584e559f0621bb16147a622", "fusion_lat": 0.0, "rental_uris": {"ios": "https://dc.lft.to/lastmile_qr_scan", "android": "https://dc.lft.to/lastmile_qr_scan"}, "lon": -77.079172, "type": "electric_bike"}, {"bike_id": "1838e58f347b5e680beb3d706205ba68", "is_reserved": 0, "fusion_lon": 0.0, "lat": 38.89479516666667, "is_disabled": 0, "name": "1838e58f347b5e680beb3d706205ba68", "fusion_lat": 0.0, "rental_uris": {"ios": "https://dc.lft.to/lastmile_qr_scan", "android": "https://dc.lft.to/lastmile_qr_scan"}, "lon": -77.022886, "type": "electric_scooter"}, {"bike_id": "d4a28542efd70cfcaa0a3fc726f29b3f", "is_reserved": 0, "fusion_lon": 0.0, "lat": 38.84428283333333, "is_disabled": 0, "name": "d4a28542efd70cfcaa0a3fc726f29b3f", "fusion_lat": 0.0, "rental_uris": {"ios": "https://dc.lft.to/lastmile_qr_scan", "android": "https://dc.lft.to/lastmile_qr_scan"}, "lon": -76.99781033333333, "type": "electric_scooter"}, {"bike_id": "a086933473f9f6801300004e90d541f7", "is_reserved": 0, "fusion_lon": 0.0, "lat": 38.906927333333336, "is_disabled": 0, "name": "a086933473f9f6801300004e90d541f7", "fusion_lat": 0.0, "rental_uris": {"ios": "https://dc.lft.to/lastmile_qr_scan", "android": "https://dc.lft.to/lastmile_qr_scan"}, "lon": -76.95189883333333, "type": "electric_bike"}, {"bike_id": "0f16c72443f50188f510b55d6cada9b5", "is_reserved": 0, "fusion_lon": 0.0, "lat": 38.8650435, "is_disabled": 0, "name": "0f16c72443f50188f510b55d6cada9b5", "fusion_lat": 0.0, "rental_uris": {"ios": "https://dc.lft.to/lastmile_qr_scan", "android": "https://dc.lft.to/lastmile_qr_scan"}, "lon": -76.989769, "type": "electric_scooter"}, {"bike_id": "4cce10b31d72fa078a62b33810f36785", "is_reserved": 0, "fusion_lon": 0.0, "lat": 38.883703, "is_disabled": 0, "name": "4cce10b31d72fa078a62b33810f36785", "fusion_lat": 0.0, "rental_uris": {"ios": "https://dc.lft.to/lastmile_qr_scan", "android": "https://dc.lft.to/lastmile_qr_scan"}, "lon": -76.99529616666666, "type": "electric_scooter"}, {"bike_id": "eaca16ed236f5518262857d5a43054f0", "is_reserved": 0, "fusion_lon": 0.0, "lat": 38.9014955, "is_disabled": 0, "name": "eaca16ed236f5518262857d5a43054f0", "fusion_lat": 0.0, "rental_uris": {"ios": "https://dc.lft.to/lastmile_qr_scan", "android": "https://dc.lft.to/lastmile_qr_scan"}, "lon": -77.03324783333333, "type": "electric_scooter"}, {"bike_id": "cbe93367e23e3dbef6e3fe2a9cfd86e0", "is_reserved": 0, "fusion_lon": 0.0, "lat": 38.94407916666667, "is_disabled": 0, "name": "cbe93367e23e3dbef6e3fe2a9cfd86e0", "fusion_lat": 0.0, "rental_uris": {"ios": "https://dc.lft.to/lastmile_qr_scan", "android": "https://dc.lft.to/lastmile_qr_scan"}, "lon": -77.05523116666667, "type": "electric_scooter"}, {"bike_id": "25e125b804a35059064634a17547cc46", "is_reserved": 0, "fusion_lon": 0.0, "lat": 38.9295575, "is_disabled": 0, "name": "25e125b804a35059064634a17547cc46", "fusion_lat": 0.0, "rental_uris": {"ios": "https://dc.lft.to/lastmile_qr_scan", "android": "https://dc.lft.to/lastmile_qr_scan"}, "lon": -77.05516716666666, "type": "electric_scooter"}, {"bike_id": "9ae8fe27a5bc323dc0c226608469743d", "is_reserved": 0, "fusion_lon": 0.0, "lat": 38.9045525, "is_disabled": 0, "name": "9ae8fe27a5bc323dc0c226608469743d", "fusion_lat": 0.0, "rental_uris": {"ios": "https://dc.lft.to/lastmile_qr_scan", "android": "https://dc.lft.to/lastmile_qr_scan"}, "lon": -77.03229766666666, "type": "electric_scooter"}, {"bike_id": "6a557dd94ecd45ee08f322dcc8959532", "is_reserved": 0, "fusion_lon": 0.0, "lat": 38.931978, "is_disabled": 0, "name": "6a557dd94ecd45ee08f322dcc8959532", "fusion_lat": 0.0, "rental_uris": {"ios": "https://dc.lft.to/lastmile_qr_scan", "android": "https://dc.lft.to/lastmile_qr_scan"}, "lon": -77.03882933333334, "type": "electric_scooter"}, {"bike_id": "d0df311201ac77f7b86197c95dc0c68a", "is_reserved": 0, "fusion_lon": 0.0, "lat": 38.9319295, "is_disabled": 0, "name": "d0df311201ac77f7b86197c95dc0c68a", "fusion_lat": 0.0, "rental_uris": {"ios": "https://dc.lft.to/lastmile_qr_scan", "android": "https://dc.lft.to/lastmile_qr_scan"}, "lon": -77.02504816666666, "type": "electric_scooter"}, {"bike_id": "f3258a4bdad57a42e3786f18b98c19f9", "is_reserved": 0, "fusion_lon": 0.0, "lat": 38.958795333333335, "is_disabled": 0, "name": "f3258a4bdad57a42e3786f18b98c19f9", "fusion_lat": 0.0, "rental_uris": {"ios": "https://dc.lft.to/lastmile_qr_scan", "android": "https://dc.lft.to/lastmile_qr_scan"}, "lon": -77.0103435, "type": "electric_bike"}, {"bike_id": "37797a78ad59dcb957d12465d5f873aa", "is_reserved": 0, "fusion_lon": 0.0, "lat": 38.9104, "is_disabled": 0, "name": "37797a78ad59dcb957d12465d5f873aa", "fusion_lat": 0.0, "rental_uris": {"ios": "https://dc.lft.to/lastmile_qr_scan", "android": "https://dc.lft.to/lastmile_qr_scan"}, "lon": -77.04261783333334, "type": "electric_scooter"}, {"bike_id": "157d0759d3654e874ce9ada1451b1389", "is_reserved": 0, "fusion_lon": 0.0, "lat": 38.905462, "is_disabled": 0, "name": "157d0759d3654e874ce9ada1451b1389", "fusion_lat": 0.0, "rental_uris": {"ios": "https://dc.lft.to/lastmile_qr_scan", "android": "https://dc.lft.to/lastmile_qr_scan"}, "lon": -77.047494, "type": "electric_scooter"}, {"bike_id": "371ea3962f4624123c667c4ee5f6ff36", "is_reserved": 0, "fusion_lon": 0.0, "lat": 38.8661625, "is_disabled": 0, "name": "371ea3962f4624123c667c4ee5f6ff36", "fusion_lat": 0.0, "rental_uris": {"ios": "https://dc.lft.to/lastmile_qr_scan", "android": "https://dc.lft.to/lastmile_qr_scan"}, "lon": -76.98651583333333, "type": "electric_scooter"}, {"bike_id": "d127358b186714a7dd0f6de3515c2564", "is_reserved": 0, "fusion_lon": 0.0, "lat": 38.91120816666667, "is_disabled": 0, "name": "d127358b186714a7dd0f6de3515c2564", "fusion_lat": 0.0, "rental_uris": {"ios": "https://dc.lft.to/lastmile_qr_scan", "android": "https://dc.lft.to/lastmile_qr_scan"}, "lon": -77.00602583333334, "type": "electric_scooter"}, {"bike_id": "93285b04a9806cd8332418cbdfca0fcc", "is_reserved": 0, "fusion_lon": 0.0, "lat": 38.90366916666667, "is_disabled": 0, "name": "93285b04a9806cd8332418cbdfca0fcc", "fusion_lat": 0.0, "rental_uris": {"ios": "https://dc.lft.to/lastmile_qr_scan", "android": "https://dc.lft.to/lastmile_qr_scan"}, "lon": -77.04486233333333, "type": "electric_scooter"}, {"bike_id": "0e2b4bca1b9715d382678e7342701cd4", "is_reserved": 0, "fusion_lon": 0.0, "lat": 38.897276, "is_disabled": 0, "name": "0e2b4bca1b9715d382678e7342701cd4", "fusion_lat": 0.0, "rental_uris": {"ios": "https://dc.lft.to/lastmile_qr_scan", "android": "https://dc.lft.to/lastmile_qr_scan"}, "lon": -77.05570783333333, "type": "electric_scooter"}, {"bike_id": "6fde5e10337c3856f231a6a191be5cd6", "is_reserved": 0, "fusion_lon": 0.0, "lat": 38.90792883333334, "is_disabled": 0, "name": "6fde5e10337c3856f231a6a191be5cd6", "fusion_lat": 0.0, "rental_uris": {"ios": "https://dc.lft.to/lastmile_qr_scan", "android": "https://dc.lft.to/lastmile_qr_scan"}, "lon": -76.99698433333333, "type": "electric_scooter"}, {"bike_id": "0b8bfbe46b464d90745bf07645dec05f", "is_reserved": 0, "fusion_lon": 0.0, "lat": 38.88844483333333, "is_disabled": 0, "name": "0b8bfbe46b464d90745bf07645dec05f", "fusion_lat": 0.0, "rental_uris": {"ios": "https://dc.lft.to/lastmile_qr_scan", "android": "https://dc.lft.to/lastmile_qr_scan"}, "lon": -76.9268115, "type": "electric_scooter"}, {"bike_id": "92373fdfc77c1e4685642c1d167bd7df", "is_reserved": 0, "fusion_lon": 0.0, "lat": 38.9480125, "is_disabled": 0, "name": "92373fdfc77c1e4685642c1d167bd7df", "fusion_lat": 0.0, "rental_uris": {"ios": "https://dc.lft.to/lastmile_qr_scan", "android": "https://dc.lft.to/lastmile_qr_scan"}, "lon": -77.07906, "type": "electric_scooter"}, {"bike_id": "b90e940053fddcf505fb8b134a94b2bf", "is_reserved": 0, "fusion_lon": 0.0, "lat": 38.9309065, "is_disabled": 0, "name": "b90e940053fddcf505fb8b134a94b2bf", "fusion_lat": 0.0, "rental_uris": {"ios": "https://dc.lft.to/lastmile_qr_scan", "android": "https://dc.lft.to/lastmile_qr_scan"}, "lon": -77.03141016666666, "type": "electric_scooter"}, {"bike_id": "0f0fd215ed5ffd7ce7cf2beb3d347835", "is_reserved": 0, "fusion_lon": 0.0, "lat": 38.887518166666666, "is_disabled": 0, "name": "0f0fd215ed5ffd7ce7cf2beb3d347835", "fusion_lat": 0.0, "rental_uris": {"ios": "https://dc.lft.to/lastmile_qr_scan", "android": "https://dc.lft.to/lastmile_qr_scan"}, "lon": -77.03160833333334, "type": "electric_scooter"}, {"bike_id": "076fea5969f056bea905effefac4b995", "is_reserved": 0, "fusion_lon": 0.0, "lat": 38.949692, "is_disabled": 0, "name": "076fea5969f056bea905effefac4b995", "fusion_lat": 0.0, "rental_uris": {"ios": "https://dc.lft.to/lastmile_qr_scan", "android": "https://dc.lft.to/lastmile_qr_scan"}, "lon": -76.97283116666667, "type": "electric_bike"}, {"bike_id": "0f685affeb565ad7528007efb07b3da2", "is_reserved": 0, "fusion_lon": 0.0, "lat": 38.903740166666665, "is_disabled": 0, "name": "0f685affeb565ad7528007efb07b3da2", "fusion_lat": 0.0, "rental_uris": {"ios": "https://dc.lft.to/lastmile_qr_scan", "android": "https://dc.lft.to/lastmile_qr_scan"}, "lon": -77.04499383333334, "type": "electric_scooter"}, {"bike_id": "7c29a7a3bf752189ef5d1748cca079f8", "is_reserved": 0, "fusion_lon": 0.0, "lat": 38.86615366666667, "is_disabled": 0, "name": "7c29a7a3bf752189ef5d1748cca079f8", "fusion_lat": 0.0, "rental_uris": {"ios": "https://dc.lft.to/lastmile_qr_scan", "android": "https://dc.lft.to/lastmile_qr_scan"}, "lon": -76.9457255, "type": "electric_bike"}, {"bike_id": "318712d94f2c3ce99bbfd72ed7356344", "is_reserved": 0, "fusion_lon": 0.0, "lat": 38.9007735, "is_disabled": 0, "name": "318712d94f2c3ce99bbfd72ed7356344", "fusion_lat": 0.0, "rental_uris": {"ios": "https://dc.lft.to/lastmile_qr_scan", "android": "https://dc.lft.to/lastmile_qr_scan"}, "lon": -76.93857416666667, "type": "electric_scooter"}, {"bike_id": "1e8134c4c9dd8c4dc055a550707cee22", "is_reserved": 0, "fusion_lon": 0.0, "lat": 38.86009116666666, "is_disabled": 0, "name": "1e8134c4c9dd8c4dc055a550707cee22", "fusion_lat": 0.0, "rental_uris": {"ios": "https://dc.lft.to/lastmile_qr_scan", "android": "https://dc.lft.to/lastmile_qr_scan"}, "lon": -77.05773183333334, "type": "electric_bike"}, {"bike_id": "efdb817d4e2e81221f22d08790c5bf0e", "is_reserved": 0, "fusion_lon": 0.0, "lat": 38.94170733333333, "is_disabled": 0, "name": "efdb817d4e2e81221f22d08790c5bf0e", "fusion_lat": 0.0, "rental_uris": {"ios": "https://dc.lft.to/lastmile_qr_scan", "android": "https://dc.lft.to/lastmile_qr_scan"}, "lon": -77.02503316666666, "type": "electric_scooter"}, {"bike_id": "e40d4c942ab2c42c822f3e01b98dff2f", "is_reserved": 0, "fusion_lon": 0.0, "lat": 38.925389, "is_disabled": 0, "name": "e40d4c942ab2c42c822f3e01b98dff2f", "fusion_lat": 0.0, "rental_uris": {"ios": "https://dc.lft.to/lastmile_qr_scan", "android": "https://dc.lft.to/lastmile_qr_scan"}, "lon": -77.03461333333334, "type": "electric_scooter"}, {"bike_id": "41fa7c5d2a160083b27b3ae490b3171b", "is_reserved": 0, "fusion_lon": 0.0, "lat": 38.921397, "is_disabled": 0, "name": "41fa7c5d2a160083b27b3ae490b3171b", "fusion_lat": 0.0, "rental_uris": {"ios": "https://dc.lft.to/lastmile_qr_scan", "android": "https://dc.lft.to/lastmile_qr_scan"}, "lon": -77.01794716666667, "type": "electric_scooter"}, {"bike_id": "bf1138ad4567956a468d40c2d7ea1cef", "is_reserved": 0, "fusion_lon": 0.0, "lat": 38.963907666666664, "is_disabled": 0, "name": "bf1138ad4567956a468d40c2d7ea1cef", "fusion_lat": 0.0, "rental_uris": {"ios": "https://dc.lft.to/lastmile_qr_scan", "android": "https://dc.lft.to/lastmile_qr_scan"}, "lon": -77.025892, "type": "electric_scooter"}, {"bike_id": "5ea5e440cb1830a249c26c9af7307929", "is_reserved": 0, "fusion_lon": 0.0, "lat": 38.866216333333334, "is_disabled": 0, "name": "5ea5e440cb1830a249c26c9af7307929", "fusion_lat": 0.0, "rental_uris": {"ios": "https://dc.lft.to/lastmile_qr_scan", "android": "https://dc.lft.to/lastmile_qr_scan"}, "lon": -76.98698933333333, "type": "electric_scooter"}, {"bike_id": "0fb62e4884ea3ed8eec83f0eb39576b3", "is_reserved": 0, "fusion_lon": 0.0, "lat": 38.92353083333333, "is_disabled": 0, "name": "0fb62e4884ea3ed8eec83f0eb39576b3", "fusion_lat": 0.0, "rental_uris": {"ios": "https://dc.lft.to/lastmile_qr_scan", "android": "https://dc.lft.to/lastmile_qr_scan"}, "lon": -77.03506666666667, "type": "electric_scooter"}, {"bike_id": "f21e0a5f3473c77ab77c240dd5b5691f", "is_reserved": 0, "fusion_lon": 0.0, "lat": 38.898505666666665, "is_disabled": 0, "name": "f21e0a5f3473c77ab77c240dd5b5691f", "fusion_lat": 0.0, "rental_uris": {"ios": "https://dc.lft.to/lastmile_qr_scan", "android": "https://dc.lft.to/lastmile_qr_scan"}, "lon": -77.02874316666667, "type": "electric_scooter"}, {"bike_id": "09712c10ab3b5a3edfe68c4bd96e9c85", "is_reserved": 0, "fusion_lon": 0.0, "lat": 38.90505366666667, "is_disabled": 0, "name": "09712c10ab3b5a3edfe68c4bd96e9c85", "fusion_lat": 0.0, "rental_uris": {"ios": "https://dc.lft.to/lastmile_qr_scan", "android": "https://dc.lft.to/lastmile_qr_scan"}, "lon": -77.02946733333333, "type": "electric_scooter"}, {"bike_id": "6261d190113b5c90c8b4bde0170a8347", "is_reserved": 0, "fusion_lon": 0.0, "lat": 38.920466833333336, "is_disabled": 0, "name": "6261d190113b5c90c8b4bde0170a8347", "fusion_lat": 0.0, "rental_uris": {"ios": "https://dc.lft.to/lastmile_qr_scan", "android": "https://dc.lft.to/lastmile_qr_scan"}, "lon": -77.0257835, "type": "electric_scooter"}, {"bike_id": "34cd115034bbacaa943aa5218708d420", "is_reserved": 0, "fusion_lon": 0.0, "lat": 38.91883833333333, "is_disabled": 0, "name": "34cd115034bbacaa943aa5218708d420", "fusion_lat": 0.0, "rental_uris": {"ios": "https://dc.lft.to/lastmile_qr_scan", "android": "https://dc.lft.to/lastmile_qr_scan"}, "lon": -77.0297855, "type": "electric_scooter"}, {"bike_id": "035e6c504f9d0505fde4f219ee8cc559", "is_reserved": 0, "fusion_lon": 0.0, "lat": 38.8429235, "is_disabled": 0, "name": "035e6c504f9d0505fde4f219ee8cc559", "fusion_lat": 0.0, "rental_uris": {"ios": "https://dc.lft.to/lastmile_qr_scan", "android": "https://dc.lft.to/lastmile_qr_scan"}, "lon": -76.9994825, "type": "electric_scooter"}, {"bike_id": "3854b88e083b6e27af86a1ccb0d33c2e", "is_reserved": 0, "fusion_lon": 0.0, "lat": 38.884871833333335, "is_disabled": 0, "name": "3854b88e083b6e27af86a1ccb0d33c2e", "fusion_lat": 0.0, "rental_uris": {"ios": "https://dc.lft.to/lastmile_qr_scan", "android": "https://dc.lft.to/lastmile_qr_scan"}, "lon": -77.01530366666667, "type": "electric_scooter"}, {"bike_id": "67867579225b8a17ebf8b00ed243b479", "is_reserved": 0, "fusion_lon": 0.0, "lat": 38.85745983333333, "is_disabled": 0, "name": "67867579225b8a17ebf8b00ed243b479", "fusion_lat": 0.0, "rental_uris": {"ios": "https://dc.lft.to/lastmile_qr_scan", "android": "https://dc.lft.to/lastmile_qr_scan"}, "lon": -76.98847616666667, "type": "electric_bike"}, {"bike_id": "1f267b3f627f1e1475592ecc8a486b06", "is_reserved": 0, "fusion_lon": 0.0, "lat": 38.90555616666666, "is_disabled": 0, "name": "1f267b3f627f1e1475592ecc8a486b06", "fusion_lat": 0.0, "rental_uris": {"ios": "https://dc.lft.to/lastmile_qr_scan", "android": "https://dc.lft.to/lastmile_qr_scan"}, "lon": -77.0381775, "type": "electric_scooter"}, {"bike_id": "7dc37b360b8c6b639c04c15638f460c7", "is_reserved": 0, "fusion_lon": 0.0, "lat": 38.93542683333333, "is_disabled": 0, "name": "7dc37b360b8c6b639c04c15638f460c7", "fusion_lat": 0.0, "rental_uris": {"ios": "https://dc.lft.to/lastmile_qr_scan", "android": "https://dc.lft.to/lastmile_qr_scan"}, "lon": -77.03283333333333, "type": "electric_scooter"}, {"bike_id": "c01037c41f19659389166c1e631173b3", "is_reserved": 0, "fusion_lon": 0.0, "lat": 38.892239333333336, "is_disabled": 0, "name": "c01037c41f19659389166c1e631173b3", "fusion_lat": 0.0, "rental_uris": {"ios": "https://dc.lft.to/lastmile_qr_scan", "android": "https://dc.lft.to/lastmile_qr_scan"}, "lon": -77.02806416666667, "type": "electric_scooter"}, {"bike_id": "00b3ab84c59d980209a027ccb0056d96", "is_reserved": 0, "fusion_lon": 0.0, "lat": 38.88361033333334, "is_disabled": 0, "name": "00b3ab84c59d980209a027ccb0056d96", "fusion_lat": 0.0, "rental_uris": {"ios": "https://dc.lft.to/lastmile_qr_scan", "android": "https://dc.lft.to/lastmile_qr_scan"}, "lon": -77.0317455, "type": "electric_scooter"}, {"bike_id": "122b302025ff1be2910414d46563372e", "is_reserved": 0, "fusion_lon": 0.0, "lat": 38.93378833333333, "is_disabled": 0, "name": "122b302025ff1be2910414d46563372e", "fusion_lat": 0.0, "rental_uris": {"ios": "https://dc.lft.to/lastmile_qr_scan", "android": "https://dc.lft.to/lastmile_qr_scan"}, "lon": -77.02908916666667, "type": "electric_scooter"}, {"bike_id": "84fd38fb312a3dadd02b96aa216b624a", "is_reserved": 0, "fusion_lon": 0.0, "lat": 38.92468133333333, "is_disabled": 0, "name": "84fd38fb312a3dadd02b96aa216b624a", "fusion_lat": 0.0, "rental_uris": {"ios": "https://dc.lft.to/lastmile_qr_scan", "android": "https://dc.lft.to/lastmile_qr_scan"}, "lon": -77.0227155, "type": "electric_scooter"}, {"bike_id": "1a58d839820ea55bc887329ee742a481", "is_reserved": 0, "fusion_lon": 0.0, "lat": 38.908441833333335, "is_disabled": 0, "name": "1a58d839820ea55bc887329ee742a481", "fusion_lat": 0.0, "rental_uris": {"ios": "https://dc.lft.to/lastmile_qr_scan", "android": "https://dc.lft.to/lastmile_qr_scan"}, "lon": -77.08531116666667, "type": "electric_scooter"}, {"bike_id": "b9e0fc890b72cc3698f4cf8263e60ad4", "is_reserved": 0, "fusion_lon": 0.0, "lat": 38.8987315, "is_disabled": 0, "name": "b9e0fc890b72cc3698f4cf8263e60ad4", "fusion_lat": 0.0, "rental_uris": {"ios": "https://dc.lft.to/lastmile_qr_scan", "android": "https://dc.lft.to/lastmile_qr_scan"}, "lon": -76.931845, "type": "electric_scooter"}, {"bike_id": "5cfbe997fff8e1d4986860c1db7361df", "is_reserved": 0, "fusion_lon": 0.0, "lat": 38.909857833333334, "is_disabled": 0, "name": "5cfbe997fff8e1d4986860c1db7361df", "fusion_lat": 0.0, "rental_uris": {"ios": "https://dc.lft.to/lastmile_qr_scan", "android": "https://dc.lft.to/lastmile_qr_scan"}, "lon": -77.03199616666667, "type": "electric_scooter"}, {"bike_id": "e37aaa4dc42bdac2cab25f174ce529df", "is_reserved": 0, "fusion_lon": 0.0, "lat": 38.9261375, "is_disabled": 0, "name": "e37aaa4dc42bdac2cab25f174ce529df", "fusion_lat": 0.0, "rental_uris": {"ios": "https://dc.lft.to/lastmile_qr_scan", "android": "https://dc.lft.to/lastmile_qr_scan"}, "lon": -77.044201, "type": "electric_scooter"}, {"bike_id": "27ce021dd0f98d803c86483de2d910f8", "is_reserved": 0, "fusion_lon": 0.0, "lat": 38.86287516666667, "is_disabled": 0, "name": "27ce021dd0f98d803c86483de2d910f8", "fusion_lat": 0.0, "rental_uris": {"ios": "https://dc.lft.to/lastmile_qr_scan", "android": "https://dc.lft.to/lastmile_qr_scan"}, "lon": -76.9923595, "type": "electric_scooter"}, {"bike_id": "535647c474353cb5129cbd39e213fb8b", "is_reserved": 0, "fusion_lon": 0.0, "lat": 38.89231066666667, "is_disabled": 0, "name": "535647c474353cb5129cbd39e213fb8b", "fusion_lat": 0.0, "rental_uris": {"ios": "https://dc.lft.to/lastmile_qr_scan", "android": "https://dc.lft.to/lastmile_qr_scan"}, "lon": -77.050008, "type": "electric_scooter"}, {"bike_id": "285d7cefd62631332301c3d1e4c16c08", "is_reserved": 0, "fusion_lon": 0.0, "lat": 38.894779666666665, "is_disabled": 0, "name": "285d7cefd62631332301c3d1e4c16c08", "fusion_lat": 0.0, "rental_uris": {"ios": "https://dc.lft.to/lastmile_qr_scan", "android": "https://dc.lft.to/lastmile_qr_scan"}, "lon": -76.94870866666666, "type": "electric_scooter"}, {"bike_id": "26c0f826488cb8a067a136263f615325", "is_reserved": 0, "fusion_lon": 0.0, "lat": 38.920116166666666, "is_disabled": 0, "name": "26c0f826488cb8a067a136263f615325", "fusion_lat": 0.0, "rental_uris": {"ios": "https://dc.lft.to/lastmile_qr_scan", "android": "https://dc.lft.to/lastmile_qr_scan"}, "lon": -77.032179, "type": "electric_scooter"}, {"bike_id": "8bb95a90c185daa345d8b899c100d520", "is_reserved": 0, "fusion_lon": 0.0, "lat": 38.90667416666667, "is_disabled": 0, "name": "8bb95a90c185daa345d8b899c100d520", "fusion_lat": 0.0, "rental_uris": {"ios": "https://dc.lft.to/lastmile_qr_scan", "android": "https://dc.lft.to/lastmile_qr_scan"}, "lon": -76.9878445, "type": "electric_scooter"}, {"bike_id": "44ec3c89239b9ed15d75ce88ec14c06f", "is_reserved": 0, "fusion_lon": 0.0, "lat": 38.9257005, "is_disabled": 0, "name": "44ec3c89239b9ed15d75ce88ec14c06f", "fusion_lat": 0.0, "rental_uris": {"ios": "https://dc.lft.to/lastmile_qr_scan", "android": "https://dc.lft.to/lastmile_qr_scan"}, "lon": -77.031006, "type": "electric_scooter"}, {"bike_id": "38ae1a3a730b7084994f96c0cb5dd058", "is_reserved": 0, "fusion_lon": 0.0, "lat": 38.89950266666666, "is_disabled": 0, "name": "38ae1a3a730b7084994f96c0cb5dd058", "fusion_lat": 0.0, "rental_uris": {"ios": "https://dc.lft.to/lastmile_qr_scan", "android": "https://dc.lft.to/lastmile_qr_scan"}, "lon": -76.9755385, "type": "electric_scooter"}, {"bike_id": "cf101b540e8b487661ffb1e1a6387175", "is_reserved": 0, "fusion_lon": 0.0, "lat": 38.86199166666667, "is_disabled": 0, "name": "cf101b540e8b487661ffb1e1a6387175", "fusion_lat": 0.0, "rental_uris": {"ios": "https://dc.lft.to/lastmile_qr_scan", "android": "https://dc.lft.to/lastmile_qr_scan"}, "lon": -76.994647, "type": "electric_scooter"}, {"bike_id": "ec9ad4e128c309cc1cdcd4510820dbbb", "is_reserved": 0, "fusion_lon": 0.0, "lat": 38.9084965, "is_disabled": 0, "name": "ec9ad4e128c309cc1cdcd4510820dbbb", "fusion_lat": 0.0, "rental_uris": {"ios": "https://dc.lft.to/lastmile_qr_scan", "android": "https://dc.lft.to/lastmile_qr_scan"}, "lon": -77.045013, "type": "electric_scooter"}, {"bike_id": "0d994eeda05684c44e3637d3123dbd17", "is_reserved": 0, "fusion_lon": 0.0, "lat": 38.90237583333333, "is_disabled": 0, "name": "0d994eeda05684c44e3637d3123dbd17", "fusion_lat": 0.0, "rental_uris": {"ios": "https://dc.lft.to/lastmile_qr_scan", "android": "https://dc.lft.to/lastmile_qr_scan"}, "lon": -77.03253783333334, "type": "electric_scooter"}, {"bike_id": "a7f2769a2be5d9dd1370ccabea9f0f6f", "is_reserved": 0, "fusion_lon": 0.0, "lat": 38.905019833333334, "is_disabled": 0, "name": "a7f2769a2be5d9dd1370ccabea9f0f6f", "fusion_lat": 0.0, "rental_uris": {"ios": "https://dc.lft.to/lastmile_qr_scan", "android": "https://dc.lft.to/lastmile_qr_scan"}, "lon": -76.97924266666666, "type": "electric_scooter"}, {"bike_id": "c424f8890d0ffd968f88d17a7ea39b3e", "is_reserved": 0, "fusion_lon": 0.0, "lat": 38.918406, "is_disabled": 0, "name": "c424f8890d0ffd968f88d17a7ea39b3e", "fusion_lat": 0.0, "rental_uris": {"ios": "https://dc.lft.to/lastmile_qr_scan", "android": "https://dc.lft.to/lastmile_qr_scan"}, "lon": -77.02308466666666, "type": "electric_scooter"}, {"bike_id": "9dc38c6bb4a9c94b18cb171c35b0346f", "is_reserved": 0, "fusion_lon": 0.0, "lat": 38.9103215, "is_disabled": 0, "name": "9dc38c6bb4a9c94b18cb171c35b0346f", "fusion_lat": 0.0, "rental_uris": {"ios": "https://dc.lft.to/lastmile_qr_scan", "android": "https://dc.lft.to/lastmile_qr_scan"}, "lon": -77.043893, "type": "electric_scooter"}, {"bike_id": "fad338312040be751c39307e78fe0921", "is_reserved": 0, "fusion_lon": 0.0, "lat": 38.959043333333334, "is_disabled": 0, "name": "fad338312040be751c39307e78fe0921", "fusion_lat": 0.0, "rental_uris": {"ios": "https://dc.lft.to/lastmile_qr_scan", "android": "https://dc.lft.to/lastmile_qr_scan"}, "lon": -76.92485216666667, "type": "electric_bike"}, {"bike_id": "4b2aa889324c83adc5a7e9bf7a2ef5ac", "is_reserved": 0, "fusion_lon": 0.0, "lat": 38.875492333333334, "is_disabled": 0, "name": "4b2aa889324c83adc5a7e9bf7a2ef5ac", "fusion_lat": 0.0, "rental_uris": {"ios": "https://dc.lft.to/lastmile_qr_scan", "android": "https://dc.lft.to/lastmile_qr_scan"}, "lon": -76.96490316666667, "type": "electric_scooter"}, {"bike_id": "254105a64fb627ffa2be190ca7ff5dd6", "is_reserved": 0, "fusion_lon": 0.0, "lat": 38.895425333333336, "is_disabled": 0, "name": "254105a64fb627ffa2be190ca7ff5dd6", "fusion_lat": 0.0, "rental_uris": {"ios": "https://dc.lft.to/lastmile_qr_scan", "android": "https://dc.lft.to/lastmile_qr_scan"}, "lon": -77.048426, "type": "electric_scooter"}, {"bike_id": "ccffc1386fc0dcdc832d000d38957869", "is_reserved": 0, "fusion_lon": 0.0, "lat": 38.90001066666667, "is_disabled": 0, "name": "ccffc1386fc0dcdc832d000d38957869", "fusion_lat": 0.0, "rental_uris": {"ios": "https://dc.lft.to/lastmile_qr_scan", "android": "https://dc.lft.to/lastmile_qr_scan"}, "lon": -77.0523425, "type": "electric_scooter"}, {"bike_id": "206b24551b5d1069d304003802f89389", "is_reserved": 0, "fusion_lon": 0.0, "lat": 38.89217983333333, "is_disabled": 0, "name": "206b24551b5d1069d304003802f89389", "fusion_lat": 0.0, "rental_uris": {"ios": "https://dc.lft.to/lastmile_qr_scan", "android": "https://dc.lft.to/lastmile_qr_scan"}, "lon": -77.04367683333334, "type": "electric_scooter"}, {"bike_id": "d66f06c4a38786596669d2008ea1072a", "is_reserved": 0, "fusion_lon": 0.0, "lat": 38.911059333333334, "is_disabled": 0, "name": "d66f06c4a38786596669d2008ea1072a", "fusion_lat": 0.0, "rental_uris": {"ios": "https://dc.lft.to/lastmile_qr_scan", "android": "https://dc.lft.to/lastmile_qr_scan"}, "lon": -77.04834066666666, "type": "electric_scooter"}, {"bike_id": "f529bf92759e025990c4f6d92e3f620f", "is_reserved": 0, "fusion_lon": 0.0, "lat": 38.89216116666667, "is_disabled": 0, "name": "f529bf92759e025990c4f6d92e3f620f", "fusion_lat": 0.0, "rental_uris": {"ios": "https://dc.lft.to/lastmile_qr_scan", "android": "https://dc.lft.to/lastmile_qr_scan"}, "lon": -77.02617766666667, "type": "electric_scooter"}, {"bike_id": "cde8c2f75db973a5b53b606d6aeca2f5", "is_reserved": 0, "fusion_lon": 0.0, "lat": 38.906532, "is_disabled": 0, "name": "cde8c2f75db973a5b53b606d6aeca2f5", "fusion_lat": 0.0, "rental_uris": {"ios": "https://dc.lft.to/lastmile_qr_scan", "android": "https://dc.lft.to/lastmile_qr_scan"}, "lon": -77.0270265, "type": "electric_scooter"}, {"bike_id": "93962178869ee537de9b0fe8c13ce182", "is_reserved": 0, "fusion_lon": 0.0, "lat": 38.93343983333333, "is_disabled": 0, "name": "93962178869ee537de9b0fe8c13ce182", "fusion_lat": 0.0, "rental_uris": {"ios": "https://dc.lft.to/lastmile_qr_scan", "android": "https://dc.lft.to/lastmile_qr_scan"}, "lon": -77.057128, "type": "electric_scooter"}, {"bike_id": "868983438c785e28b406f8ee8989c866", "is_reserved": 0, "fusion_lon": 0.0, "lat": 38.89981066666667, "is_disabled": 0, "name": "868983438c785e28b406f8ee8989c866", "fusion_lat": 0.0, "rental_uris": {"ios": "https://dc.lft.to/lastmile_qr_scan", "android": "https://dc.lft.to/lastmile_qr_scan"}, "lon": -77.00930633333333, "type": "electric_scooter"}, {"bike_id": "96680d49750ca4783113713ff69c97e6", "is_reserved": 0, "fusion_lon": 0.0, "lat": 38.92469616666666, "is_disabled": 0, "name": "96680d49750ca4783113713ff69c97e6", "fusion_lat": 0.0, "rental_uris": {"ios": "https://dc.lft.to/lastmile_qr_scan", "android": "https://dc.lft.to/lastmile_qr_scan"}, "lon": -77.02273533333333, "type": "electric_scooter"}, {"bike_id": "012ffad0f2ede8da2e790c7a2ab1eb4c", "is_reserved": 0, "fusion_lon": 0.0, "lat": 38.898285666666666, "is_disabled": 0, "name": "012ffad0f2ede8da2e790c7a2ab1eb4c", "fusion_lat": 0.0, "rental_uris": {"ios": "https://dc.lft.to/lastmile_qr_scan", "android": "https://dc.lft.to/lastmile_qr_scan"}, "lon": -76.980326, "type": "electric_scooter"}, {"bike_id": "ea3c3ad123ec07e11bead07e2264b592", "is_reserved": 0, "fusion_lon": 0.0, "lat": 38.944185166666664, "is_disabled": 0, "name": "ea3c3ad123ec07e11bead07e2264b592", "fusion_lat": 0.0, "rental_uris": {"ios": "https://dc.lft.to/lastmile_qr_scan", "android": "https://dc.lft.to/lastmile_qr_scan"}, "lon": -77.06324466666666, "type": "electric_scooter"}, {"bike_id": "eb6aa54e39e57e5a55374a0b9d716a38", "is_reserved": 0, "fusion_lon": 0.0, "lat": 38.89196883333334, "is_disabled": 0, "name": "eb6aa54e39e57e5a55374a0b9d716a38", "fusion_lat": 0.0, "rental_uris": {"ios": "https://dc.lft.to/lastmile_qr_scan", "android": "https://dc.lft.to/lastmile_qr_scan"}, "lon": -77.01551266666667, "type": "electric_scooter"}, {"bike_id": "0c40b16dab609040dc476480225a4287", "is_reserved": 0, "fusion_lon": 0.0, "lat": 38.90262533333333, "is_disabled": 0, "name": "0c40b16dab609040dc476480225a4287", "fusion_lat": 0.0, "rental_uris": {"ios": "https://dc.lft.to/lastmile_qr_scan", "android": "https://dc.lft.to/lastmile_qr_scan"}, "lon": -77.0346925, "type": "electric_scooter"}, {"bike_id": "ab379ba2aab5fb83ab1395fb09a526aa", "is_reserved": 0, "fusion_lon": 0.0, "lat": 39.03050316666667, "is_disabled": 0, "name": "ab379ba2aab5fb83ab1395fb09a526aa", "fusion_lat": 0.0, "rental_uris": {"ios": "https://dc.lft.to/lastmile_qr_scan", "android": "https://dc.lft.to/lastmile_qr_scan"}, "lon": -77.094803, "type": "electric_bike"}, {"bike_id": "4ad9f7dfdb49c317f6d5e5e6276ec706", "is_reserved": 0, "fusion_lon": 0.0, "lat": 38.887046166666664, "is_disabled": 0, "name": "4ad9f7dfdb49c317f6d5e5e6276ec706", "fusion_lat": 0.0, "rental_uris": {"ios": "https://dc.lft.to/lastmile_qr_scan", "android": "https://dc.lft.to/lastmile_qr_scan"}, "lon": -77.00151866666667, "type": "electric_scooter"}, {"bike_id": "d2f1e001820324615e8a237e506e47dc", "is_reserved": 0, "fusion_lon": 0.0, "lat": 38.91779533333333, "is_disabled": 0, "name": "d2f1e001820324615e8a237e506e47dc", "fusion_lat": 0.0, "rental_uris": {"ios": "https://dc.lft.to/lastmile_qr_scan", "android": "https://dc.lft.to/lastmile_qr_scan"}, "lon": -77.04421216666667, "type": "electric_scooter"}, {"bike_id": "eab7de8407e59eab0ff0fa196d10678a", "is_reserved": 0, "fusion_lon": 0.0, "lat": 38.90829866666667, "is_disabled": 0, "name": "eab7de8407e59eab0ff0fa196d10678a", "fusion_lat": 0.0, "rental_uris": {"ios": "https://dc.lft.to/lastmile_qr_scan", "android": "https://dc.lft.to/lastmile_qr_scan"}, "lon": -76.997004, "type": "electric_scooter"}, {"bike_id": "bacf27c6ac4e523c43dbd602463ecbf0", "is_reserved": 0, "fusion_lon": 0.0, "lat": 38.89228383333333, "is_disabled": 0, "name": "bacf27c6ac4e523c43dbd602463ecbf0", "fusion_lat": 0.0, "rental_uris": {"ios": "https://dc.lft.to/lastmile_qr_scan", "android": "https://dc.lft.to/lastmile_qr_scan"}, "lon": -77.0030015, "type": "electric_scooter"}, {"bike_id": "d8a07d71b3cd77a88918b2833317b328", "is_reserved": 0, "fusion_lon": 0.0, "lat": 38.91777033333334, "is_disabled": 0, "name": "d8a07d71b3cd77a88918b2833317b328", "fusion_lat": 0.0, "rental_uris": {"ios": "https://dc.lft.to/lastmile_qr_scan", "android": "https://dc.lft.to/lastmile_qr_scan"}, "lon": -76.973367, "type": "electric_scooter"}, {"bike_id": "d34f006365d5670d731d045caf862751", "is_reserved": 0, "fusion_lon": 0.0, "lat": 38.90512533333333, "is_disabled": 0, "name": "d34f006365d5670d731d045caf862751", "fusion_lat": 0.0, "rental_uris": {"ios": "https://dc.lft.to/lastmile_qr_scan", "android": "https://dc.lft.to/lastmile_qr_scan"}, "lon": -77.06527116666666, "type": "electric_scooter"}, {"bike_id": "d27a374f82c1ec9b2de3e89b80962d4a", "is_reserved": 0, "fusion_lon": 0.0, "lat": 38.88967983333333, "is_disabled": 0, "name": "d27a374f82c1ec9b2de3e89b80962d4a", "fusion_lat": 0.0, "rental_uris": {"ios": "https://dc.lft.to/lastmile_qr_scan", "android": "https://dc.lft.to/lastmile_qr_scan"}, "lon": -76.98035283333333, "type": "electric_scooter"}, {"bike_id": "068e21e9900d7d2bdb890219acf60fc4", "is_reserved": 0, "fusion_lon": 0.0, "lat": 39.003818833333334, "is_disabled": 0, "name": "068e21e9900d7d2bdb890219acf60fc4", "fusion_lat": 0.0, "rental_uris": {"ios": "https://dc.lft.to/lastmile_qr_scan", "android": "https://dc.lft.to/lastmile_qr_scan"}, "lon": -77.01303833333333, "type": "electric_bike"}, {"bike_id": "f7d61d5771020e611c5534506417aa92", "is_reserved": 0, "fusion_lon": 0.0, "lat": 38.900429833333334, "is_disabled": 0, "name": "f7d61d5771020e611c5534506417aa92", "fusion_lat": 0.0, "rental_uris": {"ios": "https://dc.lft.to/lastmile_qr_scan", "android": "https://dc.lft.to/lastmile_qr_scan"}, "lon": -77.00734333333334, "type": "electric_scooter"}, {"bike_id": "15ff65c31d251de0968b314801e97cfa", "is_reserved": 0, "fusion_lon": 0.0, "lat": 39.001372333333336, "is_disabled": 0, "name": "15ff65c31d251de0968b314801e97cfa", "fusion_lat": 0.0, "rental_uris": {"ios": "https://dc.lft.to/lastmile_qr_scan", "android": "https://dc.lft.to/lastmile_qr_scan"}, "lon": -77.05686566666667, "type": "electric_bike"}, {"bike_id": "f47ca3fe8b4794fef564fc331eaba80d", "is_reserved": 0, "fusion_lon": 0.0, "lat": 38.82783966666667, "is_disabled": 0, "name": "f47ca3fe8b4794fef564fc331eaba80d", "fusion_lat": 0.0, "rental_uris": {"ios": "https://dc.lft.to/lastmile_qr_scan", "android": "https://dc.lft.to/lastmile_qr_scan"}, "lon": -77.00918883333334, "type": "electric_bike"}, {"bike_id": "cf6194bdd15de8b62f1a3b97364aa352", "is_reserved": 0, "fusion_lon": 0.0, "lat": 38.892200833333334, "is_disabled": 0, "name": "cf6194bdd15de8b62f1a3b97364aa352", "fusion_lat": 0.0, "rental_uris": {"ios": "https://dc.lft.to/lastmile_qr_scan", "android": "https://dc.lft.to/lastmile_qr_scan"}, "lon": -77.03162, "type": "electric_scooter"}, {"bike_id": "d4a191072a4e3c3bced7424bbd007e9e", "is_reserved": 0, "fusion_lon": 0.0, "lat": 38.8919375, "is_disabled": 0, "name": "d4a191072a4e3c3bced7424bbd007e9e", "fusion_lat": 0.0, "rental_uris": {"ios": "https://dc.lft.to/lastmile_qr_scan", "android": "https://dc.lft.to/lastmile_qr_scan"}, "lon": -77.02838466666667, "type": "electric_scooter"}, {"bike_id": "40253bb18288c66729dc8baae88c2f6f", "is_reserved": 0, "fusion_lon": 0.0, "lat": 38.984315333333335, "is_disabled": 0, "name": "40253bb18288c66729dc8baae88c2f6f", "fusion_lat": 0.0, "rental_uris": {"ios": "https://dc.lft.to/lastmile_qr_scan", "android": "https://dc.lft.to/lastmile_qr_scan"}, "lon": -77.02675566666667, "type": "electric_scooter"}, {"bike_id": "7800600c878e9ca4ecc7cc2e42561e20", "is_reserved": 0, "fusion_lon": 0.0, "lat": 38.901131666666664, "is_disabled": 0, "name": "7800600c878e9ca4ecc7cc2e42561e20", "fusion_lat": 0.0, "rental_uris": {"ios": "https://dc.lft.to/lastmile_qr_scan", "android": "https://dc.lft.to/lastmile_qr_scan"}, "lon": -77.048156, "type": "electric_scooter"}, {"bike_id": "d00047bc7092c97f0fa6ead5421714dd", "is_reserved": 0, "fusion_lon": 0.0, "lat": 38.898981666666664, "is_disabled": 0, "name": "d00047bc7092c97f0fa6ead5421714dd", "fusion_lat": 0.0, "rental_uris": {"ios": "https://dc.lft.to/lastmile_qr_scan", "android": "https://dc.lft.to/lastmile_qr_scan"}, "lon": -77.032866, "type": "electric_scooter"}, {"bike_id": "0ee8d3e1d3cc0340043a64ba4918594b", "is_reserved": 0, "fusion_lon": 0.0, "lat": 38.8849245, "is_disabled": 0, "name": "0ee8d3e1d3cc0340043a64ba4918594b", "fusion_lat": 0.0, "rental_uris": {"ios": "https://dc.lft.to/lastmile_qr_scan", "android": "https://dc.lft.to/lastmile_qr_scan"}, "lon": -77.0072405, "type": "electric_scooter"}, {"bike_id": "14ed08175cf6ae195bb9665ecda519f4", "is_reserved": 0, "fusion_lon": 0.0, "lat": 38.964867, "is_disabled": 0, "name": "14ed08175cf6ae195bb9665ecda519f4", "fusion_lat": 0.0, "rental_uris": {"ios": "https://dc.lft.to/lastmile_qr_scan", "android": "https://dc.lft.to/lastmile_qr_scan"}, "lon": -77.0878475, "type": "electric_bike"}, {"bike_id": "e8cc51a76f072c503b0a1614a3f5e5f9", "is_reserved": 0, "fusion_lon": 0.0, "lat": 38.9565165, "is_disabled": 0, "name": "e8cc51a76f072c503b0a1614a3f5e5f9", "fusion_lat": 0.0, "rental_uris": {"ios": "https://dc.lft.to/lastmile_qr_scan", "android": "https://dc.lft.to/lastmile_qr_scan"}, "lon": -77.03291216666666, "type": "electric_scooter"}, {"bike_id": "5ba92fb03a3d58e8fb96d9680ab4fb24", "is_reserved": 0, "fusion_lon": 0.0, "lat": 38.897082, "is_disabled": 0, "name": "5ba92fb03a3d58e8fb96d9680ab4fb24", "fusion_lat": 0.0, "rental_uris": {"ios": "https://dc.lft.to/lastmile_qr_scan", "android": "https://dc.lft.to/lastmile_qr_scan"}, "lon": -77.02703583333333, "type": "electric_scooter"}, {"bike_id": "b821a387c579c0a2f64a384159429e27", "is_reserved": 0, "fusion_lon": 0.0, "lat": 38.902781166666664, "is_disabled": 0, "name": "b821a387c579c0a2f64a384159429e27", "fusion_lat": 0.0, "rental_uris": {"ios": "https://dc.lft.to/lastmile_qr_scan", "android": "https://dc.lft.to/lastmile_qr_scan"}, "lon": -77.04068466666666, "type": "electric_scooter"}, {"bike_id": "087a496a99471ee061cb7af9a6ab1abc", "is_reserved": 0, "fusion_lon": 0.0, "lat": 38.938832166666664, "is_disabled": 0, "name": "087a496a99471ee061cb7af9a6ab1abc", "fusion_lat": 0.0, "rental_uris": {"ios": "https://dc.lft.to/lastmile_qr_scan", "android": "https://dc.lft.to/lastmile_qr_scan"}, "lon": -77.02824666666666, "type": "electric_scooter"}, {"bike_id": "cb4fbbeecd975bcceacda57038b1c80f", "is_reserved": 0, "fusion_lon": 0.0, "lat": 38.85218416666667, "is_disabled": 0, "name": "cb4fbbeecd975bcceacda57038b1c80f", "fusion_lat": 0.0, "rental_uris": {"ios": "https://dc.lft.to/lastmile_qr_scan", "android": "https://dc.lft.to/lastmile_qr_scan"}, "lon": -77.12957416666667, "type": "electric_bike"}, {"bike_id": "54ff33fd6b47fe78def163a69671c896", "is_reserved": 0, "fusion_lon": 0.0, "lat": 38.8069355, "is_disabled": 0, "name": "54ff33fd6b47fe78def163a69671c896", "fusion_lat": 0.0, "rental_uris": {"ios": "https://dc.lft.to/lastmile_qr_scan", "android": "https://dc.lft.to/lastmile_qr_scan"}, "lon": -77.05964333333333, "type": "electric_bike"}, {"bike_id": "b65db984a22a321c88cd9e528b825418", "is_reserved": 0, "fusion_lon": 0.0, "lat": 38.92741683333333, "is_disabled": 0, "name": "b65db984a22a321c88cd9e528b825418", "fusion_lat": 0.0, "rental_uris": {"ios": "https://dc.lft.to/lastmile_qr_scan", "android": "https://dc.lft.to/lastmile_qr_scan"}, "lon": -77.05390516666667, "type": "electric_scooter"}, {"bike_id": "a99a3d48b2bbe50d958872feaccc0473", "is_reserved": 0, "fusion_lon": 0.0, "lat": 38.9394885, "is_disabled": 0, "name": "a99a3d48b2bbe50d958872feaccc0473", "fusion_lat": 0.0, "rental_uris": {"ios": "https://dc.lft.to/lastmile_qr_scan", "android": "https://dc.lft.to/lastmile_qr_scan"}, "lon": -77.03264316666667, "type": "electric_scooter"}, {"bike_id": "ca803dd65c961f58cfcaa5b4477b8afb", "is_reserved": 0, "fusion_lon": 0.0, "lat": 38.865620166666666, "is_disabled": 0, "name": "ca803dd65c961f58cfcaa5b4477b8afb", "fusion_lat": 0.0, "rental_uris": {"ios": "https://dc.lft.to/lastmile_qr_scan", "android": "https://dc.lft.to/lastmile_qr_scan"}, "lon": -76.98950916666666, "type": "electric_scooter"}, {"bike_id": "b8b4c21803f71fc9998737365da6368e", "is_reserved": 0, "fusion_lon": 0.0, "lat": 38.92369516666667, "is_disabled": 0, "name": "b8b4c21803f71fc9998737365da6368e", "fusion_lat": 0.0, "rental_uris": {"ios": "https://dc.lft.to/lastmile_qr_scan", "android": "https://dc.lft.to/lastmile_qr_scan"}, "lon": -77.01912583333333, "type": "electric_scooter"}, {"bike_id": "1fdf0f1848c366f7cd2d21bb8a60a211", "is_reserved": 0, "fusion_lon": 0.0, "lat": 38.917987833333335, "is_disabled": 0, "name": "1fdf0f1848c366f7cd2d21bb8a60a211", "fusion_lat": 0.0, "rental_uris": {"ios": "https://dc.lft.to/lastmile_qr_scan", "android": "https://dc.lft.to/lastmile_qr_scan"}, "lon": -77.03179983333334, "type": "electric_scooter"}, {"bike_id": "96b60ac03e1bbad1ae9bd99bf22aaaa9", "is_reserved": 0, "fusion_lon": 0.0, "lat": 38.9234425, "is_disabled": 0, "name": "96b60ac03e1bbad1ae9bd99bf22aaaa9", "fusion_lat": 0.0, "rental_uris": {"ios": "https://dc.lft.to/lastmile_qr_scan", "android": "https://dc.lft.to/lastmile_qr_scan"}, "lon": -77.01911033333333, "type": "electric_scooter"}, {"bike_id": "2c86268efe5bec0cfc3402fea60b8cdd", "is_reserved": 0, "fusion_lon": 0.0, "lat": 38.9004395, "is_disabled": 0, "name": "2c86268efe5bec0cfc3402fea60b8cdd", "fusion_lat": 0.0, "rental_uris": {"ios": "https://dc.lft.to/lastmile_qr_scan", "android": "https://dc.lft.to/lastmile_qr_scan"}, "lon": -77.00744533333334, "type": "electric_scooter"}, {"bike_id": "1d0bef59c53c6f96abc927b11cf4c0fc", "is_reserved": 0, "fusion_lon": 0.0, "lat": 38.86593833333333, "is_disabled": 0, "name": "1d0bef59c53c6f96abc927b11cf4c0fc", "fusion_lat": 0.0, "rental_uris": {"ios": "https://dc.lft.to/lastmile_qr_scan", "android": "https://dc.lft.to/lastmile_qr_scan"}, "lon": -76.9322735, "type": "electric_bike"}, {"bike_id": "38f95125692ccad20ea9346d9c7ae8d7", "is_reserved": 0, "fusion_lon": 0.0, "lat": 38.939501666666665, "is_disabled": 0, "name": "38f95125692ccad20ea9346d9c7ae8d7", "fusion_lat": 0.0, "rental_uris": {"ios": "https://dc.lft.to/lastmile_qr_scan", "android": "https://dc.lft.to/lastmile_qr_scan"}, "lon": -77.032661, "type": "electric_scooter"}, {"bike_id": "9577ed664c5d95c5ef0e11e71ae13cd3", "is_reserved": 0, "fusion_lon": 0.0, "lat": 38.89219766666667, "is_disabled": 0, "name": "9577ed664c5d95c5ef0e11e71ae13cd3", "fusion_lat": 0.0, "rental_uris": {"ios": "https://dc.lft.to/lastmile_qr_scan", "android": "https://dc.lft.to/lastmile_qr_scan"}, "lon": -77.02837933333333, "type": "electric_scooter"}, {"bike_id": "37d735fc504b8d1103c786629f66df03", "is_reserved": 0, "fusion_lon": 0.0, "lat": 38.9042515, "is_disabled": 0, "name": "37d735fc504b8d1103c786629f66df03", "fusion_lat": 0.0, "rental_uris": {"ios": "https://dc.lft.to/lastmile_qr_scan", "android": "https://dc.lft.to/lastmile_qr_scan"}, "lon": -77.03450866666667, "type": "electric_scooter"}, {"bike_id": "37cfa280e1bad2642603da54997f2ebc", "is_reserved": 0, "fusion_lon": 0.0, "lat": 38.98593416666667, "is_disabled": 0, "name": "37cfa280e1bad2642603da54997f2ebc", "fusion_lat": 0.0, "rental_uris": {"ios": "https://dc.lft.to/lastmile_qr_scan", "android": "https://dc.lft.to/lastmile_qr_scan"}, "lon": -77.03755316666667, "type": "electric_bike"}, {"bike_id": "db8779de8b3e29becd35b3d107593687", "is_reserved": 0, "fusion_lon": 0.0, "lat": 38.984613, "is_disabled": 0, "name": "db8779de8b3e29becd35b3d107593687", "fusion_lat": 0.0, "rental_uris": {"ios": "https://dc.lft.to/lastmile_qr_scan", "android": "https://dc.lft.to/lastmile_qr_scan"}, "lon": -76.95522866666667, "type": "electric_bike"}, {"bike_id": "00c6741a0017522db182b801f813589f", "is_reserved": 0, "fusion_lon": 0.0, "lat": 38.89221233333333, "is_disabled": 0, "name": "00c6741a0017522db182b801f813589f", "fusion_lat": 0.0, "rental_uris": {"ios": "https://dc.lft.to/lastmile_qr_scan", "android": "https://dc.lft.to/lastmile_qr_scan"}, "lon": -77.02575783333333, "type": "electric_scooter"}, {"bike_id": "1c78321c47b6c506494ce33085f674b8", "is_reserved": 0, "fusion_lon": 0.0, "lat": 38.920835, "is_disabled": 0, "name": "1c78321c47b6c506494ce33085f674b8", "fusion_lat": 0.0, "rental_uris": {"ios": "https://dc.lft.to/lastmile_qr_scan", "android": "https://dc.lft.to/lastmile_qr_scan"}, "lon": -77.025435, "type": "electric_scooter"}, {"bike_id": "e6f0ba666bd5c55fba003d4d59376bcb", "is_reserved": 0, "fusion_lon": 0.0, "lat": 38.9136715, "is_disabled": 0, "name": "e6f0ba666bd5c55fba003d4d59376bcb", "fusion_lat": 0.0, "rental_uris": {"ios": "https://dc.lft.to/lastmile_qr_scan", "android": "https://dc.lft.to/lastmile_qr_scan"}, "lon": -77.03975633333333, "type": "electric_scooter"}, {"bike_id": "54448897eabffb77ef3d1075d3ee8915", "is_reserved": 0, "fusion_lon": 0.0, "lat": 38.9065685, "is_disabled": 0, "name": "54448897eabffb77ef3d1075d3ee8915", "fusion_lat": 0.0, "rental_uris": {"ios": "https://dc.lft.to/lastmile_qr_scan", "android": "https://dc.lft.to/lastmile_qr_scan"}, "lon": -77.03906633333334, "type": "electric_scooter"}, {"bike_id": "8a49a7f85fff6e4527954da71149335c", "is_reserved": 0, "fusion_lon": 0.0, "lat": 38.9385465, "is_disabled": 0, "name": "8a49a7f85fff6e4527954da71149335c", "fusion_lat": 0.0, "rental_uris": {"ios": "https://dc.lft.to/lastmile_qr_scan", "android": "https://dc.lft.to/lastmile_qr_scan"}, "lon": -77.0246035, "type": "electric_scooter"}, {"bike_id": "656c46f06edd2757be24c5b36594a900", "is_reserved": 0, "fusion_lon": 0.0, "lat": 38.91414783333333, "is_disabled": 0, "name": "656c46f06edd2757be24c5b36594a900", "fusion_lat": 0.0, "rental_uris": {"ios": "https://dc.lft.to/lastmile_qr_scan", "android": "https://dc.lft.to/lastmile_qr_scan"}, "lon": -77.0267965, "type": "electric_scooter"}, {"bike_id": "75255c1485aca613fe2a4117bea541f0", "is_reserved": 0, "fusion_lon": 0.0, "lat": 38.90798183333333, "is_disabled": 0, "name": "75255c1485aca613fe2a4117bea541f0", "fusion_lat": 0.0, "rental_uris": {"ios": "https://dc.lft.to/lastmile_qr_scan", "android": "https://dc.lft.to/lastmile_qr_scan"}, "lon": -77.0001915, "type": "electric_scooter"}, {"bike_id": "58588d140a2a0551fe373805fdfc5446", "is_reserved": 0, "fusion_lon": 0.0, "lat": 38.917700333333336, "is_disabled": 0, "name": "58588d140a2a0551fe373805fdfc5446", "fusion_lat": 0.0, "rental_uris": {"ios": "https://dc.lft.to/lastmile_qr_scan", "android": "https://dc.lft.to/lastmile_qr_scan"}, "lon": -76.98971266666666, "type": "electric_bike"}, {"bike_id": "c694f476ea7ced3c2a02a6fc89047d71", "is_reserved": 0, "fusion_lon": 0.0, "lat": 38.92654233333333, "is_disabled": 0, "name": "c694f476ea7ced3c2a02a6fc89047d71", "fusion_lat": 0.0, "rental_uris": {"ios": "https://dc.lft.to/lastmile_qr_scan", "android": "https://dc.lft.to/lastmile_qr_scan"}, "lon": -77.03735533333334, "type": "electric_scooter"}, {"bike_id": "a992533aa19ce0c3ed225268f9445984", "is_reserved": 0, "fusion_lon": 0.0, "lat": 38.90965083333333, "is_disabled": 0, "name": "a992533aa19ce0c3ed225268f9445984", "fusion_lat": 0.0, "rental_uris": {"ios": "https://dc.lft.to/lastmile_qr_scan", "android": "https://dc.lft.to/lastmile_qr_scan"}, "lon": -77.03469933333334, "type": "electric_scooter"}, {"bike_id": "dbcf2010a058e60c73f8ea8a3729614a", "is_reserved": 0, "fusion_lon": 0.0, "lat": 38.906615333333335, "is_disabled": 0, "name": "dbcf2010a058e60c73f8ea8a3729614a", "fusion_lat": 0.0, "rental_uris": {"ios": "https://dc.lft.to/lastmile_qr_scan", "android": "https://dc.lft.to/lastmile_qr_scan"}, "lon": -77.05020483333334, "type": "electric_scooter"}, {"bike_id": "43b57bef517723d6a7aff22e0ad49e6f", "is_reserved": 0, "fusion_lon": 0.0, "lat": 38.90358033333333, "is_disabled": 0, "name": "43b57bef517723d6a7aff22e0ad49e6f", "fusion_lat": 0.0, "rental_uris": {"ios": "https://dc.lft.to/lastmile_qr_scan", "android": "https://dc.lft.to/lastmile_qr_scan"}, "lon": -77.02974816666666, "type": "electric_scooter"}, {"bike_id": "e0fe2b952a381375b76e4b0a47ee7baf", "is_reserved": 0, "fusion_lon": 0.0, "lat": 38.90525133333333, "is_disabled": 0, "name": "e0fe2b952a381375b76e4b0a47ee7baf", "fusion_lat": 0.0, "rental_uris": {"ios": "https://dc.lft.to/lastmile_qr_scan", "android": "https://dc.lft.to/lastmile_qr_scan"}, "lon": -77.04350416666666, "type": "electric_scooter"}, {"bike_id": "b3d9343100dc8ef51fde6d6565e7fdac", "is_reserved": 0, "fusion_lon": 0.0, "lat": 38.96171866666667, "is_disabled": 0, "name": "b3d9343100dc8ef51fde6d6565e7fdac", "fusion_lat": 0.0, "rental_uris": {"ios": "https://dc.lft.to/lastmile_qr_scan", "android": "https://dc.lft.to/lastmile_qr_scan"}, "lon": -76.9958825, "type": "electric_bike"}, {"bike_id": "70ecdc72fc5c4160f631bb0cac1a855c", "is_reserved": 0, "fusion_lon": 0.0, "lat": 38.92500316666667, "is_disabled": 0, "name": "70ecdc72fc5c4160f631bb0cac1a855c", "fusion_lat": 0.0, "rental_uris": {"ios": "https://dc.lft.to/lastmile_qr_scan", "android": "https://dc.lft.to/lastmile_qr_scan"}, "lon": -77.00892816666666, "type": "electric_scooter"}, {"bike_id": "1a9b09a83701233293c09cad6695a878", "is_reserved": 0, "fusion_lon": 0.0, "lat": 38.907748833333336, "is_disabled": 0, "name": "1a9b09a83701233293c09cad6695a878", "fusion_lat": 0.0, "rental_uris": {"ios": "https://dc.lft.to/lastmile_qr_scan", "android": "https://dc.lft.to/lastmile_qr_scan"}, "lon": -77.0383185, "type": "electric_scooter"}, {"bike_id": "b16129f178ae546c913aa5c32db8a433", "is_reserved": 0, "fusion_lon": 0.0, "lat": 38.885174166666665, "is_disabled": 0, "name": "b16129f178ae546c913aa5c32db8a433", "fusion_lat": 0.0, "rental_uris": {"ios": "https://dc.lft.to/lastmile_qr_scan", "android": "https://dc.lft.to/lastmile_qr_scan"}, "lon": -76.99788233333334, "type": "electric_bike"}, {"bike_id": "b91efd6016df36e32e0b0b6e0fc1934b", "is_reserved": 0, "fusion_lon": 0.0, "lat": 38.898771833333335, "is_disabled": 0, "name": "b91efd6016df36e32e0b0b6e0fc1934b", "fusion_lat": 0.0, "rental_uris": {"ios": "https://dc.lft.to/lastmile_qr_scan", "android": "https://dc.lft.to/lastmile_qr_scan"}, "lon": -76.93160283333333, "type": "electric_scooter"}, {"bike_id": "1fba53d0913506ca31a94474c389cc33", "is_reserved": 0, "fusion_lon": 0.0, "lat": 38.8952585, "is_disabled": 0, "name": "1fba53d0913506ca31a94474c389cc33", "fusion_lat": 0.0, "rental_uris": {"ios": "https://dc.lft.to/lastmile_qr_scan", "android": "https://dc.lft.to/lastmile_qr_scan"}, "lon": -76.94889933333333, "type": "electric_scooter"}, {"bike_id": "9a1856f4a0bd772d887fc914cd78b6c3", "is_reserved": 0, "fusion_lon": 0.0, "lat": 38.934298166666665, "is_disabled": 0, "name": "9a1856f4a0bd772d887fc914cd78b6c3", "fusion_lat": 0.0, "rental_uris": {"ios": "https://dc.lft.to/lastmile_qr_scan", "android": "https://dc.lft.to/lastmile_qr_scan"}, "lon": -77.0344075, "type": "electric_scooter"}, {"bike_id": "e56763ba7148f2df8c742ad74bd420fa", "is_reserved": 0, "fusion_lon": 0.0, "lat": 38.899560666666666, "is_disabled": 0, "name": "e56763ba7148f2df8c742ad74bd420fa", "fusion_lat": 0.0, "rental_uris": {"ios": "https://dc.lft.to/lastmile_qr_scan", "android": "https://dc.lft.to/lastmile_qr_scan"}, "lon": -77.03350433333334, "type": "electric_scooter"}, {"bike_id": "3c19d5dc7f15e837b1054d6365aef498", "is_reserved": 0, "fusion_lon": 0.0, "lat": 38.94436066666667, "is_disabled": 0, "name": "3c19d5dc7f15e837b1054d6365aef498", "fusion_lat": 0.0, "rental_uris": {"ios": "https://dc.lft.to/lastmile_qr_scan", "android": "https://dc.lft.to/lastmile_qr_scan"}, "lon": -77.06352783333334, "type": "electric_scooter"}, {"bike_id": "6f9c1e54208ba5309c93255e2a026d1d", "is_reserved": 0, "fusion_lon": 0.0, "lat": 38.940524, "is_disabled": 0, "name": "6f9c1e54208ba5309c93255e2a026d1d", "fusion_lat": 0.0, "rental_uris": {"ios": "https://dc.lft.to/lastmile_qr_scan", "android": "https://dc.lft.to/lastmile_qr_scan"}, "lon": -77.0927115, "type": "electric_scooter"}, {"bike_id": "d45aceba42bf2b67410af79652b78d33", "is_reserved": 0, "fusion_lon": 0.0, "lat": 38.90752333333333, "is_disabled": 0, "name": "d45aceba42bf2b67410af79652b78d33", "fusion_lat": 0.0, "rental_uris": {"ios": "https://dc.lft.to/lastmile_qr_scan", "android": "https://dc.lft.to/lastmile_qr_scan"}, "lon": -77.00092316666667, "type": "electric_scooter"}, {"bike_id": "fea283e56cbd184a7b7408c564f10aab", "is_reserved": 0, "fusion_lon": 0.0, "lat": 38.917364666666664, "is_disabled": 0, "name": "fea283e56cbd184a7b7408c564f10aab", "fusion_lat": 0.0, "rental_uris": {"ios": "https://dc.lft.to/lastmile_qr_scan", "android": "https://dc.lft.to/lastmile_qr_scan"}, "lon": -77.00752716666666, "type": "electric_scooter"}, {"bike_id": "3fc12e686c201278852a2b89b0231ff1", "is_reserved": 0, "fusion_lon": 0.0, "lat": 38.90036166666667, "is_disabled": 0, "name": "3fc12e686c201278852a2b89b0231ff1", "fusion_lat": 0.0, "rental_uris": {"ios": "https://dc.lft.to/lastmile_qr_scan", "android": "https://dc.lft.to/lastmile_qr_scan"}, "lon": -77.0020335, "type": "electric_scooter"}, {"bike_id": "4572a01a93051f5611d52bdfcf27338a", "is_reserved": 0, "fusion_lon": 0.0, "lat": 38.9742535, "is_disabled": 0, "name": "4572a01a93051f5611d52bdfcf27338a", "fusion_lat": 0.0, "rental_uris": {"ios": "https://dc.lft.to/lastmile_qr_scan", "android": "https://dc.lft.to/lastmile_qr_scan"}, "lon": -77.01523483333334, "type": "electric_scooter"}, {"bike_id": "66362f6cb947287bb89d2f233b2f2c8b", "is_reserved": 0, "fusion_lon": 0.0, "lat": 38.867064666666664, "is_disabled": 0, "name": "66362f6cb947287bb89d2f233b2f2c8b", "fusion_lat": 0.0, "rental_uris": {"ios": "https://dc.lft.to/lastmile_qr_scan", "android": "https://dc.lft.to/lastmile_qr_scan"}, "lon": -76.9872305, "type": "electric_scooter"}, {"bike_id": "dd6ad4621155afe540e5168e509e89d0", "is_reserved": 0, "fusion_lon": 0.0, "lat": 38.914161166666666, "is_disabled": 0, "name": "dd6ad4621155afe540e5168e509e89d0", "fusion_lat": 0.0, "rental_uris": {"ios": "https://dc.lft.to/lastmile_qr_scan", "android": "https://dc.lft.to/lastmile_qr_scan"}, "lon": -77.04141266666667, "type": "electric_scooter"}, {"bike_id": "91afebba1579deb33adb691fbb847815", "is_reserved": 0, "fusion_lon": 0.0, "lat": 38.899643166666664, "is_disabled": 0, "name": "91afebba1579deb33adb691fbb847815", "fusion_lat": 0.0, "rental_uris": {"ios": "https://dc.lft.to/lastmile_qr_scan", "android": "https://dc.lft.to/lastmile_qr_scan"}, "lon": -77.04717733333334, "type": "electric_scooter"}, {"bike_id": "4bc2d2ac4515160df9a3f1386d2e9ac5", "is_reserved": 0, "fusion_lon": 0.0, "lat": 38.896807833333334, "is_disabled": 0, "name": "4bc2d2ac4515160df9a3f1386d2e9ac5", "fusion_lat": 0.0, "rental_uris": {"ios": "https://dc.lft.to/lastmile_qr_scan", "android": "https://dc.lft.to/lastmile_qr_scan"}, "lon": -76.9961945, "type": "electric_scooter"}, {"bike_id": "cf3a53b0e317ed305208960ce77966d2", "is_reserved": 0, "fusion_lon": 0.0, "lat": 38.92364966666667, "is_disabled": 0, "name": "cf3a53b0e317ed305208960ce77966d2", "fusion_lat": 0.0, "rental_uris": {"ios": "https://dc.lft.to/lastmile_qr_scan", "android": "https://dc.lft.to/lastmile_qr_scan"}, "lon": -77.019531, "type": "electric_scooter"}, {"bike_id": "70559592ea6bd4578adeab31e8ca0f63", "is_reserved": 0, "fusion_lon": 0.0, "lat": 38.906438666666666, "is_disabled": 0, "name": "70559592ea6bd4578adeab31e8ca0f63", "fusion_lat": 0.0, "rental_uris": {"ios": "https://dc.lft.to/lastmile_qr_scan", "android": "https://dc.lft.to/lastmile_qr_scan"}, "lon": -76.99380933333333, "type": "electric_scooter"}, {"bike_id": "f427090e9a0421a9e822ff7d0fb48f1c", "is_reserved": 0, "fusion_lon": 0.0, "lat": 38.903201, "is_disabled": 0, "name": "f427090e9a0421a9e822ff7d0fb48f1c", "fusion_lat": 0.0, "rental_uris": {"ios": "https://dc.lft.to/lastmile_qr_scan", "android": "https://dc.lft.to/lastmile_qr_scan"}, "lon": -77.0385055, "type": "electric_scooter"}, {"bike_id": "689d1a40c6687ec9071c86bb814ba371", "is_reserved": 0, "fusion_lon": 0.0, "lat": 38.842919, "is_disabled": 0, "name": "689d1a40c6687ec9071c86bb814ba371", "fusion_lat": 0.0, "rental_uris": {"ios": "https://dc.lft.to/lastmile_qr_scan", "android": "https://dc.lft.to/lastmile_qr_scan"}, "lon": -76.9994635, "type": "electric_scooter"}, {"bike_id": "0ba7ccdf92a7ce501ebfe82b4df8b887", "is_reserved": 0, "fusion_lon": 0.0, "lat": 38.904486, "is_disabled": 0, "name": "0ba7ccdf92a7ce501ebfe82b4df8b887", "fusion_lat": 0.0, "rental_uris": {"ios": "https://dc.lft.to/lastmile_qr_scan", "android": "https://dc.lft.to/lastmile_qr_scan"}, "lon": -77.01707783333333, "type": "electric_scooter"}, {"bike_id": "375617b2a858ee8444dc3b3860b76d71", "is_reserved": 0, "fusion_lon": 0.0, "lat": 38.894389833333335, "is_disabled": 0, "name": "375617b2a858ee8444dc3b3860b76d71", "fusion_lat": 0.0, "rental_uris": {"ios": "https://dc.lft.to/lastmile_qr_scan", "android": "https://dc.lft.to/lastmile_qr_scan"}, "lon": -77.031822, "type": "electric_bike"}, {"bike_id": "88b0490b85a4114070eb7218a3cca723", "is_reserved": 0, "fusion_lon": 0.0, "lat": 38.916506166666665, "is_disabled": 0, "name": "88b0490b85a4114070eb7218a3cca723", "fusion_lat": 0.0, "rental_uris": {"ios": "https://dc.lft.to/lastmile_qr_scan", "android": "https://dc.lft.to/lastmile_qr_scan"}, "lon": -76.98587816666667, "type": "electric_bike"}, {"bike_id": "43fae30258d00d690f286dd1288359fb", "is_reserved": 0, "fusion_lon": 0.0, "lat": 38.90397466666667, "is_disabled": 0, "name": "43fae30258d00d690f286dd1288359fb", "fusion_lat": 0.0, "rental_uris": {"ios": "https://dc.lft.to/lastmile_qr_scan", "android": "https://dc.lft.to/lastmile_qr_scan"}, "lon": -77.04379916666667, "type": "electric_scooter"}, {"bike_id": "da5ec9acca5d410911334f6975ac9e01", "is_reserved": 0, "fusion_lon": 0.0, "lat": 38.865615166666664, "is_disabled": 0, "name": "da5ec9acca5d410911334f6975ac9e01", "fusion_lat": 0.0, "rental_uris": {"ios": "https://dc.lft.to/lastmile_qr_scan", "android": "https://dc.lft.to/lastmile_qr_scan"}, "lon": -76.98951466666666, "type": "electric_scooter"}, {"bike_id": "cd07a2ad38402b08acaead529a242e42", "is_reserved": 0, "fusion_lon": 0.0, "lat": 38.9167335, "is_disabled": 0, "name": "cd07a2ad38402b08acaead529a242e42", "fusion_lat": 0.0, "rental_uris": {"ios": "https://dc.lft.to/lastmile_qr_scan", "android": "https://dc.lft.to/lastmile_qr_scan"}, "lon": -77.02959283333334, "type": "electric_scooter"}, {"bike_id": "83f66b3710c5b086f4261a2b5cf07ab5", "is_reserved": 0, "fusion_lon": 0.0, "lat": 38.90349883333333, "is_disabled": 0, "name": "83f66b3710c5b086f4261a2b5cf07ab5", "fusion_lat": 0.0, "rental_uris": {"ios": "https://dc.lft.to/lastmile_qr_scan", "android": "https://dc.lft.to/lastmile_qr_scan"}, "lon": -77.05145683333333, "type": "electric_bike"}, {"bike_id": "2138e0dfc56f392ada4c026d5c22f1ae", "is_reserved": 0, "fusion_lon": 0.0, "lat": 38.959240666666666, "is_disabled": 0, "name": "2138e0dfc56f392ada4c026d5c22f1ae", "fusion_lat": 0.0, "rental_uris": {"ios": "https://dc.lft.to/lastmile_qr_scan", "android": "https://dc.lft.to/lastmile_qr_scan"}, "lon": -77.03325316666667, "type": "electric_scooter"}, {"bike_id": "dde5da89857e260086ff739d1e94f560", "is_reserved": 0, "fusion_lon": 0.0, "lat": 38.895433833333335, "is_disabled": 0, "name": "dde5da89857e260086ff739d1e94f560", "fusion_lat": 0.0, "rental_uris": {"ios": "https://dc.lft.to/lastmile_qr_scan", "android": "https://dc.lft.to/lastmile_qr_scan"}, "lon": -77.018902, "type": "electric_scooter"}, {"bike_id": "eb7a701886c677e9e1889926924c037e", "is_reserved": 0, "fusion_lon": 0.0, "lat": 38.90391916666667, "is_disabled": 0, "name": "eb7a701886c677e9e1889926924c037e", "fusion_lat": 0.0, "rental_uris": {"ios": "https://dc.lft.to/lastmile_qr_scan", "android": "https://dc.lft.to/lastmile_qr_scan"}, "lon": -77.04188766666667, "type": "electric_scooter"}, {"bike_id": "052673e80a5655bdf7e983a2ab48a8b7", "is_reserved": 0, "fusion_lon": 0.0, "lat": 38.90467266666667, "is_disabled": 0, "name": "052673e80a5655bdf7e983a2ab48a8b7", "fusion_lat": 0.0, "rental_uris": {"ios": "https://dc.lft.to/lastmile_qr_scan", "android": "https://dc.lft.to/lastmile_qr_scan"}, "lon": -77.03936333333333, "type": "electric_scooter"}, {"bike_id": "6e3e87cf48a890b4286029a292d63c15", "is_reserved": 0, "fusion_lon": 0.0, "lat": 38.84429, "is_disabled": 0, "name": "6e3e87cf48a890b4286029a292d63c15", "fusion_lat": 0.0, "rental_uris": {"ios": "https://dc.lft.to/lastmile_qr_scan", "android": "https://dc.lft.to/lastmile_qr_scan"}, "lon": -76.9977975, "type": "electric_scooter"}, {"bike_id": "8e58b364dfe4b969896120d4cdd5dadd", "is_reserved": 0, "fusion_lon": 0.0, "lat": 38.91362633333333, "is_disabled": 0, "name": "8e58b364dfe4b969896120d4cdd5dadd", "fusion_lat": 0.0, "rental_uris": {"ios": "https://dc.lft.to/lastmile_qr_scan", "android": "https://dc.lft.to/lastmile_qr_scan"}, "lon": -77.046588, "type": "electric_scooter"}, {"bike_id": "12b68dae3e5de6fd2c6424467da71430", "is_reserved": 0, "fusion_lon": 0.0, "lat": 38.90286966666667, "is_disabled": 0, "name": "12b68dae3e5de6fd2c6424467da71430", "fusion_lat": 0.0, "rental_uris": {"ios": "https://dc.lft.to/lastmile_qr_scan", "android": "https://dc.lft.to/lastmile_qr_scan"}, "lon": -77.03382816666667, "type": "electric_scooter"}, {"bike_id": "d6e9e125ea72de66aad876ae404b24b6", "is_reserved": 0, "fusion_lon": 0.0, "lat": 38.9023885, "is_disabled": 0, "name": "d6e9e125ea72de66aad876ae404b24b6", "fusion_lat": 0.0, "rental_uris": {"ios": "https://dc.lft.to/lastmile_qr_scan", "android": "https://dc.lft.to/lastmile_qr_scan"}, "lon": -77.0269255, "type": "electric_scooter"}, {"bike_id": "d9bd5689dd817636fa13bafb2467e2b8", "is_reserved": 0, "fusion_lon": 0.0, "lat": 38.87655766666666, "is_disabled": 0, "name": "d9bd5689dd817636fa13bafb2467e2b8", "fusion_lat": 0.0, "rental_uris": {"ios": "https://dc.lft.to/lastmile_qr_scan", "android": "https://dc.lft.to/lastmile_qr_scan"}, "lon": -77.00068633333333, "type": "electric_scooter"}, {"bike_id": "ca5a4d5a4ed7e21ee362f046592b5da6", "is_reserved": 0, "fusion_lon": 0.0, "lat": 38.90384233333333, "is_disabled": 0, "name": "ca5a4d5a4ed7e21ee362f046592b5da6", "fusion_lat": 0.0, "rental_uris": {"ios": "https://dc.lft.to/lastmile_qr_scan", "android": "https://dc.lft.to/lastmile_qr_scan"}, "lon": -77.043844, "type": "electric_scooter"}, {"bike_id": "24fe577ae68d7ea3756bc6cf346424e7", "is_reserved": 0, "fusion_lon": 0.0, "lat": 38.9595715, "is_disabled": 0, "name": "24fe577ae68d7ea3756bc6cf346424e7", "fusion_lat": 0.0, "rental_uris": {"ios": "https://dc.lft.to/lastmile_qr_scan", "android": "https://dc.lft.to/lastmile_qr_scan"}, "lon": -77.10093783333333, "type": "electric_bike"}, {"bike_id": "50e5aeb4e5d4b7558b7264187d7c64ad", "is_reserved": 0, "fusion_lon": 0.0, "lat": 38.88887183333333, "is_disabled": 0, "name": "50e5aeb4e5d4b7558b7264187d7c64ad", "fusion_lat": 0.0, "rental_uris": {"ios": "https://dc.lft.to/lastmile_qr_scan", "android": "https://dc.lft.to/lastmile_qr_scan"}, "lon": -77.03323616666667, "type": "electric_bike"}, {"bike_id": "52ab24bc302768c5334c5e2d500894d0", "is_reserved": 0, "fusion_lon": 0.0, "lat": 38.928437, "is_disabled": 0, "name": "52ab24bc302768c5334c5e2d500894d0", "fusion_lat": 0.0, "rental_uris": {"ios": "https://dc.lft.to/lastmile_qr_scan", "android": "https://dc.lft.to/lastmile_qr_scan"}, "lon": -77.01394066666667, "type": "electric_scooter"}, {"bike_id": "bd8027c6f9c2835453060da248f2321e", "is_reserved": 0, "fusion_lon": 0.0, "lat": 38.89704783333333, "is_disabled": 0, "name": "bd8027c6f9c2835453060da248f2321e", "fusion_lat": 0.0, "rental_uris": {"ios": "https://dc.lft.to/lastmile_qr_scan", "android": "https://dc.lft.to/lastmile_qr_scan"}, "lon": -77.0272105, "type": "electric_scooter"}, {"bike_id": "b4fe208683532ea3544754d146551834", "is_reserved": 0, "fusion_lon": 0.0, "lat": 38.905717, "is_disabled": 0, "name": "b4fe208683532ea3544754d146551834", "fusion_lat": 0.0, "rental_uris": {"ios": "https://dc.lft.to/lastmile_qr_scan", "android": "https://dc.lft.to/lastmile_qr_scan"}, "lon": -77.03622883333334, "type": "electric_scooter"}, {"bike_id": "e9dbfac91e6304b48dfb2a6b2d3bdde0", "is_reserved": 0, "fusion_lon": 0.0, "lat": 38.88489716666667, "is_disabled": 0, "name": "e9dbfac91e6304b48dfb2a6b2d3bdde0", "fusion_lat": 0.0, "rental_uris": {"ios": "https://dc.lft.to/lastmile_qr_scan", "android": "https://dc.lft.to/lastmile_qr_scan"}, "lon": -77.00724583333333, "type": "electric_scooter"}, {"bike_id": "876600adb5706458a4fb572d7eaa2bd3", "is_reserved": 0, "fusion_lon": 0.0, "lat": 38.883719666666664, "is_disabled": 0, "name": "876600adb5706458a4fb572d7eaa2bd3", "fusion_lat": 0.0, "rental_uris": {"ios": "https://dc.lft.to/lastmile_qr_scan", "android": "https://dc.lft.to/lastmile_qr_scan"}, "lon": -76.9952835, "type": "electric_scooter"}, {"bike_id": "0f682234988104fd2b24891ba36d0079", "is_reserved": 0, "fusion_lon": 0.0, "lat": 38.96203116666667, "is_disabled": 0, "name": "0f682234988104fd2b24891ba36d0079", "fusion_lat": 0.0, "rental_uris": {"ios": "https://dc.lft.to/lastmile_qr_scan", "android": "https://dc.lft.to/lastmile_qr_scan"}, "lon": -77.02230216666666, "type": "electric_bike"}, {"bike_id": "8230451621f551fbf23ceebe69fccc71", "is_reserved": 0, "fusion_lon": 0.0, "lat": 38.9120355, "is_disabled": 0, "name": "8230451621f551fbf23ceebe69fccc71", "fusion_lat": 0.0, "rental_uris": {"ios": "https://dc.lft.to/lastmile_qr_scan", "android": "https://dc.lft.to/lastmile_qr_scan"}, "lon": -77.07322, "type": "electric_scooter"}, {"bike_id": "cdbef2e9191dded3fbe16630382188a6", "is_reserved": 0, "fusion_lon": 0.0, "lat": 38.918108333333336, "is_disabled": 0, "name": "cdbef2e9191dded3fbe16630382188a6", "fusion_lat": 0.0, "rental_uris": {"ios": "https://dc.lft.to/lastmile_qr_scan", "android": "https://dc.lft.to/lastmile_qr_scan"}, "lon": -77.02287966666667, "type": "electric_scooter"}, {"bike_id": "c6a636630c9378c572e4cbac1097c5a4", "is_reserved": 0, "fusion_lon": 0.0, "lat": 38.92336616666667, "is_disabled": 0, "name": "c6a636630c9378c572e4cbac1097c5a4", "fusion_lat": 0.0, "rental_uris": {"ios": "https://dc.lft.to/lastmile_qr_scan", "android": "https://dc.lft.to/lastmile_qr_scan"}, "lon": -77.03921566666666, "type": "electric_scooter"}, {"bike_id": "0d92c2aeb1fafc813a53ae8cd2f43ec2", "is_reserved": 0, "fusion_lon": 0.0, "lat": 38.861668, "is_disabled": 0, "name": "0d92c2aeb1fafc813a53ae8cd2f43ec2", "fusion_lat": 0.0, "rental_uris": {"ios": "https://dc.lft.to/lastmile_qr_scan", "android": "https://dc.lft.to/lastmile_qr_scan"}, "lon": -76.9506715, "type": "electric_bike"}, {"bike_id": "90b3d9a3ab8671a329a6bcaccf38100b", "is_reserved": 0, "fusion_lon": 0.0, "lat": 38.90304416666667, "is_disabled": 0, "name": "90b3d9a3ab8671a329a6bcaccf38100b", "fusion_lat": 0.0, "rental_uris": {"ios": "https://dc.lft.to/lastmile_qr_scan", "android": "https://dc.lft.to/lastmile_qr_scan"}, "lon": -77.04345733333334, "type": "electric_scooter"}, {"bike_id": "67795225d0f23c1d1698e59dbf1835dd", "is_reserved": 0, "fusion_lon": 0.0, "lat": 38.895567, "is_disabled": 0, "name": "67795225d0f23c1d1698e59dbf1835dd", "fusion_lat": 0.0, "rental_uris": {"ios": "https://dc.lft.to/lastmile_qr_scan", "android": "https://dc.lft.to/lastmile_qr_scan"}, "lon": -77.046766, "type": "electric_scooter"}, {"bike_id": "cf8941895fe76281e3de72f9991789e5", "is_reserved": 0, "fusion_lon": 0.0, "lat": 38.92190266666667, "is_disabled": 0, "name": "cf8941895fe76281e3de72f9991789e5", "fusion_lat": 0.0, "rental_uris": {"ios": "https://dc.lft.to/lastmile_qr_scan", "android": "https://dc.lft.to/lastmile_qr_scan"}, "lon": -77.04136516666667, "type": "electric_scooter"}, {"bike_id": "1447eed90e4da60aef58dbcea209f3f3", "is_reserved": 0, "fusion_lon": 0.0, "lat": 38.919957333333336, "is_disabled": 0, "name": "1447eed90e4da60aef58dbcea209f3f3", "fusion_lat": 0.0, "rental_uris": {"ios": "https://dc.lft.to/lastmile_qr_scan", "android": "https://dc.lft.to/lastmile_qr_scan"}, "lon": -77.032338, "type": "electric_scooter"}, {"bike_id": "a1dcafb3167b3d32090c7aa69156e93f", "is_reserved": 0, "fusion_lon": 0.0, "lat": 38.90125316666666, "is_disabled": 0, "name": "a1dcafb3167b3d32090c7aa69156e93f", "fusion_lat": 0.0, "rental_uris": {"ios": "https://dc.lft.to/lastmile_qr_scan", "android": "https://dc.lft.to/lastmile_qr_scan"}, "lon": -77.04458, "type": "electric_scooter"}, {"bike_id": "3e48e7687bb7fe9343b9cb8964a6b379", "is_reserved": 0, "fusion_lon": 0.0, "lat": 38.904560833333335, "is_disabled": 0, "name": "3e48e7687bb7fe9343b9cb8964a6b379", "fusion_lat": 0.0, "rental_uris": {"ios": "https://dc.lft.to/lastmile_qr_scan", "android": "https://dc.lft.to/lastmile_qr_scan"}, "lon": -77.05329983333333, "type": "electric_scooter"},