{"data": {"bikes": [{"bike_id": "80f52690f1335ea4fa72452217c7d81e", "type": "electric_scooter", "is_disabled": 0, "lat": 38.87628216666667, "rental_uris": {"ios": "https://dc.lft.to/lastmile_qr_scan", "android": "https://dc.lft.to/lastmile_qr_scan"}, "is_reserved": 0, "fusion_lon": 0.0, "fusion_lat": 0.0, "lon": -76.96524883333333, "name": "80f52690f1335ea4fa72452217c7d81e"}, {"bike_id": "10ae0b61dda2b5fd91f693dc30bb4c9f", "type": "electric_scooter", "is_disabled": 0, "lat": 38.900440333333336, "rental_uris": {"ios": "https://dc.lft.to/lastmile_qr_scan", "android": "https://dc.lft.to/lastmile_qr_scan"}, "is_reserved": 0, "fusion_lon": 0.0, "fusion_lat": 0.0, "lon": -77.01320566666666, "name": "10ae0b61dda2b5fd91f693dc30bb4c9f"}, {"bike_id": "5dadbb6742ec8cde541bfa2676c3c88b", "type": "electric_scooter", "is_disabled": 0, "lat": 38.9059965, "rental_uris": {"ios": "https://dc.lft.to/lastmile_qr_scan", "android": "https://dc.lft.to/lastmile_qr_scan"}, "is_reserved": 0, "fusion_lon": 0.0, "fusion_lat": 0.0, "lon": -77.00640533333333, "name": "5dadbb6742ec8cde541bfa2676c3c88b"}, {"bike_id": "405540d9524a2b78c91fd8cb0b61b309", "type": "electric_scooter", "is_disabled": 0, "lat": 38.906451, "rental_uris": {"ios": "https://dc.lft.to/lastmile_qr_scan", "android": "https://dc.lft.to/lastmile_qr_scan"}, "is_reserved": 0, "fusion_lon": 0.0, "fusion_lat": 0.0, "lon": -77.03141516666666, "name": "405540d9524a2b78c91fd8cb0b61b309"}, {"bike_id": "16c2785315bc6d312abdd5826478333c", "type": "electric_scooter", "is_disabled": 0, "lat": 38.9393325, "rental_uris": {"ios": "https://dc.lft.to/lastmile_qr_scan", "android": "https://dc.lft.to/lastmile_qr_scan"}, "is_reserved": 0, "fusion_lon": 0.0, "fusion_lat": 0.0, "lon": -77.036769, "name": "16c2785315bc6d312abdd5826478333c"}, {"bike_id": "b79798d564a03c81142742ce332c8e6b", "type": "electric_scooter", "is_disabled": 0, "lat": 38.9169235, "rental_uris": {"ios": "https://dc.lft.to/lastmile_qr_scan", "android": "https://dc.lft.to/lastmile_qr_scan"}, "is_reserved": 0, "fusion_lon": 0.0, "fusion_lat": 0.0, "lon": -77.0287175, "name": "b79798d564a03c81142742ce332c8e6b"}, {"bike_id": "935e558f2d3efd68589453a6bfcf97de", "type": "electric_scooter", "is_disabled": 0, "lat": 38.90062966666667, "rental_uris": {"ios": "https://dc.lft.to/lastmile_qr_scan", "android": "https://dc.lft.to/lastmile_qr_scan"}, "is_reserved": 0, "fusion_lon": 0.0, "fusion_lat": 0.0, "lon": -76.92741333333333, "name": "935e558f2d3efd68589453a6bfcf97de"}, {"bike_id": "f0a37d2cd764335748309d8f90d49a21", "type": "electric_scooter", "is_disabled": 0, "lat": 38.94994716666667, "rental_uris": {"ios": "https://dc.lft.to/lastmile_qr_scan", "android": "https://dc.lft.to/lastmile_qr_scan"}, "is_reserved": 0, "fusion_lon": 0.0, "fusion_lat": 0.0, "lon": -77.0182735, "name": "f0a37d2cd764335748309d8f90d49a21"}, {"bike_id": "460c289638bece6399de49977472d496", "type": "electric_scooter", "is_disabled": 0, "lat": 38.90506283333333, "rental_uris": {"ios": "https://dc.lft.to/lastmile_qr_scan", "android": "https://dc.lft.to/lastmile_qr_scan"}, "is_reserved": 0, "fusion_lon": 0.0, "fusion_lat": 0.0, "lon": -77.06883166666667, "name": "460c289638bece6399de49977472d496"}, {"bike_id": "8f581e3ee412cec3d0c02651d8977ac5", "type": "electric_scooter", "is_disabled": 0, "lat": 38.87861816666667, "rental_uris": {"ios": "https://dc.lft.to/lastmile_qr_scan", "android": "https://dc.lft.to/lastmile_qr_scan"}, "is_reserved": 0, "fusion_lon": 0.0, "fusion_lat": 0.0, "lon": -77.00846266666667, "name": "8f581e3ee412cec3d0c02651d8977ac5"}, {"bike_id": "fbde654035a12288ec22cf23fc9bb772", "type": "electric_bike", "is_disabled": 0, "lat": 38.809771166666664, "rental_uris": {"ios": "https://dc.lft.to/lastmile_qr_scan", "android": "https://dc.lft.to/lastmile_qr_scan"}, "is_reserved": 0, "fusion_lon": 0.0, "fusion_lat": 0.0, "lon": -77.08627383333334, "name": "fbde654035a12288ec22cf23fc9bb772"}, {"bike_id": "5b7532a55b13ceb38d8a18b2211fe0bb", "type": "electric_scooter", "is_disabled": 0, "lat": 38.98428583333333, "rental_uris": {"ios": "https://dc.lft.to/lastmile_qr_scan", "android": "https://dc.lft.to/lastmile_qr_scan"}, "is_reserved": 0, "fusion_lon": 0.0, "fusion_lat": 0.0, "lon": -77.02673383333334, "name": "5b7532a55b13ceb38d8a18b2211fe0bb"}, {"bike_id": "61293351dee6b21e8ca8c975c4465831", "type": "electric_scooter", "is_disabled": 0, "lat": 38.92798916666667, "rental_uris": {"ios": "https://dc.lft.to/lastmile_qr_scan", "android": "https://dc.lft.to/lastmile_qr_scan"}, "is_reserved": 0, "fusion_lon": 0.0, "fusion_lat": 0.0, "lon": -77.023898, "name": "61293351dee6b21e8ca8c975c4465831"}, {"bike_id": "33e918099aada2f7f0ce0614d65d11b0", "type": "electric_bike", "is_disabled": 0, "lat": 38.970689, "rental_uris": {"ios": "https://dc.lft.to/lastmile_qr_scan", "android": "https://dc.lft.to/lastmile_qr_scan"}, "is_reserved": 0, "fusion_lon": 0.0, "fusion_lat": 0.0, "lon": -76.93616783333333, "name": "33e918099aada2f7f0ce0614d65d11b0"}, {"bike_id": "b7c1a547ea31672b2da9f5db54dc65c8", "type": "electric_scooter", "is_disabled": 0, "lat": 38.9225305, "rental_uris": {"ios": "https://dc.lft.to/lastmile_qr_scan", "android": "https://dc.lft.to/lastmile_qr_scan"}, "is_reserved": 0, "fusion_lon": 0.0, "fusion_lat": 0.0, "lon": -77.0196755, "name": "b7c1a547ea31672b2da9f5db54dc65c8"}, {"bike_id": "47b890ec625d8ae3b27f6f1eb72f6c48", "type": "electric_scooter", "is_disabled": 0, "lat": 38.88161383333333, "rental_uris": {"ios": "https://dc.lft.to/lastmile_qr_scan", "android": "https://dc.lft.to/lastmile_qr_scan"}, "is_reserved": 0, "fusion_lon": 0.0, "fusion_lat": 0.0, "lon": -77.02767933333334, "name": "47b890ec625d8ae3b27f6f1eb72f6c48"}, {"bike_id": "272c5e8479f6f3cbda741b8a899049f5", "type": "electric_scooter", "is_disabled": 0, "lat": 38.863749, "rental_uris": {"ios": "https://dc.lft.to/lastmile_qr_scan", "android": "https://dc.lft.to/lastmile_qr_scan"}, "is_reserved": 0, "fusion_lon": 0.0, "fusion_lat": 0.0, "lon": -76.99058966666666, "name": "272c5e8479f6f3cbda741b8a899049f5"}, {"bike_id": "c6525fcb7e9291584ca902dad66457b6", "type": "electric_scooter", "is_disabled": 0, "lat": 38.90330866666667, "rental_uris": {"ios": "https://dc.lft.to/lastmile_qr_scan", "android": "https://dc.lft.to/lastmile_qr_scan"}, "is_reserved": 0, "fusion_lon": 0.0, "fusion_lat": 0.0, "lon": -76.99127216666666, "name": "c6525fcb7e9291584ca902dad66457b6"}, {"bike_id": "74b95fb819eacfff8d977af93a901105", "type": "electric_scooter", "is_disabled": 0, "lat": 38.91763566666667, "rental_uris": {"ios": "https://dc.lft.to/lastmile_qr_scan", "android": "https://dc.lft.to/lastmile_qr_scan"}, "is_reserved": 0, "fusion_lon": 0.0, "fusion_lat": 0.0, "lon": -77.04752866666666, "name": "74b95fb819eacfff8d977af93a901105"}, {"bike_id": "5498624015576e6d3a8e301d017699ab", "type": "electric_scooter", "is_disabled": 0, "lat": 38.900293166666664, "rental_uris": {"ios": "https://dc.lft.to/lastmile_qr_scan", "android": "https://dc.lft.to/lastmile_qr_scan"}, "is_reserved": 0, "fusion_lon": 0.0, "fusion_lat": 0.0, "lon": -77.00180483333334, "name": "5498624015576e6d3a8e301d017699ab"}, {"bike_id": "ceda9b897b9d3240c1cda41df192099d", "type": "electric_scooter", "is_disabled": 0, "lat": 38.89725716666667, "rental_uris": {"ios": "https://dc.lft.to/lastmile_qr_scan", "android": "https://dc.lft.to/lastmile_qr_scan"}, "is_reserved": 0, "fusion_lon": 0.0, "fusion_lat": 0.0, "lon": -77.02296016666666, "name": "ceda9b897b9d3240c1cda41df192099d"}, {"bike_id": "5d03f809700598f838347ba55b8c594b", "type": "electric_scooter", "is_disabled": 0, "lat": 38.928617833333334, "rental_uris": {"ios": "https://dc.lft.to/lastmile_qr_scan", "android": "https://dc.lft.to/lastmile_qr_scan"}, "is_reserved": 0, "fusion_lon": 0.0, "fusion_lat": 0.0, "lon": -77.03708983333334, "name": "5d03f809700598f838347ba55b8c594b"}, {"bike_id": "1d115482f248745d6951b19d6dcb0902", "type": "electric_scooter", "is_disabled": 0, "lat": 38.95577333333333, "rental_uris": {"ios": "https://dc.lft.to/lastmile_qr_scan", "android": "https://dc.lft.to/lastmile_qr_scan"}, "is_reserved": 0, "fusion_lon": 0.0, "fusion_lat": 0.0, "lon": -77.08028333333333, "name": "1d115482f248745d6951b19d6dcb0902"}, {"bike_id": "a96cef0d5bab7b086880454660c38be1", "type": "electric_scooter", "is_disabled": 0, "lat": 38.92845783333333, "rental_uris": {"ios": "https://dc.lft.to/lastmile_qr_scan", "android": "https://dc.lft.to/lastmile_qr_scan"}, "is_reserved": 0, "fusion_lon": 0.0, "fusion_lat": 0.0, "lon": -77.05518016666667, "name": "a96cef0d5bab7b086880454660c38be1"}, {"bike_id": "e39bc12763d58f40874beb673cdb110b", "type": "electric_scooter", "is_disabled": 0, "lat": 38.920519166666665, "rental_uris": {"ios": "https://dc.lft.to/lastmile_qr_scan", "android": "https://dc.lft.to/lastmile_qr_scan"}, "is_reserved": 0, "fusion_lon": 0.0, "fusion_lat": 0.0, "lon": -76.99874816666667, "name": "e39bc12763d58f40874beb673cdb110b"}, {"bike_id": "36c254c88759ad456d402ded6da7dc8d", "type": "electric_scooter", "is_disabled": 0, "lat": 38.8763185, "rental_uris": {"ios": "https://dc.lft.to/lastmile_qr_scan", "android": "https://dc.lft.to/lastmile_qr_scan"}, "is_reserved": 0, "fusion_lon": 0.0, "fusion_lat": 0.0, "lon": -76.96525983333333, "name": "36c254c88759ad456d402ded6da7dc8d"}, {"bike_id": "bc569e8b91210abbb0631bb53dc0e9e8", "type": "electric_scooter", "is_disabled": 0, "lat": 38.95612416666667, "rental_uris": {"ios": "https://dc.lft.to/lastmile_qr_scan", "android": "https://dc.lft.to/lastmile_qr_scan"}, "is_reserved": 0, "fusion_lon": 0.0, "fusion_lat": 0.0, "lon": -77.01025216666666, "name": "bc569e8b91210abbb0631bb53dc0e9e8"}, {"bike_id": "9f529084c179fc65b3ec84414313ec4f", "type": "electric_scooter", "is_disabled": 0, "lat": 38.90268566666667, "rental_uris": {"ios": "https://dc.lft.to/lastmile_qr_scan", "android": "https://dc.lft.to/lastmile_qr_scan"}, "is_reserved": 0, "fusion_lon": 0.0, "fusion_lat": 0.0, "lon": -77.0434085, "name": "9f529084c179fc65b3ec84414313ec4f"}, {"bike_id": "be30930b06c811a6b50dbb0178b5c13d", "type": "electric_scooter", "is_disabled": 0, "lat": 38.9097695, "rental_uris": {"ios": "https://dc.lft.to/lastmile_qr_scan", "android": "https://dc.lft.to/lastmile_qr_scan"}, "is_reserved": 0, "fusion_lon": 0.0, "fusion_lat": 0.0, "lon": -77.03865466666667, "name": "be30930b06c811a6b50dbb0178b5c13d"}, {"bike_id": "5fb20c8f22609640a2ed614c056b6d1a", "type": "electric_scooter", "is_disabled": 0, "lat": 38.9401635, "rental_uris": {"ios": "https://dc.lft.to/lastmile_qr_scan", "android": "https://dc.lft.to/lastmile_qr_scan"}, "is_reserved": 0, "fusion_lon": 0.0, "fusion_lat": 0.0, "lon": -77.02642733333333, "name": "5fb20c8f22609640a2ed614c056b6d1a"}, {"bike_id": "33ba109d20087e8beb348fb766844750", "type": "electric_scooter", "is_disabled": 0, "lat": 38.91725133333333, "rental_uris": {"ios": "https://dc.lft.to/lastmile_qr_scan", "android": "https://dc.lft.to/lastmile_qr_scan"}, "is_reserved": 0, "fusion_lon": 0.0, "fusion_lat": 0.0, "lon": -77.01916633333333, "name": "33ba109d20087e8beb348fb766844750"}, {"bike_id": "300f852dc2a6492943acfe979d643c10", "type": "electric_scooter", "is_disabled": 0, "lat": 38.91683416666667, "rental_uris": {"ios": "https://dc.lft.to/lastmile_qr_scan", "android": "https://dc.lft.to/lastmile_qr_scan"}, "is_reserved": 0, "fusion_lon": 0.0, "fusion_lat": 0.0, "lon": -77.0307025, "name": "300f852dc2a6492943acfe979d643c10"}, {"bike_id": "298451b95422bad7f337cdb59a66b095", "type": "electric_scooter", "is_disabled": 0, "lat": 38.897490833333336, "rental_uris": {"ios": "https://dc.lft.to/lastmile_qr_scan", "android": "https://dc.lft.to/lastmile_qr_scan"}, "is_reserved": 0, "fusion_lon": 0.0, "fusion_lat": 0.0, "lon": -77.02690616666666, "name": "298451b95422bad7f337cdb59a66b095"}, {"bike_id": "287957c048a9a1371a7f68a3d5387a93", "type": "electric_scooter", "is_disabled": 0, "lat": 38.939491333333336, "rental_uris": {"ios": "https://dc.lft.to/lastmile_qr_scan", "android": "https://dc.lft.to/lastmile_qr_scan"}, "is_reserved": 0, "fusion_lon": 0.0, "fusion_lat": 0.0, "lon": -77.06061133333333, "name": "287957c048a9a1371a7f68a3d5387a93"}, {"bike_id": "f0f075fdeae41b0ccb37f896a6c3c7c1", "type": "electric_scooter", "is_disabled": 0, "lat": 38.90709866666667, "rental_uris": {"ios": "https://dc.lft.to/lastmile_qr_scan", "android": "https://dc.lft.to/lastmile_qr_scan"}, "is_reserved": 0, "fusion_lon": 0.0, "fusion_lat": 0.0, "lon": -77.02382833333333, "name": "f0f075fdeae41b0ccb37f896a6c3c7c1"}, {"bike_id": "b3ed57f7e5665458a06a64dbb624f9a6", "type": "electric_scooter", "is_disabled": 0, "lat": 38.90933366666667, "rental_uris": {"ios": "https://dc.lft.to/lastmile_qr_scan", "android": "https://dc.lft.to/lastmile_qr_scan"}, "is_reserved": 0, "fusion_lon": 0.0, "fusion_lat": 0.0, "lon": -77.03314516666667, "name": "b3ed57f7e5665458a06a64dbb624f9a6"}, {"bike_id": "29db8f83111953d37aee73823157da68", "type": "electric_scooter", "is_disabled": 0, "lat": 38.90112416666667, "rental_uris": {"ios": "https://dc.lft.to/lastmile_qr_scan", "android": "https://dc.lft.to/lastmile_qr_scan"}, "is_reserved": 0, "fusion_lon": 0.0, "fusion_lat": 0.0, "lon": -77.04333533333333, "name": "29db8f83111953d37aee73823157da68"}, {"bike_id": "7c7ad3ad864cabc3de4a0f3a561aeedf", "type": "electric_scooter", "is_disabled": 0, "lat": 38.897256666666664, "rental_uris": {"ios": "https://dc.lft.to/lastmile_qr_scan", "android": "https://dc.lft.to/lastmile_qr_scan"}, "is_reserved": 0, "fusion_lon": 0.0, "fusion_lat": 0.0, "lon": -77.04532933333333, "name": "7c7ad3ad864cabc3de4a0f3a561aeedf"}, {"bike_id": "626147770ba704993f9c5c032c4b539f", "type": "electric_scooter", "is_disabled": 0, "lat": 38.909525333333335, "rental_uris": {"ios": "https://dc.lft.to/lastmile_qr_scan", "android": "https://dc.lft.to/lastmile_qr_scan"}, "is_reserved": 0, "fusion_lon": 0.0, "fusion_lat": 0.0, "lon": -77.0323675, "name": "626147770ba704993f9c5c032c4b539f"}, {"bike_id": "60f23ea8d0a195a67847118350cf3e48", "type": "electric_scooter", "is_disabled": 0, "lat": 38.9237475, "rental_uris": {"ios": "https://dc.lft.to/lastmile_qr_scan", "android": "https://dc.lft.to/lastmile_qr_scan"}, "is_reserved": 0, "fusion_lon": 0.0, "fusion_lat": 0.0, "lon": -77.03128583333333, "name": "60f23ea8d0a195a67847118350cf3e48"}, {"bike_id": "4bffc2df6fe73a0a96e76f709d5453f7", "type": "electric_scooter", "is_disabled": 0, "lat": 38.920202, "rental_uris": {"ios": "https://dc.lft.to/lastmile_qr_scan", "android": "https://dc.lft.to/lastmile_qr_scan"}, "is_reserved": 0, "fusion_lon": 0.0, "fusion_lat": 0.0, "lon": -77.01317216666666, "name": "4bffc2df6fe73a0a96e76f709d5453f7"}, {"bike_id": "17c5d0437572063f37d19b13dc16da80", "type": "electric_scooter", "is_disabled": 0, "lat": 38.918146166666666, "rental_uris": {"ios": "https://dc.lft.to/lastmile_qr_scan", "android": "https://dc.lft.to/lastmile_qr_scan"}, "is_reserved": 0, "fusion_lon": 0.0, "fusion_lat": 0.0, "lon": -77.024706, "name": "17c5d0437572063f37d19b13dc16da80"}, {"bike_id": "a599be9e9e281005a579b025cbfe0d1c", "type": "electric_scooter", "is_disabled": 0, "lat": 38.913284, "rental_uris": {"ios": "https://dc.lft.to/lastmile_qr_scan", "android": "https://dc.lft.to/lastmile_qr_scan"}, "is_reserved": 0, "fusion_lon": 0.0, "fusion_lat": 0.0, "lon": -77.0269305, "name": "a599be9e9e281005a579b025cbfe0d1c"}, {"bike_id": "2004c0f9d8fb8fba2b340d9836c831fd", "type": "electric_scooter", "is_disabled": 0, "lat": 38.94215283333333, "rental_uris": {"ios": "https://dc.lft.to/lastmile_qr_scan", "android": "https://dc.lft.to/lastmile_qr_scan"}, "is_reserved": 0, "fusion_lon": 0.0, "fusion_lat": 0.0, "lon": -77.025794, "name": "2004c0f9d8fb8fba2b340d9836c831fd"}, {"bike_id": "0a8f2918ce7cd4450fc6faa9420119c0", "type": "electric_scooter", "is_disabled": 0, "lat": 38.936387, "rental_uris": {"ios": "https://dc.lft.to/lastmile_qr_scan", "android": "https://dc.lft.to/lastmile_qr_scan"}, "is_reserved": 0, "fusion_lon": 0.0, "fusion_lat": 0.0, "lon": -77.0588325, "name": "0a8f2918ce7cd4450fc6faa9420119c0"}, {"bike_id": "f2d8e7f561ee691d947c9ae5eb574a46", "type": "electric_scooter", "is_disabled": 0, "lat": 38.91930116666666, "rental_uris": {"ios": "https://dc.lft.to/lastmile_qr_scan", "android": "https://dc.lft.to/lastmile_qr_scan"}, "is_reserved": 0, "fusion_lon": 0.0, "fusion_lat": 0.0, "lon": -77.02576183333333, "name": "f2d8e7f561ee691d947c9ae5eb574a46"}, {"bike_id": "47e940966032750ad3e309ac4102afec", "type": "electric_scooter", "is_disabled": 0, "lat": 38.9162665, "rental_uris": {"ios": "https://dc.lft.to/lastmile_qr_scan", "android": "https://dc.lft.to/lastmile_qr_scan"}, "is_reserved": 0, "fusion_lon": 0.0, "fusion_lat": 0.0, "lon": -77.030415, "name": "47e940966032750ad3e309ac4102afec"}, {"bike_id": "fc512c007c0c61b10ed10bf1888ad181", "type": "electric_scooter", "is_disabled": 0, "lat": 38.9236785, "rental_uris": {"ios": "https://dc.lft.to/lastmile_qr_scan", "android": "https://dc.lft.to/lastmile_qr_scan"}, "is_reserved": 0, "fusion_lon": 0.0, "fusion_lat": 0.0, "lon": -77.03085283333333, "name": "fc512c007c0c61b10ed10bf1888ad181"}, {"bike_id": "6626af7201e852cd68dea1150a7a540d", "type": "electric_scooter", "is_disabled": 0, "lat": 38.9313625, "rental_uris": {"ios": "https://dc.lft.to/lastmile_qr_scan", "android": "https://dc.lft.to/lastmile_qr_scan"}, "is_reserved": 0, "fusion_lon": 0.0, "fusion_lat": 0.0, "lon": -77.043447, "name": "6626af7201e852cd68dea1150a7a540d"}, {"bike_id": "9555774241da46550721c534d5b4915b", "type": "electric_scooter", "is_disabled": 0, "lat": 38.90762333333333, "rental_uris": {"ios": "https://dc.lft.to/lastmile_qr_scan", "android": "https://dc.lft.to/lastmile_qr_scan"}, "is_reserved": 0, "fusion_lon": 0.0, "fusion_lat": 0.0, "lon": -77.003473, "name": "9555774241da46550721c534d5b4915b"}, {"bike_id": "05b930b960fe648e0067698ad9d38de2", "type": "electric_scooter", "is_disabled": 0, "lat": 38.917132333333335, "rental_uris": {"ios": "https://dc.lft.to/lastmile_qr_scan", "android": "https://dc.lft.to/lastmile_qr_scan"}, "is_reserved": 0, "fusion_lon": 0.0, "fusion_lat": 0.0, "lon": -77.03474633333333, "name": "05b930b960fe648e0067698ad9d38de2"}, {"bike_id": "34e7b5055f373bbfd6556d26b1af2618", "type": "electric_scooter", "is_disabled": 0, "lat": 38.867003, "rental_uris": {"ios": "https://dc.lft.to/lastmile_qr_scan", "android": "https://dc.lft.to/lastmile_qr_scan"}, "is_reserved": 0, "fusion_lon": 0.0, "fusion_lat": 0.0, "lon": -76.9858525, "name": "34e7b5055f373bbfd6556d26b1af2618"}, {"bike_id": "037919cb93286c586d3ef9927b9b3c41", "type": "electric_scooter", "is_disabled": 0, "lat": 38.92192766666667, "rental_uris": {"ios": "https://dc.lft.to/lastmile_qr_scan", "android": "https://dc.lft.to/lastmile_qr_scan"}, "is_reserved": 0, "fusion_lon": 0.0, "fusion_lat": 0.0, "lon": -77.037828, "name": "037919cb93286c586d3ef9927b9b3c41"}, {"bike_id": "1321169b4f7efd6188cdca9c987fffd7", "type": "electric_scooter", "is_disabled": 0, "lat": 38.911320833333335, "rental_uris": {"ios": "https://dc.lft.to/lastmile_qr_scan", "android": "https://dc.lft.to/lastmile_qr_scan"}, "is_reserved": 0, "fusion_lon": 0.0, "fusion_lat": 0.0, "lon": -77.04413266666667, "name": "1321169b4f7efd6188cdca9c987fffd7"}, {"bike_id": "e8511b063f29ca63a7a1ba7980499247", "type": "electric_scooter", "is_disabled": 0, "lat": 38.91117966666667, "rental_uris": {"ios": "https://dc.lft.to/lastmile_qr_scan", "android": "https://dc.lft.to/lastmile_qr_scan"}, "is_reserved": 0, "fusion_lon": 0.0, "fusion_lat": 0.0, "lon": -77.04222433333334, "name": "e8511b063f29ca63a7a1ba7980499247"}, {"bike_id": "8d4aa7b41258a3a9436cf7a142ff8a74", "type": "electric_scooter", "is_disabled": 0, "lat": 38.86684266666666, "rental_uris": {"ios": "https://dc.lft.to/lastmile_qr_scan", "android": "https://dc.lft.to/lastmile_qr_scan"}, "is_reserved": 0, "fusion_lon": 0.0, "fusion_lat": 0.0, "lon": -76.98573583333334, "name": "8d4aa7b41258a3a9436cf7a142ff8a74"}, {"bike_id": "889a1f642d4dd5935311d139b2a7c7b5", "type": "electric_scooter", "is_disabled": 0, "lat": 38.9337145, "rental_uris": {"ios": "https://dc.lft.to/lastmile_qr_scan", "android": "https://dc.lft.to/lastmile_qr_scan"}, "is_reserved": 0, "fusion_lon": 0.0, "fusion_lat": 0.0, "lon": -77.05725416666667, "name": "889a1f642d4dd5935311d139b2a7c7b5"}, {"bike_id": "3dc49edf31f3860857a81c56482932ed", "type": "electric_scooter", "is_disabled": 0, "lat": 38.899121, "rental_uris": {"ios": "https://dc.lft.to/lastmile_qr_scan", "android": "https://dc.lft.to/lastmile_qr_scan"}, "is_reserved": 0, "fusion_lon": 0.0, "fusion_lat": 0.0, "lon": -76.98176716666667, "name": "3dc49edf31f3860857a81c56482932ed"}, {"bike_id": "62604cfd75a679c1333a38c8c572c975", "type": "electric_scooter", "is_disabled": 0, "lat": 38.93357866666667, "rental_uris": {"ios": "https://dc.lft.to/lastmile_qr_scan", "android": "https://dc.lft.to/lastmile_qr_scan"}, "is_reserved": 0, "fusion_lon": 0.0, "fusion_lat": 0.0, "lon": -76.99261516666667, "name": "62604cfd75a679c1333a38c8c572c975"}, {"bike_id": "e1311a694aa7282b56ac2053326458a3", "type": "electric_scooter", "is_disabled": 0, "lat": 38.90070333333333, "rental_uris": {"ios": "https://dc.lft.to/lastmile_qr_scan", "android": "https://dc.lft.to/lastmile_qr_scan"}, "is_reserved": 0, "fusion_lon": 0.0, "fusion_lat": 0.0, "lon": -77.018171, "name": "e1311a694aa7282b56ac2053326458a3"}, {"bike_id": "8057a1239b129a2d02bc0ab268f40cec", "type": "electric_scooter", "is_disabled": 0, "lat": 38.942266833333335, "rental_uris": {"ios": "https://dc.lft.to/lastmile_qr_scan", "android": "https://dc.lft.to/lastmile_qr_scan"}, "is_reserved": 0, "fusion_lon": 0.0, "fusion_lat": 0.0, "lon": -77.01437483333333, "name": "8057a1239b129a2d02bc0ab268f40cec"}, {"bike_id": "2c613f3a38b5a59f8ab5b092a18ecd25", "type": "electric_scooter", "is_disabled": 0, "lat": 38.90857316666666, "rental_uris": {"ios": "https://dc.lft.to/lastmile_qr_scan", "android": "https://dc.lft.to/lastmile_qr_scan"}, "is_reserved": 0, "fusion_lon": 0.0, "fusion_lat": 0.0, "lon": -77.02374916666666, "name": "2c613f3a38b5a59f8ab5b092a18ecd25"}, {"bike_id": "591b1980cce102ec5c0a09f85f95b9cf", "type": "electric_scooter", "is_disabled": 0, "lat": 38.917848666666664, "rental_uris": {"ios": "https://dc.lft.to/lastmile_qr_scan", "android": "https://dc.lft.to/lastmile_qr_scan"}, "is_reserved": 0, "fusion_lon": 0.0, "fusion_lat": 0.0, "lon": -77.04551116666667, "name": "591b1980cce102ec5c0a09f85f95b9cf"}, {"bike_id": "cf58fa022cc3f7b8f9e5b849394964ff", "type": "electric_scooter", "is_disabled": 0, "lat": 38.9314955, "rental_uris": {"ios": "https://dc.lft.to/lastmile_qr_scan", "android": "https://dc.lft.to/lastmile_qr_scan"}, "is_reserved": 0, "fusion_lon": 0.0, "fusion_lat": 0.0, "lon": -77.0334775, "name": "cf58fa022cc3f7b8f9e5b849394964ff"}, {"bike_id": "9f5b21fcb15f77743f5979505a76dd27", "type": "electric_scooter", "is_disabled": 0, "lat": 38.909637000000004, "rental_uris": {"ios": "https://dc.lft.to/lastmile_qr_scan", "android": "https://dc.lft.to/lastmile_qr_scan"}, "is_reserved": 0, "fusion_lon": 0.0, "fusion_lat": 0.0, "lon": -77.02280016666667, "name": "9f5b21fcb15f77743f5979505a76dd27"}, {"bike_id": "992a903f73c51e6c9d0fa46f7d8b331f", "type": "electric_scooter", "is_disabled": 0, "lat": 38.901940333333336, "rental_uris": {"ios": "https://dc.lft.to/lastmile_qr_scan", "android": "https://dc.lft.to/lastmile_qr_scan"}, "is_reserved": 0, "fusion_lon": 0.0, "fusion_lat": 0.0, "lon": -77.01312533333333, "name": "992a903f73c51e6c9d0fa46f7d8b331f"}, {"bike_id": "dc2d20aea31941793e37cfe80e8d0d31", "type": "electric_bike", "is_disabled": 0, "lat": 38.9787855, "rental_uris": {"ios": "https://dc.lft.to/lastmile_qr_scan", "android": "https://dc.lft.to/lastmile_qr_scan"}, "is_reserved": 0, "fusion_lon": 0.0, "fusion_lat": 0.0, "lon": -77.06023183333333, "name": "dc2d20aea31941793e37cfe80e8d0d31"}, {"bike_id": "87f32561e16dd287845034483311293f", "type": "electric_scooter", "is_disabled": 0, "lat": 38.9097645, "rental_uris": {"ios": "https://dc.lft.to/lastmile_qr_scan", "android": "https://dc.lft.to/lastmile_qr_scan"}, "is_reserved": 0, "fusion_lon": 0.0, "fusion_lat": 0.0, "lon": -77.04787766666666, "name": "87f32561e16dd287845034483311293f"}, {"bike_id": "11cf7c07d654ecdcabedf7edb5b7c156", "type": "electric_scooter", "is_disabled": 0, "lat": 38.9362635, "rental_uris": {"ios": "https://dc.lft.to/lastmile_qr_scan", "android": "https://dc.lft.to/lastmile_qr_scan"}, "is_reserved": 0, "fusion_lon": 0.0, "fusion_lat": 0.0, "lon": -76.97615, "name": "11cf7c07d654ecdcabedf7edb5b7c156"}, {"bike_id": "bbf4dd944fe0c6fc7aeb4c81e7dfe706", "type": "electric_scooter", "is_disabled": 0, "lat": 38.89481983333334, "rental_uris": {"ios": "https://dc.lft.to/lastmile_qr_scan", "android": "https://dc.lft.to/lastmile_qr_scan"}, "is_reserved": 0, "fusion_lon": 0.0, "fusion_lat": 0.0, "lon": -76.948607, "name": "bbf4dd944fe0c6fc7aeb4c81e7dfe706"}, {"bike_id": "4d8cc41426b831747b53f12e23be4653", "type": "electric_scooter", "is_disabled": 0, "lat": 38.87647166666667, "rental_uris": {"ios": "https://dc.lft.to/lastmile_qr_scan", "android": "https://dc.lft.to/lastmile_qr_scan"}, "is_reserved": 0, "fusion_lon": 0.0, "fusion_lat": 0.0, "lon": -77.00410116666667, "name": "4d8cc41426b831747b53f12e23be4653"}, {"bike_id": "54ee7f94251a1a14db09d3c9bbd571e3", "type": "electric_scooter", "is_disabled": 0, "lat": 38.90174966666667, "rental_uris": {"ios": "https://dc.lft.to/lastmile_qr_scan", "android": "https://dc.lft.to/lastmile_qr_scan"}, "is_reserved": 0, "fusion_lon": 0.0, "fusion_lat": 0.0, "lon": -77.0126185, "name": "54ee7f94251a1a14db09d3c9bbd571e3"}, {"bike_id": "b560f8582ecde03d02d229564c062d30", "type": "electric_scooter", "is_disabled": 0, "lat": 38.9048475, "rental_uris": {"ios": "https://dc.lft.to/lastmile_qr_scan", "android": "https://dc.lft.to/lastmile_qr_scan"}, "is_reserved": 0, "fusion_lon": 0.0, "fusion_lat": 0.0, "lon": -77.02940833333334, "name": "b560f8582ecde03d02d229564c062d30"}, {"bike_id": "bc19d648ea58d46cf0c7dc857209b465", "type": "electric_scooter", "is_disabled": 0, "lat": 38.906387333333335, "rental_uris": {"ios": "https://dc.lft.to/lastmile_qr_scan", "android": "https://dc.lft.to/lastmile_qr_scan"}, "is_reserved": 0, "fusion_lon": 0.0, "fusion_lat": 0.0, "lon": -77.05141783333333, "name": "bc19d648ea58d46cf0c7dc857209b465"}, {"bike_id": "4db1fbb27a7aeffe31de7228bbf53af5", "type": "electric_bike", "is_disabled": 0, "lat": 39.0369665, "rental_uris": {"ios": "https://dc.lft.to/lastmile_qr_scan", "android": "https://dc.lft.to/lastmile_qr_scan"}, "is_reserved": 0, "fusion_lon": 0.0, "fusion_lat": 0.0, "lon": -77.0285865, "name": "4db1fbb27a7aeffe31de7228bbf53af5"}, {"bike_id": "442b24fbd2efed13ac9452403c23622b", "type": "electric_scooter", "is_disabled": 0, "lat": 38.87562, "rental_uris": {"ios": "https://dc.lft.to/lastmile_qr_scan", "android": "https://dc.lft.to/lastmile_qr_scan"}, "is_reserved": 0, "fusion_lon": 0.0, "fusion_lat": 0.0, "lon": -76.95867233333334, "name": "442b24fbd2efed13ac9452403c23622b"}, {"bike_id": "16d9e90bcc7b3d1c25935c1f113fd49c", "type": "electric_scooter", "is_disabled": 0, "lat": 38.916776, "rental_uris": {"ios": "https://dc.lft.to/lastmile_qr_scan", "android": "https://dc.lft.to/lastmile_qr_scan"}, "is_reserved": 0, "fusion_lon": 0.0, "fusion_lat": 0.0, "lon": -77.02333366666667, "name": "16d9e90bcc7b3d1c25935c1f113fd49c"}, {"bike_id": "bc5a8f0cf7a6637df9293ee448a0759b", "type": "electric_scooter", "is_disabled": 0, "lat": 38.9166025, "rental_uris": {"ios": "https://dc.lft.to/lastmile_qr_scan", "android": "https://dc.lft.to/lastmile_qr_scan"}, "is_reserved": 0, "fusion_lon": 0.0, "fusion_lat": 0.0, "lon": -77.02280133333333, "name": "bc5a8f0cf7a6637df9293ee448a0759b"}, {"bike_id": "6ea8c02043faa8d97e8b1da90002b531", "type": "electric_scooter", "is_disabled": 0, "lat": 38.922456833333335, "rental_uris": {"ios": "https://dc.lft.to/lastmile_qr_scan", "android": "https://dc.lft.to/lastmile_qr_scan"}, "is_reserved": 0, "fusion_lon": 0.0, "fusion_lat": 0.0, "lon": -77.03023816666666, "name": "6ea8c02043faa8d97e8b1da90002b531"}, {"bike_id": "48160e2059a92717e751c73b85bb3c8b", "type": "electric_scooter", "is_disabled": 0, "lat": 38.93476316666667, "rental_uris": {"ios": "https://dc.lft.to/lastmile_qr_scan", "android": "https://dc.lft.to/lastmile_qr_scan"}, "is_reserved": 0, "fusion_lon": 0.0, "fusion_lat": 0.0, "lon": -77.03408533333334, "name": "48160e2059a92717e751c73b85bb3c8b"}, {"bike_id": "6d81f475102933883a4b6f84400c1787", "type": "electric_scooter", "is_disabled": 0, "lat": 38.93917283333333, "rental_uris": {"ios": "https://dc.lft.to/lastmile_qr_scan", "android": "https://dc.lft.to/lastmile_qr_scan"}, "is_reserved": 0, "fusion_lon": 0.0, "fusion_lat": 0.0, "lon": -77.06043266666667, "name": "6d81f475102933883a4b6f84400c1787"}, {"bike_id": "0520653249a056f5203d2f81919fc2d4", "type": "electric_scooter", "is_disabled": 0, "lat": 38.92864016666667, "rental_uris": {"ios": "https://dc.lft.to/lastmile_qr_scan", "android": "https://dc.lft.to/lastmile_qr_scan"}, "is_reserved": 0, "fusion_lon": 0.0, "fusion_lat": 0.0, "lon": -77.03709866666667, "name": "0520653249a056f5203d2f81919fc2d4"}, {"bike_id": "8ec5b9689f0d7017c153feb6dbd763af", "type": "electric_scooter", "is_disabled": 0, "lat": 38.92530216666667, "rental_uris": {"ios": "https://dc.lft.to/lastmile_qr_scan", "android": "https://dc.lft.to/lastmile_qr_scan"}, "is_reserved": 0, "fusion_lon": 0.0, "fusion_lat": 0.0, "lon": -77.03352883333334, "name": "8ec5b9689f0d7017c153feb6dbd763af"}, {"bike_id": "5b7f87c948b9a5fbc96b5735b1697b08", "type": "electric_scooter", "is_disabled": 0, "lat": 38.949161, "rental_uris": {"ios": "https://dc.lft.to/lastmile_qr_scan", "android": "https://dc.lft.to/lastmile_qr_scan"}, "is_reserved": 0, "fusion_lon": 0.0, "fusion_lat": 0.0, "lon": -77.0651265, "name": "5b7f87c948b9a5fbc96b5735b1697b08"}, {"bike_id": "1053f90873748784ceeb70ada9a6070d", "type": "electric_bike", "is_disabled": 0, "lat": 38.94260466666667, "rental_uris": {"ios": "https://dc.lft.to/lastmile_qr_scan", "android": "https://dc.lft.to/lastmile_qr_scan"}, "is_reserved": 0, "fusion_lon": 0.0, "fusion_lat": 0.0, "lon": -76.99068916666667, "name": "1053f90873748784ceeb70ada9a6070d"}, {"bike_id": "2f1e73a605922ab129b9fcea9aa267f5", "type": "electric_scooter", "is_disabled": 0, "lat": 38.90846333333333, "rental_uris": {"ios": "https://dc.lft.to/lastmile_qr_scan", "android": "https://dc.lft.to/lastmile_qr_scan"}, "is_reserved": 0, "fusion_lon": 0.0, "fusion_lat": 0.0, "lon": -77.0334915, "name": "2f1e73a605922ab129b9fcea9aa267f5"}, {"bike_id": "f1fc8db584c60fe1ad4db13d272b5558", "type": "electric_scooter", "is_disabled": 0, "lat": 38.866787333333335, "rental_uris": {"ios": "https://dc.lft.to/lastmile_qr_scan", "android": "https://dc.lft.to/lastmile_qr_scan"}, "is_reserved": 0, "fusion_lon": 0.0, "fusion_lat": 0.0, "lon": -76.98567683333333, "name": "f1fc8db584c60fe1ad4db13d272b5558"}, {"bike_id": "fdadae968275506195e0364ae5107c4b", "type": "electric_scooter", "is_disabled": 0, "lat": 38.916688, "rental_uris": {"ios": "https://dc.lft.to/lastmile_qr_scan", "android": "https://dc.lft.to/lastmile_qr_scan"}, "is_reserved": 0, "fusion_lon": 0.0, "fusion_lat": 0.0, "lon": -77.04679983333334, "name": "fdadae968275506195e0364ae5107c4b"}, {"bike_id": "f5692b4eda5b63ea5e24fdbeb3593d85", "type": "electric_scooter", "is_disabled": 0, "lat": 38.89502233333333, "rental_uris": {"ios": "https://dc.lft.to/lastmile_qr_scan", "android": "https://dc.lft.to/lastmile_qr_scan"}, "is_reserved": 0, "fusion_lon": 0.0, "fusion_lat": 0.0, "lon": -76.93481416666667, "name": "f5692b4eda5b63ea5e24fdbeb3593d85"}, {"bike_id": "e2a6b947221df655f30e33e665b33b99", "type": "electric_scooter", "is_disabled": 0, "lat": 38.951214, "rental_uris": {"ios": "https://dc.lft.to/lastmile_qr_scan", "android": "https://dc.lft.to/lastmile_qr_scan"}, "is_reserved": 0, "fusion_lon": 0.0, "fusion_lat": 0.0, "lon": -77.01438166666667, "name": "e2a6b947221df655f30e33e665b33b99"}, {"bike_id": "a74c8ddc802cbd0c84a4eec02106b181", "type": "electric_bike", "is_disabled": 0, "lat": 38.84837916666667, "rental_uris": {"ios": "https://dc.lft.to/lastmile_qr_scan", "android": "https://dc.lft.to/lastmile_qr_scan"}, "is_reserved": 0, "fusion_lon": 0.0, "fusion_lat": 0.0, "lon": -77.07909416666666, "name": "a74c8ddc802cbd0c84a4eec02106b181"}, {"bike_id": "0a1f56f54d0b344420a43d4a422a9943", "type": "electric_scooter", "is_disabled": 0, "lat": 38.9181645, "rental_uris": {"ios": "https://dc.lft.to/lastmile_qr_scan", "android": "https://dc.lft.to/lastmile_qr_scan"}, "is_reserved": 0, "fusion_lon": 0.0, "fusion_lat": 0.0, "lon": -77.0247235, "name": "0a1f56f54d0b344420a43d4a422a9943"}, {"bike_id": "7de36a3c919752381721ff681bc1d40c", "type": "electric_scooter", "is_disabled": 0, "lat": 38.917799, "rental_uris": {"ios": "https://dc.lft.to/lastmile_qr_scan", "android": "https://dc.lft.to/lastmile_qr_scan"}, "is_reserved": 0, "fusion_lon": 0.0, "fusion_lat": 0.0, "lon": -77.02316433333333, "name": "7de36a3c919752381721ff681bc1d40c"}, {"bike_id": "11497e6601d901f385a2f81107760bba", "type": "electric_scooter", "is_disabled": 0, "lat": 38.9076165, "rental_uris": {"ios": "https://dc.lft.to/lastmile_qr_scan", "android": "https://dc.lft.to/lastmile_qr_scan"}, "is_reserved": 0, "fusion_lon": 0.0, "fusion_lat": 0.0, "lon": -77.043371, "name": "11497e6601d901f385a2f81107760bba"}, {"bike_id": "bf7f539c02526507e4ad5b2b5f26e483", "type": "electric_scooter", "is_disabled": 0, "lat": 38.90595833333333, "rental_uris": {"ios": "https://dc.lft.to/lastmile_qr_scan", "android": "https://dc.lft.to/lastmile_qr_scan"}, "is_reserved": 0, "fusion_lon": 0.0, "fusion_lat": 0.0, "lon": -77.04038433333334, "name": "bf7f539c02526507e4ad5b2b5f26e483"}, {"bike_id": "0233d6bf6bcd596dfd55af60e0c61897", "type": "electric_scooter", "is_disabled": 0, "lat": 38.90076, "rental_uris": {"ios": "https://dc.lft.to/lastmile_qr_scan", "android": "https://dc.lft.to/lastmile_qr_scan"}, "is_reserved": 0, "fusion_lon": 0.0, "fusion_lat": 0.0, "lon": -77.04848766666667, "name": "0233d6bf6bcd596dfd55af60e0c61897"}, {"bike_id": "89c32f638354ccf79a1956e9a6d105b7", "type": "electric_scooter", "is_disabled": 0, "lat": 38.92471066666667, "rental_uris": {"ios": "https://dc.lft.to/lastmile_qr_scan", "android": "https://dc.lft.to/lastmile_qr_scan"}, "is_reserved": 0, "fusion_lon": 0.0, "fusion_lat": 0.0, "lon": -77.02829066666666, "name": "89c32f638354ccf79a1956e9a6d105b7"}, {"bike_id": "35fd2d952e15a7b24061b5c752fbb8dc", "type": "electric_scooter", "is_disabled": 0, "lat": 38.89876816666667, "rental_uris": {"ios": "https://dc.lft.to/lastmile_qr_scan", "android": "https://dc.lft.to/lastmile_qr_scan"}, "is_reserved": 0, "fusion_lon": 0.0, "fusion_lat": 0.0, "lon": -76.93184466666666, "name": "35fd2d952e15a7b24061b5c752fbb8dc"}, {"bike_id": "cccad716b39194658f8d6d4c9520700b", "type": "electric_scooter", "is_disabled": 0, "lat": 38.926005833333335, "rental_uris": {"ios": "https://dc.lft.to/lastmile_qr_scan", "android": "https://dc.lft.to/lastmile_qr_scan"}, "is_reserved": 0, "fusion_lon": 0.0, "fusion_lat": 0.0, "lon": -77.024386, "name": "cccad716b39194658f8d6d4c9520700b"}, {"bike_id": "d7f9a926823463f1e6dad62b9cf3164e", "type": "electric_scooter", "is_disabled": 0, "lat": 38.9182675, "rental_uris": {"ios": "https://dc.lft.to/lastmile_qr_scan", "android": "https://dc.lft.to/lastmile_qr_scan"}, "is_reserved": 0, "fusion_lon": 0.0, "fusion_lat": 0.0, "lon": -77.03638016666666, "name": "d7f9a926823463f1e6dad62b9cf3164e"}, {"bike_id": "44932a6800ed5c222e2c7d3518781c0e", "type": "electric_bike", "is_disabled": 0, "lat": 38.93970433333333, "rental_uris": {"ios": "https://dc.lft.to/lastmile_qr_scan", "android": "https://dc.lft.to/lastmile_qr_scan"}, "is_reserved": 0, "fusion_lon": 0.0, "fusion_lat": 0.0, "lon": -77.052589, "name": "44932a6800ed5c222e2c7d3518781c0e"}, {"bike_id": "0d84d8e44156b0b7d9590311625d23a4", "type": "electric_scooter", "is_disabled": 0, "lat": 38.90583133333333, "rental_uris": {"ios": "https://dc.lft.to/lastmile_qr_scan", "android": "https://dc.lft.to/lastmile_qr_scan"}, "is_reserved": 0, "fusion_lon": 0.0, "fusion_lat": 0.0, "lon": -77.04267033333333, "name": "0d84d8e44156b0b7d9590311625d23a4"}, {"bike_id": "76801a222c14f683f691300c024bd78f", "type": "electric_scooter", "is_disabled": 0, "lat": 38.92375116666667, "rental_uris": {"ios": "https://dc.lft.to/lastmile_qr_scan", "android": "https://dc.lft.to/lastmile_qr_scan"}, "is_reserved": 0, "fusion_lon": 0.0, "fusion_lat": 0.0, "lon": -77.02983366666666, "name": "76801a222c14f683f691300c024bd78f"}, {"bike_id": "26f1fde7b90a81baae0248abb6971e46", "type": "electric_bike", "is_disabled": 0, "lat": 38.933672333333334, "rental_uris": {"ios": "https://dc.lft.to/lastmile_qr_scan", "android": "https://dc.lft.to/lastmile_qr_scan"}, "is_reserved": 0, "fusion_lon": 0.0, "fusion_lat": 0.0, "lon": -77.024185, "name": "26f1fde7b90a81baae0248abb6971e46"}, {"bike_id": "08e0fde69c80222d1f3e4823a942f924", "type": "electric_scooter", "is_disabled": 0, "lat": 38.881895166666666, "rental_uris": {"ios": "https://dc.lft.to/lastmile_qr_scan", "android": "https://dc.lft.to/lastmile_qr_scan"}, "is_reserved": 0, "fusion_lon": 0.0, "fusion_lat": 0.0, "lon": -76.98932033333334, "name": "08e0fde69c80222d1f3e4823a942f924"}, {"bike_id": "4a3c2a00e21fe127cdcc8051961c4f97", "type": "electric_scooter", "is_disabled": 0, "lat": 38.905095, "rental_uris": {"ios": "https://dc.lft.to/lastmile_qr_scan", "android": "https://dc.lft.to/lastmile_qr_scan"}, "is_reserved": 0, "fusion_lon": 0.0, "fusion_lat": 0.0, "lon": -77.063838, "name": "4a3c2a00e21fe127cdcc8051961c4f97"}, {"bike_id": "65fc895df9c7897de6091ec2606e16a2", "type": "electric_scooter", "is_disabled": 0, "lat": 38.927702333333336, "rental_uris": {"ios": "https://dc.lft.to/lastmile_qr_scan", "android": "https://dc.lft.to/lastmile_qr_scan"}, "is_reserved": 0, "fusion_lon": 0.0, "fusion_lat": 0.0, "lon": -77.0291815, "name": "65fc895df9c7897de6091ec2606e16a2"}, {"bike_id": "26df04ecd43c006dff83c6d9d9744ba9", "type": "electric_scooter", "is_disabled": 0, "lat": 38.9077625, "rental_uris": {"ios": "https://dc.lft.to/lastmile_qr_scan", "android": "https://dc.lft.to/lastmile_qr_scan"}, "is_reserved": 0, "fusion_lon": 0.0, "fusion_lat": 0.0, "lon": -77.07168583333333, "name": "26df04ecd43c006dff83c6d9d9744ba9"}, {"bike_id": "3020ea35c05eb71ee0e4e0a7dedf2ca0", "type": "electric_scooter", "is_disabled": 0, "lat": 38.90531283333333, "rental_uris": {"ios": "https://dc.lft.to/lastmile_qr_scan", "android": "https://dc.lft.to/lastmile_qr_scan"}, "is_reserved": 0, "fusion_lon": 0.0, "fusion_lat": 0.0, "lon": -77.05903533333333, "name": "3020ea35c05eb71ee0e4e0a7dedf2ca0"}, {"bike_id": "f44d66bc5918da81a1250c4d2a3cdf6c", "type": "electric_scooter", "is_disabled": 0, "lat": 38.9082065, "rental_uris": {"ios": "https://dc.lft.to/lastmile_qr_scan", "android": "https://dc.lft.to/lastmile_qr_scan"}, "is_reserved": 0, "fusion_lon": 0.0, "fusion_lat": 0.0, "lon": -77.0296055, "name": "f44d66bc5918da81a1250c4d2a3cdf6c"}, {"bike_id": "c6b710216c4ebc56c251bae03afe47db", "type": "electric_scooter", "is_disabled": 0, "lat": 38.909513, "rental_uris": {"ios": "https://dc.lft.to/lastmile_qr_scan", "android": "https://dc.lft.to/lastmile_qr_scan"}, "is_reserved": 0, "fusion_lon": 0.0, "fusion_lat": 0.0, "lon": -77.02598566666667, "name": "c6b710216c4ebc56c251bae03afe47db"}, {"bike_id": "393db9c541d14c3ac7bab4bed15e221f", "type": "electric_scooter", "is_disabled": 0, "lat": 38.8988675, "rental_uris": {"ios": "https://dc.lft.to/lastmile_qr_scan", "android": "https://dc.lft.to/lastmile_qr_scan"}, "is_reserved": 0, "fusion_lon": 0.0, "fusion_lat": 0.0, "lon": -76.93180333333333, "name": "393db9c541d14c3ac7bab4bed15e221f"}, {"bike_id": "d6da6e54e7bd9e4e6fef835e99977514", "type": "electric_scooter", "is_disabled": 0, "lat": 38.927641333333334, "rental_uris": {"ios": "https://dc.lft.to/lastmile_qr_scan", "android": "https://dc.lft.to/lastmile_qr_scan"}, "is_reserved": 0, "fusion_lon": 0.0, "fusion_lat": 0.0, "lon": -77.02850916666667, "name": "d6da6e54e7bd9e4e6fef835e99977514"}, {"bike_id": "a95dfa5dd34a870406b8c16febe2ec63", "type": "electric_scooter", "is_disabled": 0, "lat": 38.897810166666666, "rental_uris": {"ios": "https://dc.lft.to/lastmile_qr_scan", "android": "https://dc.lft.to/lastmile_qr_scan"}, "is_reserved": 0, "fusion_lon": 0.0, "fusion_lat": 0.0, "lon": -77.02188683333334, "name": "a95dfa5dd34a870406b8c16febe2ec63"}, {"bike_id": "0a8f129903ae6259cdc970150f09eb5b", "type": "electric_scooter", "is_disabled": 0, "lat": 38.898483166666665, "rental_uris": {"ios": "https://dc.lft.to/lastmile_qr_scan", "android": "https://dc.lft.to/lastmile_qr_scan"}, "is_reserved": 0, "fusion_lon": 0.0, "fusion_lat": 0.0, "lon": -76.9902315, "name": "0a8f129903ae6259cdc970150f09eb5b"}, {"bike_id": "209e4cfef6ebcd5ca4b271ba62c90acd", "type": "electric_bike", "is_disabled": 0, "lat": 38.866201833333335, "rental_uris": {"ios": "https://dc.lft.to/lastmile_qr_scan", "android": "https://dc.lft.to/lastmile_qr_scan"}, "is_reserved": 0, "fusion_lon": 0.0, "fusion_lat": 0.0, "lon": -76.94572116666667, "name": "209e4cfef6ebcd5ca4b271ba62c90acd"}, {"bike_id": "cde4925eaf3eab6919fe7da6a8e497dc", "type": "electric_scooter", "is_disabled": 0, "lat": 38.9205855, "rental_uris": {"ios": "https://dc.lft.to/lastmile_qr_scan", "android": "https://dc.lft.to/lastmile_qr_scan"}, "is_reserved": 0, "fusion_lon": 0.0, "fusion_lat": 0.0, "lon": -77.02441783333333, "name": "cde4925eaf3eab6919fe7da6a8e497dc"}, {"bike_id": "3cdb265c43735b6d5d32dd6303fdbbe4", "type": "electric_scooter", "is_disabled": 0, "lat": 38.929169, "rental_uris": {"ios": "https://dc.lft.to/lastmile_qr_scan", "android": "https://dc.lft.to/lastmile_qr_scan"}, "is_reserved": 0, "fusion_lon": 0.0, "fusion_lat": 0.0, "lon": -77.02093, "name": "3cdb265c43735b6d5d32dd6303fdbbe4"}, {"bike_id": "49a69c58b1fbaf2a6ca8cf4669011fe8", "type": "electric_bike", "is_disabled": 0, "lat": 38.8984275, "rental_uris": {"ios": "https://dc.lft.to/lastmile_qr_scan", "android": "https://dc.lft.to/lastmile_qr_scan"}, "is_reserved": 0, "fusion_lon": 0.0, "fusion_lat": 0.0, "lon": -77.029323, "name": "49a69c58b1fbaf2a6ca8cf4669011fe8"}, {"bike_id": "7a29e7da7d2759c3535848b138b117a3", "type": "electric_scooter", "is_disabled": 0, "lat": 38.8570145, "rental_uris": {"ios": "https://dc.lft.to/lastmile_qr_scan", "android": "https://dc.lft.to/lastmile_qr_scan"}, "is_reserved": 0, "fusion_lon": 0.0, "fusion_lat": 0.0, "lon": -76.98965066666666, "name": "7a29e7da7d2759c3535848b138b117a3"}, {"bike_id": "b4c1dd218ee0d61ff468145441743002", "type": "electric_scooter", "is_disabled": 0, "lat": 38.907575, "rental_uris": {"ios": "https://dc.lft.to/lastmile_qr_scan", "android": "https://dc.lft.to/lastmile_qr_scan"}, "is_reserved": 0, "fusion_lon": 0.0, "fusion_lat": 0.0, "lon": -77.04337383333333, "name": "b4c1dd218ee0d61ff468145441743002"}, {"bike_id": "d2aa9e4790bb13c7512cdc1b078ec826", "type": "electric_bike", "is_disabled": 0, "lat": 39.057981166666664, "rental_uris": {"ios": "https://dc.lft.to/lastmile_qr_scan", "android": "https://dc.lft.to/lastmile_qr_scan"}, "is_reserved": 0, "fusion_lon": 0.0, "fusion_lat": 0.0, "lon": -77.150223, "name": "d2aa9e4790bb13c7512cdc1b078ec826"}, {"bike_id": "c0c546683f28fa5b06cd3d013e15cb7a", "type": "electric_scooter", "is_disabled": 0, "lat": 38.871241, "rental_uris": {"ios": "https://dc.lft.to/lastmile_qr_scan", "android": "https://dc.lft.to/lastmile_qr_scan"}, "is_reserved": 0, "fusion_lon": 0.0, "fusion_lat": 0.0, "lon": -76.982417, "name": "c0c546683f28fa5b06cd3d013e15cb7a"}, {"bike_id": "4f57887a51bf762e62500185167ef623", "type": "electric_scooter", "is_disabled": 0, "lat": 38.900622166666665, "rental_uris": {"ios": "https://dc.lft.to/lastmile_qr_scan", "android": "https://dc.lft.to/lastmile_qr_scan"}, "is_reserved": 0, "fusion_lon": 0.0, "fusion_lat": 0.0, "lon": -76.9347125, "name": "4f57887a51bf762e62500185167ef623"}, {"bike_id": "49990d681c03b0d1a6886372b14f6af8", "type": "electric_scooter", "is_disabled": 0, "lat": 38.90419816666667, "rental_uris": {"ios": "https://dc.lft.to/lastmile_qr_scan", "android": "https://dc.lft.to/lastmile_qr_scan"}, "is_reserved": 0, "fusion_lon": 0.0, "fusion_lat": 0.0, "lon": -77.04862616666666, "name": "49990d681c03b0d1a6886372b14f6af8"}, {"bike_id": "065917eeed3bcbead2e44e4db69932b1", "type": "electric_scooter", "is_disabled": 0, "lat": 38.9056025, "rental_uris": {"ios": "https://dc.lft.to/lastmile_qr_scan", "android": "https://dc.lft.to/lastmile_qr_scan"}, "is_reserved": 0, "fusion_lon": 0.0, "fusion_lat": 0.0, "lon": -77.00568966666667, "name": "065917eeed3bcbead2e44e4db69932b1"}, {"bike_id": "60dc97692e77212bc73fa49bea785987", "type": "electric_scooter", "is_disabled": 0, "lat": 38.911116666666665, "rental_uris": {"ios": "https://dc.lft.to/lastmile_qr_scan", "android": "https://dc.lft.to/lastmile_qr_scan"}, "is_reserved": 0, "fusion_lon": 0.0, "fusion_lat": 0.0, "lon": -77.02412333333334, "name": "60dc97692e77212bc73fa49bea785987"}, {"bike_id": "8133ac5c6d8d99e5477ef3a6042e7c87", "type": "electric_scooter", "is_disabled": 0, "lat": 38.905572, "rental_uris": {"ios": "https://dc.lft.to/lastmile_qr_scan", "android": "https://dc.lft.to/lastmile_qr_scan"}, "is_reserved": 0, "fusion_lon": 0.0, "fusion_lat": 0.0, "lon": -77.04351933333334, "name": "8133ac5c6d8d99e5477ef3a6042e7c87"}, {"bike_id": "3335c8e3d7d812cada12a57e113d79e1", "type": "electric_bike", "is_disabled": 0, "lat": 38.819749, "rental_uris": {"ios": "https://dc.lft.to/lastmile_qr_scan", "android": "https://dc.lft.to/lastmile_qr_scan"}, "is_reserved": 0, "fusion_lon": 0.0, "fusion_lat": 0.0, "lon": -76.99800616666667, "name": "3335c8e3d7d812cada12a57e113d79e1"}, {"bike_id": "946087c37cbbe194b5c9389a52e15dab", "type": "electric_scooter", "is_disabled": 0, "lat": 38.90558683333333, "rental_uris": {"ios": "https://dc.lft.to/lastmile_qr_scan", "android": "https://dc.lft.to/lastmile_qr_scan"}, "is_reserved": 0, "fusion_lon": 0.0, "fusion_lat": 0.0, "lon": -77.02482833333333, "name": "946087c37cbbe194b5c9389a52e15dab"}, {"bike_id": "07e5ce65f65b5f550a5e4a3546caf06d", "type": "electric_scooter", "is_disabled": 0, "lat": 38.916552, "rental_uris": {"ios": "https://dc.lft.to/lastmile_qr_scan", "android": "https://dc.lft.to/lastmile_qr_scan"}, "is_reserved": 0, "fusion_lon": 0.0, "fusion_lat": 0.0, "lon": -77.02421333333334, "name": "07e5ce65f65b5f550a5e4a3546caf06d"}, {"bike_id": "0878067e0f4eeffcc8748bceeb5d3217", "type": "electric_scooter", "is_disabled": 0, "lat": 38.90789616666667, "rental_uris": {"ios": "https://dc.lft.to/lastmile_qr_scan", "android": "https://dc.lft.to/lastmile_qr_scan"}, "is_reserved": 0, "fusion_lon": 0.0, "fusion_lat": 0.0, "lon": -77.0186275, "name": "0878067e0f4eeffcc8748bceeb5d3217"}, {"bike_id": "ada974713951508b7035f00a8010923a", "type": "electric_scooter", "is_disabled": 0, "lat": 38.94441233333333, "rental_uris": {"ios": "https://dc.lft.to/lastmile_qr_scan", "android": "https://dc.lft.to/lastmile_qr_scan"}, "is_reserved": 0, "fusion_lon": 0.0, "fusion_lat": 0.0, "lon": -77.014495, "name": "ada974713951508b7035f00a8010923a"}, {"bike_id": "bd550f42a768a6dc11d9417572edc443", "type": "electric_scooter", "is_disabled": 0, "lat": 38.9015985, "rental_uris": {"ios": "https://dc.lft.to/lastmile_qr_scan", "android": "https://dc.lft.to/lastmile_qr_scan"}, "is_reserved": 0, "fusion_lon": 0.0, "fusion_lat": 0.0, "lon": -76.9806985, "name": "bd550f42a768a6dc11d9417572edc443"}, {"bike_id": "2e543163a35c2255f4ff9d3d64751817", "type": "electric_bike", "is_disabled": 0, "lat": 39.05283766666667, "rental_uris": {"ios": "https://dc.lft.to/lastmile_qr_scan", "android": "https://dc.lft.to/lastmile_qr_scan"}, "is_reserved": 0, "fusion_lon": 0.0, "fusion_lat": 0.0, "lon": -77.08066483333333, "name": "2e543163a35c2255f4ff9d3d64751817"}, {"bike_id": "af05037a9e6359838476ccde22c6ee0c", "type": "electric_scooter", "is_disabled": 0, "lat": 38.930887166666665, "rental_uris": {"ios": "https://dc.lft.to/lastmile_qr_scan", "android": "https://dc.lft.to/lastmile_qr_scan"}, "is_reserved": 0, "fusion_lon": 0.0, "fusion_lat": 0.0, "lon": -77.02477133333333, "name": "af05037a9e6359838476ccde22c6ee0c"}, {"bike_id": "d25811ae0da607e45714b4b4fabd6ee6", "type": "electric_scooter", "is_disabled": 0, "lat": 38.934776, "rental_uris": {"ios": "https://dc.lft.to/lastmile_qr_scan", "android": "https://dc.lft.to/lastmile_qr_scan"}, "is_reserved": 0, "fusion_lon": 0.0, "fusion_lat": 0.0, "lon": -77.03577466666667, "name": "d25811ae0da607e45714b4b4fabd6ee6"}, {"bike_id": "8dbb2a1612835d08dbc62b1531547f62", "type": "electric_scooter", "is_disabled": 0, "lat": 38.931363166666664, "rental_uris": {"ios": "https://dc.lft.to/lastmile_qr_scan", "android": "https://dc.lft.to/lastmile_qr_scan"}, "is_reserved": 0, "fusion_lon": 0.0, "fusion_lat": 0.0, "lon": -76.99576166666667, "name": "8dbb2a1612835d08dbc62b1531547f62"}, {"bike_id": "1c994d1184e0aa19d7a5be67da6a0144", "type": "electric_scooter", "is_disabled": 0, "lat": 38.86697516666667, "rental_uris": {"ios": "https://dc.lft.to/lastmile_qr_scan", "android": "https://dc.lft.to/lastmile_qr_scan"}, "is_reserved": 0, "fusion_lon": 0.0, "fusion_lat": 0.0, "lon": -76.98712533333334, "name": "1c994d1184e0aa19d7a5be67da6a0144"}, {"bike_id": "bcd12689f49697646eb179a724d178c6", "type": "electric_scooter", "is_disabled": 0, "lat": 38.88133416666667, "rental_uris": {"ios": "https://dc.lft.to/lastmile_qr_scan", "android": "https://dc.lft.to/lastmile_qr_scan"}, "is_reserved": 0, "fusion_lon": 0.0, "fusion_lat": 0.0, "lon": -76.98351, "name": "bcd12689f49697646eb179a724d178c6"}, {"bike_id": "1d389c1e11734eec985aafe5d7df1b47", "type": "electric_scooter", "is_disabled": 0, "lat": 38.907086166666666, "rental_uris": {"ios": "https://dc.lft.to/lastmile_qr_scan", "android": "https://dc.lft.to/lastmile_qr_scan"}, "is_reserved": 0, "fusion_lon": 0.0, "fusion_lat": 0.0, "lon": -77.02393883333333, "name": "1d389c1e11734eec985aafe5d7df1b47"}, {"bike_id": "03db9a74be24ee69ff47f8820688bf56", "type": "electric_scooter", "is_disabled": 0, "lat": 38.91707783333333, "rental_uris": {"ios": "https://dc.lft.to/lastmile_qr_scan", "android": "https://dc.lft.to/lastmile_qr_scan"}, "is_reserved": 0, "fusion_lon": 0.0, "fusion_lat": 0.0, "lon": -77.00658633333333, "name": "03db9a74be24ee69ff47f8820688bf56"}, {"bike_id": "2c81c506ccfe1995f4061b0807571612", "type": "electric_scooter", "is_disabled": 0, "lat": 38.947522, "rental_uris": {"ios": "https://dc.lft.to/lastmile_qr_scan", "android": "https://dc.lft.to/lastmile_qr_scan"}, "is_reserved": 0, "fusion_lon": 0.0, "fusion_lat": 0.0, "lon": -77.07590616666667, "name": "2c81c506ccfe1995f4061b0807571612"}, {"bike_id": "1fecf1adbec66986e67deb05f92c2f31", "type": "electric_scooter", "is_disabled": 0, "lat": 38.91265683333334, "rental_uris": {"ios": "https://dc.lft.to/lastmile_qr_scan", "android": "https://dc.lft.to/lastmile_qr_scan"}, "is_reserved": 0, "fusion_lon": 0.0, "fusion_lat": 0.0, "lon": -77.017628, "name": "1fecf1adbec66986e67deb05f92c2f31"}, {"bike_id": "5747462f3c278972069aef23c9ecba94", "type": "electric_scooter", "is_disabled": 0, "lat": 38.91824233333333, "rental_uris": {"ios": "https://dc.lft.to/lastmile_qr_scan", "android": "https://dc.lft.to/lastmile_qr_scan"}, "is_reserved": 0, "fusion_lon": 0.0, "fusion_lat": 0.0, "lon": -77.0494105, "name": "5747462f3c278972069aef23c9ecba94"}, {"bike_id": "6dca8ca9572f97388180222cb26f1802", "type": "electric_scooter", "is_disabled": 0, "lat": 38.93328483333333, "rental_uris": {"ios": "https://dc.lft.to/lastmile_qr_scan", "android": "https://dc.lft.to/lastmile_qr_scan"}, "is_reserved": 0, "fusion_lon": 0.0, "fusion_lat": 0.0, "lon": -77.02055866666667, "name": "6dca8ca9572f97388180222cb26f1802"}, {"bike_id": "63bd0142bbeb54cba1374fa735de07d8", "type": "electric_scooter", "is_disabled": 0, "lat": 38.90964616666667, "rental_uris": {"ios": "https://dc.lft.to/lastmile_qr_scan", "android": "https://dc.lft.to/lastmile_qr_scan"}, "is_reserved": 0, "fusion_lon": 0.0, "fusion_lat": 0.0, "lon": -77.0466085, "name": "63bd0142bbeb54cba1374fa735de07d8"}, {"bike_id": "b81d043367fbe37539b73f256faf4cf2", "type": "electric_scooter", "is_disabled": 0, "lat": 38.89689166666667, "rental_uris": {"ios": "https://dc.lft.to/lastmile_qr_scan", "android": "https://dc.lft.to/lastmile_qr_scan"}, "is_reserved": 0, "fusion_lon": 0.0, "fusion_lat": 0.0, "lon": -77.02904783333334, "name": "b81d043367fbe37539b73f256faf4cf2"}, {"bike_id": "3bc795399d1db43feed6d3763935d630", "type": "electric_scooter", "is_disabled": 0, "lat": 38.899733499999996, "rental_uris": {"ios": "https://dc.lft.to/lastmile_qr_scan", "android": "https://dc.lft.to/lastmile_qr_scan"}, "is_reserved": 0, "fusion_lon": 0.0, "fusion_lat": 0.0, "lon": -77.01157616666667, "name": "3bc795399d1db43feed6d3763935d630"}, {"bike_id": "2f3dc2c92bd8d49b985f71dca1e0694f", "type": "electric_scooter", "is_disabled": 0, "lat": 38.973701, "rental_uris": {"ios": "https://dc.lft.to/lastmile_qr_scan", "android": "https://dc.lft.to/lastmile_qr_scan"}, "is_reserved": 0, "fusion_lon": 0.0, "fusion_lat": 0.0, "lon": -77.01862483333333, "name": "2f3dc2c92bd8d49b985f71dca1e0694f"}, {"bike_id": "cefa4cb910dd1bcec206e7154e7bf554", "type": "electric_scooter", "is_disabled": 0, "lat": 38.937218333333334, "rental_uris": {"ios": "https://dc.lft.to/lastmile_qr_scan", "android": "https://dc.lft.to/lastmile_qr_scan"}, "is_reserved": 0, "fusion_lon": 0.0, "fusion_lat": 0.0, "lon": -77.02527933333333, "name": "cefa4cb910dd1bcec206e7154e7bf554"}, {"bike_id": "0574de21167725c8d6b19fcd9404b147", "type": "electric_scooter", "is_disabled": 0, "lat": 38.868899, "rental_uris": {"ios": "https://dc.lft.to/lastmile_qr_scan", "android": "https://dc.lft.to/lastmile_qr_scan"}, "is_reserved": 0, "fusion_lon": 0.0, "fusion_lat": 0.0, "lon": -76.98313383333333, "name": "0574de21167725c8d6b19fcd9404b147"}, {"bike_id": "052ae22d5be073484f1d133c60625f50", "type": "electric_scooter", "is_disabled": 0, "lat": 38.93967033333333, "rental_uris": {"ios": "https://dc.lft.to/lastmile_qr_scan", "android": "https://dc.lft.to/lastmile_qr_scan"}, "is_reserved": 0, "fusion_lon": 0.0, "fusion_lat": 0.0, "lon": -77.03750133333334, "name": "052ae22d5be073484f1d133c60625f50"}, {"bike_id": "b9dad2c028139acb8db1a460c4bd8529", "type": "electric_scooter", "is_disabled": 0, "lat": 38.90347766666667, "rental_uris": {"ios": "https://dc.lft.to/lastmile_qr_scan", "android": "https://dc.lft.to/lastmile_qr_scan"}, "is_reserved": 0, "fusion_lon": 0.0, "fusion_lat": 0.0, "lon": -77.03637233333333, "name": "b9dad2c028139acb8db1a460c4bd8529"}, {"bike_id": "086e34b66af6b326f141350988449b82", "type": "electric_scooter", "is_disabled": 0, "lat": 38.876527333333335, "rental_uris": {"ios": "https://dc.lft.to/lastmile_qr_scan", "android": "https://dc.lft.to/lastmile_qr_scan"}, "is_reserved": 0, "fusion_lon": 0.0, "fusion_lat": 0.0, "lon": -76.96504633333333, "name": "086e34b66af6b326f141350988449b82"}, {"bike_id": "4e3791f9d375f3d89229c20c1b9d1a2c", "type": "electric_bike", "is_disabled": 0, "lat": 38.99531966666667, "rental_uris": {"ios": "https://dc.lft.to/lastmile_qr_scan", "android": "https://dc.lft.to/lastmile_qr_scan"}, "is_reserved": 0, "fusion_lon": 0.0, "fusion_lat": 0.0, "lon": -77.06944633333333, "name": "4e3791f9d375f3d89229c20c1b9d1a2c"}, {"bike_id": "b613ec7dd36f308e801fbe29c5b5e34e", "type": "electric_scooter", "is_disabled": 0, "lat": 38.965704, "rental_uris": {"ios": "https://dc.lft.to/lastmile_qr_scan", "android": "https://dc.lft.to/lastmile_qr_scan"}, "is_reserved": 0, "fusion_lon": 0.0, "fusion_lat": 0.0, "lon": -77.0278595, "name": "b613ec7dd36f308e801fbe29c5b5e34e"}, {"bike_id": "8bb9e6ecf97b28d6ce268705b2cde476", "type": "electric_scooter", "is_disabled": 0, "lat": 38.861934, "rental_uris": {"ios": "https://dc.lft.to/lastmile_qr_scan", "android": "https://dc.lft.to/lastmile_qr_scan"}, "is_reserved": 0, "fusion_lon": 0.0, "fusion_lat": 0.0, "lon": -76.95947533333333, "name": "8bb9e6ecf97b28d6ce268705b2cde476"}, {"bike_id": "a9cf7ab0a307607161a67053b763a89f", "type": "electric_scooter", "is_disabled": 0, "lat": 38.901462333333335, "rental_uris": {"ios": "https://dc.lft.to/lastmile_qr_scan", "android": "https://dc.lft.to/lastmile_qr_scan"}, "is_reserved": 0, "fusion_lon": 0.0, "fusion_lat": 0.0, "lon": -76.930896, "name": "a9cf7ab0a307607161a67053b763a89f"}, {"bike_id": "13515a5a397dc98c8ebae66a56d2bc29", "type": "electric_scooter", "is_disabled": 0, "lat": 38.906253, "rental_uris": {"ios": "https://dc.lft.to/lastmile_qr_scan", "android": "https://dc.lft.to/lastmile_qr_scan"}, "is_reserved": 0, "fusion_lon": 0.0, "fusion_lat": 0.0, "lon": -77.0413035, "name": "13515a5a397dc98c8ebae66a56d2bc29"}, {"bike_id": "c3bce49fc4ba578fa26a237f2e044bcc", "type": "electric_scooter", "is_disabled": 0, "lat": 38.90408816666667, "rental_uris": {"ios": "https://dc.lft.to/lastmile_qr_scan", "android": "https://dc.lft.to/lastmile_qr_scan"}, "is_reserved": 0, "fusion_lon": 0.0, "fusion_lat": 0.0, "lon": -76.97332266666666, "name": "c3bce49fc4ba578fa26a237f2e044bcc"}, {"bike_id": "270c7c71c2dd1bda8886c903450784ad", "type": "electric_scooter", "is_disabled": 0, "lat": 38.89913833333333, "rental_uris": {"ios": "https://dc.lft.to/lastmile_qr_scan", "android": "https://dc.lft.to/lastmile_qr_scan"}, "is_reserved": 0, "fusion_lon": 0.0, "fusion_lat": 0.0, "lon": -76.933667, "name": "270c7c71c2dd1bda8886c903450784ad"}, {"bike_id": "2e33229e2864f3c59843ae7c791ecd84", "type": "electric_scooter", "is_disabled": 0, "lat": 38.930470166666666, "rental_uris": {"ios": "https://dc.lft.to/lastmile_qr_scan", "android": "https://dc.lft.to/lastmile_qr_scan"}, "is_reserved": 0, "fusion_lon": 0.0, "fusion_lat": 0.0, "lon": -77.03290916666667, "name": "2e33229e2864f3c59843ae7c791ecd84"}, {"bike_id": "99a83f1964c17f705d4b751c62aec8b0", "type": "electric_scooter", "is_disabled": 0, "lat": 38.934660666666666, "rental_uris": {"ios": "https://dc.lft.to/lastmile_qr_scan", "android": "https://dc.lft.to/lastmile_qr_scan"}, "is_reserved": 0, "fusion_lon": 0.0, "fusion_lat": 0.0, "lon": -77.02242466666667, "name": "99a83f1964c17f705d4b751c62aec8b0"}, {"bike_id": "d287cfe94b99e77e6d68d6f680ac1cb4", "type": "electric_scooter", "is_disabled": 0, "lat": 38.926134, "rental_uris": {"ios": "https://dc.lft.to/lastmile_qr_scan", "android": "https://dc.lft.to/lastmile_qr_scan"}, "is_reserved": 0, "fusion_lon": 0.0, "fusion_lat": 0.0, "lon": -77.0374515, "name": "d287cfe94b99e77e6d68d6f680ac1cb4"}, {"bike_id": "aed791b64590254faf0f31016c85811c", "type": "electric_scooter", "is_disabled": 0, "lat": 38.908137333333336, "rental_uris": {"ios": "https://dc.lft.to/lastmile_qr_scan", "android": "https://dc.lft.to/lastmile_qr_scan"}, "is_reserved": 0, "fusion_lon": 0.0, "fusion_lat": 0.0, "lon": -77.04342333333334, "name": "aed791b64590254faf0f31016c85811c"}, {"bike_id": "fbede6d0fa3b94aba49c91be25f3f3c2", "type": "electric_scooter", "is_disabled": 0, "lat": 38.90934516666667, "rental_uris": {"ios": "https://dc.lft.to/lastmile_qr_scan", "android": "https://dc.lft.to/lastmile_qr_scan"}, "is_reserved": 0, "fusion_lon": 0.0, "fusion_lat": 0.0, "lon": -77.02304716666667, "name": "fbede6d0fa3b94aba49c91be25f3f3c2"}, {"bike_id": "e6fd6c062e718b7d058121202b085dee", "type": "electric_scooter", "is_disabled": 0, "lat": 38.9318475, "rental_uris": {"ios": "https://dc.lft.to/lastmile_qr_scan", "android": "https://dc.lft.to/lastmile_qr_scan"}, "is_reserved": 0, "fusion_lon": 0.0, "fusion_lat": 0.0, "lon": -77.02537116666667, "name": "e6fd6c062e718b7d058121202b085dee"}, {"bike_id": "a6298dc787fabbee1c4688865ad449c8", "type": "electric_scooter", "is_disabled": 0, "lat": 38.9079575, "rental_uris": {"ios": "https://dc.lft.to/lastmile_qr_scan", "android": "https://dc.lft.to/lastmile_qr_scan"}, "is_reserved": 0, "fusion_lon": 0.0, "fusion_lat": 0.0, "lon": -77.04514566666667, "name": "a6298dc787fabbee1c4688865ad449c8"}, {"bike_id": "ebf38cca84f65ef7a6f5f726d434e5ac", "type": "electric_scooter", "is_disabled": 0, "lat": 38.916549833333335, "rental_uris": {"ios": "https://dc.lft.to/lastmile_qr_scan", "android": "https://dc.lft.to/lastmile_qr_scan"}, "is_reserved": 0, "fusion_lon": 0.0, "fusion_lat": 0.0, "lon": -77.03845683333333, "name": "ebf38cca84f65ef7a6f5f726d434e5ac"}, {"bike_id": "a9aa47fc1529e8fffd48c1e431b50362", "type": "electric_bike", "is_disabled": 0, "lat": 38.865105166666666, "rental_uris": {"ios": "https://dc.lft.to/lastmile_qr_scan", "android": "https://dc.lft.to/lastmile_qr_scan"}, "is_reserved": 0, "fusion_lon": 0.0, "fusion_lat": 0.0, "lon": -77.129357, "name": "a9aa47fc1529e8fffd48c1e431b50362"}, {"bike_id": "c53abcedbf010e3adfe2cc9281f80813", "type": "electric_bike", "is_disabled": 0, "lat": 38.8039415, "rental_uris": {"ios": "https://dc.lft.to/lastmile_qr_scan", "android": "https://dc.lft.to/lastmile_qr_scan"}, "is_reserved": 0, "fusion_lon": 0.0, "fusion_lat": 0.0, "lon": -77.05561483333334, "name": "c53abcedbf010e3adfe2cc9281f80813"}, {"bike_id": "893dca257ae876e42cff0ce0ed4b41b3", "type": "electric_scooter", "is_disabled": 0, "lat": 38.89118083333334, "rental_uris": {"ios": "https://dc.lft.to/lastmile_qr_scan", "android": "https://dc.lft.to/lastmile_qr_scan"}, "is_reserved": 0, "fusion_lon": 0.0, "fusion_lat": 0.0, "lon": -77.015023, "name": "893dca257ae876e42cff0ce0ed4b41b3"}, {"bike_id": "02126c2e79aa60ad193be90a25c61620", "type": "electric_scooter", "is_disabled": 0, "lat": 38.96561466666667, "rental_uris": {"ios": "https://dc.lft.to/lastmile_qr_scan", "android": "https://dc.lft.to/lastmile_qr_scan"}, "is_reserved": 0, "fusion_lon": 0.0, "fusion_lat": 0.0, "lon": -77.0201475, "name": "02126c2e79aa60ad193be90a25c61620"}, {"bike_id": "b4f139c2563bc3fba32c7e83f88b1b59", "type": "electric_scooter", "is_disabled": 0, "lat": 38.908818833333335, "rental_uris": {"ios": "https://dc.lft.to/lastmile_qr_scan", "android": "https://dc.lft.to/lastmile_qr_scan"}, "is_reserved": 0, "fusion_lon": 0.0, "fusion_lat": 0.0, "lon": -77.0026105, "name": "b4f139c2563bc3fba32c7e83f88b1b59"}, {"bike_id": "4a941dcfbf29cee23fab784864ae560d", "type": "electric_scooter", "is_disabled": 0, "lat": 38.8843565, "rental_uris": {"ios": "https://dc.lft.to/lastmile_qr_scan", "android": "https://dc.lft.to/lastmile_qr_scan"}, "is_reserved": 0, "fusion_lon": 0.0, "fusion_lat": 0.0, "lon": -76.95753183333333, "name": "4a941dcfbf29cee23fab784864ae560d"}, {"bike_id": "47a6512a593fc7d03921baeae871166e", "type": "electric_scooter", "is_disabled": 0, "lat": 38.9082995, "rental_uris": {"ios": "https://dc.lft.to/lastmile_qr_scan", "android": "https://dc.lft.to/lastmile_qr_scan"}, "is_reserved": 0, "fusion_lon": 0.0, "fusion_lat": 0.0, "lon": -77.03343233333334, "name": "47a6512a593fc7d03921baeae871166e"}, {"bike_id": "3c0e4472040556bda4e6dc575ffcc174", "type": "electric_scooter", "is_disabled": 0, "lat": 38.930437833333336, "rental_uris": {"ios": "https://dc.lft.to/lastmile_qr_scan", "android": "https://dc.lft.to/lastmile_qr_scan"}, "is_reserved": 0, "fusion_lon": 0.0, "fusion_lat": 0.0, "lon": -77.01826183333333, "name": "3c0e4472040556bda4e6dc575ffcc174"}, {"bike_id": "5ff153effa17bc6fa7efbb54375dd656", "type": "electric_scooter", "is_disabled": 0, "lat": 38.9014825, "rental_uris": {"ios": "https://dc.lft.to/lastmile_qr_scan", "android": "https://dc.lft.to/lastmile_qr_scan"}, "is_reserved": 0, "fusion_lon": 0.0, "fusion_lat": 0.0, "lon": -77.02971516666666, "name": "5ff153effa17bc6fa7efbb54375dd656"}, {"bike_id": "c59e3124e634228b02e8a598630f5478", "type": "electric_scooter", "is_disabled": 0, "lat": 38.88205133333334, "rental_uris": {"ios": "https://dc.lft.to/lastmile_qr_scan", "android": "https://dc.lft.to/lastmile_qr_scan"}, "is_reserved": 0, "fusion_lon": 0.0, "fusion_lat": 0.0, "lon": -77.02899433333333, "name": "c59e3124e634228b02e8a598630f5478"}, {"bike_id": "352c24f2b3f9f397cdfdda8bf0920909", "type": "electric_scooter", "is_disabled": 0, "lat": 38.9019245, "rental_uris": {"ios": "https://dc.lft.to/lastmile_qr_scan", "android": "https://dc.lft.to/lastmile_qr_scan"}, "is_reserved": 0, "fusion_lon": 0.0, "fusion_lat": 0.0, "lon": -76.99683216666666, "name": "352c24f2b3f9f397cdfdda8bf0920909"}, {"bike_id": "79bc9bf8b1764da5cbefe142cbafc0d2", "type": "electric_scooter", "is_disabled": 0, "lat": 38.902818333333336, "rental_uris": {"ios": "https://dc.lft.to/lastmile_qr_scan", "android": "https://dc.lft.to/lastmile_qr_scan"}, "is_reserved": 0, "fusion_lon": 0.0, "fusion_lat": 0.0, "lon": -77.022703, "name": "79bc9bf8b1764da5cbefe142cbafc0d2"}, {"bike_id": "faef79c1651dd4a443b58c7a61938794", "type": "electric_scooter", "is_disabled": 0, "lat": 38.896996, "rental_uris": {"ios": "https://dc.lft.to/lastmile_qr_scan", "android": "https://dc.lft.to/lastmile_qr_scan"}, "is_reserved": 0, "fusion_lon": 0.0, "fusion_lat": 0.0, "lon": -76.92994, "name": "faef79c1651dd4a443b58c7a61938794"}, {"bike_id": "197fab24a0ca8f4cbd96824b62746d1c", "type": "electric_scooter", "is_disabled": 0, "lat": 38.905737, "rental_uris": {"ios": "https://dc.lft.to/lastmile_qr_scan", "android": "https://dc.lft.to/lastmile_qr_scan"}, "is_reserved": 0, "fusion_lon": 0.0, "fusion_lat": 0.0, "lon": -77.0463915, "name": "197fab24a0ca8f4cbd96824b62746d1c"}, {"bike_id": "68933dd65c53dbae0591dc6385286976", "type": "electric_scooter", "is_disabled": 0, "lat": 38.9223655, "rental_uris": {"ios": "https://dc.lft.to/lastmile_qr_scan", "android": "https://dc.lft.to/lastmile_qr_scan"}, "is_reserved": 0, "fusion_lon": 0.0, "fusion_lat": 0.0, "lon": -76.97532433333333, "name": "68933dd65c53dbae0591dc6385286976"}, {"bike_id": "28a167fdd81f91ce3173e60884e35e61", "type": "electric_scooter", "is_disabled": 0, "lat": 38.89505283333333, "rental_uris": {"ios": "https://dc.lft.to/lastmile_qr_scan", "android": "https://dc.lft.to/lastmile_qr_scan"}, "is_reserved": 0, "fusion_lon": 0.0, "fusion_lat": 0.0, "lon": -77.04330516666667, "name": "28a167fdd81f91ce3173e60884e35e61"}, {"bike_id": "456d2e1842e8b43b368f677323deb54b", "type": "electric_scooter", "is_disabled": 0, "lat": 38.90352, "rental_uris": {"ios": "https://dc.lft.to/lastmile_qr_scan", "android": "https://dc.lft.to/lastmile_qr_scan"}, "is_reserved": 0, "fusion_lon": 0.0, "fusion_lat": 0.0, "lon": -76.992187, "name": "456d2e1842e8b43b368f677323deb54b"}, {"bike_id": "cab915687f23b628b0d2b879b0cc9307", "type": "electric_scooter", "is_disabled": 0, "lat": 38.9110835, "rental_uris": {"ios": "https://dc.lft.to/lastmile_qr_scan", "android": "https://dc.lft.to/lastmile_qr_scan"}, "is_reserved": 0, "fusion_lon": 0.0, "fusion_lat": 0.0, "lon": -77.02764533333334, "name": "cab915687f23b628b0d2b879b0cc9307"}, {"bike_id": "7963a92c6745b37f56a35b2071327294", "type": "electric_bike", "is_disabled": 0, "lat": 38.9620915, "rental_uris": {"ios": "https://dc.lft.to/lastmile_qr_scan", "android": "https://dc.lft.to/lastmile_qr_scan"}, "is_reserved": 0, "fusion_lon": 0.0, "fusion_lat": 0.0, "lon": -77.02237416666667, "name": "7963a92c6745b37f56a35b2071327294"}, {"bike_id": "f74638de8af7935d336e643fa2e228db", "type": "electric_bike", "is_disabled": 0, "lat": 39.05100783333334, "rental_uris": {"ios": "https://dc.lft.to/lastmile_qr_scan", "android": "https://dc.lft.to/lastmile_qr_scan"}, "is_reserved": 0, "fusion_lon": 0.0, "fusion_lat": 0.0, "lon": -77.11744216666666, "name": "f74638de8af7935d336e643fa2e228db"}, {"bike_id": "fe3b02f91ea46fa9db6bfccee463038b", "type": "electric_scooter", "is_disabled": 0, "lat": 38.912657833333334, "rental_uris": {"ios": "https://dc.lft.to/lastmile_qr_scan", "android": "https://dc.lft.to/lastmile_qr_scan"}, "is_reserved": 0, "fusion_lon": 0.0, "fusion_lat": 0.0, "lon": -77.02205833333333, "name": "fe3b02f91ea46fa9db6bfccee463038b"}, {"bike_id": "264ac1d364c80f10ff3479c578b33923", "type": "electric_scooter", "is_disabled": 0, "lat": 38.933176833333334, "rental_uris": {"ios": "https://dc.lft.to/lastmile_qr_scan", "android": "https://dc.lft.to/lastmile_qr_scan"}, "is_reserved": 0, "fusion_lon": 0.0, "fusion_lat": 0.0, "lon": -77.0274405, "name": "264ac1d364c80f10ff3479c578b33923"}, {"bike_id": "a04913da3f1ca08972cd5fcb3804c3a1", "type": "electric_scooter", "is_disabled": 0, "lat": 38.87288983333333, "rental_uris": {"ios": "https://dc.lft.to/lastmile_qr_scan", "android": "https://dc.lft.to/lastmile_qr_scan"}, "is_reserved": 0, "fusion_lon": 0.0, "fusion_lat": 0.0, "lon": -76.97730666666666, "name": "a04913da3f1ca08972cd5fcb3804c3a1"}, {"bike_id": "9e61b529100f465c26b688e783b40eec", "type": "electric_scooter", "is_disabled": 0, "lat": 38.92046933333334, "rental_uris": {"ios": "https://dc.lft.to/lastmile_qr_scan", "android": "https://dc.lft.to/lastmile_qr_scan"}, "is_reserved": 0, "fusion_lon": 0.0, "fusion_lat": 0.0, "lon": -77.03391933333333, "name": "9e61b529100f465c26b688e783b40eec"}, {"bike_id": "f62e5de721c4302b7f9afce9c845b650", "type": "electric_scooter", "is_disabled": 0, "lat": 38.91303333333333, "rental_uris": {"ios": "https://dc.lft.to/lastmile_qr_scan", "android": "https://dc.lft.to/lastmile_qr_scan"}, "is_reserved": 0, "fusion_lon": 0.0, "fusion_lat": 0.0, "lon": -77.04668333333333, "name": "f62e5de721c4302b7f9afce9c845b650"}, {"bike_id": "684f1af5012333607bf7696573243e00", "type": "electric_scooter", "is_disabled": 0, "lat": 38.90978416666667, "rental_uris": {"ios": "https://dc.lft.to/lastmile_qr_scan", "android": "https://dc.lft.to/lastmile_qr_scan"}, "is_reserved": 0, "fusion_lon": 0.0, "fusion_lat": 0.0, "lon": -77.0334555, "name": "684f1af5012333607bf7696573243e00"}, {"bike_id": "27dfda7e26fe349a4c01acff0963495a", "type": "electric_scooter", "is_disabled": 0, "lat": 38.8949495, "rental_uris": {"ios": "https://dc.lft.to/lastmile_qr_scan", "android": "https://dc.lft.to/lastmile_qr_scan"}, "is_reserved": 0, "fusion_lon": 0.0, "fusion_lat": 0.0, "lon": -77.00059033333334, "name": "27dfda7e26fe349a4c01acff0963495a"}, {"bike_id": "c88eb1041f9f782c56383e602b19a8ee", "type": "electric_scooter", "is_disabled": 0, "lat": 38.931568166666665, "rental_uris": {"ios": "https://dc.lft.to/lastmile_qr_scan", "android": "https://dc.lft.to/lastmile_qr_scan"}, "is_reserved": 0, "fusion_lon": 0.0, "fusion_lat": 0.0, "lon": -77.03628833333333, "name": "c88eb1041f9f782c56383e602b19a8ee"}, {"bike_id": "aa7cb63dcc90fc2dad29f367c9ff0dc0", "type": "electric_scooter", "is_disabled": 0, "lat": 38.91565283333333, "rental_uris": {"ios": "https://dc.lft.to/lastmile_qr_scan", "android": "https://dc.lft.to/lastmile_qr_scan"}, "is_reserved": 0, "fusion_lon": 0.0, "fusion_lat": 0.0, "lon": -77.0317875, "name": "aa7cb63dcc90fc2dad29f367c9ff0dc0"}, {"bike_id": "84bdf7f4388c9adf4abc30f62b585cfc", "type": "electric_scooter", "is_disabled": 0, "lat": 38.897465333333336, "rental_uris": {"ios": "https://dc.lft.to/lastmile_qr_scan", "android": "https://dc.lft.to/lastmile_qr_scan"}, "is_reserved": 0, "fusion_lon": 0.0, "fusion_lat": 0.0, "lon": -77.00009216666666, "name": "84bdf7f4388c9adf4abc30f62b585cfc"}, {"bike_id": "1daf98cfa25f2c6558e549a39add24a3", "type": "electric_scooter", "is_disabled": 0, "lat": 38.895489, "rental_uris": {"ios": "https://dc.lft.to/lastmile_qr_scan", "android": "https://dc.lft.to/lastmile_qr_scan"}, "is_reserved": 0, "fusion_lon": 0.0, "fusion_lat": 0.0, "lon": -76.9295135, "name": "1daf98cfa25f2c6558e549a39add24a3"}, {"bike_id": "030bc42b83f483292819b8d0b35b7a7b", "type": "electric_bike", "is_disabled": 0, "lat": 38.895654666666665, "rental_uris": {"ios": "https://dc.lft.to/lastmile_qr_scan", "android": "https://dc.lft.to/lastmile_qr_scan"}, "is_reserved": 0, "fusion_lon": 0.0, "fusion_lat": 0.0, "lon": -77.12731883333333, "name": "030bc42b83f483292819b8d0b35b7a7b"}, {"bike_id": "4b88ef4735f7518b03e02e3ffee4b6a0", "type": "electric_scooter", "is_disabled": 0, "lat": 38.9226955, "rental_uris": {"ios": "https://dc.lft.to/lastmile_qr_scan", "android": "https://dc.lft.to/lastmile_qr_scan"}, "is_reserved": 0, "fusion_lon": 0.0, "fusion_lat": 0.0, "lon": -77.036586, "name": "4b88ef4735f7518b03e02e3ffee4b6a0"}, {"bike_id": "5667d2e6496d043863a7af97d42a87f8", "type": "electric_scooter", "is_disabled": 0, "lat": 38.9394815, "rental_uris": {"ios": "https://dc.lft.to/lastmile_qr_scan", "android": "https://dc.lft.to/lastmile_qr_scan"}, "is_reserved": 0, "fusion_lon": 0.0, "fusion_lat": 0.0, "lon": -77.07247916666667, "name": "5667d2e6496d043863a7af97d42a87f8"}, {"bike_id": "5c2dba0be27d3713312dec5c2632bcfe", "type": "electric_scooter", "is_disabled": 0, "lat": 38.900978, "rental_uris": {"ios": "https://dc.lft.to/lastmile_qr_scan", "android": "https://dc.lft.to/lastmile_qr_scan"}, "is_reserved": 0, "fusion_lon": 0.0, "fusion_lat": 0.0, "lon": -77.03829616666667, "name": "5c2dba0be27d3713312dec5c2632bcfe"}, {"bike_id": "dbec3c4f4d5e34e531543b2157ed0899", "type": "electric_scooter", "is_disabled": 0, "lat": 38.8431655, "rental_uris": {"ios": "https://dc.lft.to/lastmile_qr_scan", "android": "https://dc.lft.to/lastmile_qr_scan"}, "is_reserved": 0, "fusion_lon": 0.0, "fusion_lat": 0.0, "lon": -76.99931133333334, "name": "dbec3c4f4d5e34e531543b2157ed0899"}, {"bike_id": "04ae37d894e407601dba371359531af4", "type": "electric_scooter", "is_disabled": 0, "lat": 38.919749833333334, "rental_uris": {"ios": "https://dc.lft.to/lastmile_qr_scan", "android": "https://dc.lft.to/lastmile_qr_scan"}, "is_reserved": 0, "fusion_lon": 0.0, "fusion_lat": 0.0, "lon": -77.01786, "name": "04ae37d894e407601dba371359531af4"}, {"bike_id": "6ca97cb68cc346ca4a1772dad5a01ade", "type": "electric_scooter", "is_disabled": 0, "lat": 38.91330583333333, "rental_uris": {"ios": "https://dc.lft.to/lastmile_qr_scan", "android": "https://dc.lft.to/lastmile_qr_scan"}, "is_reserved": 0, "fusion_lon": 0.0, "fusion_lat": 0.0, "lon": -77.0398635, "name": "6ca97cb68cc346ca4a1772dad5a01ade"}, {"bike_id": "2637f75d3d155944a7cc6f83621b678f", "type": "electric_bike", "is_disabled": 0, "lat": 38.836053166666666, "rental_uris": {"ios": "https://dc.lft.to/lastmile_qr_scan", "android": "https://dc.lft.to/lastmile_qr_scan"}, "is_reserved": 0, "fusion_lon": 0.0, "fusion_lat": 0.0, "lon": -77.00381616666667, "name": "2637f75d3d155944a7cc6f83621b678f"}, {"bike_id": "723097ac9f71e4725d53cd5560a61414", "type": "electric_scooter", "is_disabled": 0, "lat": 38.9112035, "rental_uris": {"ios": "https://dc.lft.to/lastmile_qr_scan", "android": "https://dc.lft.to/lastmile_qr_scan"}, "is_reserved": 0, "fusion_lon": 0.0, "fusion_lat": 0.0, "lon": -77.04519616666667, "name": "723097ac9f71e4725d53cd5560a61414"}, {"bike_id": "984e96c8b0a1fb40ad5a70839c27274c", "type": "electric_scooter", "is_disabled": 0, "lat": 38.914742833333335, "rental_uris": {"ios": "https://dc.lft.to/lastmile_qr_scan", "android": "https://dc.lft.to/lastmile_qr_scan"}, "is_reserved": 0, "fusion_lon": 0.0, "fusion_lat": 0.0, "lon": -77.00202083333333, "name": "984e96c8b0a1fb40ad5a70839c27274c"}, {"bike_id": "7dd7e89b6420f83d223d11bc9014de10", "type": "electric_scooter", "is_disabled": 0, "lat": 38.923641333333336, "rental_uris": {"ios": "https://dc.lft.to/lastmile_qr_scan", "android": "https://dc.lft.to/lastmile_qr_scan"}, "is_reserved": 0, "fusion_lon": 0.0, "fusion_lat": 0.0, "lon": -77.05127633333333, "name": "7dd7e89b6420f83d223d11bc9014de10"}, {"bike_id": "d859acc04b89ca91c5f7b01688b9ee12", "type": "electric_scooter", "is_disabled": 0, "lat": 38.89882016666667, "rental_uris": {"ios": "https://dc.lft.to/lastmile_qr_scan", "android": "https://dc.lft.to/lastmile_qr_scan"}, "is_reserved": 0, "fusion_lon": 0.0, "fusion_lat": 0.0, "lon": -76.931745, "name": "d859acc04b89ca91c5f7b01688b9ee12"}, {"bike_id": "4d74a486731d97389d0f8f5f1c5a6674", "type": "electric_scooter", "is_disabled": 0, "lat": 38.9244605, "rental_uris": {"ios": "https://dc.lft.to/lastmile_qr_scan", "android": "https://dc.lft.to/lastmile_qr_scan"}, "is_reserved": 0, "fusion_lon": 0.0, "fusion_lat": 0.0, "lon": -77.0333855, "name": "4d74a486731d97389d0f8f5f1c5a6674"}, {"bike_id": "53d43d9bebad8bdac4dffa9ba4d16306", "type": "electric_scooter", "is_disabled": 0, "lat": 38.923265666666666, "rental_uris": {"ios": "https://dc.lft.to/lastmile_qr_scan", "android": "https://dc.lft.to/lastmile_qr_scan"}, "is_reserved": 0, "fusion_lon": 0.0, "fusion_lat": 0.0, "lon": -77.05416666666666, "name": "53d43d9bebad8bdac4dffa9ba4d16306"}, {"bike_id": "41366018a8e60cbe6692a12b17be107c", "type": "electric_scooter", "is_disabled": 0, "lat": 38.92233433333333, "rental_uris": {"ios": "https://dc.lft.to/lastmile_qr_scan", "android": "https://dc.lft.to/lastmile_qr_scan"}, "is_reserved": 0, "fusion_lon": 0.0, "fusion_lat": 0.0, "lon": -76.97339933333333, "name": "41366018a8e60cbe6692a12b17be107c"}, {"bike_id": "3eb36dd37fd6402e608a514a034d556c", "type": "electric_bike", "is_disabled": 0, "lat": 38.815090833333336, "rental_uris": {"ios": "https://dc.lft.to/lastmile_qr_scan", "android": "https://dc.lft.to/lastmile_qr_scan"}, "is_reserved": 0, "fusion_lon": 0.0, "fusion_lat": 0.0, "lon": -77.12652116666666, "name": "3eb36dd37fd6402e608a514a034d556c"}, {"bike_id": "dd9550dad20301bf2e5923dd6584dab0", "type": "electric_bike", "is_disabled": 0, "lat": 38.79605766666667, "rental_uris": {"ios": "https://dc.lft.to/lastmile_qr_scan", "android": "https://dc.lft.to/lastmile_qr_scan"}, "is_reserved": 0, "fusion_lon": 0.0, "fusion_lat": 0.0, "lon": -76.99743383333333, "name": "dd9550dad20301bf2e5923dd6584dab0"}, {"bike_id": "e53670d88bcaddf0b793e4bea5e28f1a", "type": "electric_scooter", "is_disabled": 0, "lat": 38.904804, "rental_uris": {"ios": "https://dc.lft.to/lastmile_qr_scan", "android": "https://dc.lft.to/lastmile_qr_scan"}, "is_reserved": 0, "fusion_lon": 0.0, "fusion_lat": 0.0, "lon": -77.06105633333334, "name": "e53670d88bcaddf0b793e4bea5e28f1a"}, {"bike_id": "942fa74e51c3e08619213070ed836e62", "type": "electric_scooter", "is_disabled": 0, "lat": 38.897443333333335, "rental_uris": {"ios": "https://dc.lft.to/lastmile_qr_scan", "android": "https://dc.lft.to/lastmile_qr_scan"}, "is_reserved": 0, "fusion_lon": 0.0, "fusion_lat": 0.0, "lon": -76.993793, "name": "942fa74e51c3e08619213070ed836e62"}, {"bike_id": "4ece6109e1a7f10e67a3b93232faaad1", "type": "electric_scooter", "is_disabled": 0, "lat": 38.90273766666667, "rental_uris": {"ios": "https://dc.lft.to/lastmile_qr_scan", "android": "https://dc.lft.to/lastmile_qr_scan"}, "is_reserved": 0, "fusion_lon": 0.0, "fusion_lat": 0.0, "lon": -77.03376833333333, "name": "4ece6109e1a7f10e67a3b93232faaad1"}, {"bike_id": "71b38c5428068841aaa2d2720cf9f2a8", "type": "electric_scooter", "is_disabled": 0, "lat": 38.898437, "rental_uris": {"ios": "https://dc.lft.to/lastmile_qr_scan", "android": "https://dc.lft.to/lastmile_qr_scan"}, "is_reserved": 0, "fusion_lon": 0.0, "fusion_lat": 0.0, "lon": -76.9463025, "name": "71b38c5428068841aaa2d2720cf9f2a8"}, {"bike_id": "423aabc4418a4c8478321e7ba8960c14", "type": "electric_scooter", "is_disabled": 0, "lat": 38.97682266666666, "rental_uris": {"ios": "https://dc.lft.to/lastmile_qr_scan", "android": "https://dc.lft.to/lastmile_qr_scan"}, "is_reserved": 0, "fusion_lon": 0.0, "fusion_lat": 0.0, "lon": -77.01656366666667, "name": "423aabc4418a4c8478321e7ba8960c14"}, {"bike_id": "f1e1af5e86f3297056fb2fbab1860aa6", "type": "electric_scooter", "is_disabled": 0, "lat": 38.923527, "rental_uris": {"ios": "https://dc.lft.to/lastmile_qr_scan", "android": "https://dc.lft.to/lastmile_qr_scan"}, "is_reserved": 0, "fusion_lon": 0.0, "fusion_lat": 0.0, "lon": -77.03535433333333, "name": "f1e1af5e86f3297056fb2fbab1860aa6"}, {"bike_id": "778b6831dcafbf0bebf12e8faa7c6aa7", "type": "electric_scooter", "is_disabled": 0, "lat": 38.916891, "rental_uris": {"ios": "https://dc.lft.to/lastmile_qr_scan", "android": "https://dc.lft.to/lastmile_qr_scan"}, "is_reserved": 0, "fusion_lon": 0.0, "fusion_lat": 0.0, "lon": -77.0259255, "name": "778b6831dcafbf0bebf12e8faa7c6aa7"}, {"bike_id": "17ddefc5b9753addf996dc79c09284fd", "type": "electric_scooter", "is_disabled": 0, "lat": 38.931311666666666, "rental_uris": {"ios": "https://dc.lft.to/lastmile_qr_scan", "android": "https://dc.lft.to/lastmile_qr_scan"}, "is_reserved": 0, "fusion_lon": 0.0, "fusion_lat": 0.0, "lon": -77.057263, "name": "17ddefc5b9753addf996dc79c09284fd"}, {"bike_id": "336a70c33ff6ebc3ee062f209ebd010d", "type": "electric_scooter", "is_disabled": 0, "lat": 38.922759, "rental_uris": {"ios": "https://dc.lft.to/lastmile_qr_scan", "android": "https://dc.lft.to/lastmile_qr_scan"}, "is_reserved": 0, "fusion_lon": 0.0, "fusion_lat": 0.0, "lon": -77.0188225, "name": "336a70c33ff6ebc3ee062f209ebd010d"}, {"bike_id": "c2b38473a907496366d05ce5571f9454", "type": "electric_scooter", "is_disabled": 0, "lat": 38.9135105, "rental_uris": {"ios": "https://dc.lft.to/lastmile_qr_scan", "android": "https://dc.lft.to/lastmile_qr_scan"}, "is_reserved": 0, "fusion_lon": 0.0, "fusion_lat": 0.0, "lon": -77.03206933333334, "name": "c2b38473a907496366d05ce5571f9454"}, {"bike_id": "08bddd114d616cdb9bf631188a95f0d3", "type": "electric_scooter", "is_disabled": 0, "lat": 38.894855, "rental_uris": {"ios": "https://dc.lft.to/lastmile_qr_scan", "android": "https://dc.lft.to/lastmile_qr_scan"}, "is_reserved": 0, "fusion_lon": 0.0, "fusion_lat": 0.0, "lon": -76.99524633333333, "name": "08bddd114d616cdb9bf631188a95f0d3"}, {"bike_id": "02b4897e9aa4754a95087a1daf587d95", "type": "electric_scooter", "is_disabled": 0, "lat": 38.91540116666667, "rental_uris": {"ios": "https://dc.lft.to/lastmile_qr_scan", "android": "https://dc.lft.to/lastmile_qr_scan"}, "is_reserved": 0, "fusion_lon": 0.0, "fusion_lat": 0.0, "lon": -77.03850616666666, "name": "02b4897e9aa4754a95087a1daf587d95"}, {"bike_id": "e1621796ad8a41af5201f0beb670e239", "type": "electric_scooter", "is_disabled": 0, "lat": 38.892469, "rental_uris": {"ios": "https://dc.lft.to/lastmile_qr_scan", "android": "https://dc.lft.to/lastmile_qr_scan"}, "is_reserved": 0, "fusion_lon": 0.0, "fusion_lat": 0.0, "lon": -77.02586283333333, "name": "e1621796ad8a41af5201f0beb670e239"}, {"bike_id": "d7800f260bd869b3941a787be94c983d", "type": "electric_scooter", "is_disabled": 0, "lat": 38.93370383333333, "rental_uris": {"ios": "https://dc.lft.to/lastmile_qr_scan", "android": "https://dc.lft.to/lastmile_qr_scan"}, "is_reserved": 0, "fusion_lon": 0.0, "fusion_lat": 0.0, "lon": -77.05730383333334, "name": "d7800f260bd869b3941a787be94c983d"}, {"bike_id": "beecd24b100a1147974f8fbfe7e3e360", "type": "electric_scooter", "is_disabled": 0, "lat": 38.9217215, "rental_uris": {"ios": "https://dc.lft.to/lastmile_qr_scan", "android": "https://dc.lft.to/lastmile_qr_scan"}, "is_reserved": 0, "fusion_lon": 0.0, "fusion_lat": 0.0, "lon": -77.03852666666667, "name": "beecd24b100a1147974f8fbfe7e3e360"}, {"bike_id": "ed634502969acf56a5f3d1497048aec4", "type": "electric_scooter", "is_disabled": 0, "lat": 38.909657333333335, "rental_uris": {"ios": "https://dc.lft.to/lastmile_qr_scan", "android": "https://dc.lft.to/lastmile_qr_scan"}, "is_reserved": 0, "fusion_lon": 0.0, "fusion_lat": 0.0, "lon": -77.02276566666667, "name": "ed634502969acf56a5f3d1497048aec4"}, {"bike_id": "e032db481f260112486a57ca4a891bc7", "type": "electric_scooter", "is_disabled": 0, "lat": 38.94227016666667, "rental_uris": {"ios": "https://dc.lft.to/lastmile_qr_scan", "android": "https://dc.lft.to/lastmile_qr_scan"}, "is_reserved": 0, "fusion_lon": 0.0, "fusion_lat": 0.0, "lon": -77.0143985, "name": "e032db481f260112486a57ca4a891bc7"}, {"bike_id": "ca836983e147d610e5ed923fe99074b9", "type": "electric_scooter", "is_disabled": 0, "lat": 38.905327, "rental_uris": {"ios": "https://dc.lft.to/lastmile_qr_scan", "android": "https://dc.lft.to/lastmile_qr_scan"}, "is_reserved": 0, "fusion_lon": 0.0, "fusion_lat": 0.0, "lon": -76.98624116666667, "name": "ca836983e147d610e5ed923fe99074b9"}, {"bike_id": "512085c83ea465c87e26c7090b4902c6", "type": "electric_bike", "is_disabled": 0, "lat": 38.906190333333335, "rental_uris": {"ios": "https://dc.lft.to/lastmile_qr_scan", "android": "https://dc.lft.to/lastmile_qr_scan"}, "is_reserved": 0, "fusion_lon": 0.0, "fusion_lat": 0.0, "lon": -76.98595316666666, "name": "512085c83ea465c87e26c7090b4902c6"}, {"bike_id": "aa4314d551b3dcdf849712936be61824", "type": "electric_bike", "is_disabled": 0, "lat": 38.863334, "rental_uris": {"ios": "https://dc.lft.to/lastmile_qr_scan", "android": "https://dc.lft.to/lastmile_qr_scan"}, "is_reserved": 0, "fusion_lon": 0.0, "fusion_lat": 0.0, "lon": -76.9872225, "name": "aa4314d551b3dcdf849712936be61824"}, {"bike_id": "967d819c5ff84385a4b4e8684d461e53", "type": "electric_scooter", "is_disabled": 0, "lat": 38.862144666666666, "rental_uris": {"ios": "https://dc.lft.to/lastmile_qr_scan", "android": "https://dc.lft.to/lastmile_qr_scan"}, "is_reserved": 0, "fusion_lon": 0.0, "fusion_lat": 0.0, "lon": -76.9947375, "name": "967d819c5ff84385a4b4e8684d461e53"}, {"bike_id": "bea766024df8760f05304fbf17471104", "type": "electric_scooter", "is_disabled": 0, "lat": 38.86698916666667, "rental_uris": {"ios": "https://dc.lft.to/lastmile_qr_scan", "android": "https://dc.lft.to/lastmile_qr_scan"}, "is_reserved": 0, "fusion_lon": 0.0, "fusion_lat": 0.0, "lon": -76.9871285, "name": "bea766024df8760f05304fbf17471104"}, {"bike_id": "be3d25790d0708035e507f09ff53223e", "type": "electric_scooter", "is_disabled": 0, "lat": 38.857554666666665, "rental_uris": {"ios": "https://dc.lft.to/lastmile_qr_scan", "android": "https://dc.lft.to/lastmile_qr_scan"}, "is_reserved": 0, "fusion_lon": 0.0, "fusion_lat": 0.0, "lon": -76.99302616666667, "name": "be3d25790d0708035e507f09ff53223e"}, {"bike_id": "6a52aefb0f83ffee92b9f84cd1314b50", "type": "electric_scooter", "is_disabled": 0, "lat": 38.9471395, "rental_uris": {"ios": "https://dc.lft.to/lastmile_qr_scan", "android": "https://dc.lft.to/lastmile_qr_scan"}, "is_reserved": 0, "fusion_lon": 0.0, "fusion_lat": 0.0, "lon": -77.02773533333334, "name": "6a52aefb0f83ffee92b9f84cd1314b50"}, {"bike_id": "f43fb2ab7b4f4e5f1462089cdbd8dc7f", "type": "electric_scooter", "is_disabled": 0, "lat": 38.899368, "rental_uris": {"ios": "https://dc.lft.to/lastmile_qr_scan", "android": "https://dc.lft.to/lastmile_qr_scan"}, "is_reserved": 0, "fusion_lon": 0.0, "fusion_lat": 0.0, "lon": -77.00361833333334, "name": "f43fb2ab7b4f4e5f1462089cdbd8dc7f"}, {"bike_id": "f2aec9761d741d01f245c606341435ce", "type": "electric_scooter", "is_disabled": 0, "lat": 38.93818433333333, "rental_uris": {"ios": "https://dc.lft.to/lastmile_qr_scan", "android": "https://dc.lft.to/lastmile_qr_scan"}, "is_reserved": 0, "fusion_lon": 0.0, "fusion_lat": 0.0, "lon": -77.02709133333333, "name": "f2aec9761d741d01f245c606341435ce"}, {"bike_id": "557dfddcbaad35a6a8f41cd755a77e42", "type": "electric_bike", "is_disabled": 0, "lat": 38.82934916666667, "rental_uris": {"ios": "https://dc.lft.to/lastmile_qr_scan", "android": "https://dc.lft.to/lastmile_qr_scan"}, "is_reserved": 0, "fusion_lon": 0.0, "fusion_lat": 0.0, "lon": -77.1236645, "name": "557dfddcbaad35a6a8f41cd755a77e42"}, {"bike_id": "6a35469abfa714a4cf5f8c4a3c0a0872", "type": "electric_scooter", "is_disabled": 0, "lat": 38.914886833333334, "rental_uris": {"ios": "https://dc.lft.to/lastmile_qr_scan", "android": "https://dc.lft.to/lastmile_qr_scan"}, "is_reserved": 0, "fusion_lon": 0.0, "fusion_lat": 0.0, "lon": -76.98575783333334, "name": "6a35469abfa714a4cf5f8c4a3c0a0872"}, {"bike_id": "7a4f5a5878da8b2affb270d7c51f230f", "type": "electric_scooter", "is_disabled": 0, "lat": 38.90473733333333, "rental_uris": {"ios": "https://dc.lft.to/lastmile_qr_scan", "android": "https://dc.lft.to/lastmile_qr_scan"}, "is_reserved": 0, "fusion_lon": 0.0, "fusion_lat": 0.0, "lon": -77.00730716666666, "name": "7a4f5a5878da8b2affb270d7c51f230f"}, {"bike_id": "4304b800f54d614ab352db900306e97f", "type": "electric_scooter", "is_disabled": 0, "lat": 38.922509, "rental_uris": {"ios": "https://dc.lft.to/lastmile_qr_scan", "android": "https://dc.lft.to/lastmile_qr_scan"}, "is_reserved": 0, "fusion_lon": 0.0, "fusion_lat": 0.0, "lon": -77.02842616666666, "name": "4304b800f54d614ab352db900306e97f"}, {"bike_id": "3751d158c45ff30a1222e54fc9beda83", "type": "electric_scooter", "is_disabled": 0, "lat": 38.90257883333334, "rental_uris": {"ios": "https://dc.lft.to/lastmile_qr_scan", "android": "https://dc.lft.to/lastmile_qr_scan"}, "is_reserved": 0, "fusion_lon": 0.0, "fusion_lat": 0.0, "lon": -76.98669666666666, "name": "3751d158c45ff30a1222e54fc9beda83"}, {"bike_id": "3df60eb9374c955db1557a8a41099912", "type": "electric_scooter", "is_disabled": 0, "lat": 38.921601, "rental_uris": {"ios": "https://dc.lft.to/lastmile_qr_scan", "android": "https://dc.lft.to/lastmile_qr_scan"}, "is_reserved": 0, "fusion_lon": 0.0, "fusion_lat": 0.0, "lon": -77.03315566666667, "name": "3df60eb9374c955db1557a8a41099912"}, {"bike_id": "ce982aa37714a3a57674e53c745922dc", "type": "electric_scooter", "is_disabled": 0, "lat": 38.9156955, "rental_uris": {"ios": "https://dc.lft.to/lastmile_qr_scan", "android": "https://dc.lft.to/lastmile_qr_scan"}, "is_reserved": 0, "fusion_lon": 0.0, "fusion_lat": 0.0, "lon": -77.0201575, "name": "ce982aa37714a3a57674e53c745922dc"}, {"bike_id": "006e73d69dacf66a9bc3ba4cd4fbd747", "type": "electric_scooter", "is_disabled": 0, "lat": 38.900077833333334, "rental_uris": {"ios": "https://dc.lft.to/lastmile_qr_scan", "android": "https://dc.lft.to/lastmile_qr_scan"}, "is_reserved": 0, "fusion_lon": 0.0, "fusion_lat": 0.0, "lon": -77.010347, "name": "006e73d69dacf66a9bc3ba4cd4fbd747"}, {"bike_id": "460c28381c7cdc52e225c74e206fb735", "type": "electric_scooter", "is_disabled": 0, "lat": 38.89666316666667, "rental_uris": {"ios": "https://dc.lft.to/lastmile_qr_scan", "android": "https://dc.lft.to/lastmile_qr_scan"}, "is_reserved": 0, "fusion_lon": 0.0, "fusion_lat": 0.0, "lon": -77.02374966666666, "name": "460c28381c7cdc52e225c74e206fb735"}, {"bike_id": "4cf316ed7b95291e38d7c51807adca4d", "type": "electric_scooter", "is_disabled": 0, "lat": 38.885986833333334, "rental_uris": {"ios": "https://dc.lft.to/lastmile_qr_scan", "android": "https://dc.lft.to/lastmile_qr_scan"}, "is_reserved": 0, "fusion_lon": 0.0, "fusion_lat": 0.0, "lon": -77.02842583333333, "name": "4cf316ed7b95291e38d7c51807adca4d"}, {"bike_id": "ef1f7ad93c9e25b1e873cdaff4af061b", "type": "electric_scooter", "is_disabled": 0, "lat": 38.838302666666664, "rental_uris": {"ios": "https://dc.lft.to/lastmile_qr_scan", "android": "https://dc.lft.to/lastmile_qr_scan"}, "is_reserved": 0, "fusion_lon": 0.0, "fusion_lat": 0.0, "lon": -77.00267183333334, "name": "ef1f7ad93c9e25b1e873cdaff4af061b"}, {"bike_id": "7452e45868bf07a999a288c404bcd26a", "type": "electric_scooter", "is_disabled": 0, "lat": 38.9042455, "rental_uris": {"ios": "https://dc.lft.to/lastmile_qr_scan", "android": "https://dc.lft.to/lastmile_qr_scan"}, "is_reserved": 0, "fusion_lon": 0.0, "fusion_lat": 0.0, "lon": -77.02735383333334, "name": "7452e45868bf07a999a288c404bcd26a"}, {"bike_id": "896478f06bccf39b0550d3e27e97cfa7", "type": "electric_scooter", "is_disabled": 0, "lat": 38.923584, "rental_uris": {"ios": "https://dc.lft.to/lastmile_qr_scan", "android": "https://dc.lft.to/lastmile_qr_scan"}, "is_reserved": 0, "fusion_lon": 0.0, "fusion_lat": 0.0, "lon": -77.03903116666666, "name": "896478f06bccf39b0550d3e27e97cfa7"}, {"bike_id": "20f3a578c648ede7b419e499de93ed94", "type": "electric_scooter", "is_disabled": 0, "lat": 38.89808333333333, "rental_uris": {"ios": "https://dc.lft.to/lastmile_qr_scan", "android": "https://dc.lft.to/lastmile_qr_scan"}, "is_reserved": 0, "fusion_lon": 0.0, "fusion_lat": 0.0, "lon": -77.0222405, "name": "20f3a578c648ede7b419e499de93ed94"}, {"bike_id": "b5e16122dd27d0cd74e1b117f8be8c86", "type": "electric_scooter", "is_disabled": 0, "lat": 38.952126, "rental_uris": {"ios": "https://dc.lft.to/lastmile_qr_scan", "android": "https://dc.lft.to/lastmile_qr_scan"}, "is_reserved": 0, "fusion_lon": 0.0, "fusion_lat": 0.0, "lon": -77.07068583333333, "name": "b5e16122dd27d0cd74e1b117f8be8c86"}, {"bike_id": "b3f419e7fa40d6c5fe5c478134afb4a1", "type": "electric_scooter", "is_disabled": 0, "lat": 38.90189183333333, "rental_uris": {"ios": "https://dc.lft.to/lastmile_qr_scan", "android": "https://dc.lft.to/lastmile_qr_scan"}, "is_reserved": 0, "fusion_lon": 0.0, "fusion_lat": 0.0, "lon": -77.03891033333333, "name": "b3f419e7fa40d6c5fe5c478134afb4a1"}, {"bike_id": "f6b2ab359c3793d5b834a23c57bd7037", "type": "electric_scooter", "is_disabled": 0, "lat": 38.9111975, "rental_uris": {"ios": "https://dc.lft.to/lastmile_qr_scan", "android": "https://dc.lft.to/lastmile_qr_scan"}, "is_reserved": 0, "fusion_lon": 0.0, "fusion_lat": 0.0, "lon": -77.04215766666667, "name": "f6b2ab359c3793d5b834a23c57bd7037"}, {"bike_id": "c69fd33fdc870da2e72b1cf7a81c72cb", "type": "electric_scooter", "is_disabled": 0, "lat": 38.90373966666667, "rental_uris": {"ios": "https://dc.lft.to/lastmile_qr_scan", "android": "https://dc.lft.to/lastmile_qr_scan"}, "is_reserved": 0, "fusion_lon": 0.0, "fusion_lat": 0.0, "lon": -77.053317, "name": "c69fd33fdc870da2e72b1cf7a81c72cb"}, {"bike_id": "f58e7e5d3fc576cfe25f363334620b30", "type": "electric_scooter", "is_disabled": 0, "lat": 38.91740816666667, "rental_uris": {"ios": "https://dc.lft.to/lastmile_qr_scan", "android": "https://dc.lft.to/lastmile_qr_scan"}, "is_reserved": 0, "fusion_lon": 0.0, "fusion_lat": 0.0, "lon": -77.03181033333334, "name": "f58e7e5d3fc576cfe25f363334620b30"}, {"bike_id": "505ddd941bbb10aff82e3957f849d7bc", "type": "electric_scooter", "is_disabled": 0, "lat": 38.928761, "rental_uris": {"ios": "https://dc.lft.to/lastmile_qr_scan", "android": "https://dc.lft.to/lastmile_qr_scan"}, "is_reserved": 0, "fusion_lon": 0.0, "fusion_lat": 0.0, "lon": -77.02172266666666, "name": "505ddd941bbb10aff82e3957f849d7bc"}, {"bike_id": "3079819ca6501a11062b906356a8c0c6", "type": "electric_scooter", "is_disabled": 0, "lat": 38.881804833333334, "rental_uris": {"ios": "https://dc.lft.to/lastmile_qr_scan", "android": "https://dc.lft.to/lastmile_qr_scan"}, "is_reserved": 0, "fusion_lon": 0.0, "fusion_lat": 0.0, "lon": -77.037376, "name": "3079819ca6501a11062b906356a8c0c6"}, {"bike_id": "284f35da8834bc94c2096dd7df1cc654", "type": "electric_scooter", "is_disabled": 0, "lat": 38.91633016666667, "rental_uris": {"ios": "https://dc.lft.to/lastmile_qr_scan", "android": "https://dc.lft.to/lastmile_qr_scan"}, "is_reserved": 0, "fusion_lon": 0.0, "fusion_lat": 0.0, "lon": -77.02549716666667, "name": "284f35da8834bc94c2096dd7df1cc654"}, {"bike_id": "47ba5dfaa1f9abef25ca9040a299e33d", "type": "electric_scooter", "is_disabled": 0, "lat": 38.964444666666665, "rental_uris": {"ios": "https://dc.lft.to/lastmile_qr_scan", "android": "https://dc.lft.to/lastmile_qr_scan"}, "is_reserved": 0, "fusion_lon": 0.0, "fusion_lat": 0.0, "lon": -77.02064366666667, "name": "47ba5dfaa1f9abef25ca9040a299e33d"}, {"bike_id": "ef4b653e7e5bb2854d91f6a12735bc38", "type": "electric_scooter", "is_disabled": 0, "lat": 38.882796, "rental_uris": {"ios": "https://dc.lft.to/lastmile_qr_scan", "android": "https://dc.lft.to/lastmile_qr_scan"}, "is_reserved": 0, "fusion_lon": 0.0, "fusion_lat": 0.0, "lon": -76.9877575, "name": "ef4b653e7e5bb2854d91f6a12735bc38"}, {"bike_id": "1f25138225db2c3cf5bdc5669c774626", "type": "electric_scooter", "is_disabled": 0, "lat": 38.917008333333335, "rental_uris": {"ios": "https://dc.lft.to/lastmile_qr_scan", "android": "https://dc.lft.to/lastmile_qr_scan"}, "is_reserved": 0, "fusion_lon": 0.0, "fusion_lat": 0.0, "lon": -77.02956533333334, "name": "1f25138225db2c3cf5bdc5669c774626"}, {"bike_id": "430b236134c074a03f19a68846255ca4", "type": "electric_scooter", "is_disabled": 0, "lat": 38.95860016666666, "rental_uris": {"ios": "https://dc.lft.to/lastmile_qr_scan", "android": "https://dc.lft.to/lastmile_qr_scan"}, "is_reserved": 0, "fusion_lon": 0.0, "fusion_lat": 0.0, "lon": -77.02794533333334, "name": "430b236134c074a03f19a68846255ca4"}, {"bike_id": "452ef4e195d62b3916aec616137230ea", "type": "electric_scooter", "is_disabled": 0, "lat": 38.936049833333335, "rental_uris": {"ios": "https://dc.lft.to/lastmile_qr_scan", "android": "https://dc.lft.to/lastmile_qr_scan"}, "is_reserved": 0, "fusion_lon": 0.0, "fusion_lat": 0.0, "lon": -77.05596333333334, "name": "452ef4e195d62b3916aec616137230ea"}, {"bike_id": "d8e335068a0100ad000aaac09313213d", "type": "electric_scooter", "is_disabled": 0, "lat": 38.9080585, "rental_uris": {"ios": "https://dc.lft.to/lastmile_qr_scan", "android": "https://dc.lft.to/lastmile_qr_scan"}, "is_reserved": 0, "fusion_lon": 0.0, "fusion_lat": 0.0, "lon": -77.03063633333333, "name": "d8e335068a0100ad000aaac09313213d"}, {"bike_id": "bee3791bc64c5ac3a9db9ebc1e33d7f3", "type": "electric_scooter", "is_disabled": 0, "lat": 38.930834833333336, "rental_uris": {"ios": "https://dc.lft.to/lastmile_qr_scan", "android": "https://dc.lft.to/lastmile_qr_scan"}, "is_reserved": 0, "fusion_lon": 0.0, "fusion_lat": 0.0, "lon": -77.037349, "name": "bee3791bc64c5ac3a9db9ebc1e33d7f3"}, {"bike_id": "925c29bdcf2c9fc4f25689850cc00628", "type": "electric_scooter", "is_disabled": 0, "lat": 38.94261633333333, "rental_uris": {"ios": "https://dc.lft.to/lastmile_qr_scan", "android": "https://dc.lft.to/lastmile_qr_scan"}, "is_reserved": 0, "fusion_lon": 0.0, "fusion_lat": 0.0, "lon": -77.02529766666666, "name": "925c29bdcf2c9fc4f25689850cc00628"}, {"bike_id": "6265fdd39ed2dd7304b8f6404499f844", "type": "electric_scooter", "is_disabled": 0, "lat": 38.9282265, "rental_uris": {"ios": "https://dc.lft.to/lastmile_qr_scan", "android": "https://dc.lft.to/lastmile_qr_scan"}, "is_reserved": 0, "fusion_lon": 0.0, "fusion_lat": 0.0, "lon": -77.02812616666667, "name": "6265fdd39ed2dd7304b8f6404499f844"}, {"bike_id": "5305cc9b9d0681ccfbb99ceebf9beaf7", "type": "electric_scooter", "is_disabled": 0, "lat": 38.90810616666667, "rental_uris": {"ios": "https://dc.lft.to/lastmile_qr_scan", "android": "https://dc.lft.to/lastmile_qr_scan"}, "is_reserved": 0, "fusion_lon": 0.0, "fusion_lat": 0.0, "lon": -77.034517, "name": "5305cc9b9d0681ccfbb99ceebf9beaf7"}, {"bike_id": "4eb13e983f7789c15cd0a91700aed31d", "type": "electric_scooter", "is_disabled": 0, "lat": 38.951943666666665, "rental_uris": {"ios": "https://dc.lft.to/lastmile_qr_scan", "android": "https://dc.lft.to/lastmile_qr_scan"}, "is_reserved": 0, "fusion_lon": 0.0, "fusion_lat": 0.0, "lon": -77.02614, "name": "4eb13e983f7789c15cd0a91700aed31d"}, {"bike_id": "0c6e969da88b62b1f6b4056ee29d486c", "type": "electric_scooter", "is_disabled": 0, "lat": 38.90830783333333, "rental_uris": {"ios": "https://dc.lft.to/lastmile_qr_scan", "android": "https://dc.lft.to/lastmile_qr_scan"}, "is_reserved": 0, "fusion_lon": 0.0, "fusion_lat": 0.0, "lon": -77.03666016666666, "name": "0c6e969da88b62b1f6b4056ee29d486c"}, {"bike_id": "02a19bae4cc33e90dee711357c2699de", "type": "electric_scooter", "is_disabled": 0, "lat": 38.89917466666667, "rental_uris": {"ios": "https://dc.lft.to/lastmile_qr_scan", "android": "https://dc.lft.to/lastmile_qr_scan"}, "is_reserved": 0, "fusion_lon": 0.0, "fusion_lat": 0.0, "lon": -76.93366683333333, "name": "02a19bae4cc33e90dee711357c2699de"}, {"bike_id": "64ed2987e9462efad50a56d30ac07548", "type": "electric_bike", "is_disabled": 0, "lat": 38.9237485, "rental_uris": {"ios": "https://dc.lft.to/lastmile_qr_scan", "android": "https://dc.lft.to/lastmile_qr_scan"}, "is_reserved": 0, "fusion_lon": 0.0, "fusion_lat": 0.0, "lon": -77.00206283333333, "name": "64ed2987e9462efad50a56d30ac07548"}, {"bike_id": "20a41d0c2ca0a1c34f9e707ed93adad7", "type": "electric_scooter", "is_disabled": 0, "lat": 38.956488, "rental_uris": {"ios": "https://dc.lft.to/lastmile_qr_scan", "android": "https://dc.lft.to/lastmile_qr_scan"}, "is_reserved": 0, "fusion_lon": 0.0, "fusion_lat": 0.0, "lon": -77.0239955, "name": "20a41d0c2ca0a1c34f9e707ed93adad7"}, {"bike_id": "1e6f56b7fc29728abf45c4fcd1e94b5a", "type": "electric_scooter", "is_disabled": 0, "lat": 38.90640483333333, "rental_uris": {"ios": "https://dc.lft.to/lastmile_qr_scan", "android": "https://dc.lft.to/lastmile_qr_scan"}, "is_reserved": 0, "fusion_lon": 0.0, "fusion_lat": 0.0, "lon": -77.02502166666666, "name": "1e6f56b7fc29728abf45c4fcd1e94b5a"},