{"data": {"bikes": [{"lat": 38.918020166666665, "lon": -77.0270435, "is_disabled": 0, "fusion_lon": 0.0, "is_reserved": 0, "name": "0c82c7c701279fd6e88b6fa31b761bc6", "type": "electric_scooter", "bike_id": "0c82c7c701279fd6e88b6fa31b761bc6", "rental_uris": {"ios": "https://dc.lft.to/lastmile_qr_scan", "android": "https://dc.lft.to/lastmile_qr_scan"}, "fusion_lat": 0.0}, {"lat": 38.88754133333333, "lon": -76.99754433333334, "is_disabled": 0, "fusion_lon": 0.0, "is_reserved": 0, "name": "80f1b98ebc20c5d9fa2692fa976aaeee", "type": "electric_scooter", "bike_id": "80f1b98ebc20c5d9fa2692fa976aaeee", "rental_uris": {"ios": "https://dc.lft.to/lastmile_qr_scan", "android": "https://dc.lft.to/lastmile_qr_scan"}, "fusion_lat": 0.0}, {"lat": 38.8998195, "lon": -77.016234, "is_disabled": 0, "fusion_lon": 0.0, "is_reserved": 0, "name": "434454fa9439f481833020083cc1c0b0", "type": "electric_scooter", "bike_id": "434454fa9439f481833020083cc1c0b0", "rental_uris": {"ios": "https://dc.lft.to/lastmile_qr_scan", "android": "https://dc.lft.to/lastmile_qr_scan"}, "fusion_lat": 0.0}, {"lat": 38.92243116666667, "lon": -77.07313383333333, "is_disabled": 0, "fusion_lon": 0.0, "is_reserved": 0, "name": "474bf933b7c7297e76f7a16e1d9305b5", "type": "electric_scooter", "bike_id": "474bf933b7c7297e76f7a16e1d9305b5", "rental_uris": {"ios": "https://dc.lft.to/lastmile_qr_scan", "android": "https://dc.lft.to/lastmile_qr_scan"}, "fusion_lat": 0.0}, {"lat": 38.8873265, "lon": -77.0238405, "is_disabled": 0, "fusion_lon": 0.0, "is_reserved": 0, "name": "9de399249ac8e7d8a2e4cc7f8de1a59d", "type": "electric_scooter", "bike_id": "9de399249ac8e7d8a2e4cc7f8de1a59d", "rental_uris": {"ios": "https://dc.lft.to/lastmile_qr_scan", "android": "https://dc.lft.to/lastmile_qr_scan"}, "fusion_lat": 0.0}, {"lat": 38.9179985, "lon": -77.02488983333333, "is_disabled": 0, "fusion_lon": 0.0, "is_reserved": 0, "name": "c8f1c413baaa616738bebd82f2da8593", "type": "electric_scooter", "bike_id": "c8f1c413baaa616738bebd82f2da8593", "rental_uris": {"ios": "https://dc.lft.to/lastmile_qr_scan", "android": "https://dc.lft.to/lastmile_qr_scan"}, "fusion_lat": 0.0}, {"lat": 38.89217683333333, "lon": -77.02627866666667, "is_disabled": 0, "fusion_lon": 0.0, "is_reserved": 0, "name": "2fc9ff93f4351d034dae1004b4f1545f", "type": "electric_scooter", "bike_id": "2fc9ff93f4351d034dae1004b4f1545f", "rental_uris": {"ios": "https://dc.lft.to/lastmile_qr_scan", "android": "https://dc.lft.to/lastmile_qr_scan"}, "fusion_lat": 0.0}, {"lat": 38.9146825, "lon": -77.03837483333334, "is_disabled": 0, "fusion_lon": 0.0, "is_reserved": 0, "name": "a500769b5b91c059ed691c39e3053bb0", "type": "electric_scooter", "bike_id": "a500769b5b91c059ed691c39e3053bb0", "rental_uris": {"ios": "https://dc.lft.to/lastmile_qr_scan", "android": "https://dc.lft.to/lastmile_qr_scan"}, "fusion_lat": 0.0}, {"lat": 38.912381333333336, "lon": -77.01524583333334, "is_disabled": 0, "fusion_lon": 0.0, "is_reserved": 0, "name": "dbc77dd0aefd14a9d82eb1b8c66bd26a", "type": "electric_scooter", "bike_id": "dbc77dd0aefd14a9d82eb1b8c66bd26a", "rental_uris": {"ios": "https://dc.lft.to/lastmile_qr_scan", "android": "https://dc.lft.to/lastmile_qr_scan"}, "fusion_lat": 0.0}, {"lat": 38.923559833333336, "lon": -77.03198566666667, "is_disabled": 0, "fusion_lon": 0.0, "is_reserved": 0, "name": "e6c6fb980f9e299b5256c9275e58f111", "type": "electric_scooter", "bike_id": "e6c6fb980f9e299b5256c9275e58f111", "rental_uris": {"ios": "https://dc.lft.to/lastmile_qr_scan", "android": "https://dc.lft.to/lastmile_qr_scan"}, "fusion_lat": 0.0}, {"lat": 38.916658166666664, "lon": -77.0471455, "is_disabled": 0, "fusion_lon": 0.0, "is_reserved": 0, "name": "d9de3f295cd0965ee63828355851bf97", "type": "electric_scooter", "bike_id": "d9de3f295cd0965ee63828355851bf97", "rental_uris": {"ios": "https://dc.lft.to/lastmile_qr_scan", "android": "https://dc.lft.to/lastmile_qr_scan"}, "fusion_lat": 0.0}, {"lat": 38.916724, "lon": -77.024003, "is_disabled": 0, "fusion_lon": 0.0, "is_reserved": 0, "name": "c1f0cfe76401926ab8de743fc689713e", "type": "electric_scooter", "bike_id": "c1f0cfe76401926ab8de743fc689713e", "rental_uris": {"ios": "https://dc.lft.to/lastmile_qr_scan", "android": "https://dc.lft.to/lastmile_qr_scan"}, "fusion_lat": 0.0}, {"lat": 38.96153, "lon": -77.02783466666666, "is_disabled": 0, "fusion_lon": 0.0, "is_reserved": 0, "name": "d44de2d33f6a44a289996cc989b094dd", "type": "electric_scooter", "bike_id": "d44de2d33f6a44a289996cc989b094dd", "rental_uris": {"ios": "https://dc.lft.to/lastmile_qr_scan", "android": "https://dc.lft.to/lastmile_qr_scan"}, "fusion_lat": 0.0}, {"lat": 38.9079015, "lon": -77.03864466666667, "is_disabled": 0, "fusion_lon": 0.0, "is_reserved": 0, "name": "b791fce9a6eb5630c593e7393e59ed43", "type": "electric_scooter", "bike_id": "b791fce9a6eb5630c593e7393e59ed43", "rental_uris": {"ios": "https://dc.lft.to/lastmile_qr_scan", "android": "https://dc.lft.to/lastmile_qr_scan"}, "fusion_lat": 0.0}, {"lat": 38.8386195, "lon": -76.99708283333334, "is_disabled": 0, "fusion_lon": 0.0, "is_reserved": 0, "name": "5d23d4eacd449c9aca091bdab60df397", "type": "electric_bike", "bike_id": "5d23d4eacd449c9aca091bdab60df397", "rental_uris": {"ios": "https://dc.lft.to/lastmile_qr_scan", "android": "https://dc.lft.to/lastmile_qr_scan"}, "fusion_lat": 0.0}, {"lat": 38.914869, "lon": -77.03757633333333, "is_disabled": 0, "fusion_lon": 0.0, "is_reserved": 0, "name": "03f2346be39d7b77940e245269e812fa", "type": "electric_scooter", "bike_id": "03f2346be39d7b77940e245269e812fa", "rental_uris": {"ios": "https://dc.lft.to/lastmile_qr_scan", "android": "https://dc.lft.to/lastmile_qr_scan"}, "fusion_lat": 0.0}, {"lat": 38.89818783333333, "lon": -77.01549066666666, "is_disabled": 0, "fusion_lon": 0.0, "is_reserved": 0, "name": "40e8929137b3cd903d150f91276ad041", "type": "electric_scooter", "bike_id": "40e8929137b3cd903d150f91276ad041", "rental_uris": {"ios": "https://dc.lft.to/lastmile_qr_scan", "android": "https://dc.lft.to/lastmile_qr_scan"}, "fusion_lat": 0.0}, {"lat": 38.895446166666666, "lon": -76.98336033333334, "is_disabled": 0, "fusion_lon": 0.0, "is_reserved": 0, "name": "bdc1ffd9d1f297606a7199acf8ef1ff9", "type": "electric_scooter", "bike_id": "bdc1ffd9d1f297606a7199acf8ef1ff9", "rental_uris": {"ios": "https://dc.lft.to/lastmile_qr_scan", "android": "https://dc.lft.to/lastmile_qr_scan"}, "fusion_lat": 0.0}, {"lat": 38.9878855, "lon": -77.141016, "is_disabled": 0, "fusion_lon": 0.0, "is_reserved": 0, "name": "16677429fb9a2aca832d509a8a05aa59", "type": "electric_bike", "bike_id": "16677429fb9a2aca832d509a8a05aa59", "rental_uris": {"ios": "https://dc.lft.to/lastmile_qr_scan", "android": "https://dc.lft.to/lastmile_qr_scan"}, "fusion_lat": 0.0}, {"lat": 38.863304, "lon": -76.98717433333333, "is_disabled": 0, "fusion_lon": 0.0, "is_reserved": 0, "name": "6dddfa25d217c1c1eef2ab5acb62e3cc", "type": "electric_bike", "bike_id": "6dddfa25d217c1c1eef2ab5acb62e3cc", "rental_uris": {"ios": "https://dc.lft.to/lastmile_qr_scan", "android": "https://dc.lft.to/lastmile_qr_scan"}, "fusion_lat": 0.0}, {"lat": 38.87654633333333, "lon": -77.01568883333333, "is_disabled": 0, "fusion_lon": 0.0, "is_reserved": 0, "name": "9e1bf40e1cb548f7ca2343a6cf998c26", "type": "electric_scooter", "bike_id": "9e1bf40e1cb548f7ca2343a6cf998c26", "rental_uris": {"ios": "https://dc.lft.to/lastmile_qr_scan", "android": "https://dc.lft.to/lastmile_qr_scan"}, "fusion_lat": 0.0}, {"lat": 38.915463333333335, "lon": -77.02371683333334, "is_disabled": 0, "fusion_lon": 0.0, "is_reserved": 0, "name": "1f5424bd78e010e4c1ebecd3b5499b92", "type": "electric_scooter", "bike_id": "1f5424bd78e010e4c1ebecd3b5499b92", "rental_uris": {"ios": "https://dc.lft.to/lastmile_qr_scan", "android": "https://dc.lft.to/lastmile_qr_scan"}, "fusion_lat": 0.0}, {"lat": 38.90469266666667, "lon": -77.0659215, "is_disabled": 0, "fusion_lon": 0.0, "is_reserved": 0, "name": "94d02fbc1a3fecceb75f2f5c40fc94f8", "type": "electric_scooter", "bike_id": "94d02fbc1a3fecceb75f2f5c40fc94f8", "rental_uris": {"ios": "https://dc.lft.to/lastmile_qr_scan", "android": "https://dc.lft.to/lastmile_qr_scan"}, "fusion_lat": 0.0}, {"lat": 38.919157, "lon": -77.02373816666666, "is_disabled": 0, "fusion_lon": 0.0, "is_reserved": 0, "name": "b4a58db39db414dcd8684c7eb479701e", "type": "electric_scooter", "bike_id": "b4a58db39db414dcd8684c7eb479701e", "rental_uris": {"ios": "https://dc.lft.to/lastmile_qr_scan", "android": "https://dc.lft.to/lastmile_qr_scan"}, "fusion_lat": 0.0}, {"lat": 38.873748, "lon": -77.00125716666666, "is_disabled": 0, "fusion_lon": 0.0, "is_reserved": 0, "name": "7218e0bd9aa1b0d572dbb1ab794b655e", "type": "electric_scooter", "bike_id": "7218e0bd9aa1b0d572dbb1ab794b655e", "rental_uris": {"ios": "https://dc.lft.to/lastmile_qr_scan", "android": "https://dc.lft.to/lastmile_qr_scan"}, "fusion_lat": 0.0}, {"lat": 38.92059966666667, "lon": -77.03197416666667, "is_disabled": 0, "fusion_lon": 0.0, "is_reserved": 0, "name": "307f2d26931a7c3487cdde9c8e7b8b84", "type": "electric_scooter", "bike_id": "307f2d26931a7c3487cdde9c8e7b8b84", "rental_uris": {"ios": "https://dc.lft.to/lastmile_qr_scan", "android": "https://dc.lft.to/lastmile_qr_scan"}, "fusion_lat": 0.0}, {"lat": 38.923554833333334, "lon": -77.05072583333333, "is_disabled": 0, "fusion_lon": 0.0, "is_reserved": 0, "name": "b6ac40cfe64988ec627bd53a417113aa", "type": "electric_scooter", "bike_id": "b6ac40cfe64988ec627bd53a417113aa", "rental_uris": {"ios": "https://dc.lft.to/lastmile_qr_scan", "android": "https://dc.lft.to/lastmile_qr_scan"}, "fusion_lat": 0.0}, {"lat": 38.98051183333333, "lon": -76.95786683333333, "is_disabled": 0, "fusion_lon": 0.0, "is_reserved": 0, "name": "2d241396503248f863f69d01261b8906", "type": "electric_bike", "bike_id": "2d241396503248f863f69d01261b8906", "rental_uris": {"ios": "https://dc.lft.to/lastmile_qr_scan", "android": "https://dc.lft.to/lastmile_qr_scan"}, "fusion_lat": 0.0}, {"lat": 38.930307, "lon": -77.0573985, "is_disabled": 0, "fusion_lon": 0.0, "is_reserved": 0, "name": "21e49dd24c08e1c1f7b69074cf8e6595", "type": "electric_scooter", "bike_id": "21e49dd24c08e1c1f7b69074cf8e6595", "rental_uris": {"ios": "https://dc.lft.to/lastmile_qr_scan", "android": "https://dc.lft.to/lastmile_qr_scan"}, "fusion_lat": 0.0}, {"lat": 38.93453516666667, "lon": -77.02915516666667, "is_disabled": 0, "fusion_lon": 0.0, "is_reserved": 0, "name": "fc43c2a655b0b85f5ee9a3a02b150caa", "type": "electric_scooter", "bike_id": "fc43c2a655b0b85f5ee9a3a02b150caa", "rental_uris": {"ios": "https://dc.lft.to/lastmile_qr_scan", "android": "https://dc.lft.to/lastmile_qr_scan"}, "fusion_lat": 0.0}, {"lat": 38.92838616666667, "lon": -77.05422016666667, "is_disabled": 0, "fusion_lon": 0.0, "is_reserved": 0, "name": "9c30a872f26d3322dfc29352bc40ff27", "type": "electric_scooter", "bike_id": "9c30a872f26d3322dfc29352bc40ff27", "rental_uris": {"ios": "https://dc.lft.to/lastmile_qr_scan", "android": "https://dc.lft.to/lastmile_qr_scan"}, "fusion_lat": 0.0}, {"lat": 38.9349135, "lon": -76.98140783333334, "is_disabled": 0, "fusion_lon": 0.0, "is_reserved": 0, "name": "3c1a01f2281386e1e8693dc8e87cbc31", "type": "electric_bike", "bike_id": "3c1a01f2281386e1e8693dc8e87cbc31", "rental_uris": {"ios": "https://dc.lft.to/lastmile_qr_scan", "android": "https://dc.lft.to/lastmile_qr_scan"}, "fusion_lat": 0.0}, {"lat": 38.9573115, "lon": -77.024008, "is_disabled": 0, "fusion_lon": 0.0, "is_reserved": 0, "name": "667d65f21b9b1402023ef02f45adb278", "type": "electric_scooter", "bike_id": "667d65f21b9b1402023ef02f45adb278", "rental_uris": {"ios": "https://dc.lft.to/lastmile_qr_scan", "android": "https://dc.lft.to/lastmile_qr_scan"}, "fusion_lat": 0.0}, {"lat": 38.89705283333333, "lon": -76.935771, "is_disabled": 0, "fusion_lon": 0.0, "is_reserved": 0, "name": "c8449792029dae596a88a39f75087bf9", "type": "electric_scooter", "bike_id": "c8449792029dae596a88a39f75087bf9", "rental_uris": {"ios": "https://dc.lft.to/lastmile_qr_scan", "android": "https://dc.lft.to/lastmile_qr_scan"}, "fusion_lat": 0.0}, {"lat": 38.915989, "lon": -77.0322245, "is_disabled": 0, "fusion_lon": 0.0, "is_reserved": 0, "name": "9aae1e247b0493ba3eaed17b9bef0e47", "type": "electric_scooter", "bike_id": "9aae1e247b0493ba3eaed17b9bef0e47", "rental_uris": {"ios": "https://dc.lft.to/lastmile_qr_scan", "android": "https://dc.lft.to/lastmile_qr_scan"}, "fusion_lat": 0.0}, {"lat": 38.8992605, "lon": -77.01269466666666, "is_disabled": 0, "fusion_lon": 0.0, "is_reserved": 0, "name": "5379e1318d09f3ad682ac6edc0689315", "type": "electric_scooter", "bike_id": "5379e1318d09f3ad682ac6edc0689315", "rental_uris": {"ios": "https://dc.lft.to/lastmile_qr_scan", "android": "https://dc.lft.to/lastmile_qr_scan"}, "fusion_lat": 0.0}, {"lat": 38.90726466666667, "lon": -77.029886, "is_disabled": 0, "fusion_lon": 0.0, "is_reserved": 0, "name": "8eefa097ceea0b57d0d0d58894c18555", "type": "electric_scooter", "bike_id": "8eefa097ceea0b57d0d0d58894c18555", "rental_uris": {"ios": "https://dc.lft.to/lastmile_qr_scan", "android": "https://dc.lft.to/lastmile_qr_scan"}, "fusion_lat": 0.0}, {"lat": 38.92497133333333, "lon": -77.02402433333333, "is_disabled": 0, "fusion_lon": 0.0, "is_reserved": 0, "name": "f194d2396f31df1fac6ebb0f5c4f348f", "type": "electric_scooter", "bike_id": "f194d2396f31df1fac6ebb0f5c4f348f", "rental_uris": {"ios": "https://dc.lft.to/lastmile_qr_scan", "android": "https://dc.lft.to/lastmile_qr_scan"}, "fusion_lat": 0.0}, {"lat": 38.905459, "lon": -77.00499283333333, "is_disabled": 0, "fusion_lon": 0.0, "is_reserved": 0, "name": "c46a333a5ef748fbdb65cb34f1d5a669", "type": "electric_scooter", "bike_id": "c46a333a5ef748fbdb65cb34f1d5a669", "rental_uris": {"ios": "https://dc.lft.to/lastmile_qr_scan", "android": "https://dc.lft.to/lastmile_qr_scan"}, "fusion_lat": 0.0}, {"lat": 38.91125783333333, "lon": -77.03828783333333, "is_disabled": 0, "fusion_lon": 0.0, "is_reserved": 0, "name": "2b2bed4e8b91882316397e1a95007c2c", "type": "electric_scooter", "bike_id": "2b2bed4e8b91882316397e1a95007c2c", "rental_uris": {"ios": "https://dc.lft.to/lastmile_qr_scan", "android": "https://dc.lft.to/lastmile_qr_scan"}, "fusion_lat": 0.0}, {"lat": 38.95355933333333, "lon": -76.980891, "is_disabled": 0, "fusion_lon": 0.0, "is_reserved": 0, "name": "da5c8ea32f22747fb5ff60b4b05a995a", "type": "electric_bike", "bike_id": "da5c8ea32f22747fb5ff60b4b05a995a", "rental_uris": {"ios": "https://dc.lft.to/lastmile_qr_scan", "android": "https://dc.lft.to/lastmile_qr_scan"}, "fusion_lat": 0.0}, {"lat": 38.941917, "lon": -77.041122, "is_disabled": 0, "fusion_lon": 0.0, "is_reserved": 0, "name": "796d7d3a5f197d463f04ba49fd78e8ce", "type": "electric_scooter", "bike_id": "796d7d3a5f197d463f04ba49fd78e8ce", "rental_uris": {"ios": "https://dc.lft.to/lastmile_qr_scan", "android": "https://dc.lft.to/lastmile_qr_scan"}, "fusion_lat": 0.0}, {"lat": 38.91956066666667, "lon": -77.01441383333334, "is_disabled": 0, "fusion_lon": 0.0, "is_reserved": 0, "name": "708f4ef173ce1ea0a4da2af566eee583", "type": "electric_scooter", "bike_id": "708f4ef173ce1ea0a4da2af566eee583", "rental_uris": {"ios": "https://dc.lft.to/lastmile_qr_scan", "android": "https://dc.lft.to/lastmile_qr_scan"}, "fusion_lat": 0.0}, {"lat": 38.8619425, "lon": -77.07596883333333, "is_disabled": 0, "fusion_lon": 0.0, "is_reserved": 0, "name": "8b6088eff78765f833f98a7901eccf57", "type": "electric_bike", "bike_id": "8b6088eff78765f833f98a7901eccf57", "rental_uris": {"ios": "https://dc.lft.to/lastmile_qr_scan", "android": "https://dc.lft.to/lastmile_qr_scan"}, "fusion_lat": 0.0}, {"lat": 38.90408083333333, "lon": -77.02576666666667, "is_disabled": 0, "fusion_lon": 0.0, "is_reserved": 0, "name": "9a2a5a6ca8ad90dd814a283a623b2b06", "type": "electric_scooter", "bike_id": "9a2a5a6ca8ad90dd814a283a623b2b06", "rental_uris": {"ios": "https://dc.lft.to/lastmile_qr_scan", "android": "https://dc.lft.to/lastmile_qr_scan"}, "fusion_lat": 0.0}, {"lat": 38.866527833333336, "lon": -76.9889265, "is_disabled": 0, "fusion_lon": 0.0, "is_reserved": 0, "name": "7101eb6906d5e6b676d7a678a8c46833", "type": "electric_scooter", "bike_id": "7101eb6906d5e6b676d7a678a8c46833", "rental_uris": {"ios": "https://dc.lft.to/lastmile_qr_scan", "android": "https://dc.lft.to/lastmile_qr_scan"}, "fusion_lat": 0.0}, {"lat": 38.934346, "lon": -77.04001683333334, "is_disabled": 0, "fusion_lon": 0.0, "is_reserved": 0, "name": "8b41eb08bb57e1b736b8ddf70c37f134", "type": "electric_scooter", "bike_id": "8b41eb08bb57e1b736b8ddf70c37f134", "rental_uris": {"ios": "https://dc.lft.to/lastmile_qr_scan", "android": "https://dc.lft.to/lastmile_qr_scan"}, "fusion_lat": 0.0}, {"lat": 38.902668, "lon": -77.02790133333333, "is_disabled": 0, "fusion_lon": 0.0, "is_reserved": 0, "name": "82e2fbf1278f99e7661fcecdd692da03", "type": "electric_scooter", "bike_id": "82e2fbf1278f99e7661fcecdd692da03", "rental_uris": {"ios": "https://dc.lft.to/lastmile_qr_scan", "android": "https://dc.lft.to/lastmile_qr_scan"}, "fusion_lat": 0.0}, {"lat": 38.908780666666665, "lon": -77.0433015, "is_disabled": 0, "fusion_lon": 0.0, "is_reserved": 0, "name": "4fcc345be53395671cd14b0abb027eca", "type": "electric_scooter", "bike_id": "4fcc345be53395671cd14b0abb027eca", "rental_uris": {"ios": "https://dc.lft.to/lastmile_qr_scan", "android": "https://dc.lft.to/lastmile_qr_scan"}, "fusion_lat": 0.0}, {"lat": 38.904139, "lon": -77.05346366666667, "is_disabled": 0, "fusion_lon": 0.0, "is_reserved": 0, "name": "4268bf3430d187f1df5dc33e50a017d8", "type": "electric_scooter", "bike_id": "4268bf3430d187f1df5dc33e50a017d8", "rental_uris": {"ios": "https://dc.lft.to/lastmile_qr_scan", "android": "https://dc.lft.to/lastmile_qr_scan"}, "fusion_lat": 0.0}, {"lat": 38.873328666666666, "lon": -77.00055116666667, "is_disabled": 0, "fusion_lon": 0.0, "is_reserved": 0, "name": "40caa6930ef5499d9bd919e365c93207", "type": "electric_scooter", "bike_id": "40caa6930ef5499d9bd919e365c93207", "rental_uris": {"ios": "https://dc.lft.to/lastmile_qr_scan", "android": "https://dc.lft.to/lastmile_qr_scan"}, "fusion_lat": 0.0}, {"lat": 38.899641833333334, "lon": -76.994957, "is_disabled": 0, "fusion_lon": 0.0, "is_reserved": 0, "name": "aca283dce58a56abb2e38a6e41b21ae1", "type": "electric_scooter", "bike_id": "aca283dce58a56abb2e38a6e41b21ae1", "rental_uris": {"ios": "https://dc.lft.to/lastmile_qr_scan", "android": "https://dc.lft.to/lastmile_qr_scan"}, "fusion_lat": 0.0}, {"lat": 38.898315, "lon": -77.03038116666667, "is_disabled": 0, "fusion_lon": 0.0, "is_reserved": 0, "name": "80ebe1b819152f31da703e31ed508dd1", "type": "electric_scooter", "bike_id": "80ebe1b819152f31da703e31ed508dd1", "rental_uris": {"ios": "https://dc.lft.to/lastmile_qr_scan", "android": "https://dc.lft.to/lastmile_qr_scan"}, "fusion_lat": 0.0}, {"lat": 38.907913, "lon": -77.03865683333333, "is_disabled": 0, "fusion_lon": 0.0, "is_reserved": 0, "name": "4a31d0d200ee394c319ff61a777494c8", "type": "electric_scooter", "bike_id": "4a31d0d200ee394c319ff61a777494c8", "rental_uris": {"ios": "https://dc.lft.to/lastmile_qr_scan", "android": "https://dc.lft.to/lastmile_qr_scan"}, "fusion_lat": 0.0}, {"lat": 38.847672, "lon": -76.96632333333334, "is_disabled": 0, "fusion_lon": 0.0, "is_reserved": 0, "name": "14702e562cbe6eb704920f1d7f4f9090", "type": "electric_bike", "bike_id": "14702e562cbe6eb704920f1d7f4f9090", "rental_uris": {"ios": "https://dc.lft.to/lastmile_qr_scan", "android": "https://dc.lft.to/lastmile_qr_scan"}, "fusion_lat": 0.0}, {"lat": 38.92305183333333, "lon": -77.03641316666666, "is_disabled": 0, "fusion_lon": 0.0, "is_reserved": 0, "name": "5c1509695bcc2b7f4ad1f1f73e2321bd", "type": "electric_scooter", "bike_id": "5c1509695bcc2b7f4ad1f1f73e2321bd", "rental_uris": {"ios": "https://dc.lft.to/lastmile_qr_scan", "android": "https://dc.lft.to/lastmile_qr_scan"}, "fusion_lat": 0.0}, {"lat": 38.887433333333334, "lon": -77.02124866666666, "is_disabled": 0, "fusion_lon": 0.0, "is_reserved": 0, "name": "1a21040a0baf68dfe895946db27d9127", "type": "electric_scooter", "bike_id": "1a21040a0baf68dfe895946db27d9127", "rental_uris": {"ios": "https://dc.lft.to/lastmile_qr_scan", "android": "https://dc.lft.to/lastmile_qr_scan"}, "fusion_lat": 0.0}, {"lat": 38.8973045, "lon": -77.04985716666667, "is_disabled": 0, "fusion_lon": 0.0, "is_reserved": 0, "name": "fa17947a89cac0eb26513fe52b3e8e74", "type": "electric_scooter", "bike_id": "fa17947a89cac0eb26513fe52b3e8e74", "rental_uris": {"ios": "https://dc.lft.to/lastmile_qr_scan", "android": "https://dc.lft.to/lastmile_qr_scan"}, "fusion_lat": 0.0}, {"lat": 38.904707, "lon": -77.0345465, "is_disabled": 0, "fusion_lon": 0.0, "is_reserved": 0, "name": "07a613ff3fc5512d075ad147224999d2", "type": "electric_scooter", "bike_id": "07a613ff3fc5512d075ad147224999d2", "rental_uris": {"ios": "https://dc.lft.to/lastmile_qr_scan", "android": "https://dc.lft.to/lastmile_qr_scan"}, "fusion_lat": 0.0}, {"lat": 38.90933016666666, "lon": -76.99968316666667, "is_disabled": 0, "fusion_lon": 0.0, "is_reserved": 0, "name": "d7acd2b57571e9cac4eede4509792316", "type": "electric_scooter", "bike_id": "d7acd2b57571e9cac4eede4509792316", "rental_uris": {"ios": "https://dc.lft.to/lastmile_qr_scan", "android": "https://dc.lft.to/lastmile_qr_scan"}, "fusion_lat": 0.0}, {"lat": 38.90986783333334, "lon": -77.02292266666667, "is_disabled": 0, "fusion_lon": 0.0, "is_reserved": 0, "name": "d1ac3e1bcd6a1dbbcea5a1a692cdeb60", "type": "electric_scooter", "bike_id": "d1ac3e1bcd6a1dbbcea5a1a692cdeb60", "rental_uris": {"ios": "https://dc.lft.to/lastmile_qr_scan", "android": "https://dc.lft.to/lastmile_qr_scan"}, "fusion_lat": 0.0}, {"lat": 38.91673433333333, "lon": -77.0271245, "is_disabled": 0, "fusion_lon": 0.0, "is_reserved": 0, "name": "e74c8f6144915c3cd63fa15f4639dc18", "type": "electric_scooter", "bike_id": "e74c8f6144915c3cd63fa15f4639dc18", "rental_uris": {"ios": "https://dc.lft.to/lastmile_qr_scan", "android": "https://dc.lft.to/lastmile_qr_scan"}, "fusion_lat": 0.0}, {"lat": 38.90262533333333, "lon": -77.01732683333333, "is_disabled": 0, "fusion_lon": 0.0, "is_reserved": 0, "name": "a253d251ef2eee517d204f14dfbff966", "type": "electric_scooter", "bike_id": "a253d251ef2eee517d204f14dfbff966", "rental_uris": {"ios": "https://dc.lft.to/lastmile_qr_scan", "android": "https://dc.lft.to/lastmile_qr_scan"}, "fusion_lat": 0.0}, {"lat": 38.907252166666666, "lon": -77.03442683333333, "is_disabled": 0, "fusion_lon": 0.0, "is_reserved": 0, "name": "952128a49456f2df11f19d8e4f00f750", "type": "electric_scooter", "bike_id": "952128a49456f2df11f19d8e4f00f750", "rental_uris": {"ios": "https://dc.lft.to/lastmile_qr_scan", "android": "https://dc.lft.to/lastmile_qr_scan"}, "fusion_lat": 0.0}, {"lat": 38.877104333333335, "lon": -77.0067765, "is_disabled": 0, "fusion_lon": 0.0, "is_reserved": 0, "name": "799a9b3b53c51d32a31ffab94114092a", "type": "electric_scooter", "bike_id": "799a9b3b53c51d32a31ffab94114092a", "rental_uris": {"ios": "https://dc.lft.to/lastmile_qr_scan", "android": "https://dc.lft.to/lastmile_qr_scan"}, "fusion_lat": 0.0}, {"lat": 38.90499783333333, "lon": -77.06595666666666, "is_disabled": 0, "fusion_lon": 0.0, "is_reserved": 0, "name": "d4851f9315764b9aa0b4f1979a06627e", "type": "electric_scooter", "bike_id": "d4851f9315764b9aa0b4f1979a06627e", "rental_uris": {"ios": "https://dc.lft.to/lastmile_qr_scan", "android": "https://dc.lft.to/lastmile_qr_scan"}, "fusion_lat": 0.0}, {"lat": 38.844209666666664, "lon": -76.99781033333333, "is_disabled": 0, "fusion_lon": 0.0, "is_reserved": 0, "name": "f3799987bbba87f7ba6d43429f742ebb", "type": "electric_scooter", "bike_id": "f3799987bbba87f7ba6d43429f742ebb", "rental_uris": {"ios": "https://dc.lft.to/lastmile_qr_scan", "android": "https://dc.lft.to/lastmile_qr_scan"}, "fusion_lat": 0.0}, {"lat": 38.85202833333334, "lon": -76.96297216666666, "is_disabled": 0, "fusion_lon": 0.0, "is_reserved": 0, "name": "cecbdcb4021d2fe73d67302240bd53e3", "type": "electric_bike", "bike_id": "cecbdcb4021d2fe73d67302240bd53e3", "rental_uris": {"ios": "https://dc.lft.to/lastmile_qr_scan", "android": "https://dc.lft.to/lastmile_qr_scan"}, "fusion_lat": 0.0}, {"lat": 38.899589666666664, "lon": -77.05097533333333, "is_disabled": 0, "fusion_lon": 0.0, "is_reserved": 0, "name": "3e751cb7aed408edf95e10817c84e969", "type": "electric_scooter", "bike_id": "3e751cb7aed408edf95e10817c84e969", "rental_uris": {"ios": "https://dc.lft.to/lastmile_qr_scan", "android": "https://dc.lft.to/lastmile_qr_scan"}, "fusion_lat": 0.0}, {"lat": 38.91682816666667, "lon": -77.02899316666667, "is_disabled": 0, "fusion_lon": 0.0, "is_reserved": 0, "name": "ceebaed75f07991b88c8becb459a92a5", "type": "electric_scooter", "bike_id": "ceebaed75f07991b88c8becb459a92a5", "rental_uris": {"ios": "https://dc.lft.to/lastmile_qr_scan", "android": "https://dc.lft.to/lastmile_qr_scan"}, "fusion_lat": 0.0}, {"lat": 38.904151166666665, "lon": -77.05344583333333, "is_disabled": 0, "fusion_lon": 0.0, "is_reserved": 0, "name": "8db54348883994aac4b4bd8efedc586b", "type": "electric_scooter", "bike_id": "8db54348883994aac4b4bd8efedc586b", "rental_uris": {"ios": "https://dc.lft.to/lastmile_qr_scan", "android": "https://dc.lft.to/lastmile_qr_scan"}, "fusion_lat": 0.0}, {"lat": 38.975022, "lon": -77.016659, "is_disabled": 0, "fusion_lon": 0.0, "is_reserved": 0, "name": "160150cf44338bb7916a386f12b52bde", "type": "electric_scooter", "bike_id": "160150cf44338bb7916a386f12b52bde", "rental_uris": {"ios": "https://dc.lft.to/lastmile_qr_scan", "android": "https://dc.lft.to/lastmile_qr_scan"}, "fusion_lat": 0.0}, {"lat": 38.94492533333333, "lon": -77.03630033333333, "is_disabled": 0, "fusion_lon": 0.0, "is_reserved": 0, "name": "edf665b9ec660e41424ac36100f26d83", "type": "electric_scooter", "bike_id": "edf665b9ec660e41424ac36100f26d83", "rental_uris": {"ios": "https://dc.lft.to/lastmile_qr_scan", "android": "https://dc.lft.to/lastmile_qr_scan"}, "fusion_lat": 0.0}, {"lat": 38.91682816666667, "lon": -77.01574666666667, "is_disabled": 0, "fusion_lon": 0.0, "is_reserved": 0, "name": "4c1b74cb3a3c893fe46c3f971141dde3", "type": "electric_scooter", "bike_id": "4c1b74cb3a3c893fe46c3f971141dde3", "rental_uris": {"ios": "https://dc.lft.to/lastmile_qr_scan", "android": "https://dc.lft.to/lastmile_qr_scan"}, "fusion_lat": 0.0}, {"lat": 38.916751, "lon": -77.02276383333333, "is_disabled": 0, "fusion_lon": 0.0, "is_reserved": 0, "name": "042cf04ab41f0a374c2cd0213469c51b", "type": "electric_scooter", "bike_id": "042cf04ab41f0a374c2cd0213469c51b", "rental_uris": {"ios": "https://dc.lft.to/lastmile_qr_scan", "android": "https://dc.lft.to/lastmile_qr_scan"}, "fusion_lat": 0.0}, {"lat": 38.9418225, "lon": -77.0249185, "is_disabled": 0, "fusion_lon": 0.0, "is_reserved": 0, "name": "874da1d3cbe35d6d863f7138646306e8", "type": "electric_scooter", "bike_id": "874da1d3cbe35d6d863f7138646306e8", "rental_uris": {"ios": "https://dc.lft.to/lastmile_qr_scan", "android": "https://dc.lft.to/lastmile_qr_scan"}, "fusion_lat": 0.0}, {"lat": 38.965585833333336, "lon": -77.0282225, "is_disabled": 0, "fusion_lon": 0.0, "is_reserved": 0, "name": "91f7107f27603b8c2906843abc147960", "type": "electric_bike", "bike_id": "91f7107f27603b8c2906843abc147960", "rental_uris": {"ios": "https://dc.lft.to/lastmile_qr_scan", "android": "https://dc.lft.to/lastmile_qr_scan"}, "fusion_lat": 0.0}, {"lat": 38.87967883333334, "lon": -76.9161485, "is_disabled": 0, "fusion_lon": 0.0, "is_reserved": 0, "name": "ac9332358ec9d7c85ba117161601caa3", "type": "electric_bike", "bike_id": "ac9332358ec9d7c85ba117161601caa3", "rental_uris": {"ios": "https://dc.lft.to/lastmile_qr_scan", "android": "https://dc.lft.to/lastmile_qr_scan"}, "fusion_lat": 0.0}, {"lat": 38.9219045, "lon": -77.0402735, "is_disabled": 0, "fusion_lon": 0.0, "is_reserved": 0, "name": "270baa255b890cab366c682bc210b2ca", "type": "electric_scooter", "bike_id": "270baa255b890cab366c682bc210b2ca", "rental_uris": {"ios": "https://dc.lft.to/lastmile_qr_scan", "android": "https://dc.lft.to/lastmile_qr_scan"}, "fusion_lat": 0.0}, {"lat": 38.897753, "lon": -76.99161516666666, "is_disabled": 0, "fusion_lon": 0.0, "is_reserved": 0, "name": "3e76346cc1b10b1561972010d3f96ca4", "type": "electric_scooter", "bike_id": "3e76346cc1b10b1561972010d3f96ca4", "rental_uris": {"ios": "https://dc.lft.to/lastmile_qr_scan", "android": "https://dc.lft.to/lastmile_qr_scan"}, "fusion_lat": 0.0}, {"lat": 38.927940166666666, "lon": -77.02456933333333, "is_disabled": 0, "fusion_lon": 0.0, "is_reserved": 0, "name": "c3ad03308fdb364b69717a2dd57d8993", "type": "electric_scooter", "bike_id": "c3ad03308fdb364b69717a2dd57d8993", "rental_uris": {"ios": "https://dc.lft.to/lastmile_qr_scan", "android": "https://dc.lft.to/lastmile_qr_scan"}, "fusion_lat": 0.0}, {"lat": 38.887437166666665, "lon": -77.030777, "is_disabled": 0, "fusion_lon": 0.0, "is_reserved": 0, "name": "0c3cabe3a43d1a78d9fb858d48b92e11", "type": "electric_scooter", "bike_id": "0c3cabe3a43d1a78d9fb858d48b92e11", "rental_uris": {"ios": "https://dc.lft.to/lastmile_qr_scan", "android": "https://dc.lft.to/lastmile_qr_scan"}, "fusion_lat": 0.0}, {"lat": 38.88730066666667, "lon": -76.983557, "is_disabled": 0, "fusion_lon": 0.0, "is_reserved": 0, "name": "127244f39487b11709b3b07e75ed43ac", "type": "electric_scooter", "bike_id": "127244f39487b11709b3b07e75ed43ac", "rental_uris": {"ios": "https://dc.lft.to/lastmile_qr_scan", "android": "https://dc.lft.to/lastmile_qr_scan"}, "fusion_lat": 0.0}, {"lat": 38.90722316666667, "lon": -77.03183316666667, "is_disabled": 0, "fusion_lon": 0.0, "is_reserved": 0, "name": "495531e1c59ffad5cc3915bf446789cc", "type": "electric_scooter", "bike_id": "495531e1c59ffad5cc3915bf446789cc", "rental_uris": {"ios": "https://dc.lft.to/lastmile_qr_scan", "android": "https://dc.lft.to/lastmile_qr_scan"}, "fusion_lat": 0.0}, {"lat": 38.91552016666667, "lon": -77.03178683333333, "is_disabled": 0, "fusion_lon": 0.0, "is_reserved": 0, "name": "5e17920ba6f366f1aa584715b709f61c", "type": "electric_scooter", "bike_id": "5e17920ba6f366f1aa584715b709f61c", "rental_uris": {"ios": "https://dc.lft.to/lastmile_qr_scan", "android": "https://dc.lft.to/lastmile_qr_scan"}, "fusion_lat": 0.0}, {"lat": 38.933639666666664, "lon": -77.03656583333333, "is_disabled": 0, "fusion_lon": 0.0, "is_reserved": 0, "name": "03c5c3c6eaa5819576f09bb71016fa7b", "type": "electric_scooter", "bike_id": "03c5c3c6eaa5819576f09bb71016fa7b", "rental_uris": {"ios": "https://dc.lft.to/lastmile_qr_scan", "android": "https://dc.lft.to/lastmile_qr_scan"}, "fusion_lat": 0.0}, {"lat": 38.8722145, "lon": -77.0121695, "is_disabled": 0, "fusion_lon": 0.0, "is_reserved": 0, "name": "90dff2aa98a30409ea06b84a86fec13f", "type": "electric_scooter", "bike_id": "90dff2aa98a30409ea06b84a86fec13f", "rental_uris": {"ios": "https://dc.lft.to/lastmile_qr_scan", "android": "https://dc.lft.to/lastmile_qr_scan"}, "fusion_lat": 0.0}, {"lat": 38.92489833333333, "lon": -77.02138, "is_disabled": 0, "fusion_lon": 0.0, "is_reserved": 0, "name": "1b3cd479632e8749843ce2204ed40bd1", "type": "electric_scooter", "bike_id": "1b3cd479632e8749843ce2204ed40bd1", "rental_uris": {"ios": "https://dc.lft.to/lastmile_qr_scan", "android": "https://dc.lft.to/lastmile_qr_scan"}, "fusion_lat": 0.0}, {"lat": 38.896157333333335, "lon": -77.00194633333334, "is_disabled": 0, "fusion_lon": 0.0, "is_reserved": 0, "name": "cbe872ae179c8f164d9fb57b288a74c3", "type": "electric_scooter", "bike_id": "cbe872ae179c8f164d9fb57b288a74c3", "rental_uris": {"ios": "https://dc.lft.to/lastmile_qr_scan", "android": "https://dc.lft.to/lastmile_qr_scan"}, "fusion_lat": 0.0}, {"lat": 38.9429345, "lon": -77.02169533333333, "is_disabled": 0, "fusion_lon": 0.0, "is_reserved": 0, "name": "b03f9468e7e1b60db603dd07b24296d0", "type": "electric_scooter", "bike_id": "b03f9468e7e1b60db603dd07b24296d0", "rental_uris": {"ios": "https://dc.lft.to/lastmile_qr_scan", "android": "https://dc.lft.to/lastmile_qr_scan"}, "fusion_lat": 0.0}, {"lat": 38.9089385, "lon": -77.03201833333334, "is_disabled": 0, "fusion_lon": 0.0, "is_reserved": 0, "name": "c74521c455861dd1bf59cafd43456284", "type": "electric_scooter", "bike_id": "c74521c455861dd1bf59cafd43456284", "rental_uris": {"ios": "https://dc.lft.to/lastmile_qr_scan", "android": "https://dc.lft.to/lastmile_qr_scan"}, "fusion_lat": 0.0}, {"lat": 38.89592783333333, "lon": -76.99221016666667, "is_disabled": 0, "fusion_lon": 0.0, "is_reserved": 0, "name": "b5cc355345ab1347ff0912589cbd7bd8", "type": "electric_bike", "bike_id": "b5cc355345ab1347ff0912589cbd7bd8", "rental_uris": {"ios": "https://dc.lft.to/lastmile_qr_scan", "android": "https://dc.lft.to/lastmile_qr_scan"}, "fusion_lat": 0.0}, {"lat": 38.911302, "lon": -77.02199466666667, "is_disabled": 0, "fusion_lon": 0.0, "is_reserved": 0, "name": "b70dfa1b25ea2aad644e3231a48bf17b", "type": "electric_scooter", "bike_id": "b70dfa1b25ea2aad644e3231a48bf17b", "rental_uris": {"ios": "https://dc.lft.to/lastmile_qr_scan", "android": "https://dc.lft.to/lastmile_qr_scan"}, "fusion_lat": 0.0}, {"lat": 38.892178666666666, "lon": -77.02631116666667, "is_disabled": 0, "fusion_lon": 0.0, "is_reserved": 0, "name": "014c63b86c9518e7b9bd344f1f103aca", "type": "electric_scooter", "bike_id": "014c63b86c9518e7b9bd344f1f103aca", "rental_uris": {"ios": "https://dc.lft.to/lastmile_qr_scan", "android": "https://dc.lft.to/lastmile_qr_scan"}, "fusion_lat": 0.0}, {"lat": 38.9249965, "lon": -77.024033, "is_disabled": 0, "fusion_lon": 0.0, "is_reserved": 0, "name": "2567b157198d1f23fcc105da564a5e57", "type": "electric_scooter", "bike_id": "2567b157198d1f23fcc105da564a5e57", "rental_uris": {"ios": "https://dc.lft.to/lastmile_qr_scan", "android": "https://dc.lft.to/lastmile_qr_scan"}, "fusion_lat": 0.0}, {"lat": 38.90407416666667, "lon": -77.06809316666667, "is_disabled": 0, "fusion_lon": 0.0, "is_reserved": 0, "name": "56650f3b9cabf55cb8438ab923fbab5c", "type": "electric_scooter", "bike_id": "56650f3b9cabf55cb8438ab923fbab5c", "rental_uris": {"ios": "https://dc.lft.to/lastmile_qr_scan", "android": "https://dc.lft.to/lastmile_qr_scan"}, "fusion_lat": 0.0}, {"lat": 38.886069166666665, "lon": -77.00330483333333, "is_disabled": 0, "fusion_lon": 0.0, "is_reserved": 0, "name": "50674b1eead6dfe9ae4c81c559b64783", "type": "electric_scooter", "bike_id": "50674b1eead6dfe9ae4c81c559b64783", "rental_uris": {"ios": "https://dc.lft.to/lastmile_qr_scan", "android": "https://dc.lft.to/lastmile_qr_scan"}, "fusion_lat": 0.0}, {"lat": 38.908642, "lon": -77.063939, "is_disabled": 0, "fusion_lon": 0.0, "is_reserved": 0, "name": "2b1cf305153cf66cce81e99a983ac6e0", "type": "electric_scooter", "bike_id": "2b1cf305153cf66cce81e99a983ac6e0", "rental_uris": {"ios": "https://dc.lft.to/lastmile_qr_scan", "android": "https://dc.lft.to/lastmile_qr_scan"}, "fusion_lat": 0.0}, {"lat": 38.87706383333333, "lon": -76.99693216666667, "is_disabled": 0, "fusion_lon": 0.0, "is_reserved": 0, "name": "7aef68f0c6e21e8a70683d584a0fc59d", "type": "electric_scooter", "bike_id": "7aef68f0c6e21e8a70683d584a0fc59d", "rental_uris": {"ios": "https://dc.lft.to/lastmile_qr_scan", "android": "https://dc.lft.to/lastmile_qr_scan"}, "fusion_lat": 0.0}, {"lat": 38.893911, "lon": -76.9230735, "is_disabled": 0, "fusion_lon": 0.0, "is_reserved": 0, "name": "760336639bcb0fc47cc8247f89bfda65", "type": "electric_scooter", "bike_id": "760336639bcb0fc47cc8247f89bfda65", "rental_uris": {"ios": "https://dc.lft.to/lastmile_qr_scan", "android": "https://dc.lft.to/lastmile_qr_scan"}, "fusion_lat": 0.0}, {"lat": 38.95358483333333, "lon": -76.98096533333333, "is_disabled": 0, "fusion_lon": 0.0, "is_reserved": 0, "name": "3262d4635aa9b97db26811d86ea890fc", "type": "electric_bike", "bike_id": "3262d4635aa9b97db26811d86ea890fc", "rental_uris": {"ios": "https://dc.lft.to/lastmile_qr_scan", "android": "https://dc.lft.to/lastmile_qr_scan"}, "fusion_lat": 0.0}, {"lat": 38.90436433333333, "lon": -77.02846616666666, "is_disabled": 0, "fusion_lon": 0.0, "is_reserved": 0, "name": "8e0a0dbcf292708a476277de812d05ee", "type": "electric_scooter", "bike_id": "8e0a0dbcf292708a476277de812d05ee", "rental_uris": {"ios": "https://dc.lft.to/lastmile_qr_scan", "android": "https://dc.lft.to/lastmile_qr_scan"}, "fusion_lat": 0.0}, {"lat": 38.9001365, "lon": -76.98905033333334, "is_disabled": 0, "fusion_lon": 0.0, "is_reserved": 0, "name": "bc739e8ea792daa11cf127ba337fcbe8", "type": "electric_scooter", "bike_id": "bc739e8ea792daa11cf127ba337fcbe8", "rental_uris": {"ios": "https://dc.lft.to/lastmile_qr_scan", "android": "https://dc.lft.to/lastmile_qr_scan"}, "fusion_lat": 0.0}, {"lat": 38.9332975, "lon": -77.0326675, "is_disabled": 0, "fusion_lon": 0.0, "is_reserved": 0, "name": "dfd7455d42515edda867bf337009089b", "type": "electric_scooter", "bike_id": "dfd7455d42515edda867bf337009089b", "rental_uris": {"ios": "https://dc.lft.to/lastmile_qr_scan", "android": "https://dc.lft.to/lastmile_qr_scan"}, "fusion_lat": 0.0}, {"lat": 38.92457316666667, "lon": -77.03963883333333, "is_disabled": 0, "fusion_lon": 0.0, "is_reserved": 0, "name": "df820243e03e20e13a0bdc70aa3b8243", "type": "electric_scooter", "bike_id": "df820243e03e20e13a0bdc70aa3b8243", "rental_uris": {"ios": "https://dc.lft.to/lastmile_qr_scan", "android": "https://dc.lft.to/lastmile_qr_scan"}, "fusion_lat": 0.0}, {"lat": 38.91932766666667, "lon": -77.03204783333334, "is_disabled": 0, "fusion_lon": 0.0, "is_reserved": 0, "name": "3508d3daa709762e6d41d2f73e327f0e", "type": "electric_scooter", "bike_id": "3508d3daa709762e6d41d2f73e327f0e", "rental_uris": {"ios": "https://dc.lft.to/lastmile_qr_scan", "android": "https://dc.lft.to/lastmile_qr_scan"}, "fusion_lat": 0.0}, {"lat": 38.92345183333333, "lon": -77.05179933333334, "is_disabled": 0, "fusion_lon": 0.0, "is_reserved": 0, "name": "afeaead1ef270c9ffe9c596683d650ab", "type": "electric_scooter", "bike_id": "afeaead1ef270c9ffe9c596683d650ab", "rental_uris": {"ios": "https://dc.lft.to/lastmile_qr_scan", "android": "https://dc.lft.to/lastmile_qr_scan"}, "fusion_lat": 0.0}, {"lat": 38.914296, "lon": -77.03179683333333, "is_disabled": 0, "fusion_lon": 0.0, "is_reserved": 0, "name": "6cdacc7963674d3ace137672462c0241", "type": "electric_scooter", "bike_id": "6cdacc7963674d3ace137672462c0241", "rental_uris": {"ios": "https://dc.lft.to/lastmile_qr_scan", "android": "https://dc.lft.to/lastmile_qr_scan"}, "fusion_lat": 0.0}, {"lat": 38.86759683333333, "lon": -76.94533733333333, "is_disabled": 0, "fusion_lon": 0.0, "is_reserved": 0, "name": "6b1f5e55f64eecf35dce7ef88d8b51c3", "type": "electric_bike", "bike_id": "6b1f5e55f64eecf35dce7ef88d8b51c3", "rental_uris": {"ios": "https://dc.lft.to/lastmile_qr_scan", "android": "https://dc.lft.to/lastmile_qr_scan"}, "fusion_lat": 0.0}, {"lat": 38.87544716666667, "lon": -77.00537166666666, "is_disabled": 0, "fusion_lon": 0.0, "is_reserved": 0, "name": "5a0a6ed380cc276d15b8be64db4996bd", "type": "electric_scooter", "bike_id": "5a0a6ed380cc276d15b8be64db4996bd", "rental_uris": {"ios": "https://dc.lft.to/lastmile_qr_scan", "android": "https://dc.lft.to/lastmile_qr_scan"}, "fusion_lat": 0.0}, {"lat": 38.96610033333333, "lon": -77.02740733333333, "is_disabled": 0, "fusion_lon": 0.0, "is_reserved": 0, "name": "7fc07c91880c47f880629d349dfa2efd", "type": "electric_scooter", "bike_id": "7fc07c91880c47f880629d349dfa2efd", "rental_uris": {"ios": "https://dc.lft.to/lastmile_qr_scan", "android": "https://dc.lft.to/lastmile_qr_scan"}, "fusion_lat": 0.0}, {"lat": 38.9647505, "lon": -77.035648, "is_disabled": 0, "fusion_lon": 0.0, "is_reserved": 0, "name": "31eca54fffdc50064ce669ee7bca2703", "type": "electric_bike", "bike_id": "31eca54fffdc50064ce669ee7bca2703", "rental_uris": {"ios": "https://dc.lft.to/lastmile_qr_scan", "android": "https://dc.lft.to/lastmile_qr_scan"}, "fusion_lat": 0.0}, {"lat": 38.943373, "lon": -76.9831325, "is_disabled": 0, "fusion_lon": 0.0, "is_reserved": 0, "name": "7554546e0a77bb8f405d7a8af9dd459c", "type": "electric_scooter", "bike_id": "7554546e0a77bb8f405d7a8af9dd459c", "rental_uris": {"ios": "https://dc.lft.to/lastmile_qr_scan", "android": "https://dc.lft.to/lastmile_qr_scan"}, "fusion_lat": 0.0}, {"lat": 38.9063765, "lon": -77.01439883333333, "is_disabled": 0, "fusion_lon": 0.0, "is_reserved": 0, "name": "8830150ea221c357776dc5219e8e8fb4", "type": "electric_scooter", "bike_id": "8830150ea221c357776dc5219e8e8fb4", "rental_uris": {"ios": "https://dc.lft.to/lastmile_qr_scan", "android": "https://dc.lft.to/lastmile_qr_scan"}, "fusion_lat": 0.0}, {"lat": 38.876700166666666, "lon": -76.992699, "is_disabled": 0, "fusion_lon": 0.0, "is_reserved": 0, "name": "3df47105f874025cac81939b366a0c78", "type": "electric_scooter", "bike_id": "3df47105f874025cac81939b366a0c78", "rental_uris": {"ios": "https://dc.lft.to/lastmile_qr_scan", "android": "https://dc.lft.to/lastmile_qr_scan"}, "fusion_lat": 0.0}, {"lat": 38.9344265, "lon": -77.0906075, "is_disabled": 0, "fusion_lon": 0.0, "is_reserved": 0, "name": "77a88832a7985dc6dc2bb2c7f6f5e584", "type": "electric_scooter", "bike_id": "77a88832a7985dc6dc2bb2c7f6f5e584", "rental_uris": {"ios": "https://dc.lft.to/lastmile_qr_scan", "android": "https://dc.lft.to/lastmile_qr_scan"}, "fusion_lat": 0.0}, {"lat": 38.91417883333333, "lon": -77.008783, "is_disabled": 0, "fusion_lon": 0.0, "is_reserved": 0, "name": "2d11671fb6bfef51ef45679a0fd95d03", "type": "electric_scooter", "bike_id": "2d11671fb6bfef51ef45679a0fd95d03", "rental_uris": {"ios": "https://dc.lft.to/lastmile_qr_scan", "android": "https://dc.lft.to/lastmile_qr_scan"}, "fusion_lat": 0.0}, {"lat": 38.9072005, "lon": -77.02677833333334, "is_disabled": 0, "fusion_lon": 0.0, "is_reserved": 0, "name": "b1824c82012584ec243cdea2949924f2", "type": "electric_scooter", "bike_id": "b1824c82012584ec243cdea2949924f2", "rental_uris": {"ios": "https://dc.lft.to/lastmile_qr_scan", "android": "https://dc.lft.to/lastmile_qr_scan"}, "fusion_lat": 0.0}, {"lat": 38.89979566666667, "lon": -77.02708166666666, "is_disabled": 0, "fusion_lon": 0.0, "is_reserved": 0, "name": "8ee07ca776df1dd119912996a07e2191", "type": "electric_scooter", "bike_id": "8ee07ca776df1dd119912996a07e2191", "rental_uris": {"ios": "https://dc.lft.to/lastmile_qr_scan", "android": "https://dc.lft.to/lastmile_qr_scan"}, "fusion_lat": 0.0}, {"lat": 38.905769166666666, "lon": -77.009047, "is_disabled": 0, "fusion_lon": 0.0, "is_reserved": 0, "name": "1fc987ab4b7711d9bd41456029958534", "type": "electric_scooter", "bike_id": "1fc987ab4b7711d9bd41456029958534", "rental_uris": {"ios": "https://dc.lft.to/lastmile_qr_scan", "android": "https://dc.lft.to/lastmile_qr_scan"}, "fusion_lat": 0.0}, {"lat": 38.875770333333335, "lon": -77.23411883333333, "is_disabled": 0, "fusion_lon": 0.0, "is_reserved": 0, "name": "11a8b4d42dde9cb7b68197496c94b6a7", "type": "electric_bike", "bike_id": "11a8b4d42dde9cb7b68197496c94b6a7", "rental_uris": {"ios": "https://dc.lft.to/lastmile_qr_scan", "android": "https://dc.lft.to/lastmile_qr_scan"}, "fusion_lat": 0.0}, {"lat": 38.9180315, "lon": -77.02485116666666, "is_disabled": 0, "fusion_lon": 0.0, "is_reserved": 0, "name": "947723c7d7710438012cdd2a104c438e", "type": "electric_scooter", "bike_id": "947723c7d7710438012cdd2a104c438e", "rental_uris": {"ios": "https://dc.lft.to/lastmile_qr_scan", "android": "https://dc.lft.to/lastmile_qr_scan"}, "fusion_lat": 0.0}, {"lat": 38.911815, "lon": -77.03505016666666, "is_disabled": 0, "fusion_lon": 0.0, "is_reserved": 0, "name": "83f4b682140d37a2132458d1db5f4877", "type": "electric_scooter", "bike_id": "83f4b682140d37a2132458d1db5f4877", "rental_uris": {"ios": "https://dc.lft.to/lastmile_qr_scan", "android": "https://dc.lft.to/lastmile_qr_scan"}, "fusion_lat": 0.0}, {"lat": 38.92583116666667, "lon": -77.09683166666667, "is_disabled": 0, "fusion_lon": 0.0, "is_reserved": 0, "name": "a9b58b496a2227ef2fc363d6539d8afb", "type": "electric_scooter", "bike_id": "a9b58b496a2227ef2fc363d6539d8afb", "rental_uris": {"ios": "https://dc.lft.to/lastmile_qr_scan", "android": "https://dc.lft.to/lastmile_qr_scan"}, "fusion_lat": 0.0}, {"lat": 38.900285, "lon": -76.99837833333333, "is_disabled": 0, "fusion_lon": 0.0, "is_reserved": 0, "name": "41b9e5206b01a9d613914a155b090dc0", "type": "electric_scooter", "bike_id": "41b9e5206b01a9d613914a155b090dc0", "rental_uris": {"ios": "https://dc.lft.to/lastmile_qr_scan", "android": "https://dc.lft.to/lastmile_qr_scan"}, "fusion_lat": 0.0}, {"lat": 38.899164666666664, "lon": -76.94558016666667, "is_disabled": 0, "fusion_lon": 0.0, "is_reserved": 0, "name": "81f9a22ac79d6e8674e82e4149092a69", "type": "electric_scooter", "bike_id": "81f9a22ac79d6e8674e82e4149092a69", "rental_uris": {"ios": "https://dc.lft.to/lastmile_qr_scan", "android": "https://dc.lft.to/lastmile_qr_scan"}, "fusion_lat": 0.0}, {"lat": 38.928644, "lon": -77.03455383333333, "is_disabled": 0, "fusion_lon": 0.0, "is_reserved": 0, "name": "92073b45614f90fe119916dcf9b711da", "type": "electric_scooter", "bike_id": "92073b45614f90fe119916dcf9b711da", "rental_uris": {"ios": "https://dc.lft.to/lastmile_qr_scan", "android": "https://dc.lft.to/lastmile_qr_scan"}, "fusion_lat": 0.0}, {"lat": 38.91524, "lon": -77.048653, "is_disabled": 0, "fusion_lon": 0.0, "is_reserved": 0, "name": "668a0ce2993cc11bae33036ef1b2777f", "type": "electric_scooter", "bike_id": "668a0ce2993cc11bae33036ef1b2777f", "rental_uris": {"ios": "https://dc.lft.to/lastmile_qr_scan", "android": "https://dc.lft.to/lastmile_qr_scan"}, "fusion_lat": 0.0}, {"lat": 38.899046166666665, "lon": -76.99952583333334, "is_disabled": 0, "fusion_lon": 0.0, "is_reserved": 0, "name": "5afa1c93558dddd1ef053940431adc00", "type": "electric_scooter", "bike_id": "5afa1c93558dddd1ef053940431adc00", "rental_uris": {"ios": "https://dc.lft.to/lastmile_qr_scan", "android": "https://dc.lft.to/lastmile_qr_scan"}, "fusion_lat": 0.0}, {"lat": 38.89684066666667, "lon": -76.9370775, "is_disabled": 0, "fusion_lon": 0.0, "is_reserved": 0, "name": "1f846ed2abaf5747cdb48ad020a302b8", "type": "electric_scooter", "bike_id": "1f846ed2abaf5747cdb48ad020a302b8", "rental_uris": {"ios": "https://dc.lft.to/lastmile_qr_scan", "android": "https://dc.lft.to/lastmile_qr_scan"}, "fusion_lat": 0.0}, {"lat": 38.9056525, "lon": -77.0343985, "is_disabled": 0, "fusion_lon": 0.0, "is_reserved": 0, "name": "21f7d3b0dbf1600cc0d15503eb84499b", "type": "electric_scooter", "bike_id": "21f7d3b0dbf1600cc0d15503eb84499b", "rental_uris": {"ios": "https://dc.lft.to/lastmile_qr_scan", "android": "https://dc.lft.to/lastmile_qr_scan"}, "fusion_lat": 0.0}, {"lat": 38.95057666666666, "lon": -77.080239, "is_disabled": 0, "fusion_lon": 0.0, "is_reserved": 0, "name": "10822944c2eb453dd3a40048522df818", "type": "electric_scooter", "bike_id": "10822944c2eb453dd3a40048522df818", "rental_uris": {"ios": "https://dc.lft.to/lastmile_qr_scan", "android": "https://dc.lft.to/lastmile_qr_scan"}, "fusion_lat": 0.0}, {"lat": 38.9171995, "lon": -77.0259915, "is_disabled": 0, "fusion_lon": 0.0, "is_reserved": 0, "name": "dfb29882a98335a266401b355dd02a92", "type": "electric_scooter", "bike_id": "dfb29882a98335a266401b355dd02a92", "rental_uris": {"ios": "https://dc.lft.to/lastmile_qr_scan", "android": "https://dc.lft.to/lastmile_qr_scan"}, "fusion_lat": 0.0}, {"lat": 38.90567883333333, "lon": -77.00705916666666, "is_disabled": 0, "fusion_lon": 0.0, "is_reserved": 0, "name": "172f04d4a37626b67d6a0b42b4a6bb9b", "type": "electric_scooter", "bike_id": "172f04d4a37626b67d6a0b42b4a6bb9b", "rental_uris": {"ios": "https://dc.lft.to/lastmile_qr_scan", "android": "https://dc.lft.to/lastmile_qr_scan"}, "fusion_lat": 0.0}, {"lat": 38.8955375, "lon": -76.9487275, "is_disabled": 0, "fusion_lon": 0.0, "is_reserved": 0, "name": "489882db9dbdd58e031b2b5574f4b11a", "type": "electric_scooter", "bike_id": "489882db9dbdd58e031b2b5574f4b11a", "rental_uris": {"ios": "https://dc.lft.to/lastmile_qr_scan", "android": "https://dc.lft.to/lastmile_qr_scan"}, "fusion_lat": 0.0}, {"lat": 38.85645566666667, "lon": -77.08531083333334, "is_disabled": 0, "fusion_lon": 0.0, "is_reserved": 0, "name": "2f6b19ca64955f2a60362fb14e1bfef1", "type": "electric_bike", "bike_id": "2f6b19ca64955f2a60362fb14e1bfef1", "rental_uris": {"ios": "https://dc.lft.to/lastmile_qr_scan", "android": "https://dc.lft.to/lastmile_qr_scan"}, "fusion_lat": 0.0}, {"lat": 38.87823683333333, "lon": -77.02235683333333, "is_disabled": 0, "fusion_lon": 0.0, "is_reserved": 0, "name": "40ae25fb30012858067b1f058cc5f6d4", "type": "electric_scooter", "bike_id": "40ae25fb30012858067b1f058cc5f6d4", "rental_uris": {"ios": "https://dc.lft.to/lastmile_qr_scan", "android": "https://dc.lft.to/lastmile_qr_scan"}, "fusion_lat": 0.0}, {"lat": 38.92240866666667, "lon": -77.03516233333333, "is_disabled": 0, "fusion_lon": 0.0, "is_reserved": 0, "name": "c78041c5a87d236baf8ad31b61b5e7d9", "type": "electric_scooter", "bike_id": "c78041c5a87d236baf8ad31b61b5e7d9", "rental_uris": {"ios": "https://dc.lft.to/lastmile_qr_scan", "android": "https://dc.lft.to/lastmile_qr_scan"}, "fusion_lat": 0.0}, {"lat": 38.91908266666667, "lon": -77.03176483333333, "is_disabled": 0, "fusion_lon": 0.0, "is_reserved": 0, "name": "f16cdd40ae90c1271d84d3754b28f6b3", "type": "electric_scooter", "bike_id": "f16cdd40ae90c1271d84d3754b28f6b3", "rental_uris": {"ios": "https://dc.lft.to/lastmile_qr_scan", "android": "https://dc.lft.to/lastmile_qr_scan"}, "fusion_lat": 0.0}, {"lat": 38.92862233333334, "lon": -77.03448366666667, "is_disabled": 0, "fusion_lon": 0.0, "is_reserved": 0, "name": "23ca7618a3918a1b5814fcc90ded10c7", "type": "electric_scooter", "bike_id": "23ca7618a3918a1b5814fcc90ded10c7", "rental_uris": {"ios": "https://dc.lft.to/lastmile_qr_scan", "android": "https://dc.lft.to/lastmile_qr_scan"}, "fusion_lat": 0.0}, {"lat": 38.902339166666664, "lon": -77.04683083333333, "is_disabled": 0, "fusion_lon": 0.0, "is_reserved": 0, "name": "e796a2fa2c3548db9d6c4ec1ac579b92", "type": "electric_scooter", "bike_id": "e796a2fa2c3548db9d6c4ec1ac579b92", "rental_uris": {"ios": "https://dc.lft.to/lastmile_qr_scan", "android": "https://dc.lft.to/lastmile_qr_scan"}, "fusion_lat": 0.0}, {"lat": 38.904255666666664, "lon": -77.01984683333333, "is_disabled": 0, "fusion_lon": 0.0, "is_reserved": 0, "name": "b5e13bb7c1b5c006006bf90092ef3dde", "type": "electric_scooter", "bike_id": "b5e13bb7c1b5c006006bf90092ef3dde", "rental_uris": {"ios": "https://dc.lft.to/lastmile_qr_scan", "android": "https://dc.lft.to/lastmile_qr_scan"}, "fusion_lat": 0.0}, {"lat": 38.917082666666666, "lon": -77.02475783333334, "is_disabled": 0, "fusion_lon": 0.0, "is_reserved": 0, "name": "56bd8c4a6be56480dfdf706bf15aaf6a", "type": "electric_scooter", "bike_id": "56bd8c4a6be56480dfdf706bf15aaf6a", "rental_uris": {"ios": "https://dc.lft.to/lastmile_qr_scan", "android": "https://dc.lft.to/lastmile_qr_scan"}, "fusion_lat": 0.0}, {"lat": 38.9014825, "lon": -77.01902066666666, "is_disabled": 0, "fusion_lon": 0.0, "is_reserved": 0, "name": "47c05c60d8ed8aaa148ae4ce217b33f8", "type": "electric_scooter", "bike_id": "47c05c60d8ed8aaa148ae4ce217b33f8", "rental_uris": {"ios": "https://dc.lft.to/lastmile_qr_scan", "android": "https://dc.lft.to/lastmile_qr_scan"}, "fusion_lat": 0.0}, {"lat": 38.911177333333335, "lon": -77.0453695, "is_disabled": 0, "fusion_lon": 0.0, "is_reserved": 0, "name": "b0c096a706e643eaf3373c6c6fbe9897", "type": "electric_scooter", "bike_id": "b0c096a706e643eaf3373c6c6fbe9897", "rental_uris": {"ios": "https://dc.lft.to/lastmile_qr_scan", "android": "https://dc.lft.to/lastmile_qr_scan"}, "fusion_lat": 0.0}, {"lat": 38.900648, "lon": -76.92749016666667, "is_disabled": 0, "fusion_lon": 0.0, "is_reserved": 0, "name": "410f8c01451c8b2ca03713dda4fb654b", "type": "electric_scooter", "bike_id": "410f8c01451c8b2ca03713dda4fb654b", "rental_uris": {"ios": "https://dc.lft.to/lastmile_qr_scan", "android": "https://dc.lft.to/lastmile_qr_scan"}, "fusion_lat": 0.0}, {"lat": 38.80761366666667, "lon": -77.12985016666667, "is_disabled": 0, "fusion_lon": 0.0, "is_reserved": 0, "name": "394de00e03837c03d560006c0a5ee714", "type": "electric_bike", "bike_id": "394de00e03837c03d560006c0a5ee714", "rental_uris": {"ios": "https://dc.lft.to/lastmile_qr_scan", "android": "https://dc.lft.to/lastmile_qr_scan"}, "fusion_lat": 0.0}, {"lat": 38.92579833333333, "lon": -77.04002233333334, "is_disabled": 0, "fusion_lon": 0.0, "is_reserved": 0, "name": "dd44f3533d095a3ad41744267ccbd785", "type": "electric_scooter", "bike_id": "dd44f3533d095a3ad41744267ccbd785", "rental_uris": {"ios": "https://dc.lft.to/lastmile_qr_scan", "android": "https://dc.lft.to/lastmile_qr_scan"}, "fusion_lat": 0.0}, {"lat": 38.89725, "lon": -77.023281, "is_disabled": 0, "fusion_lon": 0.0, "is_reserved": 0, "name": "cfa3ee6c4a6f05a24f811e313bd2e0dc", "type": "electric_scooter", "bike_id": "cfa3ee6c4a6f05a24f811e313bd2e0dc", "rental_uris": {"ios": "https://dc.lft.to/lastmile_qr_scan", "android": "https://dc.lft.to/lastmile_qr_scan"}, "fusion_lat": 0.0}, {"lat": 38.90352016666667, "lon": -77.0237255, "is_disabled": 0, "fusion_lon": 0.0, "is_reserved": 0, "name": "75a3026f7e823de7f2f99b4b0364ca74", "type": "electric_scooter", "bike_id": "75a3026f7e823de7f2f99b4b0364ca74", "rental_uris": {"ios": "https://dc.lft.to/lastmile_qr_scan", "android": "https://dc.lft.to/lastmile_qr_scan"}, "fusion_lat": 0.0}, {"lat": 38.8753385, "lon": -77.0051, "is_disabled": 0, "fusion_lon": 0.0, "is_reserved": 0, "name": "d51ec793e2dc12b3ff5371982a9dd29f", "type": "electric_scooter", "bike_id": "d51ec793e2dc12b3ff5371982a9dd29f", "rental_uris": {"ios": "https://dc.lft.to/lastmile_qr_scan", "android": "https://dc.lft.to/lastmile_qr_scan"}, "fusion_lat": 0.0}, {"lat": 38.924026, "lon": -77.0351795, "is_disabled": 0, "fusion_lon": 0.0, "is_reserved": 0, "name": "e1ab545a512a4fca4233e69a8905b3a8", "type": "electric_scooter", "bike_id": "e1ab545a512a4fca4233e69a8905b3a8", "rental_uris": {"ios": "https://dc.lft.to/lastmile_qr_scan", "android": "https://dc.lft.to/lastmile_qr_scan"}, "fusion_lat": 0.0}, {"lat": 38.8817965, "lon": -76.99255716666667, "is_disabled": 0, "fusion_lon": 0.0, "is_reserved": 0, "name": "ff9b9cc8af447a057b97a1a75d2d3b2e", "type": "electric_scooter", "bike_id": "ff9b9cc8af447a057b97a1a75d2d3b2e", "rental_uris": {"ios": "https://dc.lft.to/lastmile_qr_scan", "android": "https://dc.lft.to/lastmile_qr_scan"}, "fusion_lat": 0.0}, {"lat": 38.895442333333335, "lon": -76.94951483333334, "is_disabled": 0, "fusion_lon": 0.0, "is_reserved": 0, "name": "a20edfe2019b18a061ddc03c811f0dbd", "type": "electric_scooter", "bike_id": "a20edfe2019b18a061ddc03c811f0dbd", "rental_uris": {"ios": "https://dc.lft.to/lastmile_qr_scan", "android": "https://dc.lft.to/lastmile_qr_scan"}, "fusion_lat": 0.0}, {"lat": 38.93276316666667, "lon": -76.984324, "is_disabled": 0, "fusion_lon": 0.0, "is_reserved": 0, "name": "a785c5ac93f83993980e09aadaf88df2", "type": "electric_scooter", "bike_id": "a785c5ac93f83993980e09aadaf88df2", "rental_uris": {"ios": "https://dc.lft.to/lastmile_qr_scan", "android": "https://dc.lft.to/lastmile_qr_scan"}, "fusion_lat": 0.0}, {"lat": 38.899264, "lon": -76.9852415, "is_disabled": 0, "fusion_lon": 0.0, "is_reserved": 0, "name": "aaf3edd2652274aba9a35d7fe57cf2ba", "type": "electric_scooter", "bike_id": "aaf3edd2652274aba9a35d7fe57cf2ba", "rental_uris": {"ios": "https://dc.lft.to/lastmile_qr_scan", "android": "https://dc.lft.to/lastmile_qr_scan"}, "fusion_lat": 0.0}, {"lat": 38.907313, "lon": -77.01090566666667, "is_disabled": 0, "fusion_lon": 0.0, "is_reserved": 0, "name": "3e585119f8a8b89ba70cb2cc5654dc26", "type": "electric_scooter", "bike_id": "3e585119f8a8b89ba70cb2cc5654dc26", "rental_uris": {"ios": "https://dc.lft.to/lastmile_qr_scan", "android": "https://dc.lft.to/lastmile_qr_scan"}, "fusion_lat": 0.0}, {"lat": 38.9275645, "lon": -77.052672, "is_disabled": 0, "fusion_lon": 0.0, "is_reserved": 0, "name": "3e730349f3468a7f28d35a9bf4b9a5fc", "type": "electric_scooter", "bike_id": "3e730349f3468a7f28d35a9bf4b9a5fc", "rental_uris": {"ios": "https://dc.lft.to/lastmile_qr_scan", "android": "https://dc.lft.to/lastmile_qr_scan"}, "fusion_lat": 0.0}, {"lat": 38.911183666666666, "lon": -77.03288866666666, "is_disabled": 0, "fusion_lon": 0.0, "is_reserved": 0, "name": "d5cd79818346e513c340ee3ded01f293", "type": "electric_scooter", "bike_id": "d5cd79818346e513c340ee3ded01f293", "rental_uris": {"ios": "https://dc.lft.to/lastmile_qr_scan", "android": "https://dc.lft.to/lastmile_qr_scan"}, "fusion_lat": 0.0}, {"lat": 38.93234283333334, "lon": -76.9949325, "is_disabled": 0, "fusion_lon": 0.0, "is_reserved": 0, "name": "bf8c31e0bb901d0a11ca988317803ea4", "type": "electric_scooter", "bike_id": "bf8c31e0bb901d0a11ca988317803ea4", "rental_uris": {"ios": "https://dc.lft.to/lastmile_qr_scan", "android": "https://dc.lft.to/lastmile_qr_scan"}, "fusion_lat": 0.0}, {"lat": 38.91418916666667, "lon": -77.0180465, "is_disabled": 0, "fusion_lon": 0.0, "is_reserved": 0, "name": "a3e2d58d0e36831ab36e70d7c8113d63", "type": "electric_scooter", "bike_id": "a3e2d58d0e36831ab36e70d7c8113d63", "rental_uris": {"ios": "https://dc.lft.to/lastmile_qr_scan", "android": "https://dc.lft.to/lastmile_qr_scan"}, "fusion_lat": 0.0}, {"lat": 38.9155505, "lon": -77.0101595, "is_disabled": 0, "fusion_lon": 0.0, "is_reserved": 0, "name": "cb673727be53dcfd24e9692d60a924f5", "type": "electric_scooter", "bike_id": "cb673727be53dcfd24e9692d60a924f5", "rental_uris": {"ios": "https://dc.lft.to/lastmile_qr_scan", "android": "https://dc.lft.to/lastmile_qr_scan"}, "fusion_lat": 0.0}, {"lat": 38.9198855, "lon": -77.02375, "is_disabled": 0, "fusion_lon": 0.0, "is_reserved": 0, "name": "3a11138ff4c40a5c8cd7a5f76db1674e", "type": "electric_scooter", "bike_id": "3a11138ff4c40a5c8cd7a5f76db1674e", "rental_uris": {"ios": "https://dc.lft.to/lastmile_qr_scan", "android": "https://dc.lft.to/lastmile_qr_scan"}, "fusion_lat": 0.0}, {"lat": 38.898885666666665, "lon": -76.93177183333333, "is_disabled": 0, "fusion_lon": 0.0, "is_reserved": 0, "name": "dd92110eac6424d0c1f711aea97db92f", "type": "electric_scooter", "bike_id": "dd92110eac6424d0c1f711aea97db92f", "rental_uris": {"ios": "https://dc.lft.to/lastmile_qr_scan", "android": "https://dc.lft.to/lastmile_qr_scan"}, "fusion_lat": 0.0}, {"lat": 38.90857233333333, "lon": -77.04521916666667, "is_disabled": 0, "fusion_lon": 0.0, "is_reserved": 0, "name": "fd67953dae818092539ccc023a03ec1c", "type": "electric_scooter", "bike_id": "fd67953dae818092539ccc023a03ec1c", "rental_uris": {"ios": "https://dc.lft.to/lastmile_qr_scan", "android": "https://dc.lft.to/lastmile_qr_scan"}, "fusion_lat": 0.0}, {"lat": 38.90026266666667, "lon": -77.03921316666667, "is_disabled": 0, "fusion_lon": 0.0, "is_reserved": 0, "name": "0312aad829147ad3de5b46891464ea9d", "type": "electric_scooter", "bike_id": "0312aad829147ad3de5b46891464ea9d", "rental_uris": {"ios": "https://dc.lft.to/lastmile_qr_scan", "android": "https://dc.lft.to/lastmile_qr_scan"}, "fusion_lat": 0.0}, {"lat": 38.92458166666667, "lon": -76.971099, "is_disabled": 0, "fusion_lon": 0.0, "is_reserved": 0, "name": "e5203bb38274ee5fe4e46cd5104a0dc9", "type": "electric_scooter", "bike_id": "e5203bb38274ee5fe4e46cd5104a0dc9", "rental_uris": {"ios": "https://dc.lft.to/lastmile_qr_scan", "android": "https://dc.lft.to/lastmile_qr_scan"}, "fusion_lat": 0.0}, {"lat": 38.91218283333333, "lon": -77.03201183333333, "is_disabled": 0, "fusion_lon": 0.0, "is_reserved": 0, "name": "f76fbfc28f4aca9583e941224679936a", "type": "electric_scooter", "bike_id": "f76fbfc28f4aca9583e941224679936a", "rental_uris": {"ios": "https://dc.lft.to/lastmile_qr_scan", "android": "https://dc.lft.to/lastmile_qr_scan"}, "fusion_lat": 0.0}, {"lat": 38.90275666666667, "lon": -77.03483683333333, "is_disabled": 0, "fusion_lon": 0.0, "is_reserved": 0, "name": "98e59f6cecc53d68d6f73949aabc61e3", "type": "electric_scooter", "bike_id": "98e59f6cecc53d68d6f73949aabc61e3", "rental_uris": {"ios": "https://dc.lft.to/lastmile_qr_scan", "android": "https://dc.lft.to/lastmile_qr_scan"}, "fusion_lat": 0.0}, {"lat": 38.934461666666664, "lon": -77.05774183333334, "is_disabled": 0, "fusion_lon": 0.0, "is_reserved": 0, "name": "61852f2004c7939e3e66f8cd190a0aed", "type": "electric_scooter", "bike_id": "61852f2004c7939e3e66f8cd190a0aed", "rental_uris": {"ios": "https://dc.lft.to/lastmile_qr_scan", "android": "https://dc.lft.to/lastmile_qr_scan"}, "fusion_lat": 0.0}, {"lat": 38.945016333333335, "lon": -77.0779225, "is_disabled": 0, "fusion_lon": 0.0, "is_reserved": 0, "name": "21486b1dd2c6e6f9e9724fde2f204a0b", "type": "electric_scooter", "bike_id": "21486b1dd2c6e6f9e9724fde2f204a0b", "rental_uris": {"ios": "https://dc.lft.to/lastmile_qr_scan", "android": "https://dc.lft.to/lastmile_qr_scan"}, "fusion_lat": 0.0}, {"lat": 38.8974705, "lon": -77.03360116666667, "is_disabled": 0, "fusion_lon": 0.0, "is_reserved": 0, "name": "e5cfeceb5de5fc41755771e4bb2a16e2", "type": "electric_scooter", "bike_id": "e5cfeceb5de5fc41755771e4bb2a16e2", "rental_uris": {"ios": "https://dc.lft.to/lastmile_qr_scan", "android": "https://dc.lft.to/lastmile_qr_scan"}, "fusion_lat": 0.0}, {"lat": 38.923698, "lon": -77.03052066666666, "is_disabled": 0, "fusion_lon": 0.0, "is_reserved": 0, "name": "3e50eaed41dec541ea21d99c788e2fb2", "type": "electric_scooter", "bike_id": "3e50eaed41dec541ea21d99c788e2fb2", "rental_uris": {"ios": "https://dc.lft.to/lastmile_qr_scan", "android": "https://dc.lft.to/lastmile_qr_scan"}, "fusion_lat": 0.0}, {"lat": 38.923243166666666, "lon": -77.0568695, "is_disabled": 0, "fusion_lon": 0.0, "is_reserved": 0, "name": "3b225330bfcc3ab2964fffd19f203fe5", "type": "electric_scooter", "bike_id": "3b225330bfcc3ab2964fffd19f203fe5", "rental_uris": {"ios": "https://dc.lft.to/lastmile_qr_scan", "android": "https://dc.lft.to/lastmile_qr_scan"}, "fusion_lat": 0.0}, {"lat": 38.8834585, "lon": -76.93500266666666, "is_disabled": 0, "fusion_lon": 0.0, "is_reserved": 0, "name": "052232fbe4aa9323b9d453e4f55e1c9c", "type": "electric_scooter", "bike_id": "052232fbe4aa9323b9d453e4f55e1c9c", "rental_uris": {"ios": "https://dc.lft.to/lastmile_qr_scan", "android": "https://dc.lft.to/lastmile_qr_scan"}, "fusion_lat": 0.0}, {"lat": 38.85803683333334, "lon": -76.98990766666667, "is_disabled": 0, "fusion_lon": 0.0, "is_reserved": 0, "name": "bb108b64d121569ae3bb8139f05b790a", "type": "electric_scooter", "bike_id": "bb108b64d121569ae3bb8139f05b790a", "rental_uris": {"ios": "https://dc.lft.to/lastmile_qr_scan", "android": "https://dc.lft.to/lastmile_qr_scan"}, "fusion_lat": 0.0}, {"lat": 38.91254983333333, "lon": -77.038593, "is_disabled": 0, "fusion_lon": 0.0, "is_reserved": 0, "name": "b7c6c7ddc59122b82778e6c5b2fd68c7", "type": "electric_scooter", "bike_id": "b7c6c7ddc59122b82778e6c5b2fd68c7", "rental_uris": {"ios": "https://dc.lft.to/lastmile_qr_scan", "android": "https://dc.lft.to/lastmile_qr_scan"}, "fusion_lat": 0.0}, {"lat": 38.9041265, "lon": -76.97330783333334, "is_disabled": 0, "fusion_lon": 0.0, "is_reserved": 0, "name": "bae9ec24fe67e4abb75caf3bc3ae525c", "type": "electric_scooter", "bike_id": "bae9ec24fe67e4abb75caf3bc3ae525c", "rental_uris": {"ios": "https://dc.lft.to/lastmile_qr_scan", "android": "https://dc.lft.to/lastmile_qr_scan"}, "fusion_lat": 0.0}, {"lat": 38.9186015, "lon": -77.01520216666667, "is_disabled": 0, "fusion_lon": 0.0, "is_reserved": 0, "name": "204ded9e252967aaf061c38551e10a09", "type": "electric_scooter", "bike_id": "204ded9e252967aaf061c38551e10a09", "rental_uris": {"ios": "https://dc.lft.to/lastmile_qr_scan", "android": "https://dc.lft.to/lastmile_qr_scan"}, "fusion_lat": 0.0}, {"lat": 38.921139833333335, "lon": -77.02525216666666, "is_disabled": 0, "fusion_lon": 0.0, "is_reserved": 0, "name": "f65b46a70db9c79a07eb4ac72445ab40", "type": "electric_scooter", "bike_id": "f65b46a70db9c79a07eb4ac72445ab40", "rental_uris": {"ios": "https://dc.lft.to/lastmile_qr_scan", "android": "https://dc.lft.to/lastmile_qr_scan"}, "fusion_lat": 0.0}, {"lat": 38.92460366666667, "lon": -77.022362, "is_disabled": 0, "fusion_lon": 0.0, "is_reserved": 0, "name": "335d8041f3d8e4dca73cc6e1744afbad", "type": "electric_scooter", "bike_id": "335d8041f3d8e4dca73cc6e1744afbad", "rental_uris": {"ios": "https://dc.lft.to/lastmile_qr_scan", "android": "https://dc.lft.to/lastmile_qr_scan"}, "fusion_lat": 0.0}, {"lat": 38.9170245, "lon": -77.02674583333334, "is_disabled": 0, "fusion_lon": 0.0, "is_reserved": 0, "name": "1e511c75c5dfcc6a8443129706d9ea78", "type": "electric_scooter", "bike_id": "1e511c75c5dfcc6a8443129706d9ea78", "rental_uris": {"ios": "https://dc.lft.to/lastmile_qr_scan", "android": "https://dc.lft.to/lastmile_qr_scan"}, "fusion_lat": 0.0}, {"lat": 38.907295833333336, "lon": -77.02386733333333, "is_disabled": 0, "fusion_lon": 0.0, "is_reserved": 0, "name": "1156654d2f211dfecfd458a2c089ea17", "type": "electric_scooter", "bike_id": "1156654d2f211dfecfd458a2c089ea17", "rental_uris": {"ios": "https://dc.lft.to/lastmile_qr_scan", "android": "https://dc.lft.to/lastmile_qr_scan"}, "fusion_lat": 0.0}, {"lat": 38.901960833333334, "lon": -77.02373516666667, "is_disabled": 0, "fusion_lon": 0.0, "is_reserved": 0, "name": "7711e4cf0994eb148d4879f5ce61c91b", "type": "electric_scooter", "bike_id": "7711e4cf0994eb148d4879f5ce61c91b", "rental_uris": {"ios": "https://dc.lft.to/lastmile_qr_scan", "android": "https://dc.lft.to/lastmile_qr_scan"}, "fusion_lat": 0.0}, {"lat": 38.91035933333333, "lon": -77.06491883333334, "is_disabled": 0, "fusion_lon": 0.0, "is_reserved": 0, "name": "2ae4ff2a628393d7b8adfe390ef42f87", "type": "electric_scooter", "bike_id": "2ae4ff2a628393d7b8adfe390ef42f87", "rental_uris": {"ios": "https://dc.lft.to/lastmile_qr_scan", "android": "https://dc.lft.to/lastmile_qr_scan"}, "fusion_lat": 0.0}, {"lat": 38.945015833333336, "lon": -77.03834633333334, "is_disabled": 0, "fusion_lon": 0.0, "is_reserved": 0, "name": "423aa323c619ac3821152f0d14e8cc8e", "type": "electric_scooter", "bike_id": "423aa323c619ac3821152f0d14e8cc8e", "rental_uris": {"ios": "https://dc.lft.to/lastmile_qr_scan", "android": "https://dc.lft.to/lastmile_qr_scan"}, "fusion_lat": 0.0}, {"lat": 38.931889166666664, "lon": -77.0310345, "is_disabled": 0, "fusion_lon": 0.0, "is_reserved": 0, "name": "d8587cf14f8ce6b27603573ddd7566f5", "type": "electric_scooter", "bike_id": "d8587cf14f8ce6b27603573ddd7566f5", "rental_uris": {"ios": "https://dc.lft.to/lastmile_qr_scan", "android": "https://dc.lft.to/lastmile_qr_scan"}, "fusion_lat": 0.0}, {"lat": 38.91683616666667, "lon": -77.015741, "is_disabled": 0, "fusion_lon": 0.0, "is_reserved": 0, "name": "91365d8f1d839bbd0053c12fb0b425a6", "type": "electric_scooter", "bike_id": "91365d8f1d839bbd0053c12fb0b425a6", "rental_uris": {"ios": "https://dc.lft.to/lastmile_qr_scan", "android": "https://dc.lft.to/lastmile_qr_scan"}, "fusion_lat": 0.0}, {"lat": 38.918103, "lon": -77.014247, "is_disabled": 0, "fusion_lon": 0.0, "is_reserved": 0, "name": "5f4c4c66f6f3ae76d1e7f0d38fba3c55", "type": "electric_scooter", "bike_id": "5f4c4c66f6f3ae76d1e7f0d38fba3c55", "rental_uris": {"ios": "https://dc.lft.to/lastmile_qr_scan", "android": "https://dc.lft.to/lastmile_qr_scan"}, "fusion_lat": 0.0}, {"lat": 38.92318316666667, "lon": -77.04040833333333, "is_disabled": 0, "fusion_lon": 0.0, "is_reserved": 0, "name": "4b199c87fbc4104a3c1482e149a4013c", "type": "electric_scooter", "bike_id": "4b199c87fbc4104a3c1482e149a4013c", "rental_uris": {"ios": "https://dc.lft.to/lastmile_qr_scan", "android": "https://dc.lft.to/lastmile_qr_scan"}, "fusion_lat": 0.0}, {"lat": 38.9073225, "lon": -77.02389933333333, "is_disabled": 0, "fusion_lon": 0.0, "is_reserved": 0, "name": "22d479e22dc0fdb219258c0264b75116", "type": "electric_scooter", "bike_id": "22d479e22dc0fdb219258c0264b75116", "rental_uris": {"ios": "https://dc.lft.to/lastmile_qr_scan", "android": "https://dc.lft.to/lastmile_qr_scan"}, "fusion_lat": 0.0}, {"lat": 38.92886216666667, "lon": -77.0362065, "is_disabled": 0, "fusion_lon": 0.0, "is_reserved": 0, "name": "c606774b7c726cdf7326fc1aba5dda73", "type": "electric_bike", "bike_id": "c606774b7c726cdf7326fc1aba5dda73", "rental_uris": {"ios": "https://dc.lft.to/lastmile_qr_scan", "android": "https://dc.lft.to/lastmile_qr_scan"}, "fusion_lat": 0.0}, {"lat": 38.881989, "lon": -77.00359916666666, "is_disabled": 0, "fusion_lon": 0.0, "is_reserved": 0, "name": "b5f395d6753575c4c454526100911beb", "type": "electric_scooter", "bike_id": "b5f395d6753575c4c454526100911beb", "rental_uris": {"ios": "https://dc.lft.to/lastmile_qr_scan", "android": "https://dc.lft.to/lastmile_qr_scan"}, "fusion_lat": 0.0}, {"lat": 38.928440333333334, "lon": -77.03293016666667, "is_disabled": 0, "fusion_lon": 0.0, "is_reserved": 0, "name": "9c9986c3ea5841668f7d9a41bcb38cf7", "type": "electric_scooter", "bike_id": "9c9986c3ea5841668f7d9a41bcb38cf7", "rental_uris": {"ios": "https://dc.lft.to/lastmile_qr_scan", "android": "https://dc.lft.to/lastmile_qr_scan"}, "fusion_lat": 0.0}, {"lat": 38.973504, "lon": -77.02787, "is_disabled": 0, "fusion_lon": 0.0, "is_reserved": 0, "name": "d7e4bf267ca009dcba45cd112d9204ae", "type": "electric_scooter", "bike_id": "d7e4bf267ca009dcba45cd112d9204ae", "rental_uris": {"ios": "https://dc.lft.to/lastmile_qr_scan", "android": "https://dc.lft.to/lastmile_qr_scan"}, "fusion_lat": 0.0}, {"lat": 39.0030895, "lon": -76.9031935, "is_disabled": 0, "fusion_lon": 0.0, "is_reserved": 0, "name": "9cdee81128c72e7c9d94d8ba7ebd2d67", "type": "electric_bike", "bike_id": "9cdee81128c72e7c9d94d8ba7ebd2d67", "rental_uris": {"ios": "https://dc.lft.to/lastmile_qr_scan", "android": "https://dc.lft.to/lastmile_qr_scan"}, "fusion_lat": 0.0}, {"lat": 38.9276695, "lon": -77.02785866666666, "is_disabled": 0, "fusion_lon": 0.0, "is_reserved": 0, "name": "b426b4a3d6d3d70690b633857da59890", "type": "electric_scooter", "bike_id": "b426b4a3d6d3d70690b633857da59890", "rental_uris": {"ios": "https://dc.lft.to/lastmile_qr_scan", "android": "https://dc.lft.to/lastmile_qr_scan"}, "fusion_lat": 0.0}, {"lat": 38.91790133333333, "lon": -77.03202333333333, "is_disabled": 0, "fusion_lon": 0.0, "is_reserved": 0, "name": "08bef6f12d311c123cda30a012c71aa6", "type": "electric_scooter", "bike_id": "08bef6f12d311c123cda30a012c71aa6", "rental_uris": {"ios": "https://dc.lft.to/lastmile_qr_scan", "android": "https://dc.lft.to/lastmile_qr_scan"}, "fusion_lat": 0.0}, {"lat": 38.9234345, "lon": -77.05165166666667, "is_disabled": 0, "fusion_lon": 0.0, "is_reserved": 0, "name": "408df904618fc0f05c945bf4d91d549b", "type": "electric_scooter", "bike_id": "408df904618fc0f05c945bf4d91d549b", "rental_uris": {"ios": "https://dc.lft.to/lastmile_qr_scan", "android": "https://dc.lft.to/lastmile_qr_scan"}, "fusion_lat": 0.0}, {"lat": 38.90245783333334, "lon": -77.02660766666666, "is_disabled": 0, "fusion_lon": 0.0, "is_reserved": 0, "name": "db52fdd7fbb6543e643ac8ee89d6dd23", "type": "electric_scooter", "bike_id": "db52fdd7fbb6543e643ac8ee89d6dd23", "rental_uris": {"ios": "https://dc.lft.to/lastmile_qr_scan", "android": "https://dc.lft.to/lastmile_qr_scan"}, "fusion_lat": 0.0}, {"lat": 38.93603933333333, "lon": -77.036549, "is_disabled": 0, "fusion_lon": 0.0, "is_reserved": 0, "name": "5c9c6506b141a548bcaf2c15b8bb048f", "type": "electric_scooter", "bike_id": "5c9c6506b141a548bcaf2c15b8bb048f", "rental_uris": {"ios": "https://dc.lft.to/lastmile_qr_scan", "android": "https://dc.lft.to/lastmile_qr_scan"}, "fusion_lat": 0.0}, {"lat": 38.916754833333336, "lon": -77.02277716666667, "is_disabled": 0, "fusion_lon": 0.0, "is_reserved": 0, "name": "d2783951933855b7705edd550446ca35", "type": "electric_scooter", "bike_id": "d2783951933855b7705edd550446ca35", "rental_uris": {"ios": "https://dc.lft.to/lastmile_qr_scan", "android": "https://dc.lft.to/lastmile_qr_scan"}, "fusion_lat": 0.0}, {"lat": 38.903843, "lon": -77.0514095, "is_disabled": 0, "fusion_lon": 0.0, "is_reserved": 0, "name": "04a638c0669c525bed113349bdb6e088", "type": "electric_scooter", "bike_id": "04a638c0669c525bed113349bdb6e088", "rental_uris": {"ios": "https://dc.lft.to/lastmile_qr_scan", "android": "https://dc.lft.to/lastmile_qr_scan"}, "fusion_lat": 0.0}, {"lat": 38.87627883333333, "lon": -77.01581533333334, "is_disabled": 0, "fusion_lon": 0.0, "is_reserved": 0, "name": "d034b1b510a998dde6636a7b34cf4dc2", "type": "electric_scooter", "bike_id": "d034b1b510a998dde6636a7b34cf4dc2", "rental_uris": {"ios": "https://dc.lft.to/lastmile_qr_scan", "android": "https://dc.lft.to/lastmile_qr_scan"}, "fusion_lat": 0.0}, {"lat": 38.89972366666667, "lon": -77.01629416666667, "is_disabled": 0, "fusion_lon": 0.0, "is_reserved": 0, "name": "c8facb04c1f3cac102c104be26390331", "type": "electric_scooter", "bike_id": "c8facb04c1f3cac102c104be26390331", "rental_uris": {"ios": "https://dc.lft.to/lastmile_qr_scan", "android": "https://dc.lft.to/lastmile_qr_scan"}, "fusion_lat": 0.0}, {"lat": 38.905557, "lon": -77.00183, "is_disabled": 0, "fusion_lon": 0.0, "is_reserved": 0, "name": "0329a2b4cd84ff0840bcf8e08addaf3f", "type": "electric_scooter", "bike_id": "0329a2b4cd84ff0840bcf8e08addaf3f", "rental_uris": {"ios": "https://dc.lft.to/lastmile_qr_scan", "android": "https://dc.lft.to/lastmile_qr_scan"}, "fusion_lat": 0.0}, {"lat": 38.90636816666667, "lon": -77.03437116666667, "is_disabled": 0, "fusion_lon": 0.0, "is_reserved": 0, "name": "521b5ae5ed6546135358a452b7b3124b", "type": "electric_scooter", "bike_id": "521b5ae5ed6546135358a452b7b3124b", "rental_uris": {"ios": "https://dc.lft.to/lastmile_qr_scan", "android": "https://dc.lft.to/lastmile_qr_scan"}, "fusion_lat": 0.0}, {"lat": 38.89057416666667, "lon": -76.94453716666666, "is_disabled": 0, "fusion_lon": 0.0, "is_reserved": 0, "name": "47254f11abd709b780a63650b42e8d17", "type": "electric_scooter", "bike_id": "47254f11abd709b780a63650b42e8d17", "rental_uris": {"ios": "https://dc.lft.to/lastmile_qr_scan", "android": "https://dc.lft.to/lastmile_qr_scan"}, "fusion_lat": 0.0}, {"lat": 38.940883666666664, "lon": -77.02631816666667, "is_disabled": 0, "fusion_lon": 0.0, "is_reserved": 0, "name": "d3280a61742e68c369553571c05f2f3f", "type": "electric_scooter", "bike_id": "d3280a61742e68c369553571c05f2f3f", "rental_uris": {"ios": "https://dc.lft.to/lastmile_qr_scan", "android": "https://dc.lft.to/lastmile_qr_scan"}, "fusion_lat": 0.0}, {"lat": 38.907661, "lon": -77.03585066666666, "is_disabled": 0, "fusion_lon": 0.0, "is_reserved": 0, "name": "d58b8de5e4617040f3a1fbe57d286475", "type": "electric_scooter", "bike_id": "d58b8de5e4617040f3a1fbe57d286475", "rental_uris": {"ios": "https://dc.lft.to/lastmile_qr_scan", "android": "https://dc.lft.to/lastmile_qr_scan"}, "fusion_lat": 0.0}, {"lat": 38.91819366666667, "lon": -77.03200933333333, "is_disabled": 0, "fusion_lon": 0.0, "is_reserved": 0, "name": "b5823962ef535bbedf6b780ef454a6b5", "type": "electric_scooter", "bike_id": "b5823962ef535bbedf6b780ef454a6b5", "rental_uris": {"ios": "https://dc.lft.to/lastmile_qr_scan", "android": "https://dc.lft.to/lastmile_qr_scan"}, "fusion_lat": 0.0}, {"lat": 38.92735916666667, "lon": -77.02247516666667, "is_disabled": 0, "fusion_lon": 0.0, "is_reserved": 0, "name": "3ce4364d55df1918c795f77eaaa3c8d8", "type": "electric_scooter", "bike_id": "3ce4364d55df1918c795f77eaaa3c8d8", "rental_uris": {"ios": "https://dc.lft.to/lastmile_qr_scan", "android": "https://dc.lft.to/lastmile_qr_scan"}, "fusion_lat": 0.0}, {"lat": 38.839343, "lon": -77.0789685, "is_disabled": 0, "fusion_lon": 0.0, "is_reserved": 0, "name": "02cb8f9ab5ac8eea8e9eb48bc1e5752e", "type": "electric_bike", "bike_id": "02cb8f9ab5ac8eea8e9eb48bc1e5752e", "rental_uris": {"ios": "https://dc.lft.to/lastmile_qr_scan", "android": "https://dc.lft.to/lastmile_qr_scan"}, "fusion_lat": 0.0}, {"lat": 38.942917666666666, "lon": -77.02172733333333, "is_disabled": 0, "fusion_lon": 0.0, "is_reserved": 0, "name": "bbe9d5f22129fac437847a0d03c5d09e", "type": "electric_scooter", "bike_id": "bbe9d5f22129fac437847a0d03c5d09e", "rental_uris": {"ios": "https://dc.lft.to/lastmile_qr_scan", "android": "https://dc.lft.to/lastmile_qr_scan"}, "fusion_lat": 0.0}, {"lat": 38.9154295, "lon": -77.03800283333334, "is_disabled": 0, "fusion_lon": 0.0, "is_reserved": 0, "name": "9991ec0d7f23325e96ad274588a57229", "type": "electric_scooter", "bike_id": "9991ec0d7f23325e96ad274588a57229", "rental_uris": {"ios": "https://dc.lft.to/lastmile_qr_scan", "android": "https://dc.lft.to/lastmile_qr_scan"}, "fusion_lat": 0.0}, {"lat": 38.91696316666667, "lon": -77.03026283333334, "is_disabled": 0, "fusion_lon": 0.0, "is_reserved": 0, "name": "ccb8ebbad93709626f8520982f4fc169", "type": "electric_scooter", "bike_id": "ccb8ebbad93709626f8520982f4fc169", "rental_uris": {"ios": "https://dc.lft.to/lastmile_qr_scan", "android": "https://dc.lft.to/lastmile_qr_scan"}, "fusion_lat": 0.0}, {"lat": 38.924678166666666, "lon": -77.02208033333334, "is_disabled": 0, "fusion_lon": 0.0, "is_reserved": 0, "name": "ed6541ac374de7de26a794cb73cfe63f", "type": "electric_scooter", "bike_id": "ed6541ac374de7de26a794cb73cfe63f", "rental_uris": {"ios": "https://dc.lft.to/lastmile_qr_scan", "android": "https://dc.lft.to/lastmile_qr_scan"}, "fusion_lat": 0.0}, {"lat": 38.90082133333333, "lon": -77.02709566666667, "is_disabled": 0, "fusion_lon": 0.0, "is_reserved": 0, "name": "160161f3a930d28e7c0fe6e7cb83c2ef", "type": "electric_scooter", "bike_id": "160161f3a930d28e7c0fe6e7cb83c2ef", "rental_uris": {"ios": "https://dc.lft.to/lastmile_qr_scan", "android": "https://dc.lft.to/lastmile_qr_scan"}, "fusion_lat": 0.0}, {"lat": 38.931030166666666, "lon": -77.0247235, "is_disabled": 0, "fusion_lon": 0.0, "is_reserved": 0, "name": "9352b6c4d32f3aad0ed55b134bdd0e77", "type": "electric_scooter", "bike_id": "9352b6c4d32f3aad0ed55b134bdd0e77", "rental_uris": {"ios": "https://dc.lft.to/lastmile_qr_scan", "android": "https://dc.lft.to/lastmile_qr_scan"}, "fusion_lat": 0.0}, {"lat": 38.88018566666667, "lon": -76.98065766666667, "is_disabled": 0, "fusion_lon": 0.0, "is_reserved": 0, "name": "4a69963995e1720ee087b32fa4bd132c", "type": "electric_scooter", "bike_id": "4a69963995e1720ee087b32fa4bd132c", "rental_uris": {"ios": "https://dc.lft.to/lastmile_qr_scan", "android": "https://dc.lft.to/lastmile_qr_scan"}, "fusion_lat": 0.0}, {"lat": 38.918062666666664, "lon": -77.03629333333333, "is_disabled": 0, "fusion_lon": 0.0, "is_reserved": 0, "name": "005a4ec0287dd97755059435f61785dd", "type": "electric_scooter", "bike_id": "005a4ec0287dd97755059435f61785dd", "rental_uris": {"ios": "https://dc.lft.to/lastmile_qr_scan", "android": "https://dc.lft.to/lastmile_qr_scan"}, "fusion_lat": 0.0}, {"lat": 38.887336, "lon": -77.031709, "is_disabled": 0, "fusion_lon": 0.0, "is_reserved": 0, "name": "f8623cbdeb923fcb360861fe3aac2d6e", "type": "electric_scooter", "bike_id": "f8623cbdeb923fcb360861fe3aac2d6e", "rental_uris": {"ios": "https://dc.lft.to/lastmile_qr_scan", "android": "https://dc.lft.to/lastmile_qr_scan"}, "fusion_lat": 0.0}, {"lat": 38.807455833333336, "lon": -77.09427816666667, "is_disabled": 0, "fusion_lon": 0.0, "is_reserved": 0, "name": "fd5f655a341dd39dc3128936e4f314fb", "type": "electric_bike", "bike_id": "fd5f655a341dd39dc3128936e4f314fb", "rental_uris": {"ios": "https://dc.lft.to/lastmile_qr_scan", "android": "https://dc.lft.to/lastmile_qr_scan"}, "fusion_lat": 0.0}, {"lat": 38.931434833333334, "lon": -77.038304, "is_disabled": 0, "fusion_lon": 0.0, "is_reserved": 0, "name": "6288a7eb19956d62af11f81b5926dd19", "type": "electric_scooter", "bike_id": "6288a7eb19956d62af11f81b5926dd19", "rental_uris": {"ios": "https://dc.lft.to/lastmile_qr_scan", "android": "https://dc.lft.to/lastmile_qr_scan"}, "fusion_lat": 0.0}, {"lat": 38.887451166666665, "lon": -77.014045, "is_disabled": 0, "fusion_lon": 0.0, "is_reserved": 0, "name": "62881039c03377b2d9cc303fdb2467a5", "type": "electric_scooter", "bike_id": "62881039c03377b2d9cc303fdb2467a5", "rental_uris": {"ios": "https://dc.lft.to/lastmile_qr_scan", "android": "https://dc.lft.to/lastmile_qr_scan"}, "fusion_lat": 0.0}, {"lat": 38.96214633333334, "lon": -77.02629716666667, "is_disabled": 0, "fusion_lon": 0.0, "is_reserved": 0, "name": "bfcc5df30dfeddc8602ce4421978f5a8", "type": "electric_bike", "bike_id": "bfcc5df30dfeddc8602ce4421978f5a8", "rental_uris": {"ios": "https://dc.lft.to/lastmile_qr_scan", "android": "https://dc.lft.to/lastmile_qr_scan"}, "fusion_lat": 0.0}, {"lat": 38.89969933333333, "lon": -77.01775133333334, "is_disabled": 0, "fusion_lon": 0.0, "is_reserved": 0, "name": "d3a760d13eca997606d7b62fb1021d63", "type": "electric_scooter", "bike_id": "d3a760d13eca997606d7b62fb1021d63", "rental_uris": {"ios": "https://dc.lft.to/lastmile_qr_scan", "android": "https://dc.lft.to/lastmile_qr_scan"}, "fusion_lat": 0.0}, {"lat": 38.92391466666667, "lon": -77.02739216666667, "is_disabled": 0, "fusion_lon": 0.0, "is_reserved": 0, "name": "f21dc45e62673ae1f89b5d7e333ccb9d", "type": "electric_scooter", "bike_id": "f21dc45e62673ae1f89b5d7e333ccb9d", "rental_uris": {"ios": "https://dc.lft.to/lastmile_qr_scan", "android": "https://dc.lft.to/lastmile_qr_scan"}, "fusion_lat": 0.0}, {"lat": 38.874803666666665, "lon": -77.00603333333333, "is_disabled": 0, "fusion_lon": 0.0, "is_reserved": 0, "name": "a3072e4184d45c9a63606fecd2bb2a51", "type": "electric_scooter", "bike_id": "a3072e4184d45c9a63606fecd2bb2a51", "rental_uris": {"ios": "https://dc.lft.to/lastmile_qr_scan", "android": "https://dc.lft.to/lastmile_qr_scan"}, "fusion_lat": 0.0}, {"lat": 38.90246616666667, "lon": -77.03259216666666, "is_disabled": 0, "fusion_lon": 0.0, "is_reserved": 0, "name": "50a9b738d34e45a11ac89f9fcf00e207", "type": "electric_scooter", "bike_id": "50a9b738d34e45a11ac89f9fcf00e207", "rental_uris": {"ios": "https://dc.lft.to/lastmile_qr_scan", "android": "https://dc.lft.to/lastmile_qr_scan"}, "fusion_lat": 0.0}, {"lat": 38.85332833333333, "lon": -77.1150405, "is_disabled": 0, "fusion_lon": 0.0, "is_reserved": 0, "name": "b870c2ece4dcc6fff0ed4e1e4f925954", "type": "electric_bike", "bike_id": "b870c2ece4dcc6fff0ed4e1e4f925954", "rental_uris": {"ios": "https://dc.lft.to/lastmile_qr_scan", "android": "https://dc.lft.to/lastmile_qr_scan"}, "fusion_lat": 0.0}, {"lat": 39.034248, "lon": -77.04310283333334, "is_disabled": 0, "fusion_lon": 0.0, "is_reserved": 0, "name": "94798d94f4fa5a3e4a625fa71c8cc613", "type": "electric_bike", "bike_id": "94798d94f4fa5a3e4a625fa71c8cc613", "rental_uris": {"ios": "https://dc.lft.to/lastmile_qr_scan", "android": "https://dc.lft.to/lastmile_qr_scan"}, "fusion_lat": 0.0}, {"lat": 38.897751, "lon": -76.98461866666666, "is_disabled": 0, "fusion_lon": 0.0, "is_reserved": 0, "name": "64bd12d6ac91c9c07d34ee7ac8b95a6b", "type": "electric_scooter", "bike_id": "64bd12d6ac91c9c07d34ee7ac8b95a6b", "rental_uris": {"ios": "https://dc.lft.to/lastmile_qr_scan", "android": "https://dc.lft.to/lastmile_qr_scan"}, "fusion_lat": 0.0}, {"lat": 38.8981685, "lon": -77.01538933333333, "is_disabled": 0, "fusion_lon": 0.0, "is_reserved": 0, "name": "ebab29299ddce49fdfdd990cafa7da58", "type": "electric_scooter", "bike_id": "ebab29299ddce49fdfdd990cafa7da58", "rental_uris": {"ios": "https://dc.lft.to/lastmile_qr_scan", "android": "https://dc.lft.to/lastmile_qr_scan"}, "fusion_lat": 0.0}, {"lat": 38.920934333333335, "lon": -77.025518, "is_disabled": 0, "fusion_lon": 0.0, "is_reserved": 0, "name": "7526b1ce548d908533974763a27f2b9a", "type": "electric_scooter", "bike_id": "7526b1ce548d908533974763a27f2b9a", "rental_uris": {"ios": "https://dc.lft.to/lastmile_qr_scan", "android": "https://dc.lft.to/lastmile_qr_scan"}, "fusion_lat": 0.0}, {"lat": 38.87657016666667, "lon": -76.99456533333333, "is_disabled": 0, "fusion_lon": 0.0, "is_reserved": 0, "name": "6e229eb9c6f5f217186a3049328fe3d8", "type": "electric_scooter", "bike_id": "6e229eb9c6f5f217186a3049328fe3d8", "rental_uris": {"ios": "https://dc.lft.to/lastmile_qr_scan", "android": "https://dc.lft.to/lastmile_qr_scan"}, "fusion_lat": 0.0}, {"lat": 38.9276435, "lon": -77.02784333333334, "is_disabled": 0, "fusion_lon": 0.0, "is_reserved": 0, "name": "edded5311241c8e477dbb8a0f68e2a51", "type": "electric_scooter", "bike_id": "edded5311241c8e477dbb8a0f68e2a51", "rental_uris": {"ios": "https://dc.lft.to/lastmile_qr_scan", "android": "https://dc.lft.to/lastmile_qr_scan"}, "fusion_lat": 0.0}, {"lat": 38.92383683333333, "lon": -77.03067816666666, "is_disabled": 0, "fusion_lon": 0.0, "is_reserved": 0, "name": "cbcc934edf087cf85bb68c7f6ed9e484", "type": "electric_scooter", "bike_id": "cbcc934edf087cf85bb68c7f6ed9e484", "rental_uris": {"ios": "https://dc.lft.to/lastmile_qr_scan", "android": "https://dc.lft.to/lastmile_qr_scan"}, "fusion_lat": 0.0}, {"lat": 38.904286166666665, "lon": -77.02768133333333, "is_disabled": 0, "fusion_lon": 0.0, "is_reserved": 0, "name": "ec07668769b2aa16adba032d88d19c1b", "type": "electric_scooter", "bike_id": "ec07668769b2aa16adba032d88d19c1b", "rental_uris": {"ios": "https://dc.lft.to/lastmile_qr_scan", "android": "https://dc.lft.to/lastmile_qr_scan"}, "fusion_lat": 0.0}, {"lat": 38.92308716666667, "lon": -77.03658183333333, "is_disabled": 0, "fusion_lon": 0.0, "is_reserved": 0, "name": "fd24e6dc46469362a02dac9ff6071041", "type": "electric_scooter", "bike_id": "fd24e6dc46469362a02dac9ff6071041", "rental_uris": {"ios": "https://dc.lft.to/lastmile_qr_scan", "android": "https://dc.lft.to/lastmile_qr_scan"}, "fusion_lat": 0.0}, {"lat": 38.9206285, "lon": -77.0421225, "is_disabled": 0, "fusion_lon": 0.0, "is_reserved": 0, "name": "e40e125d0bc79ed07ad2664310852082", "type": "electric_scooter", "bike_id": "e40e125d0bc79ed07ad2664310852082", "rental_uris": {"ios": "https://dc.lft.to/lastmile_qr_scan", "android": "https://dc.lft.to/lastmile_qr_scan"}, "fusion_lat": 0.0}, {"lat": 38.921329166666666, "lon": -77.04584983333334, "is_disabled": 0, "fusion_lon": 0.0, "is_reserved": 0, "name": "bc8a9032b6bdd0becbee33851b5a36e9", "type": "electric_scooter", "bike_id": "bc8a9032b6bdd0becbee33851b5a36e9", "rental_uris": {"ios": "https://dc.lft.to/lastmile_qr_scan", "android": "https://dc.lft.to/lastmile_qr_scan"}, "fusion_lat": 0.0}, {"lat": 38.9431895, "lon": -77.06132916666667, "is_disabled": 0, "fusion_lon": 0.0, "is_reserved": 0, "name": "d877503adf9a83493dbff2a9024809b0", "type": "electric_scooter", "bike_id": "d877503adf9a83493dbff2a9024809b0", "rental_uris": {"ios": "https://dc.lft.to/lastmile_qr_scan", "android": "https://dc.lft.to/lastmile_qr_scan"}, "fusion_lat": 0.0}, {"lat": 38.922836333333336, "lon": -77.036624, "is_disabled": 0, "fusion_lon": 0.0, "is_reserved": 0, "name": "d449e8348c582dc98b57a1dda61c2a4f", "type": "electric_scooter", "bike_id": "d449e8348c582dc98b57a1dda61c2a4f", "rental_uris": {"ios": "https://dc.lft.to/lastmile_qr_scan", "android": "https://dc.lft.to/lastmile_qr_scan"}, "fusion_lat": 0.0}, {"lat": 38.90986566666667, "lon": -77.02204483333334, "is_disabled": 0, "fusion_lon": 0.0, "is_reserved": 0, "name": "fa5ccfb1af41c41cc7c8ab8174b632df", "type": "electric_scooter", "bike_id": "fa5ccfb1af41c41cc7c8ab8174b632df", "rental_uris": {"ios": "https://dc.lft.to/lastmile_qr_scan", "android": "https://dc.lft.to/lastmile_qr_scan"}, "fusion_lat": 0.0}, {"lat": 38.860635333333335, "lon": -76.96712316666667, "is_disabled": 0, "fusion_lon": 0.0, "is_reserved": 0, "name": "fb294bfa7646f09f6360802d9d341ab7", "type": "electric_scooter", "bike_id": "fb294bfa7646f09f6360802d9d341ab7", "rental_uris": {"ios": "https://dc.lft.to/lastmile_qr_scan", "android": "https://dc.lft.to/lastmile_qr_scan"}, "fusion_lat": 0.0}, {"lat": 38.92331466666667, "lon": -77.02284933333334, "is_disabled": 0, "fusion_lon": 0.0, "is_reserved": 0, "name": "f9ad6118783dc52364d757470b4d530a", "type": "electric_scooter", "bike_id": "f9ad6118783dc52364d757470b4d530a", "rental_uris": {"ios": "https://dc.lft.to/lastmile_qr_scan", "android": "https://dc.lft.to/lastmile_qr_scan"}, "fusion_lat": 0.0}, {"lat": 38.89971366666666, "lon": -77.05573266666667, "is_disabled": 0, "fusion_lon": 0.0, "is_reserved": 0, "name": "2783e0782a2e84180a23cd47531f3cff", "type": "electric_scooter", "bike_id": "2783e0782a2e84180a23cd47531f3cff", "rental_uris": {"ios": "https://dc.lft.to/lastmile_qr_scan", "android": "https://dc.lft.to/lastmile_qr_scan"}, "fusion_lat": 0.0}, {"lat": 38.8688945, "lon": -76.98999116666667, "is_disabled": 0, "fusion_lon": 0.0, "is_reserved": 0, "name": "c98493213b64acdea3c5cb43ee02f015", "type": "electric_scooter", "bike_id": "c98493213b64acdea3c5cb43ee02f015", "rental_uris": {"ios": "https://dc.lft.to/lastmile_qr_scan", "android": "https://dc.lft.to/lastmile_qr_scan"}, "fusion_lat": 0.0}, {"lat": 38.91915433333333, "lon": -77.02735616666666, "is_disabled": 0, "fusion_lon": 0.0, "is_reserved": 0, "name": "cf1012e1f212e744bbeab3c96dfa0884", "type": "electric_scooter", "bike_id": "cf1012e1f212e744bbeab3c96dfa0884", "rental_uris": {"ios": "https://dc.lft.to/lastmile_qr_scan", "android": "https://dc.lft.to/lastmile_qr_scan"}, "fusion_lat": 0.0}, {"lat": 38.904594333333335, "lon": -76.9853555, "is_disabled": 0, "fusion_lon": 0.0, "is_reserved": 0, "name": "202701b8481c47361ccd611a80514c5a", "type": "electric_scooter", "bike_id": "202701b8481c47361ccd611a80514c5a", "rental_uris": {"ios": "https://dc.lft.to/lastmile_qr_scan", "android": "https://dc.lft.to/lastmile_qr_scan"}, "fusion_lat": 0.0}, {"lat": 38.918013333333334, "lon": -77.02708366666667, "is_disabled": 0, "fusion_lon": 0.0, "is_reserved": 0, "name": "8140acb52ae87713bda070138c1b54e9", "type": "electric_scooter", "bike_id": "8140acb52ae87713bda070138c1b54e9", "rental_uris": {"ios": "https://dc.lft.to/lastmile_qr_scan", "android": "https://dc.lft.to/lastmile_qr_scan"}, "fusion_lat": 0.0}, {"lat": 38.892314999999996, "lon": -77.0487755, "is_disabled": 0, "fusion_lon": 0.0, "is_reserved": 0, "name": "9378ca943957aec6b2313cb41876a2fc", "type": "electric_scooter", "bike_id": "9378ca943957aec6b2313cb41876a2fc", "rental_uris": {"ios": "https://dc.lft.to/lastmile_qr_scan", "android": "https://dc.lft.to/lastmile_qr_scan"}, "fusion_lat": 0.0}, {"lat": 38.94205866666667, "lon": -77.01825516666666, "is_disabled": 0, "fusion_lon": 0.0, "is_reserved": 0, "name": "8475dd08ad3b48d8d8d8c19e7028e804", "type": "electric_bike", "bike_id": "8475dd08ad3b48d8d8d8c19e7028e804", "rental_uris": {"ios": "https://dc.lft.to/lastmile_qr_scan", "android": "https://dc.lft.to/lastmile_qr_scan"}, "fusion_lat": 0.0}, {"lat": 38.9614055, "lon": -77.02777916666666, "is_disabled": 0, "fusion_lon": 0.0, "is_reserved": 0, "name": "52525a4010608d90e1c96efcad7b3a39", "type": "electric_scooter", "bike_id": "52525a4010608d90e1c96efcad7b3a39", "rental_uris": {"ios": "https://dc.lft.to/lastmile_qr_scan", "android": "https://dc.lft.to/lastmile_qr_scan"}, "fusion_lat": 0.0}, {"lat": 38.902462666666665, "lon": -77.00585666666667, "is_disabled": 0, "fusion_lon": 0.0, "is_reserved": 0, "name": "45442336dd338b648aa7fc431d60ecb2", "type": "electric_scooter", "bike_id": "45442336dd338b648aa7fc431d60ecb2", "rental_uris": {"ios": "https://dc.lft.to/lastmile_qr_scan", "android": "https://dc.lft.to/lastmile_qr_scan"}, "fusion_lat": 0.0}, {"lat": 38.90380533333333, "lon": -76.97618866666667, "is_disabled": 0, "fusion_lon": 0.0, "is_reserved": 0, "name": "4b223e377c7649c8f6889a08560e7411", "type": "electric_scooter", "bike_id": "4b223e377c7649c8f6889a08560e7411", "rental_uris": {"ios": "https://dc.lft.to/lastmile_qr_scan", "android": "https://dc.lft.to/lastmile_qr_scan"}, "fusion_lat": 0.0}, {"lat": 38.9213425, "lon": -77.00945216666666, "is_disabled": 0, "fusion_lon": 0.0, "is_reserved": 0, "name": "81b44f87db79e3873cff538696c94e95", "type": "electric_scooter", "bike_id": "81b44f87db79e3873cff538696c94e95", "rental_uris": {"ios": "https://dc.lft.to/lastmile_qr_scan", "android": "https://dc.lft.to/lastmile_qr_scan"}, "fusion_lat": 0.0}, {"lat": 38.92884466666667, "lon": -77.03256433333334, "is_disabled": 0, "fusion_lon": 0.0, "is_reserved": 0, "name": "73e8d66110fee6216ba9434e8b217e80", "type": "electric_scooter", "bike_id": "73e8d66110fee6216ba9434e8b217e80", "rental_uris": {"ios": "https://dc.lft.to/lastmile_qr_scan", "android": "https://dc.lft.to/lastmile_qr_scan"}, "fusion_lat": 0.0}, {"lat": 38.92910283333333, "lon": -77.0729755, "is_disabled": 0, "fusion_lon": 0.0, "is_reserved": 0, "name": "1e103e7f56a6d31d3702c37f6144c800", "type": "electric_scooter", "bike_id": "1e103e7f56a6d31d3702c37f6144c800", "rental_uris": {"ios": "https://dc.lft.to/lastmile_qr_scan", "android": "https://dc.lft.to/lastmile_qr_scan"}, "fusion_lat": 0.0}, {"lat": 38.8818765, "lon": -77.00350833333333, "is_disabled": 0, "fusion_lon": 0.0, "is_reserved": 0, "name": "40ade5d12b677e47b65e74a45b553a3d", "type": "electric_scooter", "bike_id": "40ade5d12b677e47b65e74a45b553a3d", "rental_uris": {"ios": "https://dc.lft.to/lastmile_qr_scan", "android": "https://dc.lft.to/lastmile_qr_scan"}, "fusion_lat": 0.0}, {"lat": 38.919672, "lon": -77.00111933333334, "is_disabled": 0, "fusion_lon": 0.0, "is_reserved": 0, "name": "27737216326d704dc2b250eac9451aa4", "type": "electric_scooter", "bike_id": "27737216326d704dc2b250eac9451aa4", "rental_uris": {"ios": "https://dc.lft.to/lastmile_qr_scan", "android": "https://dc.lft.to/lastmile_qr_scan"}, "fusion_lat": 0.0}, {"lat": 38.90049033333333, "lon": -77.0128225, "is_disabled": 0, "fusion_lon": 0.0, "is_reserved": 0, "name": "78752d47529a77315fd63193f013b098", "type": "electric_scooter", "bike_id": "78752d47529a77315fd63193f013b098", "rental_uris": {"ios": "https://dc.lft.to/lastmile_qr_scan", "android": "https://dc.lft.to/lastmile_qr_scan"}, "fusion_lat": 0.0}, {"lat": 38.910467, "lon": -77.03996916666667, "is_disabled": 0, "fusion_lon": 0.0, "is_reserved": 0, "name": "6f7fde3733023e79a0671ad4c94857d3", "type": "electric_scooter", "bike_id": "6f7fde3733023e79a0671ad4c94857d3", "rental_uris": {"ios": "https://dc.lft.to/lastmile_qr_scan", "android": "https://dc.lft.to/lastmile_qr_scan"}, "fusion_lat": 0.0}, {"lat": 38.918245, "lon": -77.01200883333334, "is_disabled": 0, "fusion_lon": 0.0, "is_reserved": 0, "name": "da781e1ac815243967e778248119ec03", "type": "electric_scooter", "bike_id": "da781e1ac815243967e778248119ec03", "rental_uris": {"ios": "https://dc.lft.to/lastmile_qr_scan", "android": "https://dc.lft.to/lastmile_qr_scan"}, "fusion_lat": 0.0}, {"lat": 38.92187966666667, "lon": -77.04020333333334, "is_disabled": 0, "fusion_lon": 0.0, "is_reserved": 0, "name": "e84c76dc555e91ab77859ad133dca24e", "type": "electric_scooter", "bike_id": "e84c76dc555e91ab77859ad133dca24e", "rental_uris": {"ios": "https://dc.lft.to/lastmile_qr_scan", "android": "https://dc.lft.to/lastmile_qr_scan"}, "fusion_lat": 0.0}, {"lat": 38.916341, "lon": -77.04230333333334, "is_disabled": 0, "fusion_lon": 0.0, "is_reserved": 0, "name": "c36d0f1efa6f6da7851ac608c3ee72c4", "type": "electric_scooter", "bike_id": "c36d0f1efa6f6da7851ac608c3ee72c4", "rental_uris": {"ios": "https://dc.lft.to/lastmile_qr_scan", "android": "https://dc.lft.to/lastmile_qr_scan"}, "fusion_lat": 0.0}, {"lat": 38.902551, "lon": -77.0532585, "is_disabled": 0, "fusion_lon": 0.0, "is_reserved": 0, "name": "77e901b481316120b21689f890bfdc0f", "type": "electric_scooter", "bike_id": "77e901b481316120b21689f890bfdc0f", "rental_uris": {"ios": "https://dc.lft.to/lastmile_qr_scan", "android": "https://dc.lft.to/lastmile_qr_scan"}, "fusion_lat": 0.0}, {"lat": 38.89718033333333, "lon": -77.0496625, "is_disabled": 0, "fusion_lon": 0.0, "is_reserved": 0, "name": "dd9a7dc6a0409f2b60bbf81d18b85d6b", "type": "electric_scooter", "bike_id": "dd9a7dc6a0409f2b60bbf81d18b85d6b", "rental_uris": {"ios": "https://dc.lft.to/lastmile_qr_scan", "android": "https://dc.lft.to/lastmile_qr_scan"}, "fusion_lat": 0.0}, {"lat": 38.916956666666664, "lon": -77.03039616666666, "is_disabled": 0, "fusion_lon": 0.0, "is_reserved": 0, "name": "4ac072a44722ed5e87c799705e630dba", "type": "electric_scooter", "bike_id": "4ac072a44722ed5e87c799705e630dba", "rental_uris": {"ios": "https://dc.lft.to/lastmile_qr_scan", "android": "https://dc.lft.to/lastmile_qr_scan"}, "fusion_lat": 0.0}, {"lat": 38.905015166666665, "lon": -77.059185, "is_disabled": 0, "fusion_lon": 0.0, "is_reserved": 0, "name": "b7af7d07776a5ad07fd8438d08304bac", "type": "electric_scooter", "bike_id": "b7af7d07776a5ad07fd8438d08304bac", "rental_uris": {"ios": "https://dc.lft.to/lastmile_qr_scan", "android": "https://dc.lft.to/lastmile_qr_scan"}, "fusion_lat": 0.0}, {"lat": 38.9175185, "lon": -77.03998733333333, "is_disabled": 0, "fusion_lon": 0.0, "is_reserved": 0, "name": "6bb9b58ac629269cbf028b30f6ccaab4", "type": "electric_scooter", "bike_id": "6bb9b58ac629269cbf028b30f6ccaab4", "rental_uris": {"ios": "https://dc.lft.to/lastmile_qr_scan", "android": "https://dc.lft.to/lastmile_qr_scan"}, "fusion_lat": 0.0}, {"lat": 38.92155016666667, "lon": -77.03370783333334, "is_disabled": 0, "fusion_lon": 0.0, "is_reserved": 0, "name": "1e36ec5264d70352d67eccaa4b7cbe6d", "type": "electric_scooter", "bike_id": "1e36ec5264d70352d67eccaa4b7cbe6d", "rental_uris": {"ios": "https://dc.lft.to/lastmile_qr_scan", "android": "https://dc.lft.to/lastmile_qr_scan"}, "fusion_lat": 0.0}, {"lat": 38.91629866666667, "lon": -77.026937, "is_disabled": 0, "fusion_lon": 0.0, "is_reserved": 0, "name": "921a9955a4efc8ffa55d659dd698c65a", "type": "electric_scooter", "bike_id": "921a9955a4efc8ffa55d659dd698c65a", "rental_uris": {"ios": "https://dc.lft.to/lastmile_qr_scan", "android": "https://dc.lft.to/lastmile_qr_scan"}, "fusion_lat": 0.0}, {"lat": 38.898432166666666, "lon": -76.942525, "is_disabled": 0, "fusion_lon": 0.0, "is_reserved": 0, "name": "28e3343a1612ae75b58da14f28969ca9", "type": "electric_scooter", "bike_id": "28e3343a1612ae75b58da14f28969ca9", "rental_uris": {"ios": "https://dc.lft.to/lastmile_qr_scan", "android": "https://dc.lft.to/lastmile_qr_scan"}, "fusion_lat": 0.0}, {"lat": 38.922958666666666, "lon": -76.9977815, "is_disabled": 0, "fusion_lon": 0.0, "is_reserved": 0, "name": "cd40d06359e70b611cdb47a31c9b261c", "type": "electric_scooter", "bike_id": "cd40d06359e70b611cdb47a31c9b261c", "rental_uris": {"ios": "https://dc.lft.to/lastmile_qr_scan", "android": "https://dc.lft.to/lastmile_qr_scan"}, "fusion_lat": 0.0}, {"lat": 38.8745585, "lon": -77.005415, "is_disabled": 0, "fusion_lon": 0.0, "is_reserved": 0, "name": "383051c1f25fddbbbeb0ea53f9f781dc", "type": "electric_scooter", "bike_id": "383051c1f25fddbbbeb0ea53f9f781dc", "rental_uris": {"ios": "https://dc.lft.to/lastmile_qr_scan", "android": "https://dc.lft.to/lastmile_qr_scan"}, "fusion_lat": 0.0}, {"lat": 38.938977666666666, "lon": -76.98606316666667, "is_disabled": 0, "fusion_lon": 0.0, "is_reserved": 0, "name": "aaf1a4fa249aa8e56d2605e8d2eaf843", "type": "electric_scooter", "bike_id": "aaf1a4fa249aa8e56d2605e8d2eaf843", "rental_uris": {"ios": "https://dc.lft.to/lastmile_qr_scan", "android": "https://dc.lft.to/lastmile_qr_scan"}, "fusion_lat": 0.0}, {"lat": 38.88127183333334, "lon": -77.01640183333333, "is_disabled": 0, "fusion_lon": 0.0, "is_reserved": 0, "name": "0dcfc467495a6b710f9aa5a2435463ac", "type": "electric_scooter", "bike_id": "0dcfc467495a6b710f9aa5a2435463ac", "rental_uris": {"ios": "https://dc.lft.to/lastmile_qr_scan", "android": "https://dc.lft.to/lastmile_qr_scan"}, "fusion_lat": 0.0}, {"lat": 38.9237975, "lon": -77.0353295, "is_disabled": 0, "fusion_lon": 0.0, "is_reserved": 0, "name": "b59efbed427407b82ff65aa110bacdec", "type": "electric_scooter", "bike_id": "b59efbed427407b82ff65aa110bacdec", "rental_uris": {"ios": "https://dc.lft.to/lastmile_qr_scan", "android": "https://dc.lft.to/lastmile_qr_scan"}, "fusion_lat": 0.0}, {"lat": 38.91414483333333, "lon": -77.02097783333333, "is_disabled": 0, "fusion_lon": 0.0, "is_reserved": 0, "name": "80159ab46f0f8d76b9a8603e1a1e243d", "type": "electric_scooter", "bike_id": "80159ab46f0f8d76b9a8603e1a1e243d", "rental_uris": {"ios": "https://dc.lft.to/lastmile_qr_scan", "android": "https://dc.lft.to/lastmile_qr_scan"}, "fusion_lat": 0.0}, {"lat": 38.9193915, "lon": -77.04537766666667, "is_disabled": 0, "fusion_lon": 0.0, "is_reserved": 0, "name": "90a097a663f581fa7e05503de87b0e46", "type": "electric_scooter", "bike_id": "90a097a663f581fa7e05503de87b0e46", "rental_uris": {"ios": "https://dc.lft.to/lastmile_qr_scan", "android": "https://dc.lft.to/lastmile_qr_scan"}, "fusion_lat": 0.0},