{"data": {"bikes": [{"fusion_lat": 0.0, "name": "43e3b9ca222487af9522713fd8a04a70", "is_disabled": 0, "rental_uris": {"android": "https://dc.lft.to/lastmile_qr_scan", "ios": "https://dc.lft.to/lastmile_qr_scan"}, "fusion_lon": 0.0, "lat": 38.897401, "bike_id": "43e3b9ca222487af9522713fd8a04a70", "type": "electric_scooter", "is_reserved": 0, "lon": -77.02495633333334}, {"fusion_lat": 0.0, "name": "330aba0e36feb30031b5cdbeb983cf2a", "is_disabled": 0, "rental_uris": {"android": "https://dc.lft.to/lastmile_qr_scan", "ios": "https://dc.lft.to/lastmile_qr_scan"}, "fusion_lon": 0.0, "lat": 38.96182533333333, "bike_id": "330aba0e36feb30031b5cdbeb983cf2a", "type": "electric_bike", "is_reserved": 0, "lon": -77.05266766666666}, {"fusion_lat": 0.0, "name": "e6c08fe7f262b074749d084b60353aa2", "is_disabled": 0, "rental_uris": {"android": "https://dc.lft.to/lastmile_qr_scan", "ios": "https://dc.lft.to/lastmile_qr_scan"}, "fusion_lon": 0.0, "lat": 38.92437683333333, "bike_id": "e6c08fe7f262b074749d084b60353aa2", "type": "electric_scooter", "is_reserved": 0, "lon": -77.04458616666666}, {"fusion_lat": 0.0, "name": "a5ed6ae2a135b2fa5aa1a1dcf71e38af", "is_disabled": 0, "rental_uris": {"android": "https://dc.lft.to/lastmile_qr_scan", "ios": "https://dc.lft.to/lastmile_qr_scan"}, "fusion_lon": 0.0, "lat": 38.97375866666667, "bike_id": "a5ed6ae2a135b2fa5aa1a1dcf71e38af", "type": "electric_scooter", "is_reserved": 0, "lon": -77.01284}, {"fusion_lat": 0.0, "name": "7a2d99ccb882a76a5fdfa8ba0a4b728e", "is_disabled": 0, "rental_uris": {"android": "https://dc.lft.to/lastmile_qr_scan", "ios": "https://dc.lft.to/lastmile_qr_scan"}, "fusion_lon": 0.0, "lat": 38.911956833333335, "bike_id": "7a2d99ccb882a76a5fdfa8ba0a4b728e", "type": "electric_scooter", "is_reserved": 0, "lon": -77.01196716666666}, {"fusion_lat": 0.0, "name": "51a730e94bf5e15968dd4c57e4d1b292", "is_disabled": 0, "rental_uris": {"android": "https://dc.lft.to/lastmile_qr_scan", "ios": "https://dc.lft.to/lastmile_qr_scan"}, "fusion_lon": 0.0, "lat": 38.8911195, "bike_id": "51a730e94bf5e15968dd4c57e4d1b292", "type": "electric_scooter", "is_reserved": 0, "lon": -76.9438265}, {"fusion_lat": 0.0, "name": "15690c9ab0b76ce59d3e5b13d3f698e7", "is_disabled": 0, "rental_uris": {"android": "https://dc.lft.to/lastmile_qr_scan", "ios": "https://dc.lft.to/lastmile_qr_scan"}, "fusion_lon": 0.0, "lat": 38.91108933333334, "bike_id": "15690c9ab0b76ce59d3e5b13d3f698e7", "type": "electric_scooter", "is_reserved": 0, "lon": -77.02926}, {"fusion_lat": 0.0, "name": "3496fac934527138cf1f58030a6263c8", "is_disabled": 0, "rental_uris": {"android": "https://dc.lft.to/lastmile_qr_scan", "ios": "https://dc.lft.to/lastmile_qr_scan"}, "fusion_lon": 0.0, "lat": 38.911023, "bike_id": "3496fac934527138cf1f58030a6263c8", "type": "electric_scooter", "is_reserved": 0, "lon": -77.03619033333334}, {"fusion_lat": 0.0, "name": "89163c33c2d16c4d0d3b945d38b047dd", "is_disabled": 0, "rental_uris": {"android": "https://dc.lft.to/lastmile_qr_scan", "ios": "https://dc.lft.to/lastmile_qr_scan"}, "fusion_lon": 0.0, "lat": 38.84052066666667, "bike_id": "89163c33c2d16c4d0d3b945d38b047dd", "type": "electric_scooter", "is_reserved": 0, "lon": -76.97667066666666}, {"fusion_lat": 0.0, "name": "60abe0894c4a9a782f0a3a062e2b6984", "is_disabled": 0, "rental_uris": {"android": "https://dc.lft.to/lastmile_qr_scan", "ios": "https://dc.lft.to/lastmile_qr_scan"}, "fusion_lon": 0.0, "lat": 38.907354, "bike_id": "60abe0894c4a9a782f0a3a062e2b6984", "type": "electric_scooter", "is_reserved": 0, "lon": -77.04176716666667}, {"fusion_lat": 0.0, "name": "8fed276d696f6b00b4d739b09a023605", "is_disabled": 0, "rental_uris": {"android": "https://dc.lft.to/lastmile_qr_scan", "ios": "https://dc.lft.to/lastmile_qr_scan"}, "fusion_lon": 0.0, "lat": 38.90692633333333, "bike_id": "8fed276d696f6b00b4d739b09a023605", "type": "electric_scooter", "is_reserved": 0, "lon": -77.035878}, {"fusion_lat": 0.0, "name": "951a93a2586acea250c5ef2376a23c87", "is_disabled": 0, "rental_uris": {"android": "https://dc.lft.to/lastmile_qr_scan", "ios": "https://dc.lft.to/lastmile_qr_scan"}, "fusion_lon": 0.0, "lat": 38.96197383333333, "bike_id": "951a93a2586acea250c5ef2376a23c87", "type": "electric_scooter", "is_reserved": 0, "lon": -77.0223715}, {"fusion_lat": 0.0, "name": "185aee8c47b5e33570a7d06c3790f36b", "is_disabled": 0, "rental_uris": {"android": "https://dc.lft.to/lastmile_qr_scan", "ios": "https://dc.lft.to/lastmile_qr_scan"}, "fusion_lon": 0.0, "lat": 38.922061, "bike_id": "185aee8c47b5e33570a7d06c3790f36b", "type": "electric_scooter", "is_reserved": 0, "lon": -77.01819533333334}, {"fusion_lat": 0.0, "name": "97bdadb45ddd8cd6add6062bcf3c3714", "is_disabled": 0, "rental_uris": {"android": "https://dc.lft.to/lastmile_qr_scan", "ios": "https://dc.lft.to/lastmile_qr_scan"}, "fusion_lon": 0.0, "lat": 38.9418165, "bike_id": "97bdadb45ddd8cd6add6062bcf3c3714", "type": "electric_scooter", "is_reserved": 0, "lon": -77.02493633333333}, {"fusion_lat": 0.0, "name": "86dc08a030413e6f2bd037cc6f0fea7d", "is_disabled": 0, "rental_uris": {"android": "https://dc.lft.to/lastmile_qr_scan", "ios": "https://dc.lft.to/lastmile_qr_scan"}, "fusion_lon": 0.0, "lat": 38.90065966666667, "bike_id": "86dc08a030413e6f2bd037cc6f0fea7d", "type": "electric_scooter", "is_reserved": 0, "lon": -76.93389433333333}, {"fusion_lat": 0.0, "name": "e176e7a7ce6c5dee92a26ba64b5e0aff", "is_disabled": 0, "rental_uris": {"android": "https://dc.lft.to/lastmile_qr_scan", "ios": "https://dc.lft.to/lastmile_qr_scan"}, "fusion_lon": 0.0, "lat": 38.89218533333333, "bike_id": "e176e7a7ce6c5dee92a26ba64b5e0aff", "type": "electric_scooter", "is_reserved": 0, "lon": -77.02626616666667}, {"fusion_lat": 0.0, "name": "6d87c958e4377882c3cf48c6e508f342", "is_disabled": 0, "rental_uris": {"android": "https://dc.lft.to/lastmile_qr_scan", "ios": "https://dc.lft.to/lastmile_qr_scan"}, "fusion_lon": 0.0, "lat": 38.942656, "bike_id": "6d87c958e4377882c3cf48c6e508f342", "type": "electric_bike", "is_reserved": 0, "lon": -76.98514466666667}, {"fusion_lat": 0.0, "name": "3098ad9ee5e54728c8bf28cf3c068de6", "is_disabled": 0, "rental_uris": {"android": "https://dc.lft.to/lastmile_qr_scan", "ios": "https://dc.lft.to/lastmile_qr_scan"}, "fusion_lon": 0.0, "lat": 38.892221, "bike_id": "3098ad9ee5e54728c8bf28cf3c068de6", "type": "electric_scooter", "is_reserved": 0, "lon": -77.02708483333333}, {"fusion_lat": 0.0, "name": "b505f13e2ef271433f59656e57735653", "is_disabled": 0, "rental_uris": {"android": "https://dc.lft.to/lastmile_qr_scan", "ios": "https://dc.lft.to/lastmile_qr_scan"}, "fusion_lon": 0.0, "lat": 38.895632666666664, "bike_id": "b505f13e2ef271433f59656e57735653", "type": "electric_bike", "is_reserved": 0, "lon": -77.12740583333333}, {"fusion_lat": 0.0, "name": "80b5f98c824f906ed0c5bc90e216b5f7", "is_disabled": 0, "rental_uris": {"android": "https://dc.lft.to/lastmile_qr_scan", "ios": "https://dc.lft.to/lastmile_qr_scan"}, "fusion_lon": 0.0, "lat": 38.90200633333333, "bike_id": "80b5f98c824f906ed0c5bc90e216b5f7", "type": "electric_scooter", "is_reserved": 0, "lon": -77.02206433333333}, {"fusion_lat": 0.0, "name": "fb313a4f6d79a1b6d9b822ed1d38b7b0", "is_disabled": 0, "rental_uris": {"android": "https://dc.lft.to/lastmile_qr_scan", "ios": "https://dc.lft.to/lastmile_qr_scan"}, "fusion_lon": 0.0, "lat": 38.89605816666667, "bike_id": "fb313a4f6d79a1b6d9b822ed1d38b7b0", "type": "electric_scooter", "is_reserved": 0, "lon": -77.04978733333333}, {"fusion_lat": 0.0, "name": "e8ec282c695c3f936fb752f7ba168706", "is_disabled": 0, "rental_uris": {"android": "https://dc.lft.to/lastmile_qr_scan", "ios": "https://dc.lft.to/lastmile_qr_scan"}, "fusion_lon": 0.0, "lat": 38.903850166666665, "bike_id": "e8ec282c695c3f936fb752f7ba168706", "type": "electric_scooter", "is_reserved": 0, "lon": -77.06132116666667}, {"fusion_lat": 0.0, "name": "3e16bb533e040650161a1a299a8a64c1", "is_disabled": 0, "rental_uris": {"android": "https://dc.lft.to/lastmile_qr_scan", "ios": "https://dc.lft.to/lastmile_qr_scan"}, "fusion_lon": 0.0, "lat": 38.9374675, "bike_id": "3e16bb533e040650161a1a299a8a64c1", "type": "electric_scooter", "is_reserved": 0, "lon": -77.02526366666666}, {"fusion_lat": 0.0, "name": "4b1c99f6a33d220f5ccd2942bcf6a142", "is_disabled": 0, "rental_uris": {"android": "https://dc.lft.to/lastmile_qr_scan", "ios": "https://dc.lft.to/lastmile_qr_scan"}, "fusion_lon": 0.0, "lat": 38.86767, "bike_id": "4b1c99f6a33d220f5ccd2942bcf6a142", "type": "electric_scooter", "is_reserved": 0, "lon": -76.98275316666667}, {"fusion_lat": 0.0, "name": "5d55969f552386b29110b5b7291e8f25", "is_disabled": 0, "rental_uris": {"android": "https://dc.lft.to/lastmile_qr_scan", "ios": "https://dc.lft.to/lastmile_qr_scan"}, "fusion_lon": 0.0, "lat": 38.892196166666665, "bike_id": "5d55969f552386b29110b5b7291e8f25", "type": "electric_scooter", "is_reserved": 0, "lon": -77.04368966666667}, {"fusion_lat": 0.0, "name": "14af6b0691f86f51dc74a7afbc33343c", "is_disabled": 0, "rental_uris": {"android": "https://dc.lft.to/lastmile_qr_scan", "ios": "https://dc.lft.to/lastmile_qr_scan"}, "fusion_lon": 0.0, "lat": 38.9148885, "bike_id": "14af6b0691f86f51dc74a7afbc33343c", "type": "electric_scooter", "is_reserved": 0, "lon": -77.01414716666666}, {"fusion_lat": 0.0, "name": "d58628196c0a8fac479e1195f7424f46", "is_disabled": 0, "rental_uris": {"android": "https://dc.lft.to/lastmile_qr_scan", "ios": "https://dc.lft.to/lastmile_qr_scan"}, "fusion_lon": 0.0, "lat": 38.9020345, "bike_id": "d58628196c0a8fac479e1195f7424f46", "type": "electric_scooter", "is_reserved": 0, "lon": -77.022045}, {"fusion_lat": 0.0, "name": "f867f0d4a01ccb2b22c1765603819009", "is_disabled": 0, "rental_uris": {"android": "https://dc.lft.to/lastmile_qr_scan", "ios": "https://dc.lft.to/lastmile_qr_scan"}, "fusion_lon": 0.0, "lat": 38.92659666666667, "bike_id": "f867f0d4a01ccb2b22c1765603819009", "type": "electric_scooter", "is_reserved": 0, "lon": -77.05158666666667}, {"fusion_lat": 0.0, "name": "18d01f869fc50a3e5f213ae9494faa56", "is_disabled": 0, "rental_uris": {"android": "https://dc.lft.to/lastmile_qr_scan", "ios": "https://dc.lft.to/lastmile_qr_scan"}, "fusion_lon": 0.0, "lat": 38.896410333333336, "bike_id": "18d01f869fc50a3e5f213ae9494faa56", "type": "electric_scooter", "is_reserved": 0, "lon": -77.026581}, {"fusion_lat": 0.0, "name": "9b805de61fb7e110e8327f2ebcb17cc1", "is_disabled": 0, "rental_uris": {"android": "https://dc.lft.to/lastmile_qr_scan", "ios": "https://dc.lft.to/lastmile_qr_scan"}, "fusion_lon": 0.0, "lat": 38.92406316666667, "bike_id": "9b805de61fb7e110e8327f2ebcb17cc1", "type": "electric_scooter", "is_reserved": 0, "lon": -77.0253975}, {"fusion_lat": 0.0, "name": "cacf82839b91916030a5303cca634b17", "is_disabled": 0, "rental_uris": {"android": "https://dc.lft.to/lastmile_qr_scan", "ios": "https://dc.lft.to/lastmile_qr_scan"}, "fusion_lon": 0.0, "lat": 38.9115325, "bike_id": "cacf82839b91916030a5303cca634b17", "type": "electric_scooter", "is_reserved": 0, "lon": -76.987207}, {"fusion_lat": 0.0, "name": "531d6c01dfe4aa64a5ee33b8081e7439", "is_disabled": 0, "rental_uris": {"android": "https://dc.lft.to/lastmile_qr_scan", "ios": "https://dc.lft.to/lastmile_qr_scan"}, "fusion_lon": 0.0, "lat": 38.873793666666664, "bike_id": "531d6c01dfe4aa64a5ee33b8081e7439", "type": "electric_scooter", "is_reserved": 0, "lon": -77.00129683333333}, {"fusion_lat": 0.0, "name": "66a9a393c7e00a12d4d02a7309d567b2", "is_disabled": 0, "rental_uris": {"android": "https://dc.lft.to/lastmile_qr_scan", "ios": "https://dc.lft.to/lastmile_qr_scan"}, "fusion_lon": 0.0, "lat": 38.92344166666667, "bike_id": "66a9a393c7e00a12d4d02a7309d567b2", "type": "electric_scooter", "is_reserved": 0, "lon": -76.9924685}, {"fusion_lat": 0.0, "name": "02e6885de7b61da0de390f94c9b9323e", "is_disabled": 0, "rental_uris": {"android": "https://dc.lft.to/lastmile_qr_scan", "ios": "https://dc.lft.to/lastmile_qr_scan"}, "fusion_lon": 0.0, "lat": 38.84755083333334, "bike_id": "02e6885de7b61da0de390f94c9b9323e", "type": "electric_scooter", "is_reserved": 0, "lon": -76.9949965}, {"fusion_lat": 0.0, "name": "0996ed7a36c9f748446f01fe69905cb6", "is_disabled": 0, "rental_uris": {"android": "https://dc.lft.to/lastmile_qr_scan", "ios": "https://dc.lft.to/lastmile_qr_scan"}, "fusion_lon": 0.0, "lat": 38.89996383333333, "bike_id": "0996ed7a36c9f748446f01fe69905cb6", "type": "electric_scooter", "is_reserved": 0, "lon": -77.0317775}, {"fusion_lat": 0.0, "name": "38494d6906bf48e85a4209bb995db507", "is_disabled": 0, "rental_uris": {"android": "https://dc.lft.to/lastmile_qr_scan", "ios": "https://dc.lft.to/lastmile_qr_scan"}, "fusion_lon": 0.0, "lat": 38.94514816666667, "bike_id": "38494d6906bf48e85a4209bb995db507", "type": "electric_scooter", "is_reserved": 0, "lon": -77.03887016666667}, {"fusion_lat": 0.0, "name": "cd85e2efa792c0974824cdc258f1f532", "is_disabled": 0, "rental_uris": {"android": "https://dc.lft.to/lastmile_qr_scan", "ios": "https://dc.lft.to/lastmile_qr_scan"}, "fusion_lon": 0.0, "lat": 38.8899035, "bike_id": "cd85e2efa792c0974824cdc258f1f532", "type": "electric_scooter", "is_reserved": 0, "lon": -76.9298445}, {"fusion_lat": 0.0, "name": "4397423fffb3f60e0b3f4d94b4440d4d", "is_disabled": 0, "rental_uris": {"android": "https://dc.lft.to/lastmile_qr_scan", "ios": "https://dc.lft.to/lastmile_qr_scan"}, "fusion_lon": 0.0, "lat": 38.93701866666667, "bike_id": "4397423fffb3f60e0b3f4d94b4440d4d", "type": "electric_scooter", "is_reserved": 0, "lon": -77.06111816666666}, {"fusion_lat": 0.0, "name": "966f068a765301c69d5de2b041d5e527", "is_disabled": 0, "rental_uris": {"android": "https://dc.lft.to/lastmile_qr_scan", "ios": "https://dc.lft.to/lastmile_qr_scan"}, "fusion_lon": 0.0, "lat": 38.9358705, "bike_id": "966f068a765301c69d5de2b041d5e527", "type": "electric_scooter", "is_reserved": 0, "lon": -77.02384916666666}, {"fusion_lat": 0.0, "name": "bfa53b031ec450fc4c56851dc505f13e", "is_disabled": 0, "rental_uris": {"android": "https://dc.lft.to/lastmile_qr_scan", "ios": "https://dc.lft.to/lastmile_qr_scan"}, "fusion_lon": 0.0, "lat": 38.88751116666667, "bike_id": "bfa53b031ec450fc4c56851dc505f13e", "type": "electric_scooter", "is_reserved": 0, "lon": -76.9978695}, {"fusion_lat": 0.0, "name": "14b2c979c36625d15f1c8d9c7ceb006c", "is_disabled": 0, "rental_uris": {"android": "https://dc.lft.to/lastmile_qr_scan", "ios": "https://dc.lft.to/lastmile_qr_scan"}, "fusion_lon": 0.0, "lat": 38.901295833333336, "bike_id": "14b2c979c36625d15f1c8d9c7ceb006c", "type": "electric_scooter", "is_reserved": 0, "lon": -77.03995483333334}, {"fusion_lat": 0.0, "name": "8baff6346421a0015f2fa75cdccecf7e", "is_disabled": 0, "rental_uris": {"android": "https://dc.lft.to/lastmile_qr_scan", "ios": "https://dc.lft.to/lastmile_qr_scan"}, "fusion_lon": 0.0, "lat": 38.8844275, "bike_id": "8baff6346421a0015f2fa75cdccecf7e", "type": "electric_scooter", "is_reserved": 0, "lon": -77.02889083333334}, {"fusion_lat": 0.0, "name": "a24f9984152b620e519a8119112425b5", "is_disabled": 0, "rental_uris": {"android": "https://dc.lft.to/lastmile_qr_scan", "ios": "https://dc.lft.to/lastmile_qr_scan"}, "fusion_lon": 0.0, "lat": 38.9170645, "bike_id": "a24f9984152b620e519a8119112425b5", "type": "electric_scooter", "is_reserved": 0, "lon": -77.02744916666667}, {"fusion_lat": 0.0, "name": "428396f92ea1a86c24acb73a1ab45d2b", "is_disabled": 0, "rental_uris": {"android": "https://dc.lft.to/lastmile_qr_scan", "ios": "https://dc.lft.to/lastmile_qr_scan"}, "fusion_lon": 0.0, "lat": 38.921174, "bike_id": "428396f92ea1a86c24acb73a1ab45d2b", "type": "electric_scooter", "is_reserved": 0, "lon": -77.03163083333334}, {"fusion_lat": 0.0, "name": "c6e218140530740a6266f0612dc17bb1", "is_disabled": 0, "rental_uris": {"android": "https://dc.lft.to/lastmile_qr_scan", "ios": "https://dc.lft.to/lastmile_qr_scan"}, "fusion_lon": 0.0, "lat": 38.929306, "bike_id": "c6e218140530740a6266f0612dc17bb1", "type": "electric_scooter", "is_reserved": 0, "lon": -77.03290433333333}, {"fusion_lat": 0.0, "name": "bef321ac67d6d55055e9a4752cff1b6a", "is_disabled": 0, "rental_uris": {"android": "https://dc.lft.to/lastmile_qr_scan", "ios": "https://dc.lft.to/lastmile_qr_scan"}, "fusion_lon": 0.0, "lat": 38.92103566666667, "bike_id": "bef321ac67d6d55055e9a4752cff1b6a", "type": "electric_scooter", "is_reserved": 0, "lon": -77.0747375}, {"fusion_lat": 0.0, "name": "c6b33d2d11a15b5413bb97b104d6d4e1", "is_disabled": 0, "rental_uris": {"android": "https://dc.lft.to/lastmile_qr_scan", "ios": "https://dc.lft.to/lastmile_qr_scan"}, "fusion_lon": 0.0, "lat": 38.93861883333334, "bike_id": "c6b33d2d11a15b5413bb97b104d6d4e1", "type": "electric_scooter", "is_reserved": 0, "lon": -77.02453366666667}, {"fusion_lat": 0.0, "name": "c2b193baf2bd64854a8bb4dd59616f6c", "is_disabled": 0, "rental_uris": {"android": "https://dc.lft.to/lastmile_qr_scan", "ios": "https://dc.lft.to/lastmile_qr_scan"}, "fusion_lon": 0.0, "lat": 38.8987415, "bike_id": "c2b193baf2bd64854a8bb4dd59616f6c", "type": "electric_scooter", "is_reserved": 0, "lon": -77.02039}, {"fusion_lat": 0.0, "name": "fedd1e15c5313b2b031113c6d47cacf6", "is_disabled": 0, "rental_uris": {"android": "https://dc.lft.to/lastmile_qr_scan", "ios": "https://dc.lft.to/lastmile_qr_scan"}, "fusion_lon": 0.0, "lat": 38.873718, "bike_id": "fedd1e15c5313b2b031113c6d47cacf6", "type": "electric_scooter", "is_reserved": 0, "lon": -77.00154216666667}, {"fusion_lat": 0.0, "name": "b3e0cc67295cd1b935716eac788c581d", "is_disabled": 0, "rental_uris": {"android": "https://dc.lft.to/lastmile_qr_scan", "ios": "https://dc.lft.to/lastmile_qr_scan"}, "fusion_lon": 0.0, "lat": 38.9280925, "bike_id": "b3e0cc67295cd1b935716eac788c581d", "type": "electric_scooter", "is_reserved": 0, "lon": -77.04356416666667}, {"fusion_lat": 0.0, "name": "c2541c9f609e5bc4257ab13424105b6a", "is_disabled": 0, "rental_uris": {"android": "https://dc.lft.to/lastmile_qr_scan", "ios": "https://dc.lft.to/lastmile_qr_scan"}, "fusion_lon": 0.0, "lat": 38.900049833333334, "bike_id": "c2541c9f609e5bc4257ab13424105b6a", "type": "electric_scooter", "is_reserved": 0, "lon": -77.00383183333334}, {"fusion_lat": 0.0, "name": "e61afbba8f3d7b303b9a9b4dacd94956", "is_disabled": 0, "rental_uris": {"android": "https://dc.lft.to/lastmile_qr_scan", "ios": "https://dc.lft.to/lastmile_qr_scan"}, "fusion_lon": 0.0, "lat": 38.90943766666667, "bike_id": "e61afbba8f3d7b303b9a9b4dacd94956", "type": "electric_scooter", "is_reserved": 0, "lon": -77.02187266666667}, {"fusion_lat": 0.0, "name": "3b50f370320dacf32344afa6aac226ba", "is_disabled": 0, "rental_uris": {"android": "https://dc.lft.to/lastmile_qr_scan", "ios": "https://dc.lft.to/lastmile_qr_scan"}, "fusion_lon": 0.0, "lat": 38.915527833333336, "bike_id": "3b50f370320dacf32344afa6aac226ba", "type": "electric_scooter", "is_reserved": 0, "lon": -77.03821183333334}, {"fusion_lat": 0.0, "name": "7215abc66a0ff558fa39603846a2b86a", "is_disabled": 0, "rental_uris": {"android": "https://dc.lft.to/lastmile_qr_scan", "ios": "https://dc.lft.to/lastmile_qr_scan"}, "fusion_lon": 0.0, "lat": 38.914648666666665, "bike_id": "7215abc66a0ff558fa39603846a2b86a", "type": "electric_scooter", "is_reserved": 0, "lon": -77.03899216666667}, {"fusion_lat": 0.0, "name": "907498f5260b12a9afec8b6815f7f9ba", "is_disabled": 0, "rental_uris": {"android": "https://dc.lft.to/lastmile_qr_scan", "ios": "https://dc.lft.to/lastmile_qr_scan"}, "fusion_lon": 0.0, "lat": 38.92892333333333, "bike_id": "907498f5260b12a9afec8b6815f7f9ba", "type": "electric_bike", "is_reserved": 0, "lon": -77.23179283333333}, {"fusion_lat": 0.0, "name": "7f7e828e4da84b42f15a361cbe5c84ad", "is_disabled": 0, "rental_uris": {"android": "https://dc.lft.to/lastmile_qr_scan", "ios": "https://dc.lft.to/lastmile_qr_scan"}, "fusion_lon": 0.0, "lat": 38.898895333333336, "bike_id": "7f7e828e4da84b42f15a361cbe5c84ad", "type": "electric_scooter", "is_reserved": 0, "lon": -77.0151515}, {"fusion_lat": 0.0, "name": "ec702b35c8060008cb7c5443d292cb57", "is_disabled": 0, "rental_uris": {"android": "https://dc.lft.to/lastmile_qr_scan", "ios": "https://dc.lft.to/lastmile_qr_scan"}, "fusion_lon": 0.0, "lat": 38.938661, "bike_id": "ec702b35c8060008cb7c5443d292cb57", "type": "electric_scooter", "is_reserved": 0, "lon": -77.02474683333334}, {"fusion_lat": 0.0, "name": "712823b7039138358864643d4ef3c2e1", "is_disabled": 0, "rental_uris": {"android": "https://dc.lft.to/lastmile_qr_scan", "ios": "https://dc.lft.to/lastmile_qr_scan"}, "fusion_lon": 0.0, "lat": 38.91040733333333, "bike_id": "712823b7039138358864643d4ef3c2e1", "type": "electric_scooter", "is_reserved": 0, "lon": -77.00831133333334}, {"fusion_lat": 0.0, "name": "75533ed77ca7f8859e5fd1b3bdad2b1b", "is_disabled": 0, "rental_uris": {"android": "https://dc.lft.to/lastmile_qr_scan", "ios": "https://dc.lft.to/lastmile_qr_scan"}, "fusion_lon": 0.0, "lat": 38.900873833333335, "bike_id": "75533ed77ca7f8859e5fd1b3bdad2b1b", "type": "electric_scooter", "is_reserved": 0, "lon": -76.98334483333333}, {"fusion_lat": 0.0, "name": "4c92ead9a024fece6150992766293dfe", "is_disabled": 0, "rental_uris": {"android": "https://dc.lft.to/lastmile_qr_scan", "ios": "https://dc.lft.to/lastmile_qr_scan"}, "fusion_lon": 0.0, "lat": 38.952767333333334, "bike_id": "4c92ead9a024fece6150992766293dfe", "type": "electric_scooter", "is_reserved": 0, "lon": -77.06882233333333}, {"fusion_lat": 0.0, "name": "8c8ab589d6256c10d9bce193512a1b7a", "is_disabled": 0, "rental_uris": {"android": "https://dc.lft.to/lastmile_qr_scan", "ios": "https://dc.lft.to/lastmile_qr_scan"}, "fusion_lon": 0.0, "lat": 38.915704166666664, "bike_id": "8c8ab589d6256c10d9bce193512a1b7a", "type": "electric_scooter", "is_reserved": 0, "lon": -77.03851683333333}, {"fusion_lat": 0.0, "name": "26cd659f79887b95b5ed97292cfc4e69", "is_disabled": 0, "rental_uris": {"android": "https://dc.lft.to/lastmile_qr_scan", "ios": "https://dc.lft.to/lastmile_qr_scan"}, "fusion_lon": 0.0, "lat": 38.92531316666667, "bike_id": "26cd659f79887b95b5ed97292cfc4e69", "type": "electric_scooter", "is_reserved": 0, "lon": -77.03817616666667}, {"fusion_lat": 0.0, "name": "e4482d5c6c5b1133ca5e214007b35fe3", "is_disabled": 0, "rental_uris": {"android": "https://dc.lft.to/lastmile_qr_scan", "ios": "https://dc.lft.to/lastmile_qr_scan"}, "fusion_lon": 0.0, "lat": 38.89220566666667, "bike_id": "e4482d5c6c5b1133ca5e214007b35fe3", "type": "electric_scooter", "is_reserved": 0, "lon": -77.031426}, {"fusion_lat": 0.0, "name": "978c1d751eb26f8be76778b241c39bb5", "is_disabled": 0, "rental_uris": {"android": "https://dc.lft.to/lastmile_qr_scan", "ios": "https://dc.lft.to/lastmile_qr_scan"}, "fusion_lon": 0.0, "lat": 38.90535416666667, "bike_id": "978c1d751eb26f8be76778b241c39bb5", "type": "electric_scooter", "is_reserved": 0, "lon": -77.03461833333333}, {"fusion_lat": 0.0, "name": "41c4efc77c8501fed9ab3b35e86cdf20", "is_disabled": 0, "rental_uris": {"android": "https://dc.lft.to/lastmile_qr_scan", "ios": "https://dc.lft.to/lastmile_qr_scan"}, "fusion_lon": 0.0, "lat": 38.926511833333336, "bike_id": "41c4efc77c8501fed9ab3b35e86cdf20", "type": "electric_scooter", "is_reserved": 0, "lon": -77.0242525}, {"fusion_lat": 0.0, "name": "5d7c369f5ef769906a969cc6887f3ef4", "is_disabled": 0, "rental_uris": {"android": "https://dc.lft.to/lastmile_qr_scan", "ios": "https://dc.lft.to/lastmile_qr_scan"}, "fusion_lon": 0.0, "lat": 38.91709816666667, "bike_id": "5d7c369f5ef769906a969cc6887f3ef4", "type": "electric_scooter", "is_reserved": 0, "lon": -77.03471566666667}, {"fusion_lat": 0.0, "name": "12acaad3f7b7e18dee2916c403610c2a", "is_disabled": 0, "rental_uris": {"android": "https://dc.lft.to/lastmile_qr_scan", "ios": "https://dc.lft.to/lastmile_qr_scan"}, "fusion_lon": 0.0, "lat": 38.892512833333335, "bike_id": "12acaad3f7b7e18dee2916c403610c2a", "type": "electric_scooter", "is_reserved": 0, "lon": -77.03346033333334}, {"fusion_lat": 0.0, "name": "10476f6c4bef6268a644c8c5e3dc12e2", "is_disabled": 0, "rental_uris": {"android": "https://dc.lft.to/lastmile_qr_scan", "ios": "https://dc.lft.to/lastmile_qr_scan"}, "fusion_lon": 0.0, "lat": 38.927498, "bike_id": "10476f6c4bef6268a644c8c5e3dc12e2", "type": "electric_scooter", "is_reserved": 0, "lon": -77.02534766666666}, {"fusion_lat": 0.0, "name": "a28960f0d9f587b8ab299f8b1c81c5a0", "is_disabled": 0, "rental_uris": {"android": "https://dc.lft.to/lastmile_qr_scan", "ios": "https://dc.lft.to/lastmile_qr_scan"}, "fusion_lon": 0.0, "lat": 38.90969166666667, "bike_id": "a28960f0d9f587b8ab299f8b1c81c5a0", "type": "electric_scooter", "is_reserved": 0, "lon": -77.009015}, {"fusion_lat": 0.0, "name": "f3c0959da447efae2d2e16767114e25a", "is_disabled": 0, "rental_uris": {"android": "https://dc.lft.to/lastmile_qr_scan", "ios": "https://dc.lft.to/lastmile_qr_scan"}, "fusion_lon": 0.0, "lat": 38.8876495, "bike_id": "f3c0959da447efae2d2e16767114e25a", "type": "electric_scooter", "is_reserved": 0, "lon": -76.97747766666667}, {"fusion_lat": 0.0, "name": "679627439f0db4c6fd88a55b3ece23c7", "is_disabled": 0, "rental_uris": {"android": "https://dc.lft.to/lastmile_qr_scan", "ios": "https://dc.lft.to/lastmile_qr_scan"}, "fusion_lon": 0.0, "lat": 38.90061033333333, "bike_id": "679627439f0db4c6fd88a55b3ece23c7", "type": "electric_scooter", "is_reserved": 0, "lon": -77.026283}, {"fusion_lat": 0.0, "name": "2b7e17c59229ffff7cd59e1e3d6daee8", "is_disabled": 0, "rental_uris": {"android": "https://dc.lft.to/lastmile_qr_scan", "ios": "https://dc.lft.to/lastmile_qr_scan"}, "fusion_lon": 0.0, "lat": 38.8793275, "bike_id": "2b7e17c59229ffff7cd59e1e3d6daee8", "type": "electric_scooter", "is_reserved": 0, "lon": -77.00782883333333}, {"fusion_lat": 0.0, "name": "49477298288980076cba74ec486a9b18", "is_disabled": 0, "rental_uris": {"android": "https://dc.lft.to/lastmile_qr_scan", "ios": "https://dc.lft.to/lastmile_qr_scan"}, "fusion_lon": 0.0, "lat": 38.89219516666667, "bike_id": "49477298288980076cba74ec486a9b18", "type": "electric_scooter", "is_reserved": 0, "lon": -77.03142983333333}, {"fusion_lat": 0.0, "name": "46c19053482355c76833275ce9e5f1d7", "is_disabled": 0, "rental_uris": {"android": "https://dc.lft.to/lastmile_qr_scan", "ios": "https://dc.lft.to/lastmile_qr_scan"}, "fusion_lon": 0.0, "lat": 38.854591166666665, "bike_id": "46c19053482355c76833275ce9e5f1d7", "type": "electric_scooter", "is_reserved": 0, "lon": -76.97223516666666}, {"fusion_lat": 0.0, "name": "4d3c5c98b0b1239e2e4857952be1615e", "is_disabled": 0, "rental_uris": {"android": "https://dc.lft.to/lastmile_qr_scan", "ios": "https://dc.lft.to/lastmile_qr_scan"}, "fusion_lon": 0.0, "lat": 38.927246, "bike_id": "4d3c5c98b0b1239e2e4857952be1615e", "type": "electric_scooter", "is_reserved": 0, "lon": -77.0230225}, {"fusion_lat": 0.0, "name": "bd71a7a74e33d52f8e037351524da8c8", "is_disabled": 0, "rental_uris": {"android": "https://dc.lft.to/lastmile_qr_scan", "ios": "https://dc.lft.to/lastmile_qr_scan"}, "fusion_lon": 0.0, "lat": 38.90970016666667, "bike_id": "bd71a7a74e33d52f8e037351524da8c8", "type": "electric_scooter", "is_reserved": 0, "lon": -77.03444816666666}, {"fusion_lat": 0.0, "name": "c7ca2a76391752e51269a445e4fdc924", "is_disabled": 0, "rental_uris": {"android": "https://dc.lft.to/lastmile_qr_scan", "ios": "https://dc.lft.to/lastmile_qr_scan"}, "fusion_lon": 0.0, "lat": 38.8923475, "bike_id": "c7ca2a76391752e51269a445e4fdc924", "type": "electric_scooter", "is_reserved": 0, "lon": -77.01714383333334}, {"fusion_lat": 0.0, "name": "00a7904ef2ca4ba7be4c2681fbdfb21e", "is_disabled": 0, "rental_uris": {"android": "https://dc.lft.to/lastmile_qr_scan", "ios": "https://dc.lft.to/lastmile_qr_scan"}, "fusion_lon": 0.0, "lat": 38.9362895, "bike_id": "00a7904ef2ca4ba7be4c2681fbdfb21e", "type": "electric_scooter", "is_reserved": 0, "lon": -77.03661266666667}, {"fusion_lat": 0.0, "name": "564b68929f8742a287855a5f5940ec76", "is_disabled": 0, "rental_uris": {"android": "https://dc.lft.to/lastmile_qr_scan", "ios": "https://dc.lft.to/lastmile_qr_scan"}, "fusion_lon": 0.0, "lat": 38.9024125, "bike_id": "564b68929f8742a287855a5f5940ec76", "type": "electric_scooter", "is_reserved": 0, "lon": -77.04367783333333}, {"fusion_lat": 0.0, "name": "b434839d8fe878666f8c531144038cf0", "is_disabled": 0, "rental_uris": {"android": "https://dc.lft.to/lastmile_qr_scan", "ios": "https://dc.lft.to/lastmile_qr_scan"}, "fusion_lon": 0.0, "lat": 38.92328766666667, "bike_id": "b434839d8fe878666f8c531144038cf0", "type": "electric_scooter", "is_reserved": 0, "lon": -77.02070283333333}, {"fusion_lat": 0.0, "name": "6e763a65b441b5f222238085f32014d4", "is_disabled": 0, "rental_uris": {"android": "https://dc.lft.to/lastmile_qr_scan", "ios": "https://dc.lft.to/lastmile_qr_scan"}, "fusion_lon": 0.0, "lat": 38.93151616666667, "bike_id": "6e763a65b441b5f222238085f32014d4", "type": "electric_scooter", "is_reserved": 0, "lon": -77.07843316666667}, {"fusion_lat": 0.0, "name": "732390981f15cbc111c98d0ee4760316", "is_disabled": 0, "rental_uris": {"android": "https://dc.lft.to/lastmile_qr_scan", "ios": "https://dc.lft.to/lastmile_qr_scan"}, "fusion_lon": 0.0, "lat": 38.90725166666667, "bike_id": "732390981f15cbc111c98d0ee4760316", "type": "electric_scooter", "is_reserved": 0, "lon": -77.04812533333333}, {"fusion_lat": 0.0, "name": "92326efd97587c475cfa548e5ba7c6d4", "is_disabled": 0, "rental_uris": {"android": "https://dc.lft.to/lastmile_qr_scan", "ios": "https://dc.lft.to/lastmile_qr_scan"}, "fusion_lon": 0.0, "lat": 38.93078633333333, "bike_id": "92326efd97587c475cfa548e5ba7c6d4", "type": "electric_scooter", "is_reserved": 0, "lon": -77.0280805}, {"fusion_lat": 0.0, "name": "d618b0744b981e414fbb64de3cf71f24", "is_disabled": 0, "rental_uris": {"android": "https://dc.lft.to/lastmile_qr_scan", "ios": "https://dc.lft.to/lastmile_qr_scan"}, "fusion_lon": 0.0, "lat": 38.907934833333336, "bike_id": "d618b0744b981e414fbb64de3cf71f24", "type": "electric_scooter", "is_reserved": 0, "lon": -77.04357616666667}, {"fusion_lat": 0.0, "name": "2285531c0c2e3c0072ef00ab22f221a6", "is_disabled": 0, "rental_uris": {"android": "https://dc.lft.to/lastmile_qr_scan", "ios": "https://dc.lft.to/lastmile_qr_scan"}, "fusion_lon": 0.0, "lat": 38.88137566666666, "bike_id": "2285531c0c2e3c0072ef00ab22f221a6", "type": "electric_scooter", "is_reserved": 0, "lon": -76.99616916666666}, {"fusion_lat": 0.0, "name": "a52d115218e4569509e8a4e7a44c81ec", "is_disabled": 0, "rental_uris": {"android": "https://dc.lft.to/lastmile_qr_scan", "ios": "https://dc.lft.to/lastmile_qr_scan"}, "fusion_lon": 0.0, "lat": 38.924158166666665, "bike_id": "a52d115218e4569509e8a4e7a44c81ec", "type": "electric_scooter", "is_reserved": 0, "lon": -77.020029}, {"fusion_lat": 0.0, "name": "b2e65985c4852110d251da00d3d56613", "is_disabled": 0, "rental_uris": {"android": "https://dc.lft.to/lastmile_qr_scan", "ios": "https://dc.lft.to/lastmile_qr_scan"}, "fusion_lon": 0.0, "lat": 38.9406145, "bike_id": "b2e65985c4852110d251da00d3d56613", "type": "electric_bike", "is_reserved": 0, "lon": -76.99462516666667}, {"fusion_lat": 0.0, "name": "cfa795a14ed7afd4aa4d7c9b3c4e7c98", "is_disabled": 0, "rental_uris": {"android": "https://dc.lft.to/lastmile_qr_scan", "ios": "https://dc.lft.to/lastmile_qr_scan"}, "fusion_lon": 0.0, "lat": 38.933816666666665, "bike_id": "cfa795a14ed7afd4aa4d7c9b3c4e7c98", "type": "electric_scooter", "is_reserved": 0, "lon": -77.02415966666666}, {"fusion_lat": 0.0, "name": "48b1b80728bf4b70068b0251a9ac0639", "is_disabled": 0, "rental_uris": {"android": "https://dc.lft.to/lastmile_qr_scan", "ios": "https://dc.lft.to/lastmile_qr_scan"}, "fusion_lon": 0.0, "lat": 38.9336445, "bike_id": "48b1b80728bf4b70068b0251a9ac0639", "type": "electric_scooter", "is_reserved": 0, "lon": -77.02425966666667}, {"fusion_lat": 0.0, "name": "e88c856ea5d37461619e7ba2d3ba4df3", "is_disabled": 0, "rental_uris": {"android": "https://dc.lft.to/lastmile_qr_scan", "ios": "https://dc.lft.to/lastmile_qr_scan"}, "fusion_lon": 0.0, "lat": 38.91702016666667, "bike_id": "e88c856ea5d37461619e7ba2d3ba4df3", "type": "electric_scooter", "is_reserved": 0, "lon": -77.041751}, {"fusion_lat": 0.0, "name": "ecbacd398a21514206f80aa3a51b1614", "is_disabled": 0, "rental_uris": {"android": "https://dc.lft.to/lastmile_qr_scan", "ios": "https://dc.lft.to/lastmile_qr_scan"}, "fusion_lon": 0.0, "lat": 38.8989075, "bike_id": "ecbacd398a21514206f80aa3a51b1614", "type": "electric_scooter", "is_reserved": 0, "lon": -77.01511416666666}, {"fusion_lat": 0.0, "name": "ee8af83319cbd86af26cfe11d0200675", "is_disabled": 0, "rental_uris": {"android": "https://dc.lft.to/lastmile_qr_scan", "ios": "https://dc.lft.to/lastmile_qr_scan"}, "fusion_lon": 0.0, "lat": 38.92315133333334, "bike_id": "ee8af83319cbd86af26cfe11d0200675", "type": "electric_scooter", "is_reserved": 0, "lon": -77.02796883333333}, {"fusion_lat": 0.0, "name": "581bf42e2c675f23ca3d980ee5118630", "is_disabled": 0, "rental_uris": {"android": "https://dc.lft.to/lastmile_qr_scan", "ios": "https://dc.lft.to/lastmile_qr_scan"}, "fusion_lon": 0.0, "lat": 38.97122133333333, "bike_id": "581bf42e2c675f23ca3d980ee5118630", "type": "electric_bike", "is_reserved": 0, "lon": -77.020871}, {"fusion_lat": 0.0, "name": "a4d3ebdc1601a0c7c6e20ca9db9722bb", "is_disabled": 0, "rental_uris": {"android": "https://dc.lft.to/lastmile_qr_scan", "ios": "https://dc.lft.to/lastmile_qr_scan"}, "fusion_lon": 0.0, "lat": 38.936352, "bike_id": "a4d3ebdc1601a0c7c6e20ca9db9722bb", "type": "electric_scooter", "is_reserved": 0, "lon": -77.02470016666666}, {"fusion_lat": 0.0, "name": "523d5c9dd2fabc0c3db97fd76b936fbc", "is_disabled": 0, "rental_uris": {"android": "https://dc.lft.to/lastmile_qr_scan", "ios": "https://dc.lft.to/lastmile_qr_scan"}, "fusion_lon": 0.0, "lat": 38.89221883333333, "bike_id": "523d5c9dd2fabc0c3db97fd76b936fbc", "type": "electric_scooter", "is_reserved": 0, "lon": -77.0468215}, {"fusion_lat": 0.0, "name": "c9d5e4a5b37b19e84009e2bf841cf35f", "is_disabled": 0, "rental_uris": {"android": "https://dc.lft.to/lastmile_qr_scan", "ios": "https://dc.lft.to/lastmile_qr_scan"}, "fusion_lon": 0.0, "lat": 38.927920666666665, "bike_id": "c9d5e4a5b37b19e84009e2bf841cf35f", "type": "electric_scooter", "is_reserved": 0, "lon": -77.0314995}, {"fusion_lat": 0.0, "name": "90c0310d7a55eabd9fc239a481824fa9", "is_disabled": 0, "rental_uris": {"android": "https://dc.lft.to/lastmile_qr_scan", "ios": "https://dc.lft.to/lastmile_qr_scan"}, "fusion_lon": 0.0, "lat": 38.90150083333333, "bike_id": "90c0310d7a55eabd9fc239a481824fa9", "type": "electric_scooter", "is_reserved": 0, "lon": -76.93062066666667}, {"fusion_lat": 0.0, "name": "f8424e9acc965ffbddab28bacf99f2d5", "is_disabled": 0, "rental_uris": {"android": "https://dc.lft.to/lastmile_qr_scan", "ios": "https://dc.lft.to/lastmile_qr_scan"}, "fusion_lon": 0.0, "lat": 38.88741233333333, "bike_id": "f8424e9acc965ffbddab28bacf99f2d5", "type": "electric_scooter", "is_reserved": 0, "lon": -77.03160633333333}, {"fusion_lat": 0.0, "name": "c670876137df798004b67a5245d3f839", "is_disabled": 0, "rental_uris": {"android": "https://dc.lft.to/lastmile_qr_scan", "ios": "https://dc.lft.to/lastmile_qr_scan"}, "fusion_lon": 0.0, "lat": 38.912433166666666, "bike_id": "c670876137df798004b67a5245d3f839", "type": "electric_scooter", "is_reserved": 0, "lon": -77.00649316666667}, {"fusion_lat": 0.0, "name": "2404ca247931965a166ca4d77208edb3", "is_disabled": 0, "rental_uris": {"android": "https://dc.lft.to/lastmile_qr_scan", "ios": "https://dc.lft.to/lastmile_qr_scan"}, "fusion_lon": 0.0, "lat": 38.905690666666665, "bike_id": "2404ca247931965a166ca4d77208edb3", "type": "electric_scooter", "is_reserved": 0, "lon": -77.02104966666667}, {"fusion_lat": 0.0, "name": "5854640a3855510c28b78dc5700e5394", "is_disabled": 0, "rental_uris": {"android": "https://dc.lft.to/lastmile_qr_scan", "ios": "https://dc.lft.to/lastmile_qr_scan"}, "fusion_lon": 0.0, "lat": 38.90937433333333, "bike_id": "5854640a3855510c28b78dc5700e5394", "type": "electric_scooter", "is_reserved": 0, "lon": -77.01844283333334}, {"fusion_lat": 0.0, "name": "dd9dbf7ea04b77f3f0865f6ff6145e9d", "is_disabled": 0, "rental_uris": {"android": "https://dc.lft.to/lastmile_qr_scan", "ios": "https://dc.lft.to/lastmile_qr_scan"}, "fusion_lon": 0.0, "lat": 38.9068315, "bike_id": "dd9dbf7ea04b77f3f0865f6ff6145e9d", "type": "electric_bike", "is_reserved": 0, "lon": -76.94493916666667}, {"fusion_lat": 0.0, "name": "a85c0b438f461bc110280831c015faec", "is_disabled": 0, "rental_uris": {"android": "https://dc.lft.to/lastmile_qr_scan", "ios": "https://dc.lft.to/lastmile_qr_scan"}, "fusion_lon": 0.0, "lat": 38.9058275, "bike_id": "a85c0b438f461bc110280831c015faec", "type": "electric_scooter", "is_reserved": 0, "lon": -77.029231}, {"fusion_lat": 0.0, "name": "54f59599eebcc04a1b96643f49eaadf6", "is_disabled": 0, "rental_uris": {"android": "https://dc.lft.to/lastmile_qr_scan", "ios": "https://dc.lft.to/lastmile_qr_scan"}, "fusion_lon": 0.0, "lat": 38.89755566666667, "bike_id": "54f59599eebcc04a1b96643f49eaadf6", "type": "electric_scooter", "is_reserved": 0, "lon": -77.02504416666666}, {"fusion_lat": 0.0, "name": "e6271eb64b8f5809fcae71c738870f60", "is_disabled": 0, "rental_uris": {"android": "https://dc.lft.to/lastmile_qr_scan", "ios": "https://dc.lft.to/lastmile_qr_scan"}, "fusion_lon": 0.0, "lat": 38.88765333333333, "bike_id": "e6271eb64b8f5809fcae71c738870f60", "type": "electric_scooter", "is_reserved": 0, "lon": -76.97740216666666}, {"fusion_lat": 0.0, "name": "fbe5f525922e5b366e9460a8b65beeb3", "is_disabled": 0, "rental_uris": {"android": "https://dc.lft.to/lastmile_qr_scan", "ios": "https://dc.lft.to/lastmile_qr_scan"}, "fusion_lon": 0.0, "lat": 38.869144, "bike_id": "fbe5f525922e5b366e9460a8b65beeb3", "type": "electric_bike", "is_reserved": 0, "lon": -76.975044}, {"fusion_lat": 0.0, "name": "3b68155d13614bde638566b620355ac9", "is_disabled": 0, "rental_uris": {"android": "https://dc.lft.to/lastmile_qr_scan", "ios": "https://dc.lft.to/lastmile_qr_scan"}, "fusion_lon": 0.0, "lat": 38.91696683333333, "bike_id": "3b68155d13614bde638566b620355ac9", "type": "electric_scooter", "is_reserved": 0, "lon": -77.02491283333333}, {"fusion_lat": 0.0, "name": "ffdc027ce70d44c108debe5f1e852c95", "is_disabled": 0, "rental_uris": {"android": "https://dc.lft.to/lastmile_qr_scan", "ios": "https://dc.lft.to/lastmile_qr_scan"}, "fusion_lon": 0.0, "lat": 38.92868933333333, "bike_id": "ffdc027ce70d44c108debe5f1e852c95", "type": "electric_scooter", "is_reserved": 0, "lon": -77.03039366666667}, {"fusion_lat": 0.0, "name": "b9a89095f2e6e8e02a8e3d4a046dc70a", "is_disabled": 0, "rental_uris": {"android": "https://dc.lft.to/lastmile_qr_scan", "ios": "https://dc.lft.to/lastmile_qr_scan"}, "fusion_lon": 0.0, "lat": 38.91566366666667, "bike_id": "b9a89095f2e6e8e02a8e3d4a046dc70a", "type": "electric_scooter", "is_reserved": 0, "lon": -77.03243133333334}, {"fusion_lat": 0.0, "name": "1962437079599a32b4e6d457ea65aacb", "is_disabled": 0, "rental_uris": {"android": "https://dc.lft.to/lastmile_qr_scan", "ios": "https://dc.lft.to/lastmile_qr_scan"}, "fusion_lon": 0.0, "lat": 38.89011583333333, "bike_id": "1962437079599a32b4e6d457ea65aacb", "type": "electric_scooter", "is_reserved": 0, "lon": -76.93743933333333}, {"fusion_lat": 0.0, "name": "33ee19d163cbdde47a702800de7a277a", "is_disabled": 0, "rental_uris": {"android": "https://dc.lft.to/lastmile_qr_scan", "ios": "https://dc.lft.to/lastmile_qr_scan"}, "fusion_lon": 0.0, "lat": 38.905137333333336, "bike_id": "33ee19d163cbdde47a702800de7a277a", "type": "electric_scooter", "is_reserved": 0, "lon": -77.034806}, {"fusion_lat": 0.0, "name": "5797e1a9031c3ab4712d7e7871bda109", "is_disabled": 0, "rental_uris": {"android": "https://dc.lft.to/lastmile_qr_scan", "ios": "https://dc.lft.to/lastmile_qr_scan"}, "fusion_lon": 0.0, "lat": 38.913492166666664, "bike_id": "5797e1a9031c3ab4712d7e7871bda109", "type": "electric_scooter", "is_reserved": 0, "lon": -77.00343283333333}, {"fusion_lat": 0.0, "name": "74249dee235d7cc0fb93bb18ab998e4e", "is_disabled": 0, "rental_uris": {"android": "https://dc.lft.to/lastmile_qr_scan", "ios": "https://dc.lft.to/lastmile_qr_scan"}, "fusion_lon": 0.0, "lat": 38.89221083333333, "bike_id": "74249dee235d7cc0fb93bb18ab998e4e", "type": "electric_scooter", "is_reserved": 0, "lon": -77.04369133333333}, {"fusion_lat": 0.0, "name": "5f449eef9fc22c3d5fbfc64f2b369990", "is_disabled": 0, "rental_uris": {"android": "https://dc.lft.to/lastmile_qr_scan", "ios": "https://dc.lft.to/lastmile_qr_scan"}, "fusion_lon": 0.0, "lat": 38.90382266666667, "bike_id": "5f449eef9fc22c3d5fbfc64f2b369990", "type": "electric_scooter", "is_reserved": 0, "lon": -76.98487016666667}, {"fusion_lat": 0.0, "name": "ae9832f99a5b6e4dd649cfb6630a83f9", "is_disabled": 0, "rental_uris": {"android": "https://dc.lft.to/lastmile_qr_scan", "ios": "https://dc.lft.to/lastmile_qr_scan"}, "fusion_lon": 0.0, "lat": 38.8921915, "bike_id": "ae9832f99a5b6e4dd649cfb6630a83f9", "type": "electric_scooter", "is_reserved": 0, "lon": -77.02151766666667}, {"fusion_lat": 0.0, "name": "06a6f8f76172002d60c5a20c9f5bddcc", "is_disabled": 0, "rental_uris": {"android": "https://dc.lft.to/lastmile_qr_scan", "ios": "https://dc.lft.to/lastmile_qr_scan"}, "fusion_lon": 0.0, "lat": 38.87447433333333, "bike_id": "06a6f8f76172002d60c5a20c9f5bddcc", "type": "electric_scooter", "is_reserved": 0, "lon": -77.01904783333333}, {"fusion_lat": 0.0, "name": "be9e6c6a68d8fbd128f185644b1f0b1f", "is_disabled": 0, "rental_uris": {"android": "https://dc.lft.to/lastmile_qr_scan", "ios": "https://dc.lft.to/lastmile_qr_scan"}, "fusion_lon": 0.0, "lat": 38.924521666666664, "bike_id": "be9e6c6a68d8fbd128f185644b1f0b1f", "type": "electric_scooter", "is_reserved": 0, "lon": -77.02400833333333}, {"fusion_lat": 0.0, "name": "d7a7aee6b21d224ea6a1a1cea79c32b5", "is_disabled": 0, "rental_uris": {"android": "https://dc.lft.to/lastmile_qr_scan", "ios": "https://dc.lft.to/lastmile_qr_scan"}, "fusion_lon": 0.0, "lat": 38.9299325, "bike_id": "d7a7aee6b21d224ea6a1a1cea79c32b5", "type": "electric_scooter", "is_reserved": 0, "lon": -77.03242716666666}, {"fusion_lat": 0.0, "name": "f8e42f733e067947db66878677f854d5", "is_disabled": 0, "rental_uris": {"android": "https://dc.lft.to/lastmile_qr_scan", "ios": "https://dc.lft.to/lastmile_qr_scan"}, "fusion_lon": 0.0, "lat": 38.907601, "bike_id": "f8e42f733e067947db66878677f854d5", "type": "electric_scooter", "is_reserved": 0, "lon": -77.000391}, {"fusion_lat": 0.0, "name": "6862f7dd06dc307152e60295a86219bd", "is_disabled": 0, "rental_uris": {"android": "https://dc.lft.to/lastmile_qr_scan", "ios": "https://dc.lft.to/lastmile_qr_scan"}, "fusion_lon": 0.0, "lat": 38.889628333333334, "bike_id": "6862f7dd06dc307152e60295a86219bd", "type": "electric_scooter", "is_reserved": 0, "lon": -77.01505266666666}, {"fusion_lat": 0.0, "name": "73090a77e7fbe29ed5e8755a2ad56ae1", "is_disabled": 0, "rental_uris": {"android": "https://dc.lft.to/lastmile_qr_scan", "ios": "https://dc.lft.to/lastmile_qr_scan"}, "fusion_lon": 0.0, "lat": 38.920646833333336, "bike_id": "73090a77e7fbe29ed5e8755a2ad56ae1", "type": "electric_scooter", "is_reserved": 0, "lon": -77.027115}, {"fusion_lat": 0.0, "name": "b4b90aab43f1b9e7193f3e60d45b8949", "is_disabled": 0, "rental_uris": {"android": "https://dc.lft.to/lastmile_qr_scan", "ios": "https://dc.lft.to/lastmile_qr_scan"}, "fusion_lon": 0.0, "lat": 38.901759, "bike_id": "b4b90aab43f1b9e7193f3e60d45b8949", "type": "electric_scooter", "is_reserved": 0, "lon": -77.0591595}, {"fusion_lat": 0.0, "name": "48c2059ed086370cd424db93f9fcccd9", "is_disabled": 0, "rental_uris": {"android": "https://dc.lft.to/lastmile_qr_scan", "ios": "https://dc.lft.to/lastmile_qr_scan"}, "fusion_lon": 0.0, "lat": 38.925804666666664, "bike_id": "48c2059ed086370cd424db93f9fcccd9", "type": "electric_scooter", "is_reserved": 0, "lon": -77.02729883333333}, {"fusion_lat": 0.0, "name": "06be774fe967ee1ca4c722a348c30fa5", "is_disabled": 0, "rental_uris": {"android": "https://dc.lft.to/lastmile_qr_scan", "ios": "https://dc.lft.to/lastmile_qr_scan"}, "fusion_lon": 0.0, "lat": 38.922782, "bike_id": "06be774fe967ee1ca4c722a348c30fa5", "type": "electric_scooter", "is_reserved": 0, "lon": -76.99429833333333}, {"fusion_lat": 0.0, "name": "3b1b20eace1b8a3cb68179aa8b5dcfa9", "is_disabled": 0, "rental_uris": {"android": "https://dc.lft.to/lastmile_qr_scan", "ios": "https://dc.lft.to/lastmile_qr_scan"}, "fusion_lon": 0.0, "lat": 38.89218866666667, "bike_id": "3b1b20eace1b8a3cb68179aa8b5dcfa9", "type": "electric_scooter", "is_reserved": 0, "lon": -77.02416833333334}, {"fusion_lat": 0.0, "name": "6ebfe060fcbd426ccba521c373f8ba4c", "is_disabled": 0, "rental_uris": {"android": "https://dc.lft.to/lastmile_qr_scan", "ios": "https://dc.lft.to/lastmile_qr_scan"}, "fusion_lon": 0.0, "lat": 38.9112175, "bike_id": "6ebfe060fcbd426ccba521c373f8ba4c", "type": "electric_scooter", "is_reserved": 0, "lon": -77.021908}, {"fusion_lat": 0.0, "name": "08502a2e204245163551fcb85b24ec78", "is_disabled": 0, "rental_uris": {"android": "https://dc.lft.to/lastmile_qr_scan", "ios": "https://dc.lft.to/lastmile_qr_scan"}, "fusion_lon": 0.0, "lat": 38.90028183333333, "bike_id": "08502a2e204245163551fcb85b24ec78", "type": "electric_scooter", "is_reserved": 0, "lon": -76.991389}, {"fusion_lat": 0.0, "name": "f3f5497bbe5405a50951bcae7f66b1bf", "is_disabled": 0, "rental_uris": {"android": "https://dc.lft.to/lastmile_qr_scan", "ios": "https://dc.lft.to/lastmile_qr_scan"}, "fusion_lon": 0.0, "lat": 38.9236775, "bike_id": "f3f5497bbe5405a50951bcae7f66b1bf", "type": "electric_scooter", "is_reserved": 0, "lon": -77.081515}, {"fusion_lat": 0.0, "name": "e27afaab1b931a4a7ccf43b317efff7f", "is_disabled": 0, "rental_uris": {"android": "https://dc.lft.to/lastmile_qr_scan", "ios": "https://dc.lft.to/lastmile_qr_scan"}, "fusion_lon": 0.0, "lat": 38.91605083333334, "bike_id": "e27afaab1b931a4a7ccf43b317efff7f", "type": "electric_scooter", "is_reserved": 0, "lon": -77.04601033333333}, {"fusion_lat": 0.0, "name": "7a0a05b137c061f8f0074f7db069fce4", "is_disabled": 0, "rental_uris": {"android": "https://dc.lft.to/lastmile_qr_scan", "ios": "https://dc.lft.to/lastmile_qr_scan"}, "fusion_lon": 0.0, "lat": 38.96991116666667, "bike_id": "7a0a05b137c061f8f0074f7db069fce4", "type": "electric_scooter", "is_reserved": 0, "lon": -77.01159466666667}, {"fusion_lat": 0.0, "name": "6318911eed58b660f0ada435424a27b5", "is_disabled": 0, "rental_uris": {"android": "https://dc.lft.to/lastmile_qr_scan", "ios": "https://dc.lft.to/lastmile_qr_scan"}, "fusion_lon": 0.0, "lat": 38.89729583333333, "bike_id": "6318911eed58b660f0ada435424a27b5", "type": "electric_scooter", "is_reserved": 0, "lon": -76.9470365}, {"fusion_lat": 0.0, "name": "f877fb7037c115eb970888bf797b1198", "is_disabled": 0, "rental_uris": {"android": "https://dc.lft.to/lastmile_qr_scan", "ios": "https://dc.lft.to/lastmile_qr_scan"}, "fusion_lon": 0.0, "lat": 38.89845183333333, "bike_id": "f877fb7037c115eb970888bf797b1198", "type": "electric_bike", "is_reserved": 0, "lon": -77.02467066666667}, {"fusion_lat": 0.0, "name": "96f91ce43af64a24cc32d2b2d97359b5", "is_disabled": 0, "rental_uris": {"android": "https://dc.lft.to/lastmile_qr_scan", "ios": "https://dc.lft.to/lastmile_qr_scan"}, "fusion_lon": 0.0, "lat": 38.85562516666667, "bike_id": "96f91ce43af64a24cc32d2b2d97359b5", "type": "electric_bike", "is_reserved": 0, "lon": -77.11316783333334}, {"fusion_lat": 0.0, "name": "2916de2ce451f9d597790f4d34ca8b8c", "is_disabled": 0, "rental_uris": {"android": "https://dc.lft.to/lastmile_qr_scan", "ios": "https://dc.lft.to/lastmile_qr_scan"}, "fusion_lon": 0.0, "lat": 38.904510333333334, "bike_id": "2916de2ce451f9d597790f4d34ca8b8c", "type": "electric_bike", "is_reserved": 0, "lon": -76.97426183333333}, {"fusion_lat": 0.0, "name": "cc5abe940347ded605e25dba640bf8c0", "is_disabled": 0, "rental_uris": {"android": "https://dc.lft.to/lastmile_qr_scan", "ios": "https://dc.lft.to/lastmile_qr_scan"}, "fusion_lon": 0.0, "lat": 38.960667, "bike_id": "cc5abe940347ded605e25dba640bf8c0", "type": "electric_scooter", "is_reserved": 0, "lon": -77.0010195}, {"fusion_lat": 0.0, "name": "160b936fa536bf1cc1c06b0f55f0619b", "is_disabled": 0, "rental_uris": {"android": "https://dc.lft.to/lastmile_qr_scan", "ios": "https://dc.lft.to/lastmile_qr_scan"}, "fusion_lon": 0.0, "lat": 38.910346833333335, "bike_id": "160b936fa536bf1cc1c06b0f55f0619b", "type": "electric_scooter", "is_reserved": 0, "lon": -77.0128605}, {"fusion_lat": 0.0, "name": "6667d9b17a3fd12313cd039c8bf351af", "is_disabled": 0, "rental_uris": {"android": "https://dc.lft.to/lastmile_qr_scan", "ios": "https://dc.lft.to/lastmile_qr_scan"}, "fusion_lon": 0.0, "lat": 38.915432333333335, "bike_id": "6667d9b17a3fd12313cd039c8bf351af", "type": "electric_scooter", "is_reserved": 0, "lon": -77.04343983333334}, {"fusion_lat": 0.0, "name": "a8ce8851515a5983d5ca75d7f0e98381", "is_disabled": 0, "rental_uris": {"android": "https://dc.lft.to/lastmile_qr_scan", "ios": "https://dc.lft.to/lastmile_qr_scan"}, "fusion_lon": 0.0, "lat": 38.900738833333335, "bike_id": "a8ce8851515a5983d5ca75d7f0e98381", "type": "electric_scooter", "is_reserved": 0, "lon": -77.02712616666666}, {"fusion_lat": 0.0, "name": "8a966a1a38d29a552e5c251f516354c7", "is_disabled": 0, "rental_uris": {"android": "https://dc.lft.to/lastmile_qr_scan", "ios": "https://dc.lft.to/lastmile_qr_scan"}, "fusion_lon": 0.0, "lat": 38.91381466666667, "bike_id": "8a966a1a38d29a552e5c251f516354c7", "type": "electric_scooter", "is_reserved": 0, "lon": -77.01801633333334}, {"fusion_lat": 0.0, "name": "11d3c5138f860ec9329548a9f2446708", "is_disabled": 0, "rental_uris": {"android": "https://dc.lft.to/lastmile_qr_scan", "ios": "https://dc.lft.to/lastmile_qr_scan"}, "fusion_lon": 0.0, "lat": 38.92450216666667, "bike_id": "11d3c5138f860ec9329548a9f2446708", "type": "electric_scooter", "is_reserved": 0, "lon": -77.08026983333333}, {"fusion_lat": 0.0, "name": "3d59a40725e8ec3836a4c7edbcf4a988", "is_disabled": 0, "rental_uris": {"android": "https://dc.lft.to/lastmile_qr_scan", "ios": "https://dc.lft.to/lastmile_qr_scan"}, "fusion_lon": 0.0, "lat": 38.90787816666667, "bike_id": "3d59a40725e8ec3836a4c7edbcf4a988", "type": "electric_scooter", "is_reserved": 0, "lon": -77.041881}, {"fusion_lat": 0.0, "name": "6819028d5f68a758332ddd41fd03ad71", "is_disabled": 0, "rental_uris": {"android": "https://dc.lft.to/lastmile_qr_scan", "ios": "https://dc.lft.to/lastmile_qr_scan"}, "fusion_lon": 0.0, "lat": 38.9296885, "bike_id": "6819028d5f68a758332ddd41fd03ad71", "type": "electric_scooter", "is_reserved": 0, "lon": -77.04180716666667}, {"fusion_lat": 0.0, "name": "74b9d9ea5238165c2722fa749ee0c247", "is_disabled": 0, "rental_uris": {"android": "https://dc.lft.to/lastmile_qr_scan", "ios": "https://dc.lft.to/lastmile_qr_scan"}, "fusion_lon": 0.0, "lat": 38.90630616666667, "bike_id": "74b9d9ea5238165c2722fa749ee0c247", "type": "electric_scooter", "is_reserved": 0, "lon": -77.01882983333333}, {"fusion_lat": 0.0, "name": "e24213bc622b6c4cb4cc4e7f3d9976d4", "is_disabled": 0, "rental_uris": {"android": "https://dc.lft.to/lastmile_qr_scan", "ios": "https://dc.lft.to/lastmile_qr_scan"}, "fusion_lon": 0.0, "lat": 38.87936066666666, "bike_id": "e24213bc622b6c4cb4cc4e7f3d9976d4", "type": "electric_scooter", "is_reserved": 0, "lon": -77.00416983333334}, {"fusion_lat": 0.0, "name": "b31c74e72a418dafe3f58544ea88ce32", "is_disabled": 0, "rental_uris": {"android": "https://dc.lft.to/lastmile_qr_scan", "ios": "https://dc.lft.to/lastmile_qr_scan"}, "fusion_lon": 0.0, "lat": 38.9524585, "bike_id": "b31c74e72a418dafe3f58544ea88ce32", "type": "electric_scooter", "is_reserved": 0, "lon": -77.02379083333334}, {"fusion_lat": 0.0, "name": "d65611ddd1a6e898d3dc0da7e30d9f4c", "is_disabled": 0, "rental_uris": {"android": "https://dc.lft.to/lastmile_qr_scan", "ios": "https://dc.lft.to/lastmile_qr_scan"}, "fusion_lon": 0.0, "lat": 38.89258483333333, "bike_id": "d65611ddd1a6e898d3dc0da7e30d9f4c", "type": "electric_bike", "is_reserved": 0, "lon": -76.95121983333334}, {"fusion_lat": 0.0, "name": "4b04d4692688ee6e5343dc73b238a76c", "is_disabled": 0, "rental_uris": {"android": "https://dc.lft.to/lastmile_qr_scan", "ios": "https://dc.lft.to/lastmile_qr_scan"}, "fusion_lon": 0.0, "lat": 38.88496, "bike_id": "4b04d4692688ee6e5343dc73b238a76c", "type": "electric_scooter", "is_reserved": 0, "lon": -76.99768366666666}, {"fusion_lat": 0.0, "name": "c32cd8fc753e1c108c80801c8148ee6c", "is_disabled": 0, "rental_uris": {"android": "https://dc.lft.to/lastmile_qr_scan", "ios": "https://dc.lft.to/lastmile_qr_scan"}, "fusion_lon": 0.0, "lat": 38.9268005, "bike_id": "c32cd8fc753e1c108c80801c8148ee6c", "type": "electric_scooter", "is_reserved": 0, "lon": -77.03097916666667}, {"fusion_lat": 0.0, "name": "757a69c0ae08b7a769b9e0b1fec49abe", "is_disabled": 0, "rental_uris": {"android": "https://dc.lft.to/lastmile_qr_scan", "ios": "https://dc.lft.to/lastmile_qr_scan"}, "fusion_lon": 0.0, "lat": 38.892219833333336, "bike_id": "757a69c0ae08b7a769b9e0b1fec49abe", "type": "electric_scooter", "is_reserved": 0, "lon": -77.0450035}, {"fusion_lat": 0.0, "name": "555ff1694138a49c044b1708baaeb114", "is_disabled": 0, "rental_uris": {"android": "https://dc.lft.to/lastmile_qr_scan", "ios": "https://dc.lft.to/lastmile_qr_scan"}, "fusion_lon": 0.0, "lat": 38.891836166666664, "bike_id": "555ff1694138a49c044b1708baaeb114", "type": "electric_scooter", "is_reserved": 0, "lon": -77.021757}, {"fusion_lat": 0.0, "name": "ad84eae38a056ca5c845ab552bb21ad3", "is_disabled": 0, "rental_uris": {"android": "https://dc.lft.to/lastmile_qr_scan", "ios": "https://dc.lft.to/lastmile_qr_scan"}, "fusion_lon": 0.0, "lat": 38.931852166666665, "bike_id": "ad84eae38a056ca5c845ab552bb21ad3", "type": "electric_scooter", "is_reserved": 0, "lon": -77.0196505}, {"fusion_lat": 0.0, "name": "90167734bce0205a0bd9c66ac792c520", "is_disabled": 0, "rental_uris": {"android": "https://dc.lft.to/lastmile_qr_scan", "ios": "https://dc.lft.to/lastmile_qr_scan"}, "fusion_lon": 0.0, "lat": 38.90577, "bike_id": "90167734bce0205a0bd9c66ac792c520", "type": "electric_scooter", "is_reserved": 0, "lon": -77.02201416666666}, {"fusion_lat": 0.0, "name": "b72fcd681f044a1371eb0154b23c8a00", "is_disabled": 0, "rental_uris": {"android": "https://dc.lft.to/lastmile_qr_scan", "ios": "https://dc.lft.to/lastmile_qr_scan"}, "fusion_lon": 0.0, "lat": 38.8393295, "bike_id": "b72fcd681f044a1371eb0154b23c8a00", "type": "electric_bike", "is_reserved": 0, "lon": -77.07901333333334}, {"fusion_lat": 0.0, "name": "6d2bfef67d8608b4c8f2013bbe08e25d", "is_disabled": 0, "rental_uris": {"android": "https://dc.lft.to/lastmile_qr_scan", "ios": "https://dc.lft.to/lastmile_qr_scan"}, "fusion_lon": 0.0, "lat": 38.91824966666667, "bike_id": "6d2bfef67d8608b4c8f2013bbe08e25d", "type": "electric_scooter", "is_reserved": 0, "lon": -77.0384045}, {"fusion_lat": 0.0, "name": "1a1ff2fb70131e1af8be0a263c3d712f", "is_disabled": 0, "rental_uris": {"android": "https://dc.lft.to/lastmile_qr_scan", "ios": "https://dc.lft.to/lastmile_qr_scan"}, "fusion_lon": 0.0, "lat": 38.9336035, "bike_id": "1a1ff2fb70131e1af8be0a263c3d712f", "type": "electric_scooter", "is_reserved": 0, "lon": -77.0387575}, {"fusion_lat": 0.0, "name": "6e90f01a0013124d554fa311024175e8", "is_disabled": 0, "rental_uris": {"android": "https://dc.lft.to/lastmile_qr_scan", "ios": "https://dc.lft.to/lastmile_qr_scan"}, "fusion_lon": 0.0, "lat": 38.89727516666667, "bike_id": "6e90f01a0013124d554fa311024175e8", "type": "electric_scooter", "is_reserved": 0, "lon": -77.03195966666667}, {"fusion_lat": 0.0, "name": "acc1894a5f33cafe5a1dc6bf565ff24b", "is_disabled": 0, "rental_uris": {"android": "https://dc.lft.to/lastmile_qr_scan", "ios": "https://dc.lft.to/lastmile_qr_scan"}, "fusion_lon": 0.0, "lat": 38.941344, "bike_id": "acc1894a5f33cafe5a1dc6bf565ff24b", "type": "electric_scooter", "is_reserved": 0, "lon": -77.00611316666667}, {"fusion_lat": 0.0, "name": "983f2fb01ab5ff5d84de93b71a2305a8", "is_disabled": 0, "rental_uris": {"android": "https://dc.lft.to/lastmile_qr_scan", "ios": "https://dc.lft.to/lastmile_qr_scan"}, "fusion_lon": 0.0, "lat": 38.90972283333333, "bike_id": "983f2fb01ab5ff5d84de93b71a2305a8", "type": "electric_scooter", "is_reserved": 0, "lon": -77.009085}, {"fusion_lat": 0.0, "name": "05f59f7f9e74a2484992050532ffc933", "is_disabled": 0, "rental_uris": {"android": "https://dc.lft.to/lastmile_qr_scan", "ios": "https://dc.lft.to/lastmile_qr_scan"}, "fusion_lon": 0.0, "lat": 38.9035855, "bike_id": "05f59f7f9e74a2484992050532ffc933", "type": "electric_scooter", "is_reserved": 0, "lon": -76.97237266666667}, {"fusion_lat": 0.0, "name": "314207211b6a9feba54ca1a93fbe8b2b", "is_disabled": 0, "rental_uris": {"android": "https://dc.lft.to/lastmile_qr_scan", "ios": "https://dc.lft.to/lastmile_qr_scan"}, "fusion_lon": 0.0, "lat": 38.901131166666666, "bike_id": "314207211b6a9feba54ca1a93fbe8b2b", "type": "electric_scooter", "is_reserved": 0, "lon": -77.05158733333333}, {"fusion_lat": 0.0, "name": "cc27d3f779dacd238f4af229e8d16227", "is_disabled": 0, "rental_uris": {"android": "https://dc.lft.to/lastmile_qr_scan", "ios": "https://dc.lft.to/lastmile_qr_scan"}, "fusion_lon": 0.0, "lat": 38.907213166666665, "bike_id": "cc27d3f779dacd238f4af229e8d16227", "type": "electric_scooter", "is_reserved": 0, "lon": -77.02542666666666}, {"fusion_lat": 0.0, "name": "0df4d923fdb1d9af81e8abd78883145b", "is_disabled": 0, "rental_uris": {"android": "https://dc.lft.to/lastmile_qr_scan", "ios": "https://dc.lft.to/lastmile_qr_scan"}, "fusion_lon": 0.0, "lat": 38.929712333333335, "bike_id": "0df4d923fdb1d9af81e8abd78883145b", "type": "electric_scooter", "is_reserved": 0, "lon": -77.03260233333333}, {"fusion_lat": 0.0, "name": "e4d245b483699340bfc760a7ffd92c68", "is_disabled": 0, "rental_uris": {"android": "https://dc.lft.to/lastmile_qr_scan", "ios": "https://dc.lft.to/lastmile_qr_scan"}, "fusion_lon": 0.0, "lat": 38.9056415, "bike_id": "e4d245b483699340bfc760a7ffd92c68", "type": "electric_scooter", "is_reserved": 0, "lon": -77.00600433333334}, {"fusion_lat": 0.0, "name": "b5780ad2b3779221ee41d0e2a4ad6871", "is_disabled": 0, "rental_uris": {"android": "https://dc.lft.to/lastmile_qr_scan", "ios": "https://dc.lft.to/lastmile_qr_scan"}, "fusion_lon": 0.0, "lat": 38.931486666666665, "bike_id": "b5780ad2b3779221ee41d0e2a4ad6871", "type": "electric_scooter", "is_reserved": 0, "lon": -77.0397225}, {"fusion_lat": 0.0, "name": "a46afe96f302c11805ffbca428beea69", "is_disabled": 0, "rental_uris": {"android": "https://dc.lft.to/lastmile_qr_scan", "ios": "https://dc.lft.to/lastmile_qr_scan"}, "fusion_lon": 0.0, "lat": 38.89230766666667, "bike_id": "a46afe96f302c11805ffbca428beea69", "type": "electric_scooter", "is_reserved": 0, "lon": -77.03182783333334}, {"fusion_lat": 0.0, "name": "d1a1b53738170f80dbb3ae860c447550", "is_disabled": 0, "rental_uris": {"android": "https://dc.lft.to/lastmile_qr_scan", "ios": "https://dc.lft.to/lastmile_qr_scan"}, "fusion_lon": 0.0, "lat": 38.895521333333335, "bike_id": "d1a1b53738170f80dbb3ae860c447550", "type": "electric_scooter", "is_reserved": 0, "lon": -77.029874}, {"fusion_lat": 0.0, "name": "c8a68c187d1cf215c029d7e20cb6b242", "is_disabled": 0, "rental_uris": {"android": "https://dc.lft.to/lastmile_qr_scan", "ios": "https://dc.lft.to/lastmile_qr_scan"}, "fusion_lon": 0.0, "lat": 38.89457933333333, "bike_id": "c8a68c187d1cf215c029d7e20cb6b242", "type": "electric_scooter", "is_reserved": 0, "lon": -77.02165066666667}, {"fusion_lat": 0.0, "name": "770ff1aefd4d7b06f23edd1b1fea58b8", "is_disabled": 0, "rental_uris": {"android": "https://dc.lft.to/lastmile_qr_scan", "ios": "https://dc.lft.to/lastmile_qr_scan"}, "fusion_lon": 0.0, "lat": 38.819367166666666, "bike_id": "770ff1aefd4d7b06f23edd1b1fea58b8", "type": "electric_bike", "is_reserved": 0, "lon": -77.00205816666667}, {"fusion_lat": 0.0, "name": "93c2a00da593562fd57abc09fa760c60", "is_disabled": 0, "rental_uris": {"android": "https://dc.lft.to/lastmile_qr_scan", "ios": "https://dc.lft.to/lastmile_qr_scan"}, "fusion_lon": 0.0, "lat": 38.952616166666665, "bike_id": "93c2a00da593562fd57abc09fa760c60", "type": "electric_bike", "is_reserved": 0, "lon": -76.9995695}, {"fusion_lat": 0.0, "name": "5fe6d398f3dc89e3502d6f006d601b8f", "is_disabled": 0, "rental_uris": {"android": "https://dc.lft.to/lastmile_qr_scan", "ios": "https://dc.lft.to/lastmile_qr_scan"}, "fusion_lon": 0.0, "lat": 38.907348166666665, "bike_id": "5fe6d398f3dc89e3502d6f006d601b8f", "type": "electric_scooter", "is_reserved": 0, "lon": -77.04760966666667}, {"fusion_lat": 0.0, "name": "e80ef8bd4da7ce39a4613c36ac71844c", "is_disabled": 0, "rental_uris": {"android": "https://dc.lft.to/lastmile_qr_scan", "ios": "https://dc.lft.to/lastmile_qr_scan"}, "fusion_lon": 0.0, "lat": 38.901052, "bike_id": "e80ef8bd4da7ce39a4613c36ac71844c", "type": "electric_scooter", "is_reserved": 0, "lon": -76.930473}, {"fusion_lat": 0.0, "name": "3e509d1d4860ce350990e16df9920e07", "is_disabled": 0, "rental_uris": {"android": "https://dc.lft.to/lastmile_qr_scan", "ios": "https://dc.lft.to/lastmile_qr_scan"}, "fusion_lon": 0.0, "lat": 38.93524383333333, "bike_id": "3e509d1d4860ce350990e16df9920e07", "type": "electric_scooter", "is_reserved": 0, "lon": -77.02858416666666}, {"fusion_lat": 0.0, "name": "6186f35220352ec3d3042849b296a5b5", "is_disabled": 0, "rental_uris": {"android": "https://dc.lft.to/lastmile_qr_scan", "ios": "https://dc.lft.to/lastmile_qr_scan"}, "fusion_lon": 0.0, "lat": 38.89192516666667, "bike_id": "6186f35220352ec3d3042849b296a5b5", "type": "electric_scooter", "is_reserved": 0, "lon": -77.02227883333333}, {"fusion_lat": 0.0, "name": "ae81b054fd6b42e105429a0b74c7a649", "is_disabled": 0, "rental_uris": {"android": "https://dc.lft.to/lastmile_qr_scan", "ios": "https://dc.lft.to/lastmile_qr_scan"}, "fusion_lon": 0.0, "lat": 38.93898, "bike_id": "ae81b054fd6b42e105429a0b74c7a649", "type": "electric_scooter", "is_reserved": 0, "lon": -77.03263633333333}, {"fusion_lat": 0.0, "name": "78d245f21b07b73128fd342d72170e41", "is_disabled": 0, "rental_uris": {"android": "https://dc.lft.to/lastmile_qr_scan", "ios": "https://dc.lft.to/lastmile_qr_scan"}, "fusion_lon": 0.0, "lat": 38.926029, "bike_id": "78d245f21b07b73128fd342d72170e41", "type": "electric_scooter", "is_reserved": 0, "lon": -77.02156066666667}, {"fusion_lat": 0.0, "name": "bc94670079685ecbb2186597696ac148", "is_disabled": 0, "rental_uris": {"android": "https://dc.lft.to/lastmile_qr_scan", "ios": "https://dc.lft.to/lastmile_qr_scan"}, "fusion_lon": 0.0, "lat": 38.9305765, "bike_id": "bc94670079685ecbb2186597696ac148", "type": "electric_scooter", "is_reserved": 0, "lon": -77.03219116666666}, {"fusion_lat": 0.0, "name": "b4d8fbc4a7b41538f0fd21ad8dbcce3b", "is_disabled": 0, "rental_uris": {"android": "https://dc.lft.to/lastmile_qr_scan", "ios": "https://dc.lft.to/lastmile_qr_scan"}, "fusion_lon": 0.0, "lat": 38.90581983333333, "bike_id": "b4d8fbc4a7b41538f0fd21ad8dbcce3b", "type": "electric_scooter", "is_reserved": 0, "lon": -77.00485983333333}, {"fusion_lat": 0.0, "name": "2d3ce0b4c41834835e00442a8e8c8b05", "is_disabled": 0, "rental_uris": {"android": "https://dc.lft.to/lastmile_qr_scan", "ios": "https://dc.lft.to/lastmile_qr_scan"}, "fusion_lon": 0.0, "lat": 38.92472466666667, "bike_id": "2d3ce0b4c41834835e00442a8e8c8b05", "type": "electric_scooter", "is_reserved": 0, "lon": -77.02075566666667}, {"fusion_lat": 0.0, "name": "3f4e505217a0a0026693824020a73ba6", "is_disabled": 0, "rental_uris": {"android": "https://dc.lft.to/lastmile_qr_scan", "ios": "https://dc.lft.to/lastmile_qr_scan"}, "fusion_lon": 0.0, "lat": 38.9008015, "bike_id": "3f4e505217a0a0026693824020a73ba6", "type": "electric_scooter", "is_reserved": 0, "lon": -77.04951333333334}, {"fusion_lat": 0.0, "name": "bfeafadd1773c768c2cd8671419d09c4", "is_disabled": 0, "rental_uris": {"android": "https://dc.lft.to/lastmile_qr_scan", "ios": "https://dc.lft.to/lastmile_qr_scan"}, "fusion_lon": 0.0, "lat": 38.892217333333335, "bike_id": "bfeafadd1773c768c2cd8671419d09c4", "type": "electric_scooter", "is_reserved": 0, "lon": -77.03217916666667}, {"fusion_lat": 0.0, "name": "03894634cb226d71fedeb1e88ba3bb47", "is_disabled": 0, "rental_uris": {"android": "https://dc.lft.to/lastmile_qr_scan", "ios": "https://dc.lft.to/lastmile_qr_scan"}, "fusion_lon": 0.0, "lat": 38.90672516666667, "bike_id": "03894634cb226d71fedeb1e88ba3bb47", "type": "electric_scooter", "is_reserved": 0, "lon": -77.0217835}, {"fusion_lat": 0.0, "name": "a708227bdacfefeb56a32daea590139e", "is_disabled": 0, "rental_uris": {"android": "https://dc.lft.to/lastmile_qr_scan", "ios": "https://dc.lft.to/lastmile_qr_scan"}, "fusion_lon": 0.0, "lat": 38.90039866666667, "bike_id": "a708227bdacfefeb56a32daea590139e", "type": "electric_scooter", "is_reserved": 0, "lon": -76.98558616666666}, {"fusion_lat": 0.0, "name": "e21def8c8683adc6cd05e7f2cf6ab206", "is_disabled": 0, "rental_uris": {"android": "https://dc.lft.to/lastmile_qr_scan", "ios": "https://dc.lft.to/lastmile_qr_scan"}, "fusion_lon": 0.0, "lat": 38.934117666666666, "bike_id": "e21def8c8683adc6cd05e7f2cf6ab206", "type": "electric_scooter", "is_reserved": 0, "lon": -77.04279166666667}, {"fusion_lat": 0.0, "name": "58f4b1fec34849519c8bf2282aca63d9", "is_disabled": 0, "rental_uris": {"android": "https://dc.lft.to/lastmile_qr_scan", "ios": "https://dc.lft.to/lastmile_qr_scan"}, "fusion_lon": 0.0, "lat": 38.89717, "bike_id": "58f4b1fec34849519c8bf2282aca63d9", "type": "electric_scooter", "is_reserved": 0, "lon": -77.02144}, {"fusion_lat": 0.0, "name": "384dcd24b1ef4269a21e7c24974ea64b", "is_disabled": 0, "rental_uris": {"android": "https://dc.lft.to/lastmile_qr_scan", "ios": "https://dc.lft.to/lastmile_qr_scan"}, "fusion_lon": 0.0, "lat": 38.92418583333333, "bike_id": "384dcd24b1ef4269a21e7c24974ea64b", "type": "electric_scooter", "is_reserved": 0, "lon": -77.01959733333334}, {"fusion_lat": 0.0, "name": "d4b8e61276d4b62bd26feb9f93b3d82a", "is_disabled": 0, "rental_uris": {"android": "https://dc.lft.to/lastmile_qr_scan", "ios": "https://dc.lft.to/lastmile_qr_scan"}, "fusion_lon": 0.0, "lat": 38.91109566666667, "bike_id": "d4b8e61276d4b62bd26feb9f93b3d82a", "type": "electric_scooter", "is_reserved": 0, "lon": -77.03830816666667}, {"fusion_lat": 0.0, "name": "c0e24d6856733df240e6d6e03ba1179d", "is_disabled": 0, "rental_uris": {"android": "https://dc.lft.to/lastmile_qr_scan", "ios": "https://dc.lft.to/lastmile_qr_scan"}, "fusion_lon": 0.0, "lat": 38.938797666666666, "bike_id": "c0e24d6856733df240e6d6e03ba1179d", "type": "electric_scooter", "is_reserved": 0, "lon": -77.02461066666666}, {"fusion_lat": 0.0, "name": "2aa232fdf4f897251c3ccb11275fcb60", "is_disabled": 0, "rental_uris": {"android": "https://dc.lft.to/lastmile_qr_scan", "ios": "https://dc.lft.to/lastmile_qr_scan"}, "fusion_lon": 0.0, "lat": 38.913240333333334, "bike_id": "2aa232fdf4f897251c3ccb11275fcb60", "type": "electric_scooter", "is_reserved": 0, "lon": -77.0213935}, {"fusion_lat": 0.0, "name": "28c14411958018ebfafa23f47a1dd348", "is_disabled": 0, "rental_uris": {"android": "https://dc.lft.to/lastmile_qr_scan", "ios": "https://dc.lft.to/lastmile_qr_scan"}, "fusion_lon": 0.0, "lat": 38.8796475, "bike_id": "28c14411958018ebfafa23f47a1dd348", "type": "electric_bike", "is_reserved": 0, "lon": -76.91613133333334}, {"fusion_lat": 0.0, "name": "3f774346a44ed54d479440c52250121f", "is_disabled": 0, "rental_uris": {"android": "https://dc.lft.to/lastmile_qr_scan", "ios": "https://dc.lft.to/lastmile_qr_scan"}, "fusion_lon": 0.0, "lat": 38.90976933333334, "bike_id": "3f774346a44ed54d479440c52250121f", "type": "electric_scooter", "is_reserved": 0, "lon": -77.04238616666666}, {"fusion_lat": 0.0, "name": "c7cde728c146126f842215e367719b6b", "is_disabled": 0, "rental_uris": {"android": "https://dc.lft.to/lastmile_qr_scan", "ios": "https://dc.lft.to/lastmile_qr_scan"}, "fusion_lon": 0.0, "lat": 38.9620705, "bike_id": "c7cde728c146126f842215e367719b6b", "type": "electric_bike", "is_reserved": 0, "lon": -77.02792933333333}, {"fusion_lat": 0.0, "name": "53cef9782750946c05dd1345be691118", "is_disabled": 0, "rental_uris": {"android": "https://dc.lft.to/lastmile_qr_scan", "ios": "https://dc.lft.to/lastmile_qr_scan"}, "fusion_lon": 0.0, "lat": 38.92610066666667, "bike_id": "53cef9782750946c05dd1345be691118", "type": "electric_scooter", "is_reserved": 0, "lon": -77.02162566666667}, {"fusion_lat": 0.0, "name": "562d3aefdb0ad8300fbfc14c7a7c8d32", "is_disabled": 0, "rental_uris": {"android": "https://dc.lft.to/lastmile_qr_scan", "ios": "https://dc.lft.to/lastmile_qr_scan"}, "fusion_lon": 0.0, "lat": 38.878106, "bike_id": "562d3aefdb0ad8300fbfc14c7a7c8d32", "type": "electric_scooter", "is_reserved": 0, "lon": -77.01321466666667}, {"fusion_lat": 0.0, "name": "cf1f12702f8e53157ebab4848df91185", "is_disabled": 0, "rental_uris": {"android": "https://dc.lft.to/lastmile_qr_scan", "ios": "https://dc.lft.to/lastmile_qr_scan"}, "fusion_lon": 0.0, "lat": 38.92578316666667, "bike_id": "cf1f12702f8e53157ebab4848df91185", "type": "electric_scooter", "is_reserved": 0, "lon": -77.02758733333333}, {"fusion_lat": 0.0, "name": "3bf441bd62b1e4c7b5413251dae209ac", "is_disabled": 0, "rental_uris": {"android": "https://dc.lft.to/lastmile_qr_scan", "ios": "https://dc.lft.to/lastmile_qr_scan"}, "fusion_lon": 0.0, "lat": 38.899932, "bike_id": "3bf441bd62b1e4c7b5413251dae209ac", "type": "electric_scooter", "is_reserved": 0, "lon": -76.9901145}, {"fusion_lat": 0.0, "name": "afeb57331945ca6e6d04e5f7650488d9", "is_disabled": 0, "rental_uris": {"android": "https://dc.lft.to/lastmile_qr_scan", "ios": "https://dc.lft.to/lastmile_qr_scan"}, "fusion_lon": 0.0, "lat": 38.92257583333333, "bike_id": "afeb57331945ca6e6d04e5f7650488d9", "type": "electric_scooter", "is_reserved": 0, "lon": -77.03521966666666}, {"fusion_lat": 0.0, "name": "d268ba1b203daa66cba0ee51dadecf31", "is_disabled": 0, "rental_uris": {"android": "https://dc.lft.to/lastmile_qr_scan", "ios": "https://dc.lft.to/lastmile_qr_scan"}, "fusion_lon": 0.0, "lat": 38.884439666666665, "bike_id": "d268ba1b203daa66cba0ee51dadecf31", "type": "electric_scooter", "is_reserved": 0, "lon": -76.98588416666666}, {"fusion_lat": 0.0, "name": "14b4faff148d37be8e617118e291733c", "is_disabled": 0, "rental_uris": {"android": "https://dc.lft.to/lastmile_qr_scan", "ios": "https://dc.lft.to/lastmile_qr_scan"}, "fusion_lon": 0.0, "lat": 38.933572166666664, "bike_id": "14b4faff148d37be8e617118e291733c", "type": "electric_scooter", "is_reserved": 0, "lon": -77.02438983333333}, {"fusion_lat": 0.0, "name": "6188680c47b13fe509ed810042f0bc56", "is_disabled": 0, "rental_uris": {"android": "https://dc.lft.to/lastmile_qr_scan", "ios": "https://dc.lft.to/lastmile_qr_scan"}, "fusion_lon": 0.0, "lat": 38.8987595, "bike_id": "6188680c47b13fe509ed810042f0bc56", "type": "electric_scooter", "is_reserved": 0, "lon": -76.93183866666666}, {"fusion_lat": 0.0, "name": "69026759b0851d7dfb5ce15aa06098de", "is_disabled": 0, "rental_uris": {"android": "https://dc.lft.to/lastmile_qr_scan", "ios": "https://dc.lft.to/lastmile_qr_scan"}, "fusion_lon": 0.0, "lat": 38.927954166666666, "bike_id": "69026759b0851d7dfb5ce15aa06098de", "type": "electric_scooter", "is_reserved": 0, "lon": -77.0430435}, {"fusion_lat": 0.0, "name": "e2f2e77b277edd7b0645470e3696f4b7", "is_disabled": 0, "rental_uris": {"android": "https://dc.lft.to/lastmile_qr_scan", "ios": "https://dc.lft.to/lastmile_qr_scan"}, "fusion_lon": 0.0, "lat": 38.93292233333333, "bike_id": "e2f2e77b277edd7b0645470e3696f4b7", "type": "electric_scooter", "is_reserved": 0, "lon": -77.02796616666667}, {"fusion_lat": 0.0, "name": "7e4217ac1231185389d73f8c063341e2", "is_disabled": 0, "rental_uris": {"android": "https://dc.lft.to/lastmile_qr_scan", "ios": "https://dc.lft.to/lastmile_qr_scan"}, "fusion_lon": 0.0, "lat": 38.96225916666667, "bike_id": "7e4217ac1231185389d73f8c063341e2", "type": "electric_bike", "is_reserved": 0, "lon": -77.0262725}, {"fusion_lat": 0.0, "name": "b6a810e1acd5e6d43dd8855601ca28f8", "is_disabled": 0, "rental_uris": {"android": "https://dc.lft.to/lastmile_qr_scan", "ios": "https://dc.lft.to/lastmile_qr_scan"}, "fusion_lon": 0.0, "lat": 38.917119, "bike_id": "b6a810e1acd5e6d43dd8855601ca28f8", "type": "electric_scooter", "is_reserved": 0, "lon": -77.0386405}, {"fusion_lat": 0.0, "name": "032c73a9bf2e930e86d61c816d824838", "is_disabled": 0, "rental_uris": {"android": "https://dc.lft.to/lastmile_qr_scan", "ios": "https://dc.lft.to/lastmile_qr_scan"}, "fusion_lon": 0.0, "lat": 38.88229483333333, "bike_id": "032c73a9bf2e930e86d61c816d824838", "type": "electric_scooter", "is_reserved": 0, "lon": -77.02617733333334}, {"fusion_lat": 0.0, "name": "30d72da6842d09366624d2c6b0779748", "is_disabled": 0, "rental_uris": {"android": "https://dc.lft.to/lastmile_qr_scan", "ios": "https://dc.lft.to/lastmile_qr_scan"}, "fusion_lon": 0.0, "lat": 38.92031683333333, "bike_id": "30d72da6842d09366624d2c6b0779748", "type": "electric_scooter", "is_reserved": 0, "lon": -77.01760866666666}, {"fusion_lat": 0.0, "name": "660ae295ee4c186b06386acbece686b8", "is_disabled": 0, "rental_uris": {"android": "https://dc.lft.to/lastmile_qr_scan", "ios": "https://dc.lft.to/lastmile_qr_scan"}, "fusion_lon": 0.0, "lat": 38.94849633333333, "bike_id": "660ae295ee4c186b06386acbece686b8", "type": "electric_scooter", "is_reserved": 0, "lon": -77.0257185}, {"fusion_lat": 0.0, "name": "78d3e630cd0b050dc2880693eb792315", "is_disabled": 0, "rental_uris": {"android": "https://dc.lft.to/lastmile_qr_scan", "ios": "https://dc.lft.to/lastmile_qr_scan"}, "fusion_lon": 0.0, "lat": 38.919945, "bike_id": "78d3e630cd0b050dc2880693eb792315", "type": "electric_scooter", "is_reserved": 0, "lon": -77.07185333333334}, {"fusion_lat": 0.0, "name": "79aa3040784816859e150dc0e0111200", "is_disabled": 0, "rental_uris": {"android": "https://dc.lft.to/lastmile_qr_scan", "ios": "https://dc.lft.to/lastmile_qr_scan"}, "fusion_lon": 0.0, "lat": 38.88296066666667, "bike_id": "79aa3040784816859e150dc0e0111200", "type": "electric_scooter", "is_reserved": 0, "lon": -76.94854166666667}, {"fusion_lat": 0.0, "name": "cdbdc7aad1c52c9d882b55865dfd4810", "is_disabled": 0, "rental_uris": {"android": "https://dc.lft.to/lastmile_qr_scan", "ios": "https://dc.lft.to/lastmile_qr_scan"}, "fusion_lon": 0.0, "lat": 38.882189, "bike_id": "cdbdc7aad1c52c9d882b55865dfd4810", "type": "electric_scooter", "is_reserved": 0, "lon": -77.0293725}, {"fusion_lat": 0.0, "name": "72812f23a5ed603e7a68ad88f96b03ac", "is_disabled": 0, "rental_uris": {"android": "https://dc.lft.to/lastmile_qr_scan", "ios": "https://dc.lft.to/lastmile_qr_scan"}, "fusion_lon": 0.0, "lat": 38.88206133333333, "bike_id": "72812f23a5ed603e7a68ad88f96b03ac", "type": "electric_bike", "is_reserved": 0, "lon": -76.99272266666667}, {"fusion_lat": 0.0, "name": "153b965e1ee82e4ba3a49be83d03704a", "is_disabled": 0, "rental_uris": {"android": "https://dc.lft.to/lastmile_qr_scan", "ios": "https://dc.lft.to/lastmile_qr_scan"}, "fusion_lon": 0.0, "lat": 38.935806, "bike_id": "153b965e1ee82e4ba3a49be83d03704a", "type": "electric_scooter", "is_reserved": 0, "lon": -77.02844633333333}, {"fusion_lat": 0.0, "name": "e82fed34bc8360b7b575a2b38513c325", "is_disabled": 0, "rental_uris": {"android": "https://dc.lft.to/lastmile_qr_scan", "ios": "https://dc.lft.to/lastmile_qr_scan"}, "fusion_lon": 0.0, "lat": 38.95222416666667, "bike_id": "e82fed34bc8360b7b575a2b38513c325", "type": "electric_scooter", "is_reserved": 0, "lon": -77.08218233333334}, {"fusion_lat": 0.0, "name": "7ab186b60d803e3b0198971270ed0bda", "is_disabled": 0, "rental_uris": {"android": "https://dc.lft.to/lastmile_qr_scan", "ios": "https://dc.lft.to/lastmile_qr_scan"}, "fusion_lon": 0.0, "lat": 38.93155133333333, "bike_id": "7ab186b60d803e3b0198971270ed0bda", "type": "electric_scooter", "is_reserved": 0, "lon": -77.0395915}, {"fusion_lat": 0.0, "name": "5c8f1d796019df9035b5516aa806940e", "is_disabled": 0, "rental_uris": {"android": "https://dc.lft.to/lastmile_qr_scan", "ios": "https://dc.lft.to/lastmile_qr_scan"}, "fusion_lon": 0.0, "lat": 38.9066415, "bike_id": "5c8f1d796019df9035b5516aa806940e", "type": "electric_scooter", "is_reserved": 0, "lon": -77.026912}, {"fusion_lat": 0.0, "name": "3d86fb5bea9ff08b362776334a83941f", "is_disabled": 0, "rental_uris": {"android": "https://dc.lft.to/lastmile_qr_scan", "ios": "https://dc.lft.to/lastmile_qr_scan"}, "fusion_lon": 0.0, "lat": 38.8541565, "bike_id": "3d86fb5bea9ff08b362776334a83941f", "type": "electric_bike", "is_reserved": 0, "lon": -77.12068866666667}, {"fusion_lat": 0.0, "name": "10d1e7a97d33d8121a00d2e49b441572", "is_disabled": 0, "rental_uris": {"android": "https://dc.lft.to/lastmile_qr_scan", "ios": "https://dc.lft.to/lastmile_qr_scan"}, "fusion_lon": 0.0, "lat": 38.9072725, "bike_id": "10d1e7a97d33d8121a00d2e49b441572", "type": "electric_scooter", "is_reserved": 0, "lon": -77.00501366666667}, {"fusion_lat": 0.0, "name": "f0f08c602ea4d5d80de8c7406cd58d1f", "is_disabled": 0, "rental_uris": {"android": "https://dc.lft.to/lastmile_qr_scan", "ios": "https://dc.lft.to/lastmile_qr_scan"}, "fusion_lon": 0.0, "lat": 38.89224166666666, "bike_id": "f0f08c602ea4d5d80de8c7406cd58d1f", "type": "electric_scooter", "is_reserved": 0, "lon": -77.04681433333333}, {"fusion_lat": 0.0, "name": "ea6f88c0867efa40931e114957eef181", "is_disabled": 0, "rental_uris": {"android": "https://dc.lft.to/lastmile_qr_scan", "ios": "https://dc.lft.to/lastmile_qr_scan"}, "fusion_lon": 0.0, "lat": 38.897309666666665, "bike_id": "ea6f88c0867efa40931e114957eef181", "type": "electric_scooter", "is_reserved": 0, "lon": -77.04850666666667}, {"fusion_lat": 0.0, "name": "8fd851130bcffc2b93ba8c9966371824", "is_disabled": 0, "rental_uris": {"android": "https://dc.lft.to/lastmile_qr_scan", "ios": "https://dc.lft.to/lastmile_qr_scan"}, "fusion_lon": 0.0, "lat": 38.91538583333333, "bike_id": "8fd851130bcffc2b93ba8c9966371824", "type": "electric_scooter", "is_reserved": 0, "lon": -77.03206666666667}, {"fusion_lat": 0.0, "name": "b8844a5bb58a53e69f18b078caf464d2", "is_disabled": 0, "rental_uris": {"android": "https://dc.lft.to/lastmile_qr_scan", "ios": "https://dc.lft.to/lastmile_qr_scan"}, "fusion_lon": 0.0, "lat": 38.95952783333333, "bike_id": "b8844a5bb58a53e69f18b078caf464d2", "type": "electric_scooter", "is_reserved": 0, "lon": -77.00898066666667}, {"fusion_lat": 0.0, "name": "ede7a751a1fa4419ba880ccf46d049c3", "is_disabled": 0, "rental_uris": {"android": "https://dc.lft.to/lastmile_qr_scan", "ios": "https://dc.lft.to/lastmile_qr_scan"}, "fusion_lon": 0.0, "lat": 38.94199116666667, "bike_id": "ede7a751a1fa4419ba880ccf46d049c3", "type": "electric_scooter", "is_reserved": 0, "lon": -77.02596016666666}, {"fusion_lat": 0.0, "name": "8b735a341c51cf042b18f246a397d2e0", "is_disabled": 0, "rental_uris": {"android": "https://dc.lft.to/lastmile_qr_scan", "ios": "https://dc.lft.to/lastmile_qr_scan"}, "fusion_lon": 0.0, "lat": 38.91797366666667, "bike_id": "8b735a341c51cf042b18f246a397d2e0", "type": "electric_scooter", "is_reserved": 0, "lon": -77.0343845}, {"fusion_lat": 0.0, "name": "a77fbad975c4238d14663739cef6703b", "is_disabled": 0, "rental_uris": {"android": "https://dc.lft.to/lastmile_qr_scan", "ios": "https://dc.lft.to/lastmile_qr_scan"}, "fusion_lon": 0.0, "lat": 38.9186275, "bike_id": "a77fbad975c4238d14663739cef6703b", "type": "electric_scooter", "is_reserved": 0, "lon": -77.04147933333333}, {"fusion_lat": 0.0, "name": "44d657b1840812ca6778889db48d8711", "is_disabled": 0, "rental_uris": {"android": "https://dc.lft.to/lastmile_qr_scan", "ios": "https://dc.lft.to/lastmile_qr_scan"}, "fusion_lon": 0.0, "lat": 38.94953783333333, "bike_id": "44d657b1840812ca6778889db48d8711", "type": "electric_scooter", "is_reserved": 0, "lon": -77.02310933333334}, {"fusion_lat": 0.0, "name": "c796067dfc32d096dde6fb607e655bc8", "is_disabled": 0, "rental_uris": {"android": "https://dc.lft.to/lastmile_qr_scan", "ios": "https://dc.lft.to/lastmile_qr_scan"}, "fusion_lon": 0.0, "lat": 38.901987, "bike_id": "c796067dfc32d096dde6fb607e655bc8", "type": "electric_scooter", "is_reserved": 0, "lon": -77.022082}, {"fusion_lat": 0.0, "name": "4064128e8f5a01b552535961b7156004", "is_disabled": 0, "rental_uris": {"android": "https://dc.lft.to/lastmile_qr_scan", "ios": "https://dc.lft.to/lastmile_qr_scan"}, "fusion_lon": 0.0, "lat": 38.962341333333335, "bike_id": "4064128e8f5a01b552535961b7156004", "type": "electric_bike", "is_reserved": 0, "lon": -76.92758183333333}, {"fusion_lat": 0.0, "name": "49d9dc7a65dccb53612cd4f8289d9133", "is_disabled": 0, "rental_uris": {"android": "https://dc.lft.to/lastmile_qr_scan", "ios": "https://dc.lft.to/lastmile_qr_scan"}, "fusion_lon": 0.0, "lat": 38.90629533333333, "bike_id": "49d9dc7a65dccb53612cd4f8289d9133", "type": "electric_scooter", "is_reserved": 0, "lon": -77.03314433333334}, {"fusion_lat": 0.0, "name": "3af39174b2f694b31f7287308dc26765", "is_disabled": 0, "rental_uris": {"android": "https://dc.lft.to/lastmile_qr_scan", "ios": "https://dc.lft.to/lastmile_qr_scan"}, "fusion_lon": 0.0, "lat": 38.866809333333336, "bike_id": "3af39174b2f694b31f7287308dc26765", "type": "electric_bike", "is_reserved": 0, "lon": -76.9823865}, {"fusion_lat": 0.0, "name": "2c3d86985e00207f299e3ca6f9897d4a", "is_disabled": 0, "rental_uris": {"android": "https://dc.lft.to/lastmile_qr_scan", "ios": "https://dc.lft.to/lastmile_qr_scan"}, "fusion_lon": 0.0, "lat": 38.909572833333335, "bike_id": "2c3d86985e00207f299e3ca6f9897d4a", "type": "electric_scooter", "is_reserved": 0, "lon": -77.01744483333333}, {"fusion_lat": 0.0, "name": "f1b155becf281d547434ba1488c70f99", "is_disabled": 0, "rental_uris": {"android": "https://dc.lft.to/lastmile_qr_scan", "ios": "https://dc.lft.to/lastmile_qr_scan"}, "fusion_lon": 0.0, "lat": 38.879487166666664, "bike_id": "f1b155becf281d547434ba1488c70f99", "type": "electric_scooter", "is_reserved": 0, "lon": -77.00832833333334}, {"fusion_lat": 0.0, "name": "2aace8ec4d4a2e76537852fc00a950db", "is_disabled": 0, "rental_uris": {"android": "https://dc.lft.to/lastmile_qr_scan", "ios": "https://dc.lft.to/lastmile_qr_scan"}, "fusion_lon": 0.0, "lat": 38.92696083333333, "bike_id": "2aace8ec4d4a2e76537852fc00a950db", "type": "electric_scooter", "is_reserved": 0, "lon": -77.03636866666666}, {"fusion_lat": 0.0, "name": "d7df636267eeaf6255a6768784bc268a", "is_disabled": 0, "rental_uris": {"android": "https://dc.lft.to/lastmile_qr_scan", "ios": "https://dc.lft.to/lastmile_qr_scan"}, "fusion_lon": 0.0, "lat": 38.92890666666667, "bike_id": "d7df636267eeaf6255a6768784bc268a", "type": "electric_scooter", "is_reserved": 0, "lon": -77.03293066666667}, {"fusion_lat": 0.0, "name": "1b2f1ab66a3029d0e2479cbd4c19bbf4", "is_disabled": 0, "rental_uris": {"android": "https://dc.lft.to/lastmile_qr_scan", "ios": "https://dc.lft.to/lastmile_qr_scan"}, "fusion_lon": 0.0, "lat": 38.91682466666666, "bike_id": "1b2f1ab66a3029d0e2479cbd4c19bbf4", "type": "electric_scooter", "is_reserved": 0, "lon": -77.041418}, {"fusion_lat": 0.0, "name": "9f5bad8af5f23c5d6b023c69ae209572", "is_disabled": 0, "rental_uris": {"android": "https://dc.lft.to/lastmile_qr_scan", "ios": "https://dc.lft.to/lastmile_qr_scan"}, "fusion_lon": 0.0, "lat": 38.956656333333335, "bike_id": "9f5bad8af5f23c5d6b023c69ae209572", "type": "electric_bike", "is_reserved": 0, "lon": -77.01125883333333}, {"fusion_lat": 0.0, "name": "e91c28fbf4823e325bd0c5d6d5cf724c", "is_disabled": 0, "rental_uris": {"android": "https://dc.lft.to/lastmile_qr_scan", "ios": "https://dc.lft.to/lastmile_qr_scan"}, "fusion_lon": 0.0, "lat": 38.9242115, "bike_id": "e91c28fbf4823e325bd0c5d6d5cf724c", "type": "electric_scooter", "is_reserved": 0, "lon": -77.022669}, {"fusion_lat": 0.0, "name": "b821d432562e96826744653e32528082", "is_disabled": 0, "rental_uris": {"android": "https://dc.lft.to/lastmile_qr_scan", "ios": "https://dc.lft.to/lastmile_qr_scan"}, "fusion_lon": 0.0, "lat": 38.917118, "bike_id": "b821d432562e96826744653e32528082", "type": "electric_scooter", "is_reserved": 0, "lon": -77.03475583333334}, {"fusion_lat": 0.0, "name": "d5d99bb5134a5331976e6d7396081c0c", "is_disabled": 0, "rental_uris": {"android": "https://dc.lft.to/lastmile_qr_scan", "ios": "https://dc.lft.to/lastmile_qr_scan"}, "fusion_lon": 0.0, "lat": 38.95686083333333, "bike_id": "d5d99bb5134a5331976e6d7396081c0c", "type": "electric_scooter", "is_reserved": 0, "lon": -77.03245266666667}, {"fusion_lat": 0.0, "name": "eb5578e03bf929fc7b29cdc2386640d6", "is_disabled": 0, "rental_uris": {"android": "https://dc.lft.to/lastmile_qr_scan", "ios": "https://dc.lft.to/lastmile_qr_scan"}, "fusion_lon": 0.0, "lat": 38.9027775, "bike_id": "eb5578e03bf929fc7b29cdc2386640d6", "type": "electric_scooter", "is_reserved": 0, "lon": -77.02275666666667}, {"fusion_lat": 0.0, "name": "2642163e854a82c0044a6a0ebc532e5b", "is_disabled": 0, "rental_uris": {"android": "https://dc.lft.to/lastmile_qr_scan", "ios": "https://dc.lft.to/lastmile_qr_scan"}, "fusion_lon": 0.0, "lat": 38.919741333333334, "bike_id": "2642163e854a82c0044a6a0ebc532e5b", "type": "electric_scooter", "is_reserved": 0, "lon": -77.0709975}, {"fusion_lat": 0.0, "name": "66282876d6f75c7ba386880acb8dfc65", "is_disabled": 0, "rental_uris": {"android": "https://dc.lft.to/lastmile_qr_scan", "ios": "https://dc.lft.to/lastmile_qr_scan"}, "fusion_lon": 0.0, "lat": 38.90527733333333, "bike_id": "66282876d6f75c7ba386880acb8dfc65", "type": "electric_scooter", "is_reserved": 0, "lon": -77.0567875}, {"fusion_lat": 0.0, "name": "cce0262e4fb897608921506f25b4fc9d", "is_disabled": 0, "rental_uris": {"android": "https://dc.lft.to/lastmile_qr_scan", "ios": "https://dc.lft.to/lastmile_qr_scan"}, "fusion_lon": 0.0, "lat": 38.93701383333333, "bike_id": "cce0262e4fb897608921506f25b4fc9d", "type": "electric_scooter", "is_reserved": 0, "lon": -77.06104166666667}, {"fusion_lat": 0.0, "name": "2b0b3405b8acedea7b96400122a27b4e", "is_disabled": 0, "rental_uris": {"android": "https://dc.lft.to/lastmile_qr_scan", "ios": "https://dc.lft.to/lastmile_qr_scan"}, "fusion_lon": 0.0, "lat": 38.91819816666667, "bike_id": "2b0b3405b8acedea7b96400122a27b4e", "type": "electric_scooter", "is_reserved": 0, "lon": -77.04515766666667}, {"fusion_lat": 0.0, "name": "63da8c30ae9a8a280ac4e86d8744f3f0", "is_disabled": 0, "rental_uris": {"android": "https://dc.lft.to/lastmile_qr_scan", "ios": "https://dc.lft.to/lastmile_qr_scan"}, "fusion_lon": 0.0, "lat": 38.8851035, "bike_id": "63da8c30ae9a8a280ac4e86d8744f3f0", "type": "electric_scooter", "is_reserved": 0, "lon": -77.01117266666667}, {"fusion_lat": 0.0, "name": "833b4d333808c5b99f1ba0b934ef76d7", "is_disabled": 0, "rental_uris": {"android": "https://dc.lft.to/lastmile_qr_scan", "ios": "https://dc.lft.to/lastmile_qr_scan"}, "fusion_lon": 0.0, "lat": 38.90867733333333, "bike_id": "833b4d333808c5b99f1ba0b934ef76d7", "type": "electric_scooter", "is_reserved": 0, "lon": -77.04872583333334}, {"fusion_lat": 0.0, "name": "69eb79ae20c3771bf0b73ff77e45fcf5", "is_disabled": 0, "rental_uris": {"android": "https://dc.lft.to/lastmile_qr_scan", "ios": "https://dc.lft.to/lastmile_qr_scan"}, "fusion_lon": 0.0, "lat": 38.78268883333333, "bike_id": "69eb79ae20c3771bf0b73ff77e45fcf5", "type": "electric_bike", "is_reserved": 0, "lon": -77.01613583333334}, {"fusion_lat": 0.0, "name": "cf07ec83a8a810393d72b1c8123ef24f", "is_disabled": 0, "rental_uris": {"android": "https://dc.lft.to/lastmile_qr_scan", "ios": "https://dc.lft.to/lastmile_qr_scan"}, "fusion_lon": 0.0, "lat": 38.93962, "bike_id": "cf07ec83a8a810393d72b1c8123ef24f", "type": "electric_scooter", "is_reserved": 0, "lon": -77.03289166666667}, {"fusion_lat": 0.0, "name": "bd882cd7cdd1794d1fea3f6b2d6fd34b", "is_disabled": 0, "rental_uris": {"android": "https://dc.lft.to/lastmile_qr_scan", "ios": "https://dc.lft.to/lastmile_qr_scan"}, "fusion_lon": 0.0, "lat": 38.931764, "bike_id": "bd882cd7cdd1794d1fea3f6b2d6fd34b", "type": "electric_scooter", "is_reserved": 0, "lon": -77.037923}, {"fusion_lat": 0.0, "name": "de6bd214965399a1a3295f8992438012", "is_disabled": 0, "rental_uris": {"android": "https://dc.lft.to/lastmile_qr_scan", "ios": "https://dc.lft.to/lastmile_qr_scan"}, "fusion_lon": 0.0, "lat": 38.88511483333333, "bike_id": "de6bd214965399a1a3295f8992438012", "type": "electric_scooter", "is_reserved": 0, "lon": -76.9978095}, {"fusion_lat": 0.0, "name": "d31e9ff650ad40d95aa260ecf90b4bcd", "is_disabled": 0, "rental_uris": {"android": "https://dc.lft.to/lastmile_qr_scan", "ios": "https://dc.lft.to/lastmile_qr_scan"}, "fusion_lon": 0.0, "lat": 38.898174, "bike_id": "d31e9ff650ad40d95aa260ecf90b4bcd", "type": "electric_scooter", "is_reserved": 0, "lon": -77.02707483333333}, {"fusion_lat": 0.0, "name": "e1f6d370c4d37e462beea5644dcaf888", "is_disabled": 0, "rental_uris": {"android": "https://dc.lft.to/lastmile_qr_scan", "ios": "https://dc.lft.to/lastmile_qr_scan"}, "fusion_lon": 0.0, "lat": 38.964826333333335, "bike_id": "e1f6d370c4d37e462beea5644dcaf888", "type": "electric_bike", "is_reserved": 0, "lon": -77.10727016666667}, {"fusion_lat": 0.0, "name": "418fa76da88e629f8d6bbfacf372676a", "is_disabled": 0, "rental_uris": {"android": "https://dc.lft.to/lastmile_qr_scan", "ios": "https://dc.lft.to/lastmile_qr_scan"}, "fusion_lon": 0.0, "lat": 38.92907266666667, "bike_id": "418fa76da88e629f8d6bbfacf372676a", "type": "electric_scooter", "is_reserved": 0, "lon": -77.0214165}, {"fusion_lat": 0.0, "name": "10202e817ce031f9a3d100d40981ea45", "is_disabled": 0, "rental_uris": {"android": "https://dc.lft.to/lastmile_qr_scan", "ios": "https://dc.lft.to/lastmile_qr_scan"}, "fusion_lon": 0.0, "lat": 38.89689583333333, "bike_id": "10202e817ce031f9a3d100d40981ea45", "type": "electric_scooter", "is_reserved": 0, "lon": -77.04346783333334}, {"fusion_lat": 0.0, "name": "d9a5609745c75d93a3019e1dcca0f79e", "is_disabled": 0, "rental_uris": {"android": "https://dc.lft.to/lastmile_qr_scan", "ios": "https://dc.lft.to/lastmile_qr_scan"}, "fusion_lon": 0.0, "lat": 38.900354, "bike_id": "d9a5609745c75d93a3019e1dcca0f79e", "type": "electric_scooter", "is_reserved": 0, "lon": -77.03522916666667}, {"fusion_lat": 0.0, "name": "3a5b7d89327d43073314941487bcd5bc", "is_disabled": 0, "rental_uris": {"android": "https://dc.lft.to/lastmile_qr_scan", "ios": "https://dc.lft.to/lastmile_qr_scan"}, "fusion_lon": 0.0, "lat": 38.91436616666667, "bike_id": "3a5b7d89327d43073314941487bcd5bc", "type": "electric_scooter", "is_reserved": 0, "lon": -76.99355183333333}, {"fusion_lat": 0.0, "name": "21de322080ceb7a7efdec4acf91de04f", "is_disabled": 0, "rental_uris": {"android": "https://dc.lft.to/lastmile_qr_scan", "ios": "https://dc.lft.to/lastmile_qr_scan"}, "fusion_lon": 0.0, "lat": 38.88609016666667, "bike_id": "21de322080ceb7a7efdec4acf91de04f", "type": "electric_scooter", "is_reserved": 0, "lon": -77.01251616666667}, {"fusion_lat": 0.0, "name": "47cd58f29140ae9e6e70c40026879326", "is_disabled": 0, "rental_uris": {"android": "https://dc.lft.to/lastmile_qr_scan", "ios": "https://dc.lft.to/lastmile_qr_scan"}, "fusion_lon": 0.0, "lat": 38.93497583333333, "bike_id": "47cd58f29140ae9e6e70c40026879326", "type": "electric_scooter", "is_reserved": 0, "lon": -77.03615933333333}, {"fusion_lat": 0.0, "name": "5118ce7d1d49eae4e1bb481006ca994e", "is_disabled": 0, "rental_uris": {"android": "https://dc.lft.to/lastmile_qr_scan", "ios": "https://dc.lft.to/lastmile_qr_scan"}, "fusion_lon": 0.0, "lat": 38.892209333333334, "bike_id": "5118ce7d1d49eae4e1bb481006ca994e", "type": "electric_scooter", "is_reserved": 0, "lon": -77.03218416666667}, {"fusion_lat": 0.0, "name": "a49206fa3eadf51235d08b66ce98c142", "is_disabled": 0, "rental_uris": {"android": "https://dc.lft.to/lastmile_qr_scan", "ios": "https://dc.lft.to/lastmile_qr_scan"}, "fusion_lon": 0.0, "lat": 38.91661833333333, "bike_id": "a49206fa3eadf51235d08b66ce98c142", "type": "electric_scooter", "is_reserved": 0, "lon": -77.028157}, {"fusion_lat": 0.0, "name": "81c5b1f3d8522b90ad9a32c67b37fd20", "is_disabled": 0, "rental_uris": {"android": "https://dc.lft.to/lastmile_qr_scan", "ios": "https://dc.lft.to/lastmile_qr_scan"}, "fusion_lon": 0.0, "lat": 38.928717, "bike_id": "81c5b1f3d8522b90ad9a32c67b37fd20", "type": "electric_scooter", "is_reserved": 0, "lon": -77.013547}, {"fusion_lat": 0.0, "name": "30570c02370db027e0002589d9ced546", "is_disabled": 0, "rental_uris": {"android": "https://dc.lft.to/lastmile_qr_scan", "ios": "https://dc.lft.to/lastmile_qr_scan"}, "fusion_lon": 0.0, "lat": 38.9007935, "bike_id": "30570c02370db027e0002589d9ced546", "type": "electric_scooter", "is_reserved": 0, "lon": -77.05004866666667}, {"fusion_lat": 0.0, "name": "b42e4ddde4bfa885d6abf2bbd8c0fa79", "is_disabled": 0, "rental_uris": {"android": "https://dc.lft.to/lastmile_qr_scan", "ios": "https://dc.lft.to/lastmile_qr_scan"}, "fusion_lon": 0.0, "lat": 38.9019685, "bike_id": "b42e4ddde4bfa885d6abf2bbd8c0fa79", "type": "electric_scooter", "is_reserved": 0, "lon": -76.978576}, {"fusion_lat": 0.0, "name": "f30e5f86112dc53e931c2a3a1d91f50e", "is_disabled": 0, "rental_uris": {"android": "https://dc.lft.to/lastmile_qr_scan", "ios": "https://dc.lft.to/lastmile_qr_scan"}, "fusion_lon": 0.0, "lat": 38.916295166666664, "bike_id": "f30e5f86112dc53e931c2a3a1d91f50e", "type": "electric_scooter", "is_reserved": 0, "lon": -77.031321}, {"fusion_lat": 0.0, "name": "8c7554c5d13664154308ea65e78b86f4", "is_disabled": 0, "rental_uris": {"android": "https://dc.lft.to/lastmile_qr_scan", "ios": "https://dc.lft.to/lastmile_qr_scan"}, "fusion_lon": 0.0, "lat": 38.886366, "bike_id": "8c7554c5d13664154308ea65e78b86f4", "type": "electric_scooter", "is_reserved": 0, "lon": -77.01947383333334}, {"fusion_lat": 0.0, "name": "348945e44acaca3cc86bf14138adbbda", "is_disabled": 0, "rental_uris": {"android": "https://dc.lft.to/lastmile_qr_scan", "ios": "https://dc.lft.to/lastmile_qr_scan"}, "fusion_lon": 0.0, "lat": 38.90214983333333, "bike_id": "348945e44acaca3cc86bf14138adbbda", "type": "electric_scooter", "is_reserved": 0, "lon": -77.02269966666667}, {"fusion_lat": 0.0, "name": "ea3035e375ecdeeeaa2f0a2f54471cf9", "is_disabled": 0, "rental_uris": {"android": "https://dc.lft.to/lastmile_qr_scan", "ios": "https://dc.lft.to/lastmile_qr_scan"}, "fusion_lon": 0.0, "lat": 38.917049166666665, "bike_id": "ea3035e375ecdeeeaa2f0a2f54471cf9", "type": "electric_scooter", "is_reserved": 0, "lon": -77.02408366666667}, {"fusion_lat": 0.0, "name": "efc96fbb606703ed276b5b7738f02ddc", "is_disabled": 0, "rental_uris": {"android": "https://dc.lft.to/lastmile_qr_scan", "ios": "https://dc.lft.to/lastmile_qr_scan"}, "fusion_lon": 0.0, "lat": 38.933156833333335, "bike_id": "efc96fbb606703ed276b5b7738f02ddc", "type": "electric_scooter", "is_reserved": 0, "lon": -77.0275375}, {"fusion_lat": 0.0, "name": "16c098453d211db81d3df2d2f2345256", "is_disabled": 0, "rental_uris": {"android": "https://dc.lft.to/lastmile_qr_scan", "ios": "https://dc.lft.to/lastmile_qr_scan"}, "fusion_lon": 0.0, "lat": 38.91027, "bike_id": "16c098453d211db81d3df2d2f2345256", "type": "electric_scooter", "is_reserved": 0, "lon": -77.0075895}, {"fusion_lat": 0.0, "name": "8c86b2687e92e0dafdeab24a6570698b", "is_disabled": 0, "rental_uris": {"android": "https://dc.lft.to/lastmile_qr_scan", "ios": "https://dc.lft.to/lastmile_qr_scan"}, "fusion_lon": 0.0, "lat": 38.94020033333334, "bike_id": "8c86b2687e92e0dafdeab24a6570698b", "type": "electric_scooter", "is_reserved": 0, "lon": -77.02762}, {"fusion_lat": 0.0, "name": "ce0a77e41ed2d26c221821de2c1a681a", "is_disabled": 0, "rental_uris": {"android": "https://dc.lft.to/lastmile_qr_scan", "ios": "https://dc.lft.to/lastmile_qr_scan"}, "fusion_lon": 0.0, "lat": 38.8763855, "bike_id": "ce0a77e41ed2d26c221821de2c1a681a", "type": "electric_scooter", "is_reserved": 0, "lon": -77.01644433333334}, {"fusion_lat": 0.0, "name": "7a9ec0c1e6b00c92bbb039cb8fe60061", "is_disabled": 0, "rental_uris": {"android": "https://dc.lft.to/lastmile_qr_scan", "ios": "https://dc.lft.to/lastmile_qr_scan"}, "fusion_lon": 0.0, "lat": 38.90957566666667, "bike_id": "7a9ec0c1e6b00c92bbb039cb8fe60061", "type": "electric_scooter", "is_reserved": 0, "lon": -77.04459916666667}, {"fusion_lat": 0.0, "name": "a03a0de0d5259396d83dcbde76f5aab1", "is_disabled": 0, "rental_uris": {"android": "https://dc.lft.to/lastmile_qr_scan", "ios": "https://dc.lft.to/lastmile_qr_scan"}, "fusion_lon": 0.0, "lat": 38.8922025, "bike_id": "a03a0de0d5259396d83dcbde76f5aab1", "type": "electric_scooter", "is_reserved": 0, "lon": -77.04376016666667}, {"fusion_lat": 0.0, "name": "50b141da35ef850597ae7762cae839bc", "is_disabled": 0, "rental_uris": {"android": "https://dc.lft.to/lastmile_qr_scan", "ios": "https://dc.lft.to/lastmile_qr_scan"}, "fusion_lon": 0.0, "lat": 38.922343166666664, "bike_id": "50b141da35ef850597ae7762cae839bc", "type": "electric_scooter", "is_reserved": 0, "lon": -77.035186}, {"fusion_lat": 0.0, "name": "b1925a16ca88a8167853138a884f55d6", "is_disabled": 0, "rental_uris": {"android": "https://dc.lft.to/lastmile_qr_scan", "ios": "https://dc.lft.to/lastmile_qr_scan"}, "fusion_lon": 0.0, "lat": 38.9260985, "bike_id": "b1925a16ca88a8167853138a884f55d6", "type": "electric_scooter", "is_reserved": 0, "lon": -77.0221795}, {"fusion_lat": 0.0, "name": "bb4d8c718ab83bd7404a3cf4e84ec73c", "is_disabled": 0, "rental_uris": {"android": "https://dc.lft.to/lastmile_qr_scan", "ios": "https://dc.lft.to/lastmile_qr_scan"}, "fusion_lon": 0.0, "lat": 38.91322233333333, "bike_id": "bb4d8c718ab83bd7404a3cf4e84ec73c", "type": "electric_scooter", "is_reserved": 0, "lon": -77.0470895}, {"fusion_lat": 0.0, "name": "f0b5b05e4cbf0f41fa59fe18cd6f8662", "is_disabled": 0, "rental_uris": {"android": "https://dc.lft.to/lastmile_qr_scan", "ios": "https://dc.lft.to/lastmile_qr_scan"}, "fusion_lon": 0.0, "lat": 38.887558166666665, "bike_id": "f0b5b05e4cbf0f41fa59fe18cd6f8662", "type": "electric_scooter", "is_reserved": 0, "lon": -77.00163366666666}, {"fusion_lat": 0.0, "name": "e5a162a6e3039ef4dd93160167853481", "is_disabled": 0, "rental_uris": {"android": "https://dc.lft.to/lastmile_qr_scan", "ios": "https://dc.lft.to/lastmile_qr_scan"}, "fusion_lon": 0.0, "lat": 38.911194333333334, "bike_id": "e5a162a6e3039ef4dd93160167853481", "type": "electric_scooter", "is_reserved": 0, "lon": -77.03433683333333}, {"fusion_lat": 0.0, "name": "515761c206f267e61dd6ca184e7824d0", "is_disabled": 0, "rental_uris": {"android": "https://dc.lft.to/lastmile_qr_scan", "ios": "https://dc.lft.to/lastmile_qr_scan"}, "fusion_lon": 0.0, "lat": 38.920793333333336, "bike_id": "515761c206f267e61dd6ca184e7824d0", "type": "electric_scooter", "is_reserved": 0, "lon": -77.02306516666667}, {"fusion_lat": 0.0, "name": "56da8422e7fae98c74802ee311f803ea", "is_disabled": 0, "rental_uris": {"android": "https://dc.lft.to/lastmile_qr_scan", "ios": "https://dc.lft.to/lastmile_qr_scan"}, "fusion_lon": 0.0, "lat": 38.9171575, "bike_id": "56da8422e7fae98c74802ee311f803ea", "type": "electric_scooter", "is_reserved": 0, "lon": -76.9687135}, {"fusion_lat": 0.0, "name": "c19a5657528d0c2e3cad1ac6585197fc", "is_disabled": 0, "rental_uris": {"android": "https://dc.lft.to/lastmile_qr_scan", "ios": "https://dc.lft.to/lastmile_qr_scan"}, "fusion_lon": 0.0, "lat": 38.90552983333333, "bike_id": "c19a5657528d0c2e3cad1ac6585197fc", "type": "electric_scooter", "is_reserved": 0, "lon": -77.065144}, {"fusion_lat": 0.0, "name": "e3537d0ebca2273765fe3ba008a460e5", "is_disabled": 0, "rental_uris": {"android": "https://dc.lft.to/lastmile_qr_scan", "ios": "https://dc.lft.to/lastmile_qr_scan"}, "fusion_lon": 0.0, "lat": 38.922500166666666, "bike_id": "e3537d0ebca2273765fe3ba008a460e5", "type": "electric_scooter", "is_reserved": 0, "lon": -77.07447483333333}, {"fusion_lat": 0.0, "name": "917675c41baf6fcd8f309a71401406cd", "is_disabled": 0, "rental_uris": {"android": "https://dc.lft.to/lastmile_qr_scan", "ios": "https://dc.lft.to/lastmile_qr_scan"}, "fusion_lon": 0.0, "lat": 38.91495183333333, "bike_id": "917675c41baf6fcd8f309a71401406cd", "type": "electric_scooter", "is_reserved": 0, "lon": -76.983604}, {"fusion_lat": 0.0, "name": "995767e3c1c146c9f57b166716a48c0b", "is_disabled": 0, "rental_uris": {"android": "https://dc.lft.to/lastmile_qr_scan", "ios": "https://dc.lft.to/lastmile_qr_scan"}, "fusion_lon": 0.0, "lat": 38.9055705, "bike_id": "995767e3c1c146c9f57b166716a48c0b", "type": "electric_scooter", "is_reserved": 0, "lon": -76.99791666666667},