{"data": {"bikes": [{"lat": 38.94840816666667, "fusion_lat": 0.0, "type": "electric_scooter", "bike_id": "e9b91d0a34e4968dd1794575383333a7", "is_reserved": 0, "rental_uris": {"ios": "https://dc.lft.to/lastmile_qr_scan", "android": "https://dc.lft.to/lastmile_qr_scan"}, "is_disabled": 0, "lon": -77.02545166666667, "name": "e9b91d0a34e4968dd1794575383333a7", "fusion_lon": 0.0}, {"lat": 38.899771333333334, "fusion_lat": 0.0, "type": "electric_scooter", "bike_id": "8849b61d4bc5c5fcf9db43e5fe8e94e4", "is_reserved": 0, "rental_uris": {"ios": "https://dc.lft.to/lastmile_qr_scan", "android": "https://dc.lft.to/lastmile_qr_scan"}, "is_disabled": 0, "lon": -77.0465365, "name": "8849b61d4bc5c5fcf9db43e5fe8e94e4", "fusion_lon": 0.0}, {"lat": 38.89224466666667, "fusion_lat": 0.0, "type": "electric_scooter", "bike_id": "c36ae704558b64a0e5ab70d37be74c48", "is_reserved": 0, "rental_uris": {"ios": "https://dc.lft.to/lastmile_qr_scan", "android": "https://dc.lft.to/lastmile_qr_scan"}, "is_disabled": 0, "lon": -77.02420466666666, "name": "c36ae704558b64a0e5ab70d37be74c48", "fusion_lon": 0.0}, {"lat": 38.89978833333333, "fusion_lat": 0.0, "type": "electric_scooter", "bike_id": "9632f2e55640b4feb3f4054e70b93c57", "is_reserved": 0, "rental_uris": {"ios": "https://dc.lft.to/lastmile_qr_scan", "android": "https://dc.lft.to/lastmile_qr_scan"}, "is_disabled": 0, "lon": -77.00678766666667, "name": "9632f2e55640b4feb3f4054e70b93c57", "fusion_lon": 0.0}, {"lat": 38.91570983333333, "fusion_lat": 0.0, "type": "electric_scooter", "bike_id": "581c877b95f5f9756db0064b9c3f5d40", "is_reserved": 0, "rental_uris": {"ios": "https://dc.lft.to/lastmile_qr_scan", "android": "https://dc.lft.to/lastmile_qr_scan"}, "is_disabled": 0, "lon": -77.02289133333333, "name": "581c877b95f5f9756db0064b9c3f5d40", "fusion_lon": 0.0}, {"lat": 38.93426216666667, "fusion_lat": 0.0, "type": "electric_scooter", "bike_id": "24794151000312cf57c0578573d08e27", "is_reserved": 0, "rental_uris": {"ios": "https://dc.lft.to/lastmile_qr_scan", "android": "https://dc.lft.to/lastmile_qr_scan"}, "is_disabled": 0, "lon": -77.0391135, "name": "24794151000312cf57c0578573d08e27", "fusion_lon": 0.0}, {"lat": 38.88233316666667, "fusion_lat": 0.0, "type": "electric_scooter", "bike_id": "a9cde4eb686d10aa76b281a439a7151b", "is_reserved": 0, "rental_uris": {"ios": "https://dc.lft.to/lastmile_qr_scan", "android": "https://dc.lft.to/lastmile_qr_scan"}, "is_disabled": 0, "lon": -77.029513, "name": "a9cde4eb686d10aa76b281a439a7151b", "fusion_lon": 0.0}, {"lat": 38.90154483333333, "fusion_lat": 0.0, "type": "electric_scooter", "bike_id": "a1de7e6c451505356bb1075c9196f7e0", "is_reserved": 0, "rental_uris": {"ios": "https://dc.lft.to/lastmile_qr_scan", "android": "https://dc.lft.to/lastmile_qr_scan"}, "is_disabled": 0, "lon": -76.92138683333333, "name": "a1de7e6c451505356bb1075c9196f7e0", "fusion_lon": 0.0}, {"lat": 38.903354, "fusion_lat": 0.0, "type": "electric_scooter", "bike_id": "17b4264d8977491f95914fdacc681064", "is_reserved": 0, "rental_uris": {"ios": "https://dc.lft.to/lastmile_qr_scan", "android": "https://dc.lft.to/lastmile_qr_scan"}, "is_disabled": 0, "lon": -76.9758435, "name": "17b4264d8977491f95914fdacc681064", "fusion_lon": 0.0}, {"lat": 38.85424066666667, "fusion_lat": 0.0, "type": "electric_bike", "bike_id": "a3ae01538fc5bb7449b91163b8a959aa", "is_reserved": 0, "rental_uris": {"ios": "https://dc.lft.to/lastmile_qr_scan", "android": "https://dc.lft.to/lastmile_qr_scan"}, "is_disabled": 0, "lon": -77.12079633333333, "name": "a3ae01538fc5bb7449b91163b8a959aa", "fusion_lon": 0.0}, {"lat": 38.86242583333333, "fusion_lat": 0.0, "type": "electric_scooter", "bike_id": "89d61d9fd4c040a2a602a84b01548a78", "is_reserved": 0, "rental_uris": {"ios": "https://dc.lft.to/lastmile_qr_scan", "android": "https://dc.lft.to/lastmile_qr_scan"}, "is_disabled": 0, "lon": -76.994948, "name": "89d61d9fd4c040a2a602a84b01548a78", "fusion_lon": 0.0}, {"lat": 38.91450183333333, "fusion_lat": 0.0, "type": "electric_scooter", "bike_id": "93c4c375eb7dd4fe618d95743060121c", "is_reserved": 0, "rental_uris": {"ios": "https://dc.lft.to/lastmile_qr_scan", "android": "https://dc.lft.to/lastmile_qr_scan"}, "is_disabled": 0, "lon": -77.02185283333333, "name": "93c4c375eb7dd4fe618d95743060121c", "fusion_lon": 0.0}, {"lat": 38.92332433333333, "fusion_lat": 0.0, "type": "electric_scooter", "bike_id": "732cbf7518e0beea5f809a31ca30d414", "is_reserved": 0, "rental_uris": {"ios": "https://dc.lft.to/lastmile_qr_scan", "android": "https://dc.lft.to/lastmile_qr_scan"}, "is_disabled": 0, "lon": -77.02333516666667, "name": "732cbf7518e0beea5f809a31ca30d414", "fusion_lon": 0.0}, {"lat": 38.90582583333333, "fusion_lat": 0.0, "type": "electric_scooter", "bike_id": "3ef9f5842a7234bb1fa36b723bc11794", "is_reserved": 0, "rental_uris": {"ios": "https://dc.lft.to/lastmile_qr_scan", "android": "https://dc.lft.to/lastmile_qr_scan"}, "is_disabled": 0, "lon": -77.05112633333333, "name": "3ef9f5842a7234bb1fa36b723bc11794", "fusion_lon": 0.0}, {"lat": 38.90772233333333, "fusion_lat": 0.0, "type": "electric_scooter", "bike_id": "ef3fc2515d16592b6c7e94939f408ce4", "is_reserved": 0, "rental_uris": {"ios": "https://dc.lft.to/lastmile_qr_scan", "android": "https://dc.lft.to/lastmile_qr_scan"}, "is_disabled": 0, "lon": -77.03461183333333, "name": "ef3fc2515d16592b6c7e94939f408ce4", "fusion_lon": 0.0}, {"lat": 38.900029, "fusion_lat": 0.0, "type": "electric_scooter", "bike_id": "b9ed81e9bff2def5bec0f168066d75f4", "is_reserved": 0, "rental_uris": {"ios": "https://dc.lft.to/lastmile_qr_scan", "android": "https://dc.lft.to/lastmile_qr_scan"}, "is_disabled": 0, "lon": -77.02378066666667, "name": "b9ed81e9bff2def5bec0f168066d75f4", "fusion_lon": 0.0}, {"lat": 38.933905, "fusion_lat": 0.0, "type": "electric_scooter", "bike_id": "0aecb695f37751250f0cbcff68f189a2", "is_reserved": 0, "rental_uris": {"ios": "https://dc.lft.to/lastmile_qr_scan", "android": "https://dc.lft.to/lastmile_qr_scan"}, "is_disabled": 0, "lon": -77.03093666666666, "name": "0aecb695f37751250f0cbcff68f189a2", "fusion_lon": 0.0}, {"lat": 38.8968015, "fusion_lat": 0.0, "type": "electric_scooter", "bike_id": "7fb1eb35193fa3f36cad1cc1794d18a8", "is_reserved": 0, "rental_uris": {"ios": "https://dc.lft.to/lastmile_qr_scan", "android": "https://dc.lft.to/lastmile_qr_scan"}, "is_disabled": 0, "lon": -77.03222966666667, "name": "7fb1eb35193fa3f36cad1cc1794d18a8", "fusion_lon": 0.0}, {"lat": 38.902653666666666, "fusion_lat": 0.0, "type": "electric_scooter", "bike_id": "ede0afb62d595a883ae7a9ba5c5df792", "is_reserved": 0, "rental_uris": {"ios": "https://dc.lft.to/lastmile_qr_scan", "android": "https://dc.lft.to/lastmile_qr_scan"}, "is_disabled": 0, "lon": -77.028344, "name": "ede0afb62d595a883ae7a9ba5c5df792", "fusion_lon": 0.0}, {"lat": 38.9305275, "fusion_lat": 0.0, "type": "electric_scooter", "bike_id": "d9bbbb505e71d52fb6e4412573a60f9b", "is_reserved": 0, "rental_uris": {"ios": "https://dc.lft.to/lastmile_qr_scan", "android": "https://dc.lft.to/lastmile_qr_scan"}, "is_disabled": 0, "lon": -77.02358016666666, "name": "d9bbbb505e71d52fb6e4412573a60f9b", "fusion_lon": 0.0}, {"lat": 38.90347166666667, "fusion_lat": 0.0, "type": "electric_scooter", "bike_id": "ac2abb764cf34b7f7f994646aeb6976f", "is_reserved": 0, "rental_uris": {"ios": "https://dc.lft.to/lastmile_qr_scan", "android": "https://dc.lft.to/lastmile_qr_scan"}, "is_disabled": 0, "lon": -77.04485633333333, "name": "ac2abb764cf34b7f7f994646aeb6976f", "fusion_lon": 0.0}, {"lat": 38.909429333333335, "fusion_lat": 0.0, "type": "electric_scooter", "bike_id": "040c43e01c028ea488128bd93d46c8ee", "is_reserved": 0, "rental_uris": {"ios": "https://dc.lft.to/lastmile_qr_scan", "android": "https://dc.lft.to/lastmile_qr_scan"}, "is_disabled": 0, "lon": -77.03179733333333, "name": "040c43e01c028ea488128bd93d46c8ee", "fusion_lon": 0.0}, {"lat": 38.8984165, "fusion_lat": 0.0, "type": "electric_scooter", "bike_id": "a846c510da2d9fca9abcc9b132469829", "is_reserved": 0, "rental_uris": {"ios": "https://dc.lft.to/lastmile_qr_scan", "android": "https://dc.lft.to/lastmile_qr_scan"}, "is_disabled": 0, "lon": -77.03337683333334, "name": "a846c510da2d9fca9abcc9b132469829", "fusion_lon": 0.0}, {"lat": 38.9336055, "fusion_lat": 0.0, "type": "electric_scooter", "bike_id": "03c2e057382d6e4705b9706c3c63e4ee", "is_reserved": 0, "rental_uris": {"ios": "https://dc.lft.to/lastmile_qr_scan", "android": "https://dc.lft.to/lastmile_qr_scan"}, "is_disabled": 0, "lon": -77.08859766666667, "name": "03c2e057382d6e4705b9706c3c63e4ee", "fusion_lon": 0.0}, {"lat": 38.892244166666664, "fusion_lat": 0.0, "type": "electric_scooter", "bike_id": "d2921640b68b26aba62954ff5e68d756", "is_reserved": 0, "rental_uris": {"ios": "https://dc.lft.to/lastmile_qr_scan", "android": "https://dc.lft.to/lastmile_qr_scan"}, "is_disabled": 0, "lon": -77.02799816666666, "name": "d2921640b68b26aba62954ff5e68d756", "fusion_lon": 0.0}, {"lat": 38.91787166666667, "fusion_lat": 0.0, "type": "electric_scooter", "bike_id": "ddaa6224d1e791e39802777ba8f05014", "is_reserved": 0, "rental_uris": {"ios": "https://dc.lft.to/lastmile_qr_scan", "android": "https://dc.lft.to/lastmile_qr_scan"}, "is_disabled": 0, "lon": -77.04186833333333, "name": "ddaa6224d1e791e39802777ba8f05014", "fusion_lon": 0.0}, {"lat": 38.918189, "fusion_lat": 0.0, "type": "electric_scooter", "bike_id": "1ead2cf098450290150259b7cb08b6bc", "is_reserved": 0, "rental_uris": {"ios": "https://dc.lft.to/lastmile_qr_scan", "android": "https://dc.lft.to/lastmile_qr_scan"}, "is_disabled": 0, "lon": -77.02825333333334, "name": "1ead2cf098450290150259b7cb08b6bc", "fusion_lon": 0.0}, {"lat": 38.919386833333334, "fusion_lat": 0.0, "type": "electric_scooter", "bike_id": "6c4c8b5bb216a247a377a0f51caf4196", "is_reserved": 0, "rental_uris": {"ios": "https://dc.lft.to/lastmile_qr_scan", "android": "https://dc.lft.to/lastmile_qr_scan"}, "is_disabled": 0, "lon": -77.045613, "name": "6c4c8b5bb216a247a377a0f51caf4196", "fusion_lon": 0.0}, {"lat": 38.91667283333334, "fusion_lat": 0.0, "type": "electric_scooter", "bike_id": "e0131243ec75a62bfaa0f040f69bdfdb", "is_reserved": 0, "rental_uris": {"ios": "https://dc.lft.to/lastmile_qr_scan", "android": "https://dc.lft.to/lastmile_qr_scan"}, "is_disabled": 0, "lon": -77.04388716666666, "name": "e0131243ec75a62bfaa0f040f69bdfdb", "fusion_lon": 0.0}, {"lat": 38.8779975, "fusion_lat": 0.0, "type": "electric_scooter", "bike_id": "1aa22e48f1399b37f1744e138a984e6c", "is_reserved": 0, "rental_uris": {"ios": "https://dc.lft.to/lastmile_qr_scan", "android": "https://dc.lft.to/lastmile_qr_scan"}, "is_disabled": 0, "lon": -76.9309125, "name": "1aa22e48f1399b37f1744e138a984e6c", "fusion_lon": 0.0}, {"lat": 38.903204333333335, "fusion_lat": 0.0, "type": "electric_scooter", "bike_id": "4b9110d43fd9b5381042997c1e24ea7a", "is_reserved": 0, "rental_uris": {"ios": "https://dc.lft.to/lastmile_qr_scan", "android": "https://dc.lft.to/lastmile_qr_scan"}, "is_disabled": 0, "lon": -77.02131316666667, "name": "4b9110d43fd9b5381042997c1e24ea7a", "fusion_lon": 0.0}, {"lat": 38.925314166666666, "fusion_lat": 0.0, "type": "electric_scooter", "bike_id": "f1abb1aff88ada1510ad0dc7d1c02b97", "is_reserved": 0, "rental_uris": {"ios": "https://dc.lft.to/lastmile_qr_scan", "android": "https://dc.lft.to/lastmile_qr_scan"}, "is_disabled": 0, "lon": -77.02257916666667, "name": "f1abb1aff88ada1510ad0dc7d1c02b97", "fusion_lon": 0.0}, {"lat": 38.9038435, "fusion_lat": 0.0, "type": "electric_scooter", "bike_id": "bbbc0eeeaffe43a2b6e0cf148bfa9d5e", "is_reserved": 0, "rental_uris": {"ios": "https://dc.lft.to/lastmile_qr_scan", "android": "https://dc.lft.to/lastmile_qr_scan"}, "is_disabled": 0, "lon": -77.02913533333333, "name": "bbbc0eeeaffe43a2b6e0cf148bfa9d5e", "fusion_lon": 0.0}, {"lat": 38.925058166666666, "fusion_lat": 0.0, "type": "electric_scooter", "bike_id": "42efc49ad072b257a0b2fae649e48f0e", "is_reserved": 0, "rental_uris": {"ios": "https://dc.lft.to/lastmile_qr_scan", "android": "https://dc.lft.to/lastmile_qr_scan"}, "is_disabled": 0, "lon": -77.02272233333333, "name": "42efc49ad072b257a0b2fae649e48f0e", "fusion_lon": 0.0}, {"lat": 38.89224333333333, "fusion_lat": 0.0, "type": "electric_scooter", "bike_id": "18555f403b4de11d3040d4795ebb4442", "is_reserved": 0, "rental_uris": {"ios": "https://dc.lft.to/lastmile_qr_scan", "android": "https://dc.lft.to/lastmile_qr_scan"}, "is_disabled": 0, "lon": -77.04264533333334, "name": "18555f403b4de11d3040d4795ebb4442", "fusion_lon": 0.0}, {"lat": 38.92129033333333, "fusion_lat": 0.0, "type": "electric_scooter", "bike_id": "d876f3be122ef0dd94e2f28c1cd66940", "is_reserved": 0, "rental_uris": {"ios": "https://dc.lft.to/lastmile_qr_scan", "android": "https://dc.lft.to/lastmile_qr_scan"}, "is_disabled": 0, "lon": -76.99248316666667, "name": "d876f3be122ef0dd94e2f28c1cd66940", "fusion_lon": 0.0}, {"lat": 38.94445916666667, "fusion_lat": 0.0, "type": "electric_scooter", "bike_id": "7104f99f155ce5e473450a4e292a12ce", "is_reserved": 0, "rental_uris": {"ios": "https://dc.lft.to/lastmile_qr_scan", "android": "https://dc.lft.to/lastmile_qr_scan"}, "is_disabled": 0, "lon": -77.063642, "name": "7104f99f155ce5e473450a4e292a12ce", "fusion_lon": 0.0}, {"lat": 38.91197183333333, "fusion_lat": 0.0, "type": "electric_scooter", "bike_id": "4cc553ac70da546c298ea53f092c9492", "is_reserved": 0, "rental_uris": {"ios": "https://dc.lft.to/lastmile_qr_scan", "android": "https://dc.lft.to/lastmile_qr_scan"}, "is_disabled": 0, "lon": -77.04523166666667, "name": "4cc553ac70da546c298ea53f092c9492", "fusion_lon": 0.0}, {"lat": 38.917937, "fusion_lat": 0.0, "type": "electric_scooter", "bike_id": "1b440e6e7cb5f1c08d172b82657556b3", "is_reserved": 0, "rental_uris": {"ios": "https://dc.lft.to/lastmile_qr_scan", "android": "https://dc.lft.to/lastmile_qr_scan"}, "is_disabled": 0, "lon": -77.0421435, "name": "1b440e6e7cb5f1c08d172b82657556b3", "fusion_lon": 0.0}, {"lat": 38.9405095, "fusion_lat": 0.0, "type": "electric_scooter", "bike_id": "f68f53287400b86ec4d69903e0905f1f", "is_reserved": 0, "rental_uris": {"ios": "https://dc.lft.to/lastmile_qr_scan", "android": "https://dc.lft.to/lastmile_qr_scan"}, "is_disabled": 0, "lon": -77.02981483333333, "name": "f68f53287400b86ec4d69903e0905f1f", "fusion_lon": 0.0}, {"lat": 38.90338, "fusion_lat": 0.0, "type": "electric_bike", "bike_id": "a257959c539b3adc2eace3bf9a92c61b", "is_reserved": 0, "rental_uris": {"ios": "https://dc.lft.to/lastmile_qr_scan", "android": "https://dc.lft.to/lastmile_qr_scan"}, "is_disabled": 0, "lon": -77.04041333333333, "name": "a257959c539b3adc2eace3bf9a92c61b", "fusion_lon": 0.0}, {"lat": 38.865181666666665, "fusion_lat": 0.0, "type": "electric_scooter", "bike_id": "9fa146eb62841499a169ac2eb09abc12", "is_reserved": 0, "rental_uris": {"ios": "https://dc.lft.to/lastmile_qr_scan", "android": "https://dc.lft.to/lastmile_qr_scan"}, "is_disabled": 0, "lon": -76.99015583333333, "name": "9fa146eb62841499a169ac2eb09abc12", "fusion_lon": 0.0}, {"lat": 38.900795333333335, "fusion_lat": 0.0, "type": "electric_scooter", "bike_id": "922328fcf6a86c8b2624a70e6253bc6e", "is_reserved": 0, "rental_uris": {"ios": "https://dc.lft.to/lastmile_qr_scan", "android": "https://dc.lft.to/lastmile_qr_scan"}, "is_disabled": 0, "lon": -77.0502705, "name": "922328fcf6a86c8b2624a70e6253bc6e", "fusion_lon": 0.0}, {"lat": 38.915826, "fusion_lat": 0.0, "type": "electric_scooter", "bike_id": "e699fe040063cb70a0c144f58e9227ee", "is_reserved": 0, "rental_uris": {"ios": "https://dc.lft.to/lastmile_qr_scan", "android": "https://dc.lft.to/lastmile_qr_scan"}, "is_disabled": 0, "lon": -77.01234666666667, "name": "e699fe040063cb70a0c144f58e9227ee", "fusion_lon": 0.0}, {"lat": 38.91702166666666, "fusion_lat": 0.0, "type": "electric_scooter", "bike_id": "f23b3dd49fa5fe1a6097a446180495fc", "is_reserved": 0, "rental_uris": {"ios": "https://dc.lft.to/lastmile_qr_scan", "android": "https://dc.lft.to/lastmile_qr_scan"}, "is_disabled": 0, "lon": -77.01054583333334, "name": "f23b3dd49fa5fe1a6097a446180495fc", "fusion_lon": 0.0}, {"lat": 38.89998833333333, "fusion_lat": 0.0, "type": "electric_scooter", "bike_id": "b1c954f83d5cce00a0b6a27d358bdc77", "is_reserved": 0, "rental_uris": {"ios": "https://dc.lft.to/lastmile_qr_scan", "android": "https://dc.lft.to/lastmile_qr_scan"}, "is_disabled": 0, "lon": -77.023293, "name": "b1c954f83d5cce00a0b6a27d358bdc77", "fusion_lon": 0.0}, {"lat": 38.92249366666667, "fusion_lat": 0.0, "type": "electric_scooter", "bike_id": "44e27705d66b34c35f71bf51457e57ff", "is_reserved": 0, "rental_uris": {"ios": "https://dc.lft.to/lastmile_qr_scan", "android": "https://dc.lft.to/lastmile_qr_scan"}, "is_disabled": 0, "lon": -77.02863883333333, "name": "44e27705d66b34c35f71bf51457e57ff", "fusion_lon": 0.0}, {"lat": 38.91051916666667, "fusion_lat": 0.0, "type": "electric_scooter", "bike_id": "ca2a0e30d9fcf9a9eecef154a376113e", "is_reserved": 0, "rental_uris": {"ios": "https://dc.lft.to/lastmile_qr_scan", "android": "https://dc.lft.to/lastmile_qr_scan"}, "is_disabled": 0, "lon": -77.04343316666667, "name": "ca2a0e30d9fcf9a9eecef154a376113e", "fusion_lon": 0.0}, {"lat": 38.90370433333333, "fusion_lat": 0.0, "type": "electric_scooter", "bike_id": "2ba018f83f0bdf185f4c62219ed1ec1f", "is_reserved": 0, "rental_uris": {"ios": "https://dc.lft.to/lastmile_qr_scan", "android": "https://dc.lft.to/lastmile_qr_scan"}, "is_disabled": 0, "lon": -77.05302766666667, "name": "2ba018f83f0bdf185f4c62219ed1ec1f", "fusion_lon": 0.0}, {"lat": 38.882158833333335, "fusion_lat": 0.0, "type": "electric_bike", "bike_id": "42f872add70b75814d842d4bc7af46e0", "is_reserved": 0, "rental_uris": {"ios": "https://dc.lft.to/lastmile_qr_scan", "android": "https://dc.lft.to/lastmile_qr_scan"}, "is_disabled": 0, "lon": -77.11741383333333, "name": "42f872add70b75814d842d4bc7af46e0", "fusion_lon": 0.0}, {"lat": 38.9887675, "fusion_lat": 0.0, "type": "electric_bike", "bike_id": "1e3490bdb96e4d190e695d072e6cc719", "is_reserved": 0, "rental_uris": {"ios": "https://dc.lft.to/lastmile_qr_scan", "android": "https://dc.lft.to/lastmile_qr_scan"}, "is_disabled": 0, "lon": -77.09567783333334, "name": "1e3490bdb96e4d190e695d072e6cc719", "fusion_lon": 0.0}, {"lat": 38.91912516666667, "fusion_lat": 0.0, "type": "electric_bike", "bike_id": "5d5e694910809767f6dea8d2a0275317", "is_reserved": 0, "rental_uris": {"ios": "https://dc.lft.to/lastmile_qr_scan", "android": "https://dc.lft.to/lastmile_qr_scan"}, "is_disabled": 0, "lon": -77.02009266666667, "name": "5d5e694910809767f6dea8d2a0275317", "fusion_lon": 0.0}, {"lat": 38.922390666666665, "fusion_lat": 0.0, "type": "electric_scooter", "bike_id": "6378b1ab012ea4289fd7c0c4f6f24a1f", "is_reserved": 0, "rental_uris": {"ios": "https://dc.lft.to/lastmile_qr_scan", "android": "https://dc.lft.to/lastmile_qr_scan"}, "is_disabled": 0, "lon": -77.0335375, "name": "6378b1ab012ea4289fd7c0c4f6f24a1f", "fusion_lon": 0.0}, {"lat": 38.895071333333334, "fusion_lat": 0.0, "type": "electric_scooter", "bike_id": "b6511e38761ae0b9eee1993d51b7d615", "is_reserved": 0, "rental_uris": {"ios": "https://dc.lft.to/lastmile_qr_scan", "android": "https://dc.lft.to/lastmile_qr_scan"}, "is_disabled": 0, "lon": -76.93477883333334, "name": "b6511e38761ae0b9eee1993d51b7d615", "fusion_lon": 0.0}, {"lat": 38.9058305, "fusion_lat": 0.0, "type": "electric_scooter", "bike_id": "b99ceac3ce4f92908b538c847113013a", "is_reserved": 0, "rental_uris": {"ios": "https://dc.lft.to/lastmile_qr_scan", "android": "https://dc.lft.to/lastmile_qr_scan"}, "is_disabled": 0, "lon": -77.0343505, "name": "b99ceac3ce4f92908b538c847113013a", "fusion_lon": 0.0}, {"lat": 38.926185833333335, "fusion_lat": 0.0, "type": "electric_scooter", "bike_id": "90a5a6b1551b87c47f9f4357d836c0de", "is_reserved": 0, "rental_uris": {"ios": "https://dc.lft.to/lastmile_qr_scan", "android": "https://dc.lft.to/lastmile_qr_scan"}, "is_disabled": 0, "lon": -77.04324133333333, "name": "90a5a6b1551b87c47f9f4357d836c0de", "fusion_lon": 0.0}, {"lat": 38.902346666666666, "fusion_lat": 0.0, "type": "electric_scooter", "bike_id": "2ece12d5ff61126b8ff75a6165e0ac32", "is_reserved": 0, "rental_uris": {"ios": "https://dc.lft.to/lastmile_qr_scan", "android": "https://dc.lft.to/lastmile_qr_scan"}, "is_disabled": 0, "lon": -77.04331083333334, "name": "2ece12d5ff61126b8ff75a6165e0ac32", "fusion_lon": 0.0}, {"lat": 38.935542833333336, "fusion_lat": 0.0, "type": "electric_bike", "bike_id": "bfdb6aabba2d4b4ab5a2748abc746979", "is_reserved": 0, "rental_uris": {"ios": "https://dc.lft.to/lastmile_qr_scan", "android": "https://dc.lft.to/lastmile_qr_scan"}, "is_disabled": 0, "lon": -77.03699933333333, "name": "bfdb6aabba2d4b4ab5a2748abc746979", "fusion_lon": 0.0}, {"lat": 38.906899333333335, "fusion_lat": 0.0, "type": "electric_scooter", "bike_id": "4cdaf7af7c9facb7f4b11c51c3bc43ea", "is_reserved": 0, "rental_uris": {"ios": "https://dc.lft.to/lastmile_qr_scan", "android": "https://dc.lft.to/lastmile_qr_scan"}, "is_disabled": 0, "lon": -77.06343033333333, "name": "4cdaf7af7c9facb7f4b11c51c3bc43ea", "fusion_lon": 0.0}, {"lat": 38.910677166666666, "fusion_lat": 0.0, "type": "electric_scooter", "bike_id": "c906cc41ed7837b8793ef6318133e548", "is_reserved": 0, "rental_uris": {"ios": "https://dc.lft.to/lastmile_qr_scan", "android": "https://dc.lft.to/lastmile_qr_scan"}, "is_disabled": 0, "lon": -77.009153, "name": "c906cc41ed7837b8793ef6318133e548", "fusion_lon": 0.0}, {"lat": 38.92406733333333, "fusion_lat": 0.0, "type": "electric_scooter", "bike_id": "cfb15af13894ab47a6ac49fac5aef4cb", "is_reserved": 0, "rental_uris": {"ios": "https://dc.lft.to/lastmile_qr_scan", "android": "https://dc.lft.to/lastmile_qr_scan"}, "is_disabled": 0, "lon": -77.05168083333334, "name": "cfb15af13894ab47a6ac49fac5aef4cb", "fusion_lon": 0.0}, {"lat": 38.9517405, "fusion_lat": 0.0, "type": "electric_scooter", "bike_id": "16ecbc9ce3f58278d8884c78e83b5f22", "is_reserved": 0, "rental_uris": {"ios": "https://dc.lft.to/lastmile_qr_scan", "android": "https://dc.lft.to/lastmile_qr_scan"}, "is_disabled": 0, "lon": -77.02550033333333, "name": "16ecbc9ce3f58278d8884c78e83b5f22", "fusion_lon": 0.0}, {"lat": 38.916339666666666, "fusion_lat": 0.0, "type": "electric_scooter", "bike_id": "98e82736d1788418dec6965670813ad3", "is_reserved": 0, "rental_uris": {"ios": "https://dc.lft.to/lastmile_qr_scan", "android": "https://dc.lft.to/lastmile_qr_scan"}, "is_disabled": 0, "lon": -77.03987416666666, "name": "98e82736d1788418dec6965670813ad3", "fusion_lon": 0.0}, {"lat": 38.90826283333333, "fusion_lat": 0.0, "type": "electric_scooter", "bike_id": "0d5eada3677be3756c7a7ed73923552e", "is_reserved": 0, "rental_uris": {"ios": "https://dc.lft.to/lastmile_qr_scan", "android": "https://dc.lft.to/lastmile_qr_scan"}, "is_disabled": 0, "lon": -77.02384783333333, "name": "0d5eada3677be3756c7a7ed73923552e", "fusion_lon": 0.0}, {"lat": 38.92581666666667, "fusion_lat": 0.0, "type": "electric_scooter", "bike_id": "f84fe87c0086554c5eae76d73c460b8f", "is_reserved": 0, "rental_uris": {"ios": "https://dc.lft.to/lastmile_qr_scan", "android": "https://dc.lft.to/lastmile_qr_scan"}, "is_disabled": 0, "lon": -77.05254016666666, "name": "f84fe87c0086554c5eae76d73c460b8f", "fusion_lon": 0.0}, {"lat": 38.9193445, "fusion_lat": 0.0, "type": "electric_scooter", "bike_id": "2dd74c87fddec26608335af14ce70a25", "is_reserved": 0, "rental_uris": {"ios": "https://dc.lft.to/lastmile_qr_scan", "android": "https://dc.lft.to/lastmile_qr_scan"}, "is_disabled": 0, "lon": -77.03195383333333, "name": "2dd74c87fddec26608335af14ce70a25", "fusion_lon": 0.0}, {"lat": 38.882697666666665, "fusion_lat": 0.0, "type": "electric_scooter", "bike_id": "3ebddcff154ed6c90b98aa744c070eb3", "is_reserved": 0, "rental_uris": {"ios": "https://dc.lft.to/lastmile_qr_scan", "android": "https://dc.lft.to/lastmile_qr_scan"}, "is_disabled": 0, "lon": -76.99253116666667, "name": "3ebddcff154ed6c90b98aa744c070eb3", "fusion_lon": 0.0}, {"lat": 38.9287405, "fusion_lat": 0.0, "type": "electric_scooter", "bike_id": "f22a15fd5be88e0886ef55d33a12d738", "is_reserved": 0, "rental_uris": {"ios": "https://dc.lft.to/lastmile_qr_scan", "android": "https://dc.lft.to/lastmile_qr_scan"}, "is_disabled": 0, "lon": -77.02825616666667, "name": "f22a15fd5be88e0886ef55d33a12d738", "fusion_lon": 0.0}, {"lat": 38.899094833333336, "fusion_lat": 0.0, "type": "electric_scooter", "bike_id": "367da764761d121413948cae8b1516a2", "is_reserved": 0, "rental_uris": {"ios": "https://dc.lft.to/lastmile_qr_scan", "android": "https://dc.lft.to/lastmile_qr_scan"}, "is_disabled": 0, "lon": -77.02230266666666, "name": "367da764761d121413948cae8b1516a2", "fusion_lon": 0.0}, {"lat": 38.8764245, "fusion_lat": 0.0, "type": "electric_scooter", "bike_id": "9eebf340863fa8b818102d5feba8d87e", "is_reserved": 0, "rental_uris": {"ios": "https://dc.lft.to/lastmile_qr_scan", "android": "https://dc.lft.to/lastmile_qr_scan"}, "is_disabled": 0, "lon": -77.00454166666667, "name": "9eebf340863fa8b818102d5feba8d87e", "fusion_lon": 0.0}, {"lat": 38.919264, "fusion_lat": 0.0, "type": "electric_scooter", "bike_id": "0cdaaf8ed24d039b96a2f7c7b278daa9", "is_reserved": 0, "rental_uris": {"ios": "https://dc.lft.to/lastmile_qr_scan", "android": "https://dc.lft.to/lastmile_qr_scan"}, "is_disabled": 0, "lon": -77.03175816666666, "name": "0cdaaf8ed24d039b96a2f7c7b278daa9", "fusion_lon": 0.0}, {"lat": 38.913708, "fusion_lat": 0.0, "type": "electric_scooter", "bike_id": "f82c8b0843dad5ac223546e84c3f30e6", "is_reserved": 0, "rental_uris": {"ios": "https://dc.lft.to/lastmile_qr_scan", "android": "https://dc.lft.to/lastmile_qr_scan"}, "is_disabled": 0, "lon": -77.06620566666666, "name": "f82c8b0843dad5ac223546e84c3f30e6", "fusion_lon": 0.0}, {"lat": 38.90776616666667, "fusion_lat": 0.0, "type": "electric_scooter", "bike_id": "2b36c2c68b6e45dfb237291e574588b7", "is_reserved": 0, "rental_uris": {"ios": "https://dc.lft.to/lastmile_qr_scan", "android": "https://dc.lft.to/lastmile_qr_scan"}, "is_disabled": 0, "lon": -77.03833916666666, "name": "2b36c2c68b6e45dfb237291e574588b7", "fusion_lon": 0.0}, {"lat": 38.91770616666667, "fusion_lat": 0.0, "type": "electric_scooter", "bike_id": "7ab0caa64167710c5872abd11ccd6b68", "is_reserved": 0, "rental_uris": {"ios": "https://dc.lft.to/lastmile_qr_scan", "android": "https://dc.lft.to/lastmile_qr_scan"}, "is_disabled": 0, "lon": -77.04060783333334, "name": "7ab0caa64167710c5872abd11ccd6b68", "fusion_lon": 0.0}, {"lat": 38.913166, "fusion_lat": 0.0, "type": "electric_scooter", "bike_id": "d0cd0a1b2516f28f17c61cbc933914f5", "is_reserved": 0, "rental_uris": {"ios": "https://dc.lft.to/lastmile_qr_scan", "android": "https://dc.lft.to/lastmile_qr_scan"}, "is_disabled": 0, "lon": -77.06252333333333, "name": "d0cd0a1b2516f28f17c61cbc933914f5", "fusion_lon": 0.0}, {"lat": 38.866191, "fusion_lat": 0.0, "type": "electric_scooter", "bike_id": "d3cf704807f37c74e5e1d0afb10df071", "is_reserved": 0, "rental_uris": {"ios": "https://dc.lft.to/lastmile_qr_scan", "android": "https://dc.lft.to/lastmile_qr_scan"}, "is_disabled": 0, "lon": -77.08790616666667, "name": "d3cf704807f37c74e5e1d0afb10df071", "fusion_lon": 0.0}, {"lat": 38.9225545, "fusion_lat": 0.0, "type": "electric_scooter", "bike_id": "55d46fff9ceaa4148fde9fc9e022e7d2", "is_reserved": 0, "rental_uris": {"ios": "https://dc.lft.to/lastmile_qr_scan", "android": "https://dc.lft.to/lastmile_qr_scan"}, "is_disabled": 0, "lon": -77.0422515, "name": "55d46fff9ceaa4148fde9fc9e022e7d2", "fusion_lon": 0.0}, {"lat": 38.90613783333333, "fusion_lat": 0.0, "type": "electric_scooter", "bike_id": "5514edf6a610d359dbf42e04e1e200f5", "is_reserved": 0, "rental_uris": {"ios": "https://dc.lft.to/lastmile_qr_scan", "android": "https://dc.lft.to/lastmile_qr_scan"}, "is_disabled": 0, "lon": -77.04130966666666, "name": "5514edf6a610d359dbf42e04e1e200f5", "fusion_lon": 0.0}, {"lat": 38.93232416666667, "fusion_lat": 0.0, "type": "electric_bike", "bike_id": "9e8f494a6f61b275be0e45ed1df4e929", "is_reserved": 0, "rental_uris": {"ios": "https://dc.lft.to/lastmile_qr_scan", "android": "https://dc.lft.to/lastmile_qr_scan"}, "is_disabled": 0, "lon": -77.18123433333334, "name": "9e8f494a6f61b275be0e45ed1df4e929", "fusion_lon": 0.0}, {"lat": 38.9133105, "fusion_lat": 0.0, "type": "electric_scooter", "bike_id": "2a5d3ae9147c4e3a5c109dc7f7ebe444", "is_reserved": 0, "rental_uris": {"ios": "https://dc.lft.to/lastmile_qr_scan", "android": "https://dc.lft.to/lastmile_qr_scan"}, "is_disabled": 0, "lon": -77.0325745, "name": "2a5d3ae9147c4e3a5c109dc7f7ebe444", "fusion_lon": 0.0}, {"lat": 38.896121, "fusion_lat": 0.0, "type": "electric_scooter", "bike_id": "ce95cf0c750da5eb8d818165b70e984e", "is_reserved": 0, "rental_uris": {"ios": "https://dc.lft.to/lastmile_qr_scan", "android": "https://dc.lft.to/lastmile_qr_scan"}, "is_disabled": 0, "lon": -77.0544275, "name": "ce95cf0c750da5eb8d818165b70e984e", "fusion_lon": 0.0}, {"lat": 38.86389833333333, "fusion_lat": 0.0, "type": "electric_scooter", "bike_id": "df928cc5039e1add053051dc492f4f42", "is_reserved": 0, "rental_uris": {"ios": "https://dc.lft.to/lastmile_qr_scan", "android": "https://dc.lft.to/lastmile_qr_scan"}, "is_disabled": 0, "lon": -76.99043683333333, "name": "df928cc5039e1add053051dc492f4f42", "fusion_lon": 0.0}, {"lat": 38.93276266666667, "fusion_lat": 0.0, "type": "electric_scooter", "bike_id": "efc5d02440d87f78144b28983389a6f5", "is_reserved": 0, "rental_uris": {"ios": "https://dc.lft.to/lastmile_qr_scan", "android": "https://dc.lft.to/lastmile_qr_scan"}, "is_disabled": 0, "lon": -77.04540333333334, "name": "efc5d02440d87f78144b28983389a6f5", "fusion_lon": 0.0}, {"lat": 38.906356, "fusion_lat": 0.0, "type": "electric_scooter", "bike_id": "6813f38f54663cc5a25f9ba2a4defe73", "is_reserved": 0, "rental_uris": {"ios": "https://dc.lft.to/lastmile_qr_scan", "android": "https://dc.lft.to/lastmile_qr_scan"}, "is_disabled": 0, "lon": -77.00220183333333, "name": "6813f38f54663cc5a25f9ba2a4defe73", "fusion_lon": 0.0}, {"lat": 38.897347833333335, "fusion_lat": 0.0, "type": "electric_scooter", "bike_id": "70e7ae02d7bd5c3e486d47a7794bbee3", "is_reserved": 0, "rental_uris": {"ios": "https://dc.lft.to/lastmile_qr_scan", "android": "https://dc.lft.to/lastmile_qr_scan"}, "is_disabled": 0, "lon": -77.00755483333333, "name": "70e7ae02d7bd5c3e486d47a7794bbee3", "fusion_lon": 0.0}, {"lat": 38.924958333333336, "fusion_lat": 0.0, "type": "electric_scooter", "bike_id": "ae602b8deb039a5861ea160e228c0bea", "is_reserved": 0, "rental_uris": {"ios": "https://dc.lft.to/lastmile_qr_scan", "android": "https://dc.lft.to/lastmile_qr_scan"}, "is_disabled": 0, "lon": -77.0525415, "name": "ae602b8deb039a5861ea160e228c0bea", "fusion_lon": 0.0}, {"lat": 38.90391733333333, "fusion_lat": 0.0, "type": "electric_scooter", "bike_id": "5c55082668686e008eaf31ac8892f45d", "is_reserved": 0, "rental_uris": {"ios": "https://dc.lft.to/lastmile_qr_scan", "android": "https://dc.lft.to/lastmile_qr_scan"}, "is_disabled": 0, "lon": -76.98200983333334, "name": "5c55082668686e008eaf31ac8892f45d", "fusion_lon": 0.0}, {"lat": 38.910244666666664, "fusion_lat": 0.0, "type": "electric_scooter", "bike_id": "c2edf8895ccc2f059bcc7daf4ffb47d3", "is_reserved": 0, "rental_uris": {"ios": "https://dc.lft.to/lastmile_qr_scan", "android": "https://dc.lft.to/lastmile_qr_scan"}, "is_disabled": 0, "lon": -77.03662166666666, "name": "c2edf8895ccc2f059bcc7daf4ffb47d3", "fusion_lon": 0.0}, {"lat": 38.98146533333333, "fusion_lat": 0.0, "type": "electric_bike", "bike_id": "ecba430841490ad91f016045669bb8dd", "is_reserved": 0, "rental_uris": {"ios": "https://dc.lft.to/lastmile_qr_scan", "android": "https://dc.lft.to/lastmile_qr_scan"}, "is_disabled": 0, "lon": -77.09258466666667, "name": "ecba430841490ad91f016045669bb8dd", "fusion_lon": 0.0}, {"lat": 38.908418166666664, "fusion_lat": 0.0, "type": "electric_scooter", "bike_id": "92ebb2c45c70b130be671ed4df73c9d2", "is_reserved": 0, "rental_uris": {"ios": "https://dc.lft.to/lastmile_qr_scan", "android": "https://dc.lft.to/lastmile_qr_scan"}, "is_disabled": 0, "lon": -77.04318316666667, "name": "92ebb2c45c70b130be671ed4df73c9d2", "fusion_lon": 0.0}, {"lat": 38.909661, "fusion_lat": 0.0, "type": "electric_scooter", "bike_id": "d156d479fb4176968fb5814867d1a271", "is_reserved": 0, "rental_uris": {"ios": "https://dc.lft.to/lastmile_qr_scan", "android": "https://dc.lft.to/lastmile_qr_scan"}, "is_disabled": 0, "lon": -77.03954633333333, "name": "d156d479fb4176968fb5814867d1a271", "fusion_lon": 0.0}, {"lat": 38.885217833333336, "fusion_lat": 0.0, "type": "electric_scooter", "bike_id": "379d76eedfa313864586687bb6e68051", "is_reserved": 0, "rental_uris": {"ios": "https://dc.lft.to/lastmile_qr_scan", "android": "https://dc.lft.to/lastmile_qr_scan"}, "is_disabled": 0, "lon": -77.02117533333333, "name": "379d76eedfa313864586687bb6e68051", "fusion_lon": 0.0}, {"lat": 38.919659, "fusion_lat": 0.0, "type": "electric_scooter", "bike_id": "3d8c2038515818b49be434aa50c9c51f", "is_reserved": 0, "rental_uris": {"ios": "https://dc.lft.to/lastmile_qr_scan", "android": "https://dc.lft.to/lastmile_qr_scan"}, "is_disabled": 0, "lon": -77.01212633333333, "name": "3d8c2038515818b49be434aa50c9c51f", "fusion_lon": 0.0}, {"lat": 38.914045333333334, "fusion_lat": 0.0, "type": "electric_scooter", "bike_id": "83312b11f2c0dce7c22f510dfc6c17ea", "is_reserved": 0, "rental_uris": {"ios": "https://dc.lft.to/lastmile_qr_scan", "android": "https://dc.lft.to/lastmile_qr_scan"}, "is_disabled": 0, "lon": -77.03186, "name": "83312b11f2c0dce7c22f510dfc6c17ea", "fusion_lon": 0.0}, {"lat": 38.91640566666667, "fusion_lat": 0.0, "type": "electric_scooter", "bike_id": "fa398093c711abccb849e5cec6268398", "is_reserved": 0, "rental_uris": {"ios": "https://dc.lft.to/lastmile_qr_scan", "android": "https://dc.lft.to/lastmile_qr_scan"}, "is_disabled": 0, "lon": -77.025509, "name": "fa398093c711abccb849e5cec6268398", "fusion_lon": 0.0}, {"lat": 38.907773166666665, "fusion_lat": 0.0, "type": "electric_scooter", "bike_id": "e60e4562fe8c47a626caeb6b969b48db", "is_reserved": 0, "rental_uris": {"ios": "https://dc.lft.to/lastmile_qr_scan", "android": "https://dc.lft.to/lastmile_qr_scan"}, "is_disabled": 0, "lon": -76.97833883333334, "name": "e60e4562fe8c47a626caeb6b969b48db", "fusion_lon": 0.0}, {"lat": 38.900911666666666, "fusion_lat": 0.0, "type": "electric_scooter", "bike_id": "3117268338d0b71cca376e0e7c926940", "is_reserved": 0, "rental_uris": {"ios": "https://dc.lft.to/lastmile_qr_scan", "android": "https://dc.lft.to/lastmile_qr_scan"}, "is_disabled": 0, "lon": -77.04699066666667, "name": "3117268338d0b71cca376e0e7c926940", "fusion_lon": 0.0}, {"lat": 38.946288833333334, "fusion_lat": 0.0, "type": "electric_scooter", "bike_id": "d05adcec2fc09e0ab0cf9c88eba1d0f4", "is_reserved": 0, "rental_uris": {"ios": "https://dc.lft.to/lastmile_qr_scan", "android": "https://dc.lft.to/lastmile_qr_scan"}, "is_disabled": 0, "lon": -77.01846266666666, "name": "d05adcec2fc09e0ab0cf9c88eba1d0f4", "fusion_lon": 0.0}, {"lat": 38.92323116666667, "fusion_lat": 0.0, "type": "electric_scooter", "bike_id": "ded99763bfec14e562d0c06fdb1ca489", "is_reserved": 0, "rental_uris": {"ios": "https://dc.lft.to/lastmile_qr_scan", "android": "https://dc.lft.to/lastmile_qr_scan"}, "is_disabled": 0, "lon": -77.0213725, "name": "ded99763bfec14e562d0c06fdb1ca489", "fusion_lon": 0.0}, {"lat": 38.9374835, "fusion_lat": 0.0, "type": "electric_scooter", "bike_id": "b589e34b4fd9f6345b43779f68d9c64b", "is_reserved": 0, "rental_uris": {"ios": "https://dc.lft.to/lastmile_qr_scan", "android": "https://dc.lft.to/lastmile_qr_scan"}, "is_disabled": 0, "lon": -77.03434466666667, "name": "b589e34b4fd9f6345b43779f68d9c64b", "fusion_lon": 0.0}, {"lat": 38.90218616666667, "fusion_lat": 0.0, "type": "electric_scooter", "bike_id": "32f7982d59c4411c87bb541d82eb399c", "is_reserved": 0, "rental_uris": {"ios": "https://dc.lft.to/lastmile_qr_scan", "android": "https://dc.lft.to/lastmile_qr_scan"}, "is_disabled": 0, "lon": -77.0511965, "name": "32f7982d59c4411c87bb541d82eb399c", "fusion_lon": 0.0}, {"lat": 38.909010333333335, "fusion_lat": 0.0, "type": "electric_scooter", "bike_id": "9a91f80990e773849f1bb4e9774f4cfb", "is_reserved": 0, "rental_uris": {"ios": "https://dc.lft.to/lastmile_qr_scan", "android": "https://dc.lft.to/lastmile_qr_scan"}, "is_disabled": 0, "lon": -77.030135, "name": "9a91f80990e773849f1bb4e9774f4cfb", "fusion_lon": 0.0}, {"lat": 38.8987055, "fusion_lat": 0.0, "type": "electric_scooter", "bike_id": "f07d7a7a3e01af2b8ee6868af70ddc27", "is_reserved": 0, "rental_uris": {"ios": "https://dc.lft.to/lastmile_qr_scan", "android": "https://dc.lft.to/lastmile_qr_scan"}, "is_disabled": 0, "lon": -76.94666666666667, "name": "f07d7a7a3e01af2b8ee6868af70ddc27", "fusion_lon": 0.0}, {"lat": 38.894262166666664, "fusion_lat": 0.0, "type": "electric_scooter", "bike_id": "687a2857613a10431eb35ee10fca3a31", "is_reserved": 0, "rental_uris": {"ios": "https://dc.lft.to/lastmile_qr_scan", "android": "https://dc.lft.to/lastmile_qr_scan"}, "is_disabled": 0, "lon": -77.02111133333334, "name": "687a2857613a10431eb35ee10fca3a31", "fusion_lon": 0.0}, {"lat": 38.91955433333333, "fusion_lat": 0.0, "type": "electric_scooter", "bike_id": "4ad6d1d7dab03b8990cb04448f6dcd99", "is_reserved": 0, "rental_uris": {"ios": "https://dc.lft.to/lastmile_qr_scan", "android": "https://dc.lft.to/lastmile_qr_scan"}, "is_disabled": 0, "lon": -77.04157683333334, "name": "4ad6d1d7dab03b8990cb04448f6dcd99", "fusion_lon": 0.0}, {"lat": 38.923644, "fusion_lat": 0.0, "type": "electric_scooter", "bike_id": "798ed24d4f412293d1863a87a4612a0b", "is_reserved": 0, "rental_uris": {"ios": "https://dc.lft.to/lastmile_qr_scan", "android": "https://dc.lft.to/lastmile_qr_scan"}, "is_disabled": 0, "lon": -77.05076683333333, "name": "798ed24d4f412293d1863a87a4612a0b", "fusion_lon": 0.0}, {"lat": 38.9149535, "fusion_lat": 0.0, "type": "electric_scooter", "bike_id": "4462d670aacfdff529db5b73cc7a6cbc", "is_reserved": 0, "rental_uris": {"ios": "https://dc.lft.to/lastmile_qr_scan", "android": "https://dc.lft.to/lastmile_qr_scan"}, "is_disabled": 0, "lon": -76.9857595, "name": "4462d670aacfdff529db5b73cc7a6cbc", "fusion_lon": 0.0}, {"lat": 38.91990883333333, "fusion_lat": 0.0, "type": "electric_scooter", "bike_id": "37053af28677075ae7e7fbd96820bfa9", "is_reserved": 0, "rental_uris": {"ios": "https://dc.lft.to/lastmile_qr_scan", "android": "https://dc.lft.to/lastmile_qr_scan"}, "is_disabled": 0, "lon": -76.97305916666667, "name": "37053af28677075ae7e7fbd96820bfa9", "fusion_lon": 0.0}, {"lat": 38.88771066666666, "fusion_lat": 0.0, "type": "electric_scooter", "bike_id": "d1612ecff61055a0649de777be3b2da0", "is_reserved": 0, "rental_uris": {"ios": "https://dc.lft.to/lastmile_qr_scan", "android": "https://dc.lft.to/lastmile_qr_scan"}, "is_disabled": 0, "lon": -77.02273066666666, "name": "d1612ecff61055a0649de777be3b2da0", "fusion_lon": 0.0}, {"lat": 38.87460683333333, "fusion_lat": 0.0, "type": "electric_scooter", "bike_id": "c27f0efc30dc1b915a68787d8dd8ecb4", "is_reserved": 0, "rental_uris": {"ios": "https://dc.lft.to/lastmile_qr_scan", "android": "https://dc.lft.to/lastmile_qr_scan"}, "is_disabled": 0, "lon": -77.00544183333334, "name": "c27f0efc30dc1b915a68787d8dd8ecb4", "fusion_lon": 0.0}, {"lat": 38.92971883333333, "fusion_lat": 0.0, "type": "electric_scooter", "bike_id": "0b8e83556852514b10a348623a61d67d", "is_reserved": 0, "rental_uris": {"ios": "https://dc.lft.to/lastmile_qr_scan", "android": "https://dc.lft.to/lastmile_qr_scan"}, "is_disabled": 0, "lon": -76.99075466666666, "name": "0b8e83556852514b10a348623a61d67d", "fusion_lon": 0.0}, {"lat": 38.93538266666667, "fusion_lat": 0.0, "type": "electric_scooter", "bike_id": "2b1899ed5c89c09f549be7eb45030b55", "is_reserved": 0, "rental_uris": {"ios": "https://dc.lft.to/lastmile_qr_scan", "android": "https://dc.lft.to/lastmile_qr_scan"}, "is_disabled": 0, "lon": -77.054436, "name": "2b1899ed5c89c09f549be7eb45030b55", "fusion_lon": 0.0}, {"lat": 38.90035733333333, "fusion_lat": 0.0, "type": "electric_scooter", "bike_id": "f5c70fcb7eec21b1adaa0d7c9a77e977", "is_reserved": 0, "rental_uris": {"ios": "https://dc.lft.to/lastmile_qr_scan", "android": "https://dc.lft.to/lastmile_qr_scan"}, "is_disabled": 0, "lon": -76.9806145, "name": "f5c70fcb7eec21b1adaa0d7c9a77e977", "fusion_lon": 0.0}, {"lat": 38.92111216666667, "fusion_lat": 0.0, "type": "electric_scooter", "bike_id": "41eca4077493a0a926d0c5f728b2add5", "is_reserved": 0, "rental_uris": {"ios": "https://dc.lft.to/lastmile_qr_scan", "android": "https://dc.lft.to/lastmile_qr_scan"}, "is_disabled": 0, "lon": -77.0333915, "name": "41eca4077493a0a926d0c5f728b2add5", "fusion_lon": 0.0}, {"lat": 38.862167, "fusion_lat": 0.0, "type": "electric_scooter", "bike_id": "c3c9ac7dfbe4d45f675a62deb76a7a43", "is_reserved": 0, "rental_uris": {"ios": "https://dc.lft.to/lastmile_qr_scan", "android": "https://dc.lft.to/lastmile_qr_scan"}, "is_disabled": 0, "lon": -76.994827, "name": "c3c9ac7dfbe4d45f675a62deb76a7a43", "fusion_lon": 0.0}, {"lat": 38.911478, "fusion_lat": 0.0, "type": "electric_scooter", "bike_id": "9f330a16caee4a8da1f9f287275769ae", "is_reserved": 0, "rental_uris": {"ios": "https://dc.lft.to/lastmile_qr_scan", "android": "https://dc.lft.to/lastmile_qr_scan"}, "is_disabled": 0, "lon": -77.0382635, "name": "9f330a16caee4a8da1f9f287275769ae", "fusion_lon": 0.0}, {"lat": 38.90243433333333, "fusion_lat": 0.0, "type": "electric_scooter", "bike_id": "5bd742d4fc00856ab35dbacf71dcbab6", "is_reserved": 0, "rental_uris": {"ios": "https://dc.lft.to/lastmile_qr_scan", "android": "https://dc.lft.to/lastmile_qr_scan"}, "is_disabled": 0, "lon": -76.97409783333333, "name": "5bd742d4fc00856ab35dbacf71dcbab6", "fusion_lon": 0.0}, {"lat": 38.9075895, "fusion_lat": 0.0, "type": "electric_scooter", "bike_id": "4e622a03b43d63cbe97e0d39b97aaf55", "is_reserved": 0, "rental_uris": {"ios": "https://dc.lft.to/lastmile_qr_scan", "android": "https://dc.lft.to/lastmile_qr_scan"}, "is_disabled": 0, "lon": -77.0321215, "name": "4e622a03b43d63cbe97e0d39b97aaf55", "fusion_lon": 0.0}, {"lat": 38.906433, "fusion_lat": 0.0, "type": "electric_scooter", "bike_id": "1b0ff5edbb5adbd647d04c2ea9236260", "is_reserved": 0, "rental_uris": {"ios": "https://dc.lft.to/lastmile_qr_scan", "android": "https://dc.lft.to/lastmile_qr_scan"}, "is_disabled": 0, "lon": -77.041825, "name": "1b0ff5edbb5adbd647d04c2ea9236260", "fusion_lon": 0.0}, {"lat": 38.90476866666667, "fusion_lat": 0.0, "type": "electric_scooter", "bike_id": "cdb545e37b65d3889495a3f6dc134250", "is_reserved": 0, "rental_uris": {"ios": "https://dc.lft.to/lastmile_qr_scan", "android": "https://dc.lft.to/lastmile_qr_scan"}, "is_disabled": 0, "lon": -77.0399315, "name": "cdb545e37b65d3889495a3f6dc134250", "fusion_lon": 0.0}, {"lat": 38.9333405, "fusion_lat": 0.0, "type": "electric_scooter", "bike_id": "332db012ab7ba760edf583dc5b80b2f8", "is_reserved": 0, "rental_uris": {"ios": "https://dc.lft.to/lastmile_qr_scan", "android": "https://dc.lft.to/lastmile_qr_scan"}, "is_disabled": 0, "lon": -77.03424866666667, "name": "332db012ab7ba760edf583dc5b80b2f8", "fusion_lon": 0.0}, {"lat": 38.9327035, "fusion_lat": 0.0, "type": "electric_scooter", "bike_id": "164c93c3fc589cf1012f518ee87fdce6", "is_reserved": 0, "rental_uris": {"ios": "https://dc.lft.to/lastmile_qr_scan", "android": "https://dc.lft.to/lastmile_qr_scan"}, "is_disabled": 0, "lon": -77.0389135, "name": "164c93c3fc589cf1012f518ee87fdce6", "fusion_lon": 0.0}, {"lat": 38.9097055, "fusion_lat": 0.0, "type": "electric_scooter", "bike_id": "93f6741607e00c349b0ee8aa804945da", "is_reserved": 0, "rental_uris": {"ios": "https://dc.lft.to/lastmile_qr_scan", "android": "https://dc.lft.to/lastmile_qr_scan"}, "is_disabled": 0, "lon": -77.03992833333334, "name": "93f6741607e00c349b0ee8aa804945da", "fusion_lon": 0.0}, {"lat": 38.92088833333333, "fusion_lat": 0.0, "type": "electric_scooter", "bike_id": "eb215c81fb55231035a5024a0e37c4b6", "is_reserved": 0, "rental_uris": {"ios": "https://dc.lft.to/lastmile_qr_scan", "android": "https://dc.lft.to/lastmile_qr_scan"}, "is_disabled": 0, "lon": -77.01664283333334, "name": "eb215c81fb55231035a5024a0e37c4b6", "fusion_lon": 0.0}, {"lat": 38.916975, "fusion_lat": 0.0, "type": "electric_scooter", "bike_id": "3e7fe5a25592ee286ef2dd4f4e96f979", "is_reserved": 0, "rental_uris": {"ios": "https://dc.lft.to/lastmile_qr_scan", "android": "https://dc.lft.to/lastmile_qr_scan"}, "is_disabled": 0, "lon": -77.02455916666666, "name": "3e7fe5a25592ee286ef2dd4f4e96f979", "fusion_lon": 0.0}, {"lat": 38.9054065, "fusion_lat": 0.0, "type": "electric_scooter", "bike_id": "b035a6204b97b3f7ad5bab3d0ce59bb7", "is_reserved": 0, "rental_uris": {"ios": "https://dc.lft.to/lastmile_qr_scan", "android": "https://dc.lft.to/lastmile_qr_scan"}, "is_disabled": 0, "lon": -76.98468066666666, "name": "b035a6204b97b3f7ad5bab3d0ce59bb7", "fusion_lon": 0.0}, {"lat": 38.90269216666667, "fusion_lat": 0.0, "type": "electric_scooter", "bike_id": "b8a8844531e6aa7c690e44663f7f53a1", "is_reserved": 0, "rental_uris": {"ios": "https://dc.lft.to/lastmile_qr_scan", "android": "https://dc.lft.to/lastmile_qr_scan"}, "is_disabled": 0, "lon": -77.0161555, "name": "b8a8844531e6aa7c690e44663f7f53a1", "fusion_lon": 0.0}, {"lat": 38.876413666666664, "fusion_lat": 0.0, "type": "electric_scooter", "bike_id": "caa0306b03e9f8daf1374afbdbf90e99", "is_reserved": 0, "rental_uris": {"ios": "https://dc.lft.to/lastmile_qr_scan", "android": "https://dc.lft.to/lastmile_qr_scan"}, "is_disabled": 0, "lon": -77.00453416666667, "name": "caa0306b03e9f8daf1374afbdbf90e99", "fusion_lon": 0.0}, {"lat": 38.91997716666667, "fusion_lat": 0.0, "type": "electric_scooter", "bike_id": "8b8e80b6dbf542cbbc8ec9672b03254e", "is_reserved": 0, "rental_uris": {"ios": "https://dc.lft.to/lastmile_qr_scan", "android": "https://dc.lft.to/lastmile_qr_scan"}, "is_disabled": 0, "lon": -77.033088, "name": "8b8e80b6dbf542cbbc8ec9672b03254e", "fusion_lon": 0.0}, {"lat": 38.908562833333335, "fusion_lat": 0.0, "type": "electric_scooter", "bike_id": "896d39e92fc2fc8cdc4afa5ed42a7d65", "is_reserved": 0, "rental_uris": {"ios": "https://dc.lft.to/lastmile_qr_scan", "android": "https://dc.lft.to/lastmile_qr_scan"}, "is_disabled": 0, "lon": -77.02541733333334, "name": "896d39e92fc2fc8cdc4afa5ed42a7d65", "fusion_lon": 0.0}, {"lat": 38.910047, "fusion_lat": 0.0, "type": "electric_scooter", "bike_id": "4c68cbde63181ff77e5f3f7c35ddc190", "is_reserved": 0, "rental_uris": {"ios": "https://dc.lft.to/lastmile_qr_scan", "android": "https://dc.lft.to/lastmile_qr_scan"}, "is_disabled": 0, "lon": -77.04366283333333, "name": "4c68cbde63181ff77e5f3f7c35ddc190", "fusion_lon": 0.0}, {"lat": 38.900134666666666, "fusion_lat": 0.0, "type": "electric_scooter", "bike_id": "fd3d1b73ba3cdbf9a44d04954d33cb89", "is_reserved": 0, "rental_uris": {"ios": "https://dc.lft.to/lastmile_qr_scan", "android": "https://dc.lft.to/lastmile_qr_scan"}, "is_disabled": 0, "lon": -76.9935405, "name": "fd3d1b73ba3cdbf9a44d04954d33cb89", "fusion_lon": 0.0}, {"lat": 38.96231133333333, "fusion_lat": 0.0, "type": "electric_bike", "bike_id": "b247f370d8e4daf10a83f2eb838bba4f", "is_reserved": 0, "rental_uris": {"ios": "https://dc.lft.to/lastmile_qr_scan", "android": "https://dc.lft.to/lastmile_qr_scan"}, "is_disabled": 0, "lon": -77.026265, "name": "b247f370d8e4daf10a83f2eb838bba4f", "fusion_lon": 0.0}, {"lat": 38.9013785, "fusion_lat": 0.0, "type": "electric_scooter", "bike_id": "98270c26dbc4e9ec580ec65b49eafcc0", "is_reserved": 0, "rental_uris": {"ios": "https://dc.lft.to/lastmile_qr_scan", "android": "https://dc.lft.to/lastmile_qr_scan"}, "is_disabled": 0, "lon": -77.04338916666667, "name": "98270c26dbc4e9ec580ec65b49eafcc0", "fusion_lon": 0.0}, {"lat": 38.90614633333333, "fusion_lat": 0.0, "type": "electric_scooter", "bike_id": "3ebfee7ec5b6eb1f09129640cedeabc8", "is_reserved": 0, "rental_uris": {"ios": "https://dc.lft.to/lastmile_qr_scan", "android": "https://dc.lft.to/lastmile_qr_scan"}, "is_disabled": 0, "lon": -77.02116683333334, "name": "3ebfee7ec5b6eb1f09129640cedeabc8", "fusion_lon": 0.0}, {"lat": 38.90550233333333, "fusion_lat": 0.0, "type": "electric_scooter", "bike_id": "484622e2e4b38345d51389f8fd07bd65", "is_reserved": 0, "rental_uris": {"ios": "https://dc.lft.to/lastmile_qr_scan", "android": "https://dc.lft.to/lastmile_qr_scan"}, "is_disabled": 0, "lon": -77.0410895, "name": "484622e2e4b38345d51389f8fd07bd65", "fusion_lon": 0.0}, {"lat": 38.9115375, "fusion_lat": 0.0, "type": "electric_scooter", "bike_id": "6b281fe3f4fa6ad88a024f9ab9a8a850", "is_reserved": 0, "rental_uris": {"ios": "https://dc.lft.to/lastmile_qr_scan", "android": "https://dc.lft.to/lastmile_qr_scan"}, "is_disabled": 0, "lon": -77.038286, "name": "6b281fe3f4fa6ad88a024f9ab9a8a850", "fusion_lon": 0.0}, {"lat": 38.897121, "fusion_lat": 0.0, "type": "electric_scooter", "bike_id": "0f8b9724ad3ab3740b5869a53e77aacd", "is_reserved": 0, "rental_uris": {"ios": "https://dc.lft.to/lastmile_qr_scan", "android": "https://dc.lft.to/lastmile_qr_scan"}, "is_disabled": 0, "lon": -77.03194466666666, "name": "0f8b9724ad3ab3740b5869a53e77aacd", "fusion_lon": 0.0}, {"lat": 38.889117666666664, "fusion_lat": 0.0, "type": "electric_scooter", "bike_id": "e9eb7db1d70a7cecf2595c7926eec4f1", "is_reserved": 0, "rental_uris": {"ios": "https://dc.lft.to/lastmile_qr_scan", "android": "https://dc.lft.to/lastmile_qr_scan"}, "is_disabled": 0, "lon": -76.99171983333333, "name": "e9eb7db1d70a7cecf2595c7926eec4f1", "fusion_lon": 0.0}, {"lat": 38.838319166666665, "fusion_lat": 0.0, "type": "electric_bike", "bike_id": "876906c8a83685b664ef44d4639719b8", "is_reserved": 0, "rental_uris": {"ios": "https://dc.lft.to/lastmile_qr_scan", "android": "https://dc.lft.to/lastmile_qr_scan"}, "is_disabled": 0, "lon": -77.00244066666667, "name": "876906c8a83685b664ef44d4639719b8", "fusion_lon": 0.0}, {"lat": 38.88455483333333, "fusion_lat": 0.0, "type": "electric_scooter", "bike_id": "3faf96940abae97c2d3366b6fdda610a", "is_reserved": 0, "rental_uris": {"ios": "https://dc.lft.to/lastmile_qr_scan", "android": "https://dc.lft.to/lastmile_qr_scan"}, "is_disabled": 0, "lon": -76.926248, "name": "3faf96940abae97c2d3366b6fdda610a", "fusion_lon": 0.0}, {"lat": 38.93500383333333, "fusion_lat": 0.0, "type": "electric_scooter", "bike_id": "35f9499a7da03a127dc89c503f755f6d", "is_reserved": 0, "rental_uris": {"ios": "https://dc.lft.to/lastmile_qr_scan", "android": "https://dc.lft.to/lastmile_qr_scan"}, "is_disabled": 0, "lon": -77.035244, "name": "35f9499a7da03a127dc89c503f755f6d", "fusion_lon": 0.0}, {"lat": 38.835513166666665, "fusion_lat": 0.0, "type": "electric_bike", "bike_id": "89f7e59d51fc61229866aac7da09a1b0", "is_reserved": 0, "rental_uris": {"ios": "https://dc.lft.to/lastmile_qr_scan", "android": "https://dc.lft.to/lastmile_qr_scan"}, "is_disabled": 0, "lon": -76.98726483333333, "name": "89f7e59d51fc61229866aac7da09a1b0", "fusion_lon": 0.0}, {"lat": 38.8996575, "fusion_lat": 0.0, "type": "electric_scooter", "bike_id": "21fd6534acc036b371ad7345c3697d65", "is_reserved": 0, "rental_uris": {"ios": "https://dc.lft.to/lastmile_qr_scan", "android": "https://dc.lft.to/lastmile_qr_scan"}, "is_disabled": 0, "lon": -77.02183783333334, "name": "21fd6534acc036b371ad7345c3697d65", "fusion_lon": 0.0}, {"lat": 38.919772333333334, "fusion_lat": 0.0, "type": "electric_scooter", "bike_id": "2cc70fa43d934936c03febbe50468e63", "is_reserved": 0, "rental_uris": {"ios": "https://dc.lft.to/lastmile_qr_scan", "android": "https://dc.lft.to/lastmile_qr_scan"}, "is_disabled": 0, "lon": -77.01914616666667, "name": "2cc70fa43d934936c03febbe50468e63", "fusion_lon": 0.0}, {"lat": 38.907061666666664, "fusion_lat": 0.0, "type": "electric_scooter", "bike_id": "e102bac1fbf5668c16125891c82fdcd5", "is_reserved": 0, "rental_uris": {"ios": "https://dc.lft.to/lastmile_qr_scan", "android": "https://dc.lft.to/lastmile_qr_scan"}, "is_disabled": 0, "lon": -77.02939766666667, "name": "e102bac1fbf5668c16125891c82fdcd5", "fusion_lon": 0.0}, {"lat": 38.8694045, "fusion_lat": 0.0, "type": "electric_bike", "bike_id": "28b14f64b7dad3dec2a9ae2cea916f2b", "is_reserved": 0, "rental_uris": {"ios": "https://dc.lft.to/lastmile_qr_scan", "android": "https://dc.lft.to/lastmile_qr_scan"}, "is_disabled": 0, "lon": -77.09469216666666, "name": "28b14f64b7dad3dec2a9ae2cea916f2b", "fusion_lon": 0.0}, {"lat": 38.918580166666665, "fusion_lat": 0.0, "type": "electric_scooter", "bike_id": "8d63b642c5a56c8e4aa0677e9143c670", "is_reserved": 0, "rental_uris": {"ios": "https://dc.lft.to/lastmile_qr_scan", "android": "https://dc.lft.to/lastmile_qr_scan"}, "is_disabled": 0, "lon": -77.04105916666667, "name": "8d63b642c5a56c8e4aa0677e9143c670", "fusion_lon": 0.0}, {"lat": 38.883805833333334, "fusion_lat": 0.0, "type": "electric_scooter", "bike_id": "921c56c78f3bcc81f98ba91bdbfd1b1c", "is_reserved": 0, "rental_uris": {"ios": "https://dc.lft.to/lastmile_qr_scan", "android": "https://dc.lft.to/lastmile_qr_scan"}, "is_disabled": 0, "lon": -76.99518633333334, "name": "921c56c78f3bcc81f98ba91bdbfd1b1c", "fusion_lon": 0.0}, {"lat": 38.95913866666667, "fusion_lat": 0.0, "type": "electric_bike", "bike_id": "1055ed2d27cc02493f1bf150976ae33f", "is_reserved": 0, "rental_uris": {"ios": "https://dc.lft.to/lastmile_qr_scan", "android": "https://dc.lft.to/lastmile_qr_scan"}, "is_disabled": 0, "lon": -77.08480916666667, "name": "1055ed2d27cc02493f1bf150976ae33f", "fusion_lon": 0.0}, {"lat": 38.88850466666667, "fusion_lat": 0.0, "type": "electric_scooter", "bike_id": "9d3964d036db7aa4c4f24a1793a29293", "is_reserved": 0, "rental_uris": {"ios": "https://dc.lft.to/lastmile_qr_scan", "android": "https://dc.lft.to/lastmile_qr_scan"}, "is_disabled": 0, "lon": -76.92686616666667, "name": "9d3964d036db7aa4c4f24a1793a29293", "fusion_lon": 0.0}, {"lat": 38.902070333333334, "fusion_lat": 0.0, "type": "electric_scooter", "bike_id": "23d816f85829b1e182d02a15a7a5c49b", "is_reserved": 0, "rental_uris": {"ios": "https://dc.lft.to/lastmile_qr_scan", "android": "https://dc.lft.to/lastmile_qr_scan"}, "is_disabled": 0, "lon": -77.021736, "name": "23d816f85829b1e182d02a15a7a5c49b", "fusion_lon": 0.0}, {"lat": 38.91694833333333, "fusion_lat": 0.0, "type": "electric_scooter", "bike_id": "7bb338426ce52a9de2caea54a163aae5", "is_reserved": 0, "rental_uris": {"ios": "https://dc.lft.to/lastmile_qr_scan", "android": "https://dc.lft.to/lastmile_qr_scan"}, "is_disabled": 0, "lon": -77.03395, "name": "7bb338426ce52a9de2caea54a163aae5", "fusion_lon": 0.0}, {"lat": 38.907412666666666, "fusion_lat": 0.0, "type": "electric_scooter", "bike_id": "d7e3d3ba97b1ea8262b9189b7d81b068", "is_reserved": 0, "rental_uris": {"ios": "https://dc.lft.to/lastmile_qr_scan", "android": "https://dc.lft.to/lastmile_qr_scan"}, "is_disabled": 0, "lon": -77.009337, "name": "d7e3d3ba97b1ea8262b9189b7d81b068", "fusion_lon": 0.0}, {"lat": 38.88434683333333, "fusion_lat": 0.0, "type": "electric_scooter", "bike_id": "b6d382ab658cfedb40f28357d668fcba", "is_reserved": 0, "rental_uris": {"ios": "https://dc.lft.to/lastmile_qr_scan", "android": "https://dc.lft.to/lastmile_qr_scan"}, "is_disabled": 0, "lon": -76.95748933333333, "name": "b6d382ab658cfedb40f28357d668fcba", "fusion_lon": 0.0}, {"lat": 38.893167, "fusion_lat": 0.0, "type": "electric_scooter", "bike_id": "a97a7969513c703007d145d38854db6d", "is_reserved": 0, "rental_uris": {"ios": "https://dc.lft.to/lastmile_qr_scan", "android": "https://dc.lft.to/lastmile_qr_scan"}, "is_disabled": 0, "lon": -77.05003083333334, "name": "a97a7969513c703007d145d38854db6d", "fusion_lon": 0.0}, {"lat": 38.8863805, "fusion_lat": 0.0, "type": "electric_scooter", "bike_id": "c6e994a5e0b45ce3d3f75d7de3228082", "is_reserved": 0, "rental_uris": {"ios": "https://dc.lft.to/lastmile_qr_scan", "android": "https://dc.lft.to/lastmile_qr_scan"}, "is_disabled": 0, "lon": -77.01908016666667, "name": "c6e994a5e0b45ce3d3f75d7de3228082", "fusion_lon": 0.0}, {"lat": 38.905193, "fusion_lat": 0.0, "type": "electric_scooter", "bike_id": "c9b89a6d39af77787233e465ab066109", "is_reserved": 0, "rental_uris": {"ios": "https://dc.lft.to/lastmile_qr_scan", "android": "https://dc.lft.to/lastmile_qr_scan"}, "is_disabled": 0, "lon": -77.050996, "name": "c9b89a6d39af77787233e465ab066109", "fusion_lon": 0.0}, {"lat": 38.9286925, "fusion_lat": 0.0, "type": "electric_scooter", "bike_id": "8c82acfdb4349c018983a32e2561245d", "is_reserved": 0, "rental_uris": {"ios": "https://dc.lft.to/lastmile_qr_scan", "android": "https://dc.lft.to/lastmile_qr_scan"}, "is_disabled": 0, "lon": -77.0285495, "name": "8c82acfdb4349c018983a32e2561245d", "fusion_lon": 0.0}, {"lat": 38.87179016666666, "fusion_lat": 0.0, "type": "electric_scooter", "bike_id": "c2902483dfbd5f7f432bf986e41dd13d", "is_reserved": 0, "rental_uris": {"ios": "https://dc.lft.to/lastmile_qr_scan", "android": "https://dc.lft.to/lastmile_qr_scan"}, "is_disabled": 0, "lon": -77.00613616666666, "name": "c2902483dfbd5f7f432bf986e41dd13d", "fusion_lon": 0.0}, {"lat": 38.91846616666667, "fusion_lat": 0.0, "type": "electric_scooter", "bike_id": "52c5529e3d41b2a5ce9d5b1c2a12f24f", "is_reserved": 0, "rental_uris": {"ios": "https://dc.lft.to/lastmile_qr_scan", "android": "https://dc.lft.to/lastmile_qr_scan"}, "is_disabled": 0, "lon": -77.04013933333333, "name": "52c5529e3d41b2a5ce9d5b1c2a12f24f", "fusion_lon": 0.0}, {"lat": 38.887474166666664, "fusion_lat": 0.0, "type": "electric_scooter", "bike_id": "e5fbb7cf7dc28efb5c7659f3ee2379c3", "is_reserved": 0, "rental_uris": {"ios": "https://dc.lft.to/lastmile_qr_scan", "android": "https://dc.lft.to/lastmile_qr_scan"}, "is_disabled": 0, "lon": -77.02845233333333, "name": "e5fbb7cf7dc28efb5c7659f3ee2379c3", "fusion_lon": 0.0}, {"lat": 38.92857683333333, "fusion_lat": 0.0, "type": "electric_scooter", "bike_id": "dbeb83e12a4a2313ee0ff13105e38102", "is_reserved": 0, "rental_uris": {"ios": "https://dc.lft.to/lastmile_qr_scan", "android": "https://dc.lft.to/lastmile_qr_scan"}, "is_disabled": 0, "lon": -77.02961616666667, "name": "dbeb83e12a4a2313ee0ff13105e38102", "fusion_lon": 0.0}, {"lat": 38.919870333333336, "fusion_lat": 0.0, "type": "electric_scooter", "bike_id": "18ccee5b940ebcb67303402c6e3221ef", "is_reserved": 0, "rental_uris": {"ios": "https://dc.lft.to/lastmile_qr_scan", "android": "https://dc.lft.to/lastmile_qr_scan"}, "is_disabled": 0, "lon": -77.02376116666667, "name": "18ccee5b940ebcb67303402c6e3221ef", "fusion_lon": 0.0}, {"lat": 38.8651815, "fusion_lat": 0.0, "type": "electric_bike", "bike_id": "a627eba90ffaec7d28d01b3d9fe169dc", "is_reserved": 0, "rental_uris": {"ios": "https://dc.lft.to/lastmile_qr_scan", "android": "https://dc.lft.to/lastmile_qr_scan"}, "is_disabled": 0, "lon": -76.97332966666667, "name": "a627eba90ffaec7d28d01b3d9fe169dc", "fusion_lon": 0.0}, {"lat": 38.91121833333333, "fusion_lat": 0.0, "type": "electric_scooter", "bike_id": "27c851ee46622846226dce1b12e617ee", "is_reserved": 0, "rental_uris": {"ios": "https://dc.lft.to/lastmile_qr_scan", "android": "https://dc.lft.to/lastmile_qr_scan"}, "is_disabled": 0, "lon": -77.033186, "name": "27c851ee46622846226dce1b12e617ee", "fusion_lon": 0.0}, {"lat": 38.91500833333333, "fusion_lat": 0.0, "type": "electric_scooter", "bike_id": "9e6ec70851f27377a6e9ce1113783926", "is_reserved": 0, "rental_uris": {"ios": "https://dc.lft.to/lastmile_qr_scan", "android": "https://dc.lft.to/lastmile_qr_scan"}, "is_disabled": 0, "lon": -77.0454015, "name": "9e6ec70851f27377a6e9ce1113783926", "fusion_lon": 0.0}, {"lat": 38.907407, "fusion_lat": 0.0, "type": "electric_scooter", "bike_id": "eacb61bfba9af0f9bdeb95f6d1481294", "is_reserved": 0, "rental_uris": {"ios": "https://dc.lft.to/lastmile_qr_scan", "android": "https://dc.lft.to/lastmile_qr_scan"}, "is_disabled": 0, "lon": -77.02802966666667, "name": "eacb61bfba9af0f9bdeb95f6d1481294", "fusion_lon": 0.0}, {"lat": 38.91124133333334, "fusion_lat": 0.0, "type": "electric_scooter", "bike_id": "0b240579942d1dbcaaabba9d0ad2aca7", "is_reserved": 0, "rental_uris": {"ios": "https://dc.lft.to/lastmile_qr_scan", "android": "https://dc.lft.to/lastmile_qr_scan"}, "is_disabled": 0, "lon": -77.03840483333333, "name": "0b240579942d1dbcaaabba9d0ad2aca7", "fusion_lon": 0.0}, {"lat": 38.908604, "fusion_lat": 0.0, "type": "electric_bike", "bike_id": "d43a05575792574f446279c55b319a35", "is_reserved": 0, "rental_uris": {"ios": "https://dc.lft.to/lastmile_qr_scan", "android": "https://dc.lft.to/lastmile_qr_scan"}, "is_disabled": 0, "lon": -77.02921016666667, "name": "d43a05575792574f446279c55b319a35", "fusion_lon": 0.0}, {"lat": 38.90177416666667, "fusion_lat": 0.0, "type": "electric_scooter", "bike_id": "e99e3ba435218ed05c2f1538fcab130b", "is_reserved": 0, "rental_uris": {"ios": "https://dc.lft.to/lastmile_qr_scan", "android": "https://dc.lft.to/lastmile_qr_scan"}, "is_disabled": 0, "lon": -76.98301833333333, "name": "e99e3ba435218ed05c2f1538fcab130b", "fusion_lon": 0.0}, {"lat": 38.915634, "fusion_lat": 0.0, "type": "electric_scooter", "bike_id": "fdaa749b17779611d00e3ca5a9da11a8", "is_reserved": 0, "rental_uris": {"ios": "https://dc.lft.to/lastmile_qr_scan", "android": "https://dc.lft.to/lastmile_qr_scan"}, "is_disabled": 0, "lon": -77.0371095, "name": "fdaa749b17779611d00e3ca5a9da11a8", "fusion_lon": 0.0}, {"lat": 38.910167333333334, "fusion_lat": 0.0, "type": "electric_scooter", "bike_id": "b14ecb8c875346612e6c7ed52078a80c", "is_reserved": 0, "rental_uris": {"ios": "https://dc.lft.to/lastmile_qr_scan", "android": "https://dc.lft.to/lastmile_qr_scan"}, "is_disabled": 0, "lon": -77.04174166666667, "name": "b14ecb8c875346612e6c7ed52078a80c", "fusion_lon": 0.0}, {"lat": 38.91676983333333, "fusion_lat": 0.0, "type": "electric_scooter", "bike_id": "b39fdc7fd82ecfb0fcce90d2bdefa01a", "is_reserved": 0, "rental_uris": {"ios": "https://dc.lft.to/lastmile_qr_scan", "android": "https://dc.lft.to/lastmile_qr_scan"}, "is_disabled": 0, "lon": -77.02717983333334, "name": "b39fdc7fd82ecfb0fcce90d2bdefa01a", "fusion_lon": 0.0}, {"lat": 38.884080833333336, "fusion_lat": 0.0, "type": "electric_scooter", "bike_id": "2db119131164b2d363561f557b6151d4", "is_reserved": 0, "rental_uris": {"ios": "https://dc.lft.to/lastmile_qr_scan", "android": "https://dc.lft.to/lastmile_qr_scan"}, "is_disabled": 0, "lon": -76.953966, "name": "2db119131164b2d363561f557b6151d4", "fusion_lon": 0.0}, {"lat": 38.9403905, "fusion_lat": 0.0, "type": "electric_scooter", "bike_id": "76d4a99ca7584d4b8611d61c75b22c95", "is_reserved": 0, "rental_uris": {"ios": "https://dc.lft.to/lastmile_qr_scan", "android": "https://dc.lft.to/lastmile_qr_scan"}, "is_disabled": 0, "lon": -77.029045, "name": "76d4a99ca7584d4b8611d61c75b22c95", "fusion_lon": 0.0}, {"lat": 38.908367, "fusion_lat": 0.0, "type": "electric_bike", "bike_id": "c1981fec1c4c82b9d3fc0ea41cdf9be9", "is_reserved": 0, "rental_uris": {"ios": "https://dc.lft.to/lastmile_qr_scan", "android": "https://dc.lft.to/lastmile_qr_scan"}, "is_disabled": 0, "lon": -76.93308016666667, "name": "c1981fec1c4c82b9d3fc0ea41cdf9be9", "fusion_lon": 0.0}, {"lat": 38.87642233333333, "fusion_lat": 0.0, "type": "electric_scooter", "bike_id": "f7e24ba4dc8040663cd146ca18efa52b", "is_reserved": 0, "rental_uris": {"ios": "https://dc.lft.to/lastmile_qr_scan", "android": "https://dc.lft.to/lastmile_qr_scan"}, "is_disabled": 0, "lon": -77.01478533333334, "name": "f7e24ba4dc8040663cd146ca18efa52b", "fusion_lon": 0.0}, {"lat": 38.9476585, "fusion_lat": 0.0, "type": "electric_bike", "bike_id": "710676636ca205b73b77b4f60cbbacfb", "is_reserved": 0, "rental_uris": {"ios": "https://dc.lft.to/lastmile_qr_scan", "android": "https://dc.lft.to/lastmile_qr_scan"}, "is_disabled": 0, "lon": -77.032924, "name": "710676636ca205b73b77b4f60cbbacfb", "fusion_lon": 0.0}, {"lat": 38.90985416666667, "fusion_lat": 0.0, "type": "electric_scooter", "bike_id": "947cd83308b8b499930643b2c95e78b0", "is_reserved": 0, "rental_uris": {"ios": "https://dc.lft.to/lastmile_qr_scan", "android": "https://dc.lft.to/lastmile_qr_scan"}, "is_disabled": 0, "lon": -77.044095, "name": "947cd83308b8b499930643b2c95e78b0", "fusion_lon": 0.0}, {"lat": 38.90978966666667, "fusion_lat": 0.0, "type": "electric_scooter", "bike_id": "2af5f2551df5404aba47b2a1ec9c0726", "is_reserved": 0, "rental_uris": {"ios": "https://dc.lft.to/lastmile_qr_scan", "android": "https://dc.lft.to/lastmile_qr_scan"}, "is_disabled": 0, "lon": -77.03182233333334, "name": "2af5f2551df5404aba47b2a1ec9c0726", "fusion_lon": 0.0}, {"lat": 38.89270416666667, "fusion_lat": 0.0, "type": "electric_scooter", "bike_id": "32ab5122f6d051e19fb574db18798fd1", "is_reserved": 0, "rental_uris": {"ios": "https://dc.lft.to/lastmile_qr_scan", "android": "https://dc.lft.to/lastmile_qr_scan"}, "is_disabled": 0, "lon": -77.0035895, "name": "32ab5122f6d051e19fb574db18798fd1", "fusion_lon": 0.0}, {"lat": 38.89641983333333, "fusion_lat": 0.0, "type": "electric_scooter", "bike_id": "1eb1a73f359ff987f1fb1e8e20ed5c9a", "is_reserved": 0, "rental_uris": {"ios": "https://dc.lft.to/lastmile_qr_scan", "android": "https://dc.lft.to/lastmile_qr_scan"}, "is_disabled": 0, "lon": -77.02627483333333, "name": "1eb1a73f359ff987f1fb1e8e20ed5c9a", "fusion_lon": 0.0}, {"lat": 38.91694016666667, "fusion_lat": 0.0, "type": "electric_scooter", "bike_id": "1137d8a36421a27016651a7fa501dafd", "is_reserved": 0, "rental_uris": {"ios": "https://dc.lft.to/lastmile_qr_scan", "android": "https://dc.lft.to/lastmile_qr_scan"}, "is_disabled": 0, "lon": -77.02516466666667, "name": "1137d8a36421a27016651a7fa501dafd", "fusion_lon": 0.0}, {"lat": 38.9235545, "fusion_lat": 0.0, "type": "electric_scooter", "bike_id": "4597ec965d1a7d8c689e7d20e850abe1", "is_reserved": 0, "rental_uris": {"ios": "https://dc.lft.to/lastmile_qr_scan", "android": "https://dc.lft.to/lastmile_qr_scan"}, "is_disabled": 0, "lon": -77.05285266666667, "name": "4597ec965d1a7d8c689e7d20e850abe1", "fusion_lon": 0.0}, {"lat": 38.9257175, "fusion_lat": 0.0, "type": "electric_scooter", "bike_id": "14ccf848c1783db998014a052856120c", "is_reserved": 0, "rental_uris": {"ios": "https://dc.lft.to/lastmile_qr_scan", "android": "https://dc.lft.to/lastmile_qr_scan"}, "is_disabled": 0, "lon": -77.03219516666667, "name": "14ccf848c1783db998014a052856120c", "fusion_lon": 0.0}, {"lat": 38.918139333333336, "fusion_lat": 0.0, "type": "electric_scooter", "bike_id": "7e9593885113156722e32eb7dd5ac686", "is_reserved": 0, "rental_uris": {"ios": "https://dc.lft.to/lastmile_qr_scan", "android": "https://dc.lft.to/lastmile_qr_scan"}, "is_disabled": 0, "lon": -77.04003816666666, "name": "7e9593885113156722e32eb7dd5ac686", "fusion_lon": 0.0}, {"lat": 38.8650785, "fusion_lat": 0.0, "type": "electric_scooter", "bike_id": "5465fc960de89dafbd894d375dfa622d", "is_reserved": 0, "rental_uris": {"ios": "https://dc.lft.to/lastmile_qr_scan", "android": "https://dc.lft.to/lastmile_qr_scan"}, "is_disabled": 0, "lon": -76.99014, "name": "5465fc960de89dafbd894d375dfa622d", "fusion_lon": 0.0}, {"lat": 38.919663, "fusion_lat": 0.0, "type": "electric_scooter", "bike_id": "1adee7a08d5b8730edff0b038761f064", "is_reserved": 0, "rental_uris": {"ios": "https://dc.lft.to/lastmile_qr_scan", "android": "https://dc.lft.to/lastmile_qr_scan"}, "is_disabled": 0, "lon": -77.03481883333333, "name": "1adee7a08d5b8730edff0b038761f064", "fusion_lon": 0.0}, {"lat": 38.9358585, "fusion_lat": 0.0, "type": "electric_scooter", "bike_id": "53f77bd976ddc8f211c66773879824e0", "is_reserved": 0, "rental_uris": {"ios": "https://dc.lft.to/lastmile_qr_scan", "android": "https://dc.lft.to/lastmile_qr_scan"}, "is_disabled": 0, "lon": -77.03361283333334, "name": "53f77bd976ddc8f211c66773879824e0", "fusion_lon": 0.0}, {"lat": 38.92711116666667, "fusion_lat": 0.0, "type": "electric_scooter", "bike_id": "fbffe1bd29e9bf2a691b66b64b82932f", "is_reserved": 0, "rental_uris": {"ios": "https://dc.lft.to/lastmile_qr_scan", "android": "https://dc.lft.to/lastmile_qr_scan"}, "is_disabled": 0, "lon": -77.02423733333333, "name": "fbffe1bd29e9bf2a691b66b64b82932f", "fusion_lon": 0.0}, {"lat": 38.94531083333333, "fusion_lat": 0.0, "type": "electric_scooter", "bike_id": "136878f57d58cb805f788c6fcca0c634", "is_reserved": 0, "rental_uris": {"ios": "https://dc.lft.to/lastmile_qr_scan", "android": "https://dc.lft.to/lastmile_qr_scan"}, "is_disabled": 0, "lon": -77.02085183333334, "name": "136878f57d58cb805f788c6fcca0c634", "fusion_lon": 0.0}, {"lat": 38.922316333333335, "fusion_lat": 0.0, "type": "electric_scooter", "bike_id": "51afa0a3a469b457cf5291c8088015c1", "is_reserved": 0, "rental_uris": {"ios": "https://dc.lft.to/lastmile_qr_scan", "android": "https://dc.lft.to/lastmile_qr_scan"}, "is_disabled": 0, "lon": -77.03299566666666, "name": "51afa0a3a469b457cf5291c8088015c1", "fusion_lon": 0.0}, {"lat": 38.923094666666664, "fusion_lat": 0.0, "type": "electric_bike", "bike_id": "50298e950f4cb7bd005f8a6ef578144a", "is_reserved": 0, "rental_uris": {"ios": "https://dc.lft.to/lastmile_qr_scan", "android": "https://dc.lft.to/lastmile_qr_scan"}, "is_disabled": 0, "lon": -77.0226165, "name": "50298e950f4cb7bd005f8a6ef578144a", "fusion_lon": 0.0}, {"lat": 38.8076475, "fusion_lat": 0.0, "type": "electric_bike", "bike_id": "9503d98485ff355734d75d94333c95c1", "is_reserved": 0, "rental_uris": {"ios": "https://dc.lft.to/lastmile_qr_scan", "android": "https://dc.lft.to/lastmile_qr_scan"}, "is_disabled": 0, "lon": -77.094696, "name": "9503d98485ff355734d75d94333c95c1", "fusion_lon": 0.0}, {"lat": 38.87206316666666, "fusion_lat": 0.0, "type": "electric_scooter", "bike_id": "511c7f2ed79873045299a9333201550b", "is_reserved": 0, "rental_uris": {"ios": "https://dc.lft.to/lastmile_qr_scan", "android": "https://dc.lft.to/lastmile_qr_scan"}, "is_disabled": 0, "lon": -77.00970916666667, "name": "511c7f2ed79873045299a9333201550b", "fusion_lon": 0.0}, {"lat": 38.99342816666667, "fusion_lat": 0.0, "type": "electric_bike", "bike_id": "206bfaf6c4faeaab17629fb3ed6be30a", "is_reserved": 0, "rental_uris": {"ios": "https://dc.lft.to/lastmile_qr_scan", "android": "https://dc.lft.to/lastmile_qr_scan"}, "is_disabled": 0, "lon": -77.11579383333333, "name": "206bfaf6c4faeaab17629fb3ed6be30a", "fusion_lon": 0.0}, {"lat": 38.915792833333334, "fusion_lat": 0.0, "type": "electric_scooter", "bike_id": "039f97799556f17cefd526092ea9459e", "is_reserved": 0, "rental_uris": {"ios": "https://dc.lft.to/lastmile_qr_scan", "android": "https://dc.lft.to/lastmile_qr_scan"}, "is_disabled": 0, "lon": -77.012349, "name": "039f97799556f17cefd526092ea9459e", "fusion_lon": 0.0}, {"lat": 38.941816, "fusion_lat": 0.0, "type": "electric_scooter", "bike_id": "5d81bd9cb5924e0137ce399210fedebc", "is_reserved": 0, "rental_uris": {"ios": "https://dc.lft.to/lastmile_qr_scan", "android": "https://dc.lft.to/lastmile_qr_scan"}, "is_disabled": 0, "lon": -77.027945, "name": "5d81bd9cb5924e0137ce399210fedebc", "fusion_lon": 0.0}, {"lat": 38.9087255, "fusion_lat": 0.0, "type": "electric_scooter", "bike_id": "0b1b7ac091a719a50fdb55ab3ddde5e0", "is_reserved": 0, "rental_uris": {"ios": "https://dc.lft.to/lastmile_qr_scan", "android": "https://dc.lft.to/lastmile_qr_scan"}, "is_disabled": 0, "lon": -77.03217433333333, "name": "0b1b7ac091a719a50fdb55ab3ddde5e0", "fusion_lon": 0.0}, {"lat": 38.8733985, "fusion_lat": 0.0, "type": "electric_scooter", "bike_id": "6af6647157063af33366ba1703f84994", "is_reserved": 0, "rental_uris": {"ios": "https://dc.lft.to/lastmile_qr_scan", "android": "https://dc.lft.to/lastmile_qr_scan"}, "is_disabled": 0, "lon": -77.00255416666667, "name": "6af6647157063af33366ba1703f84994", "fusion_lon": 0.0}, {"lat": 38.924630666666665, "fusion_lat": 0.0, "type": "electric_scooter", "bike_id": "b2da6eacf988c861af2630ab84893b80", "is_reserved": 0, "rental_uris": {"ios": "https://dc.lft.to/lastmile_qr_scan", "android": "https://dc.lft.to/lastmile_qr_scan"}, "is_disabled": 0, "lon": -77.0222655, "name": "b2da6eacf988c861af2630ab84893b80", "fusion_lon": 0.0}, {"lat": 38.8609585, "fusion_lat": 0.0, "type": "electric_scooter", "bike_id": "63dd524d5687ed516014cbcb6e4ebb95", "is_reserved": 0, "rental_uris": {"ios": "https://dc.lft.to/lastmile_qr_scan", "android": "https://dc.lft.to/lastmile_qr_scan"}, "is_disabled": 0, "lon": -76.96879666666666, "name": "63dd524d5687ed516014cbcb6e4ebb95", "fusion_lon": 0.0}, {"lat": 38.958952833333335, "fusion_lat": 0.0, "type": "electric_scooter", "bike_id": "dd83891e2d60a23d3ba7928add5c5669", "is_reserved": 0, "rental_uris": {"ios": "https://dc.lft.to/lastmile_qr_scan", "android": "https://dc.lft.to/lastmile_qr_scan"}, "is_disabled": 0, "lon": -77.08601916666667, "name": "dd83891e2d60a23d3ba7928add5c5669", "fusion_lon": 0.0}, {"lat": 38.89904466666667, "fusion_lat": 0.0, "type": "electric_scooter", "bike_id": "767e7f1c374c39550d78493e6a1281f1", "is_reserved": 0, "rental_uris": {"ios": "https://dc.lft.to/lastmile_qr_scan", "android": "https://dc.lft.to/lastmile_qr_scan"}, "is_disabled": 0, "lon": -77.01501216666666, "name": "767e7f1c374c39550d78493e6a1281f1", "fusion_lon": 0.0}, {"lat": 38.87471883333333, "fusion_lat": 0.0, "type": "electric_scooter", "bike_id": "bcadaa3d59833c1ea956e38485780e52", "is_reserved": 0, "rental_uris": {"ios": "https://dc.lft.to/lastmile_qr_scan", "android": "https://dc.lft.to/lastmile_qr_scan"}, "is_disabled": 0, "lon": -77.015971, "name": "bcadaa3d59833c1ea956e38485780e52", "fusion_lon": 0.0}, {"lat": 38.94515766666667, "fusion_lat": 0.0, "type": "electric_scooter", "bike_id": "a7706127b3cdbce996cb10504ce49259", "is_reserved": 0, "rental_uris": {"ios": "https://dc.lft.to/lastmile_qr_scan", "android": "https://dc.lft.to/lastmile_qr_scan"}, "is_disabled": 0, "lon": -77.03379116666666, "name": "a7706127b3cdbce996cb10504ce49259", "fusion_lon": 0.0}, {"lat": 38.904816833333335, "fusion_lat": 0.0, "type": "electric_scooter", "bike_id": "01487e0ecbb07c1e8326653632c51f4e", "is_reserved": 0, "rental_uris": {"ios": "https://dc.lft.to/lastmile_qr_scan", "android": "https://dc.lft.to/lastmile_qr_scan"}, "is_disabled": 0, "lon": -77.053286, "name": "01487e0ecbb07c1e8326653632c51f4e", "fusion_lon": 0.0}, {"lat": 38.9155625, "fusion_lat": 0.0, "type": "electric_scooter", "bike_id": "f1d98a3fa06f861399af7f9996645a40", "is_reserved": 0, "rental_uris": {"ios": "https://dc.lft.to/lastmile_qr_scan", "android": "https://dc.lft.to/lastmile_qr_scan"}, "is_disabled": 0, "lon": -77.02368883333334, "name": "f1d98a3fa06f861399af7f9996645a40", "fusion_lon": 0.0}, {"lat": 38.90867133333333, "fusion_lat": 0.0, "type": "electric_bike", "bike_id": "cd064e01b64e6cf401a589a59ca01f81", "is_reserved": 0, "rental_uris": {"ios": "https://dc.lft.to/lastmile_qr_scan", "android": "https://dc.lft.to/lastmile_qr_scan"}, "is_disabled": 0, "lon": -76.99124016666667, "name": "cd064e01b64e6cf401a589a59ca01f81", "fusion_lon": 0.0}, {"lat": 38.921345, "fusion_lat": 0.0, "type": "electric_scooter", "bike_id": "1c80833a23dc2a8d8594783c1d7e149d", "is_reserved": 0, "rental_uris": {"ios": "https://dc.lft.to/lastmile_qr_scan", "android": "https://dc.lft.to/lastmile_qr_scan"}, "is_disabled": 0, "lon": -77.04133283333333, "name": "1c80833a23dc2a8d8594783c1d7e149d", "fusion_lon": 0.0}, {"lat": 38.91813616666666, "fusion_lat": 0.0, "type": "electric_scooter", "bike_id": "93b65dbb70896306e451895b020c4cb0", "is_reserved": 0, "rental_uris": {"ios": "https://dc.lft.to/lastmile_qr_scan", "android": "https://dc.lft.to/lastmile_qr_scan"}, "is_disabled": 0, "lon": -77.03391283333333, "name": "93b65dbb70896306e451895b020c4cb0", "fusion_lon": 0.0}, {"lat": 38.900231166666664, "fusion_lat": 0.0, "type": "electric_scooter", "bike_id": "0d1e7faf89b63bd0d59a304b3a9d8345", "is_reserved": 0, "rental_uris": {"ios": "https://dc.lft.to/lastmile_qr_scan", "android": "https://dc.lft.to/lastmile_qr_scan"}, "is_disabled": 0, "lon": -77.0238495, "name": "0d1e7faf89b63bd0d59a304b3a9d8345", "fusion_lon": 0.0}, {"lat": 38.921488333333336, "fusion_lat": 0.0, "type": "electric_scooter", "bike_id": "983bc1e1a70a3cf5e8bbfa0821b3e9c7", "is_reserved": 0, "rental_uris": {"ios": "https://dc.lft.to/lastmile_qr_scan", "android": "https://dc.lft.to/lastmile_qr_scan"}, "is_disabled": 0, "lon": -77.01825683333334, "name": "983bc1e1a70a3cf5e8bbfa0821b3e9c7", "fusion_lon": 0.0}, {"lat": 38.899304, "fusion_lat": 0.0, "type": "electric_scooter", "bike_id": "3a0d1c6a711a18f39168b66d44af24dd", "is_reserved": 0, "rental_uris": {"ios": "https://dc.lft.to/lastmile_qr_scan", "android": "https://dc.lft.to/lastmile_qr_scan"}, "is_disabled": 0, "lon": -77.0403015, "name": "3a0d1c6a711a18f39168b66d44af24dd", "fusion_lon": 0.0}, {"lat": 38.8904535, "fusion_lat": 0.0, "type": "electric_scooter", "bike_id": "fe78686544280235ee7929a777534ded", "is_reserved": 0, "rental_uris": {"ios": "https://dc.lft.to/lastmile_qr_scan", "android": "https://dc.lft.to/lastmile_qr_scan"}, "is_disabled": 0, "lon": -76.9514405, "name": "fe78686544280235ee7929a777534ded", "fusion_lon": 0.0}, {"lat": 38.900364333333336, "fusion_lat": 0.0, "type": "electric_scooter", "bike_id": "a11721b52d401768c306128a69ef7072", "is_reserved": 0, "rental_uris": {"ios": "https://dc.lft.to/lastmile_qr_scan", "android": "https://dc.lft.to/lastmile_qr_scan"}, "is_disabled": 0, "lon": -77.02400716666666, "name": "a11721b52d401768c306128a69ef7072", "fusion_lon": 0.0}, {"lat": 38.89734516666667, "fusion_lat": 0.0, "type": "electric_scooter", "bike_id": "ae6a6e5b048c5d249fa98efa85f74b42", "is_reserved": 0, "rental_uris": {"ios": "https://dc.lft.to/lastmile_qr_scan", "android": "https://dc.lft.to/lastmile_qr_scan"}, "is_disabled": 0, "lon": -77.05477266666666, "name": "ae6a6e5b048c5d249fa98efa85f74b42", "fusion_lon": 0.0}, {"lat": 39.039974, "fusion_lat": 0.0, "type": "electric_bike", "bike_id": "ebeb5684d4d1f230209ce6ac2b4adfc8", "is_reserved": 0, "rental_uris": {"ios": "https://dc.lft.to/lastmile_qr_scan", "android": "https://dc.lft.to/lastmile_qr_scan"}, "is_disabled": 0, "lon": -76.999273, "name": "ebeb5684d4d1f230209ce6ac2b4adfc8", "fusion_lon": 0.0}, {"lat": 38.909682333333336, "fusion_lat": 0.0, "type": "electric_scooter", "bike_id": "5e6ce2d2208cc2e086c7c5c1941b552c", "is_reserved": 0, "rental_uris": {"ios": "https://dc.lft.to/lastmile_qr_scan", "android": "https://dc.lft.to/lastmile_qr_scan"}, "is_disabled": 0, "lon": -77.0337425, "name": "5e6ce2d2208cc2e086c7c5c1941b552c", "fusion_lon": 0.0}, {"lat": 38.90513133333333, "fusion_lat": 0.0, "type": "electric_scooter", "bike_id": "3e99ca9c617ef008eb9f4b03e8044b0f", "is_reserved": 0, "rental_uris": {"ios": "https://dc.lft.to/lastmile_qr_scan", "android": "https://dc.lft.to/lastmile_qr_scan"}, "is_disabled": 0, "lon": -77.00138283333334, "name": "3e99ca9c617ef008eb9f4b03e8044b0f", "fusion_lon": 0.0}, {"lat": 38.905926666666666, "fusion_lat": 0.0, "type": "electric_scooter", "bike_id": "4233a8fbfb38890868c2aba697aa1779", "is_reserved": 0, "rental_uris": {"ios": "https://dc.lft.to/lastmile_qr_scan", "android": "https://dc.lft.to/lastmile_qr_scan"}, "is_disabled": 0, "lon": -77.07015416666667, "name": "4233a8fbfb38890868c2aba697aa1779", "fusion_lon": 0.0}, {"lat": 38.90029883333333, "fusion_lat": 0.0, "type": "electric_scooter", "bike_id": "4838d47713776830f3110af37c9f6b09", "is_reserved": 0, "rental_uris": {"ios": "https://dc.lft.to/lastmile_qr_scan", "android": "https://dc.lft.to/lastmile_qr_scan"}, "is_disabled": 0, "lon": -76.99865316666667, "name": "4838d47713776830f3110af37c9f6b09", "fusion_lon": 0.0}, {"lat": 38.885281, "fusion_lat": 0.0, "type": "electric_scooter", "bike_id": "c983b8fb46d8102203f51c960270c880", "is_reserved": 0, "rental_uris": {"ios": "https://dc.lft.to/lastmile_qr_scan", "android": "https://dc.lft.to/lastmile_qr_scan"}, "is_disabled": 0, "lon": -77.01137366666667, "name": "c983b8fb46d8102203f51c960270c880", "fusion_lon": 0.0}, {"lat": 38.8974475, "fusion_lat": 0.0, "type": "electric_scooter", "bike_id": "af03ea255633247e2661852f394894e6", "is_reserved": 0, "rental_uris": {"ios": "https://dc.lft.to/lastmile_qr_scan", "android": "https://dc.lft.to/lastmile_qr_scan"}, "is_disabled": 0, "lon": -77.00775066666667, "name": "af03ea255633247e2661852f394894e6", "fusion_lon": 0.0}, {"lat": 38.94600883333333, "fusion_lat": 0.0, "type": "electric_scooter", "bike_id": "5b24628d35d16dc5f357a1e02f384652", "is_reserved": 0, "rental_uris": {"ios": "https://dc.lft.to/lastmile_qr_scan", "android": "https://dc.lft.to/lastmile_qr_scan"}, "is_disabled": 0, "lon": -77.07044366666666, "name": "5b24628d35d16dc5f357a1e02f384652", "fusion_lon": 0.0}, {"lat": 38.9672865, "fusion_lat": 0.0, "type": "electric_scooter", "bike_id": "191da32f65ae466fd1b73ab15e66293f", "is_reserved": 0, "rental_uris": {"ios": "https://dc.lft.to/lastmile_qr_scan", "android": "https://dc.lft.to/lastmile_qr_scan"}, "is_disabled": 0, "lon": -77.018592, "name": "191da32f65ae466fd1b73ab15e66293f", "fusion_lon": 0.0}, {"lat": 38.9023655, "fusion_lat": 0.0, "type": "electric_scooter", "bike_id": "657fab5a770f9f55e1148160e6a91514", "is_reserved": 0, "rental_uris": {"ios": "https://dc.lft.to/lastmile_qr_scan", "android": "https://dc.lft.to/lastmile_qr_scan"}, "is_disabled": 0, "lon": -77.0462925, "name": "657fab5a770f9f55e1148160e6a91514", "fusion_lon": 0.0}, {"lat": 38.90211983333333, "fusion_lat": 0.0, "type": "electric_bike", "bike_id": "2247cdda095f985826b7abf384c15c14", "is_reserved": 0, "rental_uris": {"ios": "https://dc.lft.to/lastmile_qr_scan", "android": "https://dc.lft.to/lastmile_qr_scan"}, "is_disabled": 0, "lon": -77.05896033333333, "name": "2247cdda095f985826b7abf384c15c14", "fusion_lon": 0.0}, {"lat": 38.885144333333336, "fusion_lat": 0.0, "type": "electric_scooter", "bike_id": "e4b0a34c52613f160d29dfa47cd4e1b7", "is_reserved": 0, "rental_uris": {"ios": "https://dc.lft.to/lastmile_qr_scan", "android": "https://dc.lft.to/lastmile_qr_scan"}, "is_disabled": 0, "lon": -77.02184866666667, "name": "e4b0a34c52613f160d29dfa47cd4e1b7", "fusion_lon": 0.0}, {"lat": 38.9294225, "fusion_lat": 0.0, "type": "electric_scooter", "bike_id": "801a027a33a0a4dbc019eb8a145720fb", "is_reserved": 0, "rental_uris": {"ios": "https://dc.lft.to/lastmile_qr_scan", "android": "https://dc.lft.to/lastmile_qr_scan"}, "is_disabled": 0, "lon": -77.01990066666667, "name": "801a027a33a0a4dbc019eb8a145720fb", "fusion_lon": 0.0}, {"lat": 38.86241, "fusion_lat": 0.0, "type": "electric_scooter", "bike_id": "c025a85fdf142c7ad80e29983cc7fafe", "is_reserved": 0, "rental_uris": {"ios": "https://dc.lft.to/lastmile_qr_scan", "android": "https://dc.lft.to/lastmile_qr_scan"}, "is_disabled": 0, "lon": -76.9951625, "name": "c025a85fdf142c7ad80e29983cc7fafe", "fusion_lon": 0.0}, {"lat": 38.858914, "fusion_lat": 0.0, "type": "electric_scooter", "bike_id": "8a8a8fc7623caa57226e52a5644e25f6", "is_reserved": 0, "rental_uris": {"ios": "https://dc.lft.to/lastmile_qr_scan", "android": "https://dc.lft.to/lastmile_qr_scan"}, "is_disabled": 0, "lon": -76.99727133333333, "name": "8a8a8fc7623caa57226e52a5644e25f6", "fusion_lon": 0.0}, {"lat": 38.91686983333334, "fusion_lat": 0.0, "type": "electric_scooter", "bike_id": "c536e52628b4327fb0d11e3cdc539d0c", "is_reserved": 0, "rental_uris": {"ios": "https://dc.lft.to/lastmile_qr_scan", "android": "https://dc.lft.to/lastmile_qr_scan"}, "is_disabled": 0, "lon": -77.029857, "name": "c536e52628b4327fb0d11e3cdc539d0c", "fusion_lon": 0.0}, {"lat": 38.94935066666667, "fusion_lat": 0.0, "type": "electric_bike", "bike_id": "1f0425148cf9d9cd94551e692b078413", "is_reserved": 0, "rental_uris": {"ios": "https://dc.lft.to/lastmile_qr_scan", "android": "https://dc.lft.to/lastmile_qr_scan"}, "is_disabled": 0, "lon": -77.06658916666666, "name": "1f0425148cf9d9cd94551e692b078413", "fusion_lon": 0.0}, {"lat": 38.91643083333334, "fusion_lat": 0.0, "type": "electric_scooter", "bike_id": "8e7ec0d30718bba0e7242e63ac755a08", "is_reserved": 0, "rental_uris": {"ios": "https://dc.lft.to/lastmile_qr_scan", "android": "https://dc.lft.to/lastmile_qr_scan"}, "is_disabled": 0, "lon": -77.03977233333333, "name": "8e7ec0d30718bba0e7242e63ac755a08", "fusion_lon": 0.0}, {"lat": 38.899856166666666, "fusion_lat": 0.0, "type": "electric_scooter", "bike_id": "81a99d616fcef4dae345e287be77b7a4", "is_reserved": 0, "rental_uris": {"ios": "https://dc.lft.to/lastmile_qr_scan", "android": "https://dc.lft.to/lastmile_qr_scan"}, "is_disabled": 0, "lon": -76.95003033333333, "name": "81a99d616fcef4dae345e287be77b7a4", "fusion_lon": 0.0}, {"lat": 38.917148833333336, "fusion_lat": 0.0, "type": "electric_scooter", "bike_id": "1445a8acf4a8bc1fc79b31e83f26c4ed", "is_reserved": 0, "rental_uris": {"ios": "https://dc.lft.to/lastmile_qr_scan", "android": "https://dc.lft.to/lastmile_qr_scan"}, "is_disabled": 0, "lon": -77.03444933333333, "name": "1445a8acf4a8bc1fc79b31e83f26c4ed", "fusion_lon": 0.0}, {"lat": 38.94198566666667, "fusion_lat": 0.0, "type": "electric_scooter", "bike_id": "71d8a14e9bba1d14b6718237401420c0", "is_reserved": 0, "rental_uris": {"ios": "https://dc.lft.to/lastmile_qr_scan", "android": "https://dc.lft.to/lastmile_qr_scan"}, "is_disabled": 0, "lon": -77.02511983333333, "name": "71d8a14e9bba1d14b6718237401420c0", "fusion_lon": 0.0}, {"lat": 38.935005333333336, "fusion_lat": 0.0, "type": "electric_scooter", "bike_id": "35d48bf95c32d1c413e9143b6dab3e4c", "is_reserved": 0, "rental_uris": {"ios": "https://dc.lft.to/lastmile_qr_scan", "android": "https://dc.lft.to/lastmile_qr_scan"}, "is_disabled": 0, "lon": -77.0739885, "name": "35d48bf95c32d1c413e9143b6dab3e4c", "fusion_lon": 0.0}, {"lat": 38.93095433333333, "fusion_lat": 0.0, "type": "electric_scooter", "bike_id": "4681a51da869906e7684238c3cfa1922", "is_reserved": 0, "rental_uris": {"ios": "https://dc.lft.to/lastmile_qr_scan", "android": "https://dc.lft.to/lastmile_qr_scan"}, "is_disabled": 0, "lon": -77.02567333333333, "name": "4681a51da869906e7684238c3cfa1922", "fusion_lon": 0.0}, {"lat": 38.89867816666667, "fusion_lat": 0.0, "type": "electric_scooter", "bike_id": "290038ef5c378a3dfcf36101fc70e45c", "is_reserved": 0, "rental_uris": {"ios": "https://dc.lft.to/lastmile_qr_scan", "android": "https://dc.lft.to/lastmile_qr_scan"}, "is_disabled": 0, "lon": -76.9466365, "name": "290038ef5c378a3dfcf36101fc70e45c", "fusion_lon": 0.0}, {"lat": 38.908390833333335, "fusion_lat": 0.0, "type": "electric_scooter", "bike_id": "32fc46473895afee0ab16b7be2bd53b4", "is_reserved": 0, "rental_uris": {"ios": "https://dc.lft.to/lastmile_qr_scan", "android": "https://dc.lft.to/lastmile_qr_scan"}, "is_disabled": 0, "lon": -77.03663216666666, "name": "32fc46473895afee0ab16b7be2bd53b4", "fusion_lon": 0.0}, {"lat": 38.94494316666667, "fusion_lat": 0.0, "type": "electric_scooter", "bike_id": "cf27f57fa37115173cc20e9295ac1f36", "is_reserved": 0, "rental_uris": {"ios": "https://dc.lft.to/lastmile_qr_scan", "android": "https://dc.lft.to/lastmile_qr_scan"}, "is_disabled": 0, "lon": -77.026161, "name": "cf27f57fa37115173cc20e9295ac1f36", "fusion_lon": 0.0}, {"lat": 38.90692766666667, "fusion_lat": 0.0, "type": "electric_scooter", "bike_id": "ad34105d9a3fade5b475bc050d71e6db", "is_reserved": 0, "rental_uris": {"ios": "https://dc.lft.to/lastmile_qr_scan", "android": "https://dc.lft.to/lastmile_qr_scan"}, "is_disabled": 0, "lon": -77.025953, "name": "ad34105d9a3fade5b475bc050d71e6db", "fusion_lon": 0.0}, {"lat": 38.916587, "fusion_lat": 0.0, "type": "electric_scooter", "bike_id": "d5f691a4f3568411ebd5b5ce00cddcc5", "is_reserved": 0, "rental_uris": {"ios": "https://dc.lft.to/lastmile_qr_scan", "android": "https://dc.lft.to/lastmile_qr_scan"}, "is_disabled": 0, "lon": -77.03444616666667, "name": "d5f691a4f3568411ebd5b5ce00cddcc5", "fusion_lon": 0.0}, {"lat": 38.978826833333336, "fusion_lat": 0.0, "type": "electric_bike", "bike_id": "be36d8e8fdb76a28b902e0cfd49015a8", "is_reserved": 0, "rental_uris": {"ios": "https://dc.lft.to/lastmile_qr_scan", "android": "https://dc.lft.to/lastmile_qr_scan"}, "is_disabled": 0, "lon": -77.06034, "name": "be36d8e8fdb76a28b902e0cfd49015a8", "fusion_lon": 0.0}, {"lat": 38.9057695, "fusion_lat": 0.0, "type": "electric_scooter", "bike_id": "f7634fe5574b2ddae2404694519fc791", "is_reserved": 0, "rental_uris": {"ios": "https://dc.lft.to/lastmile_qr_scan", "android": "https://dc.lft.to/lastmile_qr_scan"}, "is_disabled": 0, "lon": -77.02211516666667, "name": "f7634fe5574b2ddae2404694519fc791", "fusion_lon": 0.0}, {"lat": 38.912402666666665, "fusion_lat": 0.0, "type": "electric_scooter", "bike_id": "d539b318b52eddfc93cda9e16805145f", "is_reserved": 0, "rental_uris": {"ios": "https://dc.lft.to/lastmile_qr_scan", "android": "https://dc.lft.to/lastmile_qr_scan"}, "is_disabled": 0, "lon": -77.0341665, "name": "d539b318b52eddfc93cda9e16805145f", "fusion_lon": 0.0}, {"lat": 38.904953, "fusion_lat": 0.0, "type": "electric_scooter", "bike_id": "8e88716225e2849fc4a385679096fd6f", "is_reserved": 0, "rental_uris": {"ios": "https://dc.lft.to/lastmile_qr_scan", "android": "https://dc.lft.to/lastmile_qr_scan"}, "is_disabled": 0, "lon": -77.061078, "name": "8e88716225e2849fc4a385679096fd6f", "fusion_lon": 0.0}, {"lat": 38.9013305, "fusion_lat": 0.0, "type": "electric_scooter", "bike_id": "99322fb2d8973a19b834224d067f606c", "is_reserved": 0, "rental_uris": {"ios": "https://dc.lft.to/lastmile_qr_scan", "android": "https://dc.lft.to/lastmile_qr_scan"}, "is_disabled": 0, "lon": -77.04337383333333, "name": "99322fb2d8973a19b834224d067f606c", "fusion_lon": 0.0}, {"lat": 38.92176966666667, "fusion_lat": 0.0, "type": "electric_scooter", "bike_id": "2d1073345a71ea5518e0eb46563d801d", "is_reserved": 0, "rental_uris": {"ios": "https://dc.lft.to/lastmile_qr_scan", "android": "https://dc.lft.to/lastmile_qr_scan"}, "is_disabled": 0, "lon": -77.01919733333334, "name": "2d1073345a71ea5518e0eb46563d801d", "fusion_lon": 0.0}, {"lat": 38.9129655, "fusion_lat": 0.0, "type": "electric_scooter", "bike_id": "649f3004c409511d7eb0e79597e16707", "is_reserved": 0, "rental_uris": {"ios": "https://dc.lft.to/lastmile_qr_scan", "android": "https://dc.lft.to/lastmile_qr_scan"}, "is_disabled": 0, "lon": -77.06675033333333, "name": "649f3004c409511d7eb0e79597e16707", "fusion_lon": 0.0}, {"lat": 38.95147766666667, "fusion_lat": 0.0, "type": "electric_scooter", "bike_id": "4ad5b818042ac4f94c5250e0dcf5a26e", "is_reserved": 0, "rental_uris": {"ios": "https://dc.lft.to/lastmile_qr_scan", "android": "https://dc.lft.to/lastmile_qr_scan"}, "is_disabled": 0, "lon": -77.01877316666666, "name": "4ad5b818042ac4f94c5250e0dcf5a26e", "fusion_lon": 0.0}, {"lat": 38.9123575, "fusion_lat": 0.0, "type": "electric_scooter", "bike_id": "29dca2e2b7c1507ee942c914f13f01a1", "is_reserved": 0, "rental_uris": {"ios": "https://dc.lft.to/lastmile_qr_scan", "android": "https://dc.lft.to/lastmile_qr_scan"}, "is_disabled": 0, "lon": -77.0315135, "name": "29dca2e2b7c1507ee942c914f13f01a1", "fusion_lon": 0.0}, {"lat": 38.900255, "fusion_lat": 0.0, "type": "electric_scooter", "bike_id": "c073deb531f4e01b27cf3b65f4f28fd7", "is_reserved": 0, "rental_uris": {"ios": "https://dc.lft.to/lastmile_qr_scan", "android": "https://dc.lft.to/lastmile_qr_scan"}, "is_disabled": 0, "lon": -76.99553916666666, "name": "c073deb531f4e01b27cf3b65f4f28fd7", "fusion_lon": 0.0}, {"lat": 38.91790533333333, "fusion_lat": 0.0, "type": "electric_scooter", "bike_id": "cccd480476b1317994371b862101bd5f", "is_reserved": 0, "rental_uris": {"ios": "https://dc.lft.to/lastmile_qr_scan", "android": "https://dc.lft.to/lastmile_qr_scan"}, "is_disabled": 0, "lon": -77.04214466666667, "name": "cccd480476b1317994371b862101bd5f", "fusion_lon": 0.0}, {"lat": 38.904286666666664, "fusion_lat": 0.0, "type": "electric_scooter", "bike_id": "b729c7c9c0901be224e820c6d9745bc0", "is_reserved": 0, "rental_uris": {"ios": "https://dc.lft.to/lastmile_qr_scan", "android": "https://dc.lft.to/lastmile_qr_scan"}, "is_disabled": 0, "lon": -77.04989383333333, "name": "b729c7c9c0901be224e820c6d9745bc0", "fusion_lon": 0.0}, {"lat": 38.954272333333336, "fusion_lat": 0.0, "type": "electric_scooter", "bike_id": "e6323de3d8b95b7313b8c1a6a1733db0", "is_reserved": 0, "rental_uris": {"ios": "https://dc.lft.to/lastmile_qr_scan", "android": "https://dc.lft.to/lastmile_qr_scan"}, "is_disabled": 0, "lon": -77.02779733333334, "name": "e6323de3d8b95b7313b8c1a6a1733db0", "fusion_lon": 0.0}, {"lat": 38.904148666666664, "fusion_lat": 0.0, "type": "electric_scooter", "bike_id": "c3d6bce35e53e593be829c47a08e6832", "is_reserved": 0, "rental_uris": {"ios": "https://dc.lft.to/lastmile_qr_scan", "android": "https://dc.lft.to/lastmile_qr_scan"}, "is_disabled": 0, "lon": -76.97332233333333, "name": "c3d6bce35e53e593be829c47a08e6832", "fusion_lon": 0.0}, {"lat": 38.919203833333334, "fusion_lat": 0.0, "type": "electric_scooter", "bike_id": "009e1b1b177a8bc970d8d3648458ac99", "is_reserved": 0, "rental_uris": {"ios": "https://dc.lft.to/lastmile_qr_scan", "android": "https://dc.lft.to/lastmile_qr_scan"}, "is_disabled": 0, "lon": -77.033946, "name": "009e1b1b177a8bc970d8d3648458ac99", "fusion_lon": 0.0}, {"lat": 38.91709266666667, "fusion_lat": 0.0, "type": "electric_scooter", "bike_id": "82f47d647bf56fbf6b2baffa73591e1b", "is_reserved": 0, "rental_uris": {"ios": "https://dc.lft.to/lastmile_qr_scan", "android": "https://dc.lft.to/lastmile_qr_scan"}, "is_disabled": 0, "lon": -77.09581916666667, "name": "82f47d647bf56fbf6b2baffa73591e1b", "fusion_lon": 0.0}, {"lat": 38.89849433333333, "fusion_lat": 0.0, "type": "electric_scooter", "bike_id": "ec693e75ffd39590e6579e99a039bd14", "is_reserved": 0, "rental_uris": {"ios": "https://dc.lft.to/lastmile_qr_scan", "android": "https://dc.lft.to/lastmile_qr_scan"}, "is_disabled": 0, "lon": -77.02585433333333, "name": "ec693e75ffd39590e6579e99a039bd14", "fusion_lon": 0.0}, {"lat": 38.923239833333334, "fusion_lat": 0.0, "type": "electric_scooter", "bike_id": "801bedf254d1d4404806b1506d8cef6d", "is_reserved": 0, "rental_uris": {"ios": "https://dc.lft.to/lastmile_qr_scan", "android": "https://dc.lft.to/lastmile_qr_scan"}, "is_disabled": 0, "lon": -77.02144633333333, "name": "801bedf254d1d4404806b1506d8cef6d", "fusion_lon": 0.0}, {"lat": 38.900828, "fusion_lat": 0.0, "type": "electric_scooter", "bike_id": "0ba0c563df625bc71d3fc750830c5e6e", "is_reserved": 0, "rental_uris": {"ios": "https://dc.lft.to/lastmile_qr_scan", "android": "https://dc.lft.to/lastmile_qr_scan"}, "is_disabled": 0, "lon": -77.04992666666666, "name": "0ba0c563df625bc71d3fc750830c5e6e", "fusion_lon": 0.0}, {"lat": 39.0432155, "fusion_lat": 0.0, "type": "electric_bike", "bike_id": "eacc22d26553ced6f2ab00c1f16f5723", "is_reserved": 0, "rental_uris": {"ios": "https://dc.lft.to/lastmile_qr_scan", "android": "https://dc.lft.to/lastmile_qr_scan"}, "is_disabled": 0, "lon": -77.05164083333334, "name": "eacc22d26553ced6f2ab00c1f16f5723", "fusion_lon": 0.0}, {"lat": 38.9065985, "fusion_lat": 0.0, "type": "electric_scooter", "bike_id": "0e28c149cdc7e220e1e6629a5b3fa0b5", "is_reserved": 0, "rental_uris": {"ios": "https://dc.lft.to/lastmile_qr_scan", "android": "https://dc.lft.to/lastmile_qr_scan"}, "is_disabled": 0, "lon": -77.04145833333334, "name": "0e28c149cdc7e220e1e6629a5b3fa0b5", "fusion_lon": 0.0}, {"lat": 38.92165416666667, "fusion_lat": 0.0, "type": "electric_scooter", "bike_id": "141595d0bb9cd77e74a2f0ecf8aa04a0", "is_reserved": 0, "rental_uris": {"ios": "https://dc.lft.to/lastmile_qr_scan", "android": "https://dc.lft.to/lastmile_qr_scan"}, "is_disabled": 0, "lon": -77.0325645, "name": "141595d0bb9cd77e74a2f0ecf8aa04a0", "fusion_lon": 0.0}, {"lat": 38.900094, "fusion_lat": 0.0, "type": "electric_scooter", "bike_id": "048a5b967e94a24d64a8dc9b20176706", "is_reserved": 0, "rental_uris": {"ios": "https://dc.lft.to/lastmile_qr_scan", "android": "https://dc.lft.to/lastmile_qr_scan"}, "is_disabled": 0, "lon": -76.99622933333333, "name": "048a5b967e94a24d64a8dc9b20176706", "fusion_lon": 0.0}, {"lat": 38.92176883333333, "fusion_lat": 0.0, "type": "electric_scooter", "bike_id": "1dd81c9da739fb285f65381a73f7355d", "is_reserved": 0, "rental_uris": {"ios": "https://dc.lft.to/lastmile_qr_scan", "android": "https://dc.lft.to/lastmile_qr_scan"}, "is_disabled": 0, "lon": -77.0400725, "name": "1dd81c9da739fb285f65381a73f7355d", "fusion_lon": 0.0}, {"lat": 38.906701, "fusion_lat": 0.0, "type": "electric_scooter", "bike_id": "9e9a76fcd1ef73484542ca424f21218d", "is_reserved": 0, "rental_uris": {"ios": "https://dc.lft.to/lastmile_qr_scan", "android": "https://dc.lft.to/lastmile_qr_scan"}, "is_disabled": 0, "lon": -77.071211, "name": "9e9a76fcd1ef73484542ca424f21218d", "fusion_lon": 0.0}, {"lat": 38.82383033333333, "fusion_lat": 0.0, "type": "electric_bike", "bike_id": "43f4b5e3e6e49dd328053dec000d4898", "is_reserved": 0, "rental_uris": {"ios": "https://dc.lft.to/lastmile_qr_scan", "android": "https://dc.lft.to/lastmile_qr_scan"}, "is_disabled": 0, "lon": -77.00226733333334, "name": "43f4b5e3e6e49dd328053dec000d4898", "fusion_lon": 0.0}, {"lat": 38.9154575, "fusion_lat": 0.0, "type": "electric_scooter", "bike_id": "86740169f3234d8f4b545b78fc8fb610", "is_reserved": 0, "rental_uris": {"ios": "https://dc.lft.to/lastmile_qr_scan", "android": "https://dc.lft.to/lastmile_qr_scan"}, "is_disabled": 0, "lon": -76.97010816666666, "name": "86740169f3234d8f4b545b78fc8fb610", "fusion_lon": 0.0}, {"lat": 38.897556333333334, "fusion_lat": 0.0, "type": "electric_scooter", "bike_id": "23cc2fd029d8153c3b3dbad588edafb7", "is_reserved": 0, "rental_uris": {"ios": "https://dc.lft.to/lastmile_qr_scan", "android": "https://dc.lft.to/lastmile_qr_scan"}, "is_disabled": 0, "lon": -77.0269655, "name": "23cc2fd029d8153c3b3dbad588edafb7", "fusion_lon": 0.0}, {"lat": 38.89361233333333, "fusion_lat": 0.0, "type": "electric_scooter", "bike_id": "01b0f597a456811b71d1d64bb4e0a56f", "is_reserved": 0, "rental_uris": {"ios": "https://dc.lft.to/lastmile_qr_scan", "android": "https://dc.lft.to/lastmile_qr_scan"}, "is_disabled": 0, "lon": -76.9493325, "name": "01b0f597a456811b71d1d64bb4e0a56f", "fusion_lon": 0.0}, {"lat": 38.90095516666667, "fusion_lat": 0.0, "type": "electric_scooter", "bike_id": "7179669b58df7e531ca7a87e770f14d5", "is_reserved": 0, "rental_uris": {"ios": "https://dc.lft.to/lastmile_qr_scan", "android": "https://dc.lft.to/lastmile_qr_scan"}, "is_disabled": 0, "lon": -77.0241985, "name": "7179669b58df7e531ca7a87e770f14d5", "fusion_lon": 0.0}, {"lat": 38.91575783333333, "fusion_lat": 0.0, "type": "electric_scooter", "bike_id": "5f0b7b0e7422775604a121b4ec952f22", "is_reserved": 0, "rental_uris": {"ios": "https://dc.lft.to/lastmile_qr_scan", "android": "https://dc.lft.to/lastmile_qr_scan"}, "is_disabled": 0, "lon": -77.0318145, "name": "5f0b7b0e7422775604a121b4ec952f22", "fusion_lon": 0.0}, {"lat": 38.92126183333333, "fusion_lat": 0.0, "type": "electric_scooter", "bike_id": "80fd5c6b8dc58a557213d9717e306354", "is_reserved": 0, "rental_uris": {"ios": "https://dc.lft.to/lastmile_qr_scan", "android": "https://dc.lft.to/lastmile_qr_scan"}, "is_disabled": 0, "lon": -77.04425616666667, "name": "80fd5c6b8dc58a557213d9717e306354", "fusion_lon": 0.0}, {"lat": 38.820448166666665, "fusion_lat": 0.0, "type": "electric_bike", "bike_id": "b1e2090d346a8af0cfadb302987ab72f", "is_reserved": 0, "rental_uris": {"ios": "https://dc.lft.to/lastmile_qr_scan", "android": "https://dc.lft.to/lastmile_qr_scan"}, "is_disabled": 0, "lon": -77.05316383333333, "name": "b1e2090d346a8af0cfadb302987ab72f", "fusion_lon": 0.0}, {"lat": 38.882426333333335, "fusion_lat": 0.0, "type": "electric_bike", "bike_id": "c47c3aa95cbdce22e2459fcc5eb414bc", "is_reserved": 0, "rental_uris": {"ios": "https://dc.lft.to/lastmile_qr_scan", "android": "https://dc.lft.to/lastmile_qr_scan"}, "is_disabled": 0, "lon": -76.96256633333333, "name": "c47c3aa95cbdce22e2459fcc5eb414bc", "fusion_lon": 0.0}, {"lat": 38.89669466666667, "fusion_lat": 0.0, "type": "electric_scooter", "bike_id": "75874079245c69b724c781ee5cbd5e2d", "is_reserved": 0, "rental_uris": {"ios": "https://dc.lft.to/lastmile_qr_scan", "android": "https://dc.lft.to/lastmile_qr_scan"}, "is_disabled": 0, "lon": -77.02374883333333, "name": "75874079245c69b724c781ee5cbd5e2d", "fusion_lon": 0.0}, {"lat": 38.90014133333333, "fusion_lat": 0.0, "type": "electric_scooter", "bike_id": "8a41f5349b7eb7f71a771a561c0772f5", "is_reserved": 0, "rental_uris": {"ios": "https://dc.lft.to/lastmile_qr_scan", "android": "https://dc.lft.to/lastmile_qr_scan"}, "is_disabled": 0, "lon": -76.999212, "name": "8a41f5349b7eb7f71a771a561c0772f5", "fusion_lon": 0.0},