{"data": {"bikes": [{"bike_id": "5fddd06e54747c7d5aff6157eafe468f", "type": "electric_scooter", "is_disabled": 0, "lat": 38.9553615, "rental_uris": {"ios": "https://dc.lft.to/lastmile_qr_scan", "android": "https://dc.lft.to/lastmile_qr_scan"}, "is_reserved": 0, "fusion_lon": 0.0, "fusion_lat": 0.0, "lon": -77.027741, "name": "5fddd06e54747c7d5aff6157eafe468f"}, {"bike_id": "3ed540ab0b1cd7f8a3c08fd620e543e4", "type": "electric_scooter", "is_disabled": 0, "lat": 38.920487333333334, "rental_uris": {"ios": "https://dc.lft.to/lastmile_qr_scan", "android": "https://dc.lft.to/lastmile_qr_scan"}, "is_reserved": 0, "fusion_lon": 0.0, "fusion_lat": 0.0, "lon": -77.02426216666667, "name": "3ed540ab0b1cd7f8a3c08fd620e543e4"}, {"bike_id": "c7a6bf960d763358f83050290c41c640", "type": "electric_scooter", "is_disabled": 0, "lat": 38.96549366666667, "rental_uris": {"ios": "https://dc.lft.to/lastmile_qr_scan", "android": "https://dc.lft.to/lastmile_qr_scan"}, "is_reserved": 0, "fusion_lon": 0.0, "fusion_lat": 0.0, "lon": -77.036259, "name": "c7a6bf960d763358f83050290c41c640"}, {"bike_id": "7fda778a88440f757e6ea47067be348f", "type": "electric_scooter", "is_disabled": 0, "lat": 38.90013016666666, "rental_uris": {"ios": "https://dc.lft.to/lastmile_qr_scan", "android": "https://dc.lft.to/lastmile_qr_scan"}, "is_reserved": 0, "fusion_lon": 0.0, "fusion_lat": 0.0, "lon": -76.98536416666667, "name": "7fda778a88440f757e6ea47067be348f"}, {"bike_id": "5fa3563af2d635b91b587ab41b83de27", "type": "electric_scooter", "is_disabled": 0, "lat": 38.906585666666665, "rental_uris": {"ios": "https://dc.lft.to/lastmile_qr_scan", "android": "https://dc.lft.to/lastmile_qr_scan"}, "is_reserved": 0, "fusion_lon": 0.0, "fusion_lat": 0.0, "lon": -77.029556, "name": "5fa3563af2d635b91b587ab41b83de27"}, {"bike_id": "33befb8692a03cc739c04aa03c336b67", "type": "electric_scooter", "is_disabled": 0, "lat": 38.912155, "rental_uris": {"ios": "https://dc.lft.to/lastmile_qr_scan", "android": "https://dc.lft.to/lastmile_qr_scan"}, "is_reserved": 0, "fusion_lon": 0.0, "fusion_lat": 0.0, "lon": -77.03843116666667, "name": "33befb8692a03cc739c04aa03c336b67"}, {"bike_id": "c04d4974e7ef0e9d48855911eb948916", "type": "electric_scooter", "is_disabled": 0, "lat": 38.929174833333335, "rental_uris": {"ios": "https://dc.lft.to/lastmile_qr_scan", "android": "https://dc.lft.to/lastmile_qr_scan"}, "is_reserved": 0, "fusion_lon": 0.0, "fusion_lat": 0.0, "lon": -77.03192383333334, "name": "c04d4974e7ef0e9d48855911eb948916"}, {"bike_id": "34cbdb508929bc5b87ec4ca2d9e4beea", "type": "electric_scooter", "is_disabled": 0, "lat": 38.90607966666666, "rental_uris": {"ios": "https://dc.lft.to/lastmile_qr_scan", "android": "https://dc.lft.to/lastmile_qr_scan"}, "is_reserved": 0, "fusion_lon": 0.0, "fusion_lat": 0.0, "lon": -77.041124, "name": "34cbdb508929bc5b87ec4ca2d9e4beea"}, {"bike_id": "2593dec37b8f85c03ba76e6bf2516174", "type": "electric_scooter", "is_disabled": 0, "lat": 38.895487833333334, "rental_uris": {"ios": "https://dc.lft.to/lastmile_qr_scan", "android": "https://dc.lft.to/lastmile_qr_scan"}, "is_reserved": 0, "fusion_lon": 0.0, "fusion_lat": 0.0, "lon": -76.92953516666667, "name": "2593dec37b8f85c03ba76e6bf2516174"}, {"bike_id": "f48f001f709a05bdd79224425524ca55", "type": "electric_scooter", "is_disabled": 0, "lat": 38.931032, "rental_uris": {"ios": "https://dc.lft.to/lastmile_qr_scan", "android": "https://dc.lft.to/lastmile_qr_scan"}, "is_reserved": 0, "fusion_lon": 0.0, "fusion_lat": 0.0, "lon": -77.0303045, "name": "f48f001f709a05bdd79224425524ca55"}, {"bike_id": "2f062fded7ab7ee2609b1976da368063", "type": "electric_scooter", "is_disabled": 0, "lat": 38.90972416666666, "rental_uris": {"ios": "https://dc.lft.to/lastmile_qr_scan", "android": "https://dc.lft.to/lastmile_qr_scan"}, "is_reserved": 0, "fusion_lon": 0.0, "fusion_lat": 0.0, "lon": -77.0334915, "name": "2f062fded7ab7ee2609b1976da368063"}, {"bike_id": "e8eedd2f8bdd4824fc5d2eaeef6438b9", "type": "electric_scooter", "is_disabled": 0, "lat": 38.920441, "rental_uris": {"ios": "https://dc.lft.to/lastmile_qr_scan", "android": "https://dc.lft.to/lastmile_qr_scan"}, "is_reserved": 0, "fusion_lon": 0.0, "fusion_lat": 0.0, "lon": -77.033935, "name": "e8eedd2f8bdd4824fc5d2eaeef6438b9"}, {"bike_id": "42e040f563494c828dcf8418696aad52", "type": "electric_scooter", "is_disabled": 0, "lat": 38.8729315, "rental_uris": {"ios": "https://dc.lft.to/lastmile_qr_scan", "android": "https://dc.lft.to/lastmile_qr_scan"}, "is_reserved": 0, "fusion_lon": 0.0, "fusion_lat": 0.0, "lon": -76.977292, "name": "42e040f563494c828dcf8418696aad52"}, {"bike_id": "0994b807b537ecf49f0ba4b967b26a4f", "type": "electric_scooter", "is_disabled": 0, "lat": 38.89502066666667, "rental_uris": {"ios": "https://dc.lft.to/lastmile_qr_scan", "android": "https://dc.lft.to/lastmile_qr_scan"}, "is_reserved": 0, "fusion_lon": 0.0, "fusion_lat": 0.0, "lon": -77.0006155, "name": "0994b807b537ecf49f0ba4b967b26a4f"}, {"bike_id": "8b9922bb6738e6415188ebe81da35fdc", "type": "electric_scooter", "is_disabled": 0, "lat": 38.8974435, "rental_uris": {"ios": "https://dc.lft.to/lastmile_qr_scan", "android": "https://dc.lft.to/lastmile_qr_scan"}, "is_reserved": 0, "fusion_lon": 0.0, "fusion_lat": 0.0, "lon": -77.00007816666667, "name": "8b9922bb6738e6415188ebe81da35fdc"}, {"bike_id": "29bb2e6c1fcd22a650c898dc2dae7f6c", "type": "electric_scooter", "is_disabled": 0, "lat": 38.9121865, "rental_uris": {"ios": "https://dc.lft.to/lastmile_qr_scan", "android": "https://dc.lft.to/lastmile_qr_scan"}, "is_reserved": 0, "fusion_lon": 0.0, "fusion_lat": 0.0, "lon": -77.03836833333334, "name": "29bb2e6c1fcd22a650c898dc2dae7f6c"}, {"bike_id": "f5e4e229b0113932e3807972fd25dd74", "type": "electric_scooter", "is_disabled": 0, "lat": 38.951179833333335, "rental_uris": {"ios": "https://dc.lft.to/lastmile_qr_scan", "android": "https://dc.lft.to/lastmile_qr_scan"}, "is_reserved": 0, "fusion_lon": 0.0, "fusion_lat": 0.0, "lon": -77.01433666666667, "name": "f5e4e229b0113932e3807972fd25dd74"}, {"bike_id": "98c144af8e93c2fdbd7bdd70b0e7e7a4", "type": "electric_scooter", "is_disabled": 0, "lat": 38.86689283333333, "rental_uris": {"ios": "https://dc.lft.to/lastmile_qr_scan", "android": "https://dc.lft.to/lastmile_qr_scan"}, "is_reserved": 0, "fusion_lon": 0.0, "fusion_lat": 0.0, "lon": -76.98561766666667, "name": "98c144af8e93c2fdbd7bdd70b0e7e7a4"}, {"bike_id": "585b041a499a81c356ac229c1e57c3e0", "type": "electric_scooter", "is_disabled": 0, "lat": 38.92863883333333, "rental_uris": {"ios": "https://dc.lft.to/lastmile_qr_scan", "android": "https://dc.lft.to/lastmile_qr_scan"}, "is_reserved": 0, "fusion_lon": 0.0, "fusion_lat": 0.0, "lon": -77.03708083333333, "name": "585b041a499a81c356ac229c1e57c3e0"}, {"bike_id": "10835be357da16ac857bdf2d47858698", "type": "electric_scooter", "is_disabled": 0, "lat": 38.9494335, "rental_uris": {"ios": "https://dc.lft.to/lastmile_qr_scan", "android": "https://dc.lft.to/lastmile_qr_scan"}, "is_reserved": 0, "fusion_lon": 0.0, "fusion_lat": 0.0, "lon": -77.06537933333334, "name": "10835be357da16ac857bdf2d47858698"}, {"bike_id": "45e3e37d1045e047384e835ec5b1f5b4", "type": "electric_scooter", "is_disabled": 0, "lat": 38.925482333333335, "rental_uris": {"ios": "https://dc.lft.to/lastmile_qr_scan", "android": "https://dc.lft.to/lastmile_qr_scan"}, "is_reserved": 0, "fusion_lon": 0.0, "fusion_lat": 0.0, "lon": -77.03352883333334, "name": "45e3e37d1045e047384e835ec5b1f5b4"}, {"bike_id": "df17f1c087cfdb507d9783ae28c8c419", "type": "electric_scooter", "is_disabled": 0, "lat": 38.895015, "rental_uris": {"ios": "https://dc.lft.to/lastmile_qr_scan", "android": "https://dc.lft.to/lastmile_qr_scan"}, "is_reserved": 0, "fusion_lon": 0.0, "fusion_lat": 0.0, "lon": -76.93471883333333, "name": "df17f1c087cfdb507d9783ae28c8c419"}, {"bike_id": "6d3574a3d81a7634c9f2c95474acbea8", "type": "electric_bike", "is_disabled": 0, "lat": 38.94267633333333, "rental_uris": {"ios": "https://dc.lft.to/lastmile_qr_scan", "android": "https://dc.lft.to/lastmile_qr_scan"}, "is_reserved": 0, "fusion_lon": 0.0, "fusion_lat": 0.0, "lon": -76.99064833333334, "name": "6d3574a3d81a7634c9f2c95474acbea8"}, {"bike_id": "cb6ef734efe3a55e620f106723a32ba2", "type": "electric_bike", "is_disabled": 0, "lat": 38.84840116666667, "rental_uris": {"ios": "https://dc.lft.to/lastmile_qr_scan", "android": "https://dc.lft.to/lastmile_qr_scan"}, "is_reserved": 0, "fusion_lon": 0.0, "fusion_lat": 0.0, "lon": -77.07922183333334, "name": "cb6ef734efe3a55e620f106723a32ba2"}, {"bike_id": "b2c415f3ec36281a458dc0ff735de755", "type": "electric_scooter", "is_disabled": 0, "lat": 38.911945333333335, "rental_uris": {"ios": "https://dc.lft.to/lastmile_qr_scan", "android": "https://dc.lft.to/lastmile_qr_scan"}, "is_reserved": 0, "fusion_lon": 0.0, "fusion_lat": 0.0, "lon": -77.04233183333334, "name": "b2c415f3ec36281a458dc0ff735de755"}, {"bike_id": "72acb63a562ebfa6696cd3a0101f61fe", "type": "electric_scooter", "is_disabled": 0, "lat": 38.9069855, "rental_uris": {"ios": "https://dc.lft.to/lastmile_qr_scan", "android": "https://dc.lft.to/lastmile_qr_scan"}, "is_reserved": 0, "fusion_lon": 0.0, "fusion_lat": 0.0, "lon": -76.98727166666667, "name": "72acb63a562ebfa6696cd3a0101f61fe"}, {"bike_id": "2d7b5fbed6e299cb035b93af6d071594", "type": "electric_scooter", "is_disabled": 0, "lat": 38.916981666666665, "rental_uris": {"ios": "https://dc.lft.to/lastmile_qr_scan", "android": "https://dc.lft.to/lastmile_qr_scan"}, "is_reserved": 0, "fusion_lon": 0.0, "fusion_lat": 0.0, "lon": -77.04108766666667, "name": "2d7b5fbed6e299cb035b93af6d071594"}, {"bike_id": "8f4aa7cf832e5049ee24ef701ad9b798", "type": "electric_scooter", "is_disabled": 0, "lat": 38.918139333333336, "rental_uris": {"ios": "https://dc.lft.to/lastmile_qr_scan", "android": "https://dc.lft.to/lastmile_qr_scan"}, "is_reserved": 0, "fusion_lon": 0.0, "fusion_lat": 0.0, "lon": -77.02475983333333, "name": "8f4aa7cf832e5049ee24ef701ad9b798"}, {"bike_id": "830a200ceb82d06bed14886a7bae9a0e", "type": "electric_scooter", "is_disabled": 0, "lat": 38.92361866666667, "rental_uris": {"ios": "https://dc.lft.to/lastmile_qr_scan", "android": "https://dc.lft.to/lastmile_qr_scan"}, "is_reserved": 0, "fusion_lon": 0.0, "fusion_lat": 0.0, "lon": -77.07635083333334, "name": "830a200ceb82d06bed14886a7bae9a0e"}, {"bike_id": "5378bff333008f3bcc27f7afa330c5e7", "type": "electric_scooter", "is_disabled": 0, "lat": 38.854555166666664, "rental_uris": {"ios": "https://dc.lft.to/lastmile_qr_scan", "android": "https://dc.lft.to/lastmile_qr_scan"}, "is_reserved": 0, "fusion_lon": 0.0, "fusion_lat": 0.0, "lon": -76.97224166666666, "name": "5378bff333008f3bcc27f7afa330c5e7"}, {"bike_id": "4407c7d962d71f41d793faac7ab490d6", "type": "electric_bike", "is_disabled": 0, "lat": 38.91197783333333, "rental_uris": {"ios": "https://dc.lft.to/lastmile_qr_scan", "android": "https://dc.lft.to/lastmile_qr_scan"}, "is_reserved": 0, "fusion_lon": 0.0, "fusion_lat": 0.0, "lon": -77.059365, "name": "4407c7d962d71f41d793faac7ab490d6"}, {"bike_id": "69b03acdc0f6500bd2e5ffec3fc3c920", "type": "electric_scooter", "is_disabled": 0, "lat": 38.9219565, "rental_uris": {"ios": "https://dc.lft.to/lastmile_qr_scan", "android": "https://dc.lft.to/lastmile_qr_scan"}, "is_reserved": 0, "fusion_lon": 0.0, "fusion_lat": 0.0, "lon": -77.04697483333334, "name": "69b03acdc0f6500bd2e5ffec3fc3c920"}, {"bike_id": "6c8987d02f0bd9b00701a2ac6d3c5713", "type": "electric_bike", "is_disabled": 0, "lat": 38.96960816666667, "rental_uris": {"ios": "https://dc.lft.to/lastmile_qr_scan", "android": "https://dc.lft.to/lastmile_qr_scan"}, "is_reserved": 0, "fusion_lon": 0.0, "fusion_lat": 0.0, "lon": -76.957477, "name": "6c8987d02f0bd9b00701a2ac6d3c5713"}, {"bike_id": "1e3bf597df4cb4267da169a58466fd60", "type": "electric_scooter", "is_disabled": 0, "lat": 38.92150633333333, "rental_uris": {"ios": "https://dc.lft.to/lastmile_qr_scan", "android": "https://dc.lft.to/lastmile_qr_scan"}, "is_reserved": 0, "fusion_lon": 0.0, "fusion_lat": 0.0, "lon": -77.04237466666666, "name": "1e3bf597df4cb4267da169a58466fd60"}, {"bike_id": "86e670607ae2dbf7becf2f6bfb362a63", "type": "electric_scooter", "is_disabled": 0, "lat": 38.916912833333335, "rental_uris": {"ios": "https://dc.lft.to/lastmile_qr_scan", "android": "https://dc.lft.to/lastmile_qr_scan"}, "is_reserved": 0, "fusion_lon": 0.0, "fusion_lat": 0.0, "lon": -77.0346055, "name": "86e670607ae2dbf7becf2f6bfb362a63"}, {"bike_id": "9736c047f1559d9408a20e307c946be4", "type": "electric_scooter", "is_disabled": 0, "lat": 38.883022, "rental_uris": {"ios": "https://dc.lft.to/lastmile_qr_scan", "android": "https://dc.lft.to/lastmile_qr_scan"}, "is_reserved": 0, "fusion_lon": 0.0, "fusion_lat": 0.0, "lon": -76.948511, "name": "9736c047f1559d9408a20e307c946be4"}, {"bike_id": "8c9555b286b2eff18e31b0ececac20c0", "type": "electric_scooter", "is_disabled": 0, "lat": 38.927132666666665, "rental_uris": {"ios": "https://dc.lft.to/lastmile_qr_scan", "android": "https://dc.lft.to/lastmile_qr_scan"}, "is_reserved": 0, "fusion_lon": 0.0, "fusion_lat": 0.0, "lon": -77.02091483333334, "name": "8c9555b286b2eff18e31b0ececac20c0"}, {"bike_id": "fe4b0732c1c3e5cf8da64ac264f3d1c0", "type": "electric_scooter", "is_disabled": 0, "lat": 38.9247355, "rental_uris": {"ios": "https://dc.lft.to/lastmile_qr_scan", "android": "https://dc.lft.to/lastmile_qr_scan"}, "is_reserved": 0, "fusion_lon": 0.0, "fusion_lat": 0.0, "lon": -77.02828, "name": "fe4b0732c1c3e5cf8da64ac264f3d1c0"}, {"bike_id": "630026dc68b1c39746de642a8fabaaab", "type": "electric_scooter", "is_disabled": 0, "lat": 38.9309985, "rental_uris": {"ios": "https://dc.lft.to/lastmile_qr_scan", "android": "https://dc.lft.to/lastmile_qr_scan"}, "is_reserved": 0, "fusion_lon": 0.0, "fusion_lat": 0.0, "lon": -77.0347755, "name": "630026dc68b1c39746de642a8fabaaab"}, {"bike_id": "cd4c17315693a2832be57685e0a0ea74", "type": "electric_scooter", "is_disabled": 0, "lat": 38.91579516666667, "rental_uris": {"ios": "https://dc.lft.to/lastmile_qr_scan", "android": "https://dc.lft.to/lastmile_qr_scan"}, "is_reserved": 0, "fusion_lon": 0.0, "fusion_lat": 0.0, "lon": -77.034603, "name": "cd4c17315693a2832be57685e0a0ea74"}, {"bike_id": "d1d4fb64a9ef6f07545229773269fb6e", "type": "electric_scooter", "is_disabled": 0, "lat": 38.915953, "rental_uris": {"ios": "https://dc.lft.to/lastmile_qr_scan", "android": "https://dc.lft.to/lastmile_qr_scan"}, "is_reserved": 0, "fusion_lon": 0.0, "fusion_lat": 0.0, "lon": -77.0114355, "name": "d1d4fb64a9ef6f07545229773269fb6e"}, {"bike_id": "b6e0b09e081739dd75faf2c6e1841574", "type": "electric_scooter", "is_disabled": 0, "lat": 38.9117035, "rental_uris": {"ios": "https://dc.lft.to/lastmile_qr_scan", "android": "https://dc.lft.to/lastmile_qr_scan"}, "is_reserved": 0, "fusion_lon": 0.0, "fusion_lat": 0.0, "lon": -77.0020675, "name": "b6e0b09e081739dd75faf2c6e1841574"}, {"bike_id": "0e74599c733f807987062fc2426a9433", "type": "electric_scooter", "is_disabled": 0, "lat": 38.936877833333334, "rental_uris": {"ios": "https://dc.lft.to/lastmile_qr_scan", "android": "https://dc.lft.to/lastmile_qr_scan"}, "is_reserved": 0, "fusion_lon": 0.0, "fusion_lat": 0.0, "lon": -77.06620233333334, "name": "0e74599c733f807987062fc2426a9433"}, {"bike_id": "d11b6e3ec65f253a92b970597e726535", "type": "electric_scooter", "is_disabled": 0, "lat": 38.906764333333335, "rental_uris": {"ios": "https://dc.lft.to/lastmile_qr_scan", "android": "https://dc.lft.to/lastmile_qr_scan"}, "is_reserved": 0, "fusion_lon": 0.0, "fusion_lat": 0.0, "lon": -77.04148816666667, "name": "d11b6e3ec65f253a92b970597e726535"}, {"bike_id": "21e2af7beb3125d406a75e53861ca142", "type": "electric_scooter", "is_disabled": 0, "lat": 38.926571833333334, "rental_uris": {"ios": "https://dc.lft.to/lastmile_qr_scan", "android": "https://dc.lft.to/lastmile_qr_scan"}, "is_reserved": 0, "fusion_lon": 0.0, "fusion_lat": 0.0, "lon": -77.03849, "name": "21e2af7beb3125d406a75e53861ca142"}, {"bike_id": "3c7f7bc168c8f814c06cbdcc767f749e", "type": "electric_scooter", "is_disabled": 0, "lat": 38.9229895, "rental_uris": {"ios": "https://dc.lft.to/lastmile_qr_scan", "android": "https://dc.lft.to/lastmile_qr_scan"}, "is_reserved": 0, "fusion_lon": 0.0, "fusion_lat": 0.0, "lon": -77.07326066666667, "name": "3c7f7bc168c8f814c06cbdcc767f749e"}, {"bike_id": "50d30c5d49ee76bdd64c5c75602a002a", "type": "electric_scooter", "is_disabled": 0, "lat": 38.903916333333335, "rental_uris": {"ios": "https://dc.lft.to/lastmile_qr_scan", "android": "https://dc.lft.to/lastmile_qr_scan"}, "is_reserved": 0, "fusion_lon": 0.0, "fusion_lat": 0.0, "lon": -77.02486183333333, "name": "50d30c5d49ee76bdd64c5c75602a002a"}, {"bike_id": "41ded74838f31221c887124720fbafce", "type": "electric_scooter", "is_disabled": 0, "lat": 38.892361, "rental_uris": {"ios": "https://dc.lft.to/lastmile_qr_scan", "android": "https://dc.lft.to/lastmile_qr_scan"}, "is_reserved": 0, "fusion_lon": 0.0, "fusion_lat": 0.0, "lon": -77.04892916666667, "name": "41ded74838f31221c887124720fbafce"}, {"bike_id": "9087c4e542f60aba9a22237179f06bb1", "type": "electric_scooter", "is_disabled": 0, "lat": 38.90562966666667, "rental_uris": {"ios": "https://dc.lft.to/lastmile_qr_scan", "android": "https://dc.lft.to/lastmile_qr_scan"}, "is_reserved": 0, "fusion_lon": 0.0, "fusion_lat": 0.0, "lon": -77.043865, "name": "9087c4e542f60aba9a22237179f06bb1"}, {"bike_id": "e37fd66c1c1701e67ada4ca873cd13a4", "type": "electric_scooter", "is_disabled": 0, "lat": 38.9088245, "rental_uris": {"ios": "https://dc.lft.to/lastmile_qr_scan", "android": "https://dc.lft.to/lastmile_qr_scan"}, "is_reserved": 0, "fusion_lon": 0.0, "fusion_lat": 0.0, "lon": -77.04477283333334, "name": "e37fd66c1c1701e67ada4ca873cd13a4"}, {"bike_id": "853731831b01cb4ed8e2cb81bbb0550c", "type": "electric_scooter", "is_disabled": 0, "lat": 38.90412533333333, "rental_uris": {"ios": "https://dc.lft.to/lastmile_qr_scan", "android": "https://dc.lft.to/lastmile_qr_scan"}, "is_reserved": 0, "fusion_lon": 0.0, "fusion_lat": 0.0, "lon": -76.97330016666666, "name": "853731831b01cb4ed8e2cb81bbb0550c"}, {"bike_id": "02ea38d70d21fa73b62ffa09cab762d9", "type": "electric_scooter", "is_disabled": 0, "lat": 38.91569766666667, "rental_uris": {"ios": "https://dc.lft.to/lastmile_qr_scan", "android": "https://dc.lft.to/lastmile_qr_scan"}, "is_reserved": 0, "fusion_lon": 0.0, "fusion_lat": 0.0, "lon": -77.021071, "name": "02ea38d70d21fa73b62ffa09cab762d9"}, {"bike_id": "4cd4c248150085bd417bb271905467c5", "type": "electric_scooter", "is_disabled": 0, "lat": 38.94559266666667, "rental_uris": {"ios": "https://dc.lft.to/lastmile_qr_scan", "android": "https://dc.lft.to/lastmile_qr_scan"}, "is_reserved": 0, "fusion_lon": 0.0, "fusion_lat": 0.0, "lon": -77.07121016666666, "name": "4cd4c248150085bd417bb271905467c5"}, {"bike_id": "70d3dadb98a7e5994805f316127b870a", "type": "electric_bike", "is_disabled": 0, "lat": 38.8589615, "rental_uris": {"ios": "https://dc.lft.to/lastmile_qr_scan", "android": "https://dc.lft.to/lastmile_qr_scan"}, "is_reserved": 0, "fusion_lon": 0.0, "fusion_lat": 0.0, "lon": -77.118656, "name": "70d3dadb98a7e5994805f316127b870a"}, {"bike_id": "998eb866c22c4a106f7bdeeab76f7d5b", "type": "electric_scooter", "is_disabled": 0, "lat": 38.884518666666665, "rental_uris": {"ios": "https://dc.lft.to/lastmile_qr_scan", "android": "https://dc.lft.to/lastmile_qr_scan"}, "is_reserved": 0, "fusion_lon": 0.0, "fusion_lat": 0.0, "lon": -76.950955, "name": "998eb866c22c4a106f7bdeeab76f7d5b"}, {"bike_id": "fb94e16bf676326bdab9ba69ef212554", "type": "electric_scooter", "is_disabled": 0, "lat": 38.904752333333334, "rental_uris": {"ios": "https://dc.lft.to/lastmile_qr_scan", "android": "https://dc.lft.to/lastmile_qr_scan"}, "is_reserved": 0, "fusion_lon": 0.0, "fusion_lat": 0.0, "lon": -77.00920933333333, "name": "fb94e16bf676326bdab9ba69ef212554"}, {"bike_id": "0926ae45eaf0849972931285830fc6df", "type": "electric_scooter", "is_disabled": 0, "lat": 38.915935166666664, "rental_uris": {"ios": "https://dc.lft.to/lastmile_qr_scan", "android": "https://dc.lft.to/lastmile_qr_scan"}, "is_reserved": 0, "fusion_lon": 0.0, "fusion_lat": 0.0, "lon": -77.00195616666667, "name": "0926ae45eaf0849972931285830fc6df"}, {"bike_id": "08f0899fc77f8d5e3176e4d38b2e1a44", "type": "electric_scooter", "is_disabled": 0, "lat": 38.905783, "rental_uris": {"ios": "https://dc.lft.to/lastmile_qr_scan", "android": "https://dc.lft.to/lastmile_qr_scan"}, "is_reserved": 0, "fusion_lon": 0.0, "fusion_lat": 0.0, "lon": -77.00626866666667, "name": "08f0899fc77f8d5e3176e4d38b2e1a44"}, {"bike_id": "06340f6fc57b1e61efe9cd8cae17b679", "type": "electric_scooter", "is_disabled": 0, "lat": 38.90731866666667, "rental_uris": {"ios": "https://dc.lft.to/lastmile_qr_scan", "android": "https://dc.lft.to/lastmile_qr_scan"}, "is_reserved": 0, "fusion_lon": 0.0, "fusion_lat": 0.0, "lon": -77.04189033333333, "name": "06340f6fc57b1e61efe9cd8cae17b679"}, {"bike_id": "dac4850269e3c9c9c69ab351d7536337", "type": "electric_bike", "is_disabled": 0, "lat": 38.9578735, "rental_uris": {"ios": "https://dc.lft.to/lastmile_qr_scan", "android": "https://dc.lft.to/lastmile_qr_scan"}, "is_reserved": 0, "fusion_lon": 0.0, "fusion_lat": 0.0, "lon": -77.02000883333334, "name": "dac4850269e3c9c9c69ab351d7536337"}, {"bike_id": "775fb7026980c1339515c8f191f67ebb", "type": "electric_scooter", "is_disabled": 0, "lat": 38.89958766666667, "rental_uris": {"ios": "https://dc.lft.to/lastmile_qr_scan", "android": "https://dc.lft.to/lastmile_qr_scan"}, "is_reserved": 0, "fusion_lon": 0.0, "fusion_lat": 0.0, "lon": -76.98303083333333, "name": "775fb7026980c1339515c8f191f67ebb"}, {"bike_id": "32bc9d4660ca0ae9276a1c8a10f4ce49", "type": "electric_scooter", "is_disabled": 0, "lat": 38.916880666666664, "rental_uris": {"ios": "https://dc.lft.to/lastmile_qr_scan", "android": "https://dc.lft.to/lastmile_qr_scan"}, "is_reserved": 0, "fusion_lon": 0.0, "fusion_lat": 0.0, "lon": -77.0289925, "name": "32bc9d4660ca0ae9276a1c8a10f4ce49"}, {"bike_id": "19b1efab67a74951bd1a9bef6470628a", "type": "electric_scooter", "is_disabled": 0, "lat": 38.9192265, "rental_uris": {"ios": "https://dc.lft.to/lastmile_qr_scan", "android": "https://dc.lft.to/lastmile_qr_scan"}, "is_reserved": 0, "fusion_lon": 0.0, "fusion_lat": 0.0, "lon": -77.04175516666666, "name": "19b1efab67a74951bd1a9bef6470628a"}, {"bike_id": "31269fd8454635d09516612366caebaa", "type": "electric_scooter", "is_disabled": 0, "lat": 38.93087833333333, "rental_uris": {"ios": "https://dc.lft.to/lastmile_qr_scan", "android": "https://dc.lft.to/lastmile_qr_scan"}, "is_reserved": 0, "fusion_lon": 0.0, "fusion_lat": 0.0, "lon": -77.03083916666667, "name": "31269fd8454635d09516612366caebaa"}, {"bike_id": "b1701b4f9851769f10e08c83ed597855", "type": "electric_scooter", "is_disabled": 0, "lat": 38.900833, "rental_uris": {"ios": "https://dc.lft.to/lastmile_qr_scan", "android": "https://dc.lft.to/lastmile_qr_scan"}, "is_reserved": 0, "fusion_lon": 0.0, "fusion_lat": 0.0, "lon": -77.03078783333333, "name": "b1701b4f9851769f10e08c83ed597855"}, {"bike_id": "90b5a97aa6d25913403edf587cc3d10a", "type": "electric_scooter", "is_disabled": 0, "lat": 38.914039833333334, "rental_uris": {"ios": "https://dc.lft.to/lastmile_qr_scan", "android": "https://dc.lft.to/lastmile_qr_scan"}, "is_reserved": 0, "fusion_lon": 0.0, "fusion_lat": 0.0, "lon": -77.03143316666667, "name": "90b5a97aa6d25913403edf587cc3d10a"}, {"bike_id": "f0f4ec54b824c72e41bfde3c1d463a5e", "type": "electric_scooter", "is_disabled": 0, "lat": 38.923738, "rental_uris": {"ios": "https://dc.lft.to/lastmile_qr_scan", "android": "https://dc.lft.to/lastmile_qr_scan"}, "is_reserved": 0, "fusion_lon": 0.0, "fusion_lat": 0.0, "lon": -77.050269, "name": "f0f4ec54b824c72e41bfde3c1d463a5e"}, {"bike_id": "6ec837ed361d4c5b3d74a0f247039d59", "type": "electric_scooter", "is_disabled": 0, "lat": 38.8983825, "rental_uris": {"ios": "https://dc.lft.to/lastmile_qr_scan", "android": "https://dc.lft.to/lastmile_qr_scan"}, "is_reserved": 0, "fusion_lon": 0.0, "fusion_lat": 0.0, "lon": -77.02222133333333, "name": "6ec837ed361d4c5b3d74a0f247039d59"}, {"bike_id": "2c191af91b139e0424d321461b1b4be2", "type": "electric_scooter", "is_disabled": 0, "lat": 38.946248, "rental_uris": {"ios": "https://dc.lft.to/lastmile_qr_scan", "android": "https://dc.lft.to/lastmile_qr_scan"}, "is_reserved": 0, "fusion_lon": 0.0, "fusion_lat": 0.0, "lon": -77.0723015, "name": "2c191af91b139e0424d321461b1b4be2"}, {"bike_id": "369947ba5d3890e23fe3941210969491", "type": "electric_bike", "is_disabled": 0, "lat": 38.831613833333336, "rental_uris": {"ios": "https://dc.lft.to/lastmile_qr_scan", "android": "https://dc.lft.to/lastmile_qr_scan"}, "is_reserved": 0, "fusion_lon": 0.0, "fusion_lat": 0.0, "lon": -76.99541166666667, "name": "369947ba5d3890e23fe3941210969491"}, {"bike_id": "3f038ddec0c50fccda3d70f4f3248056", "type": "electric_scooter", "is_disabled": 0, "lat": 38.909746, "rental_uris": {"ios": "https://dc.lft.to/lastmile_qr_scan", "android": "https://dc.lft.to/lastmile_qr_scan"}, "is_reserved": 0, "fusion_lon": 0.0, "fusion_lat": 0.0, "lon": -77.0454275, "name": "3f038ddec0c50fccda3d70f4f3248056"}, {"bike_id": "3a00bdafdcdc5462e4c2401a8246dc36", "type": "electric_scooter", "is_disabled": 0, "lat": 38.897331333333334, "rental_uris": {"ios": "https://dc.lft.to/lastmile_qr_scan", "android": "https://dc.lft.to/lastmile_qr_scan"}, "is_reserved": 0, "fusion_lon": 0.0, "fusion_lat": 0.0, "lon": -77.02493833333334, "name": "3a00bdafdcdc5462e4c2401a8246dc36"}, {"bike_id": "15b6fb36e7fcf48095d46a70ceb8356e", "type": "electric_scooter", "is_disabled": 0, "lat": 38.91149033333333, "rental_uris": {"ios": "https://dc.lft.to/lastmile_qr_scan", "android": "https://dc.lft.to/lastmile_qr_scan"}, "is_reserved": 0, "fusion_lon": 0.0, "fusion_lat": 0.0, "lon": -77.0295305, "name": "15b6fb36e7fcf48095d46a70ceb8356e"}, {"bike_id": "3ddceb4535b25bdae55eaeefe36d11f9", "type": "electric_scooter", "is_disabled": 0, "lat": 38.913492, "rental_uris": {"ios": "https://dc.lft.to/lastmile_qr_scan", "android": "https://dc.lft.to/lastmile_qr_scan"}, "is_reserved": 0, "fusion_lon": 0.0, "fusion_lat": 0.0, "lon": -77.00890533333333, "name": "3ddceb4535b25bdae55eaeefe36d11f9"}, {"bike_id": "5663418e2a79fa47fea08668e81f33ee", "type": "electric_scooter", "is_disabled": 0, "lat": 38.91107083333333, "rental_uris": {"ios": "https://dc.lft.to/lastmile_qr_scan", "android": "https://dc.lft.to/lastmile_qr_scan"}, "is_reserved": 0, "fusion_lon": 0.0, "fusion_lat": 0.0, "lon": -77.0114675, "name": "5663418e2a79fa47fea08668e81f33ee"}, {"bike_id": "22f741d9111cdb95c9abe112a23f27cd", "type": "electric_scooter", "is_disabled": 0, "lat": 38.90823483333333, "rental_uris": {"ios": "https://dc.lft.to/lastmile_qr_scan", "android": "https://dc.lft.to/lastmile_qr_scan"}, "is_reserved": 0, "fusion_lon": 0.0, "fusion_lat": 0.0, "lon": -77.04307166666666, "name": "22f741d9111cdb95c9abe112a23f27cd"}, {"bike_id": "f4aa9876a17aec503ed80e5180cac288", "type": "electric_scooter", "is_disabled": 0, "lat": 38.94204833333333, "rental_uris": {"ios": "https://dc.lft.to/lastmile_qr_scan", "android": "https://dc.lft.to/lastmile_qr_scan"}, "is_reserved": 0, "fusion_lon": 0.0, "fusion_lat": 0.0, "lon": -77.02592583333333, "name": "f4aa9876a17aec503ed80e5180cac288"}, {"bike_id": "252ddd2d01543a5b51d6205a5fc5ef1d", "type": "electric_scooter", "is_disabled": 0, "lat": 38.90569333333333, "rental_uris": {"ios": "https://dc.lft.to/lastmile_qr_scan", "android": "https://dc.lft.to/lastmile_qr_scan"}, "is_reserved": 0, "fusion_lon": 0.0, "fusion_lat": 0.0, "lon": -77.04571916666667, "name": "252ddd2d01543a5b51d6205a5fc5ef1d"}, {"bike_id": "972cc94c9bbacf8fdce644d6df28f9c0", "type": "electric_scooter", "is_disabled": 0, "lat": 38.90493566666667, "rental_uris": {"ios": "https://dc.lft.to/lastmile_qr_scan", "android": "https://dc.lft.to/lastmile_qr_scan"}, "is_reserved": 0, "fusion_lon": 0.0, "fusion_lat": 0.0, "lon": -77.06916166666667, "name": "972cc94c9bbacf8fdce644d6df28f9c0"}, {"bike_id": "624a288ee410a3be1a853bbf74a291a8", "type": "electric_scooter", "is_disabled": 0, "lat": 38.8923315, "rental_uris": {"ios": "https://dc.lft.to/lastmile_qr_scan", "android": "https://dc.lft.to/lastmile_qr_scan"}, "is_reserved": 0, "fusion_lon": 0.0, "fusion_lat": 0.0, "lon": -77.05000166666666, "name": "624a288ee410a3be1a853bbf74a291a8"}, {"bike_id": "2338f7fdcd3a82f123ba19d5543d8348", "type": "electric_scooter", "is_disabled": 0, "lat": 38.882690833333335, "rental_uris": {"ios": "https://dc.lft.to/lastmile_qr_scan", "android": "https://dc.lft.to/lastmile_qr_scan"}, "is_reserved": 0, "fusion_lon": 0.0, "fusion_lat": 0.0, "lon": -76.99361066666667, "name": "2338f7fdcd3a82f123ba19d5543d8348"}, {"bike_id": "db3214a29214201f608a25804eed430f", "type": "electric_scooter", "is_disabled": 0, "lat": 38.88049133333333, "rental_uris": {"ios": "https://dc.lft.to/lastmile_qr_scan", "android": "https://dc.lft.to/lastmile_qr_scan"}, "is_reserved": 0, "fusion_lon": 0.0, "fusion_lat": 0.0, "lon": -77.00536933333333, "name": "db3214a29214201f608a25804eed430f"}, {"bike_id": "68cfefd04f39cbdddb0bc8ef7711073c", "type": "electric_scooter", "is_disabled": 0, "lat": 38.9131775, "rental_uris": {"ios": "https://dc.lft.to/lastmile_qr_scan", "android": "https://dc.lft.to/lastmile_qr_scan"}, "is_reserved": 0, "fusion_lon": 0.0, "fusion_lat": 0.0, "lon": -77.03661066666666, "name": "68cfefd04f39cbdddb0bc8ef7711073c"}, {"bike_id": "867fc1555739f751a95d843882775964", "type": "electric_scooter", "is_disabled": 0, "lat": 38.9306595, "rental_uris": {"ios": "https://dc.lft.to/lastmile_qr_scan", "android": "https://dc.lft.to/lastmile_qr_scan"}, "is_reserved": 0, "fusion_lon": 0.0, "fusion_lat": 0.0, "lon": -77.01988466666667, "name": "867fc1555739f751a95d843882775964"}, {"bike_id": "6b367acfde452fc685ad3ba54404c5d9", "type": "electric_scooter", "is_disabled": 0, "lat": 38.90664816666666, "rental_uris": {"ios": "https://dc.lft.to/lastmile_qr_scan", "android": "https://dc.lft.to/lastmile_qr_scan"}, "is_reserved": 0, "fusion_lon": 0.0, "fusion_lat": 0.0, "lon": -77.02945433333333, "name": "6b367acfde452fc685ad3ba54404c5d9"}, {"bike_id": "b093f626ea9ecaef1965406dff618608", "type": "electric_scooter", "is_disabled": 0, "lat": 38.901274, "rental_uris": {"ios": "https://dc.lft.to/lastmile_qr_scan", "android": "https://dc.lft.to/lastmile_qr_scan"}, "is_reserved": 0, "fusion_lon": 0.0, "fusion_lat": 0.0, "lon": -77.01818733333333, "name": "b093f626ea9ecaef1965406dff618608"}, {"bike_id": "f0dc52a96a645b17894b910f77f8771f", "type": "electric_scooter", "is_disabled": 0, "lat": 38.915081, "rental_uris": {"ios": "https://dc.lft.to/lastmile_qr_scan", "android": "https://dc.lft.to/lastmile_qr_scan"}, "is_reserved": 0, "fusion_lon": 0.0, "fusion_lat": 0.0, "lon": -77.0177575, "name": "f0dc52a96a645b17894b910f77f8771f"}, {"bike_id": "2988e92dd1436299687311ca4304eccc", "type": "electric_scooter", "is_disabled": 0, "lat": 38.874775, "rental_uris": {"ios": "https://dc.lft.to/lastmile_qr_scan", "android": "https://dc.lft.to/lastmile_qr_scan"}, "is_reserved": 0, "fusion_lon": 0.0, "fusion_lat": 0.0, "lon": -77.01063883333333, "name": "2988e92dd1436299687311ca4304eccc"}, {"bike_id": "07da53159e04f95fb8406298ffdba08e", "type": "electric_scooter", "is_disabled": 0, "lat": 38.957361, "rental_uris": {"ios": "https://dc.lft.to/lastmile_qr_scan", "android": "https://dc.lft.to/lastmile_qr_scan"}, "is_reserved": 0, "fusion_lon": 0.0, "fusion_lat": 0.0, "lon": -77.02421833333334, "name": "07da53159e04f95fb8406298ffdba08e"}, {"bike_id": "d27ce5ff6ad3400e29efa3eab1de1865", "type": "electric_scooter", "is_disabled": 0, "lat": 38.8874215, "rental_uris": {"ios": "https://dc.lft.to/lastmile_qr_scan", "android": "https://dc.lft.to/lastmile_qr_scan"}, "is_reserved": 0, "fusion_lon": 0.0, "fusion_lat": 0.0, "lon": -77.01531183333333, "name": "d27ce5ff6ad3400e29efa3eab1de1865"}, {"bike_id": "aee51791588e4b6b48baa6bf907e5a45", "type": "electric_bike", "is_disabled": 0, "lat": 38.838509, "rental_uris": {"ios": "https://dc.lft.to/lastmile_qr_scan", "android": "https://dc.lft.to/lastmile_qr_scan"}, "is_reserved": 0, "fusion_lon": 0.0, "fusion_lat": 0.0, "lon": -77.0501955, "name": "aee51791588e4b6b48baa6bf907e5a45"}, {"bike_id": "c53778c27386fc29ab112e43bb43ba3b", "type": "electric_scooter", "is_disabled": 0, "lat": 38.91747616666667, "rental_uris": {"ios": "https://dc.lft.to/lastmile_qr_scan", "android": "https://dc.lft.to/lastmile_qr_scan"}, "is_reserved": 0, "fusion_lon": 0.0, "fusion_lat": 0.0, "lon": -77.0317995, "name": "c53778c27386fc29ab112e43bb43ba3b"}, {"bike_id": "35b8641917e24165c6f62c85e02db396", "type": "electric_scooter", "is_disabled": 0, "lat": 38.9111025, "rental_uris": {"ios": "https://dc.lft.to/lastmile_qr_scan", "android": "https://dc.lft.to/lastmile_qr_scan"}, "is_reserved": 0, "fusion_lon": 0.0, "fusion_lat": 0.0, "lon": -77.010078, "name": "35b8641917e24165c6f62c85e02db396"}, {"bike_id": "2e8c50496765234512714f6ee1cd9c31", "type": "electric_scooter", "is_disabled": 0, "lat": 38.93762, "rental_uris": {"ios": "https://dc.lft.to/lastmile_qr_scan", "android": "https://dc.lft.to/lastmile_qr_scan"}, "is_reserved": 0, "fusion_lon": 0.0, "fusion_lat": 0.0, "lon": -77.0247125, "name": "2e8c50496765234512714f6ee1cd9c31"}, {"bike_id": "a2b81f7fdf02a166deb9753dca43761a", "type": "electric_scooter", "is_disabled": 0, "lat": 38.91727866666667, "rental_uris": {"ios": "https://dc.lft.to/lastmile_qr_scan", "android": "https://dc.lft.to/lastmile_qr_scan"}, "is_reserved": 0, "fusion_lon": 0.0, "fusion_lat": 0.0, "lon": -77.036594, "name": "a2b81f7fdf02a166deb9753dca43761a"}, {"bike_id": "c8a995226e9400e0ba426995a0887051", "type": "electric_scooter", "is_disabled": 0, "lat": 38.9038245, "rental_uris": {"ios": "https://dc.lft.to/lastmile_qr_scan", "android": "https://dc.lft.to/lastmile_qr_scan"}, "is_reserved": 0, "fusion_lon": 0.0, "fusion_lat": 0.0, "lon": -76.982039, "name": "c8a995226e9400e0ba426995a0887051"}, {"bike_id": "b137b7204f07ef0b8ed3f6ffcb4ebdf9", "type": "electric_scooter", "is_disabled": 0, "lat": 38.93658816666667, "rental_uris": {"ios": "https://dc.lft.to/lastmile_qr_scan", "android": "https://dc.lft.to/lastmile_qr_scan"}, "is_reserved": 0, "fusion_lon": 0.0, "fusion_lat": 0.0, "lon": -77.02638366666666, "name": "b137b7204f07ef0b8ed3f6ffcb4ebdf9"}, {"bike_id": "3b2eecf47458332080e4086af1ea71f2", "type": "electric_scooter", "is_disabled": 0, "lat": 38.91105316666667, "rental_uris": {"ios": "https://dc.lft.to/lastmile_qr_scan", "android": "https://dc.lft.to/lastmile_qr_scan"}, "is_reserved": 0, "fusion_lon": 0.0, "fusion_lat": 0.0, "lon": -77.0021445, "name": "3b2eecf47458332080e4086af1ea71f2"}, {"bike_id": "3215a45ef448f19a4850418f8c082d49", "type": "electric_scooter", "is_disabled": 0, "lat": 38.92764483333333, "rental_uris": {"ios": "https://dc.lft.to/lastmile_qr_scan", "android": "https://dc.lft.to/lastmile_qr_scan"}, "is_reserved": 0, "fusion_lon": 0.0, "fusion_lat": 0.0, "lon": -77.0564125, "name": "3215a45ef448f19a4850418f8c082d49"}, {"bike_id": "cf73c4a75603ac9679886ea125db5de7", "type": "electric_scooter", "is_disabled": 0, "lat": 38.928625833333335, "rental_uris": {"ios": "https://dc.lft.to/lastmile_qr_scan", "android": "https://dc.lft.to/lastmile_qr_scan"}, "is_reserved": 0, "fusion_lon": 0.0, "fusion_lat": 0.0, "lon": -77.02304433333333, "name": "cf73c4a75603ac9679886ea125db5de7"}, {"bike_id": "0bd2cc7a53bbd7f2135c533a9624cd55", "type": "electric_scooter", "is_disabled": 0, "lat": 38.90977433333333, "rental_uris": {"ios": "https://dc.lft.to/lastmile_qr_scan", "android": "https://dc.lft.to/lastmile_qr_scan"}, "is_reserved": 0, "fusion_lon": 0.0, "fusion_lat": 0.0, "lon": -77.02800433333333, "name": "0bd2cc7a53bbd7f2135c533a9624cd55"}, {"bike_id": "d12f5000f27593853c508a4ceb3ea430", "type": "electric_scooter", "is_disabled": 0, "lat": 38.884323333333334, "rental_uris": {"ios": "https://dc.lft.to/lastmile_qr_scan", "android": "https://dc.lft.to/lastmile_qr_scan"}, "is_reserved": 0, "fusion_lon": 0.0, "fusion_lat": 0.0, "lon": -76.95745833333334, "name": "d12f5000f27593853c508a4ceb3ea430"}, {"bike_id": "30f95181815e126148655557878006ef", "type": "electric_scooter", "is_disabled": 0, "lat": 38.92857266666667, "rental_uris": {"ios": "https://dc.lft.to/lastmile_qr_scan", "android": "https://dc.lft.to/lastmile_qr_scan"}, "is_reserved": 0, "fusion_lon": 0.0, "fusion_lat": 0.0, "lon": -77.01404916666667, "name": "30f95181815e126148655557878006ef"}, {"bike_id": "2df14833621fa93dc549c240e95db417", "type": "electric_scooter", "is_disabled": 0, "lat": 38.884241, "rental_uris": {"ios": "https://dc.lft.to/lastmile_qr_scan", "android": "https://dc.lft.to/lastmile_qr_scan"}, "is_reserved": 0, "fusion_lon": 0.0, "fusion_lat": 0.0, "lon": -76.957544, "name": "2df14833621fa93dc549c240e95db417"}, {"bike_id": "0cf3c666b4b439442fbe519a55674874", "type": "electric_scooter", "is_disabled": 0, "lat": 38.92490466666667, "rental_uris": {"ios": "https://dc.lft.to/lastmile_qr_scan", "android": "https://dc.lft.to/lastmile_qr_scan"}, "is_reserved": 0, "fusion_lon": 0.0, "fusion_lat": 0.0, "lon": -77.052116, "name": "0cf3c666b4b439442fbe519a55674874"}, {"bike_id": "20ef4c95efb2d8ba713ff5dc9b088e27", "type": "electric_scooter", "is_disabled": 0, "lat": 38.90247, "rental_uris": {"ios": "https://dc.lft.to/lastmile_qr_scan", "android": "https://dc.lft.to/lastmile_qr_scan"}, "is_reserved": 0, "fusion_lon": 0.0, "fusion_lat": 0.0, "lon": -77.0175635, "name": "20ef4c95efb2d8ba713ff5dc9b088e27"}, {"bike_id": "850de71281bddbb6830926332e26bffb", "type": "electric_scooter", "is_disabled": 0, "lat": 38.86180316666667, "rental_uris": {"ios": "https://dc.lft.to/lastmile_qr_scan", "android": "https://dc.lft.to/lastmile_qr_scan"}, "is_reserved": 0, "fusion_lon": 0.0, "fusion_lat": 0.0, "lon": -77.088328, "name": "850de71281bddbb6830926332e26bffb"}, {"bike_id": "a1a7edc4cfaf785d8f60c41f23c216b9", "type": "electric_scooter", "is_disabled": 0, "lat": 38.9144675, "rental_uris": {"ios": "https://dc.lft.to/lastmile_qr_scan", "android": "https://dc.lft.to/lastmile_qr_scan"}, "is_reserved": 0, "fusion_lon": 0.0, "fusion_lat": 0.0, "lon": -77.02589933333333, "name": "a1a7edc4cfaf785d8f60c41f23c216b9"}, {"bike_id": "0ef5a645d2b122cb24fb6b6dfdfc6591", "type": "electric_scooter", "is_disabled": 0, "lat": 38.9379925, "rental_uris": {"ios": "https://dc.lft.to/lastmile_qr_scan", "android": "https://dc.lft.to/lastmile_qr_scan"}, "is_reserved": 0, "fusion_lon": 0.0, "fusion_lat": 0.0, "lon": -77.0244785, "name": "0ef5a645d2b122cb24fb6b6dfdfc6591"}, {"bike_id": "a13471d3ae85711a762bd59c7169c24d", "type": "electric_scooter", "is_disabled": 0, "lat": 38.92053333333333, "rental_uris": {"ios": "https://dc.lft.to/lastmile_qr_scan", "android": "https://dc.lft.to/lastmile_qr_scan"}, "is_reserved": 0, "fusion_lon": 0.0, "fusion_lat": 0.0, "lon": -77.023663, "name": "a13471d3ae85711a762bd59c7169c24d"}, {"bike_id": "ce1f1bbe14cea0fbadc41f62355a4707", "type": "electric_scooter", "is_disabled": 0, "lat": 38.918689666666666, "rental_uris": {"ios": "https://dc.lft.to/lastmile_qr_scan", "android": "https://dc.lft.to/lastmile_qr_scan"}, "is_reserved": 0, "fusion_lon": 0.0, "fusion_lat": 0.0, "lon": -77.04460483333334, "name": "ce1f1bbe14cea0fbadc41f62355a4707"}, {"bike_id": "9d4f930651a91066df7ff9e30ab7731c", "type": "electric_scooter", "is_disabled": 0, "lat": 38.91660866666667, "rental_uris": {"ios": "https://dc.lft.to/lastmile_qr_scan", "android": "https://dc.lft.to/lastmile_qr_scan"}, "is_reserved": 0, "fusion_lon": 0.0, "fusion_lat": 0.0, "lon": -77.0269115, "name": "9d4f930651a91066df7ff9e30ab7731c"}, {"bike_id": "d395a643c5b53aa04abfcd5144887c23", "type": "electric_scooter", "is_disabled": 0, "lat": 38.92795, "rental_uris": {"ios": "https://dc.lft.to/lastmile_qr_scan", "android": "https://dc.lft.to/lastmile_qr_scan"}, "is_reserved": 0, "fusion_lon": 0.0, "fusion_lat": 0.0, "lon": -77.02203066666667, "name": "d395a643c5b53aa04abfcd5144887c23"}, {"bike_id": "7386884ab84187c234a76aa7887c110b", "type": "electric_bike", "is_disabled": 0, "lat": 38.88955983333334, "rental_uris": {"ios": "https://dc.lft.to/lastmile_qr_scan", "android": "https://dc.lft.to/lastmile_qr_scan"}, "is_reserved": 0, "fusion_lon": 0.0, "fusion_lat": 0.0, "lon": -77.09142633333333, "name": "7386884ab84187c234a76aa7887c110b"}, {"bike_id": "5d3e72fb272dd8879eab3f2952e573bb", "type": "electric_scooter", "is_disabled": 0, "lat": 38.9075665, "rental_uris": {"ios": "https://dc.lft.to/lastmile_qr_scan", "android": "https://dc.lft.to/lastmile_qr_scan"}, "is_reserved": 0, "fusion_lon": 0.0, "fusion_lat": 0.0, "lon": -77.03606516666666, "name": "5d3e72fb272dd8879eab3f2952e573bb"}, {"bike_id": "cec3d578b94d875f87d8072d4a76cf27", "type": "electric_scooter", "is_disabled": 0, "lat": 38.9117415, "rental_uris": {"ios": "https://dc.lft.to/lastmile_qr_scan", "android": "https://dc.lft.to/lastmile_qr_scan"}, "is_reserved": 0, "fusion_lon": 0.0, "fusion_lat": 0.0, "lon": -77.06856666666667, "name": "cec3d578b94d875f87d8072d4a76cf27"}, {"bike_id": "1990c0c95a1d43a8ead5e8973dc6d3b0", "type": "electric_scooter", "is_disabled": 0, "lat": 38.9059375, "rental_uris": {"ios": "https://dc.lft.to/lastmile_qr_scan", "android": "https://dc.lft.to/lastmile_qr_scan"}, "is_reserved": 0, "fusion_lon": 0.0, "fusion_lat": 0.0, "lon": -77.0730815, "name": "1990c0c95a1d43a8ead5e8973dc6d3b0"}, {"bike_id": "dc907ede62b776328e5adabae8de2638", "type": "electric_scooter", "is_disabled": 0, "lat": 38.921656166666665, "rental_uris": {"ios": "https://dc.lft.to/lastmile_qr_scan", "android": "https://dc.lft.to/lastmile_qr_scan"}, "is_reserved": 0, "fusion_lon": 0.0, "fusion_lat": 0.0, "lon": -77.03844433333333, "name": "dc907ede62b776328e5adabae8de2638"}, {"bike_id": "4f121001edb29ac248c588eb6b20bbe8", "type": "electric_bike", "is_disabled": 0, "lat": 38.83613016666666, "rental_uris": {"ios": "https://dc.lft.to/lastmile_qr_scan", "android": "https://dc.lft.to/lastmile_qr_scan"}, "is_reserved": 0, "fusion_lon": 0.0, "fusion_lat": 0.0, "lon": -77.00382916666666, "name": "4f121001edb29ac248c588eb6b20bbe8"}, {"bike_id": "1be57b2a3d7e25a3fb53323e03cded6d", "type": "electric_scooter", "is_disabled": 0, "lat": 38.897008666666665, "rental_uris": {"ios": "https://dc.lft.to/lastmile_qr_scan", "android": "https://dc.lft.to/lastmile_qr_scan"}, "is_reserved": 0, "fusion_lon": 0.0, "fusion_lat": 0.0, "lon": -76.999668, "name": "1be57b2a3d7e25a3fb53323e03cded6d"}, {"bike_id": "8207c484f3ce4d9cd22aae57318dbccc", "type": "electric_scooter", "is_disabled": 0, "lat": 38.909637833333335, "rental_uris": {"ios": "https://dc.lft.to/lastmile_qr_scan", "android": "https://dc.lft.to/lastmile_qr_scan"}, "is_reserved": 0, "fusion_lon": 0.0, "fusion_lat": 0.0, "lon": -77.04525216666667, "name": "8207c484f3ce4d9cd22aae57318dbccc"}, {"bike_id": "45e1f92def1a11badffa5cc27cb9bc1d", "type": "electric_scooter", "is_disabled": 0, "lat": 38.90790366666667, "rental_uris": {"ios": "https://dc.lft.to/lastmile_qr_scan", "android": "https://dc.lft.to/lastmile_qr_scan"}, "is_reserved": 0, "fusion_lon": 0.0, "fusion_lat": 0.0, "lon": -76.99425366666667, "name": "45e1f92def1a11badffa5cc27cb9bc1d"}, {"bike_id": "e5b0a4ce7e14709f23818e3531924a3e", "type": "electric_bike", "is_disabled": 0, "lat": 38.80755166666667, "rental_uris": {"ios": "https://dc.lft.to/lastmile_qr_scan", "android": "https://dc.lft.to/lastmile_qr_scan"}, "is_reserved": 0, "fusion_lon": 0.0, "fusion_lat": 0.0, "lon": -77.09453416666666, "name": "e5b0a4ce7e14709f23818e3531924a3e"}, {"bike_id": "584f648d00f6e8751fbbfa2c9448114f", "type": "electric_scooter", "is_disabled": 0, "lat": 38.8947845, "rental_uris": {"ios": "https://dc.lft.to/lastmile_qr_scan", "android": "https://dc.lft.to/lastmile_qr_scan"}, "is_reserved": 0, "fusion_lon": 0.0, "fusion_lat": 0.0, "lon": -76.98783333333333, "name": "584f648d00f6e8751fbbfa2c9448114f"}, {"bike_id": "974c38e832a7417fe90c1136580d7fa5", "type": "electric_scooter", "is_disabled": 0, "lat": 38.93904166666667, "rental_uris": {"ios": "https://dc.lft.to/lastmile_qr_scan", "android": "https://dc.lft.to/lastmile_qr_scan"}, "is_reserved": 0, "fusion_lon": 0.0, "fusion_lat": 0.0, "lon": -77.0332015, "name": "974c38e832a7417fe90c1136580d7fa5"}, {"bike_id": "88b8dff994155820b81053e047e1ee9c", "type": "electric_bike", "is_disabled": 0, "lat": 38.864849, "rental_uris": {"ios": "https://dc.lft.to/lastmile_qr_scan", "android": "https://dc.lft.to/lastmile_qr_scan"}, "is_reserved": 0, "fusion_lon": 0.0, "fusion_lat": 0.0, "lon": -76.977435, "name": "88b8dff994155820b81053e047e1ee9c"}, {"bike_id": "08281d5ddcd4ba7de87e3730829f8a37", "type": "electric_scooter", "is_disabled": 0, "lat": 38.939842, "rental_uris": {"ios": "https://dc.lft.to/lastmile_qr_scan", "android": "https://dc.lft.to/lastmile_qr_scan"}, "is_reserved": 0, "fusion_lon": 0.0, "fusion_lat": 0.0, "lon": -77.0287025, "name": "08281d5ddcd4ba7de87e3730829f8a37"}, {"bike_id": "5f759061461ed9b6db84f3fb52ed1981", "type": "electric_scooter", "is_disabled": 0, "lat": 38.892547, "rental_uris": {"ios": "https://dc.lft.to/lastmile_qr_scan", "android": "https://dc.lft.to/lastmile_qr_scan"}, "is_reserved": 0, "fusion_lon": 0.0, "fusion_lat": 0.0, "lon": -77.02027216666667, "name": "5f759061461ed9b6db84f3fb52ed1981"}, {"bike_id": "9a89df066ed22af4608054978563ffd4", "type": "electric_bike", "is_disabled": 0, "lat": 38.93506333333333, "rental_uris": {"ios": "https://dc.lft.to/lastmile_qr_scan", "android": "https://dc.lft.to/lastmile_qr_scan"}, "is_reserved": 0, "fusion_lon": 0.0, "fusion_lat": 0.0, "lon": -77.03636333333333, "name": "9a89df066ed22af4608054978563ffd4"}, {"bike_id": "47eb5c272adc13929de9afed75dd1ff9", "type": "electric_scooter", "is_disabled": 0, "lat": 38.870725666666665, "rental_uris": {"ios": "https://dc.lft.to/lastmile_qr_scan", "android": "https://dc.lft.to/lastmile_qr_scan"}, "is_reserved": 0, "fusion_lon": 0.0, "fusion_lat": 0.0, "lon": -76.9812745, "name": "47eb5c272adc13929de9afed75dd1ff9"}, {"bike_id": "0f7f89e088e252a28ab593ba553ebfd1", "type": "electric_bike", "is_disabled": 0, "lat": 38.95966116666666, "rental_uris": {"ios": "https://dc.lft.to/lastmile_qr_scan", "android": "https://dc.lft.to/lastmile_qr_scan"}, "is_reserved": 0, "fusion_lon": 0.0, "fusion_lat": 0.0, "lon": -76.98165183333333, "name": "0f7f89e088e252a28ab593ba553ebfd1"}, {"bike_id": "51edbdbb735579fc83c82bb36ae3dc75", "type": "electric_scooter", "is_disabled": 0, "lat": 38.92329683333333, "rental_uris": {"ios": "https://dc.lft.to/lastmile_qr_scan", "android": "https://dc.lft.to/lastmile_qr_scan"}, "is_reserved": 0, "fusion_lon": 0.0, "fusion_lat": 0.0, "lon": -77.000518, "name": "51edbdbb735579fc83c82bb36ae3dc75"}, {"bike_id": "0d9aa859bf7682f677d93701b2f3ae2f", "type": "electric_scooter", "is_disabled": 0, "lat": 38.91729866666667, "rental_uris": {"ios": "https://dc.lft.to/lastmile_qr_scan", "android": "https://dc.lft.to/lastmile_qr_scan"}, "is_reserved": 0, "fusion_lon": 0.0, "fusion_lat": 0.0, "lon": -77.00814133333333, "name": "0d9aa859bf7682f677d93701b2f3ae2f"}, {"bike_id": "6171228d4bd10040147e3b0e43c60d1b", "type": "electric_scooter", "is_disabled": 0, "lat": 38.94206916666667, "rental_uris": {"ios": "https://dc.lft.to/lastmile_qr_scan", "android": "https://dc.lft.to/lastmile_qr_scan"}, "is_reserved": 0, "fusion_lon": 0.0, "fusion_lat": 0.0, "lon": -77.025374, "name": "6171228d4bd10040147e3b0e43c60d1b"}, {"bike_id": "a327e92145ba7e69484dcbf3421179ce", "type": "electric_scooter", "is_disabled": 0, "lat": 38.858126, "rental_uris": {"ios": "https://dc.lft.to/lastmile_qr_scan", "android": "https://dc.lft.to/lastmile_qr_scan"}, "is_reserved": 0, "fusion_lon": 0.0, "fusion_lat": 0.0, "lon": -76.9892365, "name": "a327e92145ba7e69484dcbf3421179ce"}, {"bike_id": "2c1e51e12c3fe289ba6791178f20635a", "type": "electric_scooter", "is_disabled": 0, "lat": 38.924840833333334, "rental_uris": {"ios": "https://dc.lft.to/lastmile_qr_scan", "android": "https://dc.lft.to/lastmile_qr_scan"}, "is_reserved": 0, "fusion_lon": 0.0, "fusion_lat": 0.0, "lon": -77.02959883333334, "name": "2c1e51e12c3fe289ba6791178f20635a"}, {"bike_id": "b90b97639538f920da1ed93129255f70", "type": "electric_scooter", "is_disabled": 0, "lat": 38.9170495, "rental_uris": {"ios": "https://dc.lft.to/lastmile_qr_scan", "android": "https://dc.lft.to/lastmile_qr_scan"}, "is_reserved": 0, "fusion_lon": 0.0, "fusion_lat": 0.0, "lon": -77.0288405, "name": "b90b97639538f920da1ed93129255f70"}, {"bike_id": "9b1407471ebb3cbd916ca17eaa095913", "type": "electric_scooter", "is_disabled": 0, "lat": 38.914204833333336, "rental_uris": {"ios": "https://dc.lft.to/lastmile_qr_scan", "android": "https://dc.lft.to/lastmile_qr_scan"}, "is_reserved": 0, "fusion_lon": 0.0, "fusion_lat": 0.0, "lon": -77.03956233333334, "name": "9b1407471ebb3cbd916ca17eaa095913"}, {"bike_id": "5947d078079f536483e1924923aadfd3", "type": "electric_scooter", "is_disabled": 0, "lat": 38.89969466666667, "rental_uris": {"ios": "https://dc.lft.to/lastmile_qr_scan", "android": "https://dc.lft.to/lastmile_qr_scan"}, "is_reserved": 0, "fusion_lon": 0.0, "fusion_lat": 0.0, "lon": -76.98304, "name": "5947d078079f536483e1924923aadfd3"}, {"bike_id": "589ae8f9aaa7d564dc4576b019bb4506", "type": "electric_scooter", "is_disabled": 0, "lat": 38.866295666666666, "rental_uris": {"ios": "https://dc.lft.to/lastmile_qr_scan", "android": "https://dc.lft.to/lastmile_qr_scan"}, "is_reserved": 0, "fusion_lon": 0.0, "fusion_lat": 0.0, "lon": -76.98717233333333, "name": "589ae8f9aaa7d564dc4576b019bb4506"}, {"bike_id": "cef1a6a7e28cd2b44a7e9d397e13acc8", "type": "electric_scooter", "is_disabled": 0, "lat": 38.9163945, "rental_uris": {"ios": "https://dc.lft.to/lastmile_qr_scan", "android": "https://dc.lft.to/lastmile_qr_scan"}, "is_reserved": 0, "fusion_lon": 0.0, "fusion_lat": 0.0, "lon": -77.00047466666666, "name": "cef1a6a7e28cd2b44a7e9d397e13acc8"}, {"bike_id": "4c61ac4633b165510a442a1be5091b83", "type": "electric_scooter", "is_disabled": 0, "lat": 38.900801, "rental_uris": {"ios": "https://dc.lft.to/lastmile_qr_scan", "android": "https://dc.lft.to/lastmile_qr_scan"}, "is_reserved": 0, "fusion_lon": 0.0, "fusion_lat": 0.0, "lon": -76.927327, "name": "4c61ac4633b165510a442a1be5091b83"}, {"bike_id": "e9d0a3601f1ae54b5239bc385c089968", "type": "electric_scooter", "is_disabled": 0, "lat": 38.90423333333333, "rental_uris": {"ios": "https://dc.lft.to/lastmile_qr_scan", "android": "https://dc.lft.to/lastmile_qr_scan"}, "is_reserved": 0, "fusion_lon": 0.0, "fusion_lat": 0.0, "lon": -76.99067983333333, "name": "e9d0a3601f1ae54b5239bc385c089968"}, {"bike_id": "252393ac3d064e6888438466b2b94a55", "type": "electric_scooter", "is_disabled": 0, "lat": 38.920426, "rental_uris": {"ios": "https://dc.lft.to/lastmile_qr_scan", "android": "https://dc.lft.to/lastmile_qr_scan"}, "is_reserved": 0, "fusion_lon": 0.0, "fusion_lat": 0.0, "lon": -77.02380883333333, "name": "252393ac3d064e6888438466b2b94a55"}, {"bike_id": "93ddf670cc96865543dc9e851fe8cc16", "type": "electric_scooter", "is_disabled": 0, "lat": 38.90393866666667, "rental_uris": {"ios": "https://dc.lft.to/lastmile_qr_scan", "android": "https://dc.lft.to/lastmile_qr_scan"}, "is_reserved": 0, "fusion_lon": 0.0, "fusion_lat": 0.0, "lon": -77.06781633333334, "name": "93ddf670cc96865543dc9e851fe8cc16"}, {"bike_id": "bab9c6f38204057307065b5133ba96fc", "type": "electric_scooter", "is_disabled": 0, "lat": 38.88992983333333, "rental_uris": {"ios": "https://dc.lft.to/lastmile_qr_scan", "android": "https://dc.lft.to/lastmile_qr_scan"}, "is_reserved": 0, "fusion_lon": 0.0, "fusion_lat": 0.0, "lon": -77.00116166666666, "name": "bab9c6f38204057307065b5133ba96fc"}, {"bike_id": "ac435294bd80cf26a9f8c8ff02490e92", "type": "electric_scooter", "is_disabled": 0, "lat": 38.917911833333335, "rental_uris": {"ios": "https://dc.lft.to/lastmile_qr_scan", "android": "https://dc.lft.to/lastmile_qr_scan"}, "is_reserved": 0, "fusion_lon": 0.0, "fusion_lat": 0.0, "lon": -77.04058216666667, "name": "ac435294bd80cf26a9f8c8ff02490e92"}, {"bike_id": "aec01ea85cb5479f56b6b99a7113f346", "type": "electric_scooter", "is_disabled": 0, "lat": 38.917872333333335, "rental_uris": {"ios": "https://dc.lft.to/lastmile_qr_scan", "android": "https://dc.lft.to/lastmile_qr_scan"}, "is_reserved": 0, "fusion_lon": 0.0, "fusion_lat": 0.0, "lon": -77.03671183333333, "name": "aec01ea85cb5479f56b6b99a7113f346"}, {"bike_id": "af99549fbb9496b39ae79d930494e07c", "type": "electric_scooter", "is_disabled": 0, "lat": 38.91851783333333, "rental_uris": {"ios": "https://dc.lft.to/lastmile_qr_scan", "android": "https://dc.lft.to/lastmile_qr_scan"}, "is_reserved": 0, "fusion_lon": 0.0, "fusion_lat": 0.0, "lon": -77.0252335, "name": "af99549fbb9496b39ae79d930494e07c"}, {"bike_id": "ea55acb38802db2b3383edd70373370b", "type": "electric_scooter", "is_disabled": 0, "lat": 38.90832283333334, "rental_uris": {"ios": "https://dc.lft.to/lastmile_qr_scan", "android": "https://dc.lft.to/lastmile_qr_scan"}, "is_reserved": 0, "fusion_lon": 0.0, "fusion_lat": 0.0, "lon": -77.02705716666667, "name": "ea55acb38802db2b3383edd70373370b"}, {"bike_id": "9f3c9aee501a07da6a71434ea296f7aa", "type": "electric_scooter", "is_disabled": 0, "lat": 38.90352133333333, "rental_uris": {"ios": "https://dc.lft.to/lastmile_qr_scan", "android": "https://dc.lft.to/lastmile_qr_scan"}, "is_reserved": 0, "fusion_lon": 0.0, "fusion_lat": 0.0, "lon": -77.0364685, "name": "9f3c9aee501a07da6a71434ea296f7aa"}, {"bike_id": "969d8c385f84295fd1735fb1a2e6b2fb", "type": "electric_scooter", "is_disabled": 0, "lat": 38.910988, "rental_uris": {"ios": "https://dc.lft.to/lastmile_qr_scan", "android": "https://dc.lft.to/lastmile_qr_scan"}, "is_reserved": 0, "fusion_lon": 0.0, "fusion_lat": 0.0, "lon": -77.02811716666666, "name": "969d8c385f84295fd1735fb1a2e6b2fb"}, {"bike_id": "661929e0bcca2b1ac8a8300051737136", "type": "electric_scooter", "is_disabled": 0, "lat": 38.897627, "rental_uris": {"ios": "https://dc.lft.to/lastmile_qr_scan", "android": "https://dc.lft.to/lastmile_qr_scan"}, "is_reserved": 0, "fusion_lon": 0.0, "fusion_lat": 0.0, "lon": -77.02678683333333, "name": "661929e0bcca2b1ac8a8300051737136"}, {"bike_id": "4e4d96d740f4dbfcb1e5cd07ebdfb2c4", "type": "electric_scooter", "is_disabled": 0, "lat": 38.9056895, "rental_uris": {"ios": "https://dc.lft.to/lastmile_qr_scan", "android": "https://dc.lft.to/lastmile_qr_scan"}, "is_reserved": 0, "fusion_lon": 0.0, "fusion_lat": 0.0, "lon": -76.97619266666666, "name": "4e4d96d740f4dbfcb1e5cd07ebdfb2c4"}, {"bike_id": "08677dff933190fb47d6f02483d2c93b", "type": "electric_scooter", "is_disabled": 0, "lat": 38.87095216666667, "rental_uris": {"ios": "https://dc.lft.to/lastmile_qr_scan", "android": "https://dc.lft.to/lastmile_qr_scan"}, "is_reserved": 0, "fusion_lon": 0.0, "fusion_lat": 0.0, "lon": -77.01200416666667, "name": "08677dff933190fb47d6f02483d2c93b"}, {"bike_id": "488532237aee4d68d085f0bc17a2743e", "type": "electric_scooter", "is_disabled": 0, "lat": 38.90095916666667, "rental_uris": {"ios": "https://dc.lft.to/lastmile_qr_scan", "android": "https://dc.lft.to/lastmile_qr_scan"}, "is_reserved": 0, "fusion_lon": 0.0, "fusion_lat": 0.0, "lon": -77.01847816666667, "name": "488532237aee4d68d085f0bc17a2743e"}, {"bike_id": "29e882b9e8ade061d05ab7443f01d2eb", "type": "electric_scooter", "is_disabled": 0, "lat": 38.88406233333333, "rental_uris": {"ios": "https://dc.lft.to/lastmile_qr_scan", "android": "https://dc.lft.to/lastmile_qr_scan"}, "is_reserved": 0, "fusion_lon": 0.0, "fusion_lat": 0.0, "lon": -76.9538455, "name": "29e882b9e8ade061d05ab7443f01d2eb"}, {"bike_id": "a572051dc07dddc14b5287f4fe371371", "type": "electric_scooter", "is_disabled": 0, "lat": 38.91219683333333, "rental_uris": {"ios": "https://dc.lft.to/lastmile_qr_scan", "android": "https://dc.lft.to/lastmile_qr_scan"}, "is_reserved": 0, "fusion_lon": 0.0, "fusion_lat": 0.0, "lon": -77.03835383333333, "name": "a572051dc07dddc14b5287f4fe371371"}, {"bike_id": "50d56b3664773869719f1d000a7177fd", "type": "electric_scooter", "is_disabled": 0, "lat": 38.890989, "rental_uris": {"ios": "https://dc.lft.to/lastmile_qr_scan", "android": "https://dc.lft.to/lastmile_qr_scan"}, "is_reserved": 0, "fusion_lon": 0.0, "fusion_lat": 0.0, "lon": -76.9385205, "name": "50d56b3664773869719f1d000a7177fd"}, {"bike_id": "808e33affbf90d1afd3e45a4c3154dd2", "type": "electric_scooter", "is_disabled": 0, "lat": 38.915232333333336, "rental_uris": {"ios": "https://dc.lft.to/lastmile_qr_scan", "android": "https://dc.lft.to/lastmile_qr_scan"}, "is_reserved": 0, "fusion_lon": 0.0, "fusion_lat": 0.0, "lon": -77.04853133333333, "name": "808e33affbf90d1afd3e45a4c3154dd2"}, {"bike_id": "f1c1644201814e942fe6016bd0b6858b", "type": "electric_scooter", "is_disabled": 0, "lat": 38.9011275, "rental_uris": {"ios": "https://dc.lft.to/lastmile_qr_scan", "android": "https://dc.lft.to/lastmile_qr_scan"}, "is_reserved": 0, "fusion_lon": 0.0, "fusion_lat": 0.0, "lon": -77.0487465, "name": "f1c1644201814e942fe6016bd0b6858b"}, {"bike_id": "4d1ed513f8c501ac8bada90a72dc4823", "type": "electric_bike", "is_disabled": 0, "lat": 38.908216, "rental_uris": {"ios": "https://dc.lft.to/lastmile_qr_scan", "android": "https://dc.lft.to/lastmile_qr_scan"}, "is_reserved": 0, "fusion_lon": 0.0, "fusion_lat": 0.0, "lon": -76.94033233333333, "name": "4d1ed513f8c501ac8bada90a72dc4823"}, {"bike_id": "ced78995705ad19b17724cdd78235038", "type": "electric_scooter", "is_disabled": 0, "lat": 38.925704, "rental_uris": {"ios": "https://dc.lft.to/lastmile_qr_scan", "android": "https://dc.lft.to/lastmile_qr_scan"}, "is_reserved": 0, "fusion_lon": 0.0, "fusion_lat": 0.0, "lon": -77.03788166666666, "name": "ced78995705ad19b17724cdd78235038"}, {"bike_id": "a318ca1a501224520236e04dde01c2e9", "type": "electric_scooter", "is_disabled": 0, "lat": 38.91070583333333, "rental_uris": {"ios": "https://dc.lft.to/lastmile_qr_scan", "android": "https://dc.lft.to/lastmile_qr_scan"}, "is_reserved": 0, "fusion_lon": 0.0, "fusion_lat": 0.0, "lon": -77.03724316666667, "name": "a318ca1a501224520236e04dde01c2e9"}, {"bike_id": "02c49f572caa6f0d1c63af1bba32caec", "type": "electric_scooter", "is_disabled": 0, "lat": 38.91268816666667, "rental_uris": {"ios": "https://dc.lft.to/lastmile_qr_scan", "android": "https://dc.lft.to/lastmile_qr_scan"}, "is_reserved": 0, "fusion_lon": 0.0, "fusion_lat": 0.0, "lon": -77.06789283333333, "name": "02c49f572caa6f0d1c63af1bba32caec"}, {"bike_id": "d7f778c805fcf981672da8bf0b1edadd", "type": "electric_scooter", "is_disabled": 0, "lat": 38.864801, "rental_uris": {"ios": "https://dc.lft.to/lastmile_qr_scan", "android": "https://dc.lft.to/lastmile_qr_scan"}, "is_reserved": 0, "fusion_lon": 0.0, "fusion_lat": 0.0, "lon": -77.000104, "name": "d7f778c805fcf981672da8bf0b1edadd"}, {"bike_id": "7280541240c555f7f742e8a0d6874ffe", "type": "electric_bike", "is_disabled": 0, "lat": 38.836090166666665, "rental_uris": {"ios": "https://dc.lft.to/lastmile_qr_scan", "android": "https://dc.lft.to/lastmile_qr_scan"}, "is_reserved": 0, "fusion_lon": 0.0, "fusion_lat": 0.0, "lon": -77.00382733333333, "name": "7280541240c555f7f742e8a0d6874ffe"}, {"bike_id": "6514e43cf7a3eb5db3ec53c9cb23d344", "type": "electric_scooter", "is_disabled": 0, "lat": 38.93952766666666, "rental_uris": {"ios": "https://dc.lft.to/lastmile_qr_scan", "android": "https://dc.lft.to/lastmile_qr_scan"}, "is_reserved": 0, "fusion_lon": 0.0, "fusion_lat": 0.0, "lon": -77.07244983333334, "name": "6514e43cf7a3eb5db3ec53c9cb23d344"}, {"bike_id": "808a338f1d6b64d0b27320d12bfb8d3a", "type": "electric_scooter", "is_disabled": 0, "lat": 38.91467766666667, "rental_uris": {"ios": "https://dc.lft.to/lastmile_qr_scan", "android": "https://dc.lft.to/lastmile_qr_scan"}, "is_reserved": 0, "fusion_lon": 0.0, "fusion_lat": 0.0, "lon": -77.00214066666666, "name": "808a338f1d6b64d0b27320d12bfb8d3a"}, {"bike_id": "b88fc0d5a03493d285407d7a1cde0239", "type": "electric_scooter", "is_disabled": 0, "lat": 38.91116866666667, "rental_uris": {"ios": "https://dc.lft.to/lastmile_qr_scan", "android": "https://dc.lft.to/lastmile_qr_scan"}, "is_reserved": 0, "fusion_lon": 0.0, "fusion_lat": 0.0, "lon": -77.0452815, "name": "b88fc0d5a03493d285407d7a1cde0239"}, {"bike_id": "e8a8f200b6427a7c1ea5c86492f579a9", "type": "electric_scooter", "is_disabled": 0, "lat": 38.9134075, "rental_uris": {"ios": "https://dc.lft.to/lastmile_qr_scan", "android": "https://dc.lft.to/lastmile_qr_scan"}, "is_reserved": 0, "fusion_lon": 0.0, "fusion_lat": 0.0, "lon": -77.03996383333333, "name": "e8a8f200b6427a7c1ea5c86492f579a9"}, {"bike_id": "c222ab46d52db7ae292748ab0cde0e99", "type": "electric_scooter", "is_disabled": 0, "lat": 38.91985183333333, "rental_uris": {"ios": "https://dc.lft.to/lastmile_qr_scan", "android": "https://dc.lft.to/lastmile_qr_scan"}, "is_reserved": 0, "fusion_lon": 0.0, "fusion_lat": 0.0, "lon": -77.018013, "name": "c222ab46d52db7ae292748ab0cde0e99"}, {"bike_id": "76ed0fbd10d7ddb433e6c7703014db70", "type": "electric_scooter", "is_disabled": 0, "lat": 38.90101, "rental_uris": {"ios": "https://dc.lft.to/lastmile_qr_scan", "android": "https://dc.lft.to/lastmile_qr_scan"}, "is_reserved": 0, "fusion_lon": 0.0, "fusion_lat": 0.0, "lon": -77.03837283333333, "name": "76ed0fbd10d7ddb433e6c7703014db70"}, {"bike_id": "9f715eb832e6b8383c782986db8aee4c", "type": "electric_scooter", "is_disabled": 0, "lat": 38.922770666666665, "rental_uris": {"ios": "https://dc.lft.to/lastmile_qr_scan", "android": "https://dc.lft.to/lastmile_qr_scan"}, "is_reserved": 0, "fusion_lon": 0.0, "fusion_lat": 0.0, "lon": -77.03665833333334, "name": "9f715eb832e6b8383c782986db8aee4c"}, {"bike_id": "5c292d4010361a87affc355c60c7e825", "type": "electric_scooter", "is_disabled": 0, "lat": 38.84318016666667, "rental_uris": {"ios": "https://dc.lft.to/lastmile_qr_scan", "android": "https://dc.lft.to/lastmile_qr_scan"}, "is_reserved": 0, "fusion_lon": 0.0, "fusion_lat": 0.0, "lon": -76.99930033333334, "name": "5c292d4010361a87affc355c60c7e825"}, {"bike_id": "f0079d686113bee71eb19062f36c44ea", "type": "electric_scooter", "is_disabled": 0, "lat": 38.911816, "rental_uris": {"ios": "https://dc.lft.to/lastmile_qr_scan", "android": "https://dc.lft.to/lastmile_qr_scan"}, "is_reserved": 0, "fusion_lon": 0.0, "fusion_lat": 0.0, "lon": -77.002187, "name": "f0079d686113bee71eb19062f36c44ea"}, {"bike_id": "b965ab8f5178e9ce1686c983310186c1", "type": "electric_scooter", "is_disabled": 0, "lat": 38.90565516666667, "rental_uris": {"ios": "https://dc.lft.to/lastmile_qr_scan", "android": "https://dc.lft.to/lastmile_qr_scan"}, "is_reserved": 0, "fusion_lon": 0.0, "fusion_lat": 0.0, "lon": -77.00580783333334, "name": "b965ab8f5178e9ce1686c983310186c1"}, {"bike_id": "d8ad6558535d2586f182db50d1dce777", "type": "electric_scooter", "is_disabled": 0, "lat": 38.91509966666667, "rental_uris": {"ios": "https://dc.lft.to/lastmile_qr_scan", "android": "https://dc.lft.to/lastmile_qr_scan"}, "is_reserved": 0, "fusion_lon": 0.0, "fusion_lat": 0.0, "lon": -77.02185166666666, "name": "d8ad6558535d2586f182db50d1dce777"}, {"bike_id": "10584848db59ef10c9d237c297d48d48", "type": "electric_scooter", "is_disabled": 0, "lat": 38.9248175, "rental_uris": {"ios": "https://dc.lft.to/lastmile_qr_scan", "android": "https://dc.lft.to/lastmile_qr_scan"}, "is_reserved": 0, "fusion_lon": 0.0, "fusion_lat": 0.0, "lon": -77.05206883333334, "name": "10584848db59ef10c9d237c297d48d48"}, {"bike_id": "2064b2a7d7dee9f749878d4c44e1a7e0", "type": "electric_bike", "is_disabled": 0, "lat": 38.87988, "rental_uris": {"ios": "https://dc.lft.to/lastmile_qr_scan", "android": "https://dc.lft.to/lastmile_qr_scan"}, "is_reserved": 0, "fusion_lon": 0.0, "fusion_lat": 0.0, "lon": -76.9159785, "name": "2064b2a7d7dee9f749878d4c44e1a7e0"}, {"bike_id": "c078c1635d7adbb0893e79d9cfee954c", "type": "electric_scooter", "is_disabled": 0, "lat": 38.880456, "rental_uris": {"ios": "https://dc.lft.to/lastmile_qr_scan", "android": "https://dc.lft.to/lastmile_qr_scan"}, "is_reserved": 0, "fusion_lon": 0.0, "fusion_lat": 0.0, "lon": -76.9321465, "name": "c078c1635d7adbb0893e79d9cfee954c"}, {"bike_id": "01ebe49bc4646f9608a6effa0111d673", "type": "electric_scooter", "is_disabled": 0, "lat": 38.91649783333333, "rental_uris": {"ios": "https://dc.lft.to/lastmile_qr_scan", "android": "https://dc.lft.to/lastmile_qr_scan"}, "is_reserved": 0, "fusion_lon": 0.0, "fusion_lat": 0.0, "lon": -77.02900583333333, "name": "01ebe49bc4646f9608a6effa0111d673"}, {"bike_id": "922fd00826590faf75ebdf0287f00521", "type": "electric_scooter", "is_disabled": 0, "lat": 38.932052166666665, "rental_uris": {"ios": "https://dc.lft.to/lastmile_qr_scan", "android": "https://dc.lft.to/lastmile_qr_scan"}, "is_reserved": 0, "fusion_lon": 0.0, "fusion_lat": 0.0, "lon": -77.036757, "name": "922fd00826590faf75ebdf0287f00521"}, {"bike_id": "e5ea42ac03141120fa90f0729d48be36", "type": "electric_scooter", "is_disabled": 0, "lat": 38.887462166666666, "rental_uris": {"ios": "https://dc.lft.to/lastmile_qr_scan", "android": "https://dc.lft.to/lastmile_qr_scan"}, "is_reserved": 0, "fusion_lon": 0.0, "fusion_lat": 0.0, "lon": -76.9962595, "name": "e5ea42ac03141120fa90f0729d48be36"}, {"bike_id": "3ff4338cbb111a0287f90649f030a359", "type": "electric_scooter", "is_disabled": 0, "lat": 38.888534, "rental_uris": {"ios": "https://dc.lft.to/lastmile_qr_scan", "android": "https://dc.lft.to/lastmile_qr_scan"}, "is_reserved": 0, "fusion_lon": 0.0, "fusion_lat": 0.0, "lon": -77.0005085, "name": "3ff4338cbb111a0287f90649f030a359"}, {"bike_id": "c37d7acff48e33be0afdcd8bcece9d54", "type": "electric_scooter", "is_disabled": 0, "lat": 38.91901433333334, "rental_uris": {"ios": "https://dc.lft.to/lastmile_qr_scan", "android": "https://dc.lft.to/lastmile_qr_scan"}, "is_reserved": 0, "fusion_lon": 0.0, "fusion_lat": 0.0, "lon": -77.070802, "name": "c37d7acff48e33be0afdcd8bcece9d54"}, {"bike_id": "d0ba7af8460156c4404fdbc7d6dbe9cc", "type": "electric_scooter", "is_disabled": 0, "lat": 38.9186895, "rental_uris": {"ios": "https://dc.lft.to/lastmile_qr_scan", "android": "https://dc.lft.to/lastmile_qr_scan"}, "is_reserved": 0, "fusion_lon": 0.0, "fusion_lat": 0.0, "lon": -77.04759833333334, "name": "d0ba7af8460156c4404fdbc7d6dbe9cc"}, {"bike_id": "241f005509e59175e9fbacc4c047a51f", "type": "electric_scooter", "is_disabled": 0, "lat": 38.92378766666667, "rental_uris": {"ios": "https://dc.lft.to/lastmile_qr_scan", "android": "https://dc.lft.to/lastmile_qr_scan"}, "is_reserved": 0, "fusion_lon": 0.0, "fusion_lat": 0.0, "lon": -77.03047816666667, "name": "241f005509e59175e9fbacc4c047a51f"}, {"bike_id": "20cb35f0768169de83cec471b88422ed", "type": "electric_scooter", "is_disabled": 0, "lat": 38.933119, "rental_uris": {"ios": "https://dc.lft.to/lastmile_qr_scan", "android": "https://dc.lft.to/lastmile_qr_scan"}, "is_reserved": 0, "fusion_lon": 0.0, "fusion_lat": 0.0, "lon": -77.0326395, "name": "20cb35f0768169de83cec471b88422ed"}, {"bike_id": "432d05c23e97b34bcb144aaf2b977f02", "type": "electric_scooter", "is_disabled": 0, "lat": 38.9141835, "rental_uris": {"ios": "https://dc.lft.to/lastmile_qr_scan", "android": "https://dc.lft.to/lastmile_qr_scan"}, "is_reserved": 0, "fusion_lon": 0.0, "fusion_lat": 0.0, "lon": -77.04805166666667, "name": "432d05c23e97b34bcb144aaf2b977f02"}, {"bike_id": "15f3ca1bd3420de67c0628ac7687ce6c", "type": "electric_bike", "is_disabled": 0, "lat": 38.910165166666665, "rental_uris": {"ios": "https://dc.lft.to/lastmile_qr_scan", "android": "https://dc.lft.to/lastmile_qr_scan"}, "is_reserved": 0, "fusion_lon": 0.0, "fusion_lat": 0.0, "lon": -77.22799366666666, "name": "15f3ca1bd3420de67c0628ac7687ce6c"}, {"bike_id": "362d7be71428f7ec533d78f8ff62f3bb", "type": "electric_scooter", "is_disabled": 0, "lat": 38.9103325, "rental_uris": {"ios": "https://dc.lft.to/lastmile_qr_scan", "android": "https://dc.lft.to/lastmile_qr_scan"}, "is_reserved": 0, "fusion_lon": 0.0, "fusion_lat": 0.0, "lon": -77.00756683333333, "name": "362d7be71428f7ec533d78f8ff62f3bb"}, {"bike_id": "1b6023383de471a4dc6f5bc1be6b0842", "type": "electric_scooter", "is_disabled": 0, "lat": 38.90228916666667, "rental_uris": {"ios": "https://dc.lft.to/lastmile_qr_scan", "android": "https://dc.lft.to/lastmile_qr_scan"}, "is_reserved": 0, "fusion_lon": 0.0, "fusion_lat": 0.0, "lon": -77.04049583333334, "name": "1b6023383de471a4dc6f5bc1be6b0842"}, {"bike_id": "d3abe8962ea18bd97c400ad1a395aa81", "type": "electric_scooter", "is_disabled": 0, "lat": 38.909598833333334, "rental_uris": {"ios": "https://dc.lft.to/lastmile_qr_scan", "android": "https://dc.lft.to/lastmile_qr_scan"}, "is_reserved": 0, "fusion_lon": 0.0, "fusion_lat": 0.0, "lon": -77.027134, "name": "d3abe8962ea18bd97c400ad1a395aa81"}, {"bike_id": "2d7d542910492c7d2a6fdc0e2b1792a4", "type": "electric_scooter", "is_disabled": 0, "lat": 38.96607216666666, "rental_uris": {"ios": "https://dc.lft.to/lastmile_qr_scan", "android": "https://dc.lft.to/lastmile_qr_scan"}, "is_reserved": 0, "fusion_lon": 0.0, "fusion_lat": 0.0, "lon": -77.01974666666666, "name": "2d7d542910492c7d2a6fdc0e2b1792a4"}, {"bike_id": "a94ecc046f9d4d435786f751560bafd3", "type": "electric_bike", "is_disabled": 0, "lat": 38.961770333333334, "rental_uris": {"ios": "https://dc.lft.to/lastmile_qr_scan", "android": "https://dc.lft.to/lastmile_qr_scan"}, "is_reserved": 0, "fusion_lon": 0.0, "fusion_lat": 0.0, "lon": -77.0322485, "name": "a94ecc046f9d4d435786f751560bafd3"}, {"bike_id": "480193617c7978209f4b7a0e0cf0c59f", "type": "electric_scooter", "is_disabled": 0, "lat": 38.917873166666666, "rental_uris": {"ios": "https://dc.lft.to/lastmile_qr_scan", "android": "https://dc.lft.to/lastmile_qr_scan"}, "is_reserved": 0, "fusion_lon": 0.0, "fusion_lat": 0.0, "lon": -77.02316983333333, "name": "480193617c7978209f4b7a0e0cf0c59f"}, {"bike_id": "f094dd60b49e285c0489f6c8aff04caa", "type": "electric_scooter", "is_disabled": 0, "lat": 38.92773733333333, "rental_uris": {"ios": "https://dc.lft.to/lastmile_qr_scan", "android": "https://dc.lft.to/lastmile_qr_scan"}, "is_reserved": 0, "fusion_lon": 0.0, "fusion_lat": 0.0, "lon": -77.02708233333334, "name": "f094dd60b49e285c0489f6c8aff04caa"}, {"bike_id": "89ef94a89f467ed361f941288cf5f452", "type": "electric_scooter", "is_disabled": 0, "lat": 38.913010666666665, "rental_uris": {"ios": "https://dc.lft.to/lastmile_qr_scan", "android": "https://dc.lft.to/lastmile_qr_scan"}, "is_reserved": 0, "fusion_lon": 0.0, "fusion_lat": 0.0, "lon": -77.04530016666666, "name": "89ef94a89f467ed361f941288cf5f452"}, {"bike_id": "0e9676c3cddb79f8e69ad580771e65c5", "type": "electric_bike", "is_disabled": 0, "lat": 38.87282833333333, "rental_uris": {"ios": "https://dc.lft.to/lastmile_qr_scan", "android": "https://dc.lft.to/lastmile_qr_scan"}, "is_reserved": 0, "fusion_lon": 0.0, "fusion_lat": 0.0, "lon": -77.23316183333333, "name": "0e9676c3cddb79f8e69ad580771e65c5"}, {"bike_id": "1b43d047772b17e93992d8d9d768f861", "type": "electric_scooter", "is_disabled": 0, "lat": 38.90027466666667, "rental_uris": {"ios": "https://dc.lft.to/lastmile_qr_scan", "android": "https://dc.lft.to/lastmile_qr_scan"}, "is_reserved": 0, "fusion_lon": 0.0, "fusion_lat": 0.0, "lon": -77.001991, "name": "1b43d047772b17e93992d8d9d768f861"}, {"bike_id": "3fdf554b590d07b6368e5bd199fdb7cd", "type": "electric_scooter", "is_disabled": 0, "lat": 38.869801, "rental_uris": {"ios": "https://dc.lft.to/lastmile_qr_scan", "android": "https://dc.lft.to/lastmile_qr_scan"}, "is_reserved": 0, "fusion_lon": 0.0, "fusion_lat": 0.0, "lon": -76.9816985, "name": "3fdf554b590d07b6368e5bd199fdb7cd"}, {"bike_id": "9e63580ff54bd31fe9be9e0fdf25b390", "type": "electric_scooter", "is_disabled": 0, "lat": 38.918358833333336, "rental_uris": {"ios": "https://dc.lft.to/lastmile_qr_scan", "android": "https://dc.lft.to/lastmile_qr_scan"}, "is_reserved": 0, "fusion_lon": 0.0, "fusion_lat": 0.0, "lon": -77.02452133333334, "name": "9e63580ff54bd31fe9be9e0fdf25b390"}, {"bike_id": "5df562a1e4995112df75a03448110398", "type": "electric_bike", "is_disabled": 0, "lat": 38.88059966666667, "rental_uris": {"ios": "https://dc.lft.to/lastmile_qr_scan", "android": "https://dc.lft.to/lastmile_qr_scan"}, "is_reserved": 0, "fusion_lon": 0.0, "fusion_lat": 0.0, "lon": -76.96233716666667, "name": "5df562a1e4995112df75a03448110398"}, {"bike_id": "18baa53f870457123ebd9da4d557073f", "type": "electric_scooter", "is_disabled": 0, "lat": 38.94792266666666, "rental_uris": {"ios": "https://dc.lft.to/lastmile_qr_scan", "android": "https://dc.lft.to/lastmile_qr_scan"}, "is_reserved": 0, "fusion_lon": 0.0, "fusion_lat": 0.0, "lon": -77.02132083333333, "name": "18baa53f870457123ebd9da4d557073f"}, {"bike_id": "24c31443e29f44206a7a03126d42707b", "type": "electric_scooter", "is_disabled": 0, "lat": 38.882202, "rental_uris": {"ios": "https://dc.lft.to/lastmile_qr_scan", "android": "https://dc.lft.to/lastmile_qr_scan"}, "is_reserved": 0, "fusion_lon": 0.0, "fusion_lat": 0.0, "lon": -76.92660483333333, "name": "24c31443e29f44206a7a03126d42707b"}, {"bike_id": "f0e22f5b9534fd134ed03d72056688c0", "type": "electric_scooter", "is_disabled": 0, "lat": 38.93477566666667, "rental_uris": {"ios": "https://dc.lft.to/lastmile_qr_scan", "android": "https://dc.lft.to/lastmile_qr_scan"}, "is_reserved": 0, "fusion_lon": 0.0, "fusion_lat": 0.0, "lon": -77.03577466666667, "name": "f0e22f5b9534fd134ed03d72056688c0"}, {"bike_id": "79f93c17834dfbbb7993b21f9bfac58d", "type": "electric_scooter", "is_disabled": 0, "lat": 38.92099366666667, "rental_uris": {"ios": "https://dc.lft.to/lastmile_qr_scan", "android": "https://dc.lft.to/lastmile_qr_scan"}, "is_reserved": 0, "fusion_lon": 0.0, "fusion_lat": 0.0, "lon": -77.02503166666666, "name": "79f93c17834dfbbb7993b21f9bfac58d"}, {"bike_id": "146320572b80df7fbc5de485941a49d5", "type": "electric_scooter", "is_disabled": 0, "lat": 38.94445066666667, "rental_uris": {"ios": "https://dc.lft.to/lastmile_qr_scan", "android": "https://dc.lft.to/lastmile_qr_scan"}, "is_reserved": 0, "fusion_lon": 0.0, "fusion_lat": 0.0, "lon": -77.01448666666667, "name": "146320572b80df7fbc5de485941a49d5"}, {"bike_id": "af8f7cdb86631f2fe8c2736acc7bc4b4", "type": "electric_scooter", "is_disabled": 0, "lat": 38.90972216666667, "rental_uris": {"ios": "https://dc.lft.to/lastmile_qr_scan", "android": "https://dc.lft.to/lastmile_qr_scan"}, "is_reserved": 0, "fusion_lon": 0.0, "fusion_lat": 0.0, "lon": -77.04648016666667, "name": "af8f7cdb86631f2fe8c2736acc7bc4b4"}, {"bike_id": "963da6dcf41b5501485e6ed6b4399d71", "type": "electric_scooter", "is_disabled": 0, "lat": 38.901836, "rental_uris": {"ios": "https://dc.lft.to/lastmile_qr_scan", "android": "https://dc.lft.to/lastmile_qr_scan"}, "is_reserved": 0, "fusion_lon": 0.0, "fusion_lat": 0.0, "lon": -76.9806425, "name": "963da6dcf41b5501485e6ed6b4399d71"}, {"bike_id": "43022ba07c6cb6c92ca1caf824e6f09a", "type": "electric_scooter", "is_disabled": 0, "lat": 38.93133133333333, "rental_uris": {"ios": "https://dc.lft.to/lastmile_qr_scan", "android": "https://dc.lft.to/lastmile_qr_scan"}, "is_reserved": 0, "fusion_lon": 0.0, "fusion_lat": 0.0, "lon": -76.99576666666667, "name": "43022ba07c6cb6c92ca1caf824e6f09a"}, {"bike_id": "4fdcc78f4c0e6420e68e3c5cd95af45a", "type": "electric_scooter", "is_disabled": 0, "lat": 38.93338583333333, "rental_uris": {"ios": "https://dc.lft.to/lastmile_qr_scan", "android": "https://dc.lft.to/lastmile_qr_scan"}, "is_reserved": 0, "fusion_lon": 0.0, "fusion_lat": 0.0, "lon": -77.02057783333333, "name": "4fdcc78f4c0e6420e68e3c5cd95af45a"}, {"bike_id": "ed66c0dc1f6b71ef43d7b0421d72c22d", "type": "electric_scooter", "is_disabled": 0, "lat": 38.881349666666665, "rental_uris": {"ios": "https://dc.lft.to/lastmile_qr_scan", "android": "https://dc.lft.to/lastmile_qr_scan"}, "is_reserved": 0, "fusion_lon": 0.0, "fusion_lat": 0.0, "lon": -76.9835075, "name": "ed66c0dc1f6b71ef43d7b0421d72c22d"}, {"bike_id": "a6334c7e405a73384849a9066803edae", "type": "electric_scooter", "is_disabled": 0, "lat": 38.86699016666667, "rental_uris": {"ios": "https://dc.lft.to/lastmile_qr_scan", "android": "https://dc.lft.to/lastmile_qr_scan"}, "is_reserved": 0, "fusion_lon": 0.0, "fusion_lat": 0.0, "lon": -76.987158, "name": "a6334c7e405a73384849a9066803edae"}, {"bike_id": "cb3a07a763e34e008a962bc9b6af6a04", "type": "electric_scooter", "is_disabled": 0, "lat": 38.9475425, "rental_uris": {"ios": "https://dc.lft.to/lastmile_qr_scan", "android": "https://dc.lft.to/lastmile_qr_scan"}, "is_reserved": 0, "fusion_lon": 0.0, "fusion_lat": 0.0, "lon": -77.07589983333334, "name": "cb3a07a763e34e008a962bc9b6af6a04"}, {"bike_id": "b2c580e340f9fe7cb99cf2c72e6ad1af", "type": "electric_scooter", "is_disabled": 0, "lat": 38.912685833333335, "rental_uris": {"ios": "https://dc.lft.to/lastmile_qr_scan", "android": "https://dc.lft.to/lastmile_qr_scan"}, "is_reserved": 0, "fusion_lon": 0.0, "fusion_lat": 0.0, "lon": -77.0176655, "name": "b2c580e340f9fe7cb99cf2c72e6ad1af"}, {"bike_id": "97eb303a6a575fc3d513bfb3b6fb1d49", "type": "electric_scooter", "is_disabled": 0, "lat": 38.91702383333333, "rental_uris": {"ios": "https://dc.lft.to/lastmile_qr_scan", "android": "https://dc.lft.to/lastmile_qr_scan"}, "is_reserved": 0, "fusion_lon": 0.0, "fusion_lat": 0.0, "lon": -77.00658733333333, "name": "97eb303a6a575fc3d513bfb3b6fb1d49"}, {"bike_id": "0297c0c7bd35ab218eaebc53eab367d5", "type": "electric_scooter", "is_disabled": 0, "lat": 38.91824116666667, "rental_uris": {"ios": "https://dc.lft.to/lastmile_qr_scan", "android": "https://dc.lft.to/lastmile_qr_scan"}, "is_reserved": 0, "fusion_lon": 0.0, "fusion_lat": 0.0, "lon": -77.04943066666667, "name": "0297c0c7bd35ab218eaebc53eab367d5"}, {"bike_id": "e1de12be58cf5508ecdcd341a92cb123", "type": "electric_bike", "is_disabled": 0, "lat": 39.05279633333333, "rental_uris": {"ios": "https://dc.lft.to/lastmile_qr_scan", "android": "https://dc.lft.to/lastmile_qr_scan"}, "is_reserved": 0, "fusion_lon": 0.0, "fusion_lat": 0.0, "lon": -77.08072516666667, "name": "e1de12be58cf5508ecdcd341a92cb123"}, {"bike_id": "d4fc26ea4074d3038f2a792c18947b87", "type": "electric_scooter", "is_disabled": 0, "lat": 38.91825383333333, "rental_uris": {"ios": "https://dc.lft.to/lastmile_qr_scan", "android": "https://dc.lft.to/lastmile_qr_scan"}, "is_reserved": 0, "fusion_lon": 0.0, "fusion_lat": 0.0, "lon": -77.0318325, "name": "d4fc26ea4074d3038f2a792c18947b87"}, {"bike_id": "e9915ce1ca09c894789d7adc89e4a8af", "type": "electric_scooter", "is_disabled": 0, "lat": 38.91700083333333, "rental_uris": {"ios": "https://dc.lft.to/lastmile_qr_scan", "android": "https://dc.lft.to/lastmile_qr_scan"}, "is_reserved": 0, "fusion_lon": 0.0, "fusion_lat": 0.0, "lon": -77.03149566666667, "name": "e9915ce1ca09c894789d7adc89e4a8af"}, {"bike_id": "74912cbdb9fe4a1486dd9bebe68bb7ed", "type": "electric_scooter", "is_disabled": 0, "lat": 38.9086585, "rental_uris": {"ios": "https://dc.lft.to/lastmile_qr_scan", "android": "https://dc.lft.to/lastmile_qr_scan"}, "is_reserved": 0, "fusion_lon": 0.0, "fusion_lat": 0.0, "lon": -77.0221745, "name": "74912cbdb9fe4a1486dd9bebe68bb7ed"}, {"bike_id": "71492980972d882c0d5cff47ee88bb11", "type": "electric_bike", "is_disabled": 0, "lat": 38.93691666666667, "rental_uris": {"ios": "https://dc.lft.to/lastmile_qr_scan", "android": "https://dc.lft.to/lastmile_qr_scan"}, "is_reserved": 0, "fusion_lon": 0.0, "fusion_lat": 0.0, "lon": -77.05640983333333, "name": "71492980972d882c0d5cff47ee88bb11"}, {"bike_id": "442b48a9f03b8715b990fdad789faaf3", "type": "electric_scooter", "is_disabled": 0, "lat": 38.9346315, "rental_uris": {"ios": "https://dc.lft.to/lastmile_qr_scan", "android": "https://dc.lft.to/lastmile_qr_scan"}, "is_reserved": 0, "fusion_lon": 0.0, "fusion_lat": 0.0, "lon": -77.04530033333333, "name": "442b48a9f03b8715b990fdad789faaf3"}, {"bike_id": "6e6f46b46b4616205c4d18394c46cd9b", "type": "electric_scooter", "is_disabled": 0, "lat": 38.91994116666667, "rental_uris": {"ios": "https://dc.lft.to/lastmile_qr_scan", "android": "https://dc.lft.to/lastmile_qr_scan"}, "is_reserved": 0, "fusion_lon": 0.0, "fusion_lat": 0.0, "lon": -77.01783733333333, "name": "6e6f46b46b4616205c4d18394c46cd9b"}, {"bike_id": "e2c03b8735106dc2246429e0d6b106d2", "type": "electric_scooter", "is_disabled": 0, "lat": 38.899157833333334, "rental_uris": {"ios": "https://dc.lft.to/lastmile_qr_scan", "android": "https://dc.lft.to/lastmile_qr_scan"}, "is_reserved": 0, "fusion_lon": 0.0, "fusion_lat": 0.0, "lon": -76.93367233333333, "name": "e2c03b8735106dc2246429e0d6b106d2"}, {"bike_id": "aa2442a5235df2d190560491db6c7d03", "type": "electric_scooter", "is_disabled": 0, "lat": 38.906263, "rental_uris": {"ios": "https://dc.lft.to/lastmile_qr_scan", "android": "https://dc.lft.to/lastmile_qr_scan"}, "is_reserved": 0, "fusion_lon": 0.0, "fusion_lat": 0.0, "lon": -77.05555016666666, "name": "aa2442a5235df2d190560491db6c7d03"}, {"bike_id": "0c2bee4bab140c9d29085da32bc42862", "type": "electric_scooter", "is_disabled": 0, "lat": 38.9024025, "rental_uris": {"ios": "https://dc.lft.to/lastmile_qr_scan", "android": "https://dc.lft.to/lastmile_qr_scan"}, "is_reserved": 0, "fusion_lon": 0.0, "fusion_lat": 0.0, "lon": -77.00199433333333, "name": "0c2bee4bab140c9d29085da32bc42862"}, {"bike_id": "c7122f3ee55f600d05dfde7a44d9d69a", "type": "electric_scooter", "is_disabled": 0, "lat": 38.8760745, "rental_uris": {"ios": "https://dc.lft.to/lastmile_qr_scan", "android": "https://dc.lft.to/lastmile_qr_scan"}, "is_reserved": 0, "fusion_lon": 0.0, "fusion_lat": 0.0, "lon": -77.01379283333333, "name": "c7122f3ee55f600d05dfde7a44d9d69a"}, {"bike_id": "610360e84aea1c41e2d1d211eeeaaeb8", "type": "electric_bike", "is_disabled": 0, "lat": 38.85727583333333, "rental_uris": {"ios": "https://dc.lft.to/lastmile_qr_scan", "android": "https://dc.lft.to/lastmile_qr_scan"}, "is_reserved": 0, "fusion_lon": 0.0, "fusion_lat": 0.0, "lon": -77.07964, "name": "610360e84aea1c41e2d1d211eeeaaeb8"}, {"bike_id": "79d3ebcbf9ca7c7f215eec2ec3806058", "type": "electric_scooter", "is_disabled": 0, "lat": 38.914314166666664, "rental_uris": {"ios": "https://dc.lft.to/lastmile_qr_scan", "android": "https://dc.lft.to/lastmile_qr_scan"}, "is_reserved": 0, "fusion_lon": 0.0, "fusion_lat": 0.0, "lon": -77.06921183333333, "name": "79d3ebcbf9ca7c7f215eec2ec3806058"}, {"bike_id": "0b83dd962875791aef3ad1cb4cd85cb0", "type": "electric_scooter", "is_disabled": 0, "lat": 38.89818783333333, "rental_uris": {"ios": "https://dc.lft.to/lastmile_qr_scan", "android": "https://dc.lft.to/lastmile_qr_scan"}, "is_reserved": 0, "fusion_lon": 0.0, "fusion_lat": 0.0, "lon": -77.02178133333334, "name": "0b83dd962875791aef3ad1cb4cd85cb0"}, {"bike_id": "cf9d6ada83288c681f17ab27045d9729", "type": "electric_scooter", "is_disabled": 0, "lat": 38.90477716666667, "rental_uris": {"ios": "https://dc.lft.to/lastmile_qr_scan", "android": "https://dc.lft.to/lastmile_qr_scan"}, "is_reserved": 0, "fusion_lon": 0.0, "fusion_lat": 0.0, "lon": -77.04056833333334, "name": "cf9d6ada83288c681f17ab27045d9729"}, {"bike_id": "69afc0b6bdfe8b9df8033312c376ae6a", "type": "electric_scooter", "is_disabled": 0, "lat": 38.9124745, "rental_uris": {"ios": "https://dc.lft.to/lastmile_qr_scan", "android": "https://dc.lft.to/lastmile_qr_scan"}, "is_reserved": 0, "fusion_lon": 0.0, "fusion_lat": 0.0, "lon": -77.01970583333333, "name": "69afc0b6bdfe8b9df8033312c376ae6a"}, {"bike_id": "ca6ce89e64217373c41a7cfc33b63b69", "type": "electric_scooter", "is_disabled": 0, "lat": 38.92907866666667, "rental_uris": {"ios": "https://dc.lft.to/lastmile_qr_scan", "android": "https://dc.lft.to/lastmile_qr_scan"}, "is_reserved": 0, "fusion_lon": 0.0, "fusion_lat": 0.0, "lon": -77.0327565, "name": "ca6ce89e64217373c41a7cfc33b63b69"}, {"bike_id": "acf304fc3dcfa79c885e514cbf4b94f7", "type": "electric_bike", "is_disabled": 0, "lat": 38.996866, "rental_uris": {"ios": "https://dc.lft.to/lastmile_qr_scan", "android": "https://dc.lft.to/lastmile_qr_scan"}, "is_reserved": 0, "fusion_lon": 0.0, "fusion_lat": 0.0, "lon": -77.03762583333334, "name": "acf304fc3dcfa79c885e514cbf4b94f7"}, {"bike_id": "9b0d6a77a27a3d5b7e07cd92403fa771", "type": "electric_bike", "is_disabled": 0, "lat": 38.934816833333336, "rental_uris": {"ios": "https://dc.lft.to/lastmile_qr_scan", "android": "https://dc.lft.to/lastmile_qr_scan"}, "is_reserved": 0, "fusion_lon": 0.0, "fusion_lat": 0.0, "lon": -77.05792216666667, "name": "9b0d6a77a27a3d5b7e07cd92403fa771"}, {"bike_id": "33a9cf78124629299093e94171c0805c", "type": "electric_scooter", "is_disabled": 0, "lat": 38.90762466666666, "rental_uris": {"ios": "https://dc.lft.to/lastmile_qr_scan", "android": "https://dc.lft.to/lastmile_qr_scan"}, "is_reserved": 0, "fusion_lon": 0.0, "fusion_lat": 0.0, "lon": -77.0278965, "name": "33a9cf78124629299093e94171c0805c"}, {"bike_id": "2ae2f0486b5e4bf78eaf98abf89ecd2a", "type": "electric_scooter", "is_disabled": 0, "lat": 38.9284015, "rental_uris": {"ios": "https://dc.lft.to/lastmile_qr_scan", "android": "https://dc.lft.to/lastmile_qr_scan"}, "is_reserved": 0, "fusion_lon": 0.0, "fusion_lat": 0.0, "lon": -77.02748733333334, "name": "2ae2f0486b5e4bf78eaf98abf89ecd2a"}, {"bike_id": "0fc2b4d32ee161c21a2c9a8db08bbc0c", "type": "electric_bike", "is_disabled": 0, "lat": 38.896142833333336, "rental_uris": {"ios": "https://dc.lft.to/lastmile_qr_scan", "android": "https://dc.lft.to/lastmile_qr_scan"}, "is_reserved": 0, "fusion_lon": 0.0, "fusion_lat": 0.0, "lon": -76.90733716666666, "name": "0fc2b4d32ee161c21a2c9a8db08bbc0c"}, {"bike_id": "026ddc85db5c4efff8737c8fcd2e479a", "type": "electric_scooter", "is_disabled": 0, "lat": 38.9027165, "rental_uris": {"ios": "https://dc.lft.to/lastmile_qr_scan", "android": "https://dc.lft.to/lastmile_qr_scan"}, "is_reserved": 0, "fusion_lon": 0.0, "fusion_lat": 0.0, "lon": -77.003478, "name": "026ddc85db5c4efff8737c8fcd2e479a"}, {"bike_id": "47524371458eb93aed5a3f4b99a0023d", "type": "electric_scooter", "is_disabled": 0, "lat": 38.909516833333335, "rental_uris": {"ios": "https://dc.lft.to/lastmile_qr_scan", "android": "https://dc.lft.to/lastmile_qr_scan"}, "is_reserved": 0, "fusion_lon": 0.0, "fusion_lat": 0.0, "lon": -77.044823, "name": "47524371458eb93aed5a3f4b99a0023d"}, {"bike_id": "c78d5642f1ac2f07b32d8dac59237556", "type": "electric_bike", "is_disabled": 0, "lat": 38.873009833333334, "rental_uris": {"ios": "https://dc.lft.to/lastmile_qr_scan", "android": "https://dc.lft.to/lastmile_qr_scan"}, "is_reserved": 0, "fusion_lon": 0.0, "fusion_lat": 0.0, "lon": -76.96977266666667, "name": "c78d5642f1ac2f07b32d8dac59237556"}, {"bike_id": "935d29db2487ba715c39e93c1d70f69d", "type": "electric_scooter", "is_disabled": 0, "lat": 38.9199005, "rental_uris": {"ios": "https://dc.lft.to/lastmile_qr_scan", "android": "https://dc.lft.to/lastmile_qr_scan"}, "is_reserved": 0, "fusion_lon": 0.0, "fusion_lat": 0.0, "lon": -76.97303016666666, "name": "935d29db2487ba715c39e93c1d70f69d"}, {"bike_id": "d9b3d28cc909ae2faaa0ebe672cb18d2", "type": "electric_scooter", "is_disabled": 0, "lat": 38.904157166666664, "rental_uris": {"ios": "https://dc.lft.to/lastmile_qr_scan", "android": "https://dc.lft.to/lastmile_qr_scan"}, "is_reserved": 0, "fusion_lon": 0.0, "fusion_lat": 0.0, "lon": -76.97331833333334, "name": "d9b3d28cc909ae2faaa0ebe672cb18d2"}, {"bike_id": "5638073117a69ab2e5be5d5a4635b4d1", "type": "electric_scooter", "is_disabled": 0, "lat": 38.9473665, "rental_uris": {"ios": "https://dc.lft.to/lastmile_qr_scan", "android": "https://dc.lft.to/lastmile_qr_scan"}, "is_reserved": 0, "fusion_lon": 0.0, "fusion_lat": 0.0, "lon": -77.07857, "name": "5638073117a69ab2e5be5d5a4635b4d1"}, {"bike_id": "fb7bdfa1180cda0cbeaf10dbd7115d42", "type": "electric_scooter", "is_disabled": 0, "lat": 38.916948, "rental_uris": {"ios": "https://dc.lft.to/lastmile_qr_scan", "android": "https://dc.lft.to/lastmile_qr_scan"}, "is_reserved": 0, "fusion_lon": 0.0, "fusion_lat": 0.0, "lon": -77.02277966666666, "name": "fb7bdfa1180cda0cbeaf10dbd7115d42"}, {"bike_id": "47b2d0c71ef2ea9c54bf68d73c43d739", "type": "electric_scooter", "is_disabled": 0, "lat": 38.90811, "rental_uris": {"ios": "https://dc.lft.to/lastmile_qr_scan", "android": "https://dc.lft.to/lastmile_qr_scan"}, "is_reserved": 0, "fusion_lon": 0.0, "fusion_lat": 0.0, "lon": -77.02033933333334, "name": "47b2d0c71ef2ea9c54bf68d73c43d739"}, {"bike_id": "17032378cb1136a80a4988d367438fe9", "type": "electric_scooter", "is_disabled": 0, "lat": 38.90734283333333, "rental_uris": {"ios": "https://dc.lft.to/lastmile_qr_scan", "android": "https://dc.lft.to/lastmile_qr_scan"}, "is_reserved": 0, "fusion_lon": 0.0, "fusion_lat": 0.0, "lon": -77.03442183333334, "name": "17032378cb1136a80a4988d367438fe9"}, {"bike_id": "331a7374af29452a551c7129b9df2db1", "type": "electric_scooter", "is_disabled": 0, "lat": 38.93733533333333, "rental_uris": {"ios": "https://dc.lft.to/lastmile_qr_scan", "android": "https://dc.lft.to/lastmile_qr_scan"}, "is_reserved": 0, "fusion_lon": 0.0, "fusion_lat": 0.0, "lon": -77.0596265, "name": "331a7374af29452a551c7129b9df2db1"}, {"bike_id": "c53a1af88bc0c2a080831f4de2346dfb", "type": "electric_scooter", "is_disabled": 0, "lat": 38.887034, "rental_uris": {"ios": "https://dc.lft.to/lastmile_qr_scan", "android": "https://dc.lft.to/lastmile_qr_scan"}, "is_reserved": 0, "fusion_lon": 0.0, "fusion_lat": 0.0, "lon": -77.01367916666666, "name": "c53a1af88bc0c2a080831f4de2346dfb"}, {"bike_id": "f9037f22e479811bd8add4a9fe61818e", "type": "electric_scooter", "is_disabled": 0, "lat": 38.93284583333333, "rental_uris": {"ios": "https://dc.lft.to/lastmile_qr_scan", "android": "https://dc.lft.to/lastmile_qr_scan"}, "is_reserved": 0, "fusion_lon": 0.0, "fusion_lat": 0.0, "lon": -77.04038216666666, "name": "f9037f22e479811bd8add4a9fe61818e"}, {"bike_id": "c18528770a2d4c0e5e9abfe6536afb1a", "type": "electric_scooter", "is_disabled": 0, "lat": 38.874003333333334, "rental_uris": {"ios": "https://dc.lft.to/lastmile_qr_scan", "android": "https://dc.lft.to/lastmile_qr_scan"}, "is_reserved": 0, "fusion_lon": 0.0, "fusion_lat": 0.0, "lon": -77.00208216666667, "name": "c18528770a2d4c0e5e9abfe6536afb1a"}, {"bike_id": "fc0df9b0dd559551f1b7c30f6b4f20f6", "type": "electric_scooter", "is_disabled": 0, "lat": 38.922583, "rental_uris": {"ios": "https://dc.lft.to/lastmile_qr_scan", "android": "https://dc.lft.to/lastmile_qr_scan"}, "is_reserved": 0, "fusion_lon": 0.0, "fusion_lat": 0.0, "lon": -77.01951866666667, "name": "fc0df9b0dd559551f1b7c30f6b4f20f6"}, {"bike_id": "596215a6daae46d7bbdebf06162dd4f7", "type": "electric_scooter", "is_disabled": 0, "lat": 38.862572666666665, "rental_uris": {"ios": "https://dc.lft.to/lastmile_qr_scan", "android": "https://dc.lft.to/lastmile_qr_scan"}, "is_reserved": 0, "fusion_lon": 0.0, "fusion_lat": 0.0, "lon": -76.99267083333334, "name": "596215a6daae46d7bbdebf06162dd4f7"}, {"bike_id": "5fcea51cb78faefde153f7e92f9e9bac", "type": "electric_scooter", "is_disabled": 0, "lat": 38.906861166666665, "rental_uris": {"ios": "https://dc.lft.to/lastmile_qr_scan", "android": "https://dc.lft.to/lastmile_qr_scan"}, "is_reserved": 0, "fusion_lon": 0.0, "fusion_lat": 0.0, "lon": -77.0533115, "name": "5fcea51cb78faefde153f7e92f9e9bac"}, {"bike_id": "4962519d072d22f41b8fb040394b3fa5", "type": "electric_scooter", "is_disabled": 0, "lat": 38.86379183333333, "rental_uris": {"ios": "https://dc.lft.to/lastmile_qr_scan", "android": "https://dc.lft.to/lastmile_qr_scan"}, "is_reserved": 0, "fusion_lon": 0.0, "fusion_lat": 0.0, "lon": -76.9906025, "name": "4962519d072d22f41b8fb040394b3fa5"}, {"bike_id": "5d540c3e24ba606835e150c3d8b38864", "type": "electric_scooter", "is_disabled": 0, "lat": 38.9073335, "rental_uris": {"ios": "https://dc.lft.to/lastmile_qr_scan", "android": "https://dc.lft.to/lastmile_qr_scan"}, "is_reserved": 0, "fusion_lon": 0.0, "fusion_lat": 0.0, "lon": -77.00565916666666, "name": "5d540c3e24ba606835e150c3d8b38864"}, {"bike_id": "7497c766d34a392c9343f5f02ab978b5", "type": "electric_scooter", "is_disabled": 0, "lat": 38.91257816666667, "rental_uris": {"ios": "https://dc.lft.to/lastmile_qr_scan", "android": "https://dc.lft.to/lastmile_qr_scan"}, "is_reserved": 0, "fusion_lon": 0.0, "fusion_lat": 0.0, "lon": -77.0386505, "name": "7497c766d34a392c9343f5f02ab978b5"}, {"bike_id": "860d4905f82c0d0b91db817e3d8f74d8", "type": "electric_bike", "is_disabled": 0, "lat": 38.9082875, "rental_uris": {"ios": "https://dc.lft.to/lastmile_qr_scan", "android": "https://dc.lft.to/lastmile_qr_scan"}, "is_reserved": 0, "fusion_lon": 0.0, "fusion_lat": 0.0, "lon": -76.94159383333333, "name": "860d4905f82c0d0b91db817e3d8f74d8"}, {"bike_id": "a74d874d67d00c55b5a567233d4cf043", "type": "electric_scooter", "is_disabled": 0, "lat": 38.892447833333335, "rental_uris": {"ios": "https://dc.lft.to/lastmile_qr_scan", "android": "https://dc.lft.to/lastmile_qr_scan"}, "is_reserved": 0, "fusion_lon": 0.0, "fusion_lat": 0.0, "lon": -77.03955216666667, "name": "a74d874d67d00c55b5a567233d4cf043"}, {"bike_id": "33bed28184e03f340098a136d903cd19", "type": "electric_scooter", "is_disabled": 0, "lat": 38.912128333333335, "rental_uris": {"ios": "https://dc.lft.to/lastmile_qr_scan", "android": "https://dc.lft.to/lastmile_qr_scan"}, "is_reserved": 0, "fusion_lon": 0.0, "fusion_lat": 0.0, "lon": -77.04467166666667, "name": "33bed28184e03f340098a136d903cd19"}, {"bike_id": "266e11071ecb0f687dd809d28b72a361", "type": "electric_scooter", "is_disabled": 0, "lat": 38.90559566666667, "rental_uris": {"ios": "https://dc.lft.to/lastmile_qr_scan", "android": "https://dc.lft.to/lastmile_qr_scan"}, "is_reserved": 0, "fusion_lon": 0.0, "fusion_lat": 0.0, "lon": -77.0057355, "name": "266e11071ecb0f687dd809d28b72a361"}, {"bike_id": "3ab801f28b34037a68b8fbd0d880c679", "type": "electric_scooter", "is_disabled": 0, "lat": 38.92359366666667, "rental_uris": {"ios": "https://dc.lft.to/lastmile_qr_scan", "android": "https://dc.lft.to/lastmile_qr_scan"}, "is_reserved": 0, "fusion_lon": 0.0, "fusion_lat": 0.0, "lon": -77.0353515, "name": "3ab801f28b34037a68b8fbd0d880c679"}, {"bike_id": "12e28e6f32293578b24d85b7ac68558a", "type": "electric_scooter", "is_disabled": 0, "lat": 38.91783266666667, "rental_uris": {"ios": "https://dc.lft.to/lastmile_qr_scan", "android": "https://dc.lft.to/lastmile_qr_scan"}, "is_reserved": 0, "fusion_lon": 0.0, "fusion_lat": 0.0, "lon": -77.03646866666666, "name": "12e28e6f32293578b24d85b7ac68558a"}, {"bike_id": "b57831f2f94639822bbedbfe02bb8bf6", "type": "electric_scooter", "is_disabled": 0, "lat": 38.949040333333336, "rental_uris": {"ios": "https://dc.lft.to/lastmile_qr_scan", "android": "https://dc.lft.to/lastmile_qr_scan"}, "is_reserved": 0, "fusion_lon": 0.0, "fusion_lat": 0.0, "lon": -77.02071416666666, "name": "b57831f2f94639822bbedbfe02bb8bf6"}, {"bike_id": "995476cad0c5d49aa6ff9d892290cfc0", "type": "electric_scooter", "is_disabled": 0, "lat": 38.8443495, "rental_uris": {"ios": "https://dc.lft.to/lastmile_qr_scan", "android": "https://dc.lft.to/lastmile_qr_scan"}, "is_reserved": 0, "fusion_lon": 0.0, "fusion_lat": 0.0, "lon": -76.99867866666666, "name": "995476cad0c5d49aa6ff9d892290cfc0"}, {"bike_id": "311f673b36a631ef028335ee05fa85e9", "type": "electric_scooter", "is_disabled": 0, "lat": 38.910302333333334, "rental_uris": {"ios": "https://dc.lft.to/lastmile_qr_scan", "android": "https://dc.lft.to/lastmile_qr_scan"}, "is_reserved": 0, "fusion_lon": 0.0, "fusion_lat": 0.0, "lon": -77.03195483333333, "name": "311f673b36a631ef028335ee05fa85e9"}, {"bike_id": "afb023bfca09df6afc7f87a55c30c60f", "type": "electric_scooter", "is_disabled": 0, "lat": 38.91263933333333, "rental_uris": {"ios": "https://dc.lft.to/lastmile_qr_scan", "android": "https://dc.lft.to/lastmile_qr_scan"}, "is_reserved": 0, "fusion_lon": 0.0, "fusion_lat": 0.0, "lon": -77.03024133333334, "name": "afb023bfca09df6afc7f87a55c30c60f"}, {"bike_id": "c11daa05cd551d4738eac6b8b86c2d34", "type": "electric_scooter", "is_disabled": 0, "lat": 38.91555733333333, "rental_uris": {"ios": "https://dc.lft.to/lastmile_qr_scan", "android": "https://dc.lft.to/lastmile_qr_scan"}, "is_reserved": 0, "fusion_lon": 0.0, "fusion_lat": 0.0, "lon": -77.02642766666666, "name": "c11daa05cd551d4738eac6b8b86c2d34"}, {"bike_id": "6696162b705467f05b04214b5fc85ffe", "type": "electric_scooter", "is_disabled": 0, "lat": 38.899876, "rental_uris": {"ios": "https://dc.lft.to/lastmile_qr_scan", "android": "https://dc.lft.to/lastmile_qr_scan"}, "is_reserved": 0, "fusion_lon": 0.0, "fusion_lat": 0.0, "lon": -76.94998566666666, "name": "6696162b705467f05b04214b5fc85ffe"}, {"bike_id": "3bd7821d371cc071271775edfa02b318", "type": "electric_scooter", "is_disabled": 0, "lat": 38.906715166666665, "rental_uris": {"ios": "https://dc.lft.to/lastmile_qr_scan", "android": "https://dc.lft.to/lastmile_qr_scan"}, "is_reserved": 0, "fusion_lon": 0.0, "fusion_lat": 0.0, "lon": -77.061207, "name": "3bd7821d371cc071271775edfa02b318"}, {"bike_id": "c6f38bd5ba2faa1de8407c47e2400d74", "type": "electric_scooter", "is_disabled": 0, "lat": 38.9205305, "rental_uris": {"ios": "https://dc.lft.to/lastmile_qr_scan", "android": "https://dc.lft.to/lastmile_qr_scan"}, "is_reserved": 0, "fusion_lon": 0.0, "fusion_lat": 0.0, "lon": -77.024292, "name": "c6f38bd5ba2faa1de8407c47e2400d74"}, {"bike_id": "15432304931d323db487c66ffae63c81", "type": "electric_bike", "is_disabled": 0, "lat": 38.86335583333333, "rental_uris": {"ios": "https://dc.lft.to/lastmile_qr_scan", "android": "https://dc.lft.to/lastmile_qr_scan"}, "is_reserved": 0, "fusion_lon": 0.0, "fusion_lat": 0.0, "lon": -76.987264, "name": "15432304931d323db487c66ffae63c81"}, {"bike_id": "33c0fc6050260aca5b84f8c8353d35f4", "type": "electric_scooter", "is_disabled": 0, "lat": 38.92180116666667, "rental_uris": {"ios": "https://dc.lft.to/lastmile_qr_scan", "android": "https://dc.lft.to/lastmile_qr_scan"}, "is_reserved": 0, "fusion_lon": 0.0, "fusion_lat": 0.0, "lon": -76.997964, "name": "33c0fc6050260aca5b84f8c8353d35f4"}, {"bike_id": "4b31e58e9992f086ca7d9466bc2be2f6", "type": "electric_bike", "is_disabled": 0, "lat": 38.863763, "rental_uris": {"ios": "https://dc.lft.to/lastmile_qr_scan", "android": "https://dc.lft.to/lastmile_qr_scan"}, "is_reserved": 0, "fusion_lon": 0.0, "fusion_lat": 0.0, "lon": -76.97007533333333, "name": "4b31e58e9992f086ca7d9466bc2be2f6"}, {"bike_id": "abbec70be32e172157d88aad002c216b", "type": "electric_scooter", "is_disabled": 0, "lat": 38.909647, "rental_uris": {"ios": "https://dc.lft.to/lastmile_qr_scan", "android": "https://dc.lft.to/lastmile_qr_scan"}, "is_reserved": 0, "fusion_lon": 0.0, "fusion_lat": 0.0, "lon": -77.014248, "name": "abbec70be32e172157d88aad002c216b"}, {"bike_id": "fc56d1affe61377e607477889ed352b7", "type": "electric_scooter", "is_disabled": 0, "lat": 38.859002, "rental_uris": {"ios": "https://dc.lft.to/lastmile_qr_scan", "android": "https://dc.lft.to/lastmile_qr_scan"}, "is_reserved": 0, "fusion_lon": 0.0, "fusion_lat": 0.0, "lon": -76.99723833333333, "name": "fc56d1affe61377e607477889ed352b7"}, {"bike_id": "67a80c365bb9fe1bfaa9368ed7f5f72a", "type": "electric_scooter", "is_disabled": 0, "lat": 38.8781815, "rental_uris": {"ios": "https://dc.lft.to/lastmile_qr_scan", "android": "https://dc.lft.to/lastmile_qr_scan"}, "is_reserved": 0, "fusion_lon": 0.0, "fusion_lat": 0.0, "lon": -76.97173966666666, "name": "67a80c365bb9fe1bfaa9368ed7f5f72a"}, {"bike_id": "311cf50a4d9e4b257e4fdd5f20fdf694", "type": "electric_scooter", "is_disabled": 0, "lat": 38.88152483333333, "rental_uris": {"ios": "https://dc.lft.to/lastmile_qr_scan", "android": "https://dc.lft.to/lastmile_qr_scan"}, "is_reserved": 0, "fusion_lon": 0.0, "fusion_lat": 0.0, "lon": -77.02743583333333, "name": "311cf50a4d9e4b257e4fdd5f20fdf694"}, {"bike_id": "1195624efc4ddaad92d450015ee17e96", "type": "electric_scooter", "is_disabled": 0, "lat": 38.93772533333333, "rental_uris": {"ios": "https://dc.lft.to/lastmile_qr_scan", "android": "https://dc.lft.to/lastmile_qr_scan"}, "is_reserved": 0, "fusion_lon": 0.0, "fusion_lat": 0.0, "lon": -77.01968833333333, "name": "1195624efc4ddaad92d450015ee17e96"}, {"bike_id": "f1e2ab7947fe0e64da72d623aa184969", "type": "electric_scooter", "is_disabled": 0, "lat": 38.90156183333333, "rental_uris": {"ios": "https://dc.lft.to/lastmile_qr_scan", "android": "https://dc.lft.to/lastmile_qr_scan"},