{"data": {"bikes": [{"fusion_lon": 0.0, "name": "e231954debf6d37172f423d314d3c5cb", "rental_uris": {"android": "https://dc.lft.to/lastmile_qr_scan", "ios": "https://dc.lft.to/lastmile_qr_scan"}, "lat": 38.92341966666667, "bike_id": "e231954debf6d37172f423d314d3c5cb", "is_disabled": 0, "lon": -77.0485145, "is_reserved": 0, "fusion_lat": 0.0, "type": "electric_scooter"}, {"fusion_lon": 0.0, "name": "a55d38120fc835b914e6bf074ae4e6a1", "rental_uris": {"android": "https://dc.lft.to/lastmile_qr_scan", "ios": "https://dc.lft.to/lastmile_qr_scan"}, "lat": 38.930721, "bike_id": "a55d38120fc835b914e6bf074ae4e6a1", "is_disabled": 0, "lon": -77.0277165, "is_reserved": 0, "fusion_lat": 0.0, "type": "electric_scooter"}, {"fusion_lon": 0.0, "name": "2b67908f54d8849c3932029edf9d8fd7", "rental_uris": {"android": "https://dc.lft.to/lastmile_qr_scan", "ios": "https://dc.lft.to/lastmile_qr_scan"}, "lat": 38.9038385, "bike_id": "2b67908f54d8849c3932029edf9d8fd7", "is_disabled": 0, "lon": -77.0376365, "is_reserved": 0, "fusion_lat": 0.0, "type": "electric_scooter"}, {"fusion_lon": 0.0, "name": "256563480329e7834b45f69eef4db02e", "rental_uris": {"android": "https://dc.lft.to/lastmile_qr_scan", "ios": "https://dc.lft.to/lastmile_qr_scan"}, "lat": 38.943196666666665, "bike_id": "256563480329e7834b45f69eef4db02e", "is_disabled": 0, "lon": -77.02977766666666, "is_reserved": 0, "fusion_lat": 0.0, "type": "electric_bike"}, {"fusion_lon": 0.0, "name": "8a66572918ad1c0eb9be61d9fa79a1b7", "rental_uris": {"android": "https://dc.lft.to/lastmile_qr_scan", "ios": "https://dc.lft.to/lastmile_qr_scan"}, "lat": 38.9068065, "bike_id": "8a66572918ad1c0eb9be61d9fa79a1b7", "is_disabled": 0, "lon": -77.02693366666666, "is_reserved": 0, "fusion_lat": 0.0, "type": "electric_scooter"}, {"fusion_lon": 0.0, "name": "b89155759e99107c11489386cab34d82", "rental_uris": {"android": "https://dc.lft.to/lastmile_qr_scan", "ios": "https://dc.lft.to/lastmile_qr_scan"}, "lat": 38.920804333333336, "bike_id": "b89155759e99107c11489386cab34d82", "is_disabled": 0, "lon": -77.03563283333334, "is_reserved": 0, "fusion_lat": 0.0, "type": "electric_scooter"}, {"fusion_lon": 0.0, "name": "4d8aa5be8356d451de1adeb8c1221cbf", "rental_uris": {"android": "https://dc.lft.to/lastmile_qr_scan", "ios": "https://dc.lft.to/lastmile_qr_scan"}, "lat": 38.882325333333334, "bike_id": "4d8aa5be8356d451de1adeb8c1221cbf", "is_disabled": 0, "lon": -76.99089033333334, "is_reserved": 0, "fusion_lat": 0.0, "type": "electric_scooter"}, {"fusion_lon": 0.0, "name": "ba095dae20e4cae8c4ead828dd055a72", "rental_uris": {"android": "https://dc.lft.to/lastmile_qr_scan", "ios": "https://dc.lft.to/lastmile_qr_scan"}, "lat": 38.913268, "bike_id": "ba095dae20e4cae8c4ead828dd055a72", "is_disabled": 0, "lon": -77.04539533333333, "is_reserved": 0, "fusion_lat": 0.0, "type": "electric_scooter"}, {"fusion_lon": 0.0, "name": "27a88ab7cd7192ad1674b502e6862fa7", "rental_uris": {"android": "https://dc.lft.to/lastmile_qr_scan", "ios": "https://dc.lft.to/lastmile_qr_scan"}, "lat": 38.93046016666667, "bike_id": "27a88ab7cd7192ad1674b502e6862fa7", "is_disabled": 0, "lon": -76.95837016666667, "is_reserved": 0, "fusion_lat": 0.0, "type": "electric_scooter"}, {"fusion_lon": 0.0, "name": "c9c0524cde8437383ff47ba89ecdcb08", "rental_uris": {"android": "https://dc.lft.to/lastmile_qr_scan", "ios": "https://dc.lft.to/lastmile_qr_scan"}, "lat": 38.846772, "bike_id": "c9c0524cde8437383ff47ba89ecdcb08", "is_disabled": 0, "lon": -77.13922433333333, "is_reserved": 0, "fusion_lat": 0.0, "type": "electric_bike"}, {"fusion_lon": 0.0, "name": "c06c232a4018bdaa259e9652fafbc6bd", "rental_uris": {"android": "https://dc.lft.to/lastmile_qr_scan", "ios": "https://dc.lft.to/lastmile_qr_scan"}, "lat": 38.91686983333334, "bike_id": "c06c232a4018bdaa259e9652fafbc6bd", "is_disabled": 0, "lon": -77.03189733333333, "is_reserved": 0, "fusion_lat": 0.0, "type": "electric_scooter"}, {"fusion_lon": 0.0, "name": "746a8d9dd572e9e995f5b8827694f95e", "rental_uris": {"android": "https://dc.lft.to/lastmile_qr_scan", "ios": "https://dc.lft.to/lastmile_qr_scan"}, "lat": 38.904092, "bike_id": "746a8d9dd572e9e995f5b8827694f95e", "is_disabled": 0, "lon": -76.97330266666667, "is_reserved": 0, "fusion_lat": 0.0, "type": "electric_scooter"}, {"fusion_lon": 0.0, "name": "2e1d32a50cd910459cca7562e06ececd", "rental_uris": {"android": "https://dc.lft.to/lastmile_qr_scan", "ios": "https://dc.lft.to/lastmile_qr_scan"}, "lat": 38.917491, "bike_id": "2e1d32a50cd910459cca7562e06ececd", "is_disabled": 0, "lon": -77.02103966666667, "is_reserved": 0, "fusion_lat": 0.0, "type": "electric_scooter"}, {"fusion_lon": 0.0, "name": "bfe3cbe7c21c2ba38854c2f872ade099", "rental_uris": {"android": "https://dc.lft.to/lastmile_qr_scan", "ios": "https://dc.lft.to/lastmile_qr_scan"}, "lat": 38.926093333333334, "bike_id": "bfe3cbe7c21c2ba38854c2f872ade099", "is_disabled": 0, "lon": -77.02158616666667, "is_reserved": 0, "fusion_lat": 0.0, "type": "electric_scooter"}, {"fusion_lon": 0.0, "name": "8d5a58e69f6f6de9a9e383f30459073c", "rental_uris": {"android": "https://dc.lft.to/lastmile_qr_scan", "ios": "https://dc.lft.to/lastmile_qr_scan"}, "lat": 38.9436195, "bike_id": "8d5a58e69f6f6de9a9e383f30459073c", "is_disabled": 0, "lon": -77.061119, "is_reserved": 0, "fusion_lat": 0.0, "type": "electric_scooter"}, {"fusion_lon": 0.0, "name": "53fba75934729f003fde7cdee2fc7ebc", "rental_uris": {"android": "https://dc.lft.to/lastmile_qr_scan", "ios": "https://dc.lft.to/lastmile_qr_scan"}, "lat": 38.92265666666667, "bike_id": "53fba75934729f003fde7cdee2fc7ebc", "is_disabled": 0, "lon": -77.03392133333334, "is_reserved": 0, "fusion_lat": 0.0, "type": "electric_scooter"}, {"fusion_lon": 0.0, "name": "71f2cfc0eb3d8dcf235e98e3d5f404ee", "rental_uris": {"android": "https://dc.lft.to/lastmile_qr_scan", "ios": "https://dc.lft.to/lastmile_qr_scan"}, "lat": 38.925937, "bike_id": "71f2cfc0eb3d8dcf235e98e3d5f404ee", "is_disabled": 0, "lon": -77.036657, "is_reserved": 0, "fusion_lat": 0.0, "type": "electric_scooter"}, {"fusion_lon": 0.0, "name": "099451c26f483e4daff2581744276fd4", "rental_uris": {"android": "https://dc.lft.to/lastmile_qr_scan", "ios": "https://dc.lft.to/lastmile_qr_scan"}, "lat": 38.87684733333333, "bike_id": "099451c26f483e4daff2581744276fd4", "is_disabled": 0, "lon": -77.0007215, "is_reserved": 0, "fusion_lat": 0.0, "type": "electric_scooter"}, {"fusion_lon": 0.0, "name": "924ebb00ea360e6c59d34367972d230e", "rental_uris": {"android": "https://dc.lft.to/lastmile_qr_scan", "ios": "https://dc.lft.to/lastmile_qr_scan"}, "lat": 38.9216895, "bike_id": "924ebb00ea360e6c59d34367972d230e", "is_disabled": 0, "lon": -77.0266575, "is_reserved": 0, "fusion_lat": 0.0, "type": "electric_scooter"}, {"fusion_lon": 0.0, "name": "97d99e9d2d0942b5ebb986ec1125ce2b", "rental_uris": {"android": "https://dc.lft.to/lastmile_qr_scan", "ios": "https://dc.lft.to/lastmile_qr_scan"}, "lat": 38.920569, "bike_id": "97d99e9d2d0942b5ebb986ec1125ce2b", "is_disabled": 0, "lon": -76.99113833333334, "is_reserved": 0, "fusion_lat": 0.0, "type": "electric_bike"}, {"fusion_lon": 0.0, "name": "0124a7304b2def3556791c4a482927d7", "rental_uris": {"android": "https://dc.lft.to/lastmile_qr_scan", "ios": "https://dc.lft.to/lastmile_qr_scan"}, "lat": 38.926007166666665, "bike_id": "0124a7304b2def3556791c4a482927d7", "is_disabled": 0, "lon": -77.02156133333334, "is_reserved": 0, "fusion_lat": 0.0, "type": "electric_scooter"}, {"fusion_lon": 0.0, "name": "dc740c34e3b911f7ae6c766d76844bcb", "rental_uris": {"android": "https://dc.lft.to/lastmile_qr_scan", "ios": "https://dc.lft.to/lastmile_qr_scan"}, "lat": 38.92092666666667, "bike_id": "dc740c34e3b911f7ae6c766d76844bcb", "is_disabled": 0, "lon": -77.0231955, "is_reserved": 0, "fusion_lat": 0.0, "type": "electric_scooter"}, {"fusion_lon": 0.0, "name": "dd482e6f82cafb32ff3dd02f561248e9", "rental_uris": {"android": "https://dc.lft.to/lastmile_qr_scan", "ios": "https://dc.lft.to/lastmile_qr_scan"}, "lat": 38.92001583333333, "bike_id": "dd482e6f82cafb32ff3dd02f561248e9", "is_disabled": 0, "lon": -77.0377845, "is_reserved": 0, "fusion_lat": 0.0, "type": "electric_scooter"}, {"fusion_lon": 0.0, "name": "e0bb6065306b92f203b6dff45aa212a5", "rental_uris": {"android": "https://dc.lft.to/lastmile_qr_scan", "ios": "https://dc.lft.to/lastmile_qr_scan"}, "lat": 38.9575555, "bike_id": "e0bb6065306b92f203b6dff45aa212a5", "is_disabled": 0, "lon": -77.0091035, "is_reserved": 0, "fusion_lat": 0.0, "type": "electric_scooter"}, {"fusion_lon": 0.0, "name": "9d463ab85c3f40d320da645d3eabb023", "rental_uris": {"android": "https://dc.lft.to/lastmile_qr_scan", "ios": "https://dc.lft.to/lastmile_qr_scan"}, "lat": 38.954197666666666, "bike_id": "9d463ab85c3f40d320da645d3eabb023", "is_disabled": 0, "lon": -77.0073045, "is_reserved": 0, "fusion_lat": 0.0, "type": "electric_scooter"}, {"fusion_lon": 0.0, "name": "7a9f3ba1bedccc3f0886d38c97a84a1b", "rental_uris": {"android": "https://dc.lft.to/lastmile_qr_scan", "ios": "https://dc.lft.to/lastmile_qr_scan"}, "lat": 38.896119, "bike_id": "7a9f3ba1bedccc3f0886d38c97a84a1b", "is_disabled": 0, "lon": -77.0237335, "is_reserved": 0, "fusion_lat": 0.0, "type": "electric_scooter"}, {"fusion_lon": 0.0, "name": "35600f98127609df4cda47938e5adaeb", "rental_uris": {"android": "https://dc.lft.to/lastmile_qr_scan", "ios": "https://dc.lft.to/lastmile_qr_scan"}, "lat": 38.89231866666667, "bike_id": "35600f98127609df4cda47938e5adaeb", "is_disabled": 0, "lon": -77.023844, "is_reserved": 0, "fusion_lat": 0.0, "type": "electric_scooter"}, {"fusion_lon": 0.0, "name": "7d081385c0c71bf907edf4354bcc4026", "rental_uris": {"android": "https://dc.lft.to/lastmile_qr_scan", "ios": "https://dc.lft.to/lastmile_qr_scan"}, "lat": 38.90049883333333, "bike_id": "7d081385c0c71bf907edf4354bcc4026", "is_disabled": 0, "lon": -77.00200716666667, "is_reserved": 0, "fusion_lat": 0.0, "type": "electric_scooter"}, {"fusion_lon": 0.0, "name": "f705345166c8646c0c7b0d22ce9046d8", "rental_uris": {"android": "https://dc.lft.to/lastmile_qr_scan", "ios": "https://dc.lft.to/lastmile_qr_scan"}, "lat": 38.894216166666666, "bike_id": "f705345166c8646c0c7b0d22ce9046d8", "is_disabled": 0, "lon": -76.9976795, "is_reserved": 0, "fusion_lat": 0.0, "type": "electric_scooter"}, {"fusion_lon": 0.0, "name": "fa799336891b3b412d9f18f67bba76cd", "rental_uris": {"android": "https://dc.lft.to/lastmile_qr_scan", "ios": "https://dc.lft.to/lastmile_qr_scan"}, "lat": 38.9063355, "bike_id": "fa799336891b3b412d9f18f67bba76cd", "is_disabled": 0, "lon": -77.051277, "is_reserved": 0, "fusion_lat": 0.0, "type": "electric_scooter"}, {"fusion_lon": 0.0, "name": "06a78b9c14ad2871ad3b5f59e3cb1962", "rental_uris": {"android": "https://dc.lft.to/lastmile_qr_scan", "ios": "https://dc.lft.to/lastmile_qr_scan"}, "lat": 38.80050966666667, "bike_id": "06a78b9c14ad2871ad3b5f59e3cb1962", "is_disabled": 0, "lon": -77.12835633333333, "is_reserved": 0, "fusion_lat": 0.0, "type": "electric_bike"}, {"fusion_lon": 0.0, "name": "4504471a426b4e317374719ab74f0ecb", "rental_uris": {"android": "https://dc.lft.to/lastmile_qr_scan", "ios": "https://dc.lft.to/lastmile_qr_scan"}, "lat": 38.89217383333333, "bike_id": "4504471a426b4e317374719ab74f0ecb", "is_disabled": 0, "lon": -77.04367216666667, "is_reserved": 0, "fusion_lat": 0.0, "type": "electric_scooter"}, {"fusion_lon": 0.0, "name": "a9f896e67749b397a7d40bcdbec519f1", "rental_uris": {"android": "https://dc.lft.to/lastmile_qr_scan", "ios": "https://dc.lft.to/lastmile_qr_scan"}, "lat": 38.9310995, "bike_id": "a9f896e67749b397a7d40bcdbec519f1", "is_disabled": 0, "lon": -77.03504833333334, "is_reserved": 0, "fusion_lat": 0.0, "type": "electric_scooter"}, {"fusion_lon": 0.0, "name": "e4b01f59fea83730b4cd1702bf5c2b1b", "rental_uris": {"android": "https://dc.lft.to/lastmile_qr_scan", "ios": "https://dc.lft.to/lastmile_qr_scan"}, "lat": 38.909989833333334, "bike_id": "e4b01f59fea83730b4cd1702bf5c2b1b", "is_disabled": 0, "lon": -77.04010666666667, "is_reserved": 0, "fusion_lat": 0.0, "type": "electric_scooter"}, {"fusion_lon": 0.0, "name": "af6fe504a6138c95b364b69ee835aed8", "rental_uris": {"android": "https://dc.lft.to/lastmile_qr_scan", "ios": "https://dc.lft.to/lastmile_qr_scan"}, "lat": 38.905196, "bike_id": "af6fe504a6138c95b364b69ee835aed8", "is_disabled": 0, "lon": -77.06432166666667, "is_reserved": 0, "fusion_lat": 0.0, "type": "electric_scooter"}, {"fusion_lon": 0.0, "name": "cf9ed8b74abdf9c01ba246ae1a629c37", "rental_uris": {"android": "https://dc.lft.to/lastmile_qr_scan", "ios": "https://dc.lft.to/lastmile_qr_scan"}, "lat": 38.8987655, "bike_id": "cf9ed8b74abdf9c01ba246ae1a629c37", "is_disabled": 0, "lon": -77.04572816666666, "is_reserved": 0, "fusion_lat": 0.0, "type": "electric_scooter"}, {"fusion_lon": 0.0, "name": "e5da6e03280cb8a75926d03706f6029e", "rental_uris": {"android": "https://dc.lft.to/lastmile_qr_scan", "ios": "https://dc.lft.to/lastmile_qr_scan"}, "lat": 38.8847725, "bike_id": "e5da6e03280cb8a75926d03706f6029e", "is_disabled": 0, "lon": -77.0263645, "is_reserved": 0, "fusion_lat": 0.0, "type": "electric_scooter"}, {"fusion_lon": 0.0, "name": "46466168a0b40dddd92854300f27aa0f", "rental_uris": {"android": "https://dc.lft.to/lastmile_qr_scan", "ios": "https://dc.lft.to/lastmile_qr_scan"}, "lat": 38.90402866666667, "bike_id": "46466168a0b40dddd92854300f27aa0f", "is_disabled": 0, "lon": -77.03831083333333, "is_reserved": 0, "fusion_lat": 0.0, "type": "electric_scooter"}, {"fusion_lon": 0.0, "name": "a054379f487a58099b707a6da59ab601", "rental_uris": {"android": "https://dc.lft.to/lastmile_qr_scan", "ios": "https://dc.lft.to/lastmile_qr_scan"}, "lat": 38.91989816666667, "bike_id": "a054379f487a58099b707a6da59ab601", "is_disabled": 0, "lon": -77.02182466666666, "is_reserved": 0, "fusion_lat": 0.0, "type": "electric_scooter"}, {"fusion_lon": 0.0, "name": "7926e04017a5896590385f6c38231c54", "rental_uris": {"android": "https://dc.lft.to/lastmile_qr_scan", "ios": "https://dc.lft.to/lastmile_qr_scan"}, "lat": 38.928722666666665, "bike_id": "7926e04017a5896590385f6c38231c54", "is_disabled": 0, "lon": -77.03339083333333, "is_reserved": 0, "fusion_lat": 0.0, "type": "electric_scooter"}, {"fusion_lon": 0.0, "name": "3b086d09a3d35453545b3533cdd404b7", "rental_uris": {"android": "https://dc.lft.to/lastmile_qr_scan", "ios": "https://dc.lft.to/lastmile_qr_scan"}, "lat": 38.901402, "bike_id": "3b086d09a3d35453545b3533cdd404b7", "is_disabled": 0, "lon": -77.04306416666667, "is_reserved": 0, "fusion_lat": 0.0, "type": "electric_scooter"}, {"fusion_lon": 0.0, "name": "a66cf37b406d13137f67d2e6e9dfca3a", "rental_uris": {"android": "https://dc.lft.to/lastmile_qr_scan", "ios": "https://dc.lft.to/lastmile_qr_scan"}, "lat": 38.9001085, "bike_id": "a66cf37b406d13137f67d2e6e9dfca3a", "is_disabled": 0, "lon": -77.046602, "is_reserved": 0, "fusion_lat": 0.0, "type": "electric_scooter"}, {"fusion_lon": 0.0, "name": "7160d7e1975ff417a6bdaff2f200e9f0", "rental_uris": {"android": "https://dc.lft.to/lastmile_qr_scan", "ios": "https://dc.lft.to/lastmile_qr_scan"}, "lat": 38.90062416666667, "bike_id": "7160d7e1975ff417a6bdaff2f200e9f0", "is_disabled": 0, "lon": -77.0462995, "is_reserved": 0, "fusion_lat": 0.0, "type": "electric_scooter"}, {"fusion_lon": 0.0, "name": "e4cc46d847e0b3a8b71069d1c591ec99", "rental_uris": {"android": "https://dc.lft.to/lastmile_qr_scan", "ios": "https://dc.lft.to/lastmile_qr_scan"}, "lat": 38.87558883333333, "bike_id": "e4cc46d847e0b3a8b71069d1c591ec99", "is_disabled": 0, "lon": -77.00583633333333, "is_reserved": 0, "fusion_lat": 0.0, "type": "electric_scooter"}, {"fusion_lon": 0.0, "name": "9492eab1a480eb66ff2bf803ca32a697", "rental_uris": {"android": "https://dc.lft.to/lastmile_qr_scan", "ios": "https://dc.lft.to/lastmile_qr_scan"}, "lat": 38.92757616666667, "bike_id": "9492eab1a480eb66ff2bf803ca32a697", "is_disabled": 0, "lon": -77.052708, "is_reserved": 0, "fusion_lat": 0.0, "type": "electric_scooter"}, {"fusion_lon": 0.0, "name": "c72f6f3b498aab5b9009a22c18ac7a85", "rental_uris": {"android": "https://dc.lft.to/lastmile_qr_scan", "ios": "https://dc.lft.to/lastmile_qr_scan"}, "lat": 38.8995665, "bike_id": "c72f6f3b498aab5b9009a22c18ac7a85", "is_disabled": 0, "lon": -77.04860433333333, "is_reserved": 0, "fusion_lat": 0.0, "type": "electric_scooter"}, {"fusion_lon": 0.0, "name": "1e4d4efe61bc91ca937560dae1d05218", "rental_uris": {"android": "https://dc.lft.to/lastmile_qr_scan", "ios": "https://dc.lft.to/lastmile_qr_scan"}, "lat": 38.892269, "bike_id": "1e4d4efe61bc91ca937560dae1d05218", "is_disabled": 0, "lon": -77.0336325, "is_reserved": 0, "fusion_lat": 0.0, "type": "electric_scooter"}, {"fusion_lon": 0.0, "name": "c4d641d5f8ccde789f3eca0f168b02f7", "rental_uris": {"android": "https://dc.lft.to/lastmile_qr_scan", "ios": "https://dc.lft.to/lastmile_qr_scan"}, "lat": 38.907307333333335, "bike_id": "c4d641d5f8ccde789f3eca0f168b02f7", "is_disabled": 0, "lon": -77.02793983333333, "is_reserved": 0, "fusion_lat": 0.0, "type": "electric_scooter"}, {"fusion_lon": 0.0, "name": "c06c8cc12d4318d0620182ea4fb97c9b", "rental_uris": {"android": "https://dc.lft.to/lastmile_qr_scan", "ios": "https://dc.lft.to/lastmile_qr_scan"}, "lat": 38.9021945, "bike_id": "c06c8cc12d4318d0620182ea4fb97c9b", "is_disabled": 0, "lon": -77.02364, "is_reserved": 0, "fusion_lat": 0.0, "type": "electric_scooter"}, {"fusion_lon": 0.0, "name": "2ec1a52f9626769d9ff8c96ce54550e6", "rental_uris": {"android": "https://dc.lft.to/lastmile_qr_scan", "ios": "https://dc.lft.to/lastmile_qr_scan"}, "lat": 38.9005565, "bike_id": "2ec1a52f9626769d9ff8c96ce54550e6", "is_disabled": 0, "lon": -77.0503885, "is_reserved": 0, "fusion_lat": 0.0, "type": "electric_scooter"}, {"fusion_lon": 0.0, "name": "e98d545b6196a32b34bb07d741ff8263", "rental_uris": {"android": "https://dc.lft.to/lastmile_qr_scan", "ios": "https://dc.lft.to/lastmile_qr_scan"}, "lat": 38.92486016666667, "bike_id": "e98d545b6196a32b34bb07d741ff8263", "is_disabled": 0, "lon": -77.02272166666667, "is_reserved": 0, "fusion_lat": 0.0, "type": "electric_scooter"}, {"fusion_lon": 0.0, "name": "204a16c0247672e17270081e0b879bbb", "rental_uris": {"android": "https://dc.lft.to/lastmile_qr_scan", "ios": "https://dc.lft.to/lastmile_qr_scan"}, "lat": 38.91964266666667, "bike_id": "204a16c0247672e17270081e0b879bbb", "is_disabled": 0, "lon": -77.04364816666667, "is_reserved": 0, "fusion_lat": 0.0, "type": "electric_scooter"}, {"fusion_lon": 0.0, "name": "829b3c4bf55ee66fe518dd363e8b0fca", "rental_uris": {"android": "https://dc.lft.to/lastmile_qr_scan", "ios": "https://dc.lft.to/lastmile_qr_scan"}, "lat": 38.9102085, "bike_id": "829b3c4bf55ee66fe518dd363e8b0fca", "is_disabled": 0, "lon": -77.043031, "is_reserved": 0, "fusion_lat": 0.0, "type": "electric_scooter"}, {"fusion_lon": 0.0, "name": "1ab1929360ea074c4fce09f6f8550007", "rental_uris": {"android": "https://dc.lft.to/lastmile_qr_scan", "ios": "https://dc.lft.to/lastmile_qr_scan"}, "lat": 38.92097016666666, "bike_id": "1ab1929360ea074c4fce09f6f8550007", "is_disabled": 0, "lon": -77.0315385, "is_reserved": 0, "fusion_lat": 0.0, "type": "electric_scooter"}, {"fusion_lon": 0.0, "name": "85b3c09b61ed1d4a67217d4ff3c60ac1", "rental_uris": {"android": "https://dc.lft.to/lastmile_qr_scan", "ios": "https://dc.lft.to/lastmile_qr_scan"}, "lat": 38.905707666666665, "bike_id": "85b3c09b61ed1d4a67217d4ff3c60ac1", "is_disabled": 0, "lon": -77.0218335, "is_reserved": 0, "fusion_lat": 0.0, "type": "electric_scooter"}, {"fusion_lon": 0.0, "name": "5fe6c461a922530d6881ee52c6dd75cb", "rental_uris": {"android": "https://dc.lft.to/lastmile_qr_scan", "ios": "https://dc.lft.to/lastmile_qr_scan"}, "lat": 38.9287745, "bike_id": "5fe6c461a922530d6881ee52c6dd75cb", "is_disabled": 0, "lon": -77.0123245, "is_reserved": 0, "fusion_lat": 0.0, "type": "electric_scooter"}, {"fusion_lon": 0.0, "name": "fe659453ebff50f9fe8b1526ffafb6d6", "rental_uris": {"android": "https://dc.lft.to/lastmile_qr_scan", "ios": "https://dc.lft.to/lastmile_qr_scan"}, "lat": 38.89509916666667, "bike_id": "fe659453ebff50f9fe8b1526ffafb6d6", "is_disabled": 0, "lon": -77.011874, "is_reserved": 0, "fusion_lat": 0.0, "type": "electric_scooter"}, {"fusion_lon": 0.0, "name": "dd51c88fe077fc4fb552b644f86ed923", "rental_uris": {"android": "https://dc.lft.to/lastmile_qr_scan", "ios": "https://dc.lft.to/lastmile_qr_scan"}, "lat": 38.85781816666667, "bike_id": "dd51c88fe077fc4fb552b644f86ed923", "is_disabled": 0, "lon": -76.98759133333333, "is_reserved": 0, "fusion_lat": 0.0, "type": "electric_bike"}, {"fusion_lon": 0.0, "name": "d741307152e5db904668eaba72adf41f", "rental_uris": {"android": "https://dc.lft.to/lastmile_qr_scan", "ios": "https://dc.lft.to/lastmile_qr_scan"}, "lat": 38.894202, "bike_id": "d741307152e5db904668eaba72adf41f", "is_disabled": 0, "lon": -76.99767833333334, "is_reserved": 0, "fusion_lat": 0.0, "type": "electric_scooter"}, {"fusion_lon": 0.0, "name": "957006873ebcf10b1ed5cc0357464705", "rental_uris": {"android": "https://dc.lft.to/lastmile_qr_scan", "ios": "https://dc.lft.to/lastmile_qr_scan"}, "lat": 38.920738, "bike_id": "957006873ebcf10b1ed5cc0357464705", "is_disabled": 0, "lon": -77.0231865, "is_reserved": 0, "fusion_lat": 0.0, "type": "electric_scooter"}, {"fusion_lon": 0.0, "name": "e97068f52504c38f192965037aaf16c4", "rental_uris": {"android": "https://dc.lft.to/lastmile_qr_scan", "ios": "https://dc.lft.to/lastmile_qr_scan"}, "lat": 38.9660625, "bike_id": "e97068f52504c38f192965037aaf16c4", "is_disabled": 0, "lon": -77.02288766666666, "is_reserved": 0, "fusion_lat": 0.0, "type": "electric_scooter"}, {"fusion_lon": 0.0, "name": "e0575e16ccd41a7cce7aebc101fb64cf", "rental_uris": {"android": "https://dc.lft.to/lastmile_qr_scan", "ios": "https://dc.lft.to/lastmile_qr_scan"}, "lat": 38.96126966666667, "bike_id": "e0575e16ccd41a7cce7aebc101fb64cf", "is_disabled": 0, "lon": -77.03278383333334, "is_reserved": 0, "fusion_lat": 0.0, "type": "electric_bike"}, {"fusion_lon": 0.0, "name": "25734620810116215b460f16369c5dc3", "rental_uris": {"android": "https://dc.lft.to/lastmile_qr_scan", "ios": "https://dc.lft.to/lastmile_qr_scan"}, "lat": 38.8888475, "bike_id": "25734620810116215b460f16369c5dc3", "is_disabled": 0, "lon": -76.97731083333333, "is_reserved": 0, "fusion_lat": 0.0, "type": "electric_scooter"}, {"fusion_lon": 0.0, "name": "1452ce489119ec9a09689538b11326aa", "rental_uris": {"android": "https://dc.lft.to/lastmile_qr_scan", "ios": "https://dc.lft.to/lastmile_qr_scan"}, "lat": 38.9467715, "bike_id": "1452ce489119ec9a09689538b11326aa", "is_disabled": 0, "lon": -77.03285133333333, "is_reserved": 0, "fusion_lat": 0.0, "type": "electric_scooter"}, {"fusion_lon": 0.0, "name": "7bc73de9579e21a78952bb62a94ae542", "rental_uris": {"android": "https://dc.lft.to/lastmile_qr_scan", "ios": "https://dc.lft.to/lastmile_qr_scan"}, "lat": 38.92466266666667, "bike_id": "7bc73de9579e21a78952bb62a94ae542", "is_disabled": 0, "lon": -77.02272383333333, "is_reserved": 0, "fusion_lat": 0.0, "type": "electric_scooter"}, {"fusion_lon": 0.0, "name": "5261d1aa1e7776dc60e6fee6363c0ac2", "rental_uris": {"android": "https://dc.lft.to/lastmile_qr_scan", "ios": "https://dc.lft.to/lastmile_qr_scan"}, "lat": 38.92684666666667, "bike_id": "5261d1aa1e7776dc60e6fee6363c0ac2", "is_disabled": 0, "lon": -76.99558666666667, "is_reserved": 0, "fusion_lat": 0.0, "type": "electric_scooter"}, {"fusion_lon": 0.0, "name": "3915cbd2a731c69a9d0b0a2b32c9e015", "rental_uris": {"android": "https://dc.lft.to/lastmile_qr_scan", "ios": "https://dc.lft.to/lastmile_qr_scan"}, "lat": 38.870316, "bike_id": "3915cbd2a731c69a9d0b0a2b32c9e015", "is_disabled": 0, "lon": -77.22910516666667, "is_reserved": 0, "fusion_lat": 0.0, "type": "electric_bike"}, {"fusion_lon": 0.0, "name": "839fb5c1e513c276d2be57c0a5663661", "rental_uris": {"android": "https://dc.lft.to/lastmile_qr_scan", "ios": "https://dc.lft.to/lastmile_qr_scan"}, "lat": 38.998969833333334, "bike_id": "839fb5c1e513c276d2be57c0a5663661", "is_disabled": 0, "lon": -76.90859833333333, "is_reserved": 0, "fusion_lat": 0.0, "type": "electric_bike"}, {"fusion_lon": 0.0, "name": "35b70df2aed0ce492f8ae7a9931260cd", "rental_uris": {"android": "https://dc.lft.to/lastmile_qr_scan", "ios": "https://dc.lft.to/lastmile_qr_scan"}, "lat": 38.89710083333333, "bike_id": "35b70df2aed0ce492f8ae7a9931260cd", "is_disabled": 0, "lon": -76.9911975, "is_reserved": 0, "fusion_lat": 0.0, "type": "electric_scooter"}, {"fusion_lon": 0.0, "name": "aab5a5ff59016859f98ce923b844eaf8", "rental_uris": {"android": "https://dc.lft.to/lastmile_qr_scan", "ios": "https://dc.lft.to/lastmile_qr_scan"}, "lat": 38.89830333333333, "bike_id": "aab5a5ff59016859f98ce923b844eaf8", "is_disabled": 0, "lon": -77.0075025, "is_reserved": 0, "fusion_lat": 0.0, "type": "electric_scooter"}, {"fusion_lon": 0.0, "name": "1e78d2738932ab012a3d4bf31e03fe31", "rental_uris": {"android": "https://dc.lft.to/lastmile_qr_scan", "ios": "https://dc.lft.to/lastmile_qr_scan"}, "lat": 38.903322, "bike_id": "1e78d2738932ab012a3d4bf31e03fe31", "is_disabled": 0, "lon": -76.97594716666667, "is_reserved": 0, "fusion_lat": 0.0, "type": "electric_scooter"}, {"fusion_lon": 0.0, "name": "6364fe9cf159ec05c7c671ee07dab16e", "rental_uris": {"android": "https://dc.lft.to/lastmile_qr_scan", "ios": "https://dc.lft.to/lastmile_qr_scan"}, "lat": 38.9250225, "bike_id": "6364fe9cf159ec05c7c671ee07dab16e", "is_disabled": 0, "lon": -77.02577666666667, "is_reserved": 0, "fusion_lat": 0.0, "type": "electric_scooter"}, {"fusion_lon": 0.0, "name": "0f3758445df0a067fb6c0eb849fa91b4", "rental_uris": {"android": "https://dc.lft.to/lastmile_qr_scan", "ios": "https://dc.lft.to/lastmile_qr_scan"}, "lat": 38.90394966666667, "bike_id": "0f3758445df0a067fb6c0eb849fa91b4", "is_disabled": 0, "lon": -77.0042825, "is_reserved": 0, "fusion_lat": 0.0, "type": "electric_scooter"}, {"fusion_lon": 0.0, "name": "2f0008ad11c24f2d964140dd5647ff0c", "rental_uris": {"android": "https://dc.lft.to/lastmile_qr_scan", "ios": "https://dc.lft.to/lastmile_qr_scan"}, "lat": 38.90032733333334, "bike_id": "2f0008ad11c24f2d964140dd5647ff0c", "is_disabled": 0, "lon": -76.98687183333334, "is_reserved": 0, "fusion_lat": 0.0, "type": "electric_scooter"}, {"fusion_lon": 0.0, "name": "7f66a562190c0dd2b027a5dda08b7385", "rental_uris": {"android": "https://dc.lft.to/lastmile_qr_scan", "ios": "https://dc.lft.to/lastmile_qr_scan"}, "lat": 38.85436766666667, "bike_id": "7f66a562190c0dd2b027a5dda08b7385", "is_disabled": 0, "lon": -77.08321466666666, "is_reserved": 0, "fusion_lat": 0.0, "type": "electric_bike"}, {"fusion_lon": 0.0, "name": "720e668a316a5858d26f30835b0a8e32", "rental_uris": {"android": "https://dc.lft.to/lastmile_qr_scan", "ios": "https://dc.lft.to/lastmile_qr_scan"}, "lat": 38.9467615, "bike_id": "720e668a316a5858d26f30835b0a8e32", "is_disabled": 0, "lon": -76.99329083333333, "is_reserved": 0, "fusion_lat": 0.0, "type": "electric_bike"}, {"fusion_lon": 0.0, "name": "16d2f6024e15ebc5704a0adaf9540a50", "rental_uris": {"android": "https://dc.lft.to/lastmile_qr_scan", "ios": "https://dc.lft.to/lastmile_qr_scan"}, "lat": 38.9219525, "bike_id": "16d2f6024e15ebc5704a0adaf9540a50", "is_disabled": 0, "lon": -77.02977533333333, "is_reserved": 0, "fusion_lat": 0.0, "type": "electric_scooter"}, {"fusion_lon": 0.0, "name": "8d7c736441912cc98b6119f46b4a4298", "rental_uris": {"android": "https://dc.lft.to/lastmile_qr_scan", "ios": "https://dc.lft.to/lastmile_qr_scan"}, "lat": 38.935374, "bike_id": "8d7c736441912cc98b6119f46b4a4298", "is_disabled": 0, "lon": -77.023122, "is_reserved": 0, "fusion_lat": 0.0, "type": "electric_scooter"}, {"fusion_lon": 0.0, "name": "1532b19f5a2cea42209551b9c279fe7f", "rental_uris": {"android": "https://dc.lft.to/lastmile_qr_scan", "ios": "https://dc.lft.to/lastmile_qr_scan"}, "lat": 38.923444, "bike_id": "1532b19f5a2cea42209551b9c279fe7f", "is_disabled": 0, "lon": -77.054228, "is_reserved": 0, "fusion_lat": 0.0, "type": "electric_scooter"}, {"fusion_lon": 0.0, "name": "bdb958eb5a123a9e5948d9d80b0b60e8", "rental_uris": {"android": "https://dc.lft.to/lastmile_qr_scan", "ios": "https://dc.lft.to/lastmile_qr_scan"}, "lat": 38.922361, "bike_id": "bdb958eb5a123a9e5948d9d80b0b60e8", "is_disabled": 0, "lon": -77.0346635, "is_reserved": 0, "fusion_lat": 0.0, "type": "electric_scooter"}, {"fusion_lon": 0.0, "name": "46b00b7ecf60df8c651f404e0c1beef4", "rental_uris": {"android": "https://dc.lft.to/lastmile_qr_scan", "ios": "https://dc.lft.to/lastmile_qr_scan"}, "lat": 38.91713033333333, "bike_id": "46b00b7ecf60df8c651f404e0c1beef4", "is_disabled": 0, "lon": -77.03616766666667, "is_reserved": 0, "fusion_lat": 0.0, "type": "electric_scooter"}, {"fusion_lon": 0.0, "name": "4950e2105c3adecb339fbaed6a27eca6", "rental_uris": {"android": "https://dc.lft.to/lastmile_qr_scan", "ios": "https://dc.lft.to/lastmile_qr_scan"}, "lat": 38.90042283333333, "bike_id": "4950e2105c3adecb339fbaed6a27eca6", "is_disabled": 0, "lon": -77.04316083333333, "is_reserved": 0, "fusion_lat": 0.0, "type": "electric_scooter"}, {"fusion_lon": 0.0, "name": "a1bbbe1407ff872c17ef5eca15882b90", "rental_uris": {"android": "https://dc.lft.to/lastmile_qr_scan", "ios": "https://dc.lft.to/lastmile_qr_scan"}, "lat": 38.91645416666667, "bike_id": "a1bbbe1407ff872c17ef5eca15882b90", "is_disabled": 0, "lon": -77.01033283333334, "is_reserved": 0, "fusion_lat": 0.0, "type": "electric_scooter"}, {"fusion_lon": 0.0, "name": "1d42ea04c68a8563ecf56dd99cc2de3f", "rental_uris": {"android": "https://dc.lft.to/lastmile_qr_scan", "ios": "https://dc.lft.to/lastmile_qr_scan"}, "lat": 38.917235833333336, "bike_id": "1d42ea04c68a8563ecf56dd99cc2de3f", "is_disabled": 0, "lon": -77.02954633333333, "is_reserved": 0, "fusion_lat": 0.0, "type": "electric_scooter"}, {"fusion_lon": 0.0, "name": "b20895dee5661235898bbe94acbc46aa", "rental_uris": {"android": "https://dc.lft.to/lastmile_qr_scan", "ios": "https://dc.lft.to/lastmile_qr_scan"}, "lat": 38.85064216666667, "bike_id": "b20895dee5661235898bbe94acbc46aa", "is_disabled": 0, "lon": -77.05180033333333, "is_reserved": 0, "fusion_lat": 0.0, "type": "electric_bike"}, {"fusion_lon": 0.0, "name": "30503dffb222496cb38e021afad38e12", "rental_uris": {"android": "https://dc.lft.to/lastmile_qr_scan", "ios": "https://dc.lft.to/lastmile_qr_scan"}, "lat": 38.9383295, "bike_id": "30503dffb222496cb38e021afad38e12", "is_disabled": 0, "lon": -77.024561, "is_reserved": 0, "fusion_lat": 0.0, "type": "electric_scooter"}, {"fusion_lon": 0.0, "name": "15baa32e9ec1f656c195b1a00bb03947", "rental_uris": {"android": "https://dc.lft.to/lastmile_qr_scan", "ios": "https://dc.lft.to/lastmile_qr_scan"}, "lat": 38.89903733333333, "bike_id": "15baa32e9ec1f656c195b1a00bb03947", "is_disabled": 0, "lon": -76.988284, "is_reserved": 0, "fusion_lat": 0.0, "type": "electric_scooter"}, {"fusion_lon": 0.0, "name": "6a3d553aa64a9f91aa334372867a5cbb", "rental_uris": {"android": "https://dc.lft.to/lastmile_qr_scan", "ios": "https://dc.lft.to/lastmile_qr_scan"}, "lat": 38.92360716666666, "bike_id": "6a3d553aa64a9f91aa334372867a5cbb", "is_disabled": 0, "lon": -77.07643683333333, "is_reserved": 0, "fusion_lat": 0.0, "type": "electric_scooter"}, {"fusion_lon": 0.0, "name": "29a09d3886d7ac49bbbf20a5d6e0adfe", "rental_uris": {"android": "https://dc.lft.to/lastmile_qr_scan", "ios": "https://dc.lft.to/lastmile_qr_scan"}, "lat": 38.9096485, "bike_id": "29a09d3886d7ac49bbbf20a5d6e0adfe", "is_disabled": 0, "lon": -77.02447933333333, "is_reserved": 0, "fusion_lat": 0.0, "type": "electric_scooter"}, {"fusion_lon": 0.0, "name": "53ce7bbc734dd11060a2bb8cdea818ae", "rental_uris": {"android": "https://dc.lft.to/lastmile_qr_scan", "ios": "https://dc.lft.to/lastmile_qr_scan"}, "lat": 38.8717365, "bike_id": "53ce7bbc734dd11060a2bb8cdea818ae", "is_disabled": 0, "lon": -77.23386266666667, "is_reserved": 0, "fusion_lat": 0.0, "type": "electric_bike"}, {"fusion_lon": 0.0, "name": "1d8cade514d199b8755056663e4a5efc", "rental_uris": {"android": "https://dc.lft.to/lastmile_qr_scan", "ios": "https://dc.lft.to/lastmile_qr_scan"}, "lat": 38.91611, "bike_id": "1d8cade514d199b8755056663e4a5efc", "is_disabled": 0, "lon": -77.0229095, "is_reserved": 0, "fusion_lat": 0.0, "type": "electric_scooter"}, {"fusion_lon": 0.0, "name": "0800075c1860a8f655af0ed68bc87cd5", "rental_uris": {"android": "https://dc.lft.to/lastmile_qr_scan", "ios": "https://dc.lft.to/lastmile_qr_scan"}, "lat": 38.94166516666667, "bike_id": "0800075c1860a8f655af0ed68bc87cd5", "is_disabled": 0, "lon": -77.02560216666667, "is_reserved": 0, "fusion_lat": 0.0, "type": "electric_scooter"}, {"fusion_lon": 0.0, "name": "79a135d9ba1c7b56e9cb253b8c3e1f0a", "rental_uris": {"android": "https://dc.lft.to/lastmile_qr_scan", "ios": "https://dc.lft.to/lastmile_qr_scan"}, "lat": 38.973687166666664, "bike_id": "79a135d9ba1c7b56e9cb253b8c3e1f0a", "is_disabled": 0, "lon": -77.01861733333334, "is_reserved": 0, "fusion_lat": 0.0, "type": "electric_scooter"}, {"fusion_lon": 0.0, "name": "1833105d6e3d642579c40c2d1099d0c7", "rental_uris": {"android": "https://dc.lft.to/lastmile_qr_scan", "ios": "https://dc.lft.to/lastmile_qr_scan"}, "lat": 38.957596833333334, "bike_id": "1833105d6e3d642579c40c2d1099d0c7", "is_disabled": 0, "lon": -76.96752883333333, "is_reserved": 0, "fusion_lat": 0.0, "type": "electric_bike"}, {"fusion_lon": 0.0, "name": "48f187efdca133994ac000f7be76fc6a", "rental_uris": {"android": "https://dc.lft.to/lastmile_qr_scan", "ios": "https://dc.lft.to/lastmile_qr_scan"}, "lat": 38.890188, "bike_id": "48f187efdca133994ac000f7be76fc6a", "is_disabled": 0, "lon": -76.93713966666667, "is_reserved": 0, "fusion_lat": 0.0, "type": "electric_scooter"}, {"fusion_lon": 0.0, "name": "c47e0617d7fbbe4f54a18d2029bb6255", "rental_uris": {"android": "https://dc.lft.to/lastmile_qr_scan", "ios": "https://dc.lft.to/lastmile_qr_scan"}, "lat": 38.91761916666667, "bike_id": "c47e0617d7fbbe4f54a18d2029bb6255", "is_disabled": 0, "lon": -77.00918266666666, "is_reserved": 0, "fusion_lat": 0.0, "type": "electric_scooter"}, {"fusion_lon": 0.0, "name": "d4b9a2151280b56bbf6722c13f9b6f03", "rental_uris": {"android": "https://dc.lft.to/lastmile_qr_scan", "ios": "https://dc.lft.to/lastmile_qr_scan"}, "lat": 38.90877833333333, "bike_id": "d4b9a2151280b56bbf6722c13f9b6f03", "is_disabled": 0, "lon": -77.0376205, "is_reserved": 0, "fusion_lat": 0.0, "type": "electric_scooter"}, {"fusion_lon": 0.0, "name": "7bc40ccdceeadc48411658dc3efbdaa1", "rental_uris": {"android": "https://dc.lft.to/lastmile_qr_scan", "ios": "https://dc.lft.to/lastmile_qr_scan"}, "lat": 38.89950616666667, "bike_id": "7bc40ccdceeadc48411658dc3efbdaa1", "is_disabled": 0, "lon": -77.05152116666666, "is_reserved": 0, "fusion_lat": 0.0, "type": "electric_scooter"}, {"fusion_lon": 0.0, "name": "bde57d6593941df1ab14373c38887ac6", "rental_uris": {"android": "https://dc.lft.to/lastmile_qr_scan", "ios": "https://dc.lft.to/lastmile_qr_scan"}, "lat": 38.90367333333333, "bike_id": "bde57d6593941df1ab14373c38887ac6", "is_disabled": 0, "lon": -76.998384, "is_reserved": 0, "fusion_lat": 0.0, "type": "electric_scooter"}, {"fusion_lon": 0.0, "name": "a21188e1da4410dcea373ab8710dd07b", "rental_uris": {"android": "https://dc.lft.to/lastmile_qr_scan", "ios": "https://dc.lft.to/lastmile_qr_scan"}, "lat": 38.905256666666666, "bike_id": "a21188e1da4410dcea373ab8710dd07b", "is_disabled": 0, "lon": -77.06240666666666, "is_reserved": 0, "fusion_lat": 0.0, "type": "electric_scooter"}, {"fusion_lon": 0.0, "name": "cade9606fbd9b4bc5f8cd839ff44cb37", "rental_uris": {"android": "https://dc.lft.to/lastmile_qr_scan", "ios": "https://dc.lft.to/lastmile_qr_scan"}, "lat": 38.91477883333334, "bike_id": "cade9606fbd9b4bc5f8cd839ff44cb37", "is_disabled": 0, "lon": -77.04013116666667, "is_reserved": 0, "fusion_lat": 0.0, "type": "electric_scooter"}, {"fusion_lon": 0.0, "name": "c12a3259c2433c6693b3c3eb3bcf47fd", "rental_uris": {"android": "https://dc.lft.to/lastmile_qr_scan", "ios": "https://dc.lft.to/lastmile_qr_scan"}, "lat": 38.90028066666667, "bike_id": "c12a3259c2433c6693b3c3eb3bcf47fd", "is_disabled": 0, "lon": -76.98750066666666, "is_reserved": 0, "fusion_lat": 0.0, "type": "electric_scooter"}, {"fusion_lon": 0.0, "name": "a2457889ffa7609a6747a73e874c74de", "rental_uris": {"android": "https://dc.lft.to/lastmile_qr_scan", "ios": "https://dc.lft.to/lastmile_qr_scan"}, "lat": 38.871955166666666, "bike_id": "a2457889ffa7609a6747a73e874c74de", "is_disabled": 0, "lon": -77.00929666666667, "is_reserved": 0, "fusion_lat": 0.0, "type": "electric_scooter"}, {"fusion_lon": 0.0, "name": "795274394e2004538a0b62ca99d677be", "rental_uris": {"android": "https://dc.lft.to/lastmile_qr_scan", "ios": "https://dc.lft.to/lastmile_qr_scan"}, "lat": 38.916563, "bike_id": "795274394e2004538a0b62ca99d677be", "is_disabled": 0, "lon": -77.00946066666667, "is_reserved": 0, "fusion_lat": 0.0, "type": "electric_scooter"}, {"fusion_lon": 0.0, "name": "80832d620a4905cbe2cc087a339b4187", "rental_uris": {"android": "https://dc.lft.to/lastmile_qr_scan", "ios": "https://dc.lft.to/lastmile_qr_scan"}, "lat": 38.8757175, "bike_id": "80832d620a4905cbe2cc087a339b4187", "is_disabled": 0, "lon": -77.005792, "is_reserved": 0, "fusion_lat": 0.0, "type": "electric_scooter"}, {"fusion_lon": 0.0, "name": "539a78ac403731acd79574aaea22f8ed", "rental_uris": {"android": "https://dc.lft.to/lastmile_qr_scan", "ios": "https://dc.lft.to/lastmile_qr_scan"}, "lat": 38.80865166666667, "bike_id": "539a78ac403731acd79574aaea22f8ed", "is_disabled": 0, "lon": -77.1125275, "is_reserved": 0, "fusion_lat": 0.0, "type": "electric_bike"}, {"fusion_lon": 0.0, "name": "134d8875af7cb89bbc45ba3931cdb530", "rental_uris": {"android": "https://dc.lft.to/lastmile_qr_scan", "ios": "https://dc.lft.to/lastmile_qr_scan"}, "lat": 38.925184333333334, "bike_id": "134d8875af7cb89bbc45ba3931cdb530", "is_disabled": 0, "lon": -77.02286983333333, "is_reserved": 0, "fusion_lat": 0.0, "type": "electric_scooter"}, {"fusion_lon": 0.0, "name": "b9ada1a2d7cc4e1f9bc4d6a2bf3be871", "rental_uris": {"android": "https://dc.lft.to/lastmile_qr_scan", "ios": "https://dc.lft.to/lastmile_qr_scan"}, "lat": 38.897981, "bike_id": "b9ada1a2d7cc4e1f9bc4d6a2bf3be871", "is_disabled": 0, "lon": -77.01901666666667, "is_reserved": 0, "fusion_lat": 0.0, "type": "electric_scooter"}, {"fusion_lon": 0.0, "name": "4b89e1ced5c6fd4a063c7ede47ac03ab", "rental_uris": {"android": "https://dc.lft.to/lastmile_qr_scan", "ios": "https://dc.lft.to/lastmile_qr_scan"}, "lat": 38.877833, "bike_id": "4b89e1ced5c6fd4a063c7ede47ac03ab", "is_disabled": 0, "lon": -76.99363616666666, "is_reserved": 0, "fusion_lat": 0.0, "type": "electric_scooter"}, {"fusion_lon": 0.0, "name": "8b390834b0ca0cdf1ce1b92aa7649c20", "rental_uris": {"android": "https://dc.lft.to/lastmile_qr_scan", "ios": "https://dc.lft.to/lastmile_qr_scan"}, "lat": 38.92138583333333, "bike_id": "8b390834b0ca0cdf1ce1b92aa7649c20", "is_disabled": 0, "lon": -77.03515983333334, "is_reserved": 0, "fusion_lat": 0.0, "type": "electric_scooter"}, {"fusion_lon": 0.0, "name": "b7195645ba338752dbdc009fbb9c62d0", "rental_uris": {"android": "https://dc.lft.to/lastmile_qr_scan", "ios": "https://dc.lft.to/lastmile_qr_scan"}, "lat": 38.89340833333333, "bike_id": "b7195645ba338752dbdc009fbb9c62d0", "is_disabled": 0, "lon": -76.99387983333334, "is_reserved": 0, "fusion_lat": 0.0, "type": "electric_scooter"}, {"fusion_lon": 0.0, "name": "aa0e1b247760624c1a2814dff8e963a5", "rental_uris": {"android": "https://dc.lft.to/lastmile_qr_scan", "ios": "https://dc.lft.to/lastmile_qr_scan"}, "lat": 38.8757305, "bike_id": "aa0e1b247760624c1a2814dff8e963a5", "is_disabled": 0, "lon": -77.00578783333333, "is_reserved": 0, "fusion_lat": 0.0, "type": "electric_scooter"}, {"fusion_lon": 0.0, "name": "781f74cb8719914229a962806dc9f2ea", "rental_uris": {"android": "https://dc.lft.to/lastmile_qr_scan", "ios": "https://dc.lft.to/lastmile_qr_scan"}, "lat": 38.928925666666665, "bike_id": "781f74cb8719914229a962806dc9f2ea", "is_disabled": 0, "lon": -77.03486083333334, "is_reserved": 0, "fusion_lat": 0.0, "type": "electric_scooter"}, {"fusion_lon": 0.0, "name": "e9a9b304610682fe07d4e78984d59968", "rental_uris": {"android": "https://dc.lft.to/lastmile_qr_scan", "ios": "https://dc.lft.to/lastmile_qr_scan"}, "lat": 38.900821666666666, "bike_id": "e9a9b304610682fe07d4e78984d59968", "is_disabled": 0, "lon": -77.03639033333333, "is_reserved": 0, "fusion_lat": 0.0, "type": "electric_scooter"}, {"fusion_lon": 0.0, "name": "260393db7adfb35630ed0c7dcf6a1e7e", "rental_uris": {"android": "https://dc.lft.to/lastmile_qr_scan", "ios": "https://dc.lft.to/lastmile_qr_scan"}, "lat": 38.92818316666666, "bike_id": "260393db7adfb35630ed0c7dcf6a1e7e", "is_disabled": 0, "lon": -77.0326595, "is_reserved": 0, "fusion_lat": 0.0, "type": "electric_scooter"}, {"fusion_lon": 0.0, "name": "7a8a5c6d3568354a877f50ba9514b625", "rental_uris": {"android": "https://dc.lft.to/lastmile_qr_scan", "ios": "https://dc.lft.to/lastmile_qr_scan"}, "lat": 38.89341183333333, "bike_id": "7a8a5c6d3568354a877f50ba9514b625", "is_disabled": 0, "lon": -77.03165683333333, "is_reserved": 0, "fusion_lat": 0.0, "type": "electric_scooter"}, {"fusion_lon": 0.0, "name": "397692318a1bac5ab506efcc8ad6cc27", "rental_uris": {"android": "https://dc.lft.to/lastmile_qr_scan", "ios": "https://dc.lft.to/lastmile_qr_scan"}, "lat": 38.935542, "bike_id": "397692318a1bac5ab506efcc8ad6cc27", "is_disabled": 0, "lon": -77.0326325, "is_reserved": 0, "fusion_lat": 0.0, "type": "electric_scooter"}, {"fusion_lon": 0.0, "name": "eba28a75e874988e3cf3f09eab77648a", "rental_uris": {"android": "https://dc.lft.to/lastmile_qr_scan", "ios": "https://dc.lft.to/lastmile_qr_scan"}, "lat": 38.935264833333335, "bike_id": "eba28a75e874988e3cf3f09eab77648a", "is_disabled": 0, "lon": -77.0285075, "is_reserved": 0, "fusion_lat": 0.0, "type": "electric_scooter"}, {"fusion_lon": 0.0, "name": "551b7b65e155ac77a73447bf6ab261ce", "rental_uris": {"android": "https://dc.lft.to/lastmile_qr_scan", "ios": "https://dc.lft.to/lastmile_qr_scan"}, "lat": 38.89552316666666, "bike_id": "551b7b65e155ac77a73447bf6ab261ce", "is_disabled": 0, "lon": -76.98887166666667, "is_reserved": 0, "fusion_lat": 0.0, "type": "electric_scooter"}, {"fusion_lon": 0.0, "name": "e22fabc93b3137deba2c23bce23dc83a", "rental_uris": {"android": "https://dc.lft.to/lastmile_qr_scan", "ios": "https://dc.lft.to/lastmile_qr_scan"}, "lat": 38.88532333333333, "bike_id": "e22fabc93b3137deba2c23bce23dc83a", "is_disabled": 0, "lon": -76.97957266666667, "is_reserved": 0, "fusion_lat": 0.0, "type": "electric_scooter"}, {"fusion_lon": 0.0, "name": "761840e29fd767db439bfbd49ca78c5b", "rental_uris": {"android": "https://dc.lft.to/lastmile_qr_scan", "ios": "https://dc.lft.to/lastmile_qr_scan"}, "lat": 38.896617166666665, "bike_id": "761840e29fd767db439bfbd49ca78c5b", "is_disabled": 0, "lon": -77.02717166666666, "is_reserved": 0, "fusion_lat": 0.0, "type": "electric_scooter"}, {"fusion_lon": 0.0, "name": "37de62ac1e808cd918ecf5ffa3175e38", "rental_uris": {"android": "https://dc.lft.to/lastmile_qr_scan", "ios": "https://dc.lft.to/lastmile_qr_scan"}, "lat": 38.89727283333333, "bike_id": "37de62ac1e808cd918ecf5ffa3175e38", "is_disabled": 0, "lon": -77.03215433333334, "is_reserved": 0, "fusion_lat": 0.0, "type": "electric_scooter"}, {"fusion_lon": 0.0, "name": "da429a8ec49a7d3266fd3e85dfae01e5", "rental_uris": {"android": "https://dc.lft.to/lastmile_qr_scan", "ios": "https://dc.lft.to/lastmile_qr_scan"}, "lat": 38.935336166666666, "bike_id": "da429a8ec49a7d3266fd3e85dfae01e5", "is_disabled": 0, "lon": -77.03368866666666, "is_reserved": 0, "fusion_lat": 0.0, "type": "electric_scooter"}, {"fusion_lon": 0.0, "name": "8c1041fbb80fbbb9bd1db8c1eaf523ae", "rental_uris": {"android": "https://dc.lft.to/lastmile_qr_scan", "ios": "https://dc.lft.to/lastmile_qr_scan"}, "lat": 38.90251966666666, "bike_id": "8c1041fbb80fbbb9bd1db8c1eaf523ae", "is_disabled": 0, "lon": -77.01749033333333, "is_reserved": 0, "fusion_lat": 0.0, "type": "electric_scooter"}, {"fusion_lon": 0.0, "name": "77a35220027a54e26bb29387954d0a8f", "rental_uris": {"android": "https://dc.lft.to/lastmile_qr_scan", "ios": "https://dc.lft.to/lastmile_qr_scan"}, "lat": 38.913912833333335, "bike_id": "77a35220027a54e26bb29387954d0a8f", "is_disabled": 0, "lon": -77.04491616666667, "is_reserved": 0, "fusion_lat": 0.0, "type": "electric_scooter"}, {"fusion_lon": 0.0, "name": "c1014e5824892e48239f4520be6064f0", "rental_uris": {"android": "https://dc.lft.to/lastmile_qr_scan", "ios": "https://dc.lft.to/lastmile_qr_scan"}, "lat": 38.926740333333335, "bike_id": "c1014e5824892e48239f4520be6064f0", "is_disabled": 0, "lon": -77.014876, "is_reserved": 0, "fusion_lat": 0.0, "type": "electric_scooter"}, {"fusion_lon": 0.0, "name": "02a073053d20e1e30fdb203b2050faa2", "rental_uris": {"android": "https://dc.lft.to/lastmile_qr_scan", "ios": "https://dc.lft.to/lastmile_qr_scan"}, "lat": 38.9356145, "bike_id": "02a073053d20e1e30fdb203b2050faa2", "is_disabled": 0, "lon": -76.9977375, "is_reserved": 0, "fusion_lat": 0.0, "type": "electric_scooter"}, {"fusion_lon": 0.0, "name": "46119e7be1821972f1a16d3435c9af29", "rental_uris": {"android": "https://dc.lft.to/lastmile_qr_scan", "ios": "https://dc.lft.to/lastmile_qr_scan"}, "lat": 38.91106683333334, "bike_id": "46119e7be1821972f1a16d3435c9af29", "is_disabled": 0, "lon": -77.04354833333333, "is_reserved": 0, "fusion_lat": 0.0, "type": "electric_scooter"}, {"fusion_lon": 0.0, "name": "3c8a5ddb95ae6bc08bf11fd561d24211", "rental_uris": {"android": "https://dc.lft.to/lastmile_qr_scan", "ios": "https://dc.lft.to/lastmile_qr_scan"}, "lat": 38.8837645, "bike_id": "3c8a5ddb95ae6bc08bf11fd561d24211", "is_disabled": 0, "lon": -77.01970416666667, "is_reserved": 0, "fusion_lat": 0.0, "type": "electric_scooter"}, {"fusion_lon": 0.0, "name": "8b972f7e7da04478d9c8dbe3dcc82c4d", "rental_uris": {"android": "https://dc.lft.to/lastmile_qr_scan", "ios": "https://dc.lft.to/lastmile_qr_scan"}, "lat": 38.99412483333333, "bike_id": "8b972f7e7da04478d9c8dbe3dcc82c4d", "is_disabled": 0, "lon": -77.01799166666666, "is_reserved": 0, "fusion_lat": 0.0, "type": "electric_bike"}, {"fusion_lon": 0.0, "name": "abd27d34e05001deeaefee691029b486", "rental_uris": {"android": "https://dc.lft.to/lastmile_qr_scan", "ios": "https://dc.lft.to/lastmile_qr_scan"}, "lat": 38.89191066666667, "bike_id": "abd27d34e05001deeaefee691029b486", "is_disabled": 0, "lon": -76.9882435, "is_reserved": 0, "fusion_lat": 0.0, "type": "electric_scooter"}, {"fusion_lon": 0.0, "name": "0c2d87199e4f29126528f3ac80f31626", "rental_uris": {"android": "https://dc.lft.to/lastmile_qr_scan", "ios": "https://dc.lft.to/lastmile_qr_scan"}, "lat": 38.925034, "bike_id": "0c2d87199e4f29126528f3ac80f31626", "is_disabled": 0, "lon": -77.02399216666667, "is_reserved": 0, "fusion_lat": 0.0, "type": "electric_scooter"}, {"fusion_lon": 0.0, "name": "5574df112360e164a9a30c8f3e2c4dbb", "rental_uris": {"android": "https://dc.lft.to/lastmile_qr_scan", "ios": "https://dc.lft.to/lastmile_qr_scan"}, "lat": 38.90743033333333, "bike_id": "5574df112360e164a9a30c8f3e2c4dbb", "is_disabled": 0, "lon": -77.01534916666667, "is_reserved": 0, "fusion_lat": 0.0, "type": "electric_scooter"}, {"fusion_lon": 0.0, "name": "9ab6ada8f1723a21528a8db8b8192309", "rental_uris": {"android": "https://dc.lft.to/lastmile_qr_scan", "ios": "https://dc.lft.to/lastmile_qr_scan"}, "lat": 38.838637, "bike_id": "9ab6ada8f1723a21528a8db8b8192309", "is_disabled": 0, "lon": -76.99536616666667, "is_reserved": 0, "fusion_lat": 0.0, "type": "electric_bike"}, {"fusion_lon": 0.0, "name": "88a20cafbc526d8bfd2329a9a2f9b433", "rental_uris": {"android": "https://dc.lft.to/lastmile_qr_scan", "ios": "https://dc.lft.to/lastmile_qr_scan"}, "lat": 38.90149133333333, "bike_id": "88a20cafbc526d8bfd2329a9a2f9b433", "is_disabled": 0, "lon": -77.033688, "is_reserved": 0, "fusion_lat": 0.0, "type": "electric_scooter"}, {"fusion_lon": 0.0, "name": "0f09b4c4f21b7b6fecb99ffa17bfb9d1", "rental_uris": {"android": "https://dc.lft.to/lastmile_qr_scan", "ios": "https://dc.lft.to/lastmile_qr_scan"}, "lat": 38.89694516666667, "bike_id": "0f09b4c4f21b7b6fecb99ffa17bfb9d1", "is_disabled": 0, "lon": -77.0127935, "is_reserved": 0, "fusion_lat": 0.0, "type": "electric_scooter"}, {"fusion_lon": 0.0, "name": "be5b468e4860095efda69bc710258076", "rental_uris": {"android": "https://dc.lft.to/lastmile_qr_scan", "ios": "https://dc.lft.to/lastmile_qr_scan"}, "lat": 38.944731833333336, "bike_id": "be5b468e4860095efda69bc710258076", "is_disabled": 0, "lon": -76.98688066666666, "is_reserved": 0, "fusion_lat": 0.0, "type": "electric_bike"}, {"fusion_lon": 0.0, "name": "0f612201dfc52fa8781f7713053b848b", "rental_uris": {"android": "https://dc.lft.to/lastmile_qr_scan", "ios": "https://dc.lft.to/lastmile_qr_scan"}, "lat": 38.9390895, "bike_id": "0f612201dfc52fa8781f7713053b848b", "is_disabled": 0, "lon": -77.06039716666666, "is_reserved": 0, "fusion_lat": 0.0, "type": "electric_scooter"}, {"fusion_lon": 0.0, "name": "5ffbd0581ef386b35b9854768220c2af", "rental_uris": {"android": "https://dc.lft.to/lastmile_qr_scan", "ios": "https://dc.lft.to/lastmile_qr_scan"}, "lat": 38.908911833333335, "bike_id": "5ffbd0581ef386b35b9854768220c2af", "is_disabled": 0, "lon": -77.072721, "is_reserved": 0, "fusion_lat": 0.0, "type": "electric_scooter"}, {"fusion_lon": 0.0, "name": "9329c19732906aaf0ede23157030d9cf", "rental_uris": {"android": "https://dc.lft.to/lastmile_qr_scan", "ios": "https://dc.lft.to/lastmile_qr_scan"}, "lat": 38.91558533333333, "bike_id": "9329c19732906aaf0ede23157030d9cf", "is_disabled": 0, "lon": -77.007229, "is_reserved": 0, "fusion_lat": 0.0, "type": "electric_scooter"}, {"fusion_lon": 0.0, "name": "23c68a671610a3b70f645fb343b8be44", "rental_uris": {"android": "https://dc.lft.to/lastmile_qr_scan", "ios": "https://dc.lft.to/lastmile_qr_scan"}, "lat": 38.927927, "bike_id": "23c68a671610a3b70f645fb343b8be44", "is_disabled": 0, "lon": -77.03083133333334, "is_reserved": 0, "fusion_lat": 0.0, "type": "electric_scooter"}, {"fusion_lon": 0.0, "name": "ba03855f5f16706f8129b1a2d1e0a369", "rental_uris": {"android": "https://dc.lft.to/lastmile_qr_scan", "ios": "https://dc.lft.to/lastmile_qr_scan"}, "lat": 38.90186716666667, "bike_id": "ba03855f5f16706f8129b1a2d1e0a369", "is_disabled": 0, "lon": -77.04628883333334, "is_reserved": 0, "fusion_lat": 0.0, "type": "electric_scooter"}, {"fusion_lon": 0.0, "name": "a9104796af171af12fea627856ee7baa", "rental_uris": {"android": "https://dc.lft.to/lastmile_qr_scan", "ios": "https://dc.lft.to/lastmile_qr_scan"}, "lat": 38.900435, "bike_id": "a9104796af171af12fea627856ee7baa", "is_disabled": 0, "lon": -77.04062183333333, "is_reserved": 0, "fusion_lat": 0.0, "type": "electric_scooter"}, {"fusion_lon": 0.0, "name": "877f67a6a27ccb9979f3e567f9730d64", "rental_uris": {"android": "https://dc.lft.to/lastmile_qr_scan", "ios": "https://dc.lft.to/lastmile_qr_scan"}, "lat": 38.92892966666667, "bike_id": "877f67a6a27ccb9979f3e567f9730d64", "is_disabled": 0, "lon": -77.03265983333333, "is_reserved": 0, "fusion_lat": 0.0, "type": "electric_scooter"}, {"fusion_lon": 0.0, "name": "cd94619dd841956cadb039dbe8f05fea", "rental_uris": {"android": "https://dc.lft.to/lastmile_qr_scan", "ios": "https://dc.lft.to/lastmile_qr_scan"}, "lat": 38.90737516666667, "bike_id": "cd94619dd841956cadb039dbe8f05fea", "is_disabled": 0, "lon": -77.013101, "is_reserved": 0, "fusion_lat": 0.0, "type": "electric_scooter"}, {"fusion_lon": 0.0, "name": "838120814aa463644448cd93505e19af", "rental_uris": {"android": "https://dc.lft.to/lastmile_qr_scan", "ios": "https://dc.lft.to/lastmile_qr_scan"}, "lat": 38.904111, "bike_id": "838120814aa463644448cd93505e19af", "is_disabled": 0, "lon": -77.04660883333334, "is_reserved": 0, "fusion_lat": 0.0, "type": "electric_scooter"}, {"fusion_lon": 0.0, "name": "4bb6d6b056859427bf960492b611c6c5", "rental_uris": {"android": "https://dc.lft.to/lastmile_qr_scan", "ios": "https://dc.lft.to/lastmile_qr_scan"}, "lat": 38.9047435, "bike_id": "4bb6d6b056859427bf960492b611c6c5", "is_disabled": 0, "lon": -77.048626, "is_reserved": 0, "fusion_lat": 0.0, "type": "electric_scooter"}, {"fusion_lon": 0.0, "name": "b45cab70cc8632da9f0d629e14f8cb90", "rental_uris": {"android": "https://dc.lft.to/lastmile_qr_scan", "ios": "https://dc.lft.to/lastmile_qr_scan"}, "lat": 38.87736116666667, "bike_id": "b45cab70cc8632da9f0d629e14f8cb90", "is_disabled": 0, "lon": -76.99485483333333, "is_reserved": 0, "fusion_lat": 0.0, "type": "electric_scooter"}, {"fusion_lon": 0.0, "name": "74559f50f57b626547460b06c0f7f487", "rental_uris": {"android": "https://dc.lft.to/lastmile_qr_scan", "ios": "https://dc.lft.to/lastmile_qr_scan"}, "lat": 38.9237515, "bike_id": "74559f50f57b626547460b06c0f7f487", "is_disabled": 0, "lon": -77.01956716666666, "is_reserved": 0, "fusion_lat": 0.0, "type": "electric_scooter"}, {"fusion_lon": 0.0, "name": "0cde67a7fa0a193a4a1863280ceb8c81", "rental_uris": {"android": "https://dc.lft.to/lastmile_qr_scan", "ios": "https://dc.lft.to/lastmile_qr_scan"}, "lat": 38.90056466666667, "bike_id": "0cde67a7fa0a193a4a1863280ceb8c81", "is_disabled": 0, "lon": -76.98487233333333, "is_reserved": 0, "fusion_lat": 0.0, "type": "electric_scooter"}, {"fusion_lon": 0.0, "name": "91792b2ec45afb4ccfd62fe63e0eb120", "rental_uris": {"android": "https://dc.lft.to/lastmile_qr_scan", "ios": "https://dc.lft.to/lastmile_qr_scan"}, "lat": 38.891754166666665, "bike_id": "91792b2ec45afb4ccfd62fe63e0eb120", "is_disabled": 0, "lon": -76.94255933333334, "is_reserved": 0, "fusion_lat": 0.0, "type": "electric_scooter"}, {"fusion_lon": 0.0, "name": "04adf6f05e9903a6d3e163aee0e289cb", "rental_uris": {"android": "https://dc.lft.to/lastmile_qr_scan", "ios": "https://dc.lft.to/lastmile_qr_scan"}, "lat": 38.9352585, "bike_id": "04adf6f05e9903a6d3e163aee0e289cb", "is_disabled": 0, "lon": -77.03260233333333, "is_reserved": 0, "fusion_lat": 0.0, "type": "electric_scooter"}, {"fusion_lon": 0.0, "name": "7c58185b9b8d26fb3902fab9d0543875", "rental_uris": {"android": "https://dc.lft.to/lastmile_qr_scan", "ios": "https://dc.lft.to/lastmile_qr_scan"}, "lat": 38.89729483333333, "bike_id": "7c58185b9b8d26fb3902fab9d0543875", "is_disabled": 0, "lon": -77.0266215, "is_reserved": 0, "fusion_lat": 0.0, "type": "electric_scooter"}, {"fusion_lon": 0.0, "name": "b9783c75d3edb5356df6eb9a374b476f", "rental_uris": {"android": "https://dc.lft.to/lastmile_qr_scan", "ios": "https://dc.lft.to/lastmile_qr_scan"}, "lat": 38.892267, "bike_id": "b9783c75d3edb5356df6eb9a374b476f", "is_disabled": 0, "lon": -77.01725066666667, "is_reserved": 0, "fusion_lat": 0.0, "type": "electric_scooter"}, {"fusion_lon": 0.0, "name": "ded7f4a7808f19e7c9caa08d45b65856", "rental_uris": {"android": "https://dc.lft.to/lastmile_qr_scan", "ios": "https://dc.lft.to/lastmile_qr_scan"}, "lat": 38.8393525, "bike_id": "ded7f4a7808f19e7c9caa08d45b65856", "is_disabled": 0, "lon": -77.07905666666667, "is_reserved": 0, "fusion_lat": 0.0, "type": "electric_bike"}, {"fusion_lon": 0.0, "name": "027fb9a8c4146e66608714cab1591cb1", "rental_uris": {"android": "https://dc.lft.to/lastmile_qr_scan", "ios": "https://dc.lft.to/lastmile_qr_scan"}, "lat": 38.88986383333334, "bike_id": "027fb9a8c4146e66608714cab1591cb1", "is_disabled": 0, "lon": -77.00318933333334, "is_reserved": 0, "fusion_lat": 0.0, "type": "electric_scooter"}, {"fusion_lon": 0.0, "name": "b89d821a8af3fb9bcab5a3016f5a2cdf", "rental_uris": {"android": "https://dc.lft.to/lastmile_qr_scan", "ios": "https://dc.lft.to/lastmile_qr_scan"}, "lat": 38.926368, "bike_id": "b89d821a8af3fb9bcab5a3016f5a2cdf", "is_disabled": 0, "lon": -77.037136, "is_reserved": 0, "fusion_lat": 0.0, "type": "electric_scooter"}, {"fusion_lon": 0.0, "name": "5066e4184234adc4ddce8fe394964755", "rental_uris": {"android": "https://dc.lft.to/lastmile_qr_scan", "ios": "https://dc.lft.to/lastmile_qr_scan"}, "lat": 38.89100083333334, "bike_id": "5066e4184234adc4ddce8fe394964755", "is_disabled": 0, "lon": -77.00208616666667, "is_reserved": 0, "fusion_lat": 0.0, "type": "electric_scooter"}, {"fusion_lon": 0.0, "name": "31a2ecb5bcb1e9eaef46222c10e3b03f", "rental_uris": {"android": "https://dc.lft.to/lastmile_qr_scan", "ios": "https://dc.lft.to/lastmile_qr_scan"}, "lat": 38.903416666666665, "bike_id": "31a2ecb5bcb1e9eaef46222c10e3b03f", "is_disabled": 0, "lon": -76.9761125, "is_reserved": 0, "fusion_lat": 0.0, "type": "electric_scooter"}, {"fusion_lon": 0.0, "name": "67e3c605b108b789a1325fdd7ce311e8", "rental_uris": {"android": "https://dc.lft.to/lastmile_qr_scan", "ios": "https://dc.lft.to/lastmile_qr_scan"}, "lat": 38.92344466666667, "bike_id": "67e3c605b108b789a1325fdd7ce311e8", "is_disabled": 0, "lon": -77.05091366666667, "is_reserved": 0, "fusion_lat": 0.0, "type": "electric_scooter"}, {"fusion_lon": 0.0, "name": "e2b13341eeaede176fef870686af6abb", "rental_uris": {"android": "https://dc.lft.to/lastmile_qr_scan", "ios": "https://dc.lft.to/lastmile_qr_scan"}, "lat": 38.83584883333333, "bike_id": "e2b13341eeaede176fef870686af6abb", "is_disabled": 0, "lon": -76.99029166666666, "is_reserved": 0, "fusion_lat": 0.0, "type": "electric_bike"}, {"fusion_lon": 0.0, "name": "1afa18adfc985be59311c000581332fd", "rental_uris": {"android": "https://dc.lft.to/lastmile_qr_scan", "ios": "https://dc.lft.to/lastmile_qr_scan"}, "lat": 38.893645, "bike_id": "1afa18adfc985be59311c000581332fd", "is_disabled": 0, "lon": -77.00332083333333, "is_reserved": 0, "fusion_lat": 0.0, "type": "electric_scooter"}, {"fusion_lon": 0.0, "name": "c518498754ee6399527ab4183360c956", "rental_uris": {"android": "https://dc.lft.to/lastmile_qr_scan", "ios": "https://dc.lft.to/lastmile_qr_scan"}, "lat": 38.918937, "bike_id": "c518498754ee6399527ab4183360c956", "is_disabled": 0, "lon": -77.10170616666667, "is_reserved": 0, "fusion_lat": 0.0, "type": "electric_bike"}, {"fusion_lon": 0.0, "name": "8fb4555db43077b076efc6e6582de5ed", "rental_uris": {"android": "https://dc.lft.to/lastmile_qr_scan", "ios": "https://dc.lft.to/lastmile_qr_scan"}, "lat": 38.92418516666667, "bike_id": "8fb4555db43077b076efc6e6582de5ed", "is_disabled": 0, "lon": -77.0195065, "is_reserved": 0, "fusion_lat": 0.0, "type": "electric_scooter"}, {"fusion_lon": 0.0, "name": "fb424688f87592f6e507dc96a329a009", "rental_uris": {"android": "https://dc.lft.to/lastmile_qr_scan", "ios": "https://dc.lft.to/lastmile_qr_scan"}, "lat": 38.916172833333334, "bike_id": "fb424688f87592f6e507dc96a329a009", "is_disabled": 0, "lon": -77.046268, "is_reserved": 0, "fusion_lat": 0.0, "type": "electric_scooter"}, {"fusion_lon": 0.0, "name": "cf087becec4cfcabbc0f8724c16ced48", "rental_uris": {"android": "https://dc.lft.to/lastmile_qr_scan", "ios": "https://dc.lft.to/lastmile_qr_scan"}, "lat": 38.952638, "bike_id": "cf087becec4cfcabbc0f8724c16ced48", "is_disabled": 0, "lon": -77.00179933333334, "is_reserved": 0, "fusion_lat": 0.0, "type": "electric_scooter"}, {"fusion_lon": 0.0, "name": "965303fc2ac653617b0fdc7e9bb86f53", "rental_uris": {"android": "https://dc.lft.to/lastmile_qr_scan", "ios": "https://dc.lft.to/lastmile_qr_scan"}, "lat": 38.89995433333333, "bike_id": "965303fc2ac653617b0fdc7e9bb86f53", "is_disabled": 0, "lon": -77.02721733333334, "is_reserved": 0, "fusion_lat": 0.0, "type": "electric_scooter"}, {"fusion_lon": 0.0, "name": "f14d10478b04b6fbd63166199e3791e0", "rental_uris": {"android": "https://dc.lft.to/lastmile_qr_scan", "ios": "https://dc.lft.to/lastmile_qr_scan"}, "lat": 38.964015, "bike_id": "f14d10478b04b6fbd63166199e3791e0", "is_disabled": 0, "lon": -77.0258455, "is_reserved": 0, "fusion_lat": 0.0, "type": "electric_scooter"}, {"fusion_lon": 0.0, "name": "8228e0ad93650c4377937ab2d5dc49ad", "rental_uris": {"android": "https://dc.lft.to/lastmile_qr_scan", "ios": "https://dc.lft.to/lastmile_qr_scan"}, "lat": 38.9306005, "bike_id": "8228e0ad93650c4377937ab2d5dc49ad", "is_disabled": 0, "lon": -77.02788316666667, "is_reserved": 0, "fusion_lat": 0.0, "type": "electric_scooter"}, {"fusion_lon": 0.0, "name": "28c5b4c90b948b881fe3f760f6085ec5", "rental_uris": {"android": "https://dc.lft.to/lastmile_qr_scan", "ios": "https://dc.lft.to/lastmile_qr_scan"}, "lat": 38.921462, "bike_id": "28c5b4c90b948b881fe3f760f6085ec5", "is_disabled": 0, "lon": -77.03531, "is_reserved": 0, "fusion_lat": 0.0, "type": "electric_scooter"}, {"fusion_lon": 0.0, "name": "d8d51d44885c8715e0c53031d967001f", "rental_uris": {"android": "https://dc.lft.to/lastmile_qr_scan", "ios": "https://dc.lft.to/lastmile_qr_scan"}, "lat": 38.91269883333333, "bike_id": "d8d51d44885c8715e0c53031d967001f", "is_disabled": 0, "lon": -77.03341383333333, "is_reserved": 0, "fusion_lat": 0.0, "type": "electric_scooter"}, {"fusion_lon": 0.0, "name": "e65f2833885353620a5f50ee54cf2371", "rental_uris": {"android": "https://dc.lft.to/lastmile_qr_scan", "ios": "https://dc.lft.to/lastmile_qr_scan"}, "lat": 38.922147833333334, "bike_id": "e65f2833885353620a5f50ee54cf2371", "is_disabled": 0, "lon": -77.02417866666667, "is_reserved": 0, "fusion_lat": 0.0, "type": "electric_scooter"}, {"fusion_lon": 0.0, "name": "2f078ab693d0484b83fc9378bf72cc04", "rental_uris": {"android": "https://dc.lft.to/lastmile_qr_scan", "ios": "https://dc.lft.to/lastmile_qr_scan"}, "lat": 38.88509883333333, "bike_id": "2f078ab693d0484b83fc9378bf72cc04", "is_disabled": 0, "lon": -77.01117666666667, "is_reserved": 0, "fusion_lat": 0.0, "type": "electric_scooter"}, {"fusion_lon": 0.0, "name": "be3eeefc367ccf1e924a069c790c444b", "rental_uris": {"android": "https://dc.lft.to/lastmile_qr_scan", "ios": "https://dc.lft.to/lastmile_qr_scan"}, "lat": 38.901293833333334, "bike_id": "be3eeefc367ccf1e924a069c790c444b", "is_disabled": 0, "lon": -77.03190516666666, "is_reserved": 0, "fusion_lat": 0.0, "type": "electric_scooter"}, {"fusion_lon": 0.0, "name": "d678305ed97eef1ec2461e56edf0733e", "rental_uris": {"android": "https://dc.lft.to/lastmile_qr_scan", "ios": "https://dc.lft.to/lastmile_qr_scan"}, "lat": 38.89354933333333, "bike_id": "d678305ed97eef1ec2461e56edf0733e", "is_disabled": 0, "lon": -77.003343, "is_reserved": 0, "fusion_lat": 0.0, "type": "electric_scooter"}, {"fusion_lon": 0.0, "name": "b8809334d41875f56549f5a261458731", "rental_uris": {"android": "https://dc.lft.to/lastmile_qr_scan", "ios": "https://dc.lft.to/lastmile_qr_scan"}, "lat": 38.895923333333336, "bike_id": "b8809334d41875f56549f5a261458731", "is_disabled": 0, "lon": -77.04807883333334, "is_reserved": 0, "fusion_lat": 0.0, "type": "electric_scooter"}, {"fusion_lon": 0.0, "name": "ad80c34cb454d5efb9e02d730d050de4", "rental_uris": {"android": "https://dc.lft.to/lastmile_qr_scan", "ios": "https://dc.lft.to/lastmile_qr_scan"}, "lat": 38.92361366666667, "bike_id": "ad80c34cb454d5efb9e02d730d050de4", "is_disabled": 0, "lon": -77.05048183333334, "is_reserved": 0, "fusion_lat": 0.0, "type": "electric_scooter"}, {"fusion_lon": 0.0, "name": "74b7c857f712cc71aaae99214ad801f7", "rental_uris": {"android": "https://dc.lft.to/lastmile_qr_scan", "ios": "https://dc.lft.to/lastmile_qr_scan"}, "lat": 38.90034283333333, "bike_id": "74b7c857f712cc71aaae99214ad801f7", "is_disabled": 0, "lon": -77.04684233333333, "is_reserved": 0, "fusion_lat": 0.0, "type": "electric_scooter"}, {"fusion_lon": 0.0, "name": "72a854004ff27d53bbcbb11e1800fbdc", "rental_uris": {"android": "https://dc.lft.to/lastmile_qr_scan", "ios": "https://dc.lft.to/lastmile_qr_scan"}, "lat": 38.924332, "bike_id": "72a854004ff27d53bbcbb11e1800fbdc", "is_disabled": 0, "lon": -77.05209783333333, "is_reserved": 0, "fusion_lat": 0.0, "type": "electric_scooter"}, {"fusion_lon": 0.0, "name": "32e328353afc9b2d177fbac0d8f10801", "rental_uris": {"android": "https://dc.lft.to/lastmile_qr_scan", "ios": "https://dc.lft.to/lastmile_qr_scan"}, "lat": 38.926658333333336, "bike_id": "32e328353afc9b2d177fbac0d8f10801", "is_disabled": 0, "lon": -77.02992483333334, "is_reserved": 0, "fusion_lat": 0.0, "type": "electric_scooter"}, {"fusion_lon": 0.0, "name": "b5bc33d8cc84631206654a96dfa53ea5", "rental_uris": {"android": "https://dc.lft.to/lastmile_qr_scan", "ios": "https://dc.lft.to/lastmile_qr_scan"}, "lat": 38.949268000000004, "bike_id": "b5bc33d8cc84631206654a96dfa53ea5", "is_disabled": 0, "lon": -76.959125, "is_reserved": 0, "fusion_lat": 0.0, "type": "electric_bike"}, {"fusion_lon": 0.0, "name": "24a6484e66f263b81bf693dcfb1ea0df", "rental_uris": {"android": "https://dc.lft.to/lastmile_qr_scan", "ios": "https://dc.lft.to/lastmile_qr_scan"}, "lat": 38.90581233333333, "bike_id": "24a6484e66f263b81bf693dcfb1ea0df", "is_disabled": 0, "lon": -77.03477366666667, "is_reserved": 0, "fusion_lat": 0.0, "type": "electric_scooter"}, {"fusion_lon": 0.0, "name": "0646afed56d4fbcac114efd16f997133", "rental_uris": {"android": "https://dc.lft.to/lastmile_qr_scan", "ios": "https://dc.lft.to/lastmile_qr_scan"}, "lat": 38.915581833333334, "bike_id": "0646afed56d4fbcac114efd16f997133", "is_disabled": 0, "lon": -77.03660966666666, "is_reserved": 0, "fusion_lat": 0.0, "type": "electric_scooter"}, {"fusion_lon": 0.0, "name": "7df00d8870a80b4a0f648cda70fe4ae7", "rental_uris": {"android": "https://dc.lft.to/lastmile_qr_scan", "ios": "https://dc.lft.to/lastmile_qr_scan"}, "lat": 38.901733, "bike_id": "7df00d8870a80b4a0f648cda70fe4ae7", "is_disabled": 0, "lon": -77.02177516666667, "is_reserved": 0, "fusion_lat": 0.0, "type": "electric_scooter"}, {"fusion_lon": 0.0, "name": "132739dee33e9809918727d2aab8424c", "rental_uris": {"android": "https://dc.lft.to/lastmile_qr_scan", "ios": "https://dc.lft.to/lastmile_qr_scan"}, "lat": 38.9262005, "bike_id": "132739dee33e9809918727d2aab8424c", "is_disabled": 0, "lon": -77.0058565, "is_reserved": 0, "fusion_lat": 0.0, "type": "electric_bike"}, {"fusion_lon": 0.0, "name": "6afb0cabbb1f19e372aaa53cf7b16fb4", "rental_uris": {"android": "https://dc.lft.to/lastmile_qr_scan", "ios": "https://dc.lft.to/lastmile_qr_scan"}, "lat": 38.90204883333333, "bike_id": "6afb0cabbb1f19e372aaa53cf7b16fb4", "is_disabled": 0, "lon": -77.06119833333334, "is_reserved": 0, "fusion_lat": 0.0, "type": "electric_scooter"}, {"fusion_lon": 0.0, "name": "3ac1e19184b8bfeccfc1fbca719b882a", "rental_uris": {"android": "https://dc.lft.to/lastmile_qr_scan", "ios": "https://dc.lft.to/lastmile_qr_scan"}, "lat": 38.95629116666667, "bike_id": "3ac1e19184b8bfeccfc1fbca719b882a", "is_disabled": 0, "lon": -77.02955733333333, "is_reserved": 0, "fusion_lat": 0.0, "type": "electric_scooter"}, {"fusion_lon": 0.0, "name": "fb580868697f40bdff212a3a67e527b9", "rental_uris": {"android": "https://dc.lft.to/lastmile_qr_scan", "ios": "https://dc.lft.to/lastmile_qr_scan"}, "lat": 38.873127333333336, "bike_id": "fb580868697f40bdff212a3a67e527b9", "is_disabled": 0, "lon": -77.01391266666667, "is_reserved": 0, "fusion_lat": 0.0, "type": "electric_scooter"}, {"fusion_lon": 0.0, "name": "56619b1c82d502c527303b0620309262", "rental_uris": {"android": "https://dc.lft.to/lastmile_qr_scan", "ios": "https://dc.lft.to/lastmile_qr_scan"}, "lat": 38.911174, "bike_id": "56619b1c82d502c527303b0620309262", "is_disabled": 0, "lon": -77.043652, "is_reserved": 0, "fusion_lat": 0.0, "type": "electric_scooter"}, {"fusion_lon": 0.0, "name": "360387c21a9dccbe65328f5f9f4d9137", "rental_uris": {"android": "https://dc.lft.to/lastmile_qr_scan", "ios": "https://dc.lft.to/lastmile_qr_scan"}, "lat": 38.8936315, "bike_id": "360387c21a9dccbe65328f5f9f4d9137", "is_disabled": 0, "lon": -76.98463016666666, "is_reserved": 0, "fusion_lat": 0.0, "type": "electric_scooter"}, {"fusion_lon": 0.0, "name": "1763e47a6d43755c0a8ff2b52e07435c", "rental_uris": {"android": "https://dc.lft.to/lastmile_qr_scan", "ios": "https://dc.lft.to/lastmile_qr_scan"}, "lat": 38.89616916666667, "bike_id": "1763e47a6d43755c0a8ff2b52e07435c", "is_disabled": 0, "lon": -76.92975533333333, "is_reserved": 0, "fusion_lat": 0.0, "type": "electric_scooter"}, {"fusion_lon": 0.0, "name": "77f438e50898d60d3e729ffb380aa866", "rental_uris": {"android": "https://dc.lft.to/lastmile_qr_scan", "ios": "https://dc.lft.to/lastmile_qr_scan"}, "lat": 38.88075933333333, "bike_id": "77f438e50898d60d3e729ffb380aa866", "is_disabled": 0, "lon": -77.03721116666667, "is_reserved": 0, "fusion_lat": 0.0, "type": "electric_scooter"}, {"fusion_lon": 0.0, "name": "643b0c9fb9c708126caa2c8172dbfe10", "rental_uris": {"android": "https://dc.lft.to/lastmile_qr_scan", "ios": "https://dc.lft.to/lastmile_qr_scan"}, "lat": 38.921108, "bike_id": "643b0c9fb9c708126caa2c8172dbfe10", "is_disabled": 0, "lon": -77.01771783333334, "is_reserved": 0, "fusion_lat": 0.0, "type": "electric_scooter"}, {"fusion_lon": 0.0, "name": "c09bb89d6cb9fc5d385f6390c64d289f", "rental_uris": {"android": "https://dc.lft.to/lastmile_qr_scan", "ios": "https://dc.lft.to/lastmile_qr_scan"}, "lat": 38.941463, "bike_id": "c09bb89d6cb9fc5d385f6390c64d289f", "is_disabled": 0, "lon": -77.00199, "is_reserved": 0, "fusion_lat": 0.0, "type": "electric_bike"}, {"fusion_lon": 0.0, "name": "7ff32dc5c0d921be7e45eb57c71abb6a", "rental_uris": {"android": "https://dc.lft.to/lastmile_qr_scan", "ios": "https://dc.lft.to/lastmile_qr_scan"}, "lat": 38.895557, "bike_id": "7ff32dc5c0d921be7e45eb57c71abb6a", "is_disabled": 0, "lon": -77.12736383333333, "is_reserved": 0, "fusion_lat": 0.0, "type": "electric_bike"}, {"fusion_lon": 0.0, "name": "49db0fa62e7cc329b41bd3d1c4675b2a", "rental_uris": {"android": "https://dc.lft.to/lastmile_qr_scan", "ios": "https://dc.lft.to/lastmile_qr_scan"}, "lat": 38.8768975, "bike_id": "49db0fa62e7cc329b41bd3d1c4675b2a", "is_disabled": 0, "lon": -77.00073083333334, "is_reserved": 0, "fusion_lat": 0.0, "type": "electric_scooter"}, {"fusion_lon": 0.0, "name": "590d00d506b00fbba8d9d143578beb5d", "rental_uris": {"android": "https://dc.lft.to/lastmile_qr_scan", "ios": "https://dc.lft.to/lastmile_qr_scan"}, "lat": 38.898487333333335, "bike_id": "590d00d506b00fbba8d9d143578beb5d", "is_disabled": 0, "lon": -77.05398266666667, "is_reserved": 0, "fusion_lat": 0.0, "type": "electric_scooter"}, {"fusion_lon": 0.0, "name": "8071432cb0a0496663735abfe17d8bf2", "rental_uris": {"android": "https://dc.lft.to/lastmile_qr_scan", "ios": "https://dc.lft.to/lastmile_qr_scan"}, "lat": 38.9508645, "bike_id": "8071432cb0a0496663735abfe17d8bf2", "is_disabled": 0, "lon": -76.99795083333333, "is_reserved": 0, "fusion_lat": 0.0, "type": "electric_bike"}, {"fusion_lon": 0.0, "name": "3720c7f09376bfcf631cc2509b2b5d2b", "rental_uris": {"android": "https://dc.lft.to/lastmile_qr_scan", "ios": "https://dc.lft.to/lastmile_qr_scan"}, "lat": 38.884990333333334, "bike_id": "3720c7f09376bfcf631cc2509b2b5d2b", "is_disabled": 0, "lon": -77.0173395, "is_reserved": 0, "fusion_lat": 0.0, "type": "electric_scooter"}, {"fusion_lon": 0.0, "name": "f7dd309ed4448b8cbb989e571c4bf69a", "rental_uris": {"android": "https://dc.lft.to/lastmile_qr_scan", "ios": "https://dc.lft.to/lastmile_qr_scan"}, "lat": 38.934115166666665, "bike_id": "f7dd309ed4448b8cbb989e571c4bf69a", "is_disabled": 0, "lon": -77.038348, "is_reserved": 0, "fusion_lat": 0.0, "type": "electric_scooter"}, {"fusion_lon": 0.0, "name": "4b2b70b1b39ecbc79d3db96b04e0a710", "rental_uris": {"android": "https://dc.lft.to/lastmile_qr_scan", "ios": "https://dc.lft.to/lastmile_qr_scan"}, "lat": 38.934641166666665, "bike_id": "4b2b70b1b39ecbc79d3db96b04e0a710", "is_disabled": 0, "lon": -77.05809083333334, "is_reserved": 0, "fusion_lat": 0.0, "type": "electric_scooter"}, {"fusion_lon": 0.0, "name": "620b7c924bfad28c2c9413fe410e58cd", "rental_uris": {"android": "https://dc.lft.to/lastmile_qr_scan", "ios": "https://dc.lft.to/lastmile_qr_scan"}, "lat": 38.92602, "bike_id": "620b7c924bfad28c2c9413fe410e58cd", "is_disabled": 0, "lon": -77.02159383333333, "is_reserved": 0, "fusion_lat": 0.0, "type": "electric_scooter"}, {"fusion_lon": 0.0, "name": "cbb6fa448340d3bfd0ccee21c5639134", "rental_uris": {"android": "https://dc.lft.to/lastmile_qr_scan", "ios": "https://dc.lft.to/lastmile_qr_scan"}, "lat": 38.90366483333333, "bike_id": "cbb6fa448340d3bfd0ccee21c5639134", "is_disabled": 0, "lon": -77.03233166666666, "is_reserved": 0, "fusion_lat": 0.0, "type": "electric_scooter"}, {"fusion_lon": 0.0, "name": "8a8c2b165ca466a3276561a648bd62f4", "rental_uris": {"android": "https://dc.lft.to/lastmile_qr_scan", "ios": "https://dc.lft.to/lastmile_qr_scan"}, "lat": 38.92366166666667, "bike_id": "8a8c2b165ca466a3276561a648bd62f4", "is_disabled": 0, "lon": -77.0191805, "is_reserved": 0, "fusion_lat": 0.0, "type": "electric_scooter"}, {"fusion_lon": 0.0, "name": "50014000d41371f1a1c83b03f9e1c861", "rental_uris": {"android": "https://dc.lft.to/lastmile_qr_scan", "ios": "https://dc.lft.to/lastmile_qr_scan"}, "lat": 38.905637666666664, "bike_id": "50014000d41371f1a1c83b03f9e1c861", "is_disabled": 0, "lon": -77.02802633333333, "is_reserved": 0, "fusion_lat": 0.0, "type": "electric_scooter"}, {"fusion_lon": 0.0, "name": "fb5a7fbf0705f1013c2b70f3b0ad58c6", "rental_uris": {"android": "https://dc.lft.to/lastmile_qr_scan", "ios": "https://dc.lft.to/lastmile_qr_scan"}, "lat": 38.94978833333333, "bike_id": "fb5a7fbf0705f1013c2b70f3b0ad58c6", "is_disabled": 0, "lon": -77.02019883333334, "is_reserved": 0, "fusion_lat": 0.0, "type": "electric_scooter"}, {"fusion_lon": 0.0, "name": "0b4dd38673f081150631e0b43da42845", "rental_uris": {"android": "https://dc.lft.to/lastmile_qr_scan", "ios": "https://dc.lft.to/lastmile_qr_scan"}, "lat": 38.905073333333334, "bike_id": "0b4dd38673f081150631e0b43da42845", "is_disabled": 0, "lon": -76.98487983333334, "is_reserved": 0, "fusion_lat": 0.0, "type": "electric_scooter"}, {"fusion_lon": 0.0, "name": "cc180a5bcf3dd960daac95114c600a3b", "rental_uris": {"android": "https://dc.lft.to/lastmile_qr_scan", "ios": "https://dc.lft.to/lastmile_qr_scan"}, "lat": 38.923451, "bike_id": "cc180a5bcf3dd960daac95114c600a3b", "is_disabled": 0, "lon": -77.01898366666667, "is_reserved": 0, "fusion_lat": 0.0, "type": "electric_scooter"}, {"fusion_lon": 0.0, "name": "ccdbfcb682cdc5626276442a3b8c8721", "rental_uris": {"android": "https://dc.lft.to/lastmile_qr_scan", "ios": "https://dc.lft.to/lastmile_qr_scan"}, "lat": 38.883720333333336, "bike_id": "ccdbfcb682cdc5626276442a3b8c8721", "is_disabled": 0, "lon": -76.92417833333333, "is_reserved": 0, "fusion_lat": 0.0, "type": "electric_scooter"}, {"fusion_lon": 0.0, "name": "cdb86bd9cd059af697b3f7b4a937c1da", "rental_uris": {"android": "https://dc.lft.to/lastmile_qr_scan", "ios": "https://dc.lft.to/lastmile_qr_scan"}, "lat": 38.8923115, "bike_id": "cdb86bd9cd059af697b3f7b4a937c1da", "is_disabled": 0, "lon": -77.05004116666667, "is_reserved": 0, "fusion_lat": 0.0, "type": "electric_scooter"}, {"fusion_lon": 0.0, "name": "0d43aa049948e91d63d48bede9b655c9", "rental_uris": {"android": "https://dc.lft.to/lastmile_qr_scan", "ios": "https://dc.lft.to/lastmile_qr_scan"}, "lat": 38.92236483333333, "bike_id": "0d43aa049948e91d63d48bede9b655c9", "is_disabled": 0, "lon": -77.021503, "is_reserved": 0, "fusion_lat": 0.0, "type": "electric_scooter"}, {"fusion_lon": 0.0, "name": "e5426d2799212d594fb0564a98af174b", "rental_uris": {"android": "https://dc.lft.to/lastmile_qr_scan", "ios": "https://dc.lft.to/lastmile_qr_scan"}, "lat": 38.9342785, "bike_id": "e5426d2799212d594fb0564a98af174b", "is_disabled": 0, "lon": -77.04006466666667, "is_reserved": 0, "fusion_lat": 0.0, "type": "electric_scooter"}, {"fusion_lon": 0.0, "name": "c5f28ad183d1ff52be34dc587cd10d90", "rental_uris": {"android": "https://dc.lft.to/lastmile_qr_scan", "ios": "https://dc.lft.to/lastmile_qr_scan"}, "lat": 38.884125, "bike_id": "c5f28ad183d1ff52be34dc587cd10d90", "is_disabled": 0, "lon": -77.0178915, "is_reserved": 0, "fusion_lat": 0.0, "type": "electric_scooter"}, {"fusion_lon": 0.0, "name": "664ec062ec80e4112881c5cd46360b82", "rental_uris": {"android": "https://dc.lft.to/lastmile_qr_scan", "ios": "https://dc.lft.to/lastmile_qr_scan"}, "lat": 38.91117216666667, "bike_id": "664ec062ec80e4112881c5cd46360b82", "is_disabled": 0, "lon": -77.04234866666667, "is_reserved": 0, "fusion_lat": 0.0, "type": "electric_scooter"}, {"fusion_lon": 0.0, "name": "fea17d435ea224356b306c5048d4a5a4", "rental_uris": {"android": "https://dc.lft.to/lastmile_qr_scan", "ios": "https://dc.lft.to/lastmile_qr_scan"}, "lat": 38.920530666666664, "bike_id": "fea17d435ea224356b306c5048d4a5a4", "is_disabled": 0, "lon": -77.041923, "is_reserved": 0, "fusion_lat": 0.0, "type": "electric_scooter"}, {"fusion_lon": 0.0, "name": "4fb2c4bb5b194e16c709699636425b25", "rental_uris": {"android": "https://dc.lft.to/lastmile_qr_scan", "ios": "https://dc.lft.to/lastmile_qr_scan"}, "lat": 38.906026833333335, "bike_id": "4fb2c4bb5b194e16c709699636425b25", "is_disabled": 0, "lon": -77.04504866666667, "is_reserved": 0, "fusion_lat": 0.0, "type": "electric_scooter"}, {"fusion_lon": 0.0, "name": "a03410dfae141484de10ee86b6207a5f", "rental_uris": {"android": "https://dc.lft.to/lastmile_qr_scan", "ios": "https://dc.lft.to/lastmile_qr_scan"}, "lat": 38.899022333333335, "bike_id": "a03410dfae141484de10ee86b6207a5f", "is_disabled": 0, "lon": -77.0329355, "is_reserved": 0, "fusion_lat": 0.0, "type": "electric_scooter"}, {"fusion_lon": 0.0, "name": "de42d100d952ed4ebaffd01dab569634", "rental_uris": {"android": "https://dc.lft.to/lastmile_qr_scan", "ios": "https://dc.lft.to/lastmile_qr_scan"}, "lat": 38.908349666666666, "bike_id": "de42d100d952ed4ebaffd01dab569634", "is_disabled": 0, "lon": -77.07305483333333, "is_reserved": 0, "fusion_lat": 0.0, "type": "electric_scooter"}, {"fusion_lon": 0.0, "name": "811453182455b9a7ebc2b598c4f6d06a", "rental_uris": {"android": "https://dc.lft.to/lastmile_qr_scan", "ios": "https://dc.lft.to/lastmile_qr_scan"}, "lat": 38.92358083333333, "bike_id": "811453182455b9a7ebc2b598c4f6d06a", "is_disabled": 0, "lon": -77.05051516666667, "is_reserved": 0, "fusion_lat": 0.0, "type": "electric_scooter"}, {"fusion_lon": 0.0, "name": "f9d8a47bc657712dc3ce5adb32546df7", "rental_uris": {"android": "https://dc.lft.to/lastmile_qr_scan", "ios": "https://dc.lft.to/lastmile_qr_scan"}, "lat": 38.919096, "bike_id": "f9d8a47bc657712dc3ce5adb32546df7", "is_disabled": 0, "lon": -77.02140233333333, "is_reserved": 0, "fusion_lat": 0.0, "type": "electric_scooter"}, {"fusion_lon": 0.0, "name": "c836a83234594fce3f725a7711ef1910", "rental_uris": {"android": "https://dc.lft.to/lastmile_qr_scan", "ios": "https://dc.lft.to/lastmile_qr_scan"}, "lat": 38.880538333333334, "bike_id": "c836a83234594fce3f725a7711ef1910", "is_disabled": 0, "lon": -77.0117365, "is_reserved": 0, "fusion_lat": 0.0, "type": "electric_scooter"}, {"fusion_lon": 0.0, "name": "3478dc2c8f9d1ae48f93d0e458381db0", "rental_uris": {"android": "https://dc.lft.to/lastmile_qr_scan", "ios": "https://dc.lft.to/lastmile_qr_scan"}, "lat": 38.90566966666667, "bike_id": "3478dc2c8f9d1ae48f93d0e458381db0", "is_disabled": 0, "lon": -77.034754, "is_reserved": 0, "fusion_lat": 0.0, "type": "electric_scooter"}, {"fusion_lon": 0.0, "name": "d6000c87600612134c73f87df2cc2810", "rental_uris": {"android": "https://dc.lft.to/lastmile_qr_scan", "ios": "https://dc.lft.to/lastmile_qr_scan"}, "lat": 38.90035833333334, "bike_id": "d6000c87600612134c73f87df2cc2810", "is_disabled": 0, "lon": -77.011944, "is_reserved": 0, "fusion_lat": 0.0, "type": "electric_scooter"}, {"fusion_lon": 0.0, "name": "a83818525764ec3e6ad9067f6dff4eb2", "rental_uris": {"android": "https://dc.lft.to/lastmile_qr_scan", "ios": "https://dc.lft.to/lastmile_qr_scan"}, "lat": 38.858124333333336, "bike_id": "a83818525764ec3e6ad9067f6dff4eb2", "is_disabled": 0, "lon": -76.98905433333333, "is_reserved": 0, "fusion_lat": 0.0, "type": "electric_scooter"}, {"fusion_lon": 0.0, "name": "85a0f69afda832db095da9f4d3f326dc", "rental_uris": {"android": "https://dc.lft.to/lastmile_qr_scan", "ios": "https://dc.lft.to/lastmile_qr_scan"}, "lat": 38.9061585, "bike_id": "85a0f69afda832db095da9f4d3f326dc", "is_disabled": 0, "lon": -77.12896033333334, "is_reserved": 0, "fusion_lat": 0.0, "type": "electric_bike"}, {"fusion_lon": 0.0, "name": "ecec51845b88f33b68e18b05ede3a770", "rental_uris": {"android": "https://dc.lft.to/lastmile_qr_scan", "ios": "https://dc.lft.to/lastmile_qr_scan"}, "lat": 38.9083955, "bike_id": "ecec51845b88f33b68e18b05ede3a770", "is_disabled": 0, "lon": -77.040149, "is_reserved": 0, "fusion_lat": 0.0, "type": "electric_scooter"}, {"fusion_lon": 0.0, "name": "a99aeba0f608e719cf6b27e1ea650098", "rental_uris": {"android": "https://dc.lft.to/lastmile_qr_scan", "ios": "https://dc.lft.to/lastmile_qr_scan"}, "lat": 38.915693833333336, "bike_id": "a99aeba0f608e719cf6b27e1ea650098", "is_disabled": 0, "lon": -77.05019, "is_reserved": 0, "fusion_lat": 0.0, "type": "electric_scooter"}, {"fusion_lon": 0.0, "name": "a46da957123b67c800f8c52003fe2c7e", "rental_uris": {"android": "https://dc.lft.to/lastmile_qr_scan", "ios": "https://dc.lft.to/lastmile_qr_scan"}, "lat": 38.90156183333333, "bike_id": "a46da957123b67c800f8c52003fe2c7e", "is_disabled": 0, "lon": -77.05901733333333, "is_reserved": 0, "fusion_lat": 0.0, "type": "electric_scooter"}, {"fusion_lon": 0.0, "name": "bb23a36e750cc478939c5dbfc5d37661", "rental_uris": {"android": "https://dc.lft.to/lastmile_qr_scan", "ios": "https://dc.lft.to/lastmile_qr_scan"}, "lat": 38.896381166666664, "bike_id": "bb23a36e750cc478939c5dbfc5d37661", "is_disabled": 0, "lon": -77.032205, "is_reserved": 0, "fusion_lat": 0.0, "type": "electric_scooter"}, {"fusion_lon": 0.0, "name": "0e2d807cb7092de72a30205ec819cf8d", "rental_uris": {"android": "https://dc.lft.to/lastmile_qr_scan", "ios": "https://dc.lft.to/lastmile_qr_scan"}, "lat": 38.9242865, "bike_id": "0e2d807cb7092de72a30205ec819cf8d", "is_disabled": 0, "lon": -77.03783633333333, "is_reserved": 0, "fusion_lat": 0.0, "type": "electric_scooter"}, {"fusion_lon": 0.0, "name": "48d1fbdb9937a738a7f230672dace753", "rental_uris": {"android": "https://dc.lft.to/lastmile_qr_scan", "ios": "https://dc.lft.to/lastmile_qr_scan"}, "lat": 38.902367166666664, "bike_id": "48d1fbdb9937a738a7f230672dace753", "is_disabled": 0, "lon": -77.0151195, "is_reserved": 0, "fusion_lat": 0.0, "type": "electric_scooter"}, {"fusion_lon": 0.0, "name": "787c42cbdfd82a9379214364a3b71aa7", "rental_uris": {"android": "https://dc.lft.to/lastmile_qr_scan", "ios": "https://dc.lft.to/lastmile_qr_scan"}, "lat": 38.92565583333333, "bike_id": "787c42cbdfd82a9379214364a3b71aa7", "is_disabled": 0, "lon": -76.999572, "is_reserved": 0, "fusion_lat": 0.0, "type": "electric_scooter"}, {"fusion_lon": 0.0, "name": "fdbdbb67e63909e223f9c42b9e2b8aab", "rental_uris": {"android": "https://dc.lft.to/lastmile_qr_scan", "ios": "https://dc.lft.to/lastmile_qr_scan"}, "lat": 38.88322733333333, "bike_id": "fdbdbb67e63909e223f9c42b9e2b8aab", "is_disabled": 0, "lon": -77.0258475, "is_reserved": 0, "fusion_lat": 0.0, "type": "electric_scooter"}, {"fusion_lon": 0.0, "name": "f487f4cb5cc606876959344d8c9a11f5", "rental_uris": {"android": "https://dc.lft.to/lastmile_qr_scan", "ios": "https://dc.lft.to/lastmile_qr_scan"}, "lat": 38.90113083333333, "bike_id": "f487f4cb5cc606876959344d8c9a11f5", "is_disabled": 0, "lon": -77.04998966666666, "is_reserved": 0, "fusion_lat": 0.0, "type": "electric_scooter"}, {"fusion_lon": 0.0, "name": "f2f3e36bb45cf139d8274398146ba0bd", "rental_uris": {"android": "https://dc.lft.to/lastmile_qr_scan", "ios": "https://dc.lft.to/lastmile_qr_scan"}, "lat": 38.899553166666664, "bike_id": "f2f3e36bb45cf139d8274398146ba0bd", "is_disabled": 0, "lon": -77.05022633333333, "is_reserved": 0, "fusion_lat": 0.0, "type": "electric_scooter"}, {"fusion_lon": 0.0, "name": "18a7b87156dc6ad2de829d778ed4396d", "rental_uris": {"android": "https://dc.lft.to/lastmile_qr_scan", "ios": "https://dc.lft.to/lastmile_qr_scan"}, "lat": 38.900564333333335, "bike_id": "18a7b87156dc6ad2de829d778ed4396d", "is_disabled": 0, "lon": -76.98701566666666, "is_reserved": 0, "fusion_lat": 0.0, "type": "electric_scooter"}, {"fusion_lon": 0.0, "name": "45f84c87e5904e41e46cd4883f130a9b", "rental_uris": {"android": "https://dc.lft.to/lastmile_qr_scan", "ios": "https://dc.lft.to/lastmile_qr_scan"}, "lat": 38.8402705, "bike_id": "45f84c87e5904e41e46cd4883f130a9b", "is_disabled": 0, "lon": -76.97622383333334, "is_reserved": 0, "fusion_lat": 0.0, "type": "electric_bike"}, {"fusion_lon": 0.0, "name": "e9e17cf640f4e9f58e5a708a8ce8e2e0", "rental_uris": {"android": "https://dc.lft.to/lastmile_qr_scan", "ios": "https://dc.lft.to/lastmile_qr_scan"}, "lat": 38.89214366666667, "bike_id": "e9e17cf640f4e9f58e5a708a8ce8e2e0", "is_disabled": 0, "lon": -76.99573483333333, "is_reserved": 0, "fusion_lat": 0.0, "type": "electric_scooter"}, {"fusion_lon": 0.0, "name": "79ee06084432970b1dda3767bee85e38", "rental_uris": {"android": "https://dc.lft.to/lastmile_qr_scan", "ios": "https://dc.lft.to/lastmile_qr_scan"}, "lat": 38.896211, "bike_id": "79ee06084432970b1dda3767bee85e38", "is_disabled": 0, "lon": -77.02373166666666, "is_reserved": 0, "fusion_lat": 0.0, "type": "electric_scooter"}, {"fusion_lon": 0.0, "name": "4c6fb7f3d262c619c2c99eb0db3796ac", "rental_uris": {"android": "https://dc.lft.to/lastmile_qr_scan", "ios": "https://dc.lft.to/lastmile_qr_scan"}, "lat": 38.92944, "bike_id": "4c6fb7f3d262c619c2c99eb0db3796ac", "is_disabled": 0, "lon": -76.97561233333333, "is_reserved": 0, "fusion_lat": 0.0, "type": "electric_bike"}, {"fusion_lon": 0.0, "name": "f7ef218c41083c7006c280e839dc98dd", "rental_uris": {"android": "https://dc.lft.to/lastmile_qr_scan", "ios": "https://dc.lft.to/lastmile_qr_scan"}, "lat": 38.92255266666667, "bike_id": "f7ef218c41083c7006c280e839dc98dd", "is_disabled": 0, "lon": -77.03074166666667, "is_reserved": 0, "fusion_lat": 0.0, "type": "electric_scooter"}, {"fusion_lon": 0.0, "name": "cf72257920527febfe4c53255e7e0bcd", "rental_uris": {"android": "https://dc.lft.to/lastmile_qr_scan", "ios": "https://dc.lft.to/lastmile_qr_scan"}, "lat": 38.894862, "bike_id": "cf72257920527febfe4c53255e7e0bcd", "is_disabled": 0, "lon": -77.0266015, "is_reserved": 0, "fusion_lat": 0.0, "type": "electric_scooter"}, {"fusion_lon": 0.0, "name": "fb4e64521a6ab59f404ed71192d11e93", "rental_uris": {"android": "https://dc.lft.to/lastmile_qr_scan", "ios": "https://dc.lft.to/lastmile_qr_scan"}, "lat": 38.91713433333334, "bike_id": "fb4e64521a6ab59f404ed71192d11e93", "is_disabled": 0, "lon": -77.03461883333334, "is_reserved": 0, "fusion_lat": 0.0, "type": "electric_scooter"}, {"fusion_lon": 0.0, "name": "69d09e208462f20854a3fb7527670154", "rental_uris": {"android": "https://dc.lft.to/lastmile_qr_scan", "ios": "https://dc.lft.to/lastmile_qr_scan"}, "lat": 38.87907583333333, "bike_id": "69d09e208462f20854a3fb7527670154", "is_disabled": 0, "lon": -77.00996733333334, "is_reserved": 0, "fusion_lat": 0.0, "type": "electric_scooter"}, {"fusion_lon": 0.0, "name": "4763c4ed897517ebfcb744d43491ebd0", "rental_uris": {"android": "https://dc.lft.to/lastmile_qr_scan", "ios": "https://dc.lft.to/lastmile_qr_scan"}, "lat": 38.93059816666667, "bike_id": "4763c4ed897517ebfcb744d43491ebd0", "is_disabled": 0, "lon": -77.027862, "is_reserved": 0, "fusion_lat": 0.0, "type": "electric_scooter"}, {"fusion_lon": 0.0, "name": "34d1d80d28f51a83847d1e96c5630893", "rental_uris": {"android": "https://dc.lft.to/lastmile_qr_scan", "ios": "https://dc.lft.to/lastmile_qr_scan"}, "lat": 38.913631, "bike_id": "34d1d80d28f51a83847d1e96c5630893", "is_disabled": 0, "lon": -77.09188266666666, "is_reserved": 0, "fusion_lat": 0.0, "type": "electric_scooter"}, {"fusion_lon": 0.0, "name": "a0848938bb291e71d4d41a7037195e2d", "rental_uris": {"android": "https://dc.lft.to/lastmile_qr_scan", "ios": "https://dc.lft.to/lastmile_qr_scan"}, "lat": 38.899797, "bike_id": "a0848938bb291e71d4d41a7037195e2d", "is_disabled": 0, "lon": -77.04193166666667, "is_reserved": 0, "fusion_lat": 0.0, "type": "electric_scooter"}, {"fusion_lon": 0.0, "name": "53df097a10cd48f388845dc1961942fa", "rental_uris": {"android": "https://dc.lft.to/lastmile_qr_scan", "ios": "https://dc.lft.to/lastmile_qr_scan"}, "lat": 38.937715833333336, "bike_id": "53df097a10cd48f388845dc1961942fa", "is_disabled": 0, "lon": -77.0243975, "is_reserved": 0, "fusion_lat": 0.0, "type": "electric_scooter"}, {"fusion_lon": 0.0, "name": "495c5c3e065b67afd44695fd8a8e1956", "rental_uris": {"android": "https://dc.lft.to/lastmile_qr_scan", "ios": "https://dc.lft.to/lastmile_qr_scan"}, "lat": 38.893179833333335, "bike_id": "495c5c3e065b67afd44695fd8a8e1956", "is_disabled": 0, "lon": -77.01795433333334, "is_reserved": 0, "fusion_lat": 0.0, "type": "electric_scooter"}, {"fusion_lon": 0.0, "name": "155c9231990f72d94859d31472b0018f", "rental_uris": {"android": "https://dc.lft.to/lastmile_qr_scan", "ios": "https://dc.lft.to/lastmile_qr_scan"}, "lat": 38.91066516666667, "bike_id": "155c9231990f72d94859d31472b0018f", "is_disabled": 0, "lon": -77.031978, "is_reserved": 0, "fusion_lat": 0.0, "type": "electric_scooter"}, {"fusion_lon": 0.0, "name": "271aeda20c03edae172eda0bb89bf196", "rental_uris": {"android": "https://dc.lft.to/lastmile_qr_scan", "ios": "https://dc.lft.to/lastmile_qr_scan"}, "lat": 38.922382999999996, "bike_id": "271aeda20c03edae172eda0bb89bf196", "is_disabled": 0, "lon": -77.03173683333333, "is_reserved": 0, "fusion_lat": 0.0, "type": "electric_scooter"}, {"fusion_lon": 0.0, "name": "48922184796c50b9cdc27773f3a38d1e", "rental_uris": {"android": "https://dc.lft.to/lastmile_qr_scan", "ios": "https://dc.lft.to/lastmile_qr_scan"}, "lat": 38.884475, "bike_id": "48922184796c50b9cdc27773f3a38d1e", "is_disabled": 0, "lon": -76.957663, "is_reserved": 0, "fusion_lat": 0.0, "type": "electric_scooter"}, {"fusion_lon": 0.0, "name": "c490f9ea7b1a3e3cc8ffb74fd71ab76d", "rental_uris": {"android": "https://dc.lft.to/lastmile_qr_scan", "ios": "https://dc.lft.to/lastmile_qr_scan"}, "lat": 38.9072705, "bike_id": "c490f9ea7b1a3e3cc8ffb74fd71ab76d", "is_disabled": 0, "lon": -77.0502435, "is_reserved": 0, "fusion_lat": 0.0, "type": "electric_scooter"}, {"fusion_lon": 0.0, "name": "f0e61c8ef80d5e88907ae23ce7afb3ea", "rental_uris": {"android": "https://dc.lft.to/lastmile_qr_scan", "ios": "https://dc.lft.to/lastmile_qr_scan"}, "lat": 38.9568705, "bike_id": "f0e61c8ef80d5e88907ae23ce7afb3ea", "is_disabled": 0, "lon": -77.022262, "is_reserved": 0, "fusion_lat": 0.0, "type": "electric_bike"}, {"fusion_lon": 0.0, "name": "434927864831556d0a58377bfec583e7", "rental_uris": {"android": "https://dc.lft.to/lastmile_qr_scan", "ios": "https://dc.lft.to/lastmile_qr_scan"}, "lat": 38.96119916666667, "bike_id": "434927864831556d0a58377bfec583e7", "is_disabled": 0, "lon": -77.02790366666666, "is_reserved": 0, "fusion_lat": 0.0, "type": "electric_scooter"}, {"fusion_lon": 0.0, "name": "a4ec8d22322dbd45a00e0b7adae0f304", "rental_uris": {"android": "https://dc.lft.to/lastmile_qr_scan", "ios": "https://dc.lft.to/lastmile_qr_scan"}, "lat": 38.903907, "bike_id": "a4ec8d22322dbd45a00e0b7adae0f304", "is_disabled": 0, "lon": -77.034431, "is_reserved": 0, "fusion_lat": 0.0, "type": "electric_scooter"}, {"fusion_lon": 0.0, "name": "1e9d22e3a842427d1ce122539dbd4555", "rental_uris": {"android": "https://dc.lft.to/lastmile_qr_scan", "ios": "https://dc.lft.to/lastmile_qr_scan"}, "lat": 38.907260666666666, "bike_id": "1e9d22e3a842427d1ce122539dbd4555", "is_disabled": 0, "lon": -77.03942316666667, "is_reserved": 0, "fusion_lat": 0.0, "type": "electric_scooter"}, {"fusion_lon": 0.0, "name": "704631c69844b0438435fd760a8b260f", "rental_uris": {"android": "https://dc.lft.to/lastmile_qr_scan", "ios": "https://dc.lft.to/lastmile_qr_scan"}, "lat": 38.898979, "bike_id": "704631c69844b0438435fd760a8b260f", "is_disabled": 0, "lon": -76.97604133333333, "is_reserved": 0, "fusion_lat": 0.0, "type": "electric_scooter"}, {"fusion_lon": 0.0, "name": "069a17cf0ec0e718c143d020ef88c656", "rental_uris": {"android": "https://dc.lft.to/lastmile_qr_scan", "ios": "https://dc.lft.to/lastmile_qr_scan"}, "lat": 38.86523316666667, "bike_id": "069a17cf0ec0e718c143d020ef88c656", "is_disabled": 0, "lon": -76.969061, "is_reserved": 0, "fusion_lat": 0.0, "type": "electric_scooter"}, {"fusion_lon": 0.0, "name": "58da13bd896054125822cd25a5c29dac", "rental_uris": {"android": "https://dc.lft.to/lastmile_qr_scan", "ios": "https://dc.lft.to/lastmile_qr_scan"}, "lat": 38.90506666666667, "bike_id": "58da13bd896054125822cd25a5c29dac", "is_disabled": 0, "lon": -77.04347383333334, "is_reserved": 0, "fusion_lat": 0.0, "type": "electric_scooter"}, {"fusion_lon": 0.0, "name": "29fe182fb688bc4f60a4f6925545bf97", "rental_uris": {"android": "https://dc.lft.to/lastmile_qr_scan", "ios": "https://dc.lft.to/lastmile_qr_scan"}, "lat": 38.91362266666667, "bike_id": "29fe182fb688bc4f60a4f6925545bf97", "is_disabled": 0, "lon": -77.0919085, "is_reserved": 0, "fusion_lat": 0.0, "type": "electric_scooter"}, {"fusion_lon": 0.0, "name": "7e4dece35e7849971d70600ce16c5772", "rental_uris": {"android": "https://dc.lft.to/lastmile_qr_scan", "ios": "https://dc.lft.to/lastmile_qr_scan"}, "lat": 38.891941833333334, "bike_id": "7e4dece35e7849971d70600ce16c5772", "is_disabled": 0, "lon": -76.99856466666667, "is_reserved": 0, "fusion_lat": 0.0, "type": "electric_scooter"}, {"fusion_lon": 0.0, "name": "d045391e987b0de23ffee4bc5ba8f90a", "rental_uris": {"android": "https://dc.lft.to/lastmile_qr_scan", "ios": "https://dc.lft.to/lastmile_qr_scan"}, "lat": 38.91586983333333, "bike_id": "d045391e987b0de23ffee4bc5ba8f90a", "is_disabled": 0, "lon": -77.03760683333333, "is_reserved": 0, "fusion_lat": 0.0, "type": "electric_scooter"}, {"fusion_lon": 0.0, "name": "7146b05caae087e2cecb1f919265ea8b", "rental_uris": {"android": "https://dc.lft.to/lastmile_qr_scan", "ios": "https://dc.lft.to/lastmile_qr_scan"}, "lat": 38.932820166666666, "bike_id": "7146b05caae087e2cecb1f919265ea8b", "is_disabled": 0, "lon": -77.0353615, "is_reserved": 0, "fusion_lat": 0.0, "type": "electric_scooter"}, {"fusion_lon": 0.0, "name": "c708e22710bac493000e35fc7f63091f", "rental_uris": {"android": "https://dc.lft.to/lastmile_qr_scan", "ios": "https://dc.lft.to/lastmile_qr_scan"}, "lat": 38.8960665, "bike_id": "c708e22710bac493000e35fc7f63091f", "is_disabled": 0, "lon": -77.04068066666666, "is_reserved": 0, "fusion_lat": 0.0, "type": "electric_scooter"}, {"fusion_lon": 0.0, "name": "77eef2a1308fde17e98c43b5063a243a", "rental_uris": {"android": "https://dc.lft.to/lastmile_qr_scan", "ios": "https://dc.lft.to/lastmile_qr_scan"}, "lat": 38.924667666666664, "bike_id": "77eef2a1308fde17e98c43b5063a243a", "is_disabled": 0, "lon": -77.02272716666667, "is_reserved": 0, "fusion_lat": 0.0, "type": "electric_scooter"}, {"fusion_lon": 0.0, "name": "3385e6eb5d81b71cf5311acb95779810", "rental_uris": {"android": "https://dc.lft.to/lastmile_qr_scan", "ios": "https://dc.lft.to/lastmile_qr_scan"}, "lat": 38.893556, "bike_id": "3385e6eb5d81b71cf5311acb95779810", "is_disabled": 0, "lon": -77.00337933333333, "is_reserved": 0, "fusion_lat": 0.0, "type": "electric_scooter"}, {"fusion_lon": 0.0, "name": "ac0c716bc03160019daf55ef50773630", "rental_uris": {"android": "https://dc.lft.to/lastmile_qr_scan", "ios": "https://dc.lft.to/lastmile_qr_scan"}, "lat": 38.903220833333336, "bike_id": "ac0c716bc03160019daf55ef50773630", "is_disabled": 0, "lon": -76.98154183333334, "is_reserved": 0, "fusion_lat": 0.0, "type": "electric_scooter"}, {"fusion_lon": 0.0, "name": "a12ec4ef01b970f9d965403317b1b782", "rental_uris": {"android": "https://dc.lft.to/lastmile_qr_scan", "ios": "https://dc.lft.to/lastmile_qr_scan"}, "lat": 38.92025983333333, "bike_id": "a12ec4ef01b970f9d965403317b1b782", "is_disabled": 0, "lon": -77.01116566666667, "is_reserved": 0, "fusion_lat": 0.0, "type": "electric_scooter"}, {"fusion_lon": 0.0, "name": "114dd712d9d2f4fb20a9180814211f1d", "rental_uris": {"android": "https://dc.lft.to/lastmile_qr_scan", "ios": "https://dc.lft.to/lastmile_qr_scan"}, "lat": 38.8953775, "bike_id": "114dd712d9d2f4fb20a9180814211f1d", "is_disabled": 0, "lon": -77.01111783333333, "is_reserved": 0, "fusion_lat": 0.0, "type": "electric_scooter"}, {"fusion_lon": 0.0, "name": "a74dad5f74cdf6d68f8b2ae2f2085c49", "rental_uris": {"android": "https://dc.lft.to/lastmile_qr_scan", "ios": "https://dc.lft.to/lastmile_qr_scan"}, "lat": 38.91456483333333, "bike_id": "a74dad5f74cdf6d68f8b2ae2f2085c49", "is_disabled": 0, "lon": -77.041758, "is_reserved": 0, "fusion_lat": 0.0, "type": "electric_scooter"}, {"fusion_lon": 0.0, "name": "efaff21f928e3e2dae6ba6df26e97e3b", "rental_uris": {"android": "https://dc.lft.to/lastmile_qr_scan", "ios": "https://dc.lft.to/lastmile_qr_scan"}, "lat": 38.89618516666667, "bike_id": "efaff21f928e3e2dae6ba6df26e97e3b", "is_disabled": 0, "lon": -76.90757266666667, "is_reserved": 0, "fusion_lat": 0.0, "type": "electric_bike"}, {"fusion_lon": 0.0, "name": "717d8601df7001664f136e14760403ea", "rental_uris": {"android": "https://dc.lft.to/lastmile_qr_scan", "ios": "https://dc.lft.to/lastmile_qr_scan"}, "lat": 38.89356633333333, "bike_id": "717d8601df7001664f136e14760403ea", "is_disabled": 0, "lon": -77.00336966666667, "is_reserved": 0, "fusion_lat": 0.0, "type": "electric_scooter"}, {"fusion_lon": 0.0, "name": "b903da31bf366755d04df97cfc6be31b", "rental_uris": {"android": "https://dc.lft.to/lastmile_qr_scan", "ios": "https://dc.lft.to/lastmile_qr_scan"}, "lat": 38.90677, "bike_id": "b903da31bf366755d04df97cfc6be31b", "is_disabled": 0, "lon": -77.0381035, "is_reserved": 0, "fusion_lat": 0.0, "type": "electric_scooter"}, {"fusion_lon": 0.0, "name": "977bddc13f2c16d5532039b0cc47d7f1", "rental_uris": {"android": "https://dc.lft.to/lastmile_qr_scan", "ios": "https://dc.lft.to/lastmile_qr_scan"}, "lat": 38.9007955, "bike_id": "977bddc13f2c16d5532039b0cc47d7f1", "is_disabled": 0, "lon": -77.04485766666667, "is_reserved": 0, "fusion_lat": 0.0, "type": "electric_scooter"}, {"fusion_lon": 0.0, "name": "090e84f8ed2aaff08e75d565962388a6", "rental_uris": {"android": "https://dc.lft.to/lastmile_qr_scan", "ios": "https://dc.lft.to/lastmile_qr_scan"}, "lat": 38.87661, "bike_id": "090e84f8ed2aaff08e75d565962388a6", "is_disabled": 0, "lon": -77.00431833333333, "is_reserved": 0, "fusion_lat": 0.0, "type": "electric_scooter"}, {"fusion_lon": 0.0, "name": "95e8e52a22b9e41c9f00544aceeabcea", "rental_uris": {"android": "https://dc.lft.to/lastmile_qr_scan", "ios": "https://dc.lft.to/lastmile_qr_scan"}, "lat": 38.915688833333334, "bike_id": "95e8e52a22b9e41c9f00544aceeabcea", "is_disabled": 0, "lon": -77.0126325, "is_reserved": 0, "fusion_lat": 0.0, "type": "electric_scooter"}, {"fusion_lon": 0.0, "name": "d23b2ccf4614746bb4961ddc0ab29686", "rental_uris": {"android": "https://dc.lft.to/lastmile_qr_scan", "ios": "https://dc.lft.to/lastmile_qr_scan"}, "lat": 38.9190775, "bike_id": "d23b2ccf4614746bb4961ddc0ab29686", "is_disabled": 0, "lon": -77.01987766666667, "is_reserved": 0, "fusion_lat": 0.0, "type": "electric_scooter"}, {"fusion_lon": 0.0, "name": "6468eda01d730894cce5f41f1ba4a193", "rental_uris": {"android": "https://dc.lft.to/lastmile_qr_scan", "ios": "https://dc.lft.to/lastmile_qr_scan"}, "lat": 38.924471833333335, "bike_id": "6468eda01d730894cce5f41f1ba4a193", "is_disabled": 0, "lon": -77.03412416666667, "is_reserved": 0, "fusion_lat": 0.0, "type": "electric_scooter"}, {"fusion_lon": 0.0, "name": "bc887fff2b9668909354bc32edb64978", "rental_uris": {"android": "https://dc.lft.to/lastmile_qr_scan", "ios": "https://dc.lft.to/lastmile_qr_scan"}, "lat": 38.87993683333333, "bike_id": "bc887fff2b9668909354bc32edb64978", "is_disabled": 0, "lon": -77.0050615, "is_reserved": 0, "fusion_lat": 0.0, "type": "electric_scooter"}, {"fusion_lon": 0.0, "name": "65b8ae4e49970e684e7e38b4b7417776", "rental_uris": {"android": "https://dc.lft.to/lastmile_qr_scan", "ios": "https://dc.lft.to/lastmile_qr_scan"}, "lat": 38.955922, "bike_id": "65b8ae4e49970e684e7e38b4b7417776", "is_disabled": 0, "lon": -77.0100895, "is_reserved": 0, "fusion_lat": 0.0, "type": "electric_bike"}, {"fusion_lon": 0.0, "name": "9f6a081050bd626ec96d4bc215e0dcff", "rental_uris": {"android": "https://dc.lft.to/lastmile_qr_scan", "ios": "https://dc.lft.to/lastmile_qr_scan"}, "lat": 38.90756783333333, "bike_id": "9f6a081050bd626ec96d4bc215e0dcff", "is_disabled": 0, "lon": -77.045273, "is_reserved": 0, "fusion_lat": 0.0, "type": "electric_scooter"}, {"fusion_lon": 0.0, "name": "28e5736714c39d745bf53405583f6540", "rental_uris": {"android": "https://dc.lft.to/lastmile_qr_scan", "ios": "https://dc.lft.to/lastmile_qr_scan"},