{"data": {"bikes": [{"lat": 38.924450666666665, "is_disabled": 0, "type": "electric_scooter", "lon": -77.02036233333334, "bike_id": "4909be7cf81bbed168c63841b33ff347", "fusion_lat": 0.0, "name": "4909be7cf81bbed168c63841b33ff347", "is_reserved": 0, "rental_uris": {"android": "https://dc.lft.to/lastmile_qr_scan", "ios": "https://dc.lft.to/lastmile_qr_scan"}, "fusion_lon": 0.0}, {"lat": 38.8903375, "is_disabled": 0, "type": "electric_scooter", "lon": -77.02976383333333, "bike_id": "19b6c17f638ddd17e3964a90b53b436d", "fusion_lat": 0.0, "name": "19b6c17f638ddd17e3964a90b53b436d", "is_reserved": 0, "rental_uris": {"android": "https://dc.lft.to/lastmile_qr_scan", "ios": "https://dc.lft.to/lastmile_qr_scan"}, "fusion_lon": 0.0}, {"lat": 38.88504483333333, "is_disabled": 0, "type": "electric_scooter", "lon": -77.00565416666667, "bike_id": "2a6f8980cf3105bfa48a1c4ab191e5ea", "fusion_lat": 0.0, "name": "2a6f8980cf3105bfa48a1c4ab191e5ea", "is_reserved": 0, "rental_uris": {"android": "https://dc.lft.to/lastmile_qr_scan", "ios": "https://dc.lft.to/lastmile_qr_scan"}, "fusion_lon": 0.0}, {"lat": 38.8545885, "is_disabled": 0, "type": "electric_scooter", "lon": -76.97245133333334, "bike_id": "a62978932c3a7f7782093f6a319f0f62", "fusion_lat": 0.0, "name": "a62978932c3a7f7782093f6a319f0f62", "is_reserved": 0, "rental_uris": {"android": "https://dc.lft.to/lastmile_qr_scan", "ios": "https://dc.lft.to/lastmile_qr_scan"}, "fusion_lon": 0.0}, {"lat": 38.92787216666667, "is_disabled": 0, "type": "electric_bike", "lon": -76.9722245, "bike_id": "5d3e0dd1be589e078389c345d466a6de", "fusion_lat": 0.0, "name": "5d3e0dd1be589e078389c345d466a6de", "is_reserved": 0, "rental_uris": {"android": "https://dc.lft.to/lastmile_qr_scan", "ios": "https://dc.lft.to/lastmile_qr_scan"}, "fusion_lon": 0.0}, {"lat": 38.91781316666667, "is_disabled": 0, "type": "electric_scooter", "lon": -77.04416316666666, "bike_id": "e4de374584648cb163dacd18cd790b16", "fusion_lat": 0.0, "name": "e4de374584648cb163dacd18cd790b16", "is_reserved": 0, "rental_uris": {"android": "https://dc.lft.to/lastmile_qr_scan", "ios": "https://dc.lft.to/lastmile_qr_scan"}, "fusion_lon": 0.0}, {"lat": 38.92362216666667, "is_disabled": 0, "type": "electric_scooter", "lon": -77.04382083333333, "bike_id": "ea7ab1ec0f1de4473fa40dbdba95164e", "fusion_lat": 0.0, "name": "ea7ab1ec0f1de4473fa40dbdba95164e", "is_reserved": 0, "rental_uris": {"android": "https://dc.lft.to/lastmile_qr_scan", "ios": "https://dc.lft.to/lastmile_qr_scan"}, "fusion_lon": 0.0}, {"lat": 38.863848, "is_disabled": 0, "type": "electric_scooter", "lon": -76.99251916666667, "bike_id": "a05abc9719ef6c2e63a3c1f8c57f33d1", "fusion_lat": 0.0, "name": "a05abc9719ef6c2e63a3c1f8c57f33d1", "is_reserved": 0, "rental_uris": {"android": "https://dc.lft.to/lastmile_qr_scan", "ios": "https://dc.lft.to/lastmile_qr_scan"}, "fusion_lon": 0.0}, {"lat": 38.85506766666666, "is_disabled": 0, "type": "electric_bike", "lon": -77.12041266666667, "bike_id": "80f79bb68b41327a1225ce6bdf7a7fc4", "fusion_lat": 0.0, "name": "80f79bb68b41327a1225ce6bdf7a7fc4", "is_reserved": 0, "rental_uris": {"android": "https://dc.lft.to/lastmile_qr_scan", "ios": "https://dc.lft.to/lastmile_qr_scan"}, "fusion_lon": 0.0}, {"lat": 38.865617666666665, "is_disabled": 0, "type": "electric_bike", "lon": -76.9733745, "bike_id": "83e1ace48b93a4deac08946a0fb14deb", "fusion_lat": 0.0, "name": "83e1ace48b93a4deac08946a0fb14deb", "is_reserved": 0, "rental_uris": {"android": "https://dc.lft.to/lastmile_qr_scan", "ios": "https://dc.lft.to/lastmile_qr_scan"}, "fusion_lon": 0.0}, {"lat": 38.97839466666667, "is_disabled": 0, "type": "electric_bike", "lon": -77.02647133333333, "bike_id": "b55ae1f382230c20efde90a4523177d0", "fusion_lat": 0.0, "name": "b55ae1f382230c20efde90a4523177d0", "is_reserved": 0, "rental_uris": {"android": "https://dc.lft.to/lastmile_qr_scan", "ios": "https://dc.lft.to/lastmile_qr_scan"}, "fusion_lon": 0.0}, {"lat": 38.943053, "is_disabled": 0, "type": "electric_scooter", "lon": -77.05931633333333, "bike_id": "cea5dd0ed7802c8ce165b35356bb0ce6", "fusion_lat": 0.0, "name": "cea5dd0ed7802c8ce165b35356bb0ce6", "is_reserved": 0, "rental_uris": {"android": "https://dc.lft.to/lastmile_qr_scan", "ios": "https://dc.lft.to/lastmile_qr_scan"}, "fusion_lon": 0.0}, {"lat": 38.93599533333333, "is_disabled": 0, "type": "electric_scooter", "lon": -77.0353685, "bike_id": "42ee3ee6a6aad74626264f668f378188", "fusion_lat": 0.0, "name": "42ee3ee6a6aad74626264f668f378188", "is_reserved": 0, "rental_uris": {"android": "https://dc.lft.to/lastmile_qr_scan", "ios": "https://dc.lft.to/lastmile_qr_scan"}, "fusion_lon": 0.0}, {"lat": 38.91110533333333, "is_disabled": 0, "type": "electric_scooter", "lon": -77.03831666666666, "bike_id": "efd67cec54a6fb088080a66316a4b004", "fusion_lat": 0.0, "name": "efd67cec54a6fb088080a66316a4b004", "is_reserved": 0, "rental_uris": {"android": "https://dc.lft.to/lastmile_qr_scan", "ios": "https://dc.lft.to/lastmile_qr_scan"}, "fusion_lon": 0.0}, {"lat": 38.906847166666665, "is_disabled": 0, "type": "electric_scooter", "lon": -77.02387383333334, "bike_id": "f1c85d35f6f216ea32ec5b993629e953", "fusion_lat": 0.0, "name": "f1c85d35f6f216ea32ec5b993629e953", "is_reserved": 0, "rental_uris": {"android": "https://dc.lft.to/lastmile_qr_scan", "ios": "https://dc.lft.to/lastmile_qr_scan"}, "fusion_lon": 0.0}, {"lat": 38.92466733333333, "is_disabled": 0, "type": "electric_bike", "lon": -77.20843716666667, "bike_id": "2325814dae6f3e2d3247a5d2fd10a829", "fusion_lat": 0.0, "name": "2325814dae6f3e2d3247a5d2fd10a829", "is_reserved": 0, "rental_uris": {"android": "https://dc.lft.to/lastmile_qr_scan", "ios": "https://dc.lft.to/lastmile_qr_scan"}, "fusion_lon": 0.0}, {"lat": 38.900369, "is_disabled": 0, "type": "electric_scooter", "lon": -77.00591683333333, "bike_id": "9d32b72793749b55657bf7ecf4081fcf", "fusion_lat": 0.0, "name": "9d32b72793749b55657bf7ecf4081fcf", "is_reserved": 0, "rental_uris": {"android": "https://dc.lft.to/lastmile_qr_scan", "ios": "https://dc.lft.to/lastmile_qr_scan"}, "fusion_lon": 0.0}, {"lat": 38.8425645, "is_disabled": 0, "type": "electric_bike", "lon": -77.058326, "bike_id": "98ae26aab4fa7122ea03ab17f1e6e8bd", "fusion_lat": 0.0, "name": "98ae26aab4fa7122ea03ab17f1e6e8bd", "is_reserved": 0, "rental_uris": {"android": "https://dc.lft.to/lastmile_qr_scan", "ios": "https://dc.lft.to/lastmile_qr_scan"}, "fusion_lon": 0.0}, {"lat": 38.897381833333334, "is_disabled": 0, "type": "electric_scooter", "lon": -77.04798466666666, "bike_id": "0669b4d04f2ff8ad0d3ec62fa68713ea", "fusion_lat": 0.0, "name": "0669b4d04f2ff8ad0d3ec62fa68713ea", "is_reserved": 0, "rental_uris": {"android": "https://dc.lft.to/lastmile_qr_scan", "ios": "https://dc.lft.to/lastmile_qr_scan"}, "fusion_lon": 0.0}, {"lat": 38.8845125, "is_disabled": 0, "type": "electric_bike", "lon": -77.0966555, "bike_id": "fdddad9a6aec611a7f584374ff25953d", "fusion_lat": 0.0, "name": "fdddad9a6aec611a7f584374ff25953d", "is_reserved": 0, "rental_uris": {"android": "https://dc.lft.to/lastmile_qr_scan", "ios": "https://dc.lft.to/lastmile_qr_scan"}, "fusion_lon": 0.0}, {"lat": 38.911328166666664, "is_disabled": 0, "type": "electric_scooter", "lon": -77.00331583333333, "bike_id": "8743b45d5a8d746b374e98e1dd900452", "fusion_lat": 0.0, "name": "8743b45d5a8d746b374e98e1dd900452", "is_reserved": 0, "rental_uris": {"android": "https://dc.lft.to/lastmile_qr_scan", "ios": "https://dc.lft.to/lastmile_qr_scan"}, "fusion_lon": 0.0}, {"lat": 38.923877166666664, "is_disabled": 0, "type": "electric_scooter", "lon": -77.036623, "bike_id": "4c203f9fafd956e2be9fd3d6eb080095", "fusion_lat": 0.0, "name": "4c203f9fafd956e2be9fd3d6eb080095", "is_reserved": 0, "rental_uris": {"android": "https://dc.lft.to/lastmile_qr_scan", "ios": "https://dc.lft.to/lastmile_qr_scan"}, "fusion_lon": 0.0}, {"lat": 38.917677833333336, "is_disabled": 0, "type": "electric_scooter", "lon": -77.00357033333333, "bike_id": "a2ef9262182738a82b0fdbc6757d8929", "fusion_lat": 0.0, "name": "a2ef9262182738a82b0fdbc6757d8929", "is_reserved": 0, "rental_uris": {"android": "https://dc.lft.to/lastmile_qr_scan", "ios": "https://dc.lft.to/lastmile_qr_scan"}, "fusion_lon": 0.0}, {"lat": 38.90985216666667, "is_disabled": 0, "type": "electric_scooter", "lon": -77.03438216666666, "bike_id": "cf551f31708a1c3db86a3d059819bae5", "fusion_lat": 0.0, "name": "cf551f31708a1c3db86a3d059819bae5", "is_reserved": 0, "rental_uris": {"android": "https://dc.lft.to/lastmile_qr_scan", "ios": "https://dc.lft.to/lastmile_qr_scan"}, "fusion_lon": 0.0}, {"lat": 38.9171075, "is_disabled": 0, "type": "electric_scooter", "lon": -77.03862433333333, "bike_id": "a5ceb451c87574349556d0bec2b01703", "fusion_lat": 0.0, "name": "a5ceb451c87574349556d0bec2b01703", "is_reserved": 0, "rental_uris": {"android": "https://dc.lft.to/lastmile_qr_scan", "ios": "https://dc.lft.to/lastmile_qr_scan"}, "fusion_lon": 0.0}, {"lat": 38.9170345, "is_disabled": 0, "type": "electric_scooter", "lon": -77.0427805, "bike_id": "debd4e36fb799e3c809ab32919bbb5e2", "fusion_lat": 0.0, "name": "debd4e36fb799e3c809ab32919bbb5e2", "is_reserved": 0, "rental_uris": {"android": "https://dc.lft.to/lastmile_qr_scan", "ios": "https://dc.lft.to/lastmile_qr_scan"}, "fusion_lon": 0.0}, {"lat": 38.88491483333333, "is_disabled": 0, "type": "electric_scooter", "lon": -77.0072635, "bike_id": "a178bcca7e999caab54baa83753d557a", "fusion_lat": 0.0, "name": "a178bcca7e999caab54baa83753d557a", "is_reserved": 0, "rental_uris": {"android": "https://dc.lft.to/lastmile_qr_scan", "ios": "https://dc.lft.to/lastmile_qr_scan"}, "fusion_lon": 0.0}, {"lat": 38.914478833333334, "is_disabled": 0, "type": "electric_scooter", "lon": -77.02969916666666, "bike_id": "13452b9559e01120c8c150d0e4b32b36", "fusion_lat": 0.0, "name": "13452b9559e01120c8c150d0e4b32b36", "is_reserved": 0, "rental_uris": {"android": "https://dc.lft.to/lastmile_qr_scan", "ios": "https://dc.lft.to/lastmile_qr_scan"}, "fusion_lon": 0.0}, {"lat": 38.933406833333336, "is_disabled": 0, "type": "electric_scooter", "lon": -76.99309483333333, "bike_id": "bbc09b1803c6969e58b4e5ff82438ae9", "fusion_lat": 0.0, "name": "bbc09b1803c6969e58b4e5ff82438ae9", "is_reserved": 0, "rental_uris": {"android": "https://dc.lft.to/lastmile_qr_scan", "ios": "https://dc.lft.to/lastmile_qr_scan"}, "fusion_lon": 0.0}, {"lat": 38.900090666666664, "is_disabled": 0, "type": "electric_scooter", "lon": -76.92237333333334, "bike_id": "43d477891e86ece0bfa4b7f969af2f21", "fusion_lat": 0.0, "name": "43d477891e86ece0bfa4b7f969af2f21", "is_reserved": 0, "rental_uris": {"android": "https://dc.lft.to/lastmile_qr_scan", "ios": "https://dc.lft.to/lastmile_qr_scan"}, "fusion_lon": 0.0}, {"lat": 38.93143216666667, "is_disabled": 0, "type": "electric_scooter", "lon": -77.02150316666666, "bike_id": "6db6a2b65e8d5512768de26ce3c29776", "fusion_lat": 0.0, "name": "6db6a2b65e8d5512768de26ce3c29776", "is_reserved": 0, "rental_uris": {"android": "https://dc.lft.to/lastmile_qr_scan", "ios": "https://dc.lft.to/lastmile_qr_scan"}, "fusion_lon": 0.0}, {"lat": 38.9008105, "is_disabled": 0, "type": "electric_scooter", "lon": -77.02590833333333, "bike_id": "058db07123855bc76811ebc9a08ef485", "fusion_lat": 0.0, "name": "058db07123855bc76811ebc9a08ef485", "is_reserved": 0, "rental_uris": {"android": "https://dc.lft.to/lastmile_qr_scan", "ios": "https://dc.lft.to/lastmile_qr_scan"}, "fusion_lon": 0.0}, {"lat": 38.90111133333333, "is_disabled": 0, "type": "electric_scooter", "lon": -76.9863885, "bike_id": "4dcade8b3ef9affc157ad23f05c25e00", "fusion_lat": 0.0, "name": "4dcade8b3ef9affc157ad23f05c25e00", "is_reserved": 0, "rental_uris": {"android": "https://dc.lft.to/lastmile_qr_scan", "ios": "https://dc.lft.to/lastmile_qr_scan"}, "fusion_lon": 0.0}, {"lat": 38.91556716666667, "is_disabled": 0, "type": "electric_scooter", "lon": -77.024263, "bike_id": "99758583f4d6f862d03e0ad12e438d27", "fusion_lat": 0.0, "name": "99758583f4d6f862d03e0ad12e438d27", "is_reserved": 0, "rental_uris": {"android": "https://dc.lft.to/lastmile_qr_scan", "ios": "https://dc.lft.to/lastmile_qr_scan"}, "fusion_lon": 0.0}, {"lat": 38.92749533333333, "is_disabled": 0, "type": "electric_scooter", "lon": -77.029636, "bike_id": "edfacd091a3412d07b5132b9edaca082", "fusion_lat": 0.0, "name": "edfacd091a3412d07b5132b9edaca082", "is_reserved": 0, "rental_uris": {"android": "https://dc.lft.to/lastmile_qr_scan", "ios": "https://dc.lft.to/lastmile_qr_scan"}, "fusion_lon": 0.0}, {"lat": 38.960945333333335, "is_disabled": 0, "type": "electric_scooter", "lon": -77.08282616666666, "bike_id": "838a3012d2cf5d00105b7a3e81b574d3", "fusion_lat": 0.0, "name": "838a3012d2cf5d00105b7a3e81b574d3", "is_reserved": 0, "rental_uris": {"android": "https://dc.lft.to/lastmile_qr_scan", "ios": "https://dc.lft.to/lastmile_qr_scan"}, "fusion_lon": 0.0}, {"lat": 39.01592483333334, "is_disabled": 0, "type": "electric_bike", "lon": -77.044264, "bike_id": "2dd3299287548c7cf5f44c1261af9c95", "fusion_lat": 0.0, "name": "2dd3299287548c7cf5f44c1261af9c95", "is_reserved": 0, "rental_uris": {"android": "https://dc.lft.to/lastmile_qr_scan", "ios": "https://dc.lft.to/lastmile_qr_scan"}, "fusion_lon": 0.0}, {"lat": 38.90263733333333, "is_disabled": 0, "type": "electric_scooter", "lon": -77.0176475, "bike_id": "f23cc7d6541ac4bdba4cf0c47457ec08", "fusion_lat": 0.0, "name": "f23cc7d6541ac4bdba4cf0c47457ec08", "is_reserved": 0, "rental_uris": {"android": "https://dc.lft.to/lastmile_qr_scan", "ios": "https://dc.lft.to/lastmile_qr_scan"}, "fusion_lon": 0.0}, {"lat": 38.92213133333333, "is_disabled": 0, "type": "electric_scooter", "lon": -77.0329565, "bike_id": "0e2281f50b3053f03344b8e07b80acb6", "fusion_lat": 0.0, "name": "0e2281f50b3053f03344b8e07b80acb6", "is_reserved": 0, "rental_uris": {"android": "https://dc.lft.to/lastmile_qr_scan", "ios": "https://dc.lft.to/lastmile_qr_scan"}, "fusion_lon": 0.0}, {"lat": 38.924502, "is_disabled": 0, "type": "electric_scooter", "lon": -77.04202466666666, "bike_id": "ce4a0c4b93c5b35c2fa922dec7f2fe21", "fusion_lat": 0.0, "name": "ce4a0c4b93c5b35c2fa922dec7f2fe21", "is_reserved": 0, "rental_uris": {"android": "https://dc.lft.to/lastmile_qr_scan", "ios": "https://dc.lft.to/lastmile_qr_scan"}, "fusion_lon": 0.0}, {"lat": 38.901363833333335, "is_disabled": 0, "type": "electric_scooter", "lon": -77.00071816666667, "bike_id": "5118fa54cf6bfea8c355b5195d27e81c", "fusion_lat": 0.0, "name": "5118fa54cf6bfea8c355b5195d27e81c", "is_reserved": 0, "rental_uris": {"android": "https://dc.lft.to/lastmile_qr_scan", "ios": "https://dc.lft.to/lastmile_qr_scan"}, "fusion_lon": 0.0}, {"lat": 38.9027875, "is_disabled": 0, "type": "electric_scooter", "lon": -77.01926616666667, "bike_id": "d1108808230bb81dfe784f869c3b430c", "fusion_lat": 0.0, "name": "d1108808230bb81dfe784f869c3b430c", "is_reserved": 0, "rental_uris": {"android": "https://dc.lft.to/lastmile_qr_scan", "ios": "https://dc.lft.to/lastmile_qr_scan"}, "fusion_lon": 0.0}, {"lat": 38.936528, "is_disabled": 0, "type": "electric_bike", "lon": -77.055895, "bike_id": "1d76bd9accb3a857337b15c2b2c54bee", "fusion_lat": 0.0, "name": "1d76bd9accb3a857337b15c2b2c54bee", "is_reserved": 0, "rental_uris": {"android": "https://dc.lft.to/lastmile_qr_scan", "ios": "https://dc.lft.to/lastmile_qr_scan"}, "fusion_lon": 0.0}, {"lat": 38.9301255, "is_disabled": 0, "type": "electric_bike", "lon": -77.2165325, "bike_id": "ac87bac59a6deffbbdf6fe9a608a4b9d", "fusion_lat": 0.0, "name": "ac87bac59a6deffbbdf6fe9a608a4b9d", "is_reserved": 0, "rental_uris": {"android": "https://dc.lft.to/lastmile_qr_scan", "ios": "https://dc.lft.to/lastmile_qr_scan"}, "fusion_lon": 0.0}, {"lat": 38.91963533333333, "is_disabled": 0, "type": "electric_bike", "lon": -76.97267033333333, "bike_id": "7851ded08c8df0dfa5454e4240835348", "fusion_lat": 0.0, "name": "7851ded08c8df0dfa5454e4240835348", "is_reserved": 0, "rental_uris": {"android": "https://dc.lft.to/lastmile_qr_scan", "ios": "https://dc.lft.to/lastmile_qr_scan"}, "fusion_lon": 0.0}, {"lat": 38.928576666666665, "is_disabled": 0, "type": "electric_scooter", "lon": -77.05443683333333, "bike_id": "91779d25d8ac6d0a5a5e3039c1579517", "fusion_lat": 0.0, "name": "91779d25d8ac6d0a5a5e3039c1579517", "is_reserved": 0, "rental_uris": {"android": "https://dc.lft.to/lastmile_qr_scan", "ios": "https://dc.lft.to/lastmile_qr_scan"}, "fusion_lon": 0.0}, {"lat": 38.90148383333333, "is_disabled": 0, "type": "electric_bike", "lon": -76.98656433333333, "bike_id": "946397019e77c80300696a8108d23039", "fusion_lat": 0.0, "name": "946397019e77c80300696a8108d23039", "is_reserved": 0, "rental_uris": {"android": "https://dc.lft.to/lastmile_qr_scan", "ios": "https://dc.lft.to/lastmile_qr_scan"}, "fusion_lon": 0.0}, {"lat": 38.902185, "is_disabled": 0, "type": "electric_scooter", "lon": -76.94586866666667, "bike_id": "b2e1a4ac6afa4d0f016ed8092adc03cd", "fusion_lat": 0.0, "name": "b2e1a4ac6afa4d0f016ed8092adc03cd", "is_reserved": 0, "rental_uris": {"android": "https://dc.lft.to/lastmile_qr_scan", "ios": "https://dc.lft.to/lastmile_qr_scan"}, "fusion_lon": 0.0}, {"lat": 38.89770683333333, "is_disabled": 0, "type": "electric_scooter", "lon": -77.04363883333333, "bike_id": "bc0140c49717ae63e1d92df78958732b", "fusion_lat": 0.0, "name": "bc0140c49717ae63e1d92df78958732b", "is_reserved": 0, "rental_uris": {"android": "https://dc.lft.to/lastmile_qr_scan", "ios": "https://dc.lft.to/lastmile_qr_scan"}, "fusion_lon": 0.0}, {"lat": 38.922475166666665, "is_disabled": 0, "type": "electric_scooter", "lon": -77.0307065, "bike_id": "baf148b1e848b6add3ab475e3db21e07", "fusion_lat": 0.0, "name": "baf148b1e848b6add3ab475e3db21e07", "is_reserved": 0, "rental_uris": {"android": "https://dc.lft.to/lastmile_qr_scan", "ios": "https://dc.lft.to/lastmile_qr_scan"}, "fusion_lon": 0.0}, {"lat": 38.933784833333334, "is_disabled": 0, "type": "electric_scooter", "lon": -77.03795583333333, "bike_id": "9e347b5f94eb42e7e504da08a0310bae", "fusion_lat": 0.0, "name": "9e347b5f94eb42e7e504da08a0310bae", "is_reserved": 0, "rental_uris": {"android": "https://dc.lft.to/lastmile_qr_scan", "ios": "https://dc.lft.to/lastmile_qr_scan"}, "fusion_lon": 0.0}, {"lat": 38.899025333333334, "is_disabled": 0, "type": "electric_scooter", "lon": -76.93357716666667, "bike_id": "eac704387b8d18acd7fd52558e6b2eeb", "fusion_lat": 0.0, "name": "eac704387b8d18acd7fd52558e6b2eeb", "is_reserved": 0, "rental_uris": {"android": "https://dc.lft.to/lastmile_qr_scan", "ios": "https://dc.lft.to/lastmile_qr_scan"}, "fusion_lon": 0.0}, {"lat": 38.930533833333335, "is_disabled": 0, "type": "electric_scooter", "lon": -77.041791, "bike_id": "bedd200c827bf1385e57f6a1d325bf7f", "fusion_lat": 0.0, "name": "bedd200c827bf1385e57f6a1d325bf7f", "is_reserved": 0, "rental_uris": {"android": "https://dc.lft.to/lastmile_qr_scan", "ios": "https://dc.lft.to/lastmile_qr_scan"}, "fusion_lon": 0.0}, {"lat": 38.908601, "is_disabled": 0, "type": "electric_scooter", "lon": -76.9916815, "bike_id": "541fb02d62c8296ee46fe5a3ce9abf69", "fusion_lat": 0.0, "name": "541fb02d62c8296ee46fe5a3ce9abf69", "is_reserved": 0, "rental_uris": {"android": "https://dc.lft.to/lastmile_qr_scan", "ios": "https://dc.lft.to/lastmile_qr_scan"}, "fusion_lon": 0.0}, {"lat": 38.901156666666665, "is_disabled": 0, "type": "electric_scooter", "lon": -77.04991816666667, "bike_id": "175b51369c786753bd4d4d1634ee1a82", "fusion_lat": 0.0, "name": "175b51369c786753bd4d4d1634ee1a82", "is_reserved": 0, "rental_uris": {"android": "https://dc.lft.to/lastmile_qr_scan", "ios": "https://dc.lft.to/lastmile_qr_scan"}, "fusion_lon": 0.0}, {"lat": 38.92747333333333, "is_disabled": 0, "type": "electric_scooter", "lon": -77.02535166666667, "bike_id": "ac0dfde7af1d69bc63644cf968e3eb10", "fusion_lat": 0.0, "name": "ac0dfde7af1d69bc63644cf968e3eb10", "is_reserved": 0, "rental_uris": {"android": "https://dc.lft.to/lastmile_qr_scan", "ios": "https://dc.lft.to/lastmile_qr_scan"}, "fusion_lon": 0.0}, {"lat": 38.9004625, "is_disabled": 0, "type": "electric_scooter", "lon": -76.9936855, "bike_id": "d53dd1da2c40ea79268d7befcb3720d9", "fusion_lat": 0.0, "name": "d53dd1da2c40ea79268d7befcb3720d9", "is_reserved": 0, "rental_uris": {"android": "https://dc.lft.to/lastmile_qr_scan", "ios": "https://dc.lft.to/lastmile_qr_scan"}, "fusion_lon": 0.0}, {"lat": 38.906201333333335, "is_disabled": 0, "type": "electric_scooter", "lon": -76.98986783333334, "bike_id": "1d768446f31887b584f269cfafb39699", "fusion_lat": 0.0, "name": "1d768446f31887b584f269cfafb39699", "is_reserved": 0, "rental_uris": {"android": "https://dc.lft.to/lastmile_qr_scan", "ios": "https://dc.lft.to/lastmile_qr_scan"}, "fusion_lon": 0.0}, {"lat": 38.9617185, "is_disabled": 0, "type": "electric_bike", "lon": -77.073664, "bike_id": "db478705b205127981e0ce55660e30db", "fusion_lat": 0.0, "name": "db478705b205127981e0ce55660e30db", "is_reserved": 0, "rental_uris": {"android": "https://dc.lft.to/lastmile_qr_scan", "ios": "https://dc.lft.to/lastmile_qr_scan"}, "fusion_lon": 0.0}, {"lat": 38.8912565, "is_disabled": 0, "type": "electric_scooter", "lon": -76.94385983333333, "bike_id": "ead284c5018d93c282b9802c5dd45045", "fusion_lat": 0.0, "name": "ead284c5018d93c282b9802c5dd45045", "is_reserved": 0, "rental_uris": {"android": "https://dc.lft.to/lastmile_qr_scan", "ios": "https://dc.lft.to/lastmile_qr_scan"}, "fusion_lon": 0.0}, {"lat": 38.85905966666667, "is_disabled": 0, "type": "electric_scooter", "lon": -76.991497, "bike_id": "ed06d3901498a94029d4ddee156cbef6", "fusion_lat": 0.0, "name": "ed06d3901498a94029d4ddee156cbef6", "is_reserved": 0, "rental_uris": {"android": "https://dc.lft.to/lastmile_qr_scan", "ios": "https://dc.lft.to/lastmile_qr_scan"}, "fusion_lon": 0.0}, {"lat": 38.8953855, "is_disabled": 0, "type": "electric_scooter", "lon": -77.0282015, "bike_id": "dcbc0ce983a4a43afe532f5b1ac9c1b8", "fusion_lat": 0.0, "name": "dcbc0ce983a4a43afe532f5b1ac9c1b8", "is_reserved": 0, "rental_uris": {"android": "https://dc.lft.to/lastmile_qr_scan", "ios": "https://dc.lft.to/lastmile_qr_scan"}, "fusion_lon": 0.0}, {"lat": 38.9110385, "is_disabled": 0, "type": "electric_scooter", "lon": -77.04229516666666, "bike_id": "914f4818c88b85be6695b4a8035529e9", "fusion_lat": 0.0, "name": "914f4818c88b85be6695b4a8035529e9", "is_reserved": 0, "rental_uris": {"android": "https://dc.lft.to/lastmile_qr_scan", "ios": "https://dc.lft.to/lastmile_qr_scan"}, "fusion_lon": 0.0}, {"lat": 38.94744516666667, "is_disabled": 0, "type": "electric_scooter", "lon": -77.0652945, "bike_id": "b7a749c9afbe01a67befd1c978901036", "fusion_lat": 0.0, "name": "b7a749c9afbe01a67befd1c978901036", "is_reserved": 0, "rental_uris": {"android": "https://dc.lft.to/lastmile_qr_scan", "ios": "https://dc.lft.to/lastmile_qr_scan"}, "fusion_lon": 0.0}, {"lat": 38.866562333333334, "is_disabled": 0, "type": "electric_scooter", "lon": -76.98886916666666, "bike_id": "2368bc672800ea115f0af1c932dd3050", "fusion_lat": 0.0, "name": "2368bc672800ea115f0af1c932dd3050", "is_reserved": 0, "rental_uris": {"android": "https://dc.lft.to/lastmile_qr_scan", "ios": "https://dc.lft.to/lastmile_qr_scan"}, "fusion_lon": 0.0}, {"lat": 38.900399, "is_disabled": 0, "type": "electric_scooter", "lon": -76.9972645, "bike_id": "fc20ab04774ce88c71113d9a41ebc84e", "fusion_lat": 0.0, "name": "fc20ab04774ce88c71113d9a41ebc84e", "is_reserved": 0, "rental_uris": {"android": "https://dc.lft.to/lastmile_qr_scan", "ios": "https://dc.lft.to/lastmile_qr_scan"}, "fusion_lon": 0.0}, {"lat": 38.906096833333336, "is_disabled": 0, "type": "electric_scooter", "lon": -77.03954033333333, "bike_id": "015e1ec23aa9b75f57da2392c598002b", "fusion_lat": 0.0, "name": "015e1ec23aa9b75f57da2392c598002b", "is_reserved": 0, "rental_uris": {"android": "https://dc.lft.to/lastmile_qr_scan", "ios": "https://dc.lft.to/lastmile_qr_scan"}, "fusion_lon": 0.0}, {"lat": 39.0304955, "is_disabled": 0, "type": "electric_bike", "lon": -77.09484566666667, "bike_id": "6d288be69fe4f61a934e8e5b0fe16162", "fusion_lat": 0.0, "name": "6d288be69fe4f61a934e8e5b0fe16162", "is_reserved": 0, "rental_uris": {"android": "https://dc.lft.to/lastmile_qr_scan", "ios": "https://dc.lft.to/lastmile_qr_scan"}, "fusion_lon": 0.0}, {"lat": 38.911158666666665, "is_disabled": 0, "type": "electric_scooter", "lon": -77.03436066666667, "bike_id": "9a27eb6c58532a0d6afaf0b54a2f85c5", "fusion_lat": 0.0, "name": "9a27eb6c58532a0d6afaf0b54a2f85c5", "is_reserved": 0, "rental_uris": {"android": "https://dc.lft.to/lastmile_qr_scan", "ios": "https://dc.lft.to/lastmile_qr_scan"}, "fusion_lon": 0.0}, {"lat": 38.916092166666665, "is_disabled": 0, "type": "electric_scooter", "lon": -77.03857233333333, "bike_id": "20f2ffc575527cb726a6ef547d036079", "fusion_lat": 0.0, "name": "20f2ffc575527cb726a6ef547d036079", "is_reserved": 0, "rental_uris": {"android": "https://dc.lft.to/lastmile_qr_scan", "ios": "https://dc.lft.to/lastmile_qr_scan"}, "fusion_lon": 0.0}, {"lat": 38.903638666666666, "is_disabled": 0, "type": "electric_scooter", "lon": -77.03854766666667, "bike_id": "7146f486daa6a3bef04e1076b0be8f9c", "fusion_lat": 0.0, "name": "7146f486daa6a3bef04e1076b0be8f9c", "is_reserved": 0, "rental_uris": {"android": "https://dc.lft.to/lastmile_qr_scan", "ios": "https://dc.lft.to/lastmile_qr_scan"}, "fusion_lon": 0.0}, {"lat": 38.875704999999996, "is_disabled": 0, "type": "electric_scooter", "lon": -77.02087766666666, "bike_id": "333ff5cada2dcd9ceeae6d9782551cba", "fusion_lat": 0.0, "name": "333ff5cada2dcd9ceeae6d9782551cba", "is_reserved": 0, "rental_uris": {"android": "https://dc.lft.to/lastmile_qr_scan", "ios": "https://dc.lft.to/lastmile_qr_scan"}, "fusion_lon": 0.0}, {"lat": 38.91710233333333, "is_disabled": 0, "type": "electric_scooter", "lon": -77.03864166666666, "bike_id": "6af94c0008157b8b744946c0a4d6b3d4", "fusion_lat": 0.0, "name": "6af94c0008157b8b744946c0a4d6b3d4", "is_reserved": 0, "rental_uris": {"android": "https://dc.lft.to/lastmile_qr_scan", "ios": "https://dc.lft.to/lastmile_qr_scan"}, "fusion_lon": 0.0}, {"lat": 38.90793, "is_disabled": 0, "type": "electric_scooter", "lon": -77.03847183333333, "bike_id": "7730926b760be42b768b8cf4ca80fe71", "fusion_lat": 0.0, "name": "7730926b760be42b768b8cf4ca80fe71", "is_reserved": 0, "rental_uris": {"android": "https://dc.lft.to/lastmile_qr_scan", "ios": "https://dc.lft.to/lastmile_qr_scan"}, "fusion_lon": 0.0}, {"lat": 38.938392666666665, "is_disabled": 0, "type": "electric_bike", "lon": -76.98860983333333, "bike_id": "f6e98fa1a1a8e1a4fcadb5dadc6e0b55", "fusion_lat": 0.0, "name": "f6e98fa1a1a8e1a4fcadb5dadc6e0b55", "is_reserved": 0, "rental_uris": {"android": "https://dc.lft.to/lastmile_qr_scan", "ios": "https://dc.lft.to/lastmile_qr_scan"}, "fusion_lon": 0.0}, {"lat": 38.9170925, "is_disabled": 0, "type": "electric_scooter", "lon": -77.03728816666667, "bike_id": "c531fb4ca6e79a199f06401c9428c15c", "fusion_lat": 0.0, "name": "c531fb4ca6e79a199f06401c9428c15c", "is_reserved": 0, "rental_uris": {"android": "https://dc.lft.to/lastmile_qr_scan", "ios": "https://dc.lft.to/lastmile_qr_scan"}, "fusion_lon": 0.0}, {"lat": 38.885116, "is_disabled": 0, "type": "electric_scooter", "lon": -77.006804, "bike_id": "0f05ccc6f484cd8beae00fb7b8f2ed2c", "fusion_lat": 0.0, "name": "0f05ccc6f484cd8beae00fb7b8f2ed2c", "is_reserved": 0, "rental_uris": {"android": "https://dc.lft.to/lastmile_qr_scan", "ios": "https://dc.lft.to/lastmile_qr_scan"}, "fusion_lon": 0.0}, {"lat": 38.92745716666667, "is_disabled": 0, "type": "electric_scooter", "lon": -76.997271, "bike_id": "9454ca41cd063d81e35785dacb4ad3b5", "fusion_lat": 0.0, "name": "9454ca41cd063d81e35785dacb4ad3b5", "is_reserved": 0, "rental_uris": {"android": "https://dc.lft.to/lastmile_qr_scan", "ios": "https://dc.lft.to/lastmile_qr_scan"}, "fusion_lon": 0.0}, {"lat": 38.86366066666667, "is_disabled": 0, "type": "electric_scooter", "lon": -76.99031283333333, "bike_id": "4a8f47c3663c2da28e8e1f2e93d63508", "fusion_lat": 0.0, "name": "4a8f47c3663c2da28e8e1f2e93d63508", "is_reserved": 0, "rental_uris": {"android": "https://dc.lft.to/lastmile_qr_scan", "ios": "https://dc.lft.to/lastmile_qr_scan"}, "fusion_lon": 0.0}, {"lat": 38.911126333333335, "is_disabled": 0, "type": "electric_scooter", "lon": -77.04268583333334, "bike_id": "d884dd4ed47a49e37a59f77fb0231190", "fusion_lat": 0.0, "name": "d884dd4ed47a49e37a59f77fb0231190", "is_reserved": 0, "rental_uris": {"android": "https://dc.lft.to/lastmile_qr_scan", "ios": "https://dc.lft.to/lastmile_qr_scan"}, "fusion_lon": 0.0}, {"lat": 38.91864416666667, "is_disabled": 0, "type": "electric_scooter", "lon": -77.041462, "bike_id": "a890bd1ee2cfc31369bcb177b5fc5fe3", "fusion_lat": 0.0, "name": "a890bd1ee2cfc31369bcb177b5fc5fe3", "is_reserved": 0, "rental_uris": {"android": "https://dc.lft.to/lastmile_qr_scan", "ios": "https://dc.lft.to/lastmile_qr_scan"}, "fusion_lon": 0.0}, {"lat": 38.902647333333334, "is_disabled": 0, "type": "electric_scooter", "lon": -77.03379283333334, "bike_id": "2ba8aebf44d202eca5b2157eb80eb80d", "fusion_lat": 0.0, "name": "2ba8aebf44d202eca5b2157eb80eb80d", "is_reserved": 0, "rental_uris": {"android": "https://dc.lft.to/lastmile_qr_scan", "ios": "https://dc.lft.to/lastmile_qr_scan"}, "fusion_lon": 0.0}, {"lat": 38.914215, "is_disabled": 0, "type": "electric_scooter", "lon": -77.0220565, "bike_id": "34e80d038345b4ba3342b660a6f60c93", "fusion_lat": 0.0, "name": "34e80d038345b4ba3342b660a6f60c93", "is_reserved": 0, "rental_uris": {"android": "https://dc.lft.to/lastmile_qr_scan", "ios": "https://dc.lft.to/lastmile_qr_scan"}, "fusion_lon": 0.0}, {"lat": 38.923300166666664, "is_disabled": 0, "type": "electric_scooter", "lon": -77.04180416666667, "bike_id": "bad974fd4bb4f52058ef9955f075ea2b", "fusion_lat": 0.0, "name": "bad974fd4bb4f52058ef9955f075ea2b", "is_reserved": 0, "rental_uris": {"android": "https://dc.lft.to/lastmile_qr_scan", "ios": "https://dc.lft.to/lastmile_qr_scan"}, "fusion_lon": 0.0}, {"lat": 38.89345083333333, "is_disabled": 0, "type": "electric_scooter", "lon": -76.9493435, "bike_id": "ce50f08cefb41706e8cb34301adbf3fb", "fusion_lat": 0.0, "name": "ce50f08cefb41706e8cb34301adbf3fb", "is_reserved": 0, "rental_uris": {"android": "https://dc.lft.to/lastmile_qr_scan", "ios": "https://dc.lft.to/lastmile_qr_scan"}, "fusion_lon": 0.0}, {"lat": 38.9182195, "is_disabled": 0, "type": "electric_scooter", "lon": -77.039176, "bike_id": "15e1a82b1c6a2a1144810685608f090b", "fusion_lat": 0.0, "name": "15e1a82b1c6a2a1144810685608f090b", "is_reserved": 0, "rental_uris": {"android": "https://dc.lft.to/lastmile_qr_scan", "ios": "https://dc.lft.to/lastmile_qr_scan"}, "fusion_lon": 0.0}, {"lat": 38.907661833333336, "is_disabled": 0, "type": "electric_scooter", "lon": -76.98304766666666, "bike_id": "f3362e2b142e545cfb55b202fa89a568", "fusion_lat": 0.0, "name": "f3362e2b142e545cfb55b202fa89a568", "is_reserved": 0, "rental_uris": {"android": "https://dc.lft.to/lastmile_qr_scan", "ios": "https://dc.lft.to/lastmile_qr_scan"}, "fusion_lon": 0.0}, {"lat": 38.89466733333333, "is_disabled": 0, "type": "electric_scooter", "lon": -77.02124916666666, "bike_id": "c47700091690e4bd012a77b41fe3b799", "fusion_lat": 0.0, "name": "c47700091690e4bd012a77b41fe3b799", "is_reserved": 0, "rental_uris": {"android": "https://dc.lft.to/lastmile_qr_scan", "ios": "https://dc.lft.to/lastmile_qr_scan"}, "fusion_lon": 0.0}, {"lat": 38.903680333333334, "is_disabled": 0, "type": "electric_scooter", "lon": -77.03981933333333, "bike_id": "d14821650c3471958abf22d96d13e453", "fusion_lat": 0.0, "name": "d14821650c3471958abf22d96d13e453", "is_reserved": 0, "rental_uris": {"android": "https://dc.lft.to/lastmile_qr_scan", "ios": "https://dc.lft.to/lastmile_qr_scan"}, "fusion_lon": 0.0}, {"lat": 38.907880666666664, "is_disabled": 0, "type": "electric_scooter", "lon": -77.04343266666666, "bike_id": "9dd5b8023116b620ce7d5da95873eafe", "fusion_lat": 0.0, "name": "9dd5b8023116b620ce7d5da95873eafe", "is_reserved": 0, "rental_uris": {"android": "https://dc.lft.to/lastmile_qr_scan", "ios": "https://dc.lft.to/lastmile_qr_scan"}, "fusion_lon": 0.0}, {"lat": 38.9036625, "is_disabled": 0, "type": "electric_scooter", "lon": -77.04276083333333, "bike_id": "231e0498a33f27953172ac8d0365fc46", "fusion_lat": 0.0, "name": "231e0498a33f27953172ac8d0365fc46", "is_reserved": 0, "rental_uris": {"android": "https://dc.lft.to/lastmile_qr_scan", "ios": "https://dc.lft.to/lastmile_qr_scan"}, "fusion_lon": 0.0}, {"lat": 38.925672666666664, "is_disabled": 0, "type": "electric_scooter", "lon": -77.03535316666667, "bike_id": "373e236eb037dd5e6aa8ba88fe9ff0cc", "fusion_lat": 0.0, "name": "373e236eb037dd5e6aa8ba88fe9ff0cc", "is_reserved": 0, "rental_uris": {"android": "https://dc.lft.to/lastmile_qr_scan", "ios": "https://dc.lft.to/lastmile_qr_scan"}, "fusion_lon": 0.0}, {"lat": 38.909769833333335, "is_disabled": 0, "type": "electric_bike", "lon": -76.98521733333334, "bike_id": "356530b00b49765bbda4765485edac6e", "fusion_lat": 0.0, "name": "356530b00b49765bbda4765485edac6e", "is_reserved": 0, "rental_uris": {"android": "https://dc.lft.to/lastmile_qr_scan", "ios": "https://dc.lft.to/lastmile_qr_scan"}, "fusion_lon": 0.0}, {"lat": 38.97276433333333, "is_disabled": 0, "type": "electric_bike", "lon": -77.03624816666667, "bike_id": "f61abd2296575e5124314704ed1c0086", "fusion_lat": 0.0, "name": "f61abd2296575e5124314704ed1c0086", "is_reserved": 0, "rental_uris": {"android": "https://dc.lft.to/lastmile_qr_scan", "ios": "https://dc.lft.to/lastmile_qr_scan"}, "fusion_lon": 0.0}, {"lat": 38.90012633333333, "is_disabled": 0, "type": "electric_scooter", "lon": -77.0120055, "bike_id": "91fab679662c589bb06e1bc4ff31d1e1", "fusion_lat": 0.0, "name": "91fab679662c589bb06e1bc4ff31d1e1", "is_reserved": 0, "rental_uris": {"android": "https://dc.lft.to/lastmile_qr_scan", "ios": "https://dc.lft.to/lastmile_qr_scan"}, "fusion_lon": 0.0}, {"lat": 38.884784833333335, "is_disabled": 0, "type": "electric_scooter", "lon": -77.02411033333334, "bike_id": "38af971eb42ef0015156e66addccfc12", "fusion_lat": 0.0, "name": "38af971eb42ef0015156e66addccfc12", "is_reserved": 0, "rental_uris": {"android": "https://dc.lft.to/lastmile_qr_scan", "ios": "https://dc.lft.to/lastmile_qr_scan"}, "fusion_lon": 0.0}, {"lat": 38.865086833333336, "is_disabled": 0, "type": "electric_scooter", "lon": -76.99008216666667, "bike_id": "eab9064374171b6fafcb96a1c91e54f0", "fusion_lat": 0.0, "name": "eab9064374171b6fafcb96a1c91e54f0", "is_reserved": 0, "rental_uris": {"android": "https://dc.lft.to/lastmile_qr_scan", "ios": "https://dc.lft.to/lastmile_qr_scan"}, "fusion_lon": 0.0}, {"lat": 38.905648, "is_disabled": 0, "type": "electric_bike", "lon": -77.01312466666667, "bike_id": "08f7d9d479d51f89c43099f31fcaeeff", "fusion_lat": 0.0, "name": "08f7d9d479d51f89c43099f31fcaeeff", "is_reserved": 0, "rental_uris": {"android": "https://dc.lft.to/lastmile_qr_scan", "ios": "https://dc.lft.to/lastmile_qr_scan"}, "fusion_lon": 0.0}, {"lat": 38.867123, "is_disabled": 0, "type": "electric_scooter", "lon": -76.98725516666667, "bike_id": "caf90d073f895d43fe90d45cd8f62b55", "fusion_lat": 0.0, "name": "caf90d073f895d43fe90d45cd8f62b55", "is_reserved": 0, "rental_uris": {"android": "https://dc.lft.to/lastmile_qr_scan", "ios": "https://dc.lft.to/lastmile_qr_scan"}, "fusion_lon": 0.0}, {"lat": 38.88111966666666, "is_disabled": 0, "type": "electric_scooter", "lon": -77.016473, "bike_id": "752867049c1f01febd4563492e9b1336", "fusion_lat": 0.0, "name": "752867049c1f01febd4563492e9b1336", "is_reserved": 0, "rental_uris": {"android": "https://dc.lft.to/lastmile_qr_scan", "ios": "https://dc.lft.to/lastmile_qr_scan"}, "fusion_lon": 0.0}, {"lat": 38.91266266666667, "is_disabled": 0, "type": "electric_scooter", "lon": -77.02253816666666, "bike_id": "a461568773af5c8a336dc298d5819861", "fusion_lat": 0.0, "name": "a461568773af5c8a336dc298d5819861", "is_reserved": 0, "rental_uris": {"android": "https://dc.lft.to/lastmile_qr_scan", "ios": "https://dc.lft.to/lastmile_qr_scan"}, "fusion_lon": 0.0}, {"lat": 38.905173833333336, "is_disabled": 0, "type": "electric_scooter", "lon": -77.048758, "bike_id": "22c5de3e54bd27083b49ca639ed721f4", "fusion_lat": 0.0, "name": "22c5de3e54bd27083b49ca639ed721f4", "is_reserved": 0, "rental_uris": {"android": "https://dc.lft.to/lastmile_qr_scan", "ios": "https://dc.lft.to/lastmile_qr_scan"}, "fusion_lon": 0.0}, {"lat": 38.9455075, "is_disabled": 0, "type": "electric_bike", "lon": -76.89534716666667, "bike_id": "442e75aee8d04c2bbfe9862d5bf2fc2a", "fusion_lat": 0.0, "name": "442e75aee8d04c2bbfe9862d5bf2fc2a", "is_reserved": 0, "rental_uris": {"android": "https://dc.lft.to/lastmile_qr_scan", "ios": "https://dc.lft.to/lastmile_qr_scan"}, "fusion_lon": 0.0}, {"lat": 38.936552, "is_disabled": 0, "type": "electric_bike", "lon": -76.95222133333333, "bike_id": "acf828877194c7b4bf31c47eb42bb68e", "fusion_lat": 0.0, "name": "acf828877194c7b4bf31c47eb42bb68e", "is_reserved": 0, "rental_uris": {"android": "https://dc.lft.to/lastmile_qr_scan", "ios": "https://dc.lft.to/lastmile_qr_scan"}, "fusion_lon": 0.0}, {"lat": 39.03425083333333, "is_disabled": 0, "type": "electric_bike", "lon": -77.04318066666667, "bike_id": "ffface08ff4d6c233dc28e0176db6c61", "fusion_lat": 0.0, "name": "ffface08ff4d6c233dc28e0176db6c61", "is_reserved": 0, "rental_uris": {"android": "https://dc.lft.to/lastmile_qr_scan", "ios": "https://dc.lft.to/lastmile_qr_scan"}, "fusion_lon": 0.0}, {"lat": 38.90375616666667, "is_disabled": 0, "type": "electric_scooter", "lon": -77.0385895, "bike_id": "7ae3ae08b8aa53b25c72d4f12420ffb6", "fusion_lat": 0.0, "name": "7ae3ae08b8aa53b25c72d4f12420ffb6", "is_reserved": 0, "rental_uris": {"android": "https://dc.lft.to/lastmile_qr_scan", "ios": "https://dc.lft.to/lastmile_qr_scan"}, "fusion_lon": 0.0}, {"lat": 38.90988266666667, "is_disabled": 0, "type": "electric_scooter", "lon": -77.03196316666667, "bike_id": "b97eba38caaae934d04d7a304d611db1", "fusion_lat": 0.0, "name": "b97eba38caaae934d04d7a304d611db1", "is_reserved": 0, "rental_uris": {"android": "https://dc.lft.to/lastmile_qr_scan", "ios": "https://dc.lft.to/lastmile_qr_scan"}, "fusion_lon": 0.0}, {"lat": 38.86254316666667, "is_disabled": 0, "type": "electric_scooter", "lon": -76.99515566666666, "bike_id": "da4a3666daa8b21a1cf6bd93d9d8ec53", "fusion_lat": 0.0, "name": "da4a3666daa8b21a1cf6bd93d9d8ec53", "is_reserved": 0, "rental_uris": {"android": "https://dc.lft.to/lastmile_qr_scan", "ios": "https://dc.lft.to/lastmile_qr_scan"}, "fusion_lon": 0.0}, {"lat": 38.8518995, "is_disabled": 0, "type": "electric_scooter", "lon": -76.97623483333334, "bike_id": "ef51860a30e6e3202c395d29352d0b9e", "fusion_lat": 0.0, "name": "ef51860a30e6e3202c395d29352d0b9e", "is_reserved": 0, "rental_uris": {"android": "https://dc.lft.to/lastmile_qr_scan", "ios": "https://dc.lft.to/lastmile_qr_scan"}, "fusion_lon": 0.0}, {"lat": 38.937408833333336, "is_disabled": 0, "type": "electric_scooter", "lon": -77.0361915, "bike_id": "ef72121a4e63a03913080d0eaed63192", "fusion_lat": 0.0, "name": "ef72121a4e63a03913080d0eaed63192", "is_reserved": 0, "rental_uris": {"android": "https://dc.lft.to/lastmile_qr_scan", "ios": "https://dc.lft.to/lastmile_qr_scan"}, "fusion_lon": 0.0}, {"lat": 38.898517166666664, "is_disabled": 0, "type": "electric_scooter", "lon": -76.99032383333333, "bike_id": "908195fa13fb41f7db4ec1de52426277", "fusion_lat": 0.0, "name": "908195fa13fb41f7db4ec1de52426277", "is_reserved": 0, "rental_uris": {"android": "https://dc.lft.to/lastmile_qr_scan", "ios": "https://dc.lft.to/lastmile_qr_scan"}, "fusion_lon": 0.0}, {"lat": 38.9259175, "is_disabled": 0, "type": "electric_scooter", "lon": -77.04402683333333, "bike_id": "23b0335dc99b3bd31e345c31873f4e59", "fusion_lat": 0.0, "name": "23b0335dc99b3bd31e345c31873f4e59", "is_reserved": 0, "rental_uris": {"android": "https://dc.lft.to/lastmile_qr_scan", "ios": "https://dc.lft.to/lastmile_qr_scan"}, "fusion_lon": 0.0}, {"lat": 38.844347666666664, "is_disabled": 0, "type": "electric_scooter", "lon": -76.996591, "bike_id": "8e369df29a25a61afd159dfbe9793929", "fusion_lat": 0.0, "name": "8e369df29a25a61afd159dfbe9793929", "is_reserved": 0, "rental_uris": {"android": "https://dc.lft.to/lastmile_qr_scan", "ios": "https://dc.lft.to/lastmile_qr_scan"}, "fusion_lon": 0.0}, {"lat": 38.90949416666667, "is_disabled": 0, "type": "electric_scooter", "lon": -77.04804383333334, "bike_id": "8044c3ed35105f62c20d212c6857eb2e", "fusion_lat": 0.0, "name": "8044c3ed35105f62c20d212c6857eb2e", "is_reserved": 0, "rental_uris": {"android": "https://dc.lft.to/lastmile_qr_scan", "ios": "https://dc.lft.to/lastmile_qr_scan"}, "fusion_lon": 0.0}, {"lat": 38.897313833333335, "is_disabled": 0, "type": "electric_scooter", "lon": -77.04982833333334, "bike_id": "e78cee4dfc5a57ae42db6cee0f6ab242", "fusion_lat": 0.0, "name": "e78cee4dfc5a57ae42db6cee0f6ab242", "is_reserved": 0, "rental_uris": {"android": "https://dc.lft.to/lastmile_qr_scan", "ios": "https://dc.lft.to/lastmile_qr_scan"}, "fusion_lon": 0.0}, {"lat": 38.9007155, "is_disabled": 0, "type": "electric_scooter", "lon": -77.04909466666666, "bike_id": "2328ca823955bb5992d753eed60d9fb8", "fusion_lat": 0.0, "name": "2328ca823955bb5992d753eed60d9fb8", "is_reserved": 0, "rental_uris": {"android": "https://dc.lft.to/lastmile_qr_scan", "ios": "https://dc.lft.to/lastmile_qr_scan"}, "fusion_lon": 0.0}, {"lat": 38.905418166666664, "is_disabled": 0, "type": "electric_scooter", "lon": -77.00575333333333, "bike_id": "40011bcb9137d7aeab4181f506b11266", "fusion_lat": 0.0, "name": "40011bcb9137d7aeab4181f506b11266", "is_reserved": 0, "rental_uris": {"android": "https://dc.lft.to/lastmile_qr_scan", "ios": "https://dc.lft.to/lastmile_qr_scan"}, "fusion_lon": 0.0}, {"lat": 38.905192166666666, "is_disabled": 0, "type": "electric_scooter", "lon": -77.0630755, "bike_id": "10fc0fc8c2871c53a6701482c4c0f36d", "fusion_lat": 0.0, "name": "10fc0fc8c2871c53a6701482c4c0f36d", "is_reserved": 0, "rental_uris": {"android": "https://dc.lft.to/lastmile_qr_scan", "ios": "https://dc.lft.to/lastmile_qr_scan"}, "fusion_lon": 0.0}, {"lat": 38.99257983333333, "is_disabled": 0, "type": "electric_scooter", "lon": -77.03656333333333, "bike_id": "3f0f07142c962987f86220b0c9db56d3", "fusion_lat": 0.0, "name": "3f0f07142c962987f86220b0c9db56d3", "is_reserved": 0, "rental_uris": {"android": "https://dc.lft.to/lastmile_qr_scan", "ios": "https://dc.lft.to/lastmile_qr_scan"}, "fusion_lon": 0.0}, {"lat": 38.910481833333336, "is_disabled": 0, "type": "electric_scooter", "lon": -77.0437725, "bike_id": "c657972770375dd481f12b43c4cab652", "fusion_lat": 0.0, "name": "c657972770375dd481f12b43c4cab652", "is_reserved": 0, "rental_uris": {"android": "https://dc.lft.to/lastmile_qr_scan", "ios": "https://dc.lft.to/lastmile_qr_scan"}, "fusion_lon": 0.0}, {"lat": 38.905777, "is_disabled": 0, "type": "electric_scooter", "lon": -77.022039, "bike_id": "e7d8224ee3f44a5c8964750f5bfbffb5", "fusion_lat": 0.0, "name": "e7d8224ee3f44a5c8964750f5bfbffb5", "is_reserved": 0, "rental_uris": {"android": "https://dc.lft.to/lastmile_qr_scan", "ios": "https://dc.lft.to/lastmile_qr_scan"}, "fusion_lon": 0.0}, {"lat": 38.92061016666667, "is_disabled": 0, "type": "electric_scooter", "lon": -77.043739, "bike_id": "40edd393ee1e168b99c6dc3686ef967e", "fusion_lat": 0.0, "name": "40edd393ee1e168b99c6dc3686ef967e", "is_reserved": 0, "rental_uris": {"android": "https://dc.lft.to/lastmile_qr_scan", "ios": "https://dc.lft.to/lastmile_qr_scan"}, "fusion_lon": 0.0}, {"lat": 38.91922616666667, "is_disabled": 0, "type": "electric_scooter", "lon": -77.02488933333333, "bike_id": "57ede1fa27028cda4e1744a3d5ca822b", "fusion_lat": 0.0, "name": "57ede1fa27028cda4e1744a3d5ca822b", "is_reserved": 0, "rental_uris": {"android": "https://dc.lft.to/lastmile_qr_scan", "ios": "https://dc.lft.to/lastmile_qr_scan"}, "fusion_lon": 0.0}, {"lat": 38.89783666666666, "is_disabled": 0, "type": "electric_scooter", "lon": -77.0092135, "bike_id": "cd98b95e0d62912f9c2dd27424ec2f21", "fusion_lat": 0.0, "name": "cd98b95e0d62912f9c2dd27424ec2f21", "is_reserved": 0, "rental_uris": {"android": "https://dc.lft.to/lastmile_qr_scan", "ios": "https://dc.lft.to/lastmile_qr_scan"}, "fusion_lon": 0.0}, {"lat": 38.88764416666667, "is_disabled": 0, "type": "electric_scooter", "lon": -76.955987, "bike_id": "f635a0a8e170b3560a0bed99c8ac5d2e", "fusion_lat": 0.0, "name": "f635a0a8e170b3560a0bed99c8ac5d2e", "is_reserved": 0, "rental_uris": {"android": "https://dc.lft.to/lastmile_qr_scan", "ios": "https://dc.lft.to/lastmile_qr_scan"}, "fusion_lon": 0.0}, {"lat": 38.936473, "is_disabled": 0, "type": "electric_scooter", "lon": -77.03685916666667, "bike_id": "5e6b31de36f92a7968bc79b5f0da588f", "fusion_lat": 0.0, "name": "5e6b31de36f92a7968bc79b5f0da588f", "is_reserved": 0, "rental_uris": {"android": "https://dc.lft.to/lastmile_qr_scan", "ios": "https://dc.lft.to/lastmile_qr_scan"}, "fusion_lon": 0.0}, {"lat": 38.8664695, "is_disabled": 0, "type": "electric_scooter", "lon": -76.98885316666667, "bike_id": "a322ec22cec1c7e48616fb844ffb95d5", "fusion_lat": 0.0, "name": "a322ec22cec1c7e48616fb844ffb95d5", "is_reserved": 0, "rental_uris": {"android": "https://dc.lft.to/lastmile_qr_scan", "ios": "https://dc.lft.to/lastmile_qr_scan"}, "fusion_lon": 0.0}, {"lat": 38.9387585, "is_disabled": 0, "type": "electric_scooter", "lon": -77.0312745, "bike_id": "39287e90bab73e19d9cdca5421bfb8cf", "fusion_lat": 0.0, "name": "39287e90bab73e19d9cdca5421bfb8cf", "is_reserved": 0, "rental_uris": {"android": "https://dc.lft.to/lastmile_qr_scan", "ios": "https://dc.lft.to/lastmile_qr_scan"}, "fusion_lon": 0.0}, {"lat": 38.9104685, "is_disabled": 0, "type": "electric_scooter", "lon": -77.04270516666666, "bike_id": "4f2cd6f5d0d4917b43bdd0e2de541658", "fusion_lat": 0.0, "name": "4f2cd6f5d0d4917b43bdd0e2de541658", "is_reserved": 0, "rental_uris": {"android": "https://dc.lft.to/lastmile_qr_scan", "ios": "https://dc.lft.to/lastmile_qr_scan"}, "fusion_lon": 0.0}, {"lat": 38.952968166666665, "is_disabled": 0, "type": "electric_scooter", "lon": -77.08152016666666, "bike_id": "9e798246cdb284a531a88f7786202467", "fusion_lat": 0.0, "name": "9e798246cdb284a531a88f7786202467", "is_reserved": 0, "rental_uris": {"android": "https://dc.lft.to/lastmile_qr_scan", "ios": "https://dc.lft.to/lastmile_qr_scan"}, "fusion_lon": 0.0}, {"lat": 38.90145833333333, "is_disabled": 0, "type": "electric_scooter", "lon": -77.02925183333333, "bike_id": "cc8c9228f6aaf0be07215347d8ce7f70", "fusion_lat": 0.0, "name": "cc8c9228f6aaf0be07215347d8ce7f70", "is_reserved": 0, "rental_uris": {"android": "https://dc.lft.to/lastmile_qr_scan", "ios": "https://dc.lft.to/lastmile_qr_scan"}, "fusion_lon": 0.0}, {"lat": 38.896228, "is_disabled": 0, "type": "electric_scooter", "lon": -77.021477, "bike_id": "c51f180f2cd5abba44405483b99cf9a3", "fusion_lat": 0.0, "name": "c51f180f2cd5abba44405483b99cf9a3", "is_reserved": 0, "rental_uris": {"android": "https://dc.lft.to/lastmile_qr_scan", "ios": "https://dc.lft.to/lastmile_qr_scan"}, "fusion_lon": 0.0}, {"lat": 38.865096, "is_disabled": 0, "type": "electric_scooter", "lon": -76.99006833333334, "bike_id": "4f0ebc34492fde4d5781345e947e2af5", "fusion_lat": 0.0, "name": "4f0ebc34492fde4d5781345e947e2af5", "is_reserved": 0, "rental_uris": {"android": "https://dc.lft.to/lastmile_qr_scan", "ios": "https://dc.lft.to/lastmile_qr_scan"}, "fusion_lon": 0.0}, {"lat": 38.91781916666667, "is_disabled": 0, "type": "electric_scooter", "lon": -77.023146, "bike_id": "dc8ee96dabdf0f961036e7beb5bfcb6c", "fusion_lat": 0.0, "name": "dc8ee96dabdf0f961036e7beb5bfcb6c", "is_reserved": 0, "rental_uris": {"android": "https://dc.lft.to/lastmile_qr_scan", "ios": "https://dc.lft.to/lastmile_qr_scan"}, "fusion_lon": 0.0}, {"lat": 38.903155166666664, "is_disabled": 0, "type": "electric_scooter", "lon": -77.02888983333334, "bike_id": "bbdd68d8a8df560c708708c06445e8b2", "fusion_lat": 0.0, "name": "bbdd68d8a8df560c708708c06445e8b2", "is_reserved": 0, "rental_uris": {"android": "https://dc.lft.to/lastmile_qr_scan", "ios": "https://dc.lft.to/lastmile_qr_scan"}, "fusion_lon": 0.0}, {"lat": 38.84276666666667, "is_disabled": 0, "type": "electric_bike", "lon": -76.98842833333333, "bike_id": "e832b28254414208ba6c12c6896ef70a", "fusion_lat": 0.0, "name": "e832b28254414208ba6c12c6896ef70a", "is_reserved": 0, "rental_uris": {"android": "https://dc.lft.to/lastmile_qr_scan", "ios": "https://dc.lft.to/lastmile_qr_scan"}, "fusion_lon": 0.0}, {"lat": 38.926467833333334, "is_disabled": 0, "type": "electric_scooter", "lon": -76.99752433333333, "bike_id": "373f5341e7aa98c23620e8c3e07e048b", "fusion_lat": 0.0, "name": "373f5341e7aa98c23620e8c3e07e048b", "is_reserved": 0, "rental_uris": {"android": "https://dc.lft.to/lastmile_qr_scan", "ios": "https://dc.lft.to/lastmile_qr_scan"}, "fusion_lon": 0.0}, {"lat": 38.88489283333333, "is_disabled": 0, "type": "electric_scooter", "lon": -77.034754, "bike_id": "b0efe1a932c233c667b70e499068e9d3", "fusion_lat": 0.0, "name": "b0efe1a932c233c667b70e499068e9d3", "is_reserved": 0, "rental_uris": {"android": "https://dc.lft.to/lastmile_qr_scan", "ios": "https://dc.lft.to/lastmile_qr_scan"}, "fusion_lon": 0.0}, {"lat": 38.934074333333335, "is_disabled": 0, "type": "electric_scooter", "lon": -77.02464166666667, "bike_id": "a814a90c2b8fb77ad22b8d7f75d6e726", "fusion_lat": 0.0, "name": "a814a90c2b8fb77ad22b8d7f75d6e726", "is_reserved": 0, "rental_uris": {"android": "https://dc.lft.to/lastmile_qr_scan", "ios": "https://dc.lft.to/lastmile_qr_scan"}, "fusion_lon": 0.0}, {"lat": 38.8372995, "is_disabled": 0, "type": "electric_bike", "lon": -76.99766366666667, "bike_id": "2d013ac7637874294bca1ac5ed6b59f9", "fusion_lat": 0.0, "name": "2d013ac7637874294bca1ac5ed6b59f9", "is_reserved": 0, "rental_uris": {"android": "https://dc.lft.to/lastmile_qr_scan", "ios": "https://dc.lft.to/lastmile_qr_scan"}, "fusion_lon": 0.0}, {"lat": 38.85680883333333, "is_disabled": 0, "type": "electric_scooter", "lon": -76.98184283333333, "bike_id": "321e9b564e5c05a94c0e0a0a0ab19e7f", "fusion_lat": 0.0, "name": "321e9b564e5c05a94c0e0a0a0ab19e7f", "is_reserved": 0, "rental_uris": {"android": "https://dc.lft.to/lastmile_qr_scan", "ios": "https://dc.lft.to/lastmile_qr_scan"}, "fusion_lon": 0.0}, {"lat": 38.8955075, "is_disabled": 0, "type": "electric_scooter", "lon": -77.00439733333333, "bike_id": "6fe18766409fb369d772984ed382c2c0", "fusion_lat": 0.0, "name": "6fe18766409fb369d772984ed382c2c0", "is_reserved": 0, "rental_uris": {"android": "https://dc.lft.to/lastmile_qr_scan", "ios": "https://dc.lft.to/lastmile_qr_scan"}, "fusion_lon": 0.0}, {"lat": 38.91448783333333, "is_disabled": 0, "type": "electric_scooter", "lon": -77.03208783333334, "bike_id": "c836c16f460f9c8254358e0b1b83be32", "fusion_lat": 0.0, "name": "c836c16f460f9c8254358e0b1b83be32", "is_reserved": 0, "rental_uris": {"android": "https://dc.lft.to/lastmile_qr_scan", "ios": "https://dc.lft.to/lastmile_qr_scan"}, "fusion_lon": 0.0}, {"lat": 38.895083166666666, "is_disabled": 0, "type": "electric_scooter", "lon": -77.02204183333333, "bike_id": "16d376a30e01e65e167d0bdeb5654e75", "fusion_lat": 0.0, "name": "16d376a30e01e65e167d0bdeb5654e75", "is_reserved": 0, "rental_uris": {"android": "https://dc.lft.to/lastmile_qr_scan", "ios": "https://dc.lft.to/lastmile_qr_scan"}, "fusion_lon": 0.0}, {"lat": 38.924799166666666, "is_disabled": 0, "type": "electric_scooter", "lon": -77.02834433333334, "bike_id": "0869503601050812dc87bc459f8d039f", "fusion_lat": 0.0, "name": "0869503601050812dc87bc459f8d039f", "is_reserved": 0, "rental_uris": {"android": "https://dc.lft.to/lastmile_qr_scan", "ios": "https://dc.lft.to/lastmile_qr_scan"}, "fusion_lon": 0.0}, {"lat": 38.90677183333333, "is_disabled": 0, "type": "electric_scooter", "lon": -77.06269233333333, "bike_id": "97f401962caf3afbe8de2ed4eacda501", "fusion_lat": 0.0, "name": "97f401962caf3afbe8de2ed4eacda501", "is_reserved": 0, "rental_uris": {"android": "https://dc.lft.to/lastmile_qr_scan", "ios": "https://dc.lft.to/lastmile_qr_scan"}, "fusion_lon": 0.0}, {"lat": 38.8442595, "is_disabled": 0, "type": "electric_scooter", "lon": -76.997772, "bike_id": "30e381f23a65a1da384fcc31047d0fec", "fusion_lat": 0.0, "name": "30e381f23a65a1da384fcc31047d0fec", "is_reserved": 0, "rental_uris": {"android": "https://dc.lft.to/lastmile_qr_scan", "ios": "https://dc.lft.to/lastmile_qr_scan"}, "fusion_lon": 0.0}, {"lat": 38.9865935, "is_disabled": 0, "type": "electric_bike", "lon": -77.05642283333333, "bike_id": "8d8a762141055aca4116960e92276146", "fusion_lat": 0.0, "name": "8d8a762141055aca4116960e92276146", "is_reserved": 0, "rental_uris": {"android": "https://dc.lft.to/lastmile_qr_scan", "ios": "https://dc.lft.to/lastmile_qr_scan"}, "fusion_lon": 0.0}, {"lat": 38.874673333333334, "is_disabled": 0, "type": "electric_scooter", "lon": -77.00520366666667, "bike_id": "c891570afda5e99acfcdb45f63a194f0", "fusion_lat": 0.0, "name": "c891570afda5e99acfcdb45f63a194f0", "is_reserved": 0, "rental_uris": {"android": "https://dc.lft.to/lastmile_qr_scan", "ios": "https://dc.lft.to/lastmile_qr_scan"}, "fusion_lon": 0.0}, {"lat": 38.90774716666667, "is_disabled": 0, "type": "electric_scooter", "lon": -77.03859183333333, "bike_id": "f58ba3e30a9c363b0493ffbdb37a611a", "fusion_lat": 0.0, "name": "f58ba3e30a9c363b0493ffbdb37a611a", "is_reserved": 0, "rental_uris": {"android": "https://dc.lft.to/lastmile_qr_scan", "ios": "https://dc.lft.to/lastmile_qr_scan"}, "fusion_lon": 0.0}, {"lat": 38.91473966666667, "is_disabled": 0, "type": "electric_scooter", "lon": -77.00357233333334, "bike_id": "4ac075d261c8eba189414c8efc190caf", "fusion_lat": 0.0, "name": "4ac075d261c8eba189414c8efc190caf", "is_reserved": 0, "rental_uris": {"android": "https://dc.lft.to/lastmile_qr_scan", "ios": "https://dc.lft.to/lastmile_qr_scan"}, "fusion_lon": 0.0}, {"lat": 38.92188216666667, "is_disabled": 0, "type": "electric_scooter", "lon": -77.039781, "bike_id": "fdc91e4440dc309c36c6e84dedfe1794", "fusion_lat": 0.0, "name": "fdc91e4440dc309c36c6e84dedfe1794", "is_reserved": 0, "rental_uris": {"android": "https://dc.lft.to/lastmile_qr_scan", "ios": "https://dc.lft.to/lastmile_qr_scan"}, "fusion_lon": 0.0}, {"lat": 38.9309615, "is_disabled": 0, "type": "electric_scooter", "lon": -77.02560316666667, "bike_id": "91414c0c729c626d61af1b1265d3dd50", "fusion_lat": 0.0, "name": "91414c0c729c626d61af1b1265d3dd50", "is_reserved": 0, "rental_uris": {"android": "https://dc.lft.to/lastmile_qr_scan", "ios": "https://dc.lft.to/lastmile_qr_scan"}, "fusion_lon": 0.0}, {"lat": 38.90866283333333, "is_disabled": 0, "type": "electric_bike", "lon": -76.93164533333334, "bike_id": "0abef9e41a1a476d1faa5ed6905fca1f", "fusion_lat": 0.0, "name": "0abef9e41a1a476d1faa5ed6905fca1f", "is_reserved": 0, "rental_uris": {"android": "https://dc.lft.to/lastmile_qr_scan", "ios": "https://dc.lft.to/lastmile_qr_scan"}, "fusion_lon": 0.0}, {"lat": 38.892505166666666, "is_disabled": 0, "type": "electric_scooter", "lon": -77.04895633333334, "bike_id": "2fe4bb8ca2c26107dbfeb4f8a14d70db", "fusion_lat": 0.0, "name": "2fe4bb8ca2c26107dbfeb4f8a14d70db", "is_reserved": 0, "rental_uris": {"android": "https://dc.lft.to/lastmile_qr_scan", "ios": "https://dc.lft.to/lastmile_qr_scan"}, "fusion_lon": 0.0}, {"lat": 38.874539, "is_disabled": 0, "type": "electric_scooter", "lon": -77.00925266666667, "bike_id": "4af19d094ae7da6020a5bd1aefae4f22", "fusion_lat": 0.0, "name": "4af19d094ae7da6020a5bd1aefae4f22", "is_reserved": 0, "rental_uris": {"android": "https://dc.lft.to/lastmile_qr_scan", "ios": "https://dc.lft.to/lastmile_qr_scan"}, "fusion_lon": 0.0}, {"lat": 38.93355733333333, "is_disabled": 0, "type": "electric_scooter", "lon": -77.07369666666666, "bike_id": "59367bda7e0447a1cb0b6f5f40e57af3", "fusion_lat": 0.0, "name": "59367bda7e0447a1cb0b6f5f40e57af3", "is_reserved": 0, "rental_uris": {"android": "https://dc.lft.to/lastmile_qr_scan", "ios": "https://dc.lft.to/lastmile_qr_scan"}, "fusion_lon": 0.0}, {"lat": 38.969292333333335, "is_disabled": 0, "type": "electric_bike", "lon": -77.02619883333334, "bike_id": "7d6a65b6282c6a49ce66f17d8ae7ddf0", "fusion_lat": 0.0, "name": "7d6a65b6282c6a49ce66f17d8ae7ddf0", "is_reserved": 0, "rental_uris": {"android": "https://dc.lft.to/lastmile_qr_scan", "ios": "https://dc.lft.to/lastmile_qr_scan"}, "fusion_lon": 0.0}, {"lat": 38.898355, "is_disabled": 0, "type": "electric_scooter", "lon": -76.93103983333333, "bike_id": "3602c5a80a2b8ca2a38720c1b125a608", "fusion_lat": 0.0, "name": "3602c5a80a2b8ca2a38720c1b125a608", "is_reserved": 0, "rental_uris": {"android": "https://dc.lft.to/lastmile_qr_scan", "ios": "https://dc.lft.to/lastmile_qr_scan"}, "fusion_lon": 0.0}, {"lat": 38.903149666666664, "is_disabled": 0, "type": "electric_scooter", "lon": -76.98998616666667, "bike_id": "efee7e11bb0342ab8ff26dc91a8ca312", "fusion_lat": 0.0, "name": "efee7e11bb0342ab8ff26dc91a8ca312", "is_reserved": 0, "rental_uris": {"android": "https://dc.lft.to/lastmile_qr_scan", "ios": "https://dc.lft.to/lastmile_qr_scan"}, "fusion_lon": 0.0}, {"lat": 38.9074045, "is_disabled": 0, "type": "electric_scooter", "lon": -77.03201483333333, "bike_id": "91e8a77fe1e8923a6d3da5dd9386a6b4", "fusion_lat": 0.0, "name": "91e8a77fe1e8923a6d3da5dd9386a6b4", "is_reserved": 0, "rental_uris": {"android": "https://dc.lft.to/lastmile_qr_scan", "ios": "https://dc.lft.to/lastmile_qr_scan"}, "fusion_lon": 0.0}, {"lat": 38.9045695, "is_disabled": 0, "type": "electric_scooter", "lon": -76.99459366666666, "bike_id": "0ab2f94d3dbfa0bc152512cc37fc4694", "fusion_lat": 0.0, "name": "0ab2f94d3dbfa0bc152512cc37fc4694", "is_reserved": 0, "rental_uris": {"android": "https://dc.lft.to/lastmile_qr_scan", "ios": "https://dc.lft.to/lastmile_qr_scan"}, "fusion_lon": 0.0}, {"lat": 38.920799833333334, "is_disabled": 0, "type": "electric_bike", "lon": -76.991868, "bike_id": "bc2ffbf9172331420e615617ea2c19a2", "fusion_lat": 0.0, "name": "bc2ffbf9172331420e615617ea2c19a2", "is_reserved": 0, "rental_uris": {"android": "https://dc.lft.to/lastmile_qr_scan", "ios": "https://dc.lft.to/lastmile_qr_scan"}, "fusion_lon": 0.0}, {"lat": 38.909863333333334, "is_disabled": 0, "type": "electric_scooter", "lon": -77.04493033333334, "bike_id": "8d889804c1ecbb38da4c0a1561836ba5", "fusion_lat": 0.0, "name": "8d889804c1ecbb38da4c0a1561836ba5", "is_reserved": 0, "rental_uris": {"android": "https://dc.lft.to/lastmile_qr_scan", "ios": "https://dc.lft.to/lastmile_qr_scan"}, "fusion_lon": 0.0}, {"lat": 38.892332333333336, "is_disabled": 0, "type": "electric_bike", "lon": -76.99618683333334, "bike_id": "f52013660f1fe813656eef9d7f127ec2", "fusion_lat": 0.0, "name": "f52013660f1fe813656eef9d7f127ec2", "is_reserved": 0, "rental_uris": {"android": "https://dc.lft.to/lastmile_qr_scan", "ios": "https://dc.lft.to/lastmile_qr_scan"}, "fusion_lon": 0.0}, {"lat": 38.8341985, "is_disabled": 0, "type": "electric_bike", "lon": -77.10373033333333, "bike_id": "a307c181264e97b8bae45f56a934c8ea", "fusion_lat": 0.0, "name": "a307c181264e97b8bae45f56a934c8ea", "is_reserved": 0, "rental_uris": {"android": "https://dc.lft.to/lastmile_qr_scan", "ios": "https://dc.lft.to/lastmile_qr_scan"}, "fusion_lon": 0.0}, {"lat": 38.84469, "is_disabled": 0, "type": "electric_bike", "lon": -76.9874895, "bike_id": "45c4d95f4c7dc26585f71a751d3a244a", "fusion_lat": 0.0, "name": "45c4d95f4c7dc26585f71a751d3a244a", "is_reserved": 0, "rental_uris": {"android": "https://dc.lft.to/lastmile_qr_scan", "ios": "https://dc.lft.to/lastmile_qr_scan"}, "fusion_lon": 0.0}, {"lat": 38.876279, "is_disabled": 0, "type": "electric_scooter", "lon": -76.9652595, "bike_id": "bc316e687d3579b4fb2e590bc01aa42f", "fusion_lat": 0.0, "name": "bc316e687d3579b4fb2e590bc01aa42f", "is_reserved": 0, "rental_uris": {"android": "https://dc.lft.to/lastmile_qr_scan", "ios": "https://dc.lft.to/lastmile_qr_scan"}, "fusion_lon": 0.0}, {"lat": 38.9061015, "is_disabled": 0, "type": "electric_scooter", "lon": -76.98982816666667, "bike_id": "c00a9de1f47fb1ed395610249ff5b396", "fusion_lat": 0.0, "name": "c00a9de1f47fb1ed395610249ff5b396", "is_reserved": 0, "rental_uris": {"android": "https://dc.lft.to/lastmile_qr_scan", "ios": "https://dc.lft.to/lastmile_qr_scan"}, "fusion_lon": 0.0}, {"lat": 38.904957333333336, "is_disabled": 0, "type": "electric_scooter", "lon": -77.02948683333334, "bike_id": "89494054b1545b6bf7202d36331849c3", "fusion_lat": 0.0, "name": "89494054b1545b6bf7202d36331849c3", "is_reserved": 0, "rental_uris": {"android": "https://dc.lft.to/lastmile_qr_scan", "ios": "https://dc.lft.to/lastmile_qr_scan"}, "fusion_lon": 0.0}, {"lat": 38.90035016666667, "is_disabled": 0, "type": "electric_scooter", "lon": -76.9837485, "bike_id": "7d53987652413c6e252975aad1dcbced", "fusion_lat": 0.0, "name": "7d53987652413c6e252975aad1dcbced", "is_reserved": 0, "rental_uris": {"android": "https://dc.lft.to/lastmile_qr_scan", "ios": "https://dc.lft.to/lastmile_qr_scan"}, "fusion_lon": 0.0}, {"lat": 38.90379816666667, "is_disabled": 0, "type": "electric_scooter", "lon": -77.04263766666666, "bike_id": "b3f072b845a121c25b09af491e1bec5b", "fusion_lat": 0.0, "name": "b3f072b845a121c25b09af491e1bec5b", "is_reserved": 0, "rental_uris": {"android": "https://dc.lft.to/lastmile_qr_scan", "ios": "https://dc.lft.to/lastmile_qr_scan"}, "fusion_lon": 0.0}, {"lat": 38.86527516666666, "is_disabled": 0, "type": "electric_scooter", "lon": -76.99024966666667, "bike_id": "d2a4ec4e379ffb8c064c30a06f4ef46a", "fusion_lat": 0.0, "name": "d2a4ec4e379ffb8c064c30a06f4ef46a", "is_reserved": 0, "rental_uris": {"android": "https://dc.lft.to/lastmile_qr_scan", "ios": "https://dc.lft.to/lastmile_qr_scan"}, "fusion_lon": 0.0}, {"lat": 38.869971666666665, "is_disabled": 0, "type": "electric_bike", "lon": -77.06570083333334, "bike_id": "f0700f14419bdf02641555cb618fd3da", "fusion_lat": 0.0, "name": "f0700f14419bdf02641555cb618fd3da", "is_reserved": 0, "rental_uris": {"android": "https://dc.lft.to/lastmile_qr_scan", "ios": "https://dc.lft.to/lastmile_qr_scan"}, "fusion_lon": 0.0}, {"lat": 38.92410233333333, "is_disabled": 0, "type": "electric_scooter", "lon": -77.02744366666667, "bike_id": "1af50829f5ab74938c5a54c488869632", "fusion_lat": 0.0, "name": "1af50829f5ab74938c5a54c488869632", "is_reserved": 0, "rental_uris": {"android": "https://dc.lft.to/lastmile_qr_scan", "ios": "https://dc.lft.to/lastmile_qr_scan"}, "fusion_lon": 0.0}, {"lat": 38.93445233333333, "is_disabled": 0, "type": "electric_scooter", "lon": -77.03090716666667, "bike_id": "91a3b5109c80e4006bffd5ee67715cd1", "fusion_lat": 0.0, "name": "91a3b5109c80e4006bffd5ee67715cd1", "is_reserved": 0, "rental_uris": {"android": "https://dc.lft.to/lastmile_qr_scan", "ios": "https://dc.lft.to/lastmile_qr_scan"}, "fusion_lon": 0.0}, {"lat": 38.85932283333333, "is_disabled": 0, "type": "electric_scooter", "lon": -76.99716483333333, "bike_id": "57f768145fbdf43d8f933f51487a6b39", "fusion_lat": 0.0, "name": "57f768145fbdf43d8f933f51487a6b39", "is_reserved": 0, "rental_uris": {"android": "https://dc.lft.to/lastmile_qr_scan", "ios": "https://dc.lft.to/lastmile_qr_scan"}, "fusion_lon": 0.0}, {"lat": 38.9003975, "is_disabled": 0, "type": "electric_scooter", "lon": -77.02975383333333, "bike_id": "6427b6540d8a40eb53956962ce0d7273", "fusion_lat": 0.0, "name": "6427b6540d8a40eb53956962ce0d7273", "is_reserved": 0, "rental_uris": {"android": "https://dc.lft.to/lastmile_qr_scan", "ios": "https://dc.lft.to/lastmile_qr_scan"}, "fusion_lon": 0.0}, {"lat": 39.00473366666667, "is_disabled": 0, "type": "electric_bike", "lon": -76.901367, "bike_id": "5600556682985dcbf97af7e50841bed8", "fusion_lat": 0.0, "name": "5600556682985dcbf97af7e50841bed8", "is_reserved": 0, "rental_uris": {"android": "https://dc.lft.to/lastmile_qr_scan", "ios": "https://dc.lft.to/lastmile_qr_scan"}, "fusion_lon": 0.0}, {"lat": 38.909906666666664, "is_disabled": 0, "type": "electric_scooter", "lon": -76.997383, "bike_id": "5b0287a8ff5f30e6cdb28159f67c9784", "fusion_lat": 0.0, "name": "5b0287a8ff5f30e6cdb28159f67c9784", "is_reserved": 0, "rental_uris": {"android": "https://dc.lft.to/lastmile_qr_scan", "ios": "https://dc.lft.to/lastmile_qr_scan"}, "fusion_lon": 0.0}, {"lat": 38.91820216666667, "is_disabled": 0, "type": "electric_scooter", "lon": -77.03563716666666, "bike_id": "1b8ed142dd6f1f27e64f9fed578c9055", "fusion_lat": 0.0, "name": "1b8ed142dd6f1f27e64f9fed578c9055", "is_reserved": 0, "rental_uris": {"android": "https://dc.lft.to/lastmile_qr_scan", "ios": "https://dc.lft.to/lastmile_qr_scan"}, "fusion_lon": 0.0}, {"lat": 38.928702666666666, "is_disabled": 0, "type": "electric_scooter", "lon": -77.01941516666666, "bike_id": "0adf4efe47b25fb550f34fead19b250d", "fusion_lat": 0.0, "name": "0adf4efe47b25fb550f34fead19b250d", "is_reserved": 0, "rental_uris": {"android": "https://dc.lft.to/lastmile_qr_scan", "ios": "https://dc.lft.to/lastmile_qr_scan"}, "fusion_lon": 0.0}, {"lat": 38.88302766666666, "is_disabled": 0, "type": "electric_scooter", "lon": -77.01741633333333, "bike_id": "a02cda9670233510421970373955acc7", "fusion_lat": 0.0, "name": "a02cda9670233510421970373955acc7", "is_reserved": 0, "rental_uris": {"android": "https://dc.lft.to/lastmile_qr_scan", "ios": "https://dc.lft.to/lastmile_qr_scan"}, "fusion_lon": 0.0}, {"lat": 38.9232125, "is_disabled": 0, "type": "electric_scooter", "lon": -77.02800783333333, "bike_id": "b1884fd30b48e80265b3f40a4c0565b6", "fusion_lat": 0.0, "name": "b1884fd30b48e80265b3f40a4c0565b6", "is_reserved": 0, "rental_uris": {"android": "https://dc.lft.to/lastmile_qr_scan", "ios": "https://dc.lft.to/lastmile_qr_scan"}, "fusion_lon": 0.0}, {"lat": 38.91834733333334, "is_disabled": 0, "type": "electric_scooter", "lon": -77.02372183333334, "bike_id": "7a3a7506200208ecd20ecb9400016954", "fusion_lat": 0.0, "name": "7a3a7506200208ecd20ecb9400016954", "is_reserved": 0, "rental_uris": {"android": "https://dc.lft.to/lastmile_qr_scan", "ios": "https://dc.lft.to/lastmile_qr_scan"}, "fusion_lon": 0.0}, {"lat": 38.92793983333333, "is_disabled": 0, "type": "electric_scooter", "lon": -77.03817416666666, "bike_id": "314a1cc1ab086bf2912086d29a729d3d", "fusion_lat": 0.0, "name": "314a1cc1ab086bf2912086d29a729d3d", "is_reserved": 0, "rental_uris": {"android": "https://dc.lft.to/lastmile_qr_scan", "ios": "https://dc.lft.to/lastmile_qr_scan"}, "fusion_lon": 0.0}, {"lat": 38.893976, "is_disabled": 0, "type": "electric_scooter", "lon": -77.04997766666666, "bike_id": "13f78a8baaae4081c5af347a16b8a591", "fusion_lat": 0.0, "name": "13f78a8baaae4081c5af347a16b8a591", "is_reserved": 0, "rental_uris": {"android": "https://dc.lft.to/lastmile_qr_scan", "ios": "https://dc.lft.to/lastmile_qr_scan"}, "fusion_lon": 0.0}, {"lat": 38.91046866666667, "is_disabled": 0, "type": "electric_scooter", "lon": -77.04346766666667, "bike_id": "4ac71fba6e44f2522c75ad350f19aba0", "fusion_lat": 0.0, "name": "4ac71fba6e44f2522c75ad350f19aba0", "is_reserved": 0, "rental_uris": {"android": "https://dc.lft.to/lastmile_qr_scan", "ios": "https://dc.lft.to/lastmile_qr_scan"}, "fusion_lon": 0.0}, {"lat": 38.90075, "is_disabled": 0, "type": "electric_scooter", "lon": -77.00216266666666, "bike_id": "0edab6fbfe02e1c637ac8902ece6ead0", "fusion_lat": 0.0, "name": "0edab6fbfe02e1c637ac8902ece6ead0", "is_reserved": 0, "rental_uris": {"android": "https://dc.lft.to/lastmile_qr_scan", "ios": "https://dc.lft.to/lastmile_qr_scan"}, "fusion_lon": 0.0}, {"lat": 38.828749, "is_disabled": 0, "type": "electric_bike", "lon": -77.11220133333333, "bike_id": "392172a87a0e8e766bce9fb7d4fe9cbe", "fusion_lat": 0.0, "name": "392172a87a0e8e766bce9fb7d4fe9cbe", "is_reserved": 0, "rental_uris": {"android": "https://dc.lft.to/lastmile_qr_scan", "ios": "https://dc.lft.to/lastmile_qr_scan"}, "fusion_lon": 0.0}, {"lat": 38.904940333333336, "is_disabled": 0, "type": "electric_scooter", "lon": -77.00696866666667, "bike_id": "4c195dfe2729a1c0699c06ca70583d64", "fusion_lat": 0.0, "name": "4c195dfe2729a1c0699c06ca70583d64", "is_reserved": 0, "rental_uris": {"android": "https://dc.lft.to/lastmile_qr_scan", "ios": "https://dc.lft.to/lastmile_qr_scan"}, "fusion_lon": 0.0}, {"lat": 38.90544933333334, "is_disabled": 0, "type": "electric_scooter", "lon": -77.04678016666666, "bike_id": "c65a19b4153a46bec8357e34d1e030af", "fusion_lat": 0.0, "name": "c65a19b4153a46bec8357e34d1e030af", "is_reserved": 0, "rental_uris": {"android": "https://dc.lft.to/lastmile_qr_scan", "ios": "https://dc.lft.to/lastmile_qr_scan"}, "fusion_lon": 0.0}, {"lat": 38.90989666666667, "is_disabled": 0, "type": "electric_scooter", "lon": -76.99740333333334, "bike_id": "b355ddcb3e76b464af442c1db5504668", "fusion_lat": 0.0, "name": "b355ddcb3e76b464af442c1db5504668", "is_reserved": 0, "rental_uris": {"android": "https://dc.lft.to/lastmile_qr_scan", "ios": "https://dc.lft.to/lastmile_qr_scan"}, "fusion_lon": 0.0}, {"lat": 38.914708, "is_disabled": 0, "type": "electric_scooter", "lon": -77.0668895, "bike_id": "1602a09f4038dfda600bf127a02eb5c5", "fusion_lat": 0.0, "name": "1602a09f4038dfda600bf127a02eb5c5", "is_reserved": 0, "rental_uris": {"android": "https://dc.lft.to/lastmile_qr_scan", "ios": "https://dc.lft.to/lastmile_qr_scan"}, "fusion_lon": 0.0}, {"lat": 38.90828533333333, "is_disabled": 0, "type": "electric_scooter", "lon": -77.03574533333334, "bike_id": "9db74bf35620e39cdb7041e4ef4fdc77", "fusion_lat": 0.0, "name": "9db74bf35620e39cdb7041e4ef4fdc77", "is_reserved": 0, "rental_uris": {"android": "https://dc.lft.to/lastmile_qr_scan", "ios": "https://dc.lft.to/lastmile_qr_scan"}, "fusion_lon": 0.0}, {"lat": 38.929738666666665, "is_disabled": 0, "type": "electric_scooter", "lon": -77.03205233333334, "bike_id": "d342f8ab4240822e767b35d438be04c6", "fusion_lat": 0.0, "name": "d342f8ab4240822e767b35d438be04c6", "is_reserved": 0, "rental_uris": {"android": "https://dc.lft.to/lastmile_qr_scan", "ios": "https://dc.lft.to/lastmile_qr_scan"}, "fusion_lon": 0.0}, {"lat": 38.924299166666664, "is_disabled": 0, "type": "electric_scooter", "lon": -77.034158, "bike_id": "7fcab24f8d96f37c8ade47e5953c6f22", "fusion_lat": 0.0, "name": "7fcab24f8d96f37c8ade47e5953c6f22", "is_reserved": 0, "rental_uris": {"android": "https://dc.lft.to/lastmile_qr_scan", "ios": "https://dc.lft.to/lastmile_qr_scan"}, "fusion_lon": 0.0}, {"lat": 38.8666035, "is_disabled": 0, "type": "electric_scooter", "lon": -76.98905083333334, "bike_id": "4c62447ba3da75eb0dedb221c39cd19a", "fusion_lat": 0.0, "name": "4c62447ba3da75eb0dedb221c39cd19a", "is_reserved": 0, "rental_uris": {"android": "https://dc.lft.to/lastmile_qr_scan", "ios": "https://dc.lft.to/lastmile_qr_scan"}, "fusion_lon": 0.0}, {"lat": 38.92409216666667, "is_disabled": 0, "type": "electric_scooter", "lon": -77.0341685, "bike_id": "701f9327ee2da29ada5b6d4636dc41c9", "fusion_lat": 0.0, "name": "701f9327ee2da29ada5b6d4636dc41c9", "is_reserved": 0, "rental_uris": {"android": "https://dc.lft.to/lastmile_qr_scan", "ios": "https://dc.lft.to/lastmile_qr_scan"}, "fusion_lon": 0.0}, {"lat": 38.924459166666665, "is_disabled": 0, "type": "electric_scooter", "lon": -77.03358033333333, "bike_id": "3acd4b829df9400f7f8310adbbc6d250", "fusion_lat": 0.0, "name": "3acd4b829df9400f7f8310adbbc6d250", "is_reserved": 0, "rental_uris": {"android": "https://dc.lft.to/lastmile_qr_scan", "ios": "https://dc.lft.to/lastmile_qr_scan"}, "fusion_lon": 0.0}, {"lat": 38.91113933333333, "is_disabled": 0, "type": "electric_scooter", "lon": -77.02232483333333, "bike_id": "24736e309305af662058c900a3ae6b68", "fusion_lat": 0.0, "name": "24736e309305af662058c900a3ae6b68", "is_reserved": 0, "rental_uris": {"android": "https://dc.lft.to/lastmile_qr_scan", "ios": "https://dc.lft.to/lastmile_qr_scan"}, "fusion_lon": 0.0}, {"lat": 38.923859, "is_disabled": 0, "type": "electric_scooter", "lon": -77.0366065, "bike_id": "20653a5c68db53508d9a93e2ae78c7a6", "fusion_lat": 0.0, "name": "20653a5c68db53508d9a93e2ae78c7a6", "is_reserved": 0, "rental_uris": {"android": "https://dc.lft.to/lastmile_qr_scan", "ios": "https://dc.lft.to/lastmile_qr_scan"}, "fusion_lon": 0.0}, {"lat": 38.895003833333334, "is_disabled": 0, "type": "electric_scooter", "lon": -77.01089816666666, "bike_id": "ad6f56e45f91fc9f3e8be382344c0c40", "fusion_lat": 0.0, "name": "ad6f56e45f91fc9f3e8be382344c0c40", "is_reserved": 0, "rental_uris": {"android": "https://dc.lft.to/lastmile_qr_scan", "ios": "https://dc.lft.to/lastmile_qr_scan"}, "fusion_lon": 0.0}, {"lat": 38.9154065, "is_disabled": 0, "type": "electric_scooter", "lon": -77.0383475, "bike_id": "b38e63631d39257223e8ac9326ba5f47", "fusion_lat": 0.0, "name": "b38e63631d39257223e8ac9326ba5f47", "is_reserved": 0, "rental_uris": {"android": "https://dc.lft.to/lastmile_qr_scan", "ios": "https://dc.lft.to/lastmile_qr_scan"}, "fusion_lon": 0.0}, {"lat": 38.91254583333333, "is_disabled": 0, "type": "electric_scooter", "lon": -77.0380555, "bike_id": "bf9af6a4384ebedc71ddf7456dc09af8", "fusion_lat": 0.0, "name": "bf9af6a4384ebedc71ddf7456dc09af8", "is_reserved": 0, "rental_uris": {"android": "https://dc.lft.to/lastmile_qr_scan", "ios": "https://dc.lft.to/lastmile_qr_scan"}, "fusion_lon": 0.0}, {"lat": 38.916891666666665, "is_disabled": 0, "type": "electric_scooter", "lon": -77.029574, "bike_id": "a889e4ed6defde315dd8a69bf0e39f30", "fusion_lat": 0.0, "name": "a889e4ed6defde315dd8a69bf0e39f30", "is_reserved": 0, "rental_uris": {"android": "https://dc.lft.to/lastmile_qr_scan", "ios": "https://dc.lft.to/lastmile_qr_scan"}, "fusion_lon": 0.0}, {"lat": 38.907958, "is_disabled": 0, "type": "electric_scooter", "lon": -76.99698883333333, "bike_id": "f4032e28ac7bc8c6597e2b71cc08cca4", "fusion_lat": 0.0, "name": "f4032e28ac7bc8c6597e2b71cc08cca4", "is_reserved": 0, "rental_uris": {"android": "https://dc.lft.to/lastmile_qr_scan", "ios": "https://dc.lft.to/lastmile_qr_scan"}, "fusion_lon": 0.0}, {"lat": 38.91872133333333, "is_disabled": 0, "type": "electric_scooter", "lon": -77.04035883333333, "bike_id": "ac7cd350d5823346256bcd76abf1926d", "fusion_lat": 0.0, "name": "ac7cd350d5823346256bcd76abf1926d", "is_reserved": 0, "rental_uris": {"android": "https://dc.lft.to/lastmile_qr_scan", "ios": "https://dc.lft.to/lastmile_qr_scan"}, "fusion_lon": 0.0}, {"lat": 38.918137333333334, "is_disabled": 0, "type": "electric_bike", "lon": -77.026992, "bike_id": "def09d7de300d5a715c66f3ef5afe89e", "fusion_lat": 0.0, "name": "def09d7de300d5a715c66f3ef5afe89e", "is_reserved": 0, "rental_uris": {"android": "https://dc.lft.to/lastmile_qr_scan", "ios": "https://dc.lft.to/lastmile_qr_scan"}, "fusion_lon": 0.0}, {"lat": 38.9174815, "is_disabled": 0, "type": "electric_scooter", "lon": -77.03660916666666, "bike_id": "9fbec9b758736522d28dddf16aadf78e", "fusion_lat": 0.0, "name": "9fbec9b758736522d28dddf16aadf78e", "is_reserved": 0, "rental_uris": {"android": "https://dc.lft.to/lastmile_qr_scan", "ios": "https://dc.lft.to/lastmile_qr_scan"}, "fusion_lon": 0.0}, {"lat": 38.949745, "is_disabled": 0, "type": "electric_scooter", "lon": -77.06761666666667, "bike_id": "2189622d345e75e0355a867a4b840a06", "fusion_lat": 0.0, "name": "2189622d345e75e0355a867a4b840a06", "is_reserved": 0, "rental_uris": {"android": "https://dc.lft.to/lastmile_qr_scan", "ios": "https://dc.lft.to/lastmile_qr_scan"}, "fusion_lon": 0.0}, {"lat": 39.024375, "is_disabled": 0, "type": "electric_bike", "lon": -77.1309955, "bike_id": "5588c9ac9e4e7143910ab421f1984de7", "fusion_lat": 0.0, "name": "5588c9ac9e4e7143910ab421f1984de7", "is_reserved": 0, "rental_uris": {"android": "https://dc.lft.to/lastmile_qr_scan", "ios": "https://dc.lft.to/lastmile_qr_scan"}, "fusion_lon": 0.0}, {"lat": 38.906232333333335, "is_disabled": 0, "type": "electric_scooter", "lon": -76.98700066666666, "bike_id": "726c1cc6cb3413806db886b4a9fa3db1", "fusion_lat": 0.0, "name": "726c1cc6cb3413806db886b4a9fa3db1", "is_reserved": 0, "rental_uris": {"android": "https://dc.lft.to/lastmile_qr_scan", "ios": "https://dc.lft.to/lastmile_qr_scan"}, "fusion_lon": 0.0}, {"lat": 38.936431166666665, "is_disabled": 0, "type": "electric_scooter", "lon": -77.0365745, "bike_id": "9271da999c7ce949f15e3764df402f90", "fusion_lat": 0.0, "name": "9271da999c7ce949f15e3764df402f90", "is_reserved": 0, "rental_uris": {"android": "https://dc.lft.to/lastmile_qr_scan", "ios": "https://dc.lft.to/lastmile_qr_scan"}, "fusion_lon": 0.0}, {"lat": 38.913185666666664, "is_disabled": 0, "type": "electric_scooter", "lon": -76.98643283333334, "bike_id": "56be5f79c22529cc5b91ee6991fb703d", "fusion_lat": 0.0, "name": "56be5f79c22529cc5b91ee6991fb703d", "is_reserved": 0, "rental_uris": {"android": "https://dc.lft.to/lastmile_qr_scan", "ios": "https://dc.lft.to/lastmile_qr_scan"}, "fusion_lon": 0.0}, {"lat": 38.9020095, "is_disabled": 0, "type": "electric_scooter", "lon": -77.0237685, "bike_id": "8c9c69fc29acbf0de5db07d3f25ab14b", "fusion_lat": 0.0, "name": "8c9c69fc29acbf0de5db07d3f25ab14b", "is_reserved": 0, "rental_uris": {"android": "https://dc.lft.to/lastmile_qr_scan", "ios": "https://dc.lft.to/lastmile_qr_scan"}, "fusion_lon": 0.0}, {"lat": 38.9012795, "is_disabled": 0, "type": "electric_scooter", "lon": -77.02885083333334, "bike_id": "b20656269b0318ccf2ff22c8cab9c24d", "fusion_lat": 0.0, "name": "b20656269b0318ccf2ff22c8cab9c24d", "is_reserved": 0, "rental_uris": {"android": "https://dc.lft.to/lastmile_qr_scan", "ios": "https://dc.lft.to/lastmile_qr_scan"}, "fusion_lon": 0.0}, {"lat": 38.99818366666667, "is_disabled": 0, "type": "electric_bike", "lon": -76.88374233333333, "bike_id": "d94e2414bf889b37f67a99aadf208bc1", "fusion_lat": 0.0, "name": "d94e2414bf889b37f67a99aadf208bc1", "is_reserved": 0, "rental_uris": {"android": "https://dc.lft.to/lastmile_qr_scan", "ios": "https://dc.lft.to/lastmile_qr_scan"}, "fusion_lon": 0.0}, {"lat": 39.03046833333333, "is_disabled": 0, "type": "electric_bike", "lon": -77.094773, "bike_id": "08a05d1a425cb709369d0a7d529554d8", "fusion_lat": 0.0, "name": "08a05d1a425cb709369d0a7d529554d8", "is_reserved": 0, "rental_uris": {"android": "https://dc.lft.to/lastmile_qr_scan", "ios": "https://dc.lft.to/lastmile_qr_scan"}, "fusion_lon": 0.0}, {"lat": 38.920295333333335, "is_disabled": 0, "type": "electric_scooter", "lon": -77.013259, "bike_id": "a9e70900ede7031a61f2bacf5873203e", "fusion_lat": 0.0, "name": "a9e70900ede7031a61f2bacf5873203e", "is_reserved": 0, "rental_uris": {"android": "https://dc.lft.to/lastmile_qr_scan", "ios": "https://dc.lft.to/lastmile_qr_scan"}, "fusion_lon": 0.0}, {"lat": 38.92613716666666, "is_disabled": 0, "type": "electric_scooter", "lon": -77.0419315, "bike_id": "228283bb558fca64001de0947d159df6", "fusion_lat": 0.0, "name": "228283bb558fca64001de0947d159df6", "is_reserved": 0, "rental_uris": {"android": "https://dc.lft.to/lastmile_qr_scan", "ios": "https://dc.lft.to/lastmile_qr_scan"}, "fusion_lon": 0.0}, {"lat": 38.906976666666665, "is_disabled": 0, "type": "electric_scooter", "lon": -77.02950683333333, "bike_id": "30022623a9b70c7b052c0cea72c20ea1", "fusion_lat": 0.0, "name": "30022623a9b70c7b052c0cea72c20ea1", "is_reserved": 0, "rental_uris": {"android": "https://dc.lft.to/lastmile_qr_scan", "ios": "https://dc.lft.to/lastmile_qr_scan"}, "fusion_lon": 0.0}, {"lat": 38.896586666666664, "is_disabled": 0, "type": "electric_scooter", "lon": -77.02404766666666, "bike_id": "d93394ab4cf5c9b9108b5b5a4ac11b93", "fusion_lat": 0.0, "name": "d93394ab4cf5c9b9108b5b5a4ac11b93", "is_reserved": 0, "rental_uris": {"android": "https://dc.lft.to/lastmile_qr_scan", "ios": "https://dc.lft.to/lastmile_qr_scan"}, "fusion_lon": 0.0}, {"lat": 38.9084245, "is_disabled": 0, "type": "electric_scooter", "lon": -77.03470066666667, "bike_id": "fd55bc920b6aee9cdc29d34cf87ccfcd", "fusion_lat": 0.0, "name": "fd55bc920b6aee9cdc29d34cf87ccfcd", "is_reserved": 0, "rental_uris": {"android": "https://dc.lft.to/lastmile_qr_scan", "ios": "https://dc.lft.to/lastmile_qr_scan"}, "fusion_lon": 0.0}, {"lat": 38.907402833333336, "is_disabled": 0, "type": "electric_scooter", "lon": -77.00930733333334, "bike_id": "6a55d0a615aaaab325a82f2ea475a9f8", "fusion_lat": 0.0, "name": "6a55d0a615aaaab325a82f2ea475a9f8", "is_reserved": 0, "rental_uris": {"android": "https://dc.lft.to/lastmile_qr_scan", "ios": "https://dc.lft.to/lastmile_qr_scan"}, "fusion_lon": 0.0}, {"lat": 38.944208, "is_disabled": 0, "type": "electric_scooter", "lon": -77.06279483333333, "bike_id": "335a8a9a83b3a05a757da5fb6e80c44d", "fusion_lat": 0.0, "name": "335a8a9a83b3a05a757da5fb6e80c44d", "is_reserved": 0, "rental_uris": {"android": "https://dc.lft.to/lastmile_qr_scan", "ios": "https://dc.lft.to/lastmile_qr_scan"}, "fusion_lon": 0.0}, {"lat": 38.901702, "is_disabled": 0, "type": "electric_scooter", "lon": -77.02498516666667, "bike_id": "ea97ca5934625dda850b6d52e52f2cc6", "fusion_lat": 0.0, "name": "ea97ca5934625dda850b6d52e52f2cc6", "is_reserved": 0, "rental_uris": {"android": "https://dc.lft.to/lastmile_qr_scan", "ios": "https://dc.lft.to/lastmile_qr_scan"}, "fusion_lon": 0.0}, {"lat": 38.8949775, "is_disabled": 0, "type": "electric_scooter", "lon": -77.00212216666667, "bike_id": "44635231ac049e1984faeeb362b05d53", "fusion_lat": 0.0, "name": "44635231ac049e1984faeeb362b05d53", "is_reserved": 0, "rental_uris": {"android": "https://dc.lft.to/lastmile_qr_scan", "ios": "https://dc.lft.to/lastmile_qr_scan"}, "fusion_lon": 0.0}, {"lat": 38.88764233333333, "is_disabled": 0, "type": "electric_scooter", "lon": -76.9559985, "bike_id": "bab8901dd442465f5c8e364697d497e4", "fusion_lat": 0.0, "name": "bab8901dd442465f5c8e364697d497e4", "is_reserved": 0, "rental_uris": {"android": "https://dc.lft.to/lastmile_qr_scan", "ios": "https://dc.lft.to/lastmile_qr_scan"}, "fusion_lon": 0.0}, {"lat": 38.86625133333333, "is_disabled": 0, "type": "electric_scooter", "lon": -76.98701, "bike_id": "20c160e9ae9169df825594be7c7734a1", "fusion_lat": 0.0, "name": "20c160e9ae9169df825594be7c7734a1", "is_reserved": 0, "rental_uris": {"android": "https://dc.lft.to/lastmile_qr_scan", "ios": "https://dc.lft.to/lastmile_qr_scan"}, "fusion_lon": 0.0}, {"lat": 38.87575366666667, "is_disabled": 0, "type": "electric_bike", "lon": -77.10564783333334, "bike_id": "8ced97b6322d5894ac8e5832eb2761ab", "fusion_lat": 0.0, "name": "8ced97b6322d5894ac8e5832eb2761ab", "is_reserved": 0, "rental_uris": {"android": "https://dc.lft.to/lastmile_qr_scan", "ios": "https://dc.lft.to/lastmile_qr_scan"}, "fusion_lon": 0.0}, {"lat": 38.88490916666667, "is_disabled": 0, "type": "electric_scooter", "lon": -77.00710566666666, "bike_id": "edcbc48377aa0304465f33f18c081cd5", "fusion_lat": 0.0, "name": "edcbc48377aa0304465f33f18c081cd5", "is_reserved": 0, "rental_uris": {"android": "https://dc.lft.to/lastmile_qr_scan", "ios": "https://dc.lft.to/lastmile_qr_scan"}, "fusion_lon": 0.0}, {"lat": 38.905484666666666, "is_disabled": 0, "type": "electric_scooter", "lon": -77.0467515, "bike_id": "1b6b4dea92f6e39d0395a557790e6b64", "fusion_lat": 0.0, "name": "1b6b4dea92f6e39d0395a557790e6b64", "is_reserved": 0, "rental_uris": {"android": "https://dc.lft.to/lastmile_qr_scan", "ios": "https://dc.lft.to/lastmile_qr_scan"}, "fusion_lon": 0.0}, {"lat": 38.93475, "is_disabled": 0, "type": "electric_scooter", "lon": -77.0358155, "bike_id": "f221540893f50c135a088238d8c50bd4", "fusion_lat": 0.0, "name": "f221540893f50c135a088238d8c50bd4", "is_reserved": 0, "rental_uris": {"android": "https://dc.lft.to/lastmile_qr_scan", "ios": "https://dc.lft.to/lastmile_qr_scan"}, "fusion_lon": 0.0}, {"lat": 38.84296166666667, "is_disabled": 0, "type": "electric_scooter", "lon": -76.99943483333334, "bike_id": "ebf064608beff6be1ef980ad9e4b23e6", "fusion_lat": 0.0, "name": "ebf064608beff6be1ef980ad9e4b23e6", "is_reserved": 0, "rental_uris": {"android": "https://dc.lft.to/lastmile_qr_scan", "ios": "https://dc.lft.to/lastmile_qr_scan"}, "fusion_lon": 0.0}, {"lat": 38.9323795, "is_disabled": 0, "type": "electric_scooter", "lon": -76.99604283333333, "bike_id": "6aa2b6ec9bd6046e9ba78a2fbbf97e6f", "fusion_lat": 0.0, "name": "6aa2b6ec9bd6046e9ba78a2fbbf97e6f", "is_reserved": 0, "rental_uris": {"android": "https://dc.lft.to/lastmile_qr_scan", "ios": "https://dc.lft.to/lastmile_qr_scan"}, "fusion_lon": 0.0}, {"lat": 38.942912666666665, "is_disabled": 0, "type": "electric_scooter", "lon": -77.02175316666667, "bike_id": "c9d48c924ace01a1a8f5e043aa5cdd38", "fusion_lat": 0.0, "name": "c9d48c924ace01a1a8f5e043aa5cdd38", "is_reserved": 0, "rental_uris": {"android": "https://dc.lft.to/lastmile_qr_scan", "ios": "https://dc.lft.to/lastmile_qr_scan"}, "fusion_lon": 0.0}, {"lat": 38.90109866666667, "is_disabled": 0, "type": "electric_scooter", "lon": -77.04991933333334, "bike_id": "f3d262f452c2249f89b9c9db60f39ef9", "fusion_lat": 0.0, "name": "f3d262f452c2249f89b9c9db60f39ef9", "is_reserved": 0, "rental_uris": {"android": "https://dc.lft.to/lastmile_qr_scan", "ios": "https://dc.lft.to/lastmile_qr_scan"}, "fusion_lon": 0.0}, {"lat": 38.911961833333336, "is_disabled": 0, "type": "electric_scooter", "lon": -77.00225133333333, "bike_id": "ec39e8742cac6ce848dfc3c98886abb4", "fusion_lat": 0.0, "name": "ec39e8742cac6ce848dfc3c98886abb4", "is_reserved": 0, "rental_uris": {"android": "https://dc.lft.to/lastmile_qr_scan", "ios": "https://dc.lft.to/lastmile_qr_scan"}, "fusion_lon": 0.0}, {"lat": 38.84269916666667, "is_disabled": 0, "type": "electric_bike", "lon": -76.988412, "bike_id": "33f5e5f47ff91ddd06230ff8df3c1c1f", "fusion_lat": 0.0, "name": "33f5e5f47ff91ddd06230ff8df3c1c1f", "is_reserved": 0, "rental_uris": {"android": "https://dc.lft.to/lastmile_qr_scan", "ios": "https://dc.lft.to/lastmile_qr_scan"}, "fusion_lon": 0.0}, {"lat": 38.8791425, "is_disabled": 0, "type": "electric_scooter", "lon": -77.00883016666667, "bike_id": "15aba60557787c02395b62c265d051c8", "fusion_lat": 0.0, "name": "15aba60557787c02395b62c265d051c8", "is_reserved": 0, "rental_uris": {"android": "https://dc.lft.to/lastmile_qr_scan", "ios": "https://dc.lft.to/lastmile_qr_scan"}, "fusion_lon": 0.0}, {"lat": 38.895029, "is_disabled": 0, "type": "electric_scooter", "lon": -77.00325683333334, "bike_id": "748d409555626385276655050da11d11", "fusion_lat": 0.0, "name": "748d409555626385276655050da11d11", "is_reserved": 0, "rental_uris": {"android": "https://dc.lft.to/lastmile_qr_scan", "ios": "https://dc.lft.to/lastmile_qr_scan"}, "fusion_lon": 0.0}, {"lat": 38.9074215, "is_disabled": 0, "type": "electric_scooter", "lon": -77.04202316666667, "bike_id": "5a1a4a912c7df3199b925cc14a66a27d", "fusion_lat": 0.0, "name": "5a1a4a912c7df3199b925cc14a66a27d", "is_reserved": 0, "rental_uris": {"android": "https://dc.lft.to/lastmile_qr_scan", "ios": "https://dc.lft.to/lastmile_qr_scan"}, "fusion_lon": 0.0}, {"lat": 38.918266, "is_disabled": 0, "type": "electric_scooter", "lon": -77.012109, "bike_id": "6f0c174d50284b3aebbae4ce9546afbd", "fusion_lat": 0.0, "name": "6f0c174d50284b3aebbae4ce9546afbd", "is_reserved": 0, "rental_uris": {"android": "https://dc.lft.to/lastmile_qr_scan", "ios": "https://dc.lft.to/lastmile_qr_scan"}, "fusion_lon": 0.0}, {"lat": 38.920616333333335, "is_disabled": 0, "type": "electric_scooter", "lon": -77.0243885, "bike_id": "bf8e45cf24bf67627abe775ea7c08ffc", "fusion_lat": 0.0, "name": "bf8e45cf24bf67627abe775ea7c08ffc", "is_reserved": 0, "rental_uris": {"android": "https://dc.lft.to/lastmile_qr_scan", "ios": "https://dc.lft.to/lastmile_qr_scan"}, "fusion_lon": 0.0}, {"lat": 38.900170333333335, "is_disabled": 0, "type": "electric_scooter", "lon": -77.02158316666667, "bike_id": "4ca3ae7b18422ea1fac108002cb51225", "fusion_lat": 0.0, "name": "4ca3ae7b18422ea1fac108002cb51225", "is_reserved": 0, "rental_uris": {"android": "https://dc.lft.to/lastmile_qr_scan", "ios": "https://dc.lft.to/lastmile_qr_scan"}, "fusion_lon": 0.0}, {"lat": 38.87066083333333, "is_disabled": 0, "type": "electric_scooter", "lon": -77.00841933333334, "bike_id": "5e09c8aa7b5cfe5d2ae1bd6815998ba0", "fusion_lat": 0.0, "name": "5e09c8aa7b5cfe5d2ae1bd6815998ba0", "is_reserved": 0, "rental_uris": {"android": "https://dc.lft.to/lastmile_qr_scan", "ios": "https://dc.lft.to/lastmile_qr_scan"}, "fusion_lon": 0.0}, {"lat": 38.88194283333333, "is_disabled": 0, "type": "electric_scooter", "lon": -76.99618733333334, "bike_id": "4579cfe74eb66004e5fb060829b67848", "fusion_lat": 0.0, "name": "4579cfe74eb66004e5fb060829b67848", "is_reserved": 0, "rental_uris": {"android": "https://dc.lft.to/lastmile_qr_scan", "ios": "https://dc.lft.to/lastmile_qr_scan"}, "fusion_lon": 0.0}, {"lat": 38.88487683333334, "is_disabled": 0, "type": "electric_scooter", "lon": -77.03475516666667, "bike_id": "ca7d8025863dace5d9db106f7c5806d6", "fusion_lat": 0.0, "name": "ca7d8025863dace5d9db106f7c5806d6", "is_reserved": 0, "rental_uris": {"android": "https://dc.lft.to/lastmile_qr_scan", "ios": "https://dc.lft.to/lastmile_qr_scan"}, "fusion_lon": 0.0}, {"lat": 38.92950833333333, "is_disabled": 0, "type": "electric_scooter", "lon": -77.036292, "bike_id": "1af3006964cfb6d579f1fd1db81b19b6", "fusion_lat": 0.0, "name": "1af3006964cfb6d579f1fd1db81b19b6", "is_reserved": 0, "rental_uris": {"android": "https://dc.lft.to/lastmile_qr_scan", "ios": "https://dc.lft.to/lastmile_qr_scan"}, "fusion_lon": 0.0}, {"lat": 38.914904666666665, "is_disabled": 0, "type": "electric_scooter", "lon": -77.03258816666667, "bike_id": "ebf73dc8cea6b584c9521438e73d3c99", "fusion_lat": 0.0, "name": "ebf73dc8cea6b584c9521438e73d3c99", "is_reserved": 0, "rental_uris": {"android": "https://dc.lft.to/lastmile_qr_scan", "ios": "https://dc.lft.to/lastmile_qr_scan"}, "fusion_lon": 0.0}, {"lat": 38.925306166666665, "is_disabled": 0, "type": "electric_scooter", "lon": -77.04421216666667, "bike_id": "cb9cfda0e86e656fb20cbd7ca0c84d03", "fusion_lat": 0.0, "name": "cb9cfda0e86e656fb20cbd7ca0c84d03", "is_reserved": 0, "rental_uris": {"android": "https://dc.lft.to/lastmile_qr_scan", "ios": "https://dc.lft.to/lastmile_qr_scan"}, "fusion_lon": 0.0}, {"lat": 38.90041183333334, "is_disabled": 0, "type": "electric_scooter", "lon": -76.99375866666666, "bike_id": "cf37e0c3ad74450fd2502896667433c4", "fusion_lat": 0.0, "name": "cf37e0c3ad74450fd2502896667433c4", "is_reserved": 0, "rental_uris": {"android": "https://dc.lft.to/lastmile_qr_scan", "ios": "https://dc.lft.to/lastmile_qr_scan"}, "fusion_lon": 0.0}, {"lat": 38.9225975, "is_disabled": 0, "type": "electric_scooter", "lon": -77.04295733333333, "bike_id": "65d1ef03986a227cae3f6d67e271cf06", "fusion_lat": 0.0, "name": "65d1ef03986a227cae3f6d67e271cf06", "is_reserved": 0, "rental_uris": {"android": "https://dc.lft.to/lastmile_qr_scan", "ios": "https://dc.lft.to/lastmile_qr_scan"}, "fusion_lon": 0.0}, {"lat": 38.90386733333333, "is_disabled": 0, "type": "electric_scooter", "lon": -77.03837816666666, "bike_id": "a9b2f270255f9d6c7910a7d9cb6855d6", "fusion_lat": 0.0, "name": "a9b2f270255f9d6c7910a7d9cb6855d6", "is_reserved": 0, "rental_uris": {"android": "https://dc.lft.to/lastmile_qr_scan", "ios": "https://dc.lft.to/lastmile_qr_scan"}, "fusion_lon": 0.0}, {"lat": 38.92855483333334, "is_disabled": 0, "type": "electric_bike", "lon": -77.10676133333334, "bike_id": "c753f87d97591267d2e8ab17aabf467a", "fusion_lat": 0.0, "name": "c753f87d97591267d2e8ab17aabf467a", "is_reserved": 0, "rental_uris": {"android": "https://dc.lft.to/lastmile_qr_scan", "ios": "https://dc.lft.to/lastmile_qr_scan"}, "fusion_lon": 0.0}, {"lat": 38.921905833333334, "is_disabled": 0, "type": "electric_scooter", "lon": -77.04131383333333, "bike_id": "d601542182f28689c01e1babbe5d6e5b", "fusion_lat": 0.0, "name": "d601542182f28689c01e1babbe5d6e5b", "is_reserved": 0, "rental_uris": {"android": "https://dc.lft.to/lastmile_qr_scan", "ios": "https://dc.lft.to/lastmile_qr_scan"}, "fusion_lon": 0.0}, {"lat": 38.90264466666667, "is_disabled": 0, "type": "electric_scooter", "lon": -77.00213166666667, "bike_id": "d71162a8e5473e5e7c55c5cb7404de99", "fusion_lat": 0.0, "name": "d71162a8e5473e5e7c55c5cb7404de99", "is_reserved": 0, "rental_uris": {"android": "https://dc.lft.to/lastmile_qr_scan", "ios": "https://dc.lft.to/lastmile_qr_scan"}, "fusion_lon": 0.0}, {"lat": 38.936378, "is_disabled": 0, "type": "electric_scooter", "lon": -77.024939, "bike_id": "c140bd4979413f11869fbfcd57615b95", "fusion_lat": 0.0, "name": "c140bd4979413f11869fbfcd57615b95", "is_reserved": 0, "rental_uris": {"android": "https://dc.lft.to/lastmile_qr_scan", "ios": "https://dc.lft.to/lastmile_qr_scan"}, "fusion_lon": 0.0}, {"lat": 38.9080365, "is_disabled": 0, "type": "electric_scooter", "lon": -77.063643, "bike_id": "eb615267b1c25dc88e40e64f71343ed7", "fusion_lat": 0.0, "name": "eb615267b1c25dc88e40e64f71343ed7", "is_reserved": 0, "rental_uris": {"android": "https://dc.lft.to/lastmile_qr_scan", "ios": "https://dc.lft.to/lastmile_qr_scan"}, "fusion_lon": 0.0}, {"lat": 38.9205175, "is_disabled": 0, "type": "electric_scooter", "lon": -77.02372666666666, "bike_id": "3373a5aee8526a3d03de605cf8829ad0", "fusion_lat": 0.0, "name": "3373a5aee8526a3d03de605cf8829ad0", "is_reserved": 0, "rental_uris": {"android": "https://dc.lft.to/lastmile_qr_scan", "ios": "https://dc.lft.to/lastmile_qr_scan"}, "fusion_lon": 0.0}, {"lat": 38.86257583333333, "is_disabled": 0, "type": "electric_scooter", "lon": -76.99516566666667, "bike_id": "8e7286dd3d21c8375ad745e4525c5218", "fusion_lat": 0.0, "name": "8e7286dd3d21c8375ad745e4525c5218", "is_reserved": 0, "rental_uris": {"android": "https://dc.lft.to/lastmile_qr_scan", "ios": "https://dc.lft.to/lastmile_qr_scan"}, "fusion_lon": 0.0}, {"lat": 38.91919983333333, "is_disabled": 0, "type": "electric_scooter", "lon": -77.03375, "bike_id": "464ff2aa36f50b056e7b8c235cb27a99", "fusion_lat": 0.0, "name": "464ff2aa36f50b056e7b8c235cb27a99", "is_reserved": 0, "rental_uris": {"android": "https://dc.lft.to/lastmile_qr_scan", "ios": "https://dc.lft.to/lastmile_qr_scan"}, "fusion_lon": 0.0}, {"lat": 38.954034, "is_disabled": 0, "type": "electric_scooter", "lon": -77.02749366666667, "bike_id": "751f8673b8521c3558ded3f78e284086", "fusion_lat": 0.0, "name": "751f8673b8521c3558ded3f78e284086", "is_reserved": 0, "rental_uris": {"android": "https://dc.lft.to/lastmile_qr_scan", "ios": "https://dc.lft.to/lastmile_qr_scan"}, "fusion_lon": 0.0}, {"lat": 38.933521999999996, "is_disabled": 0, "type": "electric_scooter", "lon": -77.02491966666666, "bike_id": "57859e9aae1fb237546453178c97907a", "fusion_lat": 0.0, "name": "57859e9aae1fb237546453178c97907a", "is_reserved": 0, "rental_uris": {"android": "https://dc.lft.to/lastmile_qr_scan", "ios": "https://dc.lft.to/lastmile_qr_scan"}, "fusion_lon": 0.0}, {"lat": 38.802720666666666, "is_disabled": 0, "type": "electric_bike", "lon": -77.08113466666667, "bike_id": "057d053c128b1dc5903b97f7e41b63a1", "fusion_lat": 0.0, "name": "057d053c128b1dc5903b97f7e41b63a1", "is_reserved": 0, "rental_uris": {"android": "https://dc.lft.to/lastmile_qr_scan", "ios": "https://dc.lft.to/lastmile_qr_scan"}, "fusion_lon": 0.0}, {"lat": 38.9386225, "is_disabled": 0, "type": "electric_scooter", "lon": -77.023245, "bike_id": "76333cde7935537f1a2210317aa33bb9", "fusion_lat": 0.0, "name": "76333cde7935537f1a2210317aa33bb9", "is_reserved": 0, "rental_uris": {"android": "https://dc.lft.to/lastmile_qr_scan", "ios": "https://dc.lft.to/lastmile_qr_scan"}, "fusion_lon": 0.0}, {"lat": 38.92658816666667, "is_disabled": 0, "type": "electric_scooter", "lon": -77.01504583333333, "bike_id": "b7097526c598159a872858cdde7f2df9", "fusion_lat": 0.0, "name": "b7097526c598159a872858cdde7f2df9", "is_reserved": 0, "rental_uris": {"android": "https://dc.lft.to/lastmile_qr_scan", "ios": "https://dc.lft.to/lastmile_qr_scan"}, "fusion_lon": 0.0}, {"lat": 38.902721166666666, "is_disabled": 0, "type": "electric_scooter", "lon": -77.03385383333334, "bike_id": "38842ccb721a1005141a1d4306835cb7", "fusion_lat": 0.0, "name": "38842ccb721a1005141a1d4306835cb7", "is_reserved": 0, "rental_uris": {"android": "https://dc.lft.to/lastmile_qr_scan", "ios": "https://dc.lft.to/lastmile_qr_scan"}, "fusion_lon": 0.0}, {"lat": 38.9157085, "is_disabled": 0, "type": "electric_scooter", "lon": -77.0502565, "bike_id": "73b69b2124e60044d5ade243ad94511d", "fusion_lat": 0.0, "name": "73b69b2124e60044d5ade243ad94511d", "is_reserved": 0, "rental_uris": {"android": "https://dc.lft.to/lastmile_qr_scan", "ios": "https://dc.lft.to/lastmile_qr_scan"}, "fusion_lon": 0.0}, {"lat": 38.94299183333333, "is_disabled": 0, "type": "electric_scooter", "lon": -77.061319, "bike_id": "afa362ec2ecb6c4019d78f5ad321ab4d", "fusion_lat": 0.0, "name": "afa362ec2ecb6c4019d78f5ad321ab4d", "is_reserved": 0, "rental_uris": {"android": "https://dc.lft.to/lastmile_qr_scan", "ios": "https://dc.lft.to/lastmile_qr_scan"}, "fusion_lon": 0.0}, {"lat": 38.8864215, "is_disabled": 0, "type": "electric_scooter", "lon": -76.95487216666666, "bike_id": "60dd30a8324a0feabc076626efd17eea", "fusion_lat": 0.0, "name": "60dd30a8324a0feabc076626efd17eea", "is_reserved": 0, "rental_uris": {"android": "https://dc.lft.to/lastmile_qr_scan", "ios": "https://dc.lft.to/lastmile_qr_scan"}, "fusion_lon": 0.0}, {"lat": 38.896801833333335, "is_disabled": 0, "type": "electric_scooter", "lon": -77.04653866666666, "bike_id": "16fa64e73ced82c2b7aea672562426b6", "fusion_lat": 0.0, "name": "16fa64e73ced82c2b7aea672562426b6", "is_reserved": 0, "rental_uris": {"android": "https://dc.lft.to/lastmile_qr_scan", "ios": "https://dc.lft.to/lastmile_qr_scan"}, "fusion_lon": 0.0}, {"lat": 38.89491666666667, "is_disabled": 0, "type": "electric_scooter", "lon": -77.00255216666666, "bike_id": "f69223eeaa646446f502f77e39421052", "fusion_lat": 0.0, "name": "f69223eeaa646446f502f77e39421052", "is_reserved": 0, "rental_uris": {"android": "https://dc.lft.to/lastmile_qr_scan", "ios": "https://dc.lft.to/lastmile_qr_scan"}, "fusion_lon": 0.0}, {"lat": 38.893504166666666, "is_disabled": 0, "type": "electric_scooter", "lon": -76.98476516666666, "bike_id": "da23cc553413e5bf6fb02fba08300b0d", "fusion_lat": 0.0, "name": "da23cc553413e5bf6fb02fba08300b0d", "is_reserved": 0, "rental_uris": {"android": "https://dc.lft.to/lastmile_qr_scan", "ios": "https://dc.lft.to/lastmile_qr_scan"}, "fusion_lon": 0.0}, {"lat": 38.910480666666665, "is_disabled": 0, "type": "electric_scooter", "lon": -77.04571333333334, "bike_id": "ff0b97b3a5c466b3b68f053cc5fa75dd", "fusion_lat": 0.0, "name": "ff0b97b3a5c466b3b68f053cc5fa75dd", "is_reserved": 0, "rental_uris": {"android": "https://dc.lft.to/lastmile_qr_scan", "ios": "https://dc.lft.to/lastmile_qr_scan"}, "fusion_lon": 0.0}, {"lat": 38.90664116666667, "is_disabled": 0, "type": "electric_scooter", "lon": -77.03854133333333, "bike_id": "40dc66556b2924435ee845f7f781a992", "fusion_lat": 0.0, "name": "40dc66556b2924435ee845f7f781a992", "is_reserved": 0, "rental_uris": {"android": "https://dc.lft.to/lastmile_qr_scan", "ios": "https://dc.lft.to/lastmile_qr_scan"}, "fusion_lon": 0.0}, {"lat": 38.89507233333333, "is_disabled": 0, "type": "electric_scooter", "lon": -77.0160895, "bike_id": "978f65b35f9b2c75a29af2eb0ff7bfac", "fusion_lat": 0.0, "name": "978f65b35f9b2c75a29af2eb0ff7bfac", "is_reserved": 0, "rental_uris": {"android": "https://dc.lft.to/lastmile_qr_scan", "ios": "https://dc.lft.to/lastmile_qr_scan"}, "fusion_lon": 0.0}, {"lat": 38.91363183333333, "is_disabled": 0, "type": "electric_scooter", "lon": -77.046536, "bike_id": "615585eb6dc029c0620fe29ee1d812d7", "fusion_lat": 0.0, "name": "615585eb6dc029c0620fe29ee1d812d7", "is_reserved": 0, "rental_uris": {"android": "https://dc.lft.to/lastmile_qr_scan", "ios": "https://dc.lft.to/lastmile_qr_scan"}, "fusion_lon": 0.0}, {"lat": 38.921071, "is_disabled": 0, "type": "electric_scooter", "lon": -77.041863, "bike_id": "a7a847bf2eb0dc783cada8bf26b47948", "fusion_lat": 0.0, "name": "a7a847bf2eb0dc783cada8bf26b47948", "is_reserved": 0, "rental_uris": {"android": "https://dc.lft.to/lastmile_qr_scan", "ios": "https://dc.lft.to/lastmile_qr_scan"}, "fusion_lon": 0.0}, {"lat": 38.92170183333333, "is_disabled": 0, "type": "electric_scooter", "lon": -77.04024916666667, "bike_id": "e0cfa1ebdc907140b833be88c38bad02", "fusion_lat": 0.0, "name": "e0cfa1ebdc907140b833be88c38bad02", "is_reserved": 0, "rental_uris": {"android": "https://dc.lft.to/lastmile_qr_scan", "ios": "https://dc.lft.to/lastmile_qr_scan"}, "fusion_lon": 0.0}, {"lat": 38.92479566666667, "is_disabled": 0, "type": "electric_scooter", "lon": -77.03485816666667, "bike_id": "d5fd74dcef7e39a79433ff0a82168e6b", "fusion_lat": 0.0, "name": "d5fd74dcef7e39a79433ff0a82168e6b", "is_reserved": 0, "rental_uris": {"android": "https://dc.lft.to/lastmile_qr_scan", "ios": "https://dc.lft.to/lastmile_qr_scan"}, "fusion_lon": 0.0},