{"data": {"bikes": [{"is_disabled": 0, "fusion_lon": 0.0, "fusion_lat": 0.0, "lat": 38.9077365, "type": "electric_scooter", "lon": -77.06286483333334, "bike_id": "850a85f493cf9bb12912df0d1c88cbc7", "rental_uris": {"android": "https://dc.lft.to/lastmile_qr_scan", "ios": "https://dc.lft.to/lastmile_qr_scan"}, "name": "850a85f493cf9bb12912df0d1c88cbc7", "is_reserved": 0}, {"is_disabled": 0, "fusion_lon": 0.0, "fusion_lat": 0.0, "lat": 38.926023666666666, "type": "electric_scooter", "lon": -77.02350883333334, "bike_id": "683b9ea0ffbef9a98f2b34d155359272", "rental_uris": {"android": "https://dc.lft.to/lastmile_qr_scan", "ios": "https://dc.lft.to/lastmile_qr_scan"}, "name": "683b9ea0ffbef9a98f2b34d155359272", "is_reserved": 0}, {"is_disabled": 0, "fusion_lon": 0.0, "fusion_lat": 0.0, "lat": 38.852075, "type": "electric_bike", "lon": -77.10125616666667, "bike_id": "29232984c21677bcec81cf93b7b9edaa", "rental_uris": {"android": "https://dc.lft.to/lastmile_qr_scan", "ios": "https://dc.lft.to/lastmile_qr_scan"}, "name": "29232984c21677bcec81cf93b7b9edaa", "is_reserved": 0}, {"is_disabled": 0, "fusion_lon": 0.0, "fusion_lat": 0.0, "lat": 38.8960015, "type": "electric_scooter", "lon": -77.0091835, "bike_id": "d8bc6c91ba05cbd188ead6c196e10964", "rental_uris": {"android": "https://dc.lft.to/lastmile_qr_scan", "ios": "https://dc.lft.to/lastmile_qr_scan"}, "name": "d8bc6c91ba05cbd188ead6c196e10964", "is_reserved": 0}, {"is_disabled": 0, "fusion_lon": 0.0, "fusion_lat": 0.0, "lat": 38.9463695, "type": "electric_scooter", "lon": -77.0193465, "bike_id": "2cd53ec29b2521b93e4652a5f3ff1118", "rental_uris": {"android": "https://dc.lft.to/lastmile_qr_scan", "ios": "https://dc.lft.to/lastmile_qr_scan"}, "name": "2cd53ec29b2521b93e4652a5f3ff1118", "is_reserved": 0}, {"is_disabled": 0, "fusion_lon": 0.0, "fusion_lat": 0.0, "lat": 38.927523666666666, "type": "electric_scooter", "lon": -77.00594033333333, "bike_id": "8e0c1e605f0136ecf6452ce603971455", "rental_uris": {"android": "https://dc.lft.to/lastmile_qr_scan", "ios": "https://dc.lft.to/lastmile_qr_scan"}, "name": "8e0c1e605f0136ecf6452ce603971455", "is_reserved": 0}, {"is_disabled": 0, "fusion_lon": 0.0, "fusion_lat": 0.0, "lat": 38.9253985, "type": "electric_bike", "lon": -77.032281, "bike_id": "dfb1036c2339750e42f2bcb1f4f9978c", "rental_uris": {"android": "https://dc.lft.to/lastmile_qr_scan", "ios": "https://dc.lft.to/lastmile_qr_scan"}, "name": "dfb1036c2339750e42f2bcb1f4f9978c", "is_reserved": 0}, {"is_disabled": 0, "fusion_lon": 0.0, "fusion_lat": 0.0, "lat": 38.9454425, "type": "electric_scooter", "lon": -77.02531883333333, "bike_id": "0d778adece4d1f04002a4f8d07c8aacd", "rental_uris": {"android": "https://dc.lft.to/lastmile_qr_scan", "ios": "https://dc.lft.to/lastmile_qr_scan"}, "name": "0d778adece4d1f04002a4f8d07c8aacd", "is_reserved": 0}, {"is_disabled": 0, "fusion_lon": 0.0, "fusion_lat": 0.0, "lat": 38.93454966666667, "type": "electric_scooter", "lon": -77.03052833333334, "bike_id": "be4038e3dbf706691755e2753a6756e8", "rental_uris": {"android": "https://dc.lft.to/lastmile_qr_scan", "ios": "https://dc.lft.to/lastmile_qr_scan"}, "name": "be4038e3dbf706691755e2753a6756e8", "is_reserved": 0}, {"is_disabled": 0, "fusion_lon": 0.0, "fusion_lat": 0.0, "lat": 38.9290885, "type": "electric_scooter", "lon": -77.031853, "bike_id": "de5acd1c7a672ed18e6e7c206c882a30", "rental_uris": {"android": "https://dc.lft.to/lastmile_qr_scan", "ios": "https://dc.lft.to/lastmile_qr_scan"}, "name": "de5acd1c7a672ed18e6e7c206c882a30", "is_reserved": 0}, {"is_disabled": 0, "fusion_lon": 0.0, "fusion_lat": 0.0, "lat": 38.86699616666667, "type": "electric_scooter", "lon": -76.98712766666667, "bike_id": "29aa9f3592afe7ce1fe284db8d9b3eae", "rental_uris": {"android": "https://dc.lft.to/lastmile_qr_scan", "ios": "https://dc.lft.to/lastmile_qr_scan"}, "name": "29aa9f3592afe7ce1fe284db8d9b3eae", "is_reserved": 0}, {"is_disabled": 0, "fusion_lon": 0.0, "fusion_lat": 0.0, "lat": 38.89460166666667, "type": "electric_scooter", "lon": -77.02211283333334, "bike_id": "b32f93b32695588e2020a68bb1ab059a", "rental_uris": {"android": "https://dc.lft.to/lastmile_qr_scan", "ios": "https://dc.lft.to/lastmile_qr_scan"}, "name": "b32f93b32695588e2020a68bb1ab059a", "is_reserved": 0}, {"is_disabled": 0, "fusion_lon": 0.0, "fusion_lat": 0.0, "lat": 38.952818, "type": "electric_scooter", "lon": -77.06876583333333, "bike_id": "beebf322d12c5404f3cd95078a306c9a", "rental_uris": {"android": "https://dc.lft.to/lastmile_qr_scan", "ios": "https://dc.lft.to/lastmile_qr_scan"}, "name": "beebf322d12c5404f3cd95078a306c9a", "is_reserved": 0}, {"is_disabled": 0, "fusion_lon": 0.0, "fusion_lat": 0.0, "lat": 38.91142283333333, "type": "electric_scooter", "lon": -77.02190916666666, "bike_id": "fab6153dcae6ae8ea0afaf152993db09", "rental_uris": {"android": "https://dc.lft.to/lastmile_qr_scan", "ios": "https://dc.lft.to/lastmile_qr_scan"}, "name": "fab6153dcae6ae8ea0afaf152993db09", "is_reserved": 0}, {"is_disabled": 0, "fusion_lon": 0.0, "fusion_lat": 0.0, "lat": 38.918231166666665, "type": "electric_scooter", "lon": -77.03190333333333, "bike_id": "1caced85660755d9dbe00e8035cb6f96", "rental_uris": {"android": "https://dc.lft.to/lastmile_qr_scan", "ios": "https://dc.lft.to/lastmile_qr_scan"}, "name": "1caced85660755d9dbe00e8035cb6f96", "is_reserved": 0}, {"is_disabled": 0, "fusion_lon": 0.0, "fusion_lat": 0.0, "lat": 38.905295333333335, "type": "electric_scooter", "lon": -77.0435545, "bike_id": "8e3e7f06a8898b256859c3b1e15528c6", "rental_uris": {"android": "https://dc.lft.to/lastmile_qr_scan", "ios": "https://dc.lft.to/lastmile_qr_scan"}, "name": "8e3e7f06a8898b256859c3b1e15528c6", "is_reserved": 0}, {"is_disabled": 0, "fusion_lon": 0.0, "fusion_lat": 0.0, "lat": 38.92537933333333, "type": "electric_scooter", "lon": -77.07321466666667, "bike_id": "ae55df6bc34a0ac3ae73418202ad82d0", "rental_uris": {"android": "https://dc.lft.to/lastmile_qr_scan", "ios": "https://dc.lft.to/lastmile_qr_scan"}, "name": "ae55df6bc34a0ac3ae73418202ad82d0", "is_reserved": 0}, {"is_disabled": 0, "fusion_lon": 0.0, "fusion_lat": 0.0, "lat": 38.916877, "type": "electric_scooter", "lon": -77.02948516666666, "bike_id": "68e31ef5177736b78b905231c7dfb10b", "rental_uris": {"android": "https://dc.lft.to/lastmile_qr_scan", "ios": "https://dc.lft.to/lastmile_qr_scan"}, "name": "68e31ef5177736b78b905231c7dfb10b", "is_reserved": 0}, {"is_disabled": 0, "fusion_lon": 0.0, "fusion_lat": 0.0, "lat": 38.89778616666667, "type": "electric_scooter", "lon": -77.02488883333334, "bike_id": "f0cf60a7baa18a68135d7c51671cb8df", "rental_uris": {"android": "https://dc.lft.to/lastmile_qr_scan", "ios": "https://dc.lft.to/lastmile_qr_scan"}, "name": "f0cf60a7baa18a68135d7c51671cb8df", "is_reserved": 0}, {"is_disabled": 0, "fusion_lon": 0.0, "fusion_lat": 0.0, "lat": 38.88661366666667, "type": "electric_bike", "lon": -77.16231166666667, "bike_id": "bc2a25a577d601a785e125fe53e038f2", "rental_uris": {"android": "https://dc.lft.to/lastmile_qr_scan", "ios": "https://dc.lft.to/lastmile_qr_scan"}, "name": "bc2a25a577d601a785e125fe53e038f2", "is_reserved": 0}, {"is_disabled": 0, "fusion_lon": 0.0, "fusion_lat": 0.0, "lat": 38.96127516666667, "type": "electric_scooter", "lon": -77.08522583333334, "bike_id": "423af8b5b1e555c5de6489a8021c626e", "rental_uris": {"android": "https://dc.lft.to/lastmile_qr_scan", "ios": "https://dc.lft.to/lastmile_qr_scan"}, "name": "423af8b5b1e555c5de6489a8021c626e", "is_reserved": 0}, {"is_disabled": 0, "fusion_lon": 0.0, "fusion_lat": 0.0, "lat": 38.92259133333334, "type": "electric_scooter", "lon": -77.04138266666666, "bike_id": "5867bf3a2e1e4d1aa23dac0f60b13b84", "rental_uris": {"android": "https://dc.lft.to/lastmile_qr_scan", "ios": "https://dc.lft.to/lastmile_qr_scan"}, "name": "5867bf3a2e1e4d1aa23dac0f60b13b84", "is_reserved": 0}, {"is_disabled": 0, "fusion_lon": 0.0, "fusion_lat": 0.0, "lat": 38.934082333333336, "type": "electric_bike", "lon": -77.03289466666666, "bike_id": "e277b04b9ceb54797aef19f84fed8db6", "rental_uris": {"android": "https://dc.lft.to/lastmile_qr_scan", "ios": "https://dc.lft.to/lastmile_qr_scan"}, "name": "e277b04b9ceb54797aef19f84fed8db6", "is_reserved": 0}, {"is_disabled": 0, "fusion_lon": 0.0, "fusion_lat": 0.0, "lat": 38.93782516666667, "type": "electric_scooter", "lon": -77.0187655, "bike_id": "555d3c6c626c241cb557d36237828172", "rental_uris": {"android": "https://dc.lft.to/lastmile_qr_scan", "ios": "https://dc.lft.to/lastmile_qr_scan"}, "name": "555d3c6c626c241cb557d36237828172", "is_reserved": 0}, {"is_disabled": 0, "fusion_lon": 0.0, "fusion_lat": 0.0, "lat": 38.887402333333334, "type": "electric_scooter", "lon": -77.01609366666666, "bike_id": "cc6da6ae32be953b290d18dc85ac4cdf", "rental_uris": {"android": "https://dc.lft.to/lastmile_qr_scan", "ios": "https://dc.lft.to/lastmile_qr_scan"}, "name": "cc6da6ae32be953b290d18dc85ac4cdf", "is_reserved": 0}, {"is_disabled": 0, "fusion_lon": 0.0, "fusion_lat": 0.0, "lat": 38.88744583333333, "type": "electric_scooter", "lon": -77.01538083333334, "bike_id": "85cf02363b009b007894b404157eb0b6", "rental_uris": {"android": "https://dc.lft.to/lastmile_qr_scan", "ios": "https://dc.lft.to/lastmile_qr_scan"}, "name": "85cf02363b009b007894b404157eb0b6", "is_reserved": 0}, {"is_disabled": 0, "fusion_lon": 0.0, "fusion_lat": 0.0, "lat": 38.90109433333333, "type": "electric_scooter", "lon": -77.0261915, "bike_id": "74e4c583467309e25909d26c8828a1e0", "rental_uris": {"android": "https://dc.lft.to/lastmile_qr_scan", "ios": "https://dc.lft.to/lastmile_qr_scan"}, "name": "74e4c583467309e25909d26c8828a1e0", "is_reserved": 0}, {"is_disabled": 0, "fusion_lon": 0.0, "fusion_lat": 0.0, "lat": 38.908339166666664, "type": "electric_scooter", "lon": -76.9969205, "bike_id": "a19b1cd505500bcefea7b539baa7b9b4", "rental_uris": {"android": "https://dc.lft.to/lastmile_qr_scan", "ios": "https://dc.lft.to/lastmile_qr_scan"}, "name": "a19b1cd505500bcefea7b539baa7b9b4", "is_reserved": 0}, {"is_disabled": 0, "fusion_lon": 0.0, "fusion_lat": 0.0, "lat": 38.94965, "type": "electric_scooter", "lon": -77.06692433333333, "bike_id": "a4c7cb601fba355ba77fa02ec2e963b5", "rental_uris": {"android": "https://dc.lft.to/lastmile_qr_scan", "ios": "https://dc.lft.to/lastmile_qr_scan"}, "name": "a4c7cb601fba355ba77fa02ec2e963b5", "is_reserved": 0}, {"is_disabled": 0, "fusion_lon": 0.0, "fusion_lat": 0.0, "lat": 38.89965216666667, "type": "electric_scooter", "lon": -77.01611416666667, "bike_id": "8a4316b02468d2f7a9d6c95f06e0a5e1", "rental_uris": {"android": "https://dc.lft.to/lastmile_qr_scan", "ios": "https://dc.lft.to/lastmile_qr_scan"}, "name": "8a4316b02468d2f7a9d6c95f06e0a5e1", "is_reserved": 0}, {"is_disabled": 0, "fusion_lon": 0.0, "fusion_lat": 0.0, "lat": 38.813309, "type": "electric_bike", "lon": -77.05087716666667, "bike_id": "45c250e75e9c7914453a9c9111cea8fe", "rental_uris": {"android": "https://dc.lft.to/lastmile_qr_scan", "ios": "https://dc.lft.to/lastmile_qr_scan"}, "name": "45c250e75e9c7914453a9c9111cea8fe", "is_reserved": 0}, {"is_disabled": 0, "fusion_lon": 0.0, "fusion_lat": 0.0, "lat": 38.97260266666667, "type": "electric_bike", "lon": -76.99168816666666, "bike_id": "bbc2cda6c6e6051503aa313d3c504a17", "rental_uris": {"android": "https://dc.lft.to/lastmile_qr_scan", "ios": "https://dc.lft.to/lastmile_qr_scan"}, "name": "bbc2cda6c6e6051503aa313d3c504a17", "is_reserved": 0}, {"is_disabled": 0, "fusion_lon": 0.0, "fusion_lat": 0.0, "lat": 38.92028283333333, "type": "electric_scooter", "lon": -77.0128805, "bike_id": "242451c437c80c33938cadaa1cae7eca", "rental_uris": {"android": "https://dc.lft.to/lastmile_qr_scan", "ios": "https://dc.lft.to/lastmile_qr_scan"}, "name": "242451c437c80c33938cadaa1cae7eca", "is_reserved": 0}, {"is_disabled": 0, "fusion_lon": 0.0, "fusion_lat": 0.0, "lat": 38.894323, "type": "electric_scooter", "lon": -77.0108865, "bike_id": "272e3adeda067f292b2bebbf494312b3", "rental_uris": {"android": "https://dc.lft.to/lastmile_qr_scan", "ios": "https://dc.lft.to/lastmile_qr_scan"}, "name": "272e3adeda067f292b2bebbf494312b3", "is_reserved": 0}, {"is_disabled": 0, "fusion_lon": 0.0, "fusion_lat": 0.0, "lat": 38.924114833333334, "type": "electric_scooter", "lon": -77.040314, "bike_id": "d6d11dba7d69d15b9dfb9bb52034359b", "rental_uris": {"android": "https://dc.lft.to/lastmile_qr_scan", "ios": "https://dc.lft.to/lastmile_qr_scan"}, "name": "d6d11dba7d69d15b9dfb9bb52034359b", "is_reserved": 0}, {"is_disabled": 0, "fusion_lon": 0.0, "fusion_lat": 0.0, "lat": 38.900155, "type": "electric_scooter", "lon": -76.99968783333334, "bike_id": "5ce7eed0582000e47618f08992969bbc", "rental_uris": {"android": "https://dc.lft.to/lastmile_qr_scan", "ios": "https://dc.lft.to/lastmile_qr_scan"}, "name": "5ce7eed0582000e47618f08992969bbc", "is_reserved": 0}, {"is_disabled": 0, "fusion_lon": 0.0, "fusion_lat": 0.0, "lat": 38.91341416666667, "type": "electric_scooter", "lon": -77.041673, "bike_id": "fde18e09315be3cc74a8a3202d82b251", "rental_uris": {"android": "https://dc.lft.to/lastmile_qr_scan", "ios": "https://dc.lft.to/lastmile_qr_scan"}, "name": "fde18e09315be3cc74a8a3202d82b251", "is_reserved": 0}, {"is_disabled": 0, "fusion_lon": 0.0, "fusion_lat": 0.0, "lat": 38.8393505, "type": "electric_bike", "lon": -77.07903566666667, "bike_id": "63d453dad51cef8ac3aed505d3802bc3", "rental_uris": {"android": "https://dc.lft.to/lastmile_qr_scan", "ios": "https://dc.lft.to/lastmile_qr_scan"}, "name": "63d453dad51cef8ac3aed505d3802bc3", "is_reserved": 0}, {"is_disabled": 0, "fusion_lon": 0.0, "fusion_lat": 0.0, "lat": 38.89751666666667, "type": "electric_scooter", "lon": -77.01010033333333, "bike_id": "dc481456ebed5daf8f9572f952d1968d", "rental_uris": {"android": "https://dc.lft.to/lastmile_qr_scan", "ios": "https://dc.lft.to/lastmile_qr_scan"}, "name": "dc481456ebed5daf8f9572f952d1968d", "is_reserved": 0}, {"is_disabled": 0, "fusion_lon": 0.0, "fusion_lat": 0.0, "lat": 38.905163, "type": "electric_scooter", "lon": -76.98252466666666, "bike_id": "7e8b394d2ff2ce83747691ac5181f655", "rental_uris": {"android": "https://dc.lft.to/lastmile_qr_scan", "ios": "https://dc.lft.to/lastmile_qr_scan"}, "name": "7e8b394d2ff2ce83747691ac5181f655", "is_reserved": 0}, {"is_disabled": 0, "fusion_lon": 0.0, "fusion_lat": 0.0, "lat": 38.91680083333333, "type": "electric_scooter", "lon": -77.02334166666667, "bike_id": "7de04357356f7e140e76cb7f701df822", "rental_uris": {"android": "https://dc.lft.to/lastmile_qr_scan", "ios": "https://dc.lft.to/lastmile_qr_scan"}, "name": "7de04357356f7e140e76cb7f701df822", "is_reserved": 0}, {"is_disabled": 0, "fusion_lon": 0.0, "fusion_lat": 0.0, "lat": 38.8737315, "type": "electric_scooter", "lon": -77.0009455, "bike_id": "c287b76e4bb96114fa509ec00f72514d", "rental_uris": {"android": "https://dc.lft.to/lastmile_qr_scan", "ios": "https://dc.lft.to/lastmile_qr_scan"}, "name": "c287b76e4bb96114fa509ec00f72514d", "is_reserved": 0}, {"is_disabled": 0, "fusion_lon": 0.0, "fusion_lat": 0.0, "lat": 38.906412, "type": "electric_bike", "lon": -77.0533415, "bike_id": "fe1559e72cb499cfc638922d59c47067", "rental_uris": {"android": "https://dc.lft.to/lastmile_qr_scan", "ios": "https://dc.lft.to/lastmile_qr_scan"}, "name": "fe1559e72cb499cfc638922d59c47067", "is_reserved": 0}, {"is_disabled": 0, "fusion_lon": 0.0, "fusion_lat": 0.0, "lat": 38.8342985, "type": "electric_bike", "lon": -77.10345933333333, "bike_id": "d8e412307d83d058fbfcd10abf47a829", "rental_uris": {"android": "https://dc.lft.to/lastmile_qr_scan", "ios": "https://dc.lft.to/lastmile_qr_scan"}, "name": "d8e412307d83d058fbfcd10abf47a829", "is_reserved": 0}, {"is_disabled": 0, "fusion_lon": 0.0, "fusion_lat": 0.0, "lat": 39.0078275, "type": "electric_bike", "lon": -76.99564266666667, "bike_id": "691db241ee7ef2aeae33f58de4abddc8", "rental_uris": {"android": "https://dc.lft.to/lastmile_qr_scan", "ios": "https://dc.lft.to/lastmile_qr_scan"}, "name": "691db241ee7ef2aeae33f58de4abddc8", "is_reserved": 0}, {"is_disabled": 0, "fusion_lon": 0.0, "fusion_lat": 0.0, "lat": 38.882312166666665, "type": "electric_scooter", "lon": -76.995013, "bike_id": "e1b8021be1b0fa130ecca775922b67bb", "rental_uris": {"android": "https://dc.lft.to/lastmile_qr_scan", "ios": "https://dc.lft.to/lastmile_qr_scan"}, "name": "e1b8021be1b0fa130ecca775922b67bb", "is_reserved": 0}, {"is_disabled": 0, "fusion_lon": 0.0, "fusion_lat": 0.0, "lat": 38.922177166666664, "type": "electric_scooter", "lon": -77.03887216666666, "bike_id": "4d074d763ee929579fb062c31875a68a", "rental_uris": {"android": "https://dc.lft.to/lastmile_qr_scan", "ios": "https://dc.lft.to/lastmile_qr_scan"}, "name": "4d074d763ee929579fb062c31875a68a", "is_reserved": 0}, {"is_disabled": 0, "fusion_lon": 0.0, "fusion_lat": 0.0, "lat": 38.91690033333333, "type": "electric_scooter", "lon": -77.02306916666667, "bike_id": "f5ee15391f91019d6eda9eb02c758a18", "rental_uris": {"android": "https://dc.lft.to/lastmile_qr_scan", "ios": "https://dc.lft.to/lastmile_qr_scan"}, "name": "f5ee15391f91019d6eda9eb02c758a18", "is_reserved": 0}, {"is_disabled": 0, "fusion_lon": 0.0, "fusion_lat": 0.0, "lat": 38.91687916666667, "type": "electric_bike", "lon": -77.09169683333333, "bike_id": "b671e540b4c3d4a888c3269fb0f74385", "rental_uris": {"android": "https://dc.lft.to/lastmile_qr_scan", "ios": "https://dc.lft.to/lastmile_qr_scan"}, "name": "b671e540b4c3d4a888c3269fb0f74385", "is_reserved": 0}, {"is_disabled": 0, "fusion_lon": 0.0, "fusion_lat": 0.0, "lat": 38.906468333333336, "type": "electric_scooter", "lon": -77.04526566666667, "bike_id": "13179b67216803544e4394c64bec4fca", "rental_uris": {"android": "https://dc.lft.to/lastmile_qr_scan", "ios": "https://dc.lft.to/lastmile_qr_scan"}, "name": "13179b67216803544e4394c64bec4fca", "is_reserved": 0}, {"is_disabled": 0, "fusion_lon": 0.0, "fusion_lat": 0.0, "lat": 38.888329166666665, "type": "electric_scooter", "lon": -76.91785266666666, "bike_id": "9977395079d6cdd4f2780d50e9cab3aa", "rental_uris": {"android": "https://dc.lft.to/lastmile_qr_scan", "ios": "https://dc.lft.to/lastmile_qr_scan"}, "name": "9977395079d6cdd4f2780d50e9cab3aa", "is_reserved": 0}, {"is_disabled": 0, "fusion_lon": 0.0, "fusion_lat": 0.0, "lat": 38.8547435, "type": "electric_bike", "lon": -77.049505, "bike_id": "9ccfac08e84443cb9070f81377a18ebd", "rental_uris": {"android": "https://dc.lft.to/lastmile_qr_scan", "ios": "https://dc.lft.to/lastmile_qr_scan"}, "name": "9ccfac08e84443cb9070f81377a18ebd", "is_reserved": 0}, {"is_disabled": 0, "fusion_lon": 0.0, "fusion_lat": 0.0, "lat": 38.919222833333336, "type": "electric_scooter", "lon": -77.02406133333334, "bike_id": "d8e659b65a0f68a4c3ad67a940c1a32a", "rental_uris": {"android": "https://dc.lft.to/lastmile_qr_scan", "ios": "https://dc.lft.to/lastmile_qr_scan"}, "name": "d8e659b65a0f68a4c3ad67a940c1a32a", "is_reserved": 0}, {"is_disabled": 0, "fusion_lon": 0.0, "fusion_lat": 0.0, "lat": 38.936947, "type": "electric_scooter", "lon": -77.05599433333333, "bike_id": "f9345d3e52b74ae76410ee8f20f84fa8", "rental_uris": {"android": "https://dc.lft.to/lastmile_qr_scan", "ios": "https://dc.lft.to/lastmile_qr_scan"}, "name": "f9345d3e52b74ae76410ee8f20f84fa8", "is_reserved": 0}, {"is_disabled": 0, "fusion_lon": 0.0, "fusion_lat": 0.0, "lat": 38.932298333333335, "type": "electric_scooter", "lon": -76.9993055, "bike_id": "d73d8e96a81ae97574e19e332be942a7", "rental_uris": {"android": "https://dc.lft.to/lastmile_qr_scan", "ios": "https://dc.lft.to/lastmile_qr_scan"}, "name": "d73d8e96a81ae97574e19e332be942a7", "is_reserved": 0}, {"is_disabled": 0, "fusion_lon": 0.0, "fusion_lat": 0.0, "lat": 38.952991, "type": "electric_scooter", "lon": -77.069824, "bike_id": "17bdafad7a1ceabaaf67b1a117507c93", "rental_uris": {"android": "https://dc.lft.to/lastmile_qr_scan", "ios": "https://dc.lft.to/lastmile_qr_scan"}, "name": "17bdafad7a1ceabaaf67b1a117507c93", "is_reserved": 0}, {"is_disabled": 0, "fusion_lon": 0.0, "fusion_lat": 0.0, "lat": 38.9000485, "type": "electric_scooter", "lon": -77.02602233333333, "bike_id": "7a5d9513059ad6c242cf93248346585f", "rental_uris": {"android": "https://dc.lft.to/lastmile_qr_scan", "ios": "https://dc.lft.to/lastmile_qr_scan"}, "name": "7a5d9513059ad6c242cf93248346585f", "is_reserved": 0}, {"is_disabled": 0, "fusion_lon": 0.0, "fusion_lat": 0.0, "lat": 38.90032216666667, "type": "electric_scooter", "lon": -77.00214016666666, "bike_id": "d8281d416354989dff35198b9198d0c4", "rental_uris": {"android": "https://dc.lft.to/lastmile_qr_scan", "ios": "https://dc.lft.to/lastmile_qr_scan"}, "name": "d8281d416354989dff35198b9198d0c4", "is_reserved": 0}, {"is_disabled": 0, "fusion_lon": 0.0, "fusion_lat": 0.0, "lat": 38.948991, "type": "electric_bike", "lon": -76.9637435, "bike_id": "4d01b4867814370aaa237de6b937f0b5", "rental_uris": {"android": "https://dc.lft.to/lastmile_qr_scan", "ios": "https://dc.lft.to/lastmile_qr_scan"}, "name": "4d01b4867814370aaa237de6b937f0b5", "is_reserved": 0}, {"is_disabled": 0, "fusion_lon": 0.0, "fusion_lat": 0.0, "lat": 38.909561833333335, "type": "electric_scooter", "lon": -77.04453066666666, "bike_id": "dde6700c0972928fd93ee3f7fb16a543", "rental_uris": {"android": "https://dc.lft.to/lastmile_qr_scan", "ios": "https://dc.lft.to/lastmile_qr_scan"}, "name": "dde6700c0972928fd93ee3f7fb16a543", "is_reserved": 0}, {"is_disabled": 0, "fusion_lon": 0.0, "fusion_lat": 0.0, "lat": 38.968325, "type": "electric_scooter", "lon": -77.01515966666666, "bike_id": "0ad09c84368377ffdc4e5e6f42da7962", "rental_uris": {"android": "https://dc.lft.to/lastmile_qr_scan", "ios": "https://dc.lft.to/lastmile_qr_scan"}, "name": "0ad09c84368377ffdc4e5e6f42da7962", "is_reserved": 0}, {"is_disabled": 0, "fusion_lon": 0.0, "fusion_lat": 0.0, "lat": 38.913901333333335, "type": "electric_scooter", "lon": -77.00046533333334, "bike_id": "7128229ca2782378679535deb8bc72ea", "rental_uris": {"android": "https://dc.lft.to/lastmile_qr_scan", "ios": "https://dc.lft.to/lastmile_qr_scan"}, "name": "7128229ca2782378679535deb8bc72ea", "is_reserved": 0}, {"is_disabled": 0, "fusion_lon": 0.0, "fusion_lat": 0.0, "lat": 38.897511, "type": "electric_scooter", "lon": -77.0271855, "bike_id": "f9c8466eca73d0aedcf6794e46cdbdf0", "rental_uris": {"android": "https://dc.lft.to/lastmile_qr_scan", "ios": "https://dc.lft.to/lastmile_qr_scan"}, "name": "f9c8466eca73d0aedcf6794e46cdbdf0", "is_reserved": 0}, {"is_disabled": 0, "fusion_lon": 0.0, "fusion_lat": 0.0, "lat": 38.935325666666664, "type": "electric_scooter", "lon": -77.0207105, "bike_id": "ac3aac68a3a51424d9c52f9b9d2e29cc", "rental_uris": {"android": "https://dc.lft.to/lastmile_qr_scan", "ios": "https://dc.lft.to/lastmile_qr_scan"}, "name": "ac3aac68a3a51424d9c52f9b9d2e29cc", "is_reserved": 0}, {"is_disabled": 0, "fusion_lon": 0.0, "fusion_lat": 0.0, "lat": 38.9563155, "type": "electric_scooter", "lon": -77.01166916666666, "bike_id": "6501b15f8a67c210bdfdfa95af62b250", "rental_uris": {"android": "https://dc.lft.to/lastmile_qr_scan", "ios": "https://dc.lft.to/lastmile_qr_scan"}, "name": "6501b15f8a67c210bdfdfa95af62b250", "is_reserved": 0}, {"is_disabled": 0, "fusion_lon": 0.0, "fusion_lat": 0.0, "lat": 38.92901666666667, "type": "electric_scooter", "lon": -77.03246166666666, "bike_id": "4be7ad898e1db2b95b0152d62a96e638", "rental_uris": {"android": "https://dc.lft.to/lastmile_qr_scan", "ios": "https://dc.lft.to/lastmile_qr_scan"}, "name": "4be7ad898e1db2b95b0152d62a96e638", "is_reserved": 0}, {"is_disabled": 0, "fusion_lon": 0.0, "fusion_lat": 0.0, "lat": 38.9219715, "type": "electric_scooter", "lon": -77.04252433333333, "bike_id": "45b471d414a780eadfcd1901d25d6240", "rental_uris": {"android": "https://dc.lft.to/lastmile_qr_scan", "ios": "https://dc.lft.to/lastmile_qr_scan"}, "name": "45b471d414a780eadfcd1901d25d6240", "is_reserved": 0}, {"is_disabled": 0, "fusion_lon": 0.0, "fusion_lat": 0.0, "lat": 38.91414316666667, "type": "electric_scooter", "lon": -77.0221255, "bike_id": "04bf7d533b40ddd823ced28442d3ffc6", "rental_uris": {"android": "https://dc.lft.to/lastmile_qr_scan", "ios": "https://dc.lft.to/lastmile_qr_scan"}, "name": "04bf7d533b40ddd823ced28442d3ffc6", "is_reserved": 0}, {"is_disabled": 0, "fusion_lon": 0.0, "fusion_lat": 0.0, "lat": 38.9419495, "type": "electric_scooter", "lon": -77.02574266666667, "bike_id": "67d09c1995a581a456acfc7bffca3c88", "rental_uris": {"android": "https://dc.lft.to/lastmile_qr_scan", "ios": "https://dc.lft.to/lastmile_qr_scan"}, "name": "67d09c1995a581a456acfc7bffca3c88", "is_reserved": 0}, {"is_disabled": 0, "fusion_lon": 0.0, "fusion_lat": 0.0, "lat": 38.94535966666667, "type": "electric_bike", "lon": -77.344626, "bike_id": "84952e6f3d20cb607e90e1349e64763b", "rental_uris": {"android": "https://dc.lft.to/lastmile_qr_scan", "ios": "https://dc.lft.to/lastmile_qr_scan"}, "name": "84952e6f3d20cb607e90e1349e64763b", "is_reserved": 0}, {"is_disabled": 0, "fusion_lon": 0.0, "fusion_lat": 0.0, "lat": 38.91233733333333, "type": "electric_scooter", "lon": -77.04478183333333, "bike_id": "a80d69231c2afa82ff76f5b96f413e6b", "rental_uris": {"android": "https://dc.lft.to/lastmile_qr_scan", "ios": "https://dc.lft.to/lastmile_qr_scan"}, "name": "a80d69231c2afa82ff76f5b96f413e6b", "is_reserved": 0}, {"is_disabled": 0, "fusion_lon": 0.0, "fusion_lat": 0.0, "lat": 38.90518983333333, "type": "electric_scooter", "lon": -77.05109383333334, "bike_id": "82e6f9f97d0f515aa8841798ee90dd39", "rental_uris": {"android": "https://dc.lft.to/lastmile_qr_scan", "ios": "https://dc.lft.to/lastmile_qr_scan"}, "name": "82e6f9f97d0f515aa8841798ee90dd39", "is_reserved": 0}, {"is_disabled": 0, "fusion_lon": 0.0, "fusion_lat": 0.0, "lat": 38.91269416666667, "type": "electric_scooter", "lon": -77.031371, "bike_id": "70ffff2cb74d3c39332d822540366f50", "rental_uris": {"android": "https://dc.lft.to/lastmile_qr_scan", "ios": "https://dc.lft.to/lastmile_qr_scan"}, "name": "70ffff2cb74d3c39332d822540366f50", "is_reserved": 0}, {"is_disabled": 0, "fusion_lon": 0.0, "fusion_lat": 0.0, "lat": 38.86588583333333, "type": "electric_scooter", "lon": -76.98716633333333, "bike_id": "a4efd7c28af3b58229a0344fcc88c65f", "rental_uris": {"android": "https://dc.lft.to/lastmile_qr_scan", "ios": "https://dc.lft.to/lastmile_qr_scan"}, "name": "a4efd7c28af3b58229a0344fcc88c65f", "is_reserved": 0}, {"is_disabled": 0, "fusion_lon": 0.0, "fusion_lat": 0.0, "lat": 38.94980416666667, "type": "electric_scooter", "lon": -77.09440583333334, "bike_id": "b32a8ccb0bf05c1eb51f123134c682d1", "rental_uris": {"android": "https://dc.lft.to/lastmile_qr_scan", "ios": "https://dc.lft.to/lastmile_qr_scan"}, "name": "b32a8ccb0bf05c1eb51f123134c682d1", "is_reserved": 0}, {"is_disabled": 0, "fusion_lon": 0.0, "fusion_lat": 0.0, "lat": 38.8767615, "type": "electric_scooter", "lon": -76.9319765, "bike_id": "3203ebd4083b00a13a86e9608c93bd90", "rental_uris": {"android": "https://dc.lft.to/lastmile_qr_scan", "ios": "https://dc.lft.to/lastmile_qr_scan"}, "name": "3203ebd4083b00a13a86e9608c93bd90", "is_reserved": 0}, {"is_disabled": 0, "fusion_lon": 0.0, "fusion_lat": 0.0, "lat": 38.87824, "type": "electric_scooter", "lon": -76.96315183333333, "bike_id": "4da95b60c37af58d94c59854a79e8a76", "rental_uris": {"android": "https://dc.lft.to/lastmile_qr_scan", "ios": "https://dc.lft.to/lastmile_qr_scan"}, "name": "4da95b60c37af58d94c59854a79e8a76", "is_reserved": 0}, {"is_disabled": 0, "fusion_lon": 0.0, "fusion_lat": 0.0, "lat": 38.9002815, "type": "electric_scooter", "lon": -77.023977, "bike_id": "9bf5835b3efccdf47cf47c0da6b49f84", "rental_uris": {"android": "https://dc.lft.to/lastmile_qr_scan", "ios": "https://dc.lft.to/lastmile_qr_scan"}, "name": "9bf5835b3efccdf47cf47c0da6b49f84", "is_reserved": 0}, {"is_disabled": 0, "fusion_lon": 0.0, "fusion_lat": 0.0, "lat": 38.9339455, "type": "electric_scooter", "lon": -77.0454745, "bike_id": "18800b50dfa4d79c0875e93e40ba2efa", "rental_uris": {"android": "https://dc.lft.to/lastmile_qr_scan", "ios": "https://dc.lft.to/lastmile_qr_scan"}, "name": "18800b50dfa4d79c0875e93e40ba2efa", "is_reserved": 0}, {"is_disabled": 0, "fusion_lon": 0.0, "fusion_lat": 0.0, "lat": 38.8986855, "type": "electric_scooter", "lon": -77.01997316666667, "bike_id": "65bdd26d353b6b36d5ab9be409c1f5cc", "rental_uris": {"android": "https://dc.lft.to/lastmile_qr_scan", "ios": "https://dc.lft.to/lastmile_qr_scan"}, "name": "65bdd26d353b6b36d5ab9be409c1f5cc", "is_reserved": 0}, {"is_disabled": 0, "fusion_lon": 0.0, "fusion_lat": 0.0, "lat": 38.90544416666667, "type": "electric_scooter", "lon": -77.05811966666667, "bike_id": "ab96d5eaa1dc15a4669a198749e49b96", "rental_uris": {"android": "https://dc.lft.to/lastmile_qr_scan", "ios": "https://dc.lft.to/lastmile_qr_scan"}, "name": "ab96d5eaa1dc15a4669a198749e49b96", "is_reserved": 0}, {"is_disabled": 0, "fusion_lon": 0.0, "fusion_lat": 0.0, "lat": 38.92010966666667, "type": "electric_scooter", "lon": -77.0312245, "bike_id": "a60b63c4bbe40b433755fc29b02900ca", "rental_uris": {"android": "https://dc.lft.to/lastmile_qr_scan", "ios": "https://dc.lft.to/lastmile_qr_scan"}, "name": "a60b63c4bbe40b433755fc29b02900ca", "is_reserved": 0}, {"is_disabled": 0, "fusion_lon": 0.0, "fusion_lat": 0.0, "lat": 38.89368983333333, "type": "electric_scooter", "lon": -76.97816483333334, "bike_id": "d703bdbc44ff6ee13d7ed21e8dbec035", "rental_uris": {"android": "https://dc.lft.to/lastmile_qr_scan", "ios": "https://dc.lft.to/lastmile_qr_scan"}, "name": "d703bdbc44ff6ee13d7ed21e8dbec035", "is_reserved": 0}, {"is_disabled": 0, "fusion_lon": 0.0, "fusion_lat": 0.0, "lat": 38.89525866666666, "type": "electric_scooter", "lon": -77.00206833333333, "bike_id": "21e20f34e8af7827885e550f02495034", "rental_uris": {"android": "https://dc.lft.to/lastmile_qr_scan", "ios": "https://dc.lft.to/lastmile_qr_scan"}, "name": "21e20f34e8af7827885e550f02495034", "is_reserved": 0}, {"is_disabled": 0, "fusion_lon": 0.0, "fusion_lat": 0.0, "lat": 38.89741566666667, "type": "electric_scooter", "lon": -77.02743083333333, "bike_id": "0c44596da89eb459488bda0a8df893b2", "rental_uris": {"android": "https://dc.lft.to/lastmile_qr_scan", "ios": "https://dc.lft.to/lastmile_qr_scan"}, "name": "0c44596da89eb459488bda0a8df893b2", "is_reserved": 0}, {"is_disabled": 0, "fusion_lon": 0.0, "fusion_lat": 0.0, "lat": 38.96019916666667, "type": "electric_bike", "lon": -76.92729283333334, "bike_id": "33e8c5d309d5c561890559f06887fd96", "rental_uris": {"android": "https://dc.lft.to/lastmile_qr_scan", "ios": "https://dc.lft.to/lastmile_qr_scan"}, "name": "33e8c5d309d5c561890559f06887fd96", "is_reserved": 0}, {"is_disabled": 0, "fusion_lon": 0.0, "fusion_lat": 0.0, "lat": 38.9084645, "type": "electric_scooter", "lon": -77.06343383333333, "bike_id": "6075b236c7a3f537ce34d5f17efeef7a", "rental_uris": {"android": "https://dc.lft.to/lastmile_qr_scan", "ios": "https://dc.lft.to/lastmile_qr_scan"}, "name": "6075b236c7a3f537ce34d5f17efeef7a", "is_reserved": 0}, {"is_disabled": 0, "fusion_lon": 0.0, "fusion_lat": 0.0, "lat": 38.858694, "type": "electric_scooter", "lon": -76.990278, "bike_id": "3a90ed5bd1a8d6838708bb40b9c5102e", "rental_uris": {"android": "https://dc.lft.to/lastmile_qr_scan", "ios": "https://dc.lft.to/lastmile_qr_scan"}, "name": "3a90ed5bd1a8d6838708bb40b9c5102e", "is_reserved": 0}, {"is_disabled": 0, "fusion_lon": 0.0, "fusion_lat": 0.0, "lat": 38.916752833333334, "type": "electric_scooter", "lon": -77.034679, "bike_id": "b70c30bb4104c966ff76ee73ae055a7c", "rental_uris": {"android": "https://dc.lft.to/lastmile_qr_scan", "ios": "https://dc.lft.to/lastmile_qr_scan"}, "name": "b70c30bb4104c966ff76ee73ae055a7c", "is_reserved": 0}, {"is_disabled": 0, "fusion_lon": 0.0, "fusion_lat": 0.0, "lat": 38.918906166666666, "type": "electric_scooter", "lon": -77.041682, "bike_id": "bfbdfc443ee17d97a08f9ea96dbefddd", "rental_uris": {"android": "https://dc.lft.to/lastmile_qr_scan", "ios": "https://dc.lft.to/lastmile_qr_scan"}, "name": "bfbdfc443ee17d97a08f9ea96dbefddd", "is_reserved": 0}, {"is_disabled": 0, "fusion_lon": 0.0, "fusion_lat": 0.0, "lat": 38.90247733333333, "type": "electric_scooter", "lon": -77.03877, "bike_id": "fd6acf61ad092c23bdf176477b6966c9", "rental_uris": {"android": "https://dc.lft.to/lastmile_qr_scan", "ios": "https://dc.lft.to/lastmile_qr_scan"}, "name": "fd6acf61ad092c23bdf176477b6966c9", "is_reserved": 0}, {"is_disabled": 0, "fusion_lon": 0.0, "fusion_lat": 0.0, "lat": 38.89737316666667, "type": "electric_scooter", "lon": -77.027281, "bike_id": "6d6a4cb9b6c6d295d386e7032293d87f", "rental_uris": {"android": "https://dc.lft.to/lastmile_qr_scan", "ios": "https://dc.lft.to/lastmile_qr_scan"}, "name": "6d6a4cb9b6c6d295d386e7032293d87f", "is_reserved": 0}, {"is_disabled": 0, "fusion_lon": 0.0, "fusion_lat": 0.0, "lat": 38.926131166666664, "type": "electric_scooter", "lon": -77.02162283333334, "bike_id": "81985d853ba26a1fb7366faf566455ae", "rental_uris": {"android": "https://dc.lft.to/lastmile_qr_scan", "ios": "https://dc.lft.to/lastmile_qr_scan"}, "name": "81985d853ba26a1fb7366faf566455ae", "is_reserved": 0}, {"is_disabled": 0, "fusion_lon": 0.0, "fusion_lat": 0.0, "lat": 38.97249133333333, "type": "electric_bike", "lon": -76.99275083333333, "bike_id": "aa64c0cfdca9b6ac70241902febdae51", "rental_uris": {"android": "https://dc.lft.to/lastmile_qr_scan", "ios": "https://dc.lft.to/lastmile_qr_scan"}, "name": "aa64c0cfdca9b6ac70241902febdae51", "is_reserved": 0}, {"is_disabled": 0, "fusion_lon": 0.0, "fusion_lat": 0.0, "lat": 38.919735833333334, "type": "electric_scooter", "lon": -76.973097, "bike_id": "d4821092c2f0ede56520dd9fa315a47b", "rental_uris": {"android": "https://dc.lft.to/lastmile_qr_scan", "ios": "https://dc.lft.to/lastmile_qr_scan"}, "name": "d4821092c2f0ede56520dd9fa315a47b", "is_reserved": 0}, {"is_disabled": 0, "fusion_lon": 0.0, "fusion_lat": 0.0, "lat": 38.9155235, "type": "electric_scooter", "lon": -77.02044166666667, "bike_id": "f6d43c238ff8f02bbf56591eb56d8ae0", "rental_uris": {"android": "https://dc.lft.to/lastmile_qr_scan", "ios": "https://dc.lft.to/lastmile_qr_scan"}, "name": "f6d43c238ff8f02bbf56591eb56d8ae0", "is_reserved": 0}, {"is_disabled": 0, "fusion_lon": 0.0, "fusion_lat": 0.0, "lat": 38.926814666666665, "type": "electric_scooter", "lon": -77.03095116666667, "bike_id": "36ee4e5165f76042c971640f052fb0a3", "rental_uris": {"android": "https://dc.lft.to/lastmile_qr_scan", "ios": "https://dc.lft.to/lastmile_qr_scan"}, "name": "36ee4e5165f76042c971640f052fb0a3", "is_reserved": 0}, {"is_disabled": 0, "fusion_lon": 0.0, "fusion_lat": 0.0, "lat": 38.9132695, "type": "electric_scooter", "lon": -77.03234916666666, "bike_id": "982c141b52136f669ba0c1c842c64a17", "rental_uris": {"android": "https://dc.lft.to/lastmile_qr_scan", "ios": "https://dc.lft.to/lastmile_qr_scan"}, "name": "982c141b52136f669ba0c1c842c64a17", "is_reserved": 0}, {"is_disabled": 0, "fusion_lon": 0.0, "fusion_lat": 0.0, "lat": 38.89190716666667, "type": "electric_scooter", "lon": -76.98830516666666, "bike_id": "ca22bf7d131702dec5a5c9735bab78cc", "rental_uris": {"android": "https://dc.lft.to/lastmile_qr_scan", "ios": "https://dc.lft.to/lastmile_qr_scan"}, "name": "ca22bf7d131702dec5a5c9735bab78cc", "is_reserved": 0}, {"is_disabled": 0, "fusion_lon": 0.0, "fusion_lat": 0.0, "lat": 38.919009833333334, "type": "electric_scooter", "lon": -77.07116333333333, "bike_id": "e9b3b40faa09a940b8d2b594e3d716ce", "rental_uris": {"android": "https://dc.lft.to/lastmile_qr_scan", "ios": "https://dc.lft.to/lastmile_qr_scan"}, "name": "e9b3b40faa09a940b8d2b594e3d716ce", "is_reserved": 0}, {"is_disabled": 0, "fusion_lon": 0.0, "fusion_lat": 0.0, "lat": 38.918244333333334, "type": "electric_scooter", "lon": -77.02712683333333, "bike_id": "b6733e84a6d7810d0f2f4f7cea280d7f", "rental_uris": {"android": "https://dc.lft.to/lastmile_qr_scan", "ios": "https://dc.lft.to/lastmile_qr_scan"}, "name": "b6733e84a6d7810d0f2f4f7cea280d7f", "is_reserved": 0}, {"is_disabled": 0, "fusion_lon": 0.0, "fusion_lat": 0.0, "lat": 38.934379166666666, "type": "electric_scooter", "lon": -77.07256183333334, "bike_id": "e4bbb8c84a94388876a8957045ed24f0", "rental_uris": {"android": "https://dc.lft.to/lastmile_qr_scan", "ios": "https://dc.lft.to/lastmile_qr_scan"}, "name": "e4bbb8c84a94388876a8957045ed24f0", "is_reserved": 0}, {"is_disabled": 0, "fusion_lon": 0.0, "fusion_lat": 0.0, "lat": 38.89665183333334, "type": "electric_scooter", "lon": -76.9824385, "bike_id": "b50eac79931d0f2920c0eb59e8def50a", "rental_uris": {"android": "https://dc.lft.to/lastmile_qr_scan", "ios": "https://dc.lft.to/lastmile_qr_scan"}, "name": "b50eac79931d0f2920c0eb59e8def50a", "is_reserved": 0}, {"is_disabled": 0, "fusion_lon": 0.0, "fusion_lat": 0.0, "lat": 38.91566133333333, "type": "electric_scooter", "lon": -77.03241633333333, "bike_id": "6239e51fdd3685ac21c8098fac3a7199", "rental_uris": {"android": "https://dc.lft.to/lastmile_qr_scan", "ios": "https://dc.lft.to/lastmile_qr_scan"}, "name": "6239e51fdd3685ac21c8098fac3a7199", "is_reserved": 0}, {"is_disabled": 0, "fusion_lon": 0.0, "fusion_lat": 0.0, "lat": 38.9282685, "type": "electric_scooter", "lon": -77.05439866666667, "bike_id": "6760c2a7b161859d0ddc48543ad1fbf5", "rental_uris": {"android": "https://dc.lft.to/lastmile_qr_scan", "ios": "https://dc.lft.to/lastmile_qr_scan"}, "name": "6760c2a7b161859d0ddc48543ad1fbf5", "is_reserved": 0}, {"is_disabled": 0, "fusion_lon": 0.0, "fusion_lat": 0.0, "lat": 38.9430065, "type": "electric_scooter", "lon": -77.0276095, "bike_id": "67b9519e5aa66d681208e1234a7ad7be", "rental_uris": {"android": "https://dc.lft.to/lastmile_qr_scan", "ios": "https://dc.lft.to/lastmile_qr_scan"}, "name": "67b9519e5aa66d681208e1234a7ad7be", "is_reserved": 0}, {"is_disabled": 0, "fusion_lon": 0.0, "fusion_lat": 0.0, "lat": 38.92067683333333, "type": "electric_scooter", "lon": -77.04378433333333, "bike_id": "d1e1a669eff09d032c7f62f26ee5babc", "rental_uris": {"android": "https://dc.lft.to/lastmile_qr_scan", "ios": "https://dc.lft.to/lastmile_qr_scan"}, "name": "d1e1a669eff09d032c7f62f26ee5babc", "is_reserved": 0}, {"is_disabled": 0, "fusion_lon": 0.0, "fusion_lat": 0.0, "lat": 38.919337, "type": "electric_bike", "lon": -76.97504166666667, "bike_id": "a7225eb45c23cb084bda938fc2fe6350", "rental_uris": {"android": "https://dc.lft.to/lastmile_qr_scan", "ios": "https://dc.lft.to/lastmile_qr_scan"}, "name": "a7225eb45c23cb084bda938fc2fe6350", "is_reserved": 0}, {"is_disabled": 0, "fusion_lon": 0.0, "fusion_lat": 0.0, "lat": 38.92336933333333, "type": "electric_scooter", "lon": -77.04191366666667, "bike_id": "8ea544ad22bbbbbeb1608534715eb53b", "rental_uris": {"android": "https://dc.lft.to/lastmile_qr_scan", "ios": "https://dc.lft.to/lastmile_qr_scan"}, "name": "8ea544ad22bbbbbeb1608534715eb53b", "is_reserved": 0}, {"is_disabled": 0, "fusion_lon": 0.0, "fusion_lat": 0.0, "lat": 38.918227333333334, "type": "electric_scooter", "lon": -77.03196016666666, "bike_id": "21283ecc7fa4b9c938d251167f5a9472", "rental_uris": {"android": "https://dc.lft.to/lastmile_qr_scan", "ios": "https://dc.lft.to/lastmile_qr_scan"}, "name": "21283ecc7fa4b9c938d251167f5a9472", "is_reserved": 0}, {"is_disabled": 0, "fusion_lon": 0.0, "fusion_lat": 0.0, "lat": 38.86958416666667, "type": "electric_scooter", "lon": -76.96031533333333, "bike_id": "2c49edb88a65e3772a0c46fedd615f5b", "rental_uris": {"android": "https://dc.lft.to/lastmile_qr_scan", "ios": "https://dc.lft.to/lastmile_qr_scan"}, "name": "2c49edb88a65e3772a0c46fedd615f5b", "is_reserved": 0}, {"is_disabled": 0, "fusion_lon": 0.0, "fusion_lat": 0.0, "lat": 38.917085, "type": "electric_scooter", "lon": -77.03468333333333, "bike_id": "0c491fca0b682b79d34ec94910be04ab", "rental_uris": {"android": "https://dc.lft.to/lastmile_qr_scan", "ios": "https://dc.lft.to/lastmile_qr_scan"}, "name": "0c491fca0b682b79d34ec94910be04ab", "is_reserved": 0}, {"is_disabled": 0, "fusion_lon": 0.0, "fusion_lat": 0.0, "lat": 38.8898725, "type": "electric_scooter", "lon": -77.0024605, "bike_id": "5201e1bb425a8cbcfdf765afa1b06442", "rental_uris": {"android": "https://dc.lft.to/lastmile_qr_scan", "ios": "https://dc.lft.to/lastmile_qr_scan"}, "name": "5201e1bb425a8cbcfdf765afa1b06442", "is_reserved": 0}, {"is_disabled": 0, "fusion_lon": 0.0, "fusion_lat": 0.0, "lat": 38.91109083333333, "type": "electric_scooter", "lon": -77.038328, "bike_id": "3eeab8c94d2f4bcddbf9e70c6441ee62", "rental_uris": {"android": "https://dc.lft.to/lastmile_qr_scan", "ios": "https://dc.lft.to/lastmile_qr_scan"}, "name": "3eeab8c94d2f4bcddbf9e70c6441ee62", "is_reserved": 0}, {"is_disabled": 0, "fusion_lon": 0.0, "fusion_lat": 0.0, "lat": 38.919457666666666, "type": "electric_scooter", "lon": -77.04506916666666, "bike_id": "984fa8ff1ec24c4a30d7448f13fc9c7f", "rental_uris": {"android": "https://dc.lft.to/lastmile_qr_scan", "ios": "https://dc.lft.to/lastmile_qr_scan"}, "name": "984fa8ff1ec24c4a30d7448f13fc9c7f", "is_reserved": 0}, {"is_disabled": 0, "fusion_lon": 0.0, "fusion_lat": 0.0, "lat": 39.02685366666667, "type": "electric_bike", "lon": -77.12596333333333, "bike_id": "5282da457ba80a52c6f3454e1ee0dfe0", "rental_uris": {"android": "https://dc.lft.to/lastmile_qr_scan", "ios": "https://dc.lft.to/lastmile_qr_scan"}, "name": "5282da457ba80a52c6f3454e1ee0dfe0", "is_reserved": 0}, {"is_disabled": 0, "fusion_lon": 0.0, "fusion_lat": 0.0, "lat": 38.90637183333333, "type": "electric_scooter", "lon": -76.9857035, "bike_id": "e35d9f0238896c0ff4a14be3ac411497", "rental_uris": {"android": "https://dc.lft.to/lastmile_qr_scan", "ios": "https://dc.lft.to/lastmile_qr_scan"}, "name": "e35d9f0238896c0ff4a14be3ac411497", "is_reserved": 0}, {"is_disabled": 0, "fusion_lon": 0.0, "fusion_lat": 0.0, "lat": 38.88502283333333, "type": "electric_scooter", "lon": -77.0032405, "bike_id": "3b2d2a7bb867ce208040daea494fd763", "rental_uris": {"android": "https://dc.lft.to/lastmile_qr_scan", "ios": "https://dc.lft.to/lastmile_qr_scan"}, "name": "3b2d2a7bb867ce208040daea494fd763", "is_reserved": 0}, {"is_disabled": 0, "fusion_lon": 0.0, "fusion_lat": 0.0, "lat": 38.9051465, "type": "electric_bike", "lon": -76.98120933333334, "bike_id": "f63d0237cc93edd54a52ee6c0d58c7e9", "rental_uris": {"android": "https://dc.lft.to/lastmile_qr_scan", "ios": "https://dc.lft.to/lastmile_qr_scan"}, "name": "f63d0237cc93edd54a52ee6c0d58c7e9", "is_reserved": 0}, {"is_disabled": 0, "fusion_lon": 0.0, "fusion_lat": 0.0, "lat": 38.9171225, "type": "electric_scooter", "lon": -77.02602283333333, "bike_id": "43f47d6f15faa185ef4d983fb8a56877", "rental_uris": {"android": "https://dc.lft.to/lastmile_qr_scan", "ios": "https://dc.lft.to/lastmile_qr_scan"}, "name": "43f47d6f15faa185ef4d983fb8a56877", "is_reserved": 0}, {"is_disabled": 0, "fusion_lon": 0.0, "fusion_lat": 0.0, "lat": 38.917169, "type": "electric_scooter", "lon": -77.09811916666666, "bike_id": "e910aa7a8a066eed0fd60d7c989088d7", "rental_uris": {"android": "https://dc.lft.to/lastmile_qr_scan", "ios": "https://dc.lft.to/lastmile_qr_scan"}, "name": "e910aa7a8a066eed0fd60d7c989088d7", "is_reserved": 0}, {"is_disabled": 0, "fusion_lon": 0.0, "fusion_lat": 0.0, "lat": 38.9296345, "type": "electric_scooter", "lon": -77.0420065, "bike_id": "f863eaf6699e2918bd1f24444bfa7bb4", "rental_uris": {"android": "https://dc.lft.to/lastmile_qr_scan", "ios": "https://dc.lft.to/lastmile_qr_scan"}, "name": "f863eaf6699e2918bd1f24444bfa7bb4", "is_reserved": 0}, {"is_disabled": 0, "fusion_lon": 0.0, "fusion_lat": 0.0, "lat": 38.91320133333333, "type": "electric_scooter", "lon": -77.03186066666666, "bike_id": "8166289054e4637228cb58d3e4f8ede6", "rental_uris": {"android": "https://dc.lft.to/lastmile_qr_scan", "ios": "https://dc.lft.to/lastmile_qr_scan"}, "name": "8166289054e4637228cb58d3e4f8ede6", "is_reserved": 0}, {"is_disabled": 0, "fusion_lon": 0.0, "fusion_lat": 0.0, "lat": 38.94602366666667, "type": "electric_scooter", "lon": -77.029778, "bike_id": "9a4e35d10f8ae8b6023c7ba52c06616b", "rental_uris": {"android": "https://dc.lft.to/lastmile_qr_scan", "ios": "https://dc.lft.to/lastmile_qr_scan"}, "name": "9a4e35d10f8ae8b6023c7ba52c06616b", "is_reserved": 0}, {"is_disabled": 0, "fusion_lon": 0.0, "fusion_lat": 0.0, "lat": 38.92787083333333, "type": "electric_scooter", "lon": -77.03179233333333, "bike_id": "b6c6faee4547b804792e174e753fe62e", "rental_uris": {"android": "https://dc.lft.to/lastmile_qr_scan", "ios": "https://dc.lft.to/lastmile_qr_scan"}, "name": "b6c6faee4547b804792e174e753fe62e", "is_reserved": 0}, {"is_disabled": 0, "fusion_lon": 0.0, "fusion_lat": 0.0, "lat": 38.93714883333333, "type": "electric_scooter", "lon": -77.03269933333333, "bike_id": "f2ba08cf41532a5e3e7b2b5ff27596e0", "rental_uris": {"android": "https://dc.lft.to/lastmile_qr_scan", "ios": "https://dc.lft.to/lastmile_qr_scan"}, "name": "f2ba08cf41532a5e3e7b2b5ff27596e0", "is_reserved": 0}, {"is_disabled": 0, "fusion_lon": 0.0, "fusion_lat": 0.0, "lat": 38.87916033333333, "type": "electric_scooter", "lon": -77.007267, "bike_id": "a7b647bd110db93f84bb336697887e4c", "rental_uris": {"android": "https://dc.lft.to/lastmile_qr_scan", "ios": "https://dc.lft.to/lastmile_qr_scan"}, "name": "a7b647bd110db93f84bb336697887e4c", "is_reserved": 0}, {"is_disabled": 0, "fusion_lon": 0.0, "fusion_lat": 0.0, "lat": 38.9130975, "type": "electric_scooter", "lon": -77.0084935, "bike_id": "5bcdde37550c5aa21ef284a40e0307b2", "rental_uris": {"android": "https://dc.lft.to/lastmile_qr_scan", "ios": "https://dc.lft.to/lastmile_qr_scan"}, "name": "5bcdde37550c5aa21ef284a40e0307b2", "is_reserved": 0}, {"is_disabled": 0, "fusion_lon": 0.0, "fusion_lat": 0.0, "lat": 38.91266666666667, "type": "electric_scooter", "lon": -77.03369266666667, "bike_id": "a673d541d2e265b2500fd5adfcd0068a", "rental_uris": {"android": "https://dc.lft.to/lastmile_qr_scan", "ios": "https://dc.lft.to/lastmile_qr_scan"}, "name": "a673d541d2e265b2500fd5adfcd0068a", "is_reserved": 0}, {"is_disabled": 0, "fusion_lon": 0.0, "fusion_lat": 0.0, "lat": 38.98989516666666, "type": "electric_scooter", "lon": -77.03356583333333, "bike_id": "46258ad7394b2935e502832f6c3b803f", "rental_uris": {"android": "https://dc.lft.to/lastmile_qr_scan", "ios": "https://dc.lft.to/lastmile_qr_scan"}, "name": "46258ad7394b2935e502832f6c3b803f", "is_reserved": 0}, {"is_disabled": 0, "fusion_lon": 0.0, "fusion_lat": 0.0, "lat": 38.94590183333333, "type": "electric_bike", "lon": -77.34407816666666, "bike_id": "8bf61853e1ff467060e118b3ef26bd18", "rental_uris": {"android": "https://dc.lft.to/lastmile_qr_scan", "ios": "https://dc.lft.to/lastmile_qr_scan"}, "name": "8bf61853e1ff467060e118b3ef26bd18", "is_reserved": 0}, {"is_disabled": 0, "fusion_lon": 0.0, "fusion_lat": 0.0, "lat": 38.885129166666665, "type": "electric_scooter", "lon": -77.02184033333333, "bike_id": "d84822112bb03d8bc71c5f311fd43cad", "rental_uris": {"android": "https://dc.lft.to/lastmile_qr_scan", "ios": "https://dc.lft.to/lastmile_qr_scan"}, "name": "d84822112bb03d8bc71c5f311fd43cad", "is_reserved": 0}, {"is_disabled": 0, "fusion_lon": 0.0, "fusion_lat": 0.0, "lat": 38.91231483333333, "type": "electric_scooter", "lon": -77.0488085, "bike_id": "6164d84ee221d1ca8e29eadef4908da8", "rental_uris": {"android": "https://dc.lft.to/lastmile_qr_scan", "ios": "https://dc.lft.to/lastmile_qr_scan"}, "name": "6164d84ee221d1ca8e29eadef4908da8", "is_reserved": 0}, {"is_disabled": 0, "fusion_lon": 0.0, "fusion_lat": 0.0, "lat": 38.915011666666665, "type": "electric_bike", "lon": -77.03208966666666, "bike_id": "20ceef3c099abea08851be828ce94a70", "rental_uris": {"android": "https://dc.lft.to/lastmile_qr_scan", "ios": "https://dc.lft.to/lastmile_qr_scan"}, "name": "20ceef3c099abea08851be828ce94a70", "is_reserved": 0}, {"is_disabled": 0, "fusion_lon": 0.0, "fusion_lat": 0.0, "lat": 38.8843995, "type": "electric_scooter", "lon": -77.02967016666666, "bike_id": "352b2f7b3b2430d56541680760e5dbce", "rental_uris": {"android": "https://dc.lft.to/lastmile_qr_scan", "ios": "https://dc.lft.to/lastmile_qr_scan"}, "name": "352b2f7b3b2430d56541680760e5dbce", "is_reserved": 0}, {"is_disabled": 0, "fusion_lon": 0.0, "fusion_lat": 0.0, "lat": 38.894910333333335, "type": "electric_scooter", "lon": -77.00951033333334, "bike_id": "d8c081a1377585b9060219b1458711ed", "rental_uris": {"android": "https://dc.lft.to/lastmile_qr_scan", "ios": "https://dc.lft.to/lastmile_qr_scan"}, "name": "d8c081a1377585b9060219b1458711ed", "is_reserved": 0}, {"is_disabled": 0, "fusion_lon": 0.0, "fusion_lat": 0.0, "lat": 39.05459283333333, "type": "electric_bike", "lon": -77.14326916666667, "bike_id": "c3c929e7b2cf1691e9f487d07f0c09df", "rental_uris": {"android": "https://dc.lft.to/lastmile_qr_scan", "ios": "https://dc.lft.to/lastmile_qr_scan"}, "name": "c3c929e7b2cf1691e9f487d07f0c09df", "is_reserved": 0}, {"is_disabled": 0, "fusion_lon": 0.0, "fusion_lat": 0.0, "lat": 38.8813485, "type": "electric_scooter", "lon": -77.02700233333333, "bike_id": "c3d0557ca099b4dd9ca8a64b84c9d045", "rental_uris": {"android": "https://dc.lft.to/lastmile_qr_scan", "ios": "https://dc.lft.to/lastmile_qr_scan"}, "name": "c3d0557ca099b4dd9ca8a64b84c9d045", "is_reserved": 0}, {"is_disabled": 0, "fusion_lon": 0.0, "fusion_lat": 0.0, "lat": 38.776222, "type": "electric_bike", "lon": -77.0834925, "bike_id": "5d5149295ac6ff3fcbf149c0c4f99ed8", "rental_uris": {"android": "https://dc.lft.to/lastmile_qr_scan", "ios": "https://dc.lft.to/lastmile_qr_scan"}, "name": "5d5149295ac6ff3fcbf149c0c4f99ed8", "is_reserved": 0}, {"is_disabled": 0, "fusion_lon": 0.0, "fusion_lat": 0.0, "lat": 38.90551683333333, "type": "electric_scooter", "lon": -76.98140016666666, "bike_id": "be302509d645a1adbd0d874aaf901d5c", "rental_uris": {"android": "https://dc.lft.to/lastmile_qr_scan", "ios": "https://dc.lft.to/lastmile_qr_scan"}, "name": "be302509d645a1adbd0d874aaf901d5c", "is_reserved": 0}, {"is_disabled": 0, "fusion_lon": 0.0, "fusion_lat": 0.0, "lat": 38.881957166666666, "type": "electric_scooter", "lon": -76.995085, "bike_id": "bccfd1f4d7c6d5ae259e949be93e6c1b", "rental_uris": {"android": "https://dc.lft.to/lastmile_qr_scan", "ios": "https://dc.lft.to/lastmile_qr_scan"}, "name": "bccfd1f4d7c6d5ae259e949be93e6c1b", "is_reserved": 0}, {"is_disabled": 0, "fusion_lon": 0.0, "fusion_lat": 0.0, "lat": 38.89390316666667, "type": "electric_scooter", "lon": -76.9499455, "bike_id": "96e1fb29ec6839c4352414bb053e22ae", "rental_uris": {"android": "https://dc.lft.to/lastmile_qr_scan", "ios": "https://dc.lft.to/lastmile_qr_scan"}, "name": "96e1fb29ec6839c4352414bb053e22ae", "is_reserved": 0}, {"is_disabled": 0, "fusion_lon": 0.0, "fusion_lat": 0.0, "lat": 38.90501066666667, "type": "electric_scooter", "lon": -77.0170205, "bike_id": "c02b4a185a41d83cb0ba3bfcb493b6db", "rental_uris": {"android": "https://dc.lft.to/lastmile_qr_scan", "ios": "https://dc.lft.to/lastmile_qr_scan"}, "name": "c02b4a185a41d83cb0ba3bfcb493b6db", "is_reserved": 0}, {"is_disabled": 0, "fusion_lon": 0.0, "fusion_lat": 0.0, "lat": 38.934573, "type": "electric_scooter", "lon": -77.03054983333334, "bike_id": "a8b9de9c5ecedf7d7baf3bfea81e6ac8", "rental_uris": {"android": "https://dc.lft.to/lastmile_qr_scan", "ios": "https://dc.lft.to/lastmile_qr_scan"}, "name": "a8b9de9c5ecedf7d7baf3bfea81e6ac8", "is_reserved": 0}, {"is_disabled": 0, "fusion_lon": 0.0, "fusion_lat": 0.0, "lat": 38.915537666666665, "type": "electric_scooter", "lon": -77.03171066666667, "bike_id": "a933619cadc410b9eb3d8bfe589023ff", "rental_uris": {"android": "https://dc.lft.to/lastmile_qr_scan", "ios": "https://dc.lft.to/lastmile_qr_scan"}, "name": "a933619cadc410b9eb3d8bfe589023ff", "is_reserved": 0}, {"is_disabled": 0, "fusion_lon": 0.0, "fusion_lat": 0.0, "lat": 38.903777833333336, "type": "electric_scooter", "lon": -77.0434285, "bike_id": "1113165746824b94aa3e6693da0b7445", "rental_uris": {"android": "https://dc.lft.to/lastmile_qr_scan", "ios": "https://dc.lft.to/lastmile_qr_scan"}, "name": "1113165746824b94aa3e6693da0b7445", "is_reserved": 0}, {"is_disabled": 0, "fusion_lon": 0.0, "fusion_lat": 0.0, "lat": 38.88518066666666, "type": "electric_scooter", "lon": -77.02197166666667, "bike_id": "9072ebb47aaaa36c7537748864030e9e", "rental_uris": {"android": "https://dc.lft.to/lastmile_qr_scan", "ios": "https://dc.lft.to/lastmile_qr_scan"}, "name": "9072ebb47aaaa36c7537748864030e9e", "is_reserved": 0}, {"is_disabled": 0, "fusion_lon": 0.0, "fusion_lat": 0.0, "lat": 38.89738633333333, "type": "electric_scooter", "lon": -77.02723183333333, "bike_id": "223a8173401a7d6418672c894d670156", "rental_uris": {"android": "https://dc.lft.to/lastmile_qr_scan", "ios": "https://dc.lft.to/lastmile_qr_scan"}, "name": "223a8173401a7d6418672c894d670156", "is_reserved": 0}, {"is_disabled": 0, "fusion_lon": 0.0, "fusion_lat": 0.0, "lat": 38.91708583333333, "type": "electric_scooter", "lon": -77.034729, "bike_id": "624c5e0a057860772e04bf5c8a66283e", "rental_uris": {"android": "https://dc.lft.to/lastmile_qr_scan", "ios": "https://dc.lft.to/lastmile_qr_scan"}, "name": "624c5e0a057860772e04bf5c8a66283e", "is_reserved": 0}, {"is_disabled": 0, "fusion_lon": 0.0, "fusion_lat": 0.0, "lat": 38.930113166666665, "type": "electric_scooter", "lon": -77.032558, "bike_id": "717314d7b2a8a9261faed898fe4bcd42", "rental_uris": {"android": "https://dc.lft.to/lastmile_qr_scan", "ios": "https://dc.lft.to/lastmile_qr_scan"}, "name": "717314d7b2a8a9261faed898fe4bcd42", "is_reserved": 0}, {"is_disabled": 0, "fusion_lon": 0.0, "fusion_lat": 0.0, "lat": 38.911086166666664, "type": "electric_scooter", "lon": -76.99770733333334, "bike_id": "b492df5bc5cacc227179af56fc89e02e", "rental_uris": {"android": "https://dc.lft.to/lastmile_qr_scan", "ios": "https://dc.lft.to/lastmile_qr_scan"}, "name": "b492df5bc5cacc227179af56fc89e02e", "is_reserved": 0}, {"is_disabled": 0, "fusion_lon": 0.0, "fusion_lat": 0.0, "lat": 38.98470966666667, "type": "electric_scooter", "lon": -77.02639416666666, "bike_id": "9e15c40d4dddd0b1c418dd4c8e5b9771", "rental_uris": {"android": "https://dc.lft.to/lastmile_qr_scan", "ios": "https://dc.lft.to/lastmile_qr_scan"}, "name": "9e15c40d4dddd0b1c418dd4c8e5b9771", "is_reserved": 0}, {"is_disabled": 0, "fusion_lon": 0.0, "fusion_lat": 0.0, "lat": 38.888158, "type": "electric_scooter", "lon": -77.01491516666667, "bike_id": "4637f6dd314f04343be1fac6ad9bbc82", "rental_uris": {"android": "https://dc.lft.to/lastmile_qr_scan", "ios": "https://dc.lft.to/lastmile_qr_scan"}, "name": "4637f6dd314f04343be1fac6ad9bbc82", "is_reserved": 0}, {"is_disabled": 0, "fusion_lon": 0.0, "fusion_lat": 0.0, "lat": 38.87982516666667, "type": "electric_bike", "lon": -76.91596483333333, "bike_id": "92f68c09aaa2be33c2591914ebef957f", "rental_uris": {"android": "https://dc.lft.to/lastmile_qr_scan", "ios": "https://dc.lft.to/lastmile_qr_scan"}, "name": "92f68c09aaa2be33c2591914ebef957f", "is_reserved": 0}, {"is_disabled": 0, "fusion_lon": 0.0, "fusion_lat": 0.0, "lat": 38.908398, "type": "electric_scooter", "lon": -76.99696033333333, "bike_id": "8a884c59705c575f4454c0baee5d5504", "rental_uris": {"android": "https://dc.lft.to/lastmile_qr_scan", "ios": "https://dc.lft.to/lastmile_qr_scan"}, "name": "8a884c59705c575f4454c0baee5d5504", "is_reserved": 0}, {"is_disabled": 0, "fusion_lon": 0.0, "fusion_lat": 0.0, "lat": 38.91183133333333, "type": "electric_scooter", "lon": -77.03216466666667, "bike_id": "178cceaf710bdc7b38345c38a9cdc312", "rental_uris": {"android": "https://dc.lft.to/lastmile_qr_scan", "ios": "https://dc.lft.to/lastmile_qr_scan"}, "name": "178cceaf710bdc7b38345c38a9cdc312", "is_reserved": 0}, {"is_disabled": 0, "fusion_lon": 0.0, "fusion_lat": 0.0, "lat": 38.966453, "type": "electric_bike", "lon": -76.93018366666666, "bike_id": "d3d5de047befa719627a5b80720eb94f", "rental_uris": {"android": "https://dc.lft.to/lastmile_qr_scan", "ios": "https://dc.lft.to/lastmile_qr_scan"}, "name": "d3d5de047befa719627a5b80720eb94f", "is_reserved": 0}, {"is_disabled": 0, "fusion_lon": 0.0, "fusion_lat": 0.0, "lat": 38.921069333333335, "type": "electric_scooter", "lon": -77.0436635, "bike_id": "73cb3b4e5d4001485c2677491b379b51", "rental_uris": {"android": "https://dc.lft.to/lastmile_qr_scan", "ios": "https://dc.lft.to/lastmile_qr_scan"}, "name": "73cb3b4e5d4001485c2677491b379b51", "is_reserved": 0}, {"is_disabled": 0, "fusion_lon": 0.0, "fusion_lat": 0.0, "lat": 38.9026995, "type": "electric_scooter", "lon": -77.03441716666667, "bike_id": "d575a2d0dace304ac7b8a13560908114", "rental_uris": {"android": "https://dc.lft.to/lastmile_qr_scan", "ios": "https://dc.lft.to/lastmile_qr_scan"}, "name": "d575a2d0dace304ac7b8a13560908114", "is_reserved": 0}, {"is_disabled": 0, "fusion_lon": 0.0, "fusion_lat": 0.0, "lat": 38.9141445, "type": "electric_scooter", "lon": -77.02212916666667, "bike_id": "4738e75da3395b458703217e1b15ea99", "rental_uris": {"android": "https://dc.lft.to/lastmile_qr_scan", "ios": "https://dc.lft.to/lastmile_qr_scan"}, "name": "4738e75da3395b458703217e1b15ea99", "is_reserved": 0}, {"is_disabled": 0, "fusion_lon": 0.0, "fusion_lat": 0.0, "lat": 38.906253, "type": "electric_scooter", "lon": -77.0514155, "bike_id": "87f2ea71f62fa5e2bf770786f2ea98c8", "rental_uris": {"android": "https://dc.lft.to/lastmile_qr_scan", "ios": "https://dc.lft.to/lastmile_qr_scan"}, "name": "87f2ea71f62fa5e2bf770786f2ea98c8", "is_reserved": 0}, {"is_disabled": 0, "fusion_lon": 0.0, "fusion_lat": 0.0, "lat": 38.911506833333334, "type": "electric_scooter", "lon": -77.08790133333333, "bike_id": "82b1e13ee8b6ee3964a2b455407e7a7a", "rental_uris": {"android": "https://dc.lft.to/lastmile_qr_scan", "ios": "https://dc.lft.to/lastmile_qr_scan"}, "name": "82b1e13ee8b6ee3964a2b455407e7a7a", "is_reserved": 0}, {"is_disabled": 0, "fusion_lon": 0.0, "fusion_lat": 0.0, "lat": 38.92767116666667, "type": "electric_scooter", "lon": -77.0291545, "bike_id": "723a38d6611974f8228ef078289d59bf", "rental_uris": {"android": "https://dc.lft.to/lastmile_qr_scan", "ios": "https://dc.lft.to/lastmile_qr_scan"}, "name": "723a38d6611974f8228ef078289d59bf", "is_reserved": 0}, {"is_disabled": 0, "fusion_lon": 0.0, "fusion_lat": 0.0, "lat": 38.9437335, "type": "electric_scooter", "lon": -77.07741416666667, "bike_id": "d20933f7f79d338a63dbb97c2a0edb9c", "rental_uris": {"android": "https://dc.lft.to/lastmile_qr_scan", "ios": "https://dc.lft.to/lastmile_qr_scan"}, "name": "d20933f7f79d338a63dbb97c2a0edb9c", "is_reserved": 0}, {"is_disabled": 0, "fusion_lon": 0.0, "fusion_lat": 0.0, "lat": 38.89329166666667, "type": "electric_scooter", "lon": -77.0318375, "bike_id": "e1ddd18e95df11558fe97c36d3ccd89e", "rental_uris": {"android": "https://dc.lft.to/lastmile_qr_scan", "ios": "https://dc.lft.to/lastmile_qr_scan"}, "name": "e1ddd18e95df11558fe97c36d3ccd89e", "is_reserved": 0}, {"is_disabled": 0, "fusion_lon": 0.0, "fusion_lat": 0.0, "lat": 38.9381525, "type": "electric_scooter", "lon": -76.9904425, "bike_id": "b84b4deaa6cca9eb5cfa7e08ba8fed66", "rental_uris": {"android": "https://dc.lft.to/lastmile_qr_scan", "ios": "https://dc.lft.to/lastmile_qr_scan"}, "name": "b84b4deaa6cca9eb5cfa7e08ba8fed66", "is_reserved": 0}, {"is_disabled": 0, "fusion_lon": 0.0, "fusion_lat": 0.0, "lat": 38.92587, "type": "electric_scooter", "lon": -77.03229233333333, "bike_id": "e991d0838096bab99a415cd36cc8bf32", "rental_uris": {"android": "https://dc.lft.to/lastmile_qr_scan", "ios": "https://dc.lft.to/lastmile_qr_scan"}, "name": "e991d0838096bab99a415cd36cc8bf32", "is_reserved": 0}, {"is_disabled": 0, "fusion_lon": 0.0, "fusion_lat": 0.0, "lat": 38.8983815, "type": "electric_scooter", "lon": -77.04338533333333, "bike_id": "3245e03a9b7b733114127c958396785b", "rental_uris": {"android": "https://dc.lft.to/lastmile_qr_scan", "ios": "https://dc.lft.to/lastmile_qr_scan"}, "name": "3245e03a9b7b733114127c958396785b", "is_reserved": 0}, {"is_disabled": 0, "fusion_lon": 0.0, "fusion_lat": 0.0, "lat": 38.9130335, "type": "electric_scooter", "lon": -77.03204466666666, "bike_id": "b384316ebb5b3ec80bb59130b7c36f29", "rental_uris": {"android": "https://dc.lft.to/lastmile_qr_scan", "ios": "https://dc.lft.to/lastmile_qr_scan"}, "name": "b384316ebb5b3ec80bb59130b7c36f29", "is_reserved": 0}, {"is_disabled": 0, "fusion_lon": 0.0, "fusion_lat": 0.0, "lat": 38.863463333333335, "type": "electric_scooter", "lon": -76.99065166666666, "bike_id": "bf8b66f7bedbcfa2f111c1f05f81e30f", "rental_uris": {"android": "https://dc.lft.to/lastmile_qr_scan", "ios": "https://dc.lft.to/lastmile_qr_scan"}, "name": "bf8b66f7bedbcfa2f111c1f05f81e30f", "is_reserved": 0}, {"is_disabled": 0, "fusion_lon": 0.0, "fusion_lat": 0.0, "lat": 38.908906333333334, "type": "electric_scooter", "lon": -77.04383383333334, "bike_id": "25229f07a80dc95bc9c8bd52e0965afa", "rental_uris": {"android": "https://dc.lft.to/lastmile_qr_scan", "ios": "https://dc.lft.to/lastmile_qr_scan"}, "name": "25229f07a80dc95bc9c8bd52e0965afa", "is_reserved": 0}, {"is_disabled": 0, "fusion_lon": 0.0, "fusion_lat": 0.0, "lat": 38.994528333333335, "type": "electric_bike", "lon": -76.90815183333333, "bike_id": "5dbec43cab8ee1ba46da307af36bafc4", "rental_uris": {"android": "https://dc.lft.to/lastmile_qr_scan", "ios": "https://dc.lft.to/lastmile_qr_scan"}, "name": "5dbec43cab8ee1ba46da307af36bafc4", "is_reserved": 0}, {"is_disabled": 0, "fusion_lon": 0.0, "fusion_lat": 0.0, "lat": 38.932489333333336, "type": "electric_scooter", "lon": -77.04007983333334, "bike_id": "68ea6b5e0c967a16778b352b08220793", "rental_uris": {"android": "https://dc.lft.to/lastmile_qr_scan", "ios": "https://dc.lft.to/lastmile_qr_scan"}, "name": "68ea6b5e0c967a16778b352b08220793", "is_reserved": 0}, {"is_disabled": 0, "fusion_lon": 0.0, "fusion_lat": 0.0, "lat": 38.859879, "type": "electric_bike", "lon": -76.9705155, "bike_id": "5b2827bcf87b91650a052b2d54578975", "rental_uris": {"android": "https://dc.lft.to/lastmile_qr_scan", "ios": "https://dc.lft.to/lastmile_qr_scan"}, "name": "5b2827bcf87b91650a052b2d54578975", "is_reserved": 0}, {"is_disabled": 0, "fusion_lon": 0.0, "fusion_lat": 0.0, "lat": 38.9192355, "type": "electric_scooter", "lon": -77.0313825, "bike_id": "6a67994f2ab1bb0e7988855e81bbeffa", "rental_uris": {"android": "https://dc.lft.to/lastmile_qr_scan", "ios": "https://dc.lft.to/lastmile_qr_scan"}, "name": "6a67994f2ab1bb0e7988855e81bbeffa", "is_reserved": 0}, {"is_disabled": 0, "fusion_lon": 0.0, "fusion_lat": 0.0, "lat": 38.9256365, "type": "electric_scooter", "lon": -77.02284566666667, "bike_id": "4420054f6daaa4d5d27538101c55b53b", "rental_uris": {"android": "https://dc.lft.to/lastmile_qr_scan", "ios": "https://dc.lft.to/lastmile_qr_scan"}, "name": "4420054f6daaa4d5d27538101c55b53b", "is_reserved": 0}, {"is_disabled": 0, "fusion_lon": 0.0, "fusion_lat": 0.0, "lat": 38.8624675, "type": "electric_scooter", "lon": -76.99499183333333, "bike_id": "d9644529c11a5275ab751df248b444cc", "rental_uris": {"android": "https://dc.lft.to/lastmile_qr_scan", "ios": "https://dc.lft.to/lastmile_qr_scan"}, "name": "d9644529c11a5275ab751df248b444cc", "is_reserved": 0}, {"is_disabled": 0, "fusion_lon": 0.0, "fusion_lat": 0.0, "lat": 38.8859895, "type": "electric_scooter", "lon": -76.99721016666666, "bike_id": "1ec4d634f317bcf743c6f0315fb79e6e", "rental_uris": {"android": "https://dc.lft.to/lastmile_qr_scan", "ios": "https://dc.lft.to/lastmile_qr_scan"}, "name": "1ec4d634f317bcf743c6f0315fb79e6e", "is_reserved": 0}, {"is_disabled": 0, "fusion_lon": 0.0, "fusion_lat": 0.0, "lat": 38.90837116666667, "type": "electric_scooter", "lon": -76.997005, "bike_id": "d66aa2bfc31d24a1411d32b8224d058d", "rental_uris": {"android": "https://dc.lft.to/lastmile_qr_scan", "ios": "https://dc.lft.to/lastmile_qr_scan"}, "name": "d66aa2bfc31d24a1411d32b8224d058d", "is_reserved": 0}, {"is_disabled": 0, "fusion_lon": 0.0, "fusion_lat": 0.0, "lat": 38.88011983333333, "type": "electric_bike", "lon": -76.91592466666667, "bike_id": "fc61b9721c43aeed7541672578d4a218", "rental_uris": {"android": "https://dc.lft.to/lastmile_qr_scan", "ios": "https://dc.lft.to/lastmile_qr_scan"}, "name": "fc61b9721c43aeed7541672578d4a218", "is_reserved": 0}, {"is_disabled": 0, "fusion_lon": 0.0, "fusion_lat": 0.0, "lat": 38.92356266666667, "type": "electric_scooter", "lon": -77.04100733333334, "bike_id": "8b86b3ec33664191b50f9cf83f181065", "rental_uris": {"android": "https://dc.lft.to/lastmile_qr_scan", "ios": "https://dc.lft.to/lastmile_qr_scan"}, "name": "8b86b3ec33664191b50f9cf83f181065", "is_reserved": 0}, {"is_disabled": 0, "fusion_lon": 0.0, "fusion_lat": 0.0, "lat": 38.9287905, "type": "electric_scooter", "lon": -77.041272, "bike_id": "4ee3e2d4477d964e612890772ba0d26c", "rental_uris": {"android": "https://dc.lft.to/lastmile_qr_scan", "ios": "https://dc.lft.to/lastmile_qr_scan"}, "name": "4ee3e2d4477d964e612890772ba0d26c", "is_reserved": 0}, {"is_disabled": 0, "fusion_lon": 0.0, "fusion_lat": 0.0, "lat": 38.90967116666667, "type": "electric_scooter", "lon": -77.04801966666666, "bike_id": "83d657bf019663d929e49d3de446e5ca", "rental_uris": {"android": "https://dc.lft.to/lastmile_qr_scan", "ios": "https://dc.lft.to/lastmile_qr_scan"}, "name": "83d657bf019663d929e49d3de446e5ca", "is_reserved": 0}, {"is_disabled": 0, "fusion_lon": 0.0, "fusion_lat": 0.0, "lat": 38.914820666666664, "type": "electric_scooter", "lon": -77.04088583333333, "bike_id": "6857613dda2b995311da62bb1798d254", "rental_uris": {"android": "https://dc.lft.to/lastmile_qr_scan", "ios": "https://dc.lft.to/lastmile_qr_scan"}, "name": "6857613dda2b995311da62bb1798d254", "is_reserved": 0}, {"is_disabled": 0, "fusion_lon": 0.0, "fusion_lat": 0.0, "lat": 38.91383833333333, "type": "electric_scooter", "lon": -77.02969016666667, "bike_id": "c3f58ed8a79b3d57b11cc7124e4270a5", "rental_uris": {"android": "https://dc.lft.to/lastmile_qr_scan", "ios": "https://dc.lft.to/lastmile_qr_scan"}, "name": "c3f58ed8a79b3d57b11cc7124e4270a5", "is_reserved": 0}, {"is_disabled": 0, "fusion_lon": 0.0, "fusion_lat": 0.0, "lat": 38.89874066666667, "type": "electric_scooter", "lon": -76.931616, "bike_id": "9aeb58ee4c783cba9223afc27e443155", "rental_uris": {"android": "https://dc.lft.to/lastmile_qr_scan", "ios": "https://dc.lft.to/lastmile_qr_scan"}, "name": "9aeb58ee4c783cba9223afc27e443155", "is_reserved": 0}, {"is_disabled": 0, "fusion_lon": 0.0, "fusion_lat": 0.0, "lat": 38.88751933333333, "type": "electric_scooter", "lon": -77.00224216666666, "bike_id": "c48a1a8847eb69d940978d5b189165e3", "rental_uris": {"android": "https://dc.lft.to/lastmile_qr_scan", "ios": "https://dc.lft.to/lastmile_qr_scan"}, "name": "c48a1a8847eb69d940978d5b189165e3", "is_reserved": 0}, {"is_disabled": 0, "fusion_lon": 0.0, "fusion_lat": 0.0, "lat": 38.900711, "type": "electric_scooter", "lon": -77.05027516666667, "bike_id": "ef9dde593695beb74aa6100fda5dd792", "rental_uris": {"android": "https://dc.lft.to/lastmile_qr_scan", "ios": "https://dc.lft.to/lastmile_qr_scan"}, "name": "ef9dde593695beb74aa6100fda5dd792", "is_reserved": 0}, {"is_disabled": 0, "fusion_lon": 0.0, "fusion_lat": 0.0, "lat": 38.909665, "type": "electric_scooter", "lon": -77.04846083333334, "bike_id": "fc2a7587bd34ee2ca592ecfccb4f791f", "rental_uris": {"android": "https://dc.lft.to/lastmile_qr_scan", "ios": "https://dc.lft.to/lastmile_qr_scan"}, "name": "fc2a7587bd34ee2ca592ecfccb4f791f", "is_reserved": 0}, {"is_disabled": 0, "fusion_lon": 0.0, "fusion_lat": 0.0, "lat": 38.860562333333334, "type": "electric_scooter", "lon": -76.985054, "bike_id": "41de29170d8dbb920495e3c00d16a33a", "rental_uris": {"android": "https://dc.lft.to/lastmile_qr_scan", "ios": "https://dc.lft.to/lastmile_qr_scan"}, "name": "41de29170d8dbb920495e3c00d16a33a", "is_reserved": 0}, {"is_disabled": 0, "fusion_lon": 0.0, "fusion_lat": 0.0, "lat": 38.91650166666667, "type": "electric_scooter", "lon": -77.01914083333334, "bike_id": "e94faa3b3c8c98fe5105c3e9878e9857", "rental_uris": {"android": "https://dc.lft.to/lastmile_qr_scan", "ios": "https://dc.lft.to/lastmile_qr_scan"}, "name": "e94faa3b3c8c98fe5105c3e9878e9857", "is_reserved": 0}, {"is_disabled": 0, "fusion_lon": 0.0, "fusion_lat": 0.0, "lat": 38.92642883333333, "type": "electric_scooter", "lon": -77.033643, "bike_id": "6f01142fa93946e4ef459bbf6348e07d", "rental_uris": {"android": "https://dc.lft.to/lastmile_qr_scan", "ios": "https://dc.lft.to/lastmile_qr_scan"}, "name": "6f01142fa93946e4ef459bbf6348e07d", "is_reserved": 0}, {"is_disabled": 0, "fusion_lon": 0.0, "fusion_lat": 0.0, "lat": 38.93900166666667, "type": "electric_scooter", "lon": -77.03317633333333, "bike_id": "43b34ada857893d88aa16caaca77ca7b", "rental_uris": {"android": "https://dc.lft.to/lastmile_qr_scan", "ios": "https://dc.lft.to/lastmile_qr_scan"}, "name": "43b34ada857893d88aa16caaca77ca7b", "is_reserved": 0}, {"is_disabled": 0, "fusion_lon": 0.0, "fusion_lat": 0.0, "lat": 38.85217133333333, "type": "electric_bike", "lon": -77.12764683333333, "bike_id": "4c8396cb8fe4bb18bc5c51d4def23140", "rental_uris": {"android": "https://dc.lft.to/lastmile_qr_scan", "ios": "https://dc.lft.to/lastmile_qr_scan"}, "name": "4c8396cb8fe4bb18bc5c51d4def23140", "is_reserved": 0}, {"is_disabled": 0, "fusion_lon": 0.0, "fusion_lat": 0.0, "lat": 38.89224166666666, "type": "electric_scooter", "lon": -77.04331666666667, "bike_id": "5f6106384a06f7d8e31182d1e03b0826", "rental_uris": {"android": "https://dc.lft.to/lastmile_qr_scan", "ios": "https://dc.lft.to/lastmile_qr_scan"}, "name": "5f6106384a06f7d8e31182d1e03b0826", "is_reserved": 0}, {"is_disabled": 0, "fusion_lon": 0.0, "fusion_lat": 0.0, "lat": 38.897503666666665, "type": "electric_scooter", "lon": -77.051174, "bike_id": "8d9fb02dd5ee89bed61f4d92e02cecce", "rental_uris": {"android": "https://dc.lft.to/lastmile_qr_scan", "ios": "https://dc.lft.to/lastmile_qr_scan"}, "name": "8d9fb02dd5ee89bed61f4d92e02cecce", "is_reserved": 0}, {"is_disabled": 0, "fusion_lon": 0.0, "fusion_lat": 0.0, "lat": 38.914222333333335, "type": "electric_scooter", "lon": -77.01423983333333, "bike_id": "4a14ed03730adb7611442d6766dce5b6", "rental_uris": {"android": "https://dc.lft.to/lastmile_qr_scan", "ios": "https://dc.lft.to/lastmile_qr_scan"}, "name": "4a14ed03730adb7611442d6766dce5b6", "is_reserved": 0}, {"is_disabled": 0, "fusion_lon": 0.0, "fusion_lat": 0.0, "lat": 38.884925833333334, "type": "electric_scooter", "lon": -77.007264, "bike_id": "85b6d49e237ea69b75d9fb96012a25e1", "rental_uris": {"android": "https://dc.lft.to/lastmile_qr_scan", "ios": "https://dc.lft.to/lastmile_qr_scan"}, "name": "85b6d49e237ea69b75d9fb96012a25e1", "is_reserved": 0}, {"is_disabled": 0, "fusion_lon": 0.0, "fusion_lat": 0.0, "lat": 38.92933883333333, "type": "electric_bike", "lon": -77.0325545, "bike_id": "722c379b8d5af05b9e97562e205d67ce", "rental_uris": {"android": "https://dc.lft.to/lastmile_qr_scan", "ios": "https://dc.lft.to/lastmile_qr_scan"}, "name": "722c379b8d5af05b9e97562e205d67ce", "is_reserved": 0}, {"is_disabled": 0, "fusion_lon": 0.0, "fusion_lat": 0.0, "lat": 38.900306, "type": "electric_scooter", "lon": -76.99969883333333, "bike_id": "a12c7361743ae0fa937a8aa7804cda0d", "rental_uris": {"android": "https://dc.lft.to/lastmile_qr_scan", "ios": "https://dc.lft.to/lastmile_qr_scan"}, "name": "a12c7361743ae0fa937a8aa7804cda0d", "is_reserved": 0}, {"is_disabled": 0, "fusion_lon": 0.0, "fusion_lat": 0.0, "lat": 38.898224166666665, "type": "electric_scooter", "lon": -76.946531, "bike_id": "c3106a82cf04d7d2d006db2e3554e2ab", "rental_uris": {"android": "https://dc.lft.to/lastmile_qr_scan", "ios": "https://dc.lft.to/lastmile_qr_scan"}, "name": "c3106a82cf04d7d2d006db2e3554e2ab", "is_reserved": 0}, {"is_disabled": 0, "fusion_lon": 0.0, "fusion_lat": 0.0, "lat": 38.86959216666666, "type": "electric_scooter", "lon": -76.97593266666667, "bike_id": "703c180a9e1f4087b5076d3aa343fb6e", "rental_uris": {"android": "https://dc.lft.to/lastmile_qr_scan", "ios": "https://dc.lft.to/lastmile_qr_scan"}, "name": "703c180a9e1f4087b5076d3aa343fb6e", "is_reserved": 0}, {"is_disabled": 0, "fusion_lon": 0.0, "fusion_lat": 0.0, "lat": 38.91119116666667, "type": "electric_scooter", "lon": -77.0440615, "bike_id": "15355af356530441d61b8b4d14dc4c59", "rental_uris": {"android": "https://dc.lft.to/lastmile_qr_scan", "ios": "https://dc.lft.to/lastmile_qr_scan"}, "name": "15355af356530441d61b8b4d14dc4c59", "is_reserved": 0}, {"is_disabled": 0, "fusion_lon": 0.0, "fusion_lat": 0.0, "lat": 38.90385083333334, "type": "electric_scooter", "lon": -76.99006733333333, "bike_id": "9b90ae3b757ca3d94f0e9ca00ab4e2ca", "rental_uris": {"android": "https://dc.lft.to/lastmile_qr_scan", "ios": "https://dc.lft.to/lastmile_qr_scan"}, "name": "9b90ae3b757ca3d94f0e9ca00ab4e2ca", "is_reserved": 0}, {"is_disabled": 0, "fusion_lon": 0.0, "fusion_lat": 0.0, "lat": 38.946255, "type": "electric_bike", "lon": -76.934116, "bike_id": "0f54dc086065bc6ce153ecfb414d790a", "rental_uris": {"android": "https://dc.lft.to/lastmile_qr_scan", "ios": "https://dc.lft.to/lastmile_qr_scan"}, "name": "0f54dc086065bc6ce153ecfb414d790a", "is_reserved": 0}, {"is_disabled": 0, "fusion_lon": 0.0, "fusion_lat": 0.0, "lat": 38.917126333333336, "type": "electric_scooter", "lon": -77.031007, "bike_id": "57559a57e6ce5536050714a45722643f", "rental_uris": {"android": "https://dc.lft.to/lastmile_qr_scan", "ios": "https://dc.lft.to/lastmile_qr_scan"}, "name": "57559a57e6ce5536050714a45722643f", "is_reserved": 0}, {"is_disabled": 0, "fusion_lon": 0.0, "fusion_lat": 0.0, "lat": 38.91074033333334, "type": "electric_scooter", "lon": -77.04405316666667, "bike_id": "59ae0f42c5fa8ad25cf3bb5b6de9b15d", "rental_uris": {"android": "https://dc.lft.to/lastmile_qr_scan", "ios": "https://dc.lft.to/lastmile_qr_scan"}, "name": "59ae0f42c5fa8ad25cf3bb5b6de9b15d", "is_reserved": 0}, {"is_disabled": 0, "fusion_lon": 0.0, "fusion_lat": 0.0, "lat": 38.9012715, "type": "electric_scooter", "lon": -77.04638766666666, "bike_id": "348d6bb6cb703ce246c2ced27e0e65c7", "rental_uris": {"android": "https://dc.lft.to/lastmile_qr_scan", "ios": "https://dc.lft.to/lastmile_qr_scan"}, "name": "348d6bb6cb703ce246c2ced27e0e65c7", "is_reserved": 0}, {"is_disabled": 0, "fusion_lon": 0.0, "fusion_lat": 0.0, "lat": 38.905397, "type": "electric_scooter", "lon": -77.02199416666667, "bike_id": "55360887102b7985caaf1f09457610e2", "rental_uris": {"android": "https://dc.lft.to/lastmile_qr_scan", "ios": "https://dc.lft.to/lastmile_qr_scan"}, "name": "55360887102b7985caaf1f09457610e2", "is_reserved": 0}, {"is_disabled": 0, "fusion_lon": 0.0, "fusion_lat": 0.0, "lat": 38.91847633333333, "type": "electric_scooter", "lon": -77.02450816666666, "bike_id": "aa181a6695c3945ceee8fcaa50af653d", "rental_uris": {"android": "https://dc.lft.to/lastmile_qr_scan", "ios": "https://dc.lft.to/lastmile_qr_scan"}, "name": "aa181a6695c3945ceee8fcaa50af653d", "is_reserved": 0}, {"is_disabled": 0, "fusion_lon": 0.0, "fusion_lat": 0.0, "lat": 38.89727416666667, "type": "electric_bike", "lon": -76.9054085, "bike_id": "508e6626dafd1bc0d18e23781b736732", "rental_uris": {"android": "https://dc.lft.to/lastmile_qr_scan", "ios": "https://dc.lft.to/lastmile_qr_scan"}, "name": "508e6626dafd1bc0d18e23781b736732", "is_reserved": 0}, {"is_disabled": 0, "fusion_lon": 0.0, "fusion_lat": 0.0, "lat": 38.96818666666667, "type": "electric_scooter", "lon": -77.008877, "bike_id": "e52aa760f81f1b9d3ec02c59348874b4", "rental_uris": {"android": "https://dc.lft.to/lastmile_qr_scan", "ios": "https://dc.lft.to/lastmile_qr_scan"}, "name": "e52aa760f81f1b9d3ec02c59348874b4", "is_reserved": 0}, {"is_disabled": 0, "fusion_lon": 0.0, "fusion_lat": 0.0, "lat": 38.941124, "type": "electric_scooter", "lon": -77.077137, "bike_id": "eb853f2bd37fb29c601f9305b83fbb09", "rental_uris": {"android": "https://dc.lft.to/lastmile_qr_scan", "ios": "https://dc.lft.to/lastmile_qr_scan"}, "name": "eb853f2bd37fb29c601f9305b83fbb09", "is_reserved": 0}, {"is_disabled": 0, "fusion_lon": 0.0, "fusion_lat": 0.0, "lat": 38.903885833333334, "type": "electric_scooter", "lon": -77.00472516666666, "bike_id": "6da4191dd38ff036bea042aff62b7763", "rental_uris": {"android": "https://dc.lft.to/lastmile_qr_scan", "ios": "https://dc.lft.to/lastmile_qr_scan"}, "name": "6da4191dd38ff036bea042aff62b7763", "is_reserved": 0}, {"is_disabled": 0, "fusion_lon": 0.0, "fusion_lat": 0.0, "lat": 38.9322305, "type": "electric_scooter", "lon": -76.99534016666667, "bike_id": "0d805b6f341901bbc3a3ecb33af45b50", "rental_uris": {"android": "https://dc.lft.to/lastmile_qr_scan", "ios": "https://dc.lft.to/lastmile_qr_scan"}, "name": "0d805b6f341901bbc3a3ecb33af45b50", "is_reserved": 0}, {"is_disabled": 0, "fusion_lon": 0.0, "fusion_lat": 0.0, "lat": 39.05205383333333, "type": "electric_bike", "lon": -77.044061, "bike_id": "63a144a32c7606762bbf9a8099e6faaa", "rental_uris": {"android": "https://dc.lft.to/lastmile_qr_scan", "ios": "https://dc.lft.to/lastmile_qr_scan"}, "name": "63a144a32c7606762bbf9a8099e6faaa", "is_reserved": 0}, {"is_disabled": 0, "fusion_lon": 0.0, "fusion_lat": 0.0, "lat": 38.87090966666667, "type": "electric_scooter", "lon": -77.00812666666667, "bike_id": "8ba34a541f8b38461ebba84f45a62283", "rental_uris": {"android": "https://dc.lft.to/lastmile_qr_scan", "ios": "https://dc.lft.to/lastmile_qr_scan"}, "name": "8ba34a541f8b38461ebba84f45a62283", "is_reserved": 0}, {"is_disabled": 0, "fusion_lon": 0.0, "fusion_lat": 0.0, "lat": 38.945502, "type": "electric_scooter", "lon": -77.042531, "bike_id": "a68a0a26d84ce3470066a93a26398bce", "rental_uris": {"android": "https://dc.lft.to/lastmile_qr_scan", "ios": "https://dc.lft.to/lastmile_qr_scan"}, "name": "a68a0a26d84ce3470066a93a26398bce", "is_reserved": 0}, {"is_disabled": 0, "fusion_lon": 0.0, "fusion_lat": 0.0, "lat": 38.929662666666665, "type": "electric_scooter", "lon": -77.02340866666667, "bike_id": "8d0f2f6621c8631d80bce8cc41cfd66c", "rental_uris": {"android": "https://dc.lft.to/lastmile_qr_scan", "ios": "https://dc.lft.to/lastmile_qr_scan"}, "name": "8d0f2f6621c8631d80bce8cc41cfd66c", "is_reserved": 0}, {"is_disabled": 0, "fusion_lon": 0.0, "fusion_lat": 0.0, "lat": 38.92672483333333, "type": "electric_scooter", "lon": -77.043047, "bike_id": "f1a54fc1d6e3b52418f3618ddedc84d2", "rental_uris": {"android": "https://dc.lft.to/lastmile_qr_scan", "ios": "https://dc.lft.to/lastmile_qr_scan"}, "name": "f1a54fc1d6e3b52418f3618ddedc84d2", "is_reserved": 0}, {"is_disabled": 0, "fusion_lon": 0.0, "fusion_lat": 0.0, "lat": 38.934824, "type": "electric_scooter", "lon": -77.07263366666666, "bike_id": "a617eb4dfde59429eee8738896964951", "rental_uris": {"android": "https://dc.lft.to/lastmile_qr_scan", "ios": "https://dc.lft.to/lastmile_qr_scan"}, "name": "a617eb4dfde59429eee8738896964951", "is_reserved": 0}, {"is_disabled": 0, "fusion_lon": 0.0, "fusion_lat": 0.0, "lat": 38.90077766666667, "type": "electric_scooter", "lon": -77.05016816666667, "bike_id": "9525985367d829d564ef97566bbdf09c", "rental_uris": {"android": "https://dc.lft.to/lastmile_qr_scan", "ios": "https://dc.lft.to/lastmile_qr_scan"}, "name": "9525985367d829d564ef97566bbdf09c", "is_reserved": 0}, {"is_disabled": 0, "fusion_lon": 0.0, "fusion_lat": 0.0, "lat": 38.862469, "type": "electric_scooter", "lon": -76.99500966666666, "bike_id": "473c93a17585cdd5094c0e9794864bdd", "rental_uris": {"android": "https://dc.lft.to/lastmile_qr_scan", "ios": "https://dc.lft.to/lastmile_qr_scan"}, "name": "473c93a17585cdd5094c0e9794864bdd", "is_reserved": 0}, {"is_disabled": 0, "fusion_lon": 0.0, "fusion_lat": 0.0, "lat": 38.938894833333336, "type": "electric_scooter", "lon": -77.077665, "bike_id": "9d4fe132f46098f2ad914d2905dea2c7", "rental_uris": {"android": "https://dc.lft.to/lastmile_qr_scan", "ios": "https://dc.lft.to/lastmile_qr_scan"}, "name": "9d4fe132f46098f2ad914d2905dea2c7", "is_reserved": 0}, {"is_disabled": 0, "fusion_lon": 0.0, "fusion_lat": 0.0, "lat": 38.91131433333334, "type": "electric_scooter", "lon": -77.0441715, "bike_id": "8d04187e543535346e498fe31afa9ac5", "rental_uris": {"android": "https://dc.lft.to/lastmile_qr_scan", "ios": "https://dc.lft.to/lastmile_qr_scan"}, "name": "8d04187e543535346e498fe31afa9ac5", "is_reserved": 0}, {"is_disabled": 0, "fusion_lon": 0.0, "fusion_lat": 0.0, "lat": 38.915426333333336, "type": "electric_scooter", "lon": -77.02638633333333, "bike_id": "c1ecd9f1a1186114cae6c4fb0ec66ad8", "rental_uris": {"android": "https://dc.lft.to/lastmile_qr_scan", "ios": "https://dc.lft.to/lastmile_qr_scan"}, "name": "c1ecd9f1a1186114cae6c4fb0ec66ad8", "is_reserved": 0}, {"is_disabled": 0, "fusion_lon": 0.0, "fusion_lat": 0.0, "lat": 38.9185495, "type": "electric_bike", "lon": -76.96086066666666, "bike_id": "94c9429118d9cfd36a607efa2c5a606a", "rental_uris": {"android": "https://dc.lft.to/lastmile_qr_scan", "ios": "https://dc.lft.to/lastmile_qr_scan"}, "name": "94c9429118d9cfd36a607efa2c5a606a", "is_reserved": 0}, {"is_disabled": 0, "fusion_lon": 0.0, "fusion_lat": 0.0, "lat": 38.8410125, "type": "electric_bike", "lon": -77.08946616666667, "bike_id": "ff81b8dfe4b7d54c4fb56671d1b2713d", "rental_uris": {"android": "https://dc.lft.to/lastmile_qr_scan", "ios": "https://dc.lft.to/lastmile_qr_scan"}, "name": "ff81b8dfe4b7d54c4fb56671d1b2713d", "is_reserved": 0}, {"is_disabled": 0, "fusion_lon": 0.0, "fusion_lat": 0.0, "lat": 38.884354333333334, "type": "electric_scooter", "lon": -77.02476533333333, "bike_id": "5e67248ea20d3a8d6fa8250e18aadd99", "rental_uris": {"android": "https://dc.lft.to/lastmile_qr_scan", "ios": "https://dc.lft.to/lastmile_qr_scan"}, "name": "5e67248ea20d3a8d6fa8250e18aadd99", "is_reserved": 0}, {"is_disabled": 0, "fusion_lon": 0.0, "fusion_lat": 0.0, "lat": 38.911724, "type": "electric_scooter", "lon": -77.01080116666667, "bike_id": "7a27295a3c499f65b16fa0d36cba44ab", "rental_uris": {"android": "https://dc.lft.to/lastmile_qr_scan", "ios": "https://dc.lft.to/lastmile_qr_scan"}, "name": "7a27295a3c499f65b16fa0d36cba44ab", "is_reserved": 0}, {"is_disabled": 0, "fusion_lon": 0.0, "fusion_lat": 0.0, "lat": 38.9077085, "type": "electric_scooter", "lon": -77.00110333333333, "bike_id": "90c566fdf16da5977fc2ff9136087eaf", "rental_uris": {"android": "https://dc.lft.to/lastmile_qr_scan", "ios": "https://dc.lft.to/lastmile_qr_scan"}, "name": "90c566fdf16da5977fc2ff9136087eaf", "is_reserved": 0}, {"is_disabled": 0, "fusion_lon": 0.0, "fusion_lat": 0.0, "lat": 38.898864, "type": "electric_scooter", "lon": -77.0091505, "bike_id": "90eebe55e64d60ac651232e85255cdef", "rental_uris": {"android": "https://dc.lft.to/lastmile_qr_scan", "ios": "https://dc.lft.to/lastmile_qr_scan"}, "name": "90eebe55e64d60ac651232e85255cdef", "is_reserved": 0}, {"is_disabled": 0, "fusion_lon": 0.0, "fusion_lat": 0.0, "lat": 38.884472333333335, "type": "electric_scooter", "lon": -76.950971, "bike_id": "a2de61baeb9265ce1642348fef6ca54f", "rental_uris": {"android": "https://dc.lft.to/lastmile_qr_scan", "ios": "https://dc.lft.to/lastmile_qr_scan"}, "name": "a2de61baeb9265ce1642348fef6ca54f", "is_reserved": 0}, {"is_disabled": 0, "fusion_lon": 0.0, "fusion_lat": 0.0, "lat": 38.920927666666664, "type": "electric_scooter", "lon": -77.02590133333334, "bike_id": "4cec9c4a5074b544aebeee63d63dc0b2", "rental_uris": {"android": "https://dc.lft.to/lastmile_qr_scan", "ios": "https://dc.lft.to/lastmile_qr_scan"}, "name": "4cec9c4a5074b544aebeee63d63dc0b2", "is_reserved": 0}, {"is_disabled": 0, "fusion_lon": 0.0, "fusion_lat": 0.0, "lat": 38.90945966666666, "type": "electric_scooter", "lon": -77.02697633333334, "bike_id": "7e5f84b9af9c0fecc4f9dcbbefaa640b", "rental_uris": {"android": "https://dc.lft.to/lastmile_qr_scan", "ios": "https://dc.lft.to/lastmile_qr_scan"}, "name": "7e5f84b9af9c0fecc4f9dcbbefaa640b", "is_reserved": 0}, {"is_disabled": 0, "fusion_lon": 0.0, "fusion_lat": 0.0, "lat": 38.9341125, "type": "electric_scooter", "lon": -77.04266733333333, "bike_id": "bfda86dc8ca1a787a5441da596a97016", "rental_uris": {"android": "https://dc.lft.to/lastmile_qr_scan", "ios": "https://dc.lft.to/lastmile_qr_scan"}, "name": "bfda86dc8ca1a787a5441da596a97016", "is_reserved": 0}, {"is_disabled": 0, "fusion_lon": 0.0, "fusion_lat": 0.0, "lat": 38.915578333333336, "type": "electric_scooter", "lon": -77.03078283333333, "bike_id": "06d6f5ed5601dd4cc6f00912df67cfe7", "rental_uris": {"android": "https://dc.lft.to/lastmile_qr_scan", "ios": "https://dc.lft.to/lastmile_qr_scan"}, "name": "06d6f5ed5601dd4cc6f00912df67cfe7", "is_reserved": 0}, {"is_disabled": 0, "fusion_lon": 0.0, "fusion_lat": 0.0, "lat": 38.89786616666667, "type": "electric_scooter", "lon": -77.0475755, "bike_id": "4769c9466146485cdae3ecbf7375983f", "rental_uris": {"android": "https://dc.lft.to/lastmile_qr_scan", "ios": "https://dc.lft.to/lastmile_qr_scan"}, "name": "4769c9466146485cdae3ecbf7375983f", "is_reserved": 0}, {"is_disabled": 0, "fusion_lon": 0.0, "fusion_lat": 0.0, "lat": 38.903154666666666, "type": "electric_scooter", "lon": -77.02138316666667, "bike_id": "1d875efc011bebce4523676c804a450a", "rental_uris": {"android": "https://dc.lft.to/lastmile_qr_scan", "ios": "https://dc.lft.to/lastmile_qr_scan"}, "name": "1d875efc011bebce4523676c804a450a", "is_reserved": 0}, {"is_disabled": 0, "fusion_lon": 0.0, "fusion_lat": 0.0, "lat": 38.8443205, "type": "electric_scooter", "lon": -76.99813133333333, "bike_id": "6c680444c73287beecb6f4b99bf9b452", "rental_uris": {"android": "https://dc.lft.to/lastmile_qr_scan", "ios": "https://dc.lft.to/lastmile_qr_scan"}, "name": "6c680444c73287beecb6f4b99bf9b452", "is_reserved": 0}, {"is_disabled": 0, "fusion_lon": 0.0, "fusion_lat": 0.0, "lat": 38.886277, "type": "electric_scooter", "lon": -76.99850733333334, "bike_id": "f5a0253b3c388e9f3598b960e70dbe46", "rental_uris": {"android": "https://dc.lft.to/lastmile_qr_scan", "ios": "https://dc.lft.to/lastmile_qr_scan"}, "name": "f5a0253b3c388e9f3598b960e70dbe46", "is_reserved": 0}, {"is_disabled": 0, "fusion_lon": 0.0, "fusion_lat": 0.0, "lat": 39.09944983333333, "type": "electric_bike", "lon": -77.187909, "bike_id": "bf435d648d13641990358356f4354137", "rental_uris": {"android": "https://dc.lft.to/lastmile_qr_scan", "ios": "https://dc.lft.to/lastmile_qr_scan"}, "name": "bf435d648d13641990358356f4354137", "is_reserved": 0}, {"is_disabled": 0, "fusion_lon": 0.0, "fusion_lat": 0.0, "lat": 38.90567216666667, "type": "electric_scooter", "lon": -77.04874816666667, "bike_id": "284d2a4ee7b9138edecac6fa4c9aaca8", "rental_uris": {"android": "https://dc.lft.to/lastmile_qr_scan", "ios": "https://dc.lft.to/lastmile_qr_scan"}, "name": "284d2a4ee7b9138edecac6fa4c9aaca8", "is_reserved": 0}, {"is_disabled": 0, "fusion_lon": 0.0, "fusion_lat": 0.0, "lat": 38.84292466666667, "type": "electric_scooter", "lon": -76.9994535, "bike_id": "7552d927d947c7a844991a5a83d6df44", "rental_uris": {"android": "https://dc.lft.to/lastmile_qr_scan", "ios": "https://dc.lft.to/lastmile_qr_scan"}, "name": "7552d927d947c7a844991a5a83d6df44", "is_reserved": 0}, {"is_disabled": 0, "fusion_lon": 0.0, "fusion_lat": 0.0, "lat": 38.928048833333335, "type": "electric_scooter", "lon": -77.05428483333333, "bike_id": "810e4c9fec4df6eec8a1421b23a60c44", "rental_uris": {"android": "https://dc.lft.to/lastmile_qr_scan", "ios": "https://dc.lft.to/lastmile_qr_scan"}, "name": "810e4c9fec4df6eec8a1421b23a60c44", "is_reserved": 0}, {"is_disabled": 0, "fusion_lon": 0.0, "fusion_lat": 0.0, "lat": 38.907962833333336, "type": "electric_scooter", "lon": -77.04980633333334, "bike_id": "a517aaf5502b5064d9ee4498604348c0", "rental_uris": {"android": "https://dc.lft.to/lastmile_qr_scan", "ios": "https://dc.lft.to/lastmile_qr_scan"}, "name": "a517aaf5502b5064d9ee4498604348c0", "is_reserved": 0}, {"is_disabled": 0, "fusion_lon": 0.0, "fusion_lat": 0.0, "lat": 38.93501533333333, "type": "electric_bike", "lon": -76.94953983333333, "bike_id": "5a899a2c237a4c41442cfdea08056e3d", "rental_uris": {"android": "https://dc.lft.to/lastmile_qr_scan", "ios": "https://dc.lft.to/lastmile_qr_scan"}, "name": "5a899a2c237a4c41442cfdea08056e3d", "is_reserved": 0}, {"is_disabled": 0, "fusion_lon": 0.0, "fusion_lat": 0.0, "lat": 38.908571333333335, "type": "electric_scooter", "lon": -77.0017745, "bike_id": "fe63bd0763c8d7ac1509e8d13754b08c", "rental_uris": {"android": "https://dc.lft.to/lastmile_qr_scan", "ios": "https://dc.lft.to/lastmile_qr_scan"}, "name": "fe63bd0763c8d7ac1509e8d13754b08c", "is_reserved": 0}, {"is_disabled": 0, "fusion_lon": 0.0, "fusion_lat": 0.0, "lat": 38.933550333333336, "type": "electric_scooter", "lon": -77.07216966666667, "bike_id": "67dc0d61ce7ad8e5118b05a7d19edb0a", "rental_uris": {"android": "https://dc.lft.to/lastmile_qr_scan", "ios": "https://dc.lft.to/lastmile_qr_scan"}, "name": "67dc0d61ce7ad8e5118b05a7d19edb0a", "is_reserved": 0}, {"is_disabled": 0, "fusion_lon": 0.0, "fusion_lat": 0.0, "lat": 38.894637333333336, "type": "electric_scooter", "lon": -76.99488883333333, "bike_id": "50e53294118af3f3bf2ae7a33c847863", "rental_uris": {"android": "https://dc.lft.to/lastmile_qr_scan", "ios": "https://dc.lft.to/lastmile_qr_scan"}, "name": "50e53294118af3f3bf2ae7a33c847863", "is_reserved": 0}, {"is_disabled": 0, "fusion_lon": 0.0, "fusion_lat": 0.0, "lat": 38.966161166666666, "type": "electric_bike", "lon": -77.03436133333334, "bike_id": "8d06cc9cdccdebd8edf8b8043fca395f", "rental_uris": {"android": "https://dc.lft.to/lastmile_qr_scan", "ios": "https://dc.lft.to/lastmile_qr_scan"}, "name": "8d06cc9cdccdebd8edf8b8043fca395f", "is_reserved": 0}, {"is_disabled": 0, "fusion_lon": 0.0, "fusion_lat": 0.0, "lat": 38.83812066666667, "type": "electric_scooter", "lon": -77.00433133333334, "bike_id": "34dc7f5539ede0ef4cca0af9ac60a9ab", "rental_uris": {"android": "https://dc.lft.to/lastmile_qr_scan", "ios": "https://dc.lft.to/lastmile_qr_scan"}, "name": "34dc7f5539ede0ef4cca0af9ac60a9ab", "is_reserved": 0}, {"is_disabled": 0, "fusion_lon": 0.0, "fusion_lat": 0.0, "lat": 38.90309766666667, "type": "electric_scooter", "lon": -76.98244666666666, "bike_id": "19639b49e6a7fc32ab6fa43bb1879729", "rental_uris": {"android": "https://dc.lft.to/lastmile_qr_scan", "ios": "https://dc.lft.to/lastmile_qr_scan"}, "name": "19639b49e6a7fc32ab6fa43bb1879729", "is_reserved": 0}, {"is_disabled": 0, "fusion_lon": 0.0, "fusion_lat": 0.0, "lat": 38.89842466666666, "type": "electric_scooter", "lon": -76.94633966666666, "bike_id": "fec99c861cbf4a1081aa36342392b303", "rental_uris": {"android": "https://dc.lft.to/lastmile_qr_scan", "ios": "https://dc.lft.to/lastmile_qr_scan"}, "name": "fec99c861cbf4a1081aa36342392b303", "is_reserved": 0}, {"is_disabled": 0, "fusion_lon": 0.0, "fusion_lat": 0.0, "lat": 38.92602, "type": "electric_scooter", "lon": -77.02155483333334, "bike_id": "b91e73ebb84240c0be9ba07d80e02eea", "rental_uris": {"android": "https://dc.lft.to/lastmile_qr_scan", "ios": "https://dc.lft.to/lastmile_qr_scan"}, "name": "b91e73ebb84240c0be9ba07d80e02eea", "is_reserved": 0}, {"is_disabled": 0, "fusion_lon": 0.0, "fusion_lat": 0.0, "lat": 38.910289666666664, "type": "electric_scooter", "lon": -77.007595, "bike_id": "868b0ad67a391c0f86928c19967af2ee", "rental_uris": {"android": "https://dc.lft.to/lastmile_qr_scan", "ios": "https://dc.lft.to/lastmile_qr_scan"}, "name": "868b0ad67a391c0f86928c19967af2ee", "is_reserved": 0}, {"is_disabled": 0, "fusion_lon": 0.0, "fusion_lat": 0.0, "lat": 38.93178266666666, "type": "electric_scooter", "lon": -77.0725805, "bike_id": "94d1cffcbc617980c44d23a89f67ba90", "rental_uris": {"android": "https://dc.lft.to/lastmile_qr_scan", "ios": "https://dc.lft.to/lastmile_qr_scan"}, "name": "94d1cffcbc617980c44d23a89f67ba90", "is_reserved": 0}, {"is_disabled": 0, "fusion_lon": 0.0, "fusion_lat": 0.0, "lat": 38.918882333333336, "type": "electric_scooter", "lon": -77.02481433333334, "bike_id": "6cb446e1c4d0f0eecd0dfc1f143b4855", "rental_uris": {"android": "https://dc.lft.to/lastmile_qr_scan", "ios": "https://dc.lft.to/lastmile_qr_scan"}, "name": "6cb446e1c4d0f0eecd0dfc1f143b4855", "is_reserved": 0}, {"is_disabled": 0, "fusion_lon": 0.0, "fusion_lat": 0.0, "lat": 38.898939666666664, "type": "electric_scooter", "lon": -77.05296383333334, "bike_id": "5fee9a30c9f624aa74fb4f523e2fe4d4", "rental_uris": {"android": "https://dc.lft.to/lastmile_qr_scan", "ios": "https://dc.lft.to/lastmile_qr_scan"}, "name": "5fee9a30c9f624aa74fb4f523e2fe4d4", "is_reserved": 0}, {"is_disabled": 0, "fusion_lon": 0.0, "fusion_lat": 0.0, "lat": 38.900168, "type": "electric_scooter", "lon": -77.004726, "bike_id": "42a912c7c4f2d229d5d922115ceb28ba", "rental_uris": {"android": "https://dc.lft.to/lastmile_qr_scan", "ios": "https://dc.lft.to/lastmile_qr_scan"}, "name": "42a912c7c4f2d229d5d922115ceb28ba", "is_reserved": 0}, {"is_disabled": 0, "fusion_lon": 0.0, "fusion_lat": 0.0, "lat": 38.952035, "type": "electric_scooter", "lon": -77.02742866666667, "bike_id": "9b8e0869ca96013748a94ebbb83b9232", "rental_uris": {"android": "https://dc.lft.to/lastmile_qr_scan", "ios": "https://dc.lft.to/lastmile_qr_scan"}, "name": "9b8e0869ca96013748a94ebbb83b9232", "is_reserved": 0}, {"is_disabled": 0, "fusion_lon": 0.0, "fusion_lat": 0.0, "lat": 38.94270216666666, "type": "electric_scooter", "lon": -77.0325925, "bike_id": "81b4c587c2e3e6a558401be5a5dff497", "rental_uris": {"android": "https://dc.lft.to/lastmile_qr_scan", "ios": "https://dc.lft.to/lastmile_qr_scan"}, "name": "81b4c587c2e3e6a558401be5a5dff497", "is_reserved": 0}, {"is_disabled": 0, "fusion_lon": 0.0, "fusion_lat": 0.0, "lat": 39.02998083333333, "type": "electric_bike", "lon": -77.10649316666667, "bike_id": "8000c8e29a95320aae0cec61eafc9dff", "rental_uris": {"android": "https://dc.lft.to/lastmile_qr_scan", "ios": "https://dc.lft.to/lastmile_qr_scan"}, "name": "8000c8e29a95320aae0cec61eafc9dff", "is_reserved": 0}, {"is_disabled": 0, "fusion_lon": 0.0, "fusion_lat": 0.0, "lat": 38.84293866666667, "type": "electric_scooter", "lon": -76.99948016666667, "bike_id": "be3e3e21dec575d32622f3ae2d41f37d", "rental_uris": {"android": "https://dc.lft.to/lastmile_qr_scan", "ios": "https://dc.lft.to/lastmile_qr_scan"}, "name": "be3e3e21dec575d32622f3ae2d41f37d", "is_reserved": 0}, {"is_disabled": 0, "fusion_lon": 0.0, "fusion_lat": 0.0, "lat": 38.964481, "type": "electric_bike", "lon": -76.97719466666666, "bike_id": "afeb2642b3da0aa06e0192f475d4a2ff", "rental_uris": {"android": "https://dc.lft.to/lastmile_qr_scan", "ios": "https://dc.lft.to/lastmile_qr_scan"}, "name": "afeb2642b3da0aa06e0192f475d4a2ff", "is_reserved": 0}, {"is_disabled": 0, "fusion_lon": 0.0, "fusion_lat": 0.0, "lat": 38.920119666666665, "type": "electric_scooter", "lon": -77.03120166666666, "bike_id": "7ed32f801db4821f45985ebdbf7fb899", "rental_uris": {"android": "https://dc.lft.to/lastmile_qr_scan", "ios": "https://dc.lft.to/lastmile_qr_scan"}, "name": "7ed32f801db4821f45985ebdbf7fb899", "is_reserved": 0}, {"is_disabled": 0, "fusion_lon": 0.0, "fusion_lat": 0.0, "lat": 38.887367166666664, "type": "electric_scooter", "lon": -77.015976, "bike_id": "95dac4022883eafc282693c02ad0caeb", "rental_uris": {"android": "https://dc.lft.to/lastmile_qr_scan", "ios": "https://dc.lft.to/lastmile_qr_scan"}, "name": "95dac4022883eafc282693c02ad0caeb", "is_reserved": 0}, {"is_disabled": 0, "fusion_lon": 0.0, "fusion_lat": 0.0, "lat": 38.94043383333333, "type": "electric_scooter", "lon": -77.0251285, "bike_id": "3a29813b37d9789062dbf8d8ce280658", "rental_uris": {"android": "https://dc.lft.to/lastmile_qr_scan", "ios": "https://dc.lft.to/lastmile_qr_scan"}, "name": "3a29813b37d9789062dbf8d8ce280658", "is_reserved": 0}, {"is_disabled": 0, "fusion_lon": 0.0, "fusion_lat": 0.0, "lat": 38.90675233333333, "type": "electric_scooter", "lon": -77.03807166666667, "bike_id": "da8a4746329a67b98c572ee3084efa3b", "rental_uris": {"android": "https://dc.lft.to/lastmile_qr_scan", "ios": "https://dc.lft.to/lastmile_qr_scan"}, "name": "da8a4746329a67b98c572ee3084efa3b", "is_reserved": 0}, {"is_disabled": 0, "fusion_lon": 0.0, "fusion_lat": 0.0, "lat": 38.8508925, "type": "electric_bike", "lon": -76.9569875, "bike_id": "dde51eed41f9e62f6507d28751274736", "rental_uris": {"android": "https://dc.lft.to/lastmile_qr_scan", "ios": "https://dc.lft.to/lastmile_qr_scan"}, "name": "dde51eed41f9e62f6507d28751274736", "is_reserved": 0}, {"is_disabled": 0, "fusion_lon": 0.0, "fusion_lat": 0.0, "lat": 38.8991375, "type": "electric_scooter", "lon": -76.93391616666666, "bike_id": "1ccdb46ea91bdfece53dc0cb041f018f", "rental_uris": {"android": "https://dc.lft.to/lastmile_qr_scan", "ios": "https://dc.lft.to/lastmile_qr_scan"}, "name": "1ccdb46ea91bdfece53dc0cb041f018f", "is_reserved": 0}, {"is_disabled": 0, "fusion_lon": 0.0, "fusion_lat": 0.0, "lat": 38.906158, "type": "electric_scooter", "lon": -77.03208066666667, "bike_id": "bb700d5080ee44981f9af5fbf140a44e", "rental_uris": {"android": "https://dc.lft.to/lastmile_qr_scan", "ios": "https://dc.lft.to/lastmile_qr_scan"}, "name": "bb700d5080ee44981f9af5fbf140a44e", "is_reserved": 0}, {"is_disabled": 0, "fusion_lon": 0.0, "fusion_lat": 0.0, "lat": 38.8954225, "type": "electric_scooter", "lon": -77.00897883333333, "bike_id": "25d484e62e4008691c93de2f7e57ae4c", "rental_uris": {"android": "https://dc.lft.to/lastmile_qr_scan", "ios": "https://dc.lft.to/lastmile_qr_scan"}, "name": "25d484e62e4008691c93de2f7e57ae4c", "is_reserved": 0}, {"is_disabled": 0, "fusion_lon": 0.0, "fusion_lat": 0.0, "lat": 38.90558583333333, "type": "electric_scooter", "lon": -77.06605266666666, "bike_id": "fda0ffd92ad13a378c195be97ca87f09", "rental_uris": {"android": "https://dc.lft.to/lastmile_qr_scan", "ios": "https://dc.lft.to/lastmile_qr_scan"}, "name": "fda0ffd92ad13a378c195be97ca87f09", "is_reserved": 0}, {"is_disabled": 0, "fusion_lon": 0.0, "fusion_lat": 0.0, "lat": 38.91329916666667, "type": "electric_scooter", "lon": -77.04168766666666, "bike_id": "ac2a02ba6e23ed7b82ae99af4f5dbf7a", "rental_uris": {"android": "https://dc.lft.to/lastmile_qr_scan", "ios": "https://dc.lft.to/lastmile_qr_scan"}, "name": "ac2a02ba6e23ed7b82ae99af4f5dbf7a", "is_reserved": 0}, {"is_disabled": 0, "fusion_lon": 0.0, "fusion_lat": 0.0, "lat": 38.949206, "type": "electric_scooter", "lon": -77.01854233333333, "bike_id": "e7cab794d1a461859e3ec1d129f5ce99", "rental_uris": {"android": "https://dc.lft.to/lastmile_qr_scan", "ios": "https://dc.lft.to/lastmile_qr_scan"}, "name": "e7cab794d1a461859e3ec1d129f5ce99", "is_reserved": 0}, {"is_disabled": 0, "fusion_lon": 0.0, "fusion_lat": 0.0, "lat": 38.92503816666667, "type": "electric_scooter", "lon": -76.9822885, "bike_id": "5abf6e82fe45958b8d953cd5a4bbdc08", "rental_uris": {"android": "https://dc.lft.to/lastmile_qr_scan", "ios": "https://dc.lft.to/lastmile_qr_scan"}, "name": "5abf6e82fe45958b8d953cd5a4bbdc08", "is_reserved": 0}, {"is_disabled": 0, "fusion_lon": 0.0, "fusion_lat": 0.0, "lat": 38.9130705, "type": "electric_scooter", "lon": -77.03195, "bike_id": "57e4c00340e41b81e7b06ae5a9fb878f", "rental_uris": {"android": "https://dc.lft.to/lastmile_qr_scan", "ios": "https://dc.lft.to/lastmile_qr_scan"}, "name": "57e4c00340e41b81e7b06ae5a9fb878f", "is_reserved": 0}, {"is_disabled": 0, "fusion_lon": 0.0, "fusion_lat": 0.0, "lat": 38.9123855, "type": "electric_scooter", "lon": -76.9844635, "bike_id": "6f6f807fbdfabc788c5f920959ea86ce", "rental_uris": {"android": "https://dc.lft.to/lastmile_qr_scan", "ios": "https://dc.lft.to/lastmile_qr_scan"}, "name": "6f6f807fbdfabc788c5f920959ea86ce", "is_reserved": 0}, {"is_disabled": 0, "fusion_lon": 0.0, "fusion_lat": 0.0, "lat": 38.9217035, "type": "electric_scooter", "lon": -77.05526933333333, "bike_id": "a57917b17d3e387d1ea6f620e09bbcb2", "rental_uris": {"android": "https://dc.lft.to/lastmile_qr_scan", "ios": "https://dc.lft.to/lastmile_qr_scan"}, "name": "a57917b17d3e387d1ea6f620e09bbcb2", "is_reserved": 0}, {"is_disabled": 0, "fusion_lon": 0.0, "fusion_lat": 0.0, "lat": 38.901545, "type": "electric_scooter", "lon": -77.05909316666667, "bike_id": "9589262cb617771978488d1c1a9fa918", "rental_uris": {"android": "https://dc.lft.to/lastmile_qr_scan", "ios": "https://dc.lft.to/lastmile_qr_scan"}, "name": "9589262cb617771978488d1c1a9fa918", "is_reserved": 0}, {"is_disabled": 0, "fusion_lon": 0.0, "fusion_lat": 0.0, "lat": 38.89350566666667, "type": "electric_scooter", "lon": -76.94945816666667, "bike_id": "bbf691d9257ba436bc8fce2c1d7d068c", "rental_uris": {"android": "https://dc.lft.to/lastmile_qr_scan", "ios": "https://dc.lft.to/lastmile_qr_scan"}, "name": "bbf691d9257ba436bc8fce2c1d7d068c", "is_reserved": 0},