{"data": {"bikes": [{"type": "electric_scooter", "name": "2124740fc63fd43e10daa178a75e9fb2", "lat": 38.9012495, "fusion_lat": 0.0, "bike_id": "2124740fc63fd43e10daa178a75e9fb2", "is_reserved": 0, "lon": -77.03823166666666, "is_disabled": 0, "fusion_lon": 0.0, "rental_uris": {"android": "https://dc.lft.to/lastmile_qr_scan", "ios": "https://dc.lft.to/lastmile_qr_scan"}}, {"type": "electric_scooter", "name": "a73717d8bdc7f138d096a757c9e9fd73", "lat": 38.9164905, "fusion_lat": 0.0, "bike_id": "a73717d8bdc7f138d096a757c9e9fd73", "is_reserved": 0, "lon": -77.04157616666667, "is_disabled": 0, "fusion_lon": 0.0, "rental_uris": {"android": "https://dc.lft.to/lastmile_qr_scan", "ios": "https://dc.lft.to/lastmile_qr_scan"}}, {"type": "electric_scooter", "name": "065b8e78bcfb84041fecdbb6584756a5", "lat": 38.8970495, "fusion_lat": 0.0, "bike_id": "065b8e78bcfb84041fecdbb6584756a5", "is_reserved": 0, "lon": -77.01612183333333, "is_disabled": 0, "fusion_lon": 0.0, "rental_uris": {"android": "https://dc.lft.to/lastmile_qr_scan", "ios": "https://dc.lft.to/lastmile_qr_scan"}}, {"type": "electric_scooter", "name": "29ac53ab6dac1ad2cd5c9b60bd1e2324", "lat": 38.911120333333336, "fusion_lat": 0.0, "bike_id": "29ac53ab6dac1ad2cd5c9b60bd1e2324", "is_reserved": 0, "lon": -77.038256, "is_disabled": 0, "fusion_lon": 0.0, "rental_uris": {"android": "https://dc.lft.to/lastmile_qr_scan", "ios": "https://dc.lft.to/lastmile_qr_scan"}}, {"type": "electric_scooter", "name": "ed418eb039814d75bb19ecf717b1160d", "lat": 38.907835, "fusion_lat": 0.0, "bike_id": "ed418eb039814d75bb19ecf717b1160d", "is_reserved": 0, "lon": -77.00598533333333, "is_disabled": 0, "fusion_lon": 0.0, "rental_uris": {"android": "https://dc.lft.to/lastmile_qr_scan", "ios": "https://dc.lft.to/lastmile_qr_scan"}}, {"type": "electric_scooter", "name": "3364b7575be8a84f3bf451b3ebe1d655", "lat": 38.91142333333333, "fusion_lat": 0.0, "bike_id": "3364b7575be8a84f3bf451b3ebe1d655", "is_reserved": 0, "lon": -77.0219675, "is_disabled": 0, "fusion_lon": 0.0, "rental_uris": {"android": "https://dc.lft.to/lastmile_qr_scan", "ios": "https://dc.lft.to/lastmile_qr_scan"}}, {"type": "electric_scooter", "name": "d94589d53920fe869a3bc5d8e002abf2", "lat": 38.8933245, "fusion_lat": 0.0, "bike_id": "d94589d53920fe869a3bc5d8e002abf2", "is_reserved": 0, "lon": -76.939289, "is_disabled": 0, "fusion_lon": 0.0, "rental_uris": {"android": "https://dc.lft.to/lastmile_qr_scan", "ios": "https://dc.lft.to/lastmile_qr_scan"}}, {"type": "electric_scooter", "name": "89383a1a316398cc7cf47bb2d01c2681", "lat": 38.90348083333333, "fusion_lat": 0.0, "bike_id": "89383a1a316398cc7cf47bb2d01c2681", "is_reserved": 0, "lon": -77.0254985, "is_disabled": 0, "fusion_lon": 0.0, "rental_uris": {"android": "https://dc.lft.to/lastmile_qr_scan", "ios": "https://dc.lft.to/lastmile_qr_scan"}}, {"type": "electric_scooter", "name": "8ef027f1e77e7d7a386d6ac39f6a85d0", "lat": 38.91690116666667, "fusion_lat": 0.0, "bike_id": "8ef027f1e77e7d7a386d6ac39f6a85d0", "is_reserved": 0, "lon": -77.04659416666667, "is_disabled": 0, "fusion_lon": 0.0, "rental_uris": {"android": "https://dc.lft.to/lastmile_qr_scan", "ios": "https://dc.lft.to/lastmile_qr_scan"}}, {"type": "electric_bike", "name": "0800a251d39dfc80e584a8644f4957db", "lat": 38.95333016666667, "fusion_lat": 0.0, "bike_id": "0800a251d39dfc80e584a8644f4957db", "is_reserved": 0, "lon": -76.98256166666667, "is_disabled": 0, "fusion_lon": 0.0, "rental_uris": {"android": "https://dc.lft.to/lastmile_qr_scan", "ios": "https://dc.lft.to/lastmile_qr_scan"}}, {"type": "electric_scooter", "name": "5002be25a7dad7d31476b4409ef0735b", "lat": 38.9142415, "fusion_lat": 0.0, "bike_id": "5002be25a7dad7d31476b4409ef0735b", "is_reserved": 0, "lon": -77.03170166666666, "is_disabled": 0, "fusion_lon": 0.0, "rental_uris": {"android": "https://dc.lft.to/lastmile_qr_scan", "ios": "https://dc.lft.to/lastmile_qr_scan"}}, {"type": "electric_scooter", "name": "983c49482197af6a5bcd1456913e24b1", "lat": 38.90131916666667, "fusion_lat": 0.0, "bike_id": "983c49482197af6a5bcd1456913e24b1", "is_reserved": 0, "lon": -77.03884716666667, "is_disabled": 0, "fusion_lon": 0.0, "rental_uris": {"android": "https://dc.lft.to/lastmile_qr_scan", "ios": "https://dc.lft.to/lastmile_qr_scan"}}, {"type": "electric_scooter", "name": "eae7fbd51981632945ed18bd53bf0b3f", "lat": 38.91491416666667, "fusion_lat": 0.0, "bike_id": "eae7fbd51981632945ed18bd53bf0b3f", "is_reserved": 0, "lon": -77.01859816666666, "is_disabled": 0, "fusion_lon": 0.0, "rental_uris": {"android": "https://dc.lft.to/lastmile_qr_scan", "ios": "https://dc.lft.to/lastmile_qr_scan"}}, {"type": "electric_scooter", "name": "bbcd10f48abe223b646216de14cc7b56", "lat": 38.892302, "fusion_lat": 0.0, "bike_id": "bbcd10f48abe223b646216de14cc7b56", "is_reserved": 0, "lon": -77.04373766666667, "is_disabled": 0, "fusion_lon": 0.0, "rental_uris": {"android": "https://dc.lft.to/lastmile_qr_scan", "ios": "https://dc.lft.to/lastmile_qr_scan"}}, {"type": "electric_scooter", "name": "11f6fa2aa78628064d1b02b0fbc13529", "lat": 38.925220833333334, "fusion_lat": 0.0, "bike_id": "11f6fa2aa78628064d1b02b0fbc13529", "is_reserved": 0, "lon": -77.05124266666667, "is_disabled": 0, "fusion_lon": 0.0, "rental_uris": {"android": "https://dc.lft.to/lastmile_qr_scan", "ios": "https://dc.lft.to/lastmile_qr_scan"}}, {"type": "electric_scooter", "name": "788a9e09cc6f0c463e7da53f838c094a", "lat": 38.9111705, "fusion_lat": 0.0, "bike_id": "788a9e09cc6f0c463e7da53f838c094a", "is_reserved": 0, "lon": -77.0382995, "is_disabled": 0, "fusion_lon": 0.0, "rental_uris": {"android": "https://dc.lft.to/lastmile_qr_scan", "ios": "https://dc.lft.to/lastmile_qr_scan"}}, {"type": "electric_scooter", "name": "92fe27f7dd69ee0f8dd142c0d8e7cf5d", "lat": 38.92318916666667, "fusion_lat": 0.0, "bike_id": "92fe27f7dd69ee0f8dd142c0d8e7cf5d", "is_reserved": 0, "lon": -77.021274, "is_disabled": 0, "fusion_lon": 0.0, "rental_uris": {"android": "https://dc.lft.to/lastmile_qr_scan", "ios": "https://dc.lft.to/lastmile_qr_scan"}}, {"type": "electric_scooter", "name": "4181fb9fe01a31f39dbad86c2a2fccf3", "lat": 38.898344, "fusion_lat": 0.0, "bike_id": "4181fb9fe01a31f39dbad86c2a2fccf3", "is_reserved": 0, "lon": -77.04695316666667, "is_disabled": 0, "fusion_lon": 0.0, "rental_uris": {"android": "https://dc.lft.to/lastmile_qr_scan", "ios": "https://dc.lft.to/lastmile_qr_scan"}}, {"type": "electric_scooter", "name": "776dd94a8237de93a52475a5fae6294d", "lat": 38.89870583333333, "fusion_lat": 0.0, "bike_id": "776dd94a8237de93a52475a5fae6294d", "is_reserved": 0, "lon": -76.946343, "is_disabled": 0, "fusion_lon": 0.0, "rental_uris": {"android": "https://dc.lft.to/lastmile_qr_scan", "ios": "https://dc.lft.to/lastmile_qr_scan"}}, {"type": "electric_scooter", "name": "4c43b8620195adf54b688217a00c89a6", "lat": 38.896133666666664, "fusion_lat": 0.0, "bike_id": "4c43b8620195adf54b688217a00c89a6", "is_reserved": 0, "lon": -77.02689666666667, "is_disabled": 0, "fusion_lon": 0.0, "rental_uris": {"android": "https://dc.lft.to/lastmile_qr_scan", "ios": "https://dc.lft.to/lastmile_qr_scan"}}, {"type": "electric_scooter", "name": "debabe44245b35907388e54c9d2165f0", "lat": 38.9034385, "fusion_lat": 0.0, "bike_id": "debabe44245b35907388e54c9d2165f0", "is_reserved": 0, "lon": -77.02012633333334, "is_disabled": 0, "fusion_lon": 0.0, "rental_uris": {"android": "https://dc.lft.to/lastmile_qr_scan", "ios": "https://dc.lft.to/lastmile_qr_scan"}}, {"type": "electric_scooter", "name": "dd5fa633ec65966870e1984a34ee95d8", "lat": 38.926052, "fusion_lat": 0.0, "bike_id": "dd5fa633ec65966870e1984a34ee95d8", "is_reserved": 0, "lon": -77.0258595, "is_disabled": 0, "fusion_lon": 0.0, "rental_uris": {"android": "https://dc.lft.to/lastmile_qr_scan", "ios": "https://dc.lft.to/lastmile_qr_scan"}}, {"type": "electric_scooter", "name": "2ddb91c835edb411be3bd9d45470130e", "lat": 38.858101166666664, "fusion_lat": 0.0, "bike_id": "2ddb91c835edb411be3bd9d45470130e", "is_reserved": 0, "lon": -76.98652766666666, "is_disabled": 0, "fusion_lon": 0.0, "rental_uris": {"android": "https://dc.lft.to/lastmile_qr_scan", "ios": "https://dc.lft.to/lastmile_qr_scan"}}, {"type": "electric_scooter", "name": "9635bbd05faa6dfcb20f1fee4b126b85", "lat": 38.9023685, "fusion_lat": 0.0, "bike_id": "9635bbd05faa6dfcb20f1fee4b126b85", "is_reserved": 0, "lon": -77.002002, "is_disabled": 0, "fusion_lon": 0.0, "rental_uris": {"android": "https://dc.lft.to/lastmile_qr_scan", "ios": "https://dc.lft.to/lastmile_qr_scan"}}, {"type": "electric_scooter", "name": "f8aad7627bd9d3dc2821b2b100eabfda", "lat": 38.908378166666665, "fusion_lat": 0.0, "bike_id": "f8aad7627bd9d3dc2821b2b100eabfda", "is_reserved": 0, "lon": -77.03557166666667, "is_disabled": 0, "fusion_lon": 0.0, "rental_uris": {"android": "https://dc.lft.to/lastmile_qr_scan", "ios": "https://dc.lft.to/lastmile_qr_scan"}}, {"type": "electric_scooter", "name": "4552ced376020cbbbb093e879f3055ce", "lat": 38.8874925, "fusion_lat": 0.0, "bike_id": "4552ced376020cbbbb093e879f3055ce", "is_reserved": 0, "lon": -77.02229316666667, "is_disabled": 0, "fusion_lon": 0.0, "rental_uris": {"android": "https://dc.lft.to/lastmile_qr_scan", "ios": "https://dc.lft.to/lastmile_qr_scan"}}, {"type": "electric_scooter", "name": "3205610db0d51f1798523faaaeebc8d3", "lat": 38.90735316666667, "fusion_lat": 0.0, "bike_id": "3205610db0d51f1798523faaaeebc8d3", "is_reserved": 0, "lon": -77.04271216666666, "is_disabled": 0, "fusion_lon": 0.0, "rental_uris": {"android": "https://dc.lft.to/lastmile_qr_scan", "ios": "https://dc.lft.to/lastmile_qr_scan"}}, {"type": "electric_scooter", "name": "cee85ebb77a75f0c4b06488fc9586115", "lat": 38.881190333333336, "fusion_lat": 0.0, "bike_id": "cee85ebb77a75f0c4b06488fc9586115", "is_reserved": 0, "lon": -77.01640566666667, "is_disabled": 0, "fusion_lon": 0.0, "rental_uris": {"android": "https://dc.lft.to/lastmile_qr_scan", "ios": "https://dc.lft.to/lastmile_qr_scan"}}, {"type": "electric_scooter", "name": "d0a8b1a7906870c6a0eb0af63d9ba1fb", "lat": 38.92153966666667, "fusion_lat": 0.0, "bike_id": "d0a8b1a7906870c6a0eb0af63d9ba1fb", "is_reserved": 0, "lon": -77.03504616666666, "is_disabled": 0, "fusion_lon": 0.0, "rental_uris": {"android": "https://dc.lft.to/lastmile_qr_scan", "ios": "https://dc.lft.to/lastmile_qr_scan"}}, {"type": "electric_scooter", "name": "bcaf4dc7667e637791e03214864de043", "lat": 38.922286166666666, "fusion_lat": 0.0, "bike_id": "bcaf4dc7667e637791e03214864de043", "is_reserved": 0, "lon": -77.02116033333333, "is_disabled": 0, "fusion_lon": 0.0, "rental_uris": {"android": "https://dc.lft.to/lastmile_qr_scan", "ios": "https://dc.lft.to/lastmile_qr_scan"}}, {"type": "electric_scooter", "name": "67af48f6d840ccafc53a52e11475ceb3", "lat": 38.89682283333333, "fusion_lat": 0.0, "bike_id": "67af48f6d840ccafc53a52e11475ceb3", "is_reserved": 0, "lon": -77.02395133333333, "is_disabled": 0, "fusion_lon": 0.0, "rental_uris": {"android": "https://dc.lft.to/lastmile_qr_scan", "ios": "https://dc.lft.to/lastmile_qr_scan"}}, {"type": "electric_scooter", "name": "26f81b604803e94fd5e105746618f369", "lat": 38.892460166666666, "fusion_lat": 0.0, "bike_id": "26f81b604803e94fd5e105746618f369", "is_reserved": 0, "lon": -77.03956533333333, "is_disabled": 0, "fusion_lon": 0.0, "rental_uris": {"android": "https://dc.lft.to/lastmile_qr_scan", "ios": "https://dc.lft.to/lastmile_qr_scan"}}, {"type": "electric_scooter", "name": "34c2e59d81c155c070c70a64372bd998", "lat": 38.922326166666664, "fusion_lat": 0.0, "bike_id": "34c2e59d81c155c070c70a64372bd998", "is_reserved": 0, "lon": -77.023285, "is_disabled": 0, "fusion_lon": 0.0, "rental_uris": {"android": "https://dc.lft.to/lastmile_qr_scan", "ios": "https://dc.lft.to/lastmile_qr_scan"}}, {"type": "electric_scooter", "name": "7c212d39906d67c615302b026f575ee2", "lat": 38.90131266666667, "fusion_lat": 0.0, "bike_id": "7c212d39906d67c615302b026f575ee2", "is_reserved": 0, "lon": -77.0347705, "is_disabled": 0, "fusion_lon": 0.0, "rental_uris": {"android": "https://dc.lft.to/lastmile_qr_scan", "ios": "https://dc.lft.to/lastmile_qr_scan"}}, {"type": "electric_scooter", "name": "807358d959d40549e9522e15a63b0a2f", "lat": 38.8792815, "fusion_lat": 0.0, "bike_id": "807358d959d40549e9522e15a63b0a2f", "is_reserved": 0, "lon": -77.00524483333334, "is_disabled": 0, "fusion_lon": 0.0, "rental_uris": {"android": "https://dc.lft.to/lastmile_qr_scan", "ios": "https://dc.lft.to/lastmile_qr_scan"}}, {"type": "electric_scooter", "name": "439dbb4a22e0b8f0c0709767f1386250", "lat": 38.9330205, "fusion_lat": 0.0, "bike_id": "439dbb4a22e0b8f0c0709767f1386250", "is_reserved": 0, "lon": -77.03984066666666, "is_disabled": 0, "fusion_lon": 0.0, "rental_uris": {"android": "https://dc.lft.to/lastmile_qr_scan", "ios": "https://dc.lft.to/lastmile_qr_scan"}}, {"type": "electric_scooter", "name": "916dd35f9eb084a1b4a6045fa8aa5bdf", "lat": 38.923396333333336, "fusion_lat": 0.0, "bike_id": "916dd35f9eb084a1b4a6045fa8aa5bdf", "is_reserved": 0, "lon": -77.0534505, "is_disabled": 0, "fusion_lon": 0.0, "rental_uris": {"android": "https://dc.lft.to/lastmile_qr_scan", "ios": "https://dc.lft.to/lastmile_qr_scan"}}, {"type": "electric_scooter", "name": "0ed0a0edded044f0ec51c3d06f51eb4d", "lat": 38.914756833333335, "fusion_lat": 0.0, "bike_id": "0ed0a0edded044f0ec51c3d06f51eb4d", "is_reserved": 0, "lon": -77.04170116666667, "is_disabled": 0, "fusion_lon": 0.0, "rental_uris": {"android": "https://dc.lft.to/lastmile_qr_scan", "ios": "https://dc.lft.to/lastmile_qr_scan"}}, {"type": "electric_scooter", "name": "fdc7d3a4e98c83db4bf53e23d913f7fa", "lat": 38.90338783333333, "fusion_lat": 0.0, "bike_id": "fdc7d3a4e98c83db4bf53e23d913f7fa", "is_reserved": 0, "lon": -77.0384355, "is_disabled": 0, "fusion_lon": 0.0, "rental_uris": {"android": "https://dc.lft.to/lastmile_qr_scan", "ios": "https://dc.lft.to/lastmile_qr_scan"}}, {"type": "electric_scooter", "name": "8f00de2a65bbac920ec14c75b3c9a4eb", "lat": 38.916560833333335, "fusion_lat": 0.0, "bike_id": "8f00de2a65bbac920ec14c75b3c9a4eb", "is_reserved": 0, "lon": -77.03632616666667, "is_disabled": 0, "fusion_lon": 0.0, "rental_uris": {"android": "https://dc.lft.to/lastmile_qr_scan", "ios": "https://dc.lft.to/lastmile_qr_scan"}}, {"type": "electric_scooter", "name": "926c12a2742b45b54cb2f6e9d7954d6f", "lat": 38.911097166666664, "fusion_lat": 0.0, "bike_id": "926c12a2742b45b54cb2f6e9d7954d6f", "is_reserved": 0, "lon": -77.04392283333334, "is_disabled": 0, "fusion_lon": 0.0, "rental_uris": {"android": "https://dc.lft.to/lastmile_qr_scan", "ios": "https://dc.lft.to/lastmile_qr_scan"}}, {"type": "electric_scooter", "name": "955cb3fac9655c4c3edf8edc15ff93e8", "lat": 38.93927883333333, "fusion_lat": 0.0, "bike_id": "955cb3fac9655c4c3edf8edc15ff93e8", "is_reserved": 0, "lon": -77.03672216666666, "is_disabled": 0, "fusion_lon": 0.0, "rental_uris": {"android": "https://dc.lft.to/lastmile_qr_scan", "ios": "https://dc.lft.to/lastmile_qr_scan"}}, {"type": "electric_scooter", "name": "66b3758c18558178707f1b46f85ab0b8", "lat": 38.917125, "fusion_lat": 0.0, "bike_id": "66b3758c18558178707f1b46f85ab0b8", "is_reserved": 0, "lon": -77.03864166666666, "is_disabled": 0, "fusion_lon": 0.0, "rental_uris": {"android": "https://dc.lft.to/lastmile_qr_scan", "ios": "https://dc.lft.to/lastmile_qr_scan"}}, {"type": "electric_bike", "name": "9792760a350cad74a8c92234e3f7b3d7", "lat": 38.9405635, "fusion_lat": 0.0, "bike_id": "9792760a350cad74a8c92234e3f7b3d7", "is_reserved": 0, "lon": -76.904188, "is_disabled": 0, "fusion_lon": 0.0, "rental_uris": {"android": "https://dc.lft.to/lastmile_qr_scan", "ios": "https://dc.lft.to/lastmile_qr_scan"}}, {"type": "electric_scooter", "name": "5b37974706da259d4d500ee95ca67d22", "lat": 38.95500116666667, "fusion_lat": 0.0, "bike_id": "5b37974706da259d4d500ee95ca67d22", "is_reserved": 0, "lon": -77.01716666666667, "is_disabled": 0, "fusion_lon": 0.0, "rental_uris": {"android": "https://dc.lft.to/lastmile_qr_scan", "ios": "https://dc.lft.to/lastmile_qr_scan"}}, {"type": "electric_scooter", "name": "cbb09183fbde447cc6445210c0592c19", "lat": 38.928531, "fusion_lat": 0.0, "bike_id": "cbb09183fbde447cc6445210c0592c19", "is_reserved": 0, "lon": -77.01389716666667, "is_disabled": 0, "fusion_lon": 0.0, "rental_uris": {"android": "https://dc.lft.to/lastmile_qr_scan", "ios": "https://dc.lft.to/lastmile_qr_scan"}}, {"type": "electric_scooter", "name": "18633540d9231d4eda9a399c201616fd", "lat": 38.92768366666667, "fusion_lat": 0.0, "bike_id": "18633540d9231d4eda9a399c201616fd", "is_reserved": 0, "lon": -77.027383, "is_disabled": 0, "fusion_lon": 0.0, "rental_uris": {"android": "https://dc.lft.to/lastmile_qr_scan", "ios": "https://dc.lft.to/lastmile_qr_scan"}}, {"type": "electric_scooter", "name": "b24fd4b415d9996035804a84db2a89c7", "lat": 38.87470483333333, "fusion_lat": 0.0, "bike_id": "b24fd4b415d9996035804a84db2a89c7", "is_reserved": 0, "lon": -77.01891266666667, "is_disabled": 0, "fusion_lon": 0.0, "rental_uris": {"android": "https://dc.lft.to/lastmile_qr_scan", "ios": "https://dc.lft.to/lastmile_qr_scan"}}, {"type": "electric_scooter", "name": "e51190016028858481ee5c4b4c1a80de", "lat": 38.92369, "fusion_lat": 0.0, "bike_id": "e51190016028858481ee5c4b4c1a80de", "is_reserved": 0, "lon": -77.01905616666667, "is_disabled": 0, "fusion_lon": 0.0, "rental_uris": {"android": "https://dc.lft.to/lastmile_qr_scan", "ios": "https://dc.lft.to/lastmile_qr_scan"}}, {"type": "electric_bike", "name": "f1218beb092260ba2ddc3e8984e1ddab", "lat": 38.95222616666667, "fusion_lat": 0.0, "bike_id": "f1218beb092260ba2ddc3e8984e1ddab", "is_reserved": 0, "lon": -77.00274316666666, "is_disabled": 0, "fusion_lon": 0.0, "rental_uris": {"android": "https://dc.lft.to/lastmile_qr_scan", "ios": "https://dc.lft.to/lastmile_qr_scan"}}, {"type": "electric_scooter", "name": "b81a7bb1d5fadfb59716386845958309", "lat": 38.90577033333334, "fusion_lat": 0.0, "bike_id": "b81a7bb1d5fadfb59716386845958309", "is_reserved": 0, "lon": -77.04331633333334, "is_disabled": 0, "fusion_lon": 0.0, "rental_uris": {"android": "https://dc.lft.to/lastmile_qr_scan", "ios": "https://dc.lft.to/lastmile_qr_scan"}}, {"type": "electric_scooter", "name": "fd819411192ddbf41763306a617c74d3", "lat": 38.91806916666667, "fusion_lat": 0.0, "bike_id": "fd819411192ddbf41763306a617c74d3", "is_reserved": 0, "lon": -77.02696483333334, "is_disabled": 0, "fusion_lon": 0.0, "rental_uris": {"android": "https://dc.lft.to/lastmile_qr_scan", "ios": "https://dc.lft.to/lastmile_qr_scan"}}, {"type": "electric_scooter", "name": "6c0b9e710a962b330993206d9274fba1", "lat": 38.892256833333334, "fusion_lat": 0.0, "bike_id": "6c0b9e710a962b330993206d9274fba1", "is_reserved": 0, "lon": -77.04194983333333, "is_disabled": 0, "fusion_lon": 0.0, "rental_uris": {"android": "https://dc.lft.to/lastmile_qr_scan", "ios": "https://dc.lft.to/lastmile_qr_scan"}}, {"type": "electric_scooter", "name": "d51903c0111bbbe53135a6e48bb763d9", "lat": 38.89582566666667, "fusion_lat": 0.0, "bike_id": "d51903c0111bbbe53135a6e48bb763d9", "is_reserved": 0, "lon": -77.02180016666667, "is_disabled": 0, "fusion_lon": 0.0, "rental_uris": {"android": "https://dc.lft.to/lastmile_qr_scan", "ios": "https://dc.lft.to/lastmile_qr_scan"}}, {"type": "electric_scooter", "name": "7282c8f5a4ac4fbe363c7cca76633055", "lat": 38.9029745, "fusion_lat": 0.0, "bike_id": "7282c8f5a4ac4fbe363c7cca76633055", "is_reserved": 0, "lon": -77.03843383333333, "is_disabled": 0, "fusion_lon": 0.0, "rental_uris": {"android": "https://dc.lft.to/lastmile_qr_scan", "ios": "https://dc.lft.to/lastmile_qr_scan"}}, {"type": "electric_scooter", "name": "7f3451555ef1b4c4efc9d89fae6b2700", "lat": 38.863899833333335, "fusion_lat": 0.0, "bike_id": "7f3451555ef1b4c4efc9d89fae6b2700", "is_reserved": 0, "lon": -76.990397, "is_disabled": 0, "fusion_lon": 0.0, "rental_uris": {"android": "https://dc.lft.to/lastmile_qr_scan", "ios": "https://dc.lft.to/lastmile_qr_scan"}}, {"type": "electric_scooter", "name": "42e0e8ae9fd1500acd90932dc2497895", "lat": 38.90129366666667, "fusion_lat": 0.0, "bike_id": "42e0e8ae9fd1500acd90932dc2497895", "is_reserved": 0, "lon": -77.04221783333334, "is_disabled": 0, "fusion_lon": 0.0, "rental_uris": {"android": "https://dc.lft.to/lastmile_qr_scan", "ios": "https://dc.lft.to/lastmile_qr_scan"}}, {"type": "electric_bike", "name": "094623c147362424c3d6faa5a871559c", "lat": 39.051053333333336, "fusion_lat": 0.0, "bike_id": "094623c147362424c3d6faa5a871559c", "is_reserved": 0, "lon": -77.11754233333333, "is_disabled": 0, "fusion_lon": 0.0, "rental_uris": {"android": "https://dc.lft.to/lastmile_qr_scan", "ios": "https://dc.lft.to/lastmile_qr_scan"}}, {"type": "electric_scooter", "name": "0ae44e83b2b33c15d0176858e099d380", "lat": 38.8972855, "fusion_lat": 0.0, "bike_id": "0ae44e83b2b33c15d0176858e099d380", "is_reserved": 0, "lon": -76.9469875, "is_disabled": 0, "fusion_lon": 0.0, "rental_uris": {"android": "https://dc.lft.to/lastmile_qr_scan", "ios": "https://dc.lft.to/lastmile_qr_scan"}}, {"type": "electric_scooter", "name": "81533dcf9d3b4315e42c06aab196ece2", "lat": 38.860355, "fusion_lat": 0.0, "bike_id": "81533dcf9d3b4315e42c06aab196ece2", "is_reserved": 0, "lon": -76.98376033333334, "is_disabled": 0, "fusion_lon": 0.0, "rental_uris": {"android": "https://dc.lft.to/lastmile_qr_scan", "ios": "https://dc.lft.to/lastmile_qr_scan"}}, {"type": "electric_scooter", "name": "cb34ae2ce8931ab28c21275ccd628e84", "lat": 38.89824183333333, "fusion_lat": 0.0, "bike_id": "cb34ae2ce8931ab28c21275ccd628e84", "is_reserved": 0, "lon": -77.02938783333333, "is_disabled": 0, "fusion_lon": 0.0, "rental_uris": {"android": "https://dc.lft.to/lastmile_qr_scan", "ios": "https://dc.lft.to/lastmile_qr_scan"}}, {"type": "electric_scooter", "name": "b19f7586a648dd277980d5a4765a177f", "lat": 38.9028015, "fusion_lat": 0.0, "bike_id": "b19f7586a648dd277980d5a4765a177f", "is_reserved": 0, "lon": -77.03978816666667, "is_disabled": 0, "fusion_lon": 0.0, "rental_uris": {"android": "https://dc.lft.to/lastmile_qr_scan", "ios": "https://dc.lft.to/lastmile_qr_scan"}}, {"type": "electric_scooter", "name": "765c78c32c0af7618b8fb2ab2979eed4", "lat": 38.90455983333333, "fusion_lat": 0.0, "bike_id": "765c78c32c0af7618b8fb2ab2979eed4", "is_reserved": 0, "lon": -76.9948475, "is_disabled": 0, "fusion_lon": 0.0, "rental_uris": {"android": "https://dc.lft.to/lastmile_qr_scan", "ios": "https://dc.lft.to/lastmile_qr_scan"}}, {"type": "electric_bike", "name": "67f864d0f9a559573fb6be55c8ed1724", "lat": 38.8840495, "fusion_lat": 0.0, "bike_id": "67f864d0f9a559573fb6be55c8ed1724", "is_reserved": 0, "lon": -76.96050966666667, "is_disabled": 0, "fusion_lon": 0.0, "rental_uris": {"android": "https://dc.lft.to/lastmile_qr_scan", "ios": "https://dc.lft.to/lastmile_qr_scan"}}, {"type": "electric_scooter", "name": "9a264ad7d42a98b55d925c81d8fc8db6", "lat": 38.92868766666667, "fusion_lat": 0.0, "bike_id": "9a264ad7d42a98b55d925c81d8fc8db6", "is_reserved": 0, "lon": -77.03500933333333, "is_disabled": 0, "fusion_lon": 0.0, "rental_uris": {"android": "https://dc.lft.to/lastmile_qr_scan", "ios": "https://dc.lft.to/lastmile_qr_scan"}}, {"type": "electric_scooter", "name": "e750de6078417b59f7c5377cc6a649da", "lat": 38.922156, "fusion_lat": 0.0, "bike_id": "e750de6078417b59f7c5377cc6a649da", "is_reserved": 0, "lon": -77.03656966666667, "is_disabled": 0, "fusion_lon": 0.0, "rental_uris": {"android": "https://dc.lft.to/lastmile_qr_scan", "ios": "https://dc.lft.to/lastmile_qr_scan"}}, {"type": "electric_scooter", "name": "f9caec53f0d54c54241229fd5c8f9fc5", "lat": 38.89751833333333, "fusion_lat": 0.0, "bike_id": "f9caec53f0d54c54241229fd5c8f9fc5", "is_reserved": 0, "lon": -77.04484316666667, "is_disabled": 0, "fusion_lon": 0.0, "rental_uris": {"android": "https://dc.lft.to/lastmile_qr_scan", "ios": "https://dc.lft.to/lastmile_qr_scan"}}, {"type": "electric_scooter", "name": "d55d10749b267224cc0506ae6100cb3c", "lat": 38.903692, "fusion_lat": 0.0, "bike_id": "d55d10749b267224cc0506ae6100cb3c", "is_reserved": 0, "lon": -77.02797816666667, "is_disabled": 0, "fusion_lon": 0.0, "rental_uris": {"android": "https://dc.lft.to/lastmile_qr_scan", "ios": "https://dc.lft.to/lastmile_qr_scan"}}, {"type": "electric_bike", "name": "cc36c5793fa9f23f312d5912aebd5422", "lat": 38.99421183333333, "fusion_lat": 0.0, "bike_id": "cc36c5793fa9f23f312d5912aebd5422", "is_reserved": 0, "lon": -77.07692583333333, "is_disabled": 0, "fusion_lon": 0.0, "rental_uris": {"android": "https://dc.lft.to/lastmile_qr_scan", "ios": "https://dc.lft.to/lastmile_qr_scan"}}, {"type": "electric_bike", "name": "fc3bdcc997639698fdea9d854dee249c", "lat": 38.955495166666665, "fusion_lat": 0.0, "bike_id": "fc3bdcc997639698fdea9d854dee249c", "is_reserved": 0, "lon": -77.06937066666667, "is_disabled": 0, "fusion_lon": 0.0, "rental_uris": {"android": "https://dc.lft.to/lastmile_qr_scan", "ios": "https://dc.lft.to/lastmile_qr_scan"}}, {"type": "electric_scooter", "name": "24474981be16fafe0df7d387d8fe20f0", "lat": 38.917312, "fusion_lat": 0.0, "bike_id": "24474981be16fafe0df7d387d8fe20f0", "is_reserved": 0, "lon": -77.02970333333333, "is_disabled": 0, "fusion_lon": 0.0, "rental_uris": {"android": "https://dc.lft.to/lastmile_qr_scan", "ios": "https://dc.lft.to/lastmile_qr_scan"}}, {"type": "electric_scooter", "name": "172840957e5030e0c46a43a9c6992909", "lat": 38.9064255, "fusion_lat": 0.0, "bike_id": "172840957e5030e0c46a43a9c6992909", "is_reserved": 0, "lon": -77.0113865, "is_disabled": 0, "fusion_lon": 0.0, "rental_uris": {"android": "https://dc.lft.to/lastmile_qr_scan", "ios": "https://dc.lft.to/lastmile_qr_scan"}}, {"type": "electric_scooter", "name": "341be016ddbc6ba0d357877fa67c0287", "lat": 38.898973833333336, "fusion_lat": 0.0, "bike_id": "341be016ddbc6ba0d357877fa67c0287", "is_reserved": 0, "lon": -76.93396366666667, "is_disabled": 0, "fusion_lon": 0.0, "rental_uris": {"android": "https://dc.lft.to/lastmile_qr_scan", "ios": "https://dc.lft.to/lastmile_qr_scan"}}, {"type": "electric_scooter", "name": "8532d59ef7d10b2fe2d204639cc12ed2", "lat": 38.928375333333335, "fusion_lat": 0.0, "bike_id": "8532d59ef7d10b2fe2d204639cc12ed2", "is_reserved": 0, "lon": -77.0597315, "is_disabled": 0, "fusion_lon": 0.0, "rental_uris": {"android": "https://dc.lft.to/lastmile_qr_scan", "ios": "https://dc.lft.to/lastmile_qr_scan"}}, {"type": "electric_scooter", "name": "31bd42403686bc91f59c5e96a302777a", "lat": 38.93428883333333, "fusion_lat": 0.0, "bike_id": "31bd42403686bc91f59c5e96a302777a", "is_reserved": 0, "lon": -77.04000866666667, "is_disabled": 0, "fusion_lon": 0.0, "rental_uris": {"android": "https://dc.lft.to/lastmile_qr_scan", "ios": "https://dc.lft.to/lastmile_qr_scan"}}, {"type": "electric_scooter", "name": "3e88661cab301210d524a9551ef6148c", "lat": 38.822209666666666, "fusion_lat": 0.0, "bike_id": "3e88661cab301210d524a9551ef6148c", "is_reserved": 0, "lon": -77.00187566666666, "is_disabled": 0, "fusion_lon": 0.0, "rental_uris": {"android": "https://dc.lft.to/lastmile_qr_scan", "ios": "https://dc.lft.to/lastmile_qr_scan"}}, {"type": "electric_scooter", "name": "2649610e6422064c3e37f5084e063195", "lat": 38.8848195, "fusion_lat": 0.0, "bike_id": "2649610e6422064c3e37f5084e063195", "is_reserved": 0, "lon": -77.02027666666666, "is_disabled": 0, "fusion_lon": 0.0, "rental_uris": {"android": "https://dc.lft.to/lastmile_qr_scan", "ios": "https://dc.lft.to/lastmile_qr_scan"}}, {"type": "electric_scooter", "name": "a74a1984889c1c6547e5a94494e9a8dd", "lat": 38.924420166666664, "fusion_lat": 0.0, "bike_id": "a74a1984889c1c6547e5a94494e9a8dd", "is_reserved": 0, "lon": -77.03374733333334, "is_disabled": 0, "fusion_lon": 0.0, "rental_uris": {"android": "https://dc.lft.to/lastmile_qr_scan", "ios": "https://dc.lft.to/lastmile_qr_scan"}}, {"type": "electric_scooter", "name": "a80a51f3b574041f5cf94aede6ed81c1", "lat": 38.900143, "fusion_lat": 0.0, "bike_id": "a80a51f3b574041f5cf94aede6ed81c1", "is_reserved": 0, "lon": -76.98697283333334, "is_disabled": 0, "fusion_lon": 0.0, "rental_uris": {"android": "https://dc.lft.to/lastmile_qr_scan", "ios": "https://dc.lft.to/lastmile_qr_scan"}}, {"type": "electric_scooter", "name": "72be57a93f169464885f25fc79931714", "lat": 38.896811, "fusion_lat": 0.0, "bike_id": "72be57a93f169464885f25fc79931714", "is_reserved": 0, "lon": -77.029809, "is_disabled": 0, "fusion_lon": 0.0, "rental_uris": {"android": "https://dc.lft.to/lastmile_qr_scan", "ios": "https://dc.lft.to/lastmile_qr_scan"}}, {"type": "electric_scooter", "name": "299e6f6e451b25dfb5e2d4d3c6d4f4df", "lat": 38.92472333333333, "fusion_lat": 0.0, "bike_id": "299e6f6e451b25dfb5e2d4d3c6d4f4df", "is_reserved": 0, "lon": -77.022219, "is_disabled": 0, "fusion_lon": 0.0, "rental_uris": {"android": "https://dc.lft.to/lastmile_qr_scan", "ios": "https://dc.lft.to/lastmile_qr_scan"}}, {"type": "electric_scooter", "name": "94786029b24da2fa359f60362a176bd6", "lat": 38.89902166666667, "fusion_lat": 0.0, "bike_id": "94786029b24da2fa359f60362a176bd6", "is_reserved": 0, "lon": -77.029746, "is_disabled": 0, "fusion_lon": 0.0, "rental_uris": {"android": "https://dc.lft.to/lastmile_qr_scan", "ios": "https://dc.lft.to/lastmile_qr_scan"}}, {"type": "electric_scooter", "name": "92a9d894925b94fca7ee94387745e074", "lat": 38.905816, "fusion_lat": 0.0, "bike_id": "92a9d894925b94fca7ee94387745e074", "is_reserved": 0, "lon": -77.04088633333333, "is_disabled": 0, "fusion_lon": 0.0, "rental_uris": {"android": "https://dc.lft.to/lastmile_qr_scan", "ios": "https://dc.lft.to/lastmile_qr_scan"}}, {"type": "electric_scooter", "name": "cb35d1ef811f1a62d3b4026db4e56494", "lat": 38.90871766666667, "fusion_lat": 0.0, "bike_id": "cb35d1ef811f1a62d3b4026db4e56494", "is_reserved": 0, "lon": -76.933392, "is_disabled": 0, "fusion_lon": 0.0, "rental_uris": {"android": "https://dc.lft.to/lastmile_qr_scan", "ios": "https://dc.lft.to/lastmile_qr_scan"}}, {"type": "electric_scooter", "name": "c3b8bee2367b0e9a399f9a7361001c5f", "lat": 38.920729, "fusion_lat": 0.0, "bike_id": "c3b8bee2367b0e9a399f9a7361001c5f", "is_reserved": 0, "lon": -77.02485516666667, "is_disabled": 0, "fusion_lon": 0.0, "rental_uris": {"android": "https://dc.lft.to/lastmile_qr_scan", "ios": "https://dc.lft.to/lastmile_qr_scan"}}, {"type": "electric_scooter", "name": "e5bf968797d61688749fd8af20cd5b0b", "lat": 38.927716833333335, "fusion_lat": 0.0, "bike_id": "e5bf968797d61688749fd8af20cd5b0b", "is_reserved": 0, "lon": -77.02743116666667, "is_disabled": 0, "fusion_lon": 0.0, "rental_uris": {"android": "https://dc.lft.to/lastmile_qr_scan", "ios": "https://dc.lft.to/lastmile_qr_scan"}}, {"type": "electric_scooter", "name": "6acbf60596013ff51e7d5e8ef1ccaddb", "lat": 38.9061735, "fusion_lat": 0.0, "bike_id": "6acbf60596013ff51e7d5e8ef1ccaddb", "is_reserved": 0, "lon": -77.041372, "is_disabled": 0, "fusion_lon": 0.0, "rental_uris": {"android": "https://dc.lft.to/lastmile_qr_scan", "ios": "https://dc.lft.to/lastmile_qr_scan"}}, {"type": "electric_scooter", "name": "cc1a975e66b547764b05eab19cb790f3", "lat": 38.91016716666667, "fusion_lat": 0.0, "bike_id": "cc1a975e66b547764b05eab19cb790f3", "is_reserved": 0, "lon": -77.02208816666666, "is_disabled": 0, "fusion_lon": 0.0, "rental_uris": {"android": "https://dc.lft.to/lastmile_qr_scan", "ios": "https://dc.lft.to/lastmile_qr_scan"}}, {"type": "electric_scooter", "name": "71836cc610e87ec984a5cbf2ce9b70f9", "lat": 38.909975, "fusion_lat": 0.0, "bike_id": "71836cc610e87ec984a5cbf2ce9b70f9", "is_reserved": 0, "lon": -77.03201166666666, "is_disabled": 0, "fusion_lon": 0.0, "rental_uris": {"android": "https://dc.lft.to/lastmile_qr_scan", "ios": "https://dc.lft.to/lastmile_qr_scan"}}, {"type": "electric_scooter", "name": "a5643da41e2a3698040187ed03373e86", "lat": 38.925821666666664, "fusion_lat": 0.0, "bike_id": "a5643da41e2a3698040187ed03373e86", "is_reserved": 0, "lon": -77.03637383333333, "is_disabled": 0, "fusion_lon": 0.0, "rental_uris": {"android": "https://dc.lft.to/lastmile_qr_scan", "ios": "https://dc.lft.to/lastmile_qr_scan"}}, {"type": "electric_scooter", "name": "5687c816dba581e8102adbec54a11682", "lat": 38.9053415, "fusion_lat": 0.0, "bike_id": "5687c816dba581e8102adbec54a11682", "is_reserved": 0, "lon": -76.99630133333334, "is_disabled": 0, "fusion_lon": 0.0, "rental_uris": {"android": "https://dc.lft.to/lastmile_qr_scan", "ios": "https://dc.lft.to/lastmile_qr_scan"}}, {"type": "electric_scooter", "name": "01f42da1e7019a46947ed3734da8e68c", "lat": 38.9014145, "fusion_lat": 0.0, "bike_id": "01f42da1e7019a46947ed3734da8e68c", "is_reserved": 0, "lon": -77.03554633333333, "is_disabled": 0, "fusion_lon": 0.0, "rental_uris": {"android": "https://dc.lft.to/lastmile_qr_scan", "ios": "https://dc.lft.to/lastmile_qr_scan"}}, {"type": "electric_scooter", "name": "74453438edc6d97ee13fc1de412136e8", "lat": 38.92151833333333, "fusion_lat": 0.0, "bike_id": "74453438edc6d97ee13fc1de412136e8", "is_reserved": 0, "lon": -77.03496333333334, "is_disabled": 0, "fusion_lon": 0.0, "rental_uris": {"android": "https://dc.lft.to/lastmile_qr_scan", "ios": "https://dc.lft.to/lastmile_qr_scan"}}, {"type": "electric_scooter", "name": "08ade89e48f64c15177fcd648545e448", "lat": 38.904109166666665, "fusion_lat": 0.0, "bike_id": "08ade89e48f64c15177fcd648545e448", "is_reserved": 0, "lon": -76.9733055, "is_disabled": 0, "fusion_lon": 0.0, "rental_uris": {"android": "https://dc.lft.to/lastmile_qr_scan", "ios": "https://dc.lft.to/lastmile_qr_scan"}}, {"type": "electric_scooter", "name": "2b849626da6f12eb22472954463af5c3", "lat": 38.9160115, "fusion_lat": 0.0, "bike_id": "2b849626da6f12eb22472954463af5c3", "is_reserved": 0, "lon": -76.98378833333334, "is_disabled": 0, "fusion_lon": 0.0, "rental_uris": {"android": "https://dc.lft.to/lastmile_qr_scan", "ios": "https://dc.lft.to/lastmile_qr_scan"}}, {"type": "electric_scooter", "name": "c57fc725df6d69eefbeaa68b825e2b29", "lat": 38.90037316666667, "fusion_lat": 0.0, "bike_id": "c57fc725df6d69eefbeaa68b825e2b29", "is_reserved": 0, "lon": -77.00190033333334, "is_disabled": 0, "fusion_lon": 0.0, "rental_uris": {"android": "https://dc.lft.to/lastmile_qr_scan", "ios": "https://dc.lft.to/lastmile_qr_scan"}}, {"type": "electric_scooter", "name": "e9a288c2501fb371d3979de4b1725ae3", "lat": 38.8986105, "fusion_lat": 0.0, "bike_id": "e9a288c2501fb371d3979de4b1725ae3", "is_reserved": 0, "lon": -77.03954616666667, "is_disabled": 0, "fusion_lon": 0.0, "rental_uris": {"android": "https://dc.lft.to/lastmile_qr_scan", "ios": "https://dc.lft.to/lastmile_qr_scan"}}, {"type": "electric_scooter", "name": "842af7c6138ad89f3c7e3f3e581c4d2d", "lat": 38.89962233333333, "fusion_lat": 0.0, "bike_id": "842af7c6138ad89f3c7e3f3e581c4d2d", "is_reserved": 0, "lon": -77.045751, "is_disabled": 0, "fusion_lon": 0.0, "rental_uris": {"android": "https://dc.lft.to/lastmile_qr_scan", "ios": "https://dc.lft.to/lastmile_qr_scan"}}, {"type": "electric_scooter", "name": "fee734935139a5ae687b93d0c3c88c04", "lat": 38.932480166666664, "fusion_lat": 0.0, "bike_id": "fee734935139a5ae687b93d0c3c88c04", "is_reserved": 0, "lon": -76.997056, "is_disabled": 0, "fusion_lon": 0.0, "rental_uris": {"android": "https://dc.lft.to/lastmile_qr_scan", "ios": "https://dc.lft.to/lastmile_qr_scan"}}, {"type": "electric_scooter", "name": "18a6d3649c2eddcd5181b1845a4e38a6", "lat": 38.895118833333335, "fusion_lat": 0.0, "bike_id": "18a6d3649c2eddcd5181b1845a4e38a6", "is_reserved": 0, "lon": -77.0033625, "is_disabled": 0, "fusion_lon": 0.0, "rental_uris": {"android": "https://dc.lft.to/lastmile_qr_scan", "ios": "https://dc.lft.to/lastmile_qr_scan"}}, {"type": "electric_scooter", "name": "245bdb4454e920dd54b7d73edb1f8758", "lat": 38.928798, "fusion_lat": 0.0, "bike_id": "245bdb4454e920dd54b7d73edb1f8758", "is_reserved": 0, "lon": -77.02708283333334, "is_disabled": 0, "fusion_lon": 0.0, "rental_uris": {"android": "https://dc.lft.to/lastmile_qr_scan", "ios": "https://dc.lft.to/lastmile_qr_scan"}}, {"type": "electric_scooter", "name": "10b4a9f5b1b9af0b5719a3baad5d27a8", "lat": 38.90262366666666, "fusion_lat": 0.0, "bike_id": "10b4a9f5b1b9af0b5719a3baad5d27a8", "is_reserved": 0, "lon": -76.97459183333333, "is_disabled": 0, "fusion_lon": 0.0, "rental_uris": {"android": "https://dc.lft.to/lastmile_qr_scan", "ios": "https://dc.lft.to/lastmile_qr_scan"}}, {"type": "electric_scooter", "name": "4c9b4b367e8657711bf01046ff8787cc", "lat": 38.9171065, "fusion_lat": 0.0, "bike_id": "4c9b4b367e8657711bf01046ff8787cc", "is_reserved": 0, "lon": -77.04121816666667, "is_disabled": 0, "fusion_lon": 0.0, "rental_uris": {"android": "https://dc.lft.to/lastmile_qr_scan", "ios": "https://dc.lft.to/lastmile_qr_scan"}}, {"type": "electric_scooter", "name": "5226ddd17abeff0d6eeefdb7fd9e2f9a", "lat": 38.901267, "fusion_lat": 0.0, "bike_id": "5226ddd17abeff0d6eeefdb7fd9e2f9a", "is_reserved": 0, "lon": -76.99943983333333, "is_disabled": 0, "fusion_lon": 0.0, "rental_uris": {"android": "https://dc.lft.to/lastmile_qr_scan", "ios": "https://dc.lft.to/lastmile_qr_scan"}}, {"type": "electric_scooter", "name": "e08cfe5cae30ebf49ce5422be30fa717", "lat": 38.926026, "fusion_lat": 0.0, "bike_id": "e08cfe5cae30ebf49ce5422be30fa717", "is_reserved": 0, "lon": -77.02158283333333, "is_disabled": 0, "fusion_lon": 0.0, "rental_uris": {"android": "https://dc.lft.to/lastmile_qr_scan", "ios": "https://dc.lft.to/lastmile_qr_scan"}}, {"type": "electric_scooter", "name": "df670c1efd3999e04844694970b03b42", "lat": 38.91912216666667, "fusion_lat": 0.0, "bike_id": "df670c1efd3999e04844694970b03b42", "is_reserved": 0, "lon": -76.986965, "is_disabled": 0, "fusion_lon": 0.0, "rental_uris": {"android": "https://dc.lft.to/lastmile_qr_scan", "ios": "https://dc.lft.to/lastmile_qr_scan"}}, {"type": "electric_bike", "name": "cd768c05081170dd8f3d21c5edb2111e", "lat": 38.884964, "fusion_lat": 0.0, "bike_id": "cd768c05081170dd8f3d21c5edb2111e", "is_reserved": 0, "lon": -76.95664133333334, "is_disabled": 0, "fusion_lon": 0.0, "rental_uris": {"android": "https://dc.lft.to/lastmile_qr_scan", "ios": "https://dc.lft.to/lastmile_qr_scan"}}, {"type": "electric_scooter", "name": "da8e96be28e6099183efb62d6000e3b5", "lat": 38.887476, "fusion_lat": 0.0, "bike_id": "da8e96be28e6099183efb62d6000e3b5", "is_reserved": 0, "lon": -77.03168166666667, "is_disabled": 0, "fusion_lon": 0.0, "rental_uris": {"android": "https://dc.lft.to/lastmile_qr_scan", "ios": "https://dc.lft.to/lastmile_qr_scan"}}, {"type": "electric_scooter", "name": "b68c82fe7209e57d23975eb1295259c0", "lat": 38.89855166666667, "fusion_lat": 0.0, "bike_id": "b68c82fe7209e57d23975eb1295259c0", "is_reserved": 0, "lon": -76.99031516666666, "is_disabled": 0, "fusion_lon": 0.0, "rental_uris": {"android": "https://dc.lft.to/lastmile_qr_scan", "ios": "https://dc.lft.to/lastmile_qr_scan"}}, {"type": "electric_scooter", "name": "a470af3b49b5b4d5f8422ec4badfca14", "lat": 38.9249025, "fusion_lat": 0.0, "bike_id": "a470af3b49b5b4d5f8422ec4badfca14", "is_reserved": 0, "lon": -77.0215715, "is_disabled": 0, "fusion_lon": 0.0, "rental_uris": {"android": "https://dc.lft.to/lastmile_qr_scan", "ios": "https://dc.lft.to/lastmile_qr_scan"}}, {"type": "electric_scooter", "name": "fbf4bf914d883c0de5553ab1bdbdfe63", "lat": 38.892309166666664, "fusion_lat": 0.0, "bike_id": "fbf4bf914d883c0de5553ab1bdbdfe63", "is_reserved": 0, "lon": -77.050024, "is_disabled": 0, "fusion_lon": 0.0, "rental_uris": {"android": "https://dc.lft.to/lastmile_qr_scan", "ios": "https://dc.lft.to/lastmile_qr_scan"}}, {"type": "electric_scooter", "name": "4510d320d9f5b29a1bd739ca30c08f98", "lat": 38.9244665, "fusion_lat": 0.0, "bike_id": "4510d320d9f5b29a1bd739ca30c08f98", "is_reserved": 0, "lon": -77.02018233333334, "is_disabled": 0, "fusion_lon": 0.0, "rental_uris": {"android": "https://dc.lft.to/lastmile_qr_scan", "ios": "https://dc.lft.to/lastmile_qr_scan"}}, {"type": "electric_scooter", "name": "50a55e004ecead1f2097bff60ee904f2", "lat": 38.886171, "fusion_lat": 0.0, "bike_id": "50a55e004ecead1f2097bff60ee904f2", "is_reserved": 0, "lon": -77.0124975, "is_disabled": 0, "fusion_lon": 0.0, "rental_uris": {"android": "https://dc.lft.to/lastmile_qr_scan", "ios": "https://dc.lft.to/lastmile_qr_scan"}}, {"type": "electric_scooter", "name": "6f372202d49b66be82f1d0d089917609", "lat": 38.908703333333335, "fusion_lat": 0.0, "bike_id": "6f372202d49b66be82f1d0d089917609", "is_reserved": 0, "lon": -77.0691505, "is_disabled": 0, "fusion_lon": 0.0, "rental_uris": {"android": "https://dc.lft.to/lastmile_qr_scan", "ios": "https://dc.lft.to/lastmile_qr_scan"}}, {"type": "electric_scooter", "name": "5d9485ec25bbe6d27a47e14f13a43aa8", "lat": 38.92393583333333, "fusion_lat": 0.0, "bike_id": "5d9485ec25bbe6d27a47e14f13a43aa8", "is_reserved": 0, "lon": -77.0248725, "is_disabled": 0, "fusion_lon": 0.0, "rental_uris": {"android": "https://dc.lft.to/lastmile_qr_scan", "ios": "https://dc.lft.to/lastmile_qr_scan"}}, {"type": "electric_scooter", "name": "8d7d953f1e2eb893cbdfebc87c574201", "lat": 38.90665716666667, "fusion_lat": 0.0, "bike_id": "8d7d953f1e2eb893cbdfebc87c574201", "is_reserved": 0, "lon": -77.0460605, "is_disabled": 0, "fusion_lon": 0.0, "rental_uris": {"android": "https://dc.lft.to/lastmile_qr_scan", "ios": "https://dc.lft.to/lastmile_qr_scan"}}, {"type": "electric_scooter", "name": "700c0fab00ba188a49406e478bca29e3", "lat": 38.89249733333333, "fusion_lat": 0.0, "bike_id": "700c0fab00ba188a49406e478bca29e3", "is_reserved": 0, "lon": -77.02002666666667, "is_disabled": 0, "fusion_lon": 0.0, "rental_uris": {"android": "https://dc.lft.to/lastmile_qr_scan", "ios": "https://dc.lft.to/lastmile_qr_scan"}}, {"type": "electric_scooter", "name": "bd0a0c82fceaadca203d2818e887a7fc", "lat": 38.88311933333333, "fusion_lat": 0.0, "bike_id": "bd0a0c82fceaadca203d2818e887a7fc", "is_reserved": 0, "lon": -77.01753233333334, "is_disabled": 0, "fusion_lon": 0.0, "rental_uris": {"android": "https://dc.lft.to/lastmile_qr_scan", "ios": "https://dc.lft.to/lastmile_qr_scan"}}, {"type": "electric_scooter", "name": "15aebf4d4ac5c519ea540935e6fc8f55", "lat": 38.894707833333335, "fusion_lat": 0.0, "bike_id": "15aebf4d4ac5c519ea540935e6fc8f55", "is_reserved": 0, "lon": -77.0166035, "is_disabled": 0, "fusion_lon": 0.0, "rental_uris": {"android": "https://dc.lft.to/lastmile_qr_scan", "ios": "https://dc.lft.to/lastmile_qr_scan"}}, {"type": "electric_scooter", "name": "ed98233d75a3c47463dbe33eee9f2fca", "lat": 38.908712333333334, "fusion_lat": 0.0, "bike_id": "ed98233d75a3c47463dbe33eee9f2fca", "is_reserved": 0, "lon": -77.02504333333333, "is_disabled": 0, "fusion_lon": 0.0, "rental_uris": {"android": "https://dc.lft.to/lastmile_qr_scan", "ios": "https://dc.lft.to/lastmile_qr_scan"}}, {"type": "electric_scooter", "name": "f7639be8a178d96cd834b97fbdf5efa3", "lat": 38.9150225, "fusion_lat": 0.0, "bike_id": "f7639be8a178d96cd834b97fbdf5efa3", "is_reserved": 0, "lon": -76.983632, "is_disabled": 0, "fusion_lon": 0.0, "rental_uris": {"android": "https://dc.lft.to/lastmile_qr_scan", "ios": "https://dc.lft.to/lastmile_qr_scan"}}, {"type": "electric_scooter", "name": "3f88e307e138960c7bdb353afdf20d9c", "lat": 38.86723833333333, "fusion_lat": 0.0, "bike_id": "3f88e307e138960c7bdb353afdf20d9c", "is_reserved": 0, "lon": -76.98697566666667, "is_disabled": 0, "fusion_lon": 0.0, "rental_uris": {"android": "https://dc.lft.to/lastmile_qr_scan", "ios": "https://dc.lft.to/lastmile_qr_scan"}}, {"type": "electric_scooter", "name": "bb51fd890bc24b103259c81dd143d519", "lat": 38.89889433333333, "fusion_lat": 0.0, "bike_id": "bb51fd890bc24b103259c81dd143d519", "is_reserved": 0, "lon": -77.01207883333333, "is_disabled": 0, "fusion_lon": 0.0, "rental_uris": {"android": "https://dc.lft.to/lastmile_qr_scan", "ios": "https://dc.lft.to/lastmile_qr_scan"}}, {"type": "electric_scooter", "name": "e7fe00da1af49ebe5774b2f0a40c1b5c", "lat": 38.884915666666664, "fusion_lat": 0.0, "bike_id": "e7fe00da1af49ebe5774b2f0a40c1b5c", "is_reserved": 0, "lon": -77.00707683333333, "is_disabled": 0, "fusion_lon": 0.0, "rental_uris": {"android": "https://dc.lft.to/lastmile_qr_scan", "ios": "https://dc.lft.to/lastmile_qr_scan"}}, {"type": "electric_scooter", "name": "ccdd57da380a4f7d88c94ce435731aa4", "lat": 38.91810916666667, "fusion_lat": 0.0, "bike_id": "ccdd57da380a4f7d88c94ce435731aa4", "is_reserved": 0, "lon": -77.03796633333333, "is_disabled": 0, "fusion_lon": 0.0, "rental_uris": {"android": "https://dc.lft.to/lastmile_qr_scan", "ios": "https://dc.lft.to/lastmile_qr_scan"}}, {"type": "electric_scooter", "name": "e81c96f3dc546358dc13590771390b47", "lat": 38.91256633333333, "fusion_lat": 0.0, "bike_id": "e81c96f3dc546358dc13590771390b47", "is_reserved": 0, "lon": -77.0062235, "is_disabled": 0, "fusion_lon": 0.0, "rental_uris": {"android": "https://dc.lft.to/lastmile_qr_scan", "ios": "https://dc.lft.to/lastmile_qr_scan"}}, {"type": "electric_scooter", "name": "b2f79c137c0e5664aabf61498e2bfc3d", "lat": 38.9224125, "fusion_lat": 0.0, "bike_id": "b2f79c137c0e5664aabf61498e2bfc3d", "is_reserved": 0, "lon": -77.03345233333333, "is_disabled": 0, "fusion_lon": 0.0, "rental_uris": {"android": "https://dc.lft.to/lastmile_qr_scan", "ios": "https://dc.lft.to/lastmile_qr_scan"}}, {"type": "electric_scooter", "name": "28640d3314eb7f64491eb8ab6c3a7efe", "lat": 38.891662833333335, "fusion_lat": 0.0, "bike_id": "28640d3314eb7f64491eb8ab6c3a7efe", "is_reserved": 0, "lon": -77.0154215, "is_disabled": 0, "fusion_lon": 0.0, "rental_uris": {"android": "https://dc.lft.to/lastmile_qr_scan", "ios": "https://dc.lft.to/lastmile_qr_scan"}}, {"type": "electric_scooter", "name": "a5715509ca18221409f719d6b2e81f38", "lat": 38.905800166666666, "fusion_lat": 0.0, "bike_id": "a5715509ca18221409f719d6b2e81f38", "is_reserved": 0, "lon": -77.0444035, "is_disabled": 0, "fusion_lon": 0.0, "rental_uris": {"android": "https://dc.lft.to/lastmile_qr_scan", "ios": "https://dc.lft.to/lastmile_qr_scan"}}, {"type": "electric_scooter", "name": "9cdc704e159eee4b53e73a2773004a8e", "lat": 38.926181, "fusion_lat": 0.0, "bike_id": "9cdc704e159eee4b53e73a2773004a8e", "is_reserved": 0, "lon": -77.022186, "is_disabled": 0, "fusion_lon": 0.0, "rental_uris": {"android": "https://dc.lft.to/lastmile_qr_scan", "ios": "https://dc.lft.to/lastmile_qr_scan"}}, {"type": "electric_scooter", "name": "2474968c5f97e1223cf961ce7fb8006d", "lat": 38.91694183333333, "fusion_lat": 0.0, "bike_id": "2474968c5f97e1223cf961ce7fb8006d", "is_reserved": 0, "lon": -77.033483, "is_disabled": 0, "fusion_lon": 0.0, "rental_uris": {"android": "https://dc.lft.to/lastmile_qr_scan", "ios": "https://dc.lft.to/lastmile_qr_scan"}}, {"type": "electric_scooter", "name": "bdebdf99a666aa79a21484f89d486fb5", "lat": 38.8975255, "fusion_lat": 0.0, "bike_id": "bdebdf99a666aa79a21484f89d486fb5", "is_reserved": 0, "lon": -77.009267, "is_disabled": 0, "fusion_lon": 0.0, "rental_uris": {"android": "https://dc.lft.to/lastmile_qr_scan", "ios": "https://dc.lft.to/lastmile_qr_scan"}}, {"type": "electric_scooter", "name": "d0ec4c48062096fe993136d44445e6ab", "lat": 38.8992625, "fusion_lat": 0.0, "bike_id": "d0ec4c48062096fe993136d44445e6ab", "is_reserved": 0, "lon": -77.02824916666667, "is_disabled": 0, "fusion_lon": 0.0, "rental_uris": {"android": "https://dc.lft.to/lastmile_qr_scan", "ios": "https://dc.lft.to/lastmile_qr_scan"}}, {"type": "electric_scooter", "name": "426b401ef3ea35aa7e8c24c2cf898ec2", "lat": 38.907186833333334, "fusion_lat": 0.0, "bike_id": "426b401ef3ea35aa7e8c24c2cf898ec2", "is_reserved": 0, "lon": -77.0017455, "is_disabled": 0, "fusion_lon": 0.0, "rental_uris": {"android": "https://dc.lft.to/lastmile_qr_scan", "ios": "https://dc.lft.to/lastmile_qr_scan"}}, {"type": "electric_scooter", "name": "80cf39301f97a9fc4e8cb44f605d77a9", "lat": 38.920532333333334, "fusion_lat": 0.0, "bike_id": "80cf39301f97a9fc4e8cb44f605d77a9", "is_reserved": 0, "lon": -77.03440733333333, "is_disabled": 0, "fusion_lon": 0.0, "rental_uris": {"android": "https://dc.lft.to/lastmile_qr_scan", "ios": "https://dc.lft.to/lastmile_qr_scan"}}, {"type": "electric_bike", "name": "45a5c42fee6e12c75dc0598178e7c99a", "lat": 38.94924233333333, "fusion_lat": 0.0, "bike_id": "45a5c42fee6e12c75dc0598178e7c99a", "is_reserved": 0, "lon": -77.07834033333333, "is_disabled": 0, "fusion_lon": 0.0, "rental_uris": {"android": "https://dc.lft.to/lastmile_qr_scan", "ios": "https://dc.lft.to/lastmile_qr_scan"}}, {"type": "electric_scooter", "name": "e199350d8a8271e9569af7688544d291", "lat": 38.9183185, "fusion_lat": 0.0, "bike_id": "e199350d8a8271e9569af7688544d291", "is_reserved": 0, "lon": -77.0350275, "is_disabled": 0, "fusion_lon": 0.0, "rental_uris": {"android": "https://dc.lft.to/lastmile_qr_scan", "ios": "https://dc.lft.to/lastmile_qr_scan"}}, {"type": "electric_scooter", "name": "59d3c138394d9686067362a8b482da51", "lat": 38.906636, "fusion_lat": 0.0, "bike_id": "59d3c138394d9686067362a8b482da51", "is_reserved": 0, "lon": -77.03874383333333, "is_disabled": 0, "fusion_lon": 0.0, "rental_uris": {"android": "https://dc.lft.to/lastmile_qr_scan", "ios": "https://dc.lft.to/lastmile_qr_scan"}}, {"type": "electric_scooter", "name": "3a14e665066cccefc2bea2943fd23e17", "lat": 38.902733833333336, "fusion_lat": 0.0, "bike_id": "3a14e665066cccefc2bea2943fd23e17", "is_reserved": 0, "lon": -77.039735, "is_disabled": 0, "fusion_lon": 0.0, "rental_uris": {"android": "https://dc.lft.to/lastmile_qr_scan", "ios": "https://dc.lft.to/lastmile_qr_scan"}}, {"type": "electric_scooter", "name": "5a46922584acc1fab34dd0ef495eda44", "lat": 38.91073766666667, "fusion_lat": 0.0, "bike_id": "5a46922584acc1fab34dd0ef495eda44", "is_reserved": 0, "lon": -77.00452666666666, "is_disabled": 0, "fusion_lon": 0.0, "rental_uris": {"android": "https://dc.lft.to/lastmile_qr_scan", "ios": "https://dc.lft.to/lastmile_qr_scan"}}, {"type": "electric_scooter", "name": "6af44c49e412b76a9dad152b9de10902", "lat": 38.923581, "fusion_lat": 0.0, "bike_id": "6af44c49e412b76a9dad152b9de10902", "is_reserved": 0, "lon": -77.04151616666667, "is_disabled": 0, "fusion_lon": 0.0, "rental_uris": {"android": "https://dc.lft.to/lastmile_qr_scan", "ios": "https://dc.lft.to/lastmile_qr_scan"}}, {"type": "electric_scooter", "name": "3470f12082125c3bd3ee2f5ac6c52c8c", "lat": 38.908560666666666, "fusion_lat": 0.0, "bike_id": "3470f12082125c3bd3ee2f5ac6c52c8c", "is_reserved": 0, "lon": -77.01969916666667, "is_disabled": 0, "fusion_lon": 0.0, "rental_uris": {"android": "https://dc.lft.to/lastmile_qr_scan", "ios": "https://dc.lft.to/lastmile_qr_scan"}}, {"type": "electric_scooter", "name": "514ab5ffb108dbb87f4e9e9b52a9e7e8", "lat": 38.87784666666667, "fusion_lat": 0.0, "bike_id": "514ab5ffb108dbb87f4e9e9b52a9e7e8", "is_reserved": 0, "lon": -76.99409483333334, "is_disabled": 0, "fusion_lon": 0.0, "rental_uris": {"android": "https://dc.lft.to/lastmile_qr_scan", "ios": "https://dc.lft.to/lastmile_qr_scan"}}, {"type": "electric_scooter", "name": "92d05a8d8a0c11dfd30a5c7391d01410", "lat": 38.904122, "fusion_lat": 0.0, "bike_id": "92d05a8d8a0c11dfd30a5c7391d01410", "is_reserved": 0, "lon": -76.97330733333334, "is_disabled": 0, "fusion_lon": 0.0, "rental_uris": {"android": "https://dc.lft.to/lastmile_qr_scan", "ios": "https://dc.lft.to/lastmile_qr_scan"}}, {"type": "electric_scooter", "name": "6d9b2cfd18deb58d5a698da8a7ca9c44", "lat": 38.89239083333333, "fusion_lat": 0.0, "bike_id": "6d9b2cfd18deb58d5a698da8a7ca9c44", "is_reserved": 0, "lon": -77.03209533333333, "is_disabled": 0, "fusion_lon": 0.0, "rental_uris": {"android": "https://dc.lft.to/lastmile_qr_scan", "ios": "https://dc.lft.to/lastmile_qr_scan"}}, {"type": "electric_scooter", "name": "c7594185d6642f69236251aadcdb43f2", "lat": 38.92325483333333, "fusion_lat": 0.0, "bike_id": "c7594185d6642f69236251aadcdb43f2", "is_reserved": 0, "lon": -77.019548, "is_disabled": 0, "fusion_lon": 0.0, "rental_uris": {"android": "https://dc.lft.to/lastmile_qr_scan", "ios": "https://dc.lft.to/lastmile_qr_scan"}}, {"type": "electric_scooter", "name": "426510e17e8f7a01fcbb3782de947daf", "lat": 38.901369833333334, "fusion_lat": 0.0, "bike_id": "426510e17e8f7a01fcbb3782de947daf", "is_reserved": 0, "lon": -77.0322885, "is_disabled": 0, "fusion_lon": 0.0, "rental_uris": {"android": "https://dc.lft.to/lastmile_qr_scan", "ios": "https://dc.lft.to/lastmile_qr_scan"}}, {"type": "electric_scooter", "name": "c2d25d623974719843f4af6eb00c810f", "lat": 38.905809833333336, "fusion_lat": 0.0, "bike_id": "c2d25d623974719843f4af6eb00c810f", "is_reserved": 0, "lon": -77.05143116666666, "is_disabled": 0, "fusion_lon": 0.0, "rental_uris": {"android": "https://dc.lft.to/lastmile_qr_scan", "ios": "https://dc.lft.to/lastmile_qr_scan"}}, {"type": "electric_scooter", "name": "3e00864cc15128d77ce329aa7c1669be", "lat": 38.928821166666665, "fusion_lat": 0.0, "bike_id": "3e00864cc15128d77ce329aa7c1669be", "is_reserved": 0, "lon": -77.03436066666667, "is_disabled": 0, "fusion_lon": 0.0, "rental_uris": {"android": "https://dc.lft.to/lastmile_qr_scan", "ios": "https://dc.lft.to/lastmile_qr_scan"}}, {"type": "electric_scooter", "name": "b0febc730a764f7723e5b5013e8dd07a", "lat": 38.892397833333334, "fusion_lat": 0.0, "bike_id": "b0febc730a764f7723e5b5013e8dd07a", "is_reserved": 0, "lon": -77.01768533333333, "is_disabled": 0, "fusion_lon": 0.0, "rental_uris": {"android": "https://dc.lft.to/lastmile_qr_scan", "ios": "https://dc.lft.to/lastmile_qr_scan"}}, {"type": "electric_scooter", "name": "d4c3f5685606aade480564cbebc3d4cc", "lat": 38.914173166666664, "fusion_lat": 0.0, "bike_id": "d4c3f5685606aade480564cbebc3d4cc", "is_reserved": 0, "lon": -77.0233275, "is_disabled": 0, "fusion_lon": 0.0, "rental_uris": {"android": "https://dc.lft.to/lastmile_qr_scan", "ios": "https://dc.lft.to/lastmile_qr_scan"}}, {"type": "electric_scooter", "name": "057e30980e89e4198de46e950e7bc5d0", "lat": 38.91768883333334, "fusion_lat": 0.0, "bike_id": "057e30980e89e4198de46e950e7bc5d0", "is_reserved": 0, "lon": -77.0280585, "is_disabled": 0, "fusion_lon": 0.0, "rental_uris": {"android": "https://dc.lft.to/lastmile_qr_scan", "ios": "https://dc.lft.to/lastmile_qr_scan"}}, {"type": "electric_scooter", "name": "a43ea64fb1df824d463ec070dc9c7bb8", "lat": 38.920386, "fusion_lat": 0.0, "bike_id": "a43ea64fb1df824d463ec070dc9c7bb8", "is_reserved": 0, "lon": -77.01744466666666, "is_disabled": 0, "fusion_lon": 0.0, "rental_uris": {"android": "https://dc.lft.to/lastmile_qr_scan", "ios": "https://dc.lft.to/lastmile_qr_scan"}}, {"type": "electric_scooter", "name": "536bb997932a9e944a0a89ce634049bc", "lat": 38.87377633333333, "fusion_lat": 0.0, "bike_id": "536bb997932a9e944a0a89ce634049bc", "is_reserved": 0, "lon": -77.00114883333333, "is_disabled": 0, "fusion_lon": 0.0, "rental_uris": {"android": "https://dc.lft.to/lastmile_qr_scan", "ios": "https://dc.lft.to/lastmile_qr_scan"}}, {"type": "electric_scooter", "name": "d098f03face549ef2d6918e79b079591", "lat": 38.9340525, "fusion_lat": 0.0, "bike_id": "d098f03face549ef2d6918e79b079591", "is_reserved": 0, "lon": -77.0573995, "is_disabled": 0, "fusion_lon": 0.0, "rental_uris": {"android": "https://dc.lft.to/lastmile_qr_scan", "ios": "https://dc.lft.to/lastmile_qr_scan"}}, {"type": "electric_scooter", "name": "3040c25c5cf56cf69232d35ba00943d1", "lat": 38.920434, "fusion_lat": 0.0, "bike_id": "3040c25c5cf56cf69232d35ba00943d1", "is_reserved": 0, "lon": -77.01677216666667, "is_disabled": 0, "fusion_lon": 0.0, "rental_uris": {"android": "https://dc.lft.to/lastmile_qr_scan", "ios": "https://dc.lft.to/lastmile_qr_scan"}}, {"type": "electric_bike", "name": "29c82e92f24ce3444aa88dd7dfcebf9d", "lat": 38.931779166666665, "fusion_lat": 0.0, "bike_id": "29c82e92f24ce3444aa88dd7dfcebf9d", "is_reserved": 0, "lon": -77.03538566666667, "is_disabled": 0, "fusion_lon": 0.0, "rental_uris": {"android": "https://dc.lft.to/lastmile_qr_scan", "ios": "https://dc.lft.to/lastmile_qr_scan"}}, {"type": "electric_bike", "name": "a2dbe9c524c50ec26c7f33f54b63b2b7", "lat": 38.9722585, "fusion_lat": 0.0, "bike_id": "a2dbe9c524c50ec26c7f33f54b63b2b7", "is_reserved": 0, "lon": -77.01424533333333, "is_disabled": 0, "fusion_lon": 0.0, "rental_uris": {"android": "https://dc.lft.to/lastmile_qr_scan", "ios": "https://dc.lft.to/lastmile_qr_scan"}}, {"type": "electric_bike", "name": "767565e56e18c0d71e0780ff364c1431", "lat": 38.794714, "fusion_lat": 0.0, "bike_id": "767565e56e18c0d71e0780ff364c1431", "is_reserved": 0, "lon": -76.992482, "is_disabled": 0, "fusion_lon": 0.0, "rental_uris": {"android": "https://dc.lft.to/lastmile_qr_scan", "ios": "https://dc.lft.to/lastmile_qr_scan"}}, {"type": "electric_scooter", "name": "446e564f215ea9caa8c22d53c2925e0c", "lat": 38.90054466666667, "fusion_lat": 0.0, "bike_id": "446e564f215ea9caa8c22d53c2925e0c", "is_reserved": 0, "lon": -77.0021015, "is_disabled": 0, "fusion_lon": 0.0, "rental_uris": {"android": "https://dc.lft.to/lastmile_qr_scan", "ios": "https://dc.lft.to/lastmile_qr_scan"}}, {"type": "electric_scooter", "name": "6171356140952da5b8f6c61e4555937e", "lat": 38.94387733333333, "fusion_lat": 0.0, "bike_id": "6171356140952da5b8f6c61e4555937e", "is_reserved": 0, "lon": -77.07698316666666, "is_disabled": 0, "fusion_lon": 0.0, "rental_uris": {"android": "https://dc.lft.to/lastmile_qr_scan", "ios": "https://dc.lft.to/lastmile_qr_scan"}}, {"type": "electric_bike", "name": "786eb2b3134e773c7d0422425cab642d", "lat": 38.806597, "fusion_lat": 0.0, "bike_id": "786eb2b3134e773c7d0422425cab642d", "is_reserved": 0, "lon": -77.08762233333333, "is_disabled": 0, "fusion_lon": 0.0, "rental_uris": {"android": "https://dc.lft.to/lastmile_qr_scan", "ios": "https://dc.lft.to/lastmile_qr_scan"}}, {"type": "electric_scooter", "name": "c390f66478f46ddc5978c57880cb6204", "lat": 38.86693966666667, "fusion_lat": 0.0, "bike_id": "c390f66478f46ddc5978c57880cb6204", "is_reserved": 0, "lon": -76.98541483333334, "is_disabled": 0, "fusion_lon": 0.0, "rental_uris": {"android": "https://dc.lft.to/lastmile_qr_scan", "ios": "https://dc.lft.to/lastmile_qr_scan"}}, {"type": "electric_scooter", "name": "6228f3b9a2105f35047d0f94d72c7ea8", "lat": 38.9351475, "fusion_lat": 0.0, "bike_id": "6228f3b9a2105f35047d0f94d72c7ea8", "is_reserved": 0, "lon": -77.03338216666667, "is_disabled": 0, "fusion_lon": 0.0, "rental_uris": {"android": "https://dc.lft.to/lastmile_qr_scan", "ios": "https://dc.lft.to/lastmile_qr_scan"}}, {"type": "electric_scooter", "name": "699b218a679a8b8c631ec3423d67c5f5", "lat": 38.92931933333333, "fusion_lat": 0.0, "bike_id": "699b218a679a8b8c631ec3423d67c5f5", "is_reserved": 0, "lon": -77.0327415, "is_disabled": 0, "fusion_lon": 0.0, "rental_uris": {"android": "https://dc.lft.to/lastmile_qr_scan", "ios": "https://dc.lft.to/lastmile_qr_scan"}}, {"type": "electric_scooter", "name": "e2515dc7e0d3c47143a37eb87a4eb791", "lat": 38.902353833333336, "fusion_lat": 0.0, "bike_id": "e2515dc7e0d3c47143a37eb87a4eb791", "is_reserved": 0, "lon": -77.04350783333334, "is_disabled": 0, "fusion_lon": 0.0, "rental_uris": {"android": "https://dc.lft.to/lastmile_qr_scan", "ios": "https://dc.lft.to/lastmile_qr_scan"}}, {"type": "electric_scooter", "name": "066436040a1db831e5ec868f709a7078", "lat": 38.89738783333333, "fusion_lat": 0.0, "bike_id": "066436040a1db831e5ec868f709a7078", "is_reserved": 0, "lon": -77.02696466666667, "is_disabled": 0, "fusion_lon": 0.0, "rental_uris": {"android": "https://dc.lft.to/lastmile_qr_scan", "ios": "https://dc.lft.to/lastmile_qr_scan"}}, {"type": "electric_scooter", "name": "8c2ffbef79ffece6c40270cdc0d9758f", "lat": 38.9075975, "fusion_lat": 0.0, "bike_id": "8c2ffbef79ffece6c40270cdc0d9758f", "is_reserved": 0, "lon": -77.0308775, "is_disabled": 0, "fusion_lon": 0.0, "rental_uris": {"android": "https://dc.lft.to/lastmile_qr_scan", "ios": "https://dc.lft.to/lastmile_qr_scan"}}, {"type": "electric_scooter", "name": "dcf08ae2de4cc1c335dc8e818704fb88", "lat": 38.9036365, "fusion_lat": 0.0, "bike_id": "dcf08ae2de4cc1c335dc8e818704fb88", "is_reserved": 0, "lon": -77.06025766666667, "is_disabled": 0, "fusion_lon": 0.0, "rental_uris": {"android": "https://dc.lft.to/lastmile_qr_scan", "ios": "https://dc.lft.to/lastmile_qr_scan"}}, {"type": "electric_scooter", "name": "10f8b0f41a519dd4f26031665dfa9591", "lat": 38.909841666666665, "fusion_lat": 0.0, "bike_id": "10f8b0f41a519dd4f26031665dfa9591", "is_reserved": 0, "lon": -77.04260383333333, "is_disabled": 0, "fusion_lon": 0.0, "rental_uris": {"android": "https://dc.lft.to/lastmile_qr_scan", "ios": "https://dc.lft.to/lastmile_qr_scan"}}, {"type": "electric_scooter", "name": "b460f074e8cc9116beb0d28786825efb", "lat": 38.932212666666665, "fusion_lat": 0.0, "bike_id": "b460f074e8cc9116beb0d28786825efb", "is_reserved": 0, "lon": -77.0326215, "is_disabled": 0, "fusion_lon": 0.0, "rental_uris": {"android": "https://dc.lft.to/lastmile_qr_scan", "ios": "https://dc.lft.to/lastmile_qr_scan"}}, {"type": "electric_scooter", "name": "0a34a2bac8dbf5cbff233ab8c2a96608", "lat": 38.90302966666667, "fusion_lat": 0.0, "bike_id": "0a34a2bac8dbf5cbff233ab8c2a96608", "is_reserved": 0, "lon": -77.031842, "is_disabled": 0, "fusion_lon": 0.0, "rental_uris": {"android": "https://dc.lft.to/lastmile_qr_scan", "ios": "https://dc.lft.to/lastmile_qr_scan"}}, {"type": "electric_scooter", "name": "d86d7e2742fde9c0874b10081e926023", "lat": 38.904842, "fusion_lat": 0.0, "bike_id": "d86d7e2742fde9c0874b10081e926023", "is_reserved": 0, "lon": -77.03912366666667, "is_disabled": 0, "fusion_lon": 0.0, "rental_uris": {"android": "https://dc.lft.to/lastmile_qr_scan", "ios": "https://dc.lft.to/lastmile_qr_scan"}}, {"type": "electric_scooter", "name": "dedbaa37d9ebf202b1bacc836a54e5cc", "lat": 38.88497566666667, "fusion_lat": 0.0, "bike_id": "dedbaa37d9ebf202b1bacc836a54e5cc", "is_reserved": 0, "lon": -77.00723016666667, "is_disabled": 0, "fusion_lon": 0.0, "rental_uris": {"android": "https://dc.lft.to/lastmile_qr_scan", "ios": "https://dc.lft.to/lastmile_qr_scan"}}, {"type": "electric_scooter", "name": "c8d71d20a5c8d890be6722e1979fc2b0", "lat": 38.896286, "fusion_lat": 0.0, "bike_id": "c8d71d20a5c8d890be6722e1979fc2b0", "is_reserved": 0, "lon": -77.02186783333333, "is_disabled": 0, "fusion_lon": 0.0, "rental_uris": {"android": "https://dc.lft.to/lastmile_qr_scan", "ios": "https://dc.lft.to/lastmile_qr_scan"}}, {"type": "electric_bike", "name": "d258058761068e9ea6fcdcaad80fdc7b", "lat": 38.87868116666667, "fusion_lat": 0.0, "bike_id": "d258058761068e9ea6fcdcaad80fdc7b", "is_reserved": 0, "lon": -76.98256983333333, "is_disabled": 0, "fusion_lon": 0.0, "rental_uris": {"android": "https://dc.lft.to/lastmile_qr_scan", "ios": "https://dc.lft.to/lastmile_qr_scan"}}, {"type": "electric_scooter", "name": "6c69574eb073d85869e45765a0a63ff3", "lat": 38.860390833333334, "fusion_lat": 0.0, "bike_id": "6c69574eb073d85869e45765a0a63ff3", "is_reserved": 0, "lon": -76.96706266666666, "is_disabled": 0, "fusion_lon": 0.0, "rental_uris": {"android": "https://dc.lft.to/lastmile_qr_scan", "ios": "https://dc.lft.to/lastmile_qr_scan"}}, {"type": "electric_scooter", "name": "09b027ba1109c5c8ac9b045963ba8da8", "lat": 38.909315166666666, "fusion_lat": 0.0, "bike_id": "09b027ba1109c5c8ac9b045963ba8da8", "is_reserved": 0, "lon": -77.02693033333334, "is_disabled": 0, "fusion_lon": 0.0, "rental_uris": {"android": "https://dc.lft.to/lastmile_qr_scan", "ios": "https://dc.lft.to/lastmile_qr_scan"}}, {"type": "electric_scooter", "name": "a6fdd0c5cd75643a9489d5467c769f25", "lat": 38.90259183333333, "fusion_lat": 0.0, "bike_id": "a6fdd0c5cd75643a9489d5467c769f25", "is_reserved": 0, "lon": -77.02645383333333, "is_disabled": 0, "fusion_lon": 0.0, "rental_uris": {"android": "https://dc.lft.to/lastmile_qr_scan", "ios": "https://dc.lft.to/lastmile_qr_scan"}}, {"type": "electric_scooter", "name": "646e1151911d30a7a68b88aafa3b2045", "lat": 38.95107316666667, "fusion_lat": 0.0, "bike_id": "646e1151911d30a7a68b88aafa3b2045", "is_reserved": 0, "lon": -77.09712716666667, "is_disabled": 0, "fusion_lon": 0.0, "rental_uris": {"android": "https://dc.lft.to/lastmile_qr_scan", "ios": "https://dc.lft.to/lastmile_qr_scan"}}, {"type": "electric_scooter", "name": "bef7c80a63403d4e3d502fec01975a21", "lat": 38.88490516666667, "fusion_lat": 0.0, "bike_id": "bef7c80a63403d4e3d502fec01975a21", "is_reserved": 0, "lon": -77.00710466666666, "is_disabled": 0, "fusion_lon": 0.0, "rental_uris": {"android": "https://dc.lft.to/lastmile_qr_scan", "ios": "https://dc.lft.to/lastmile_qr_scan"}}, {"type": "electric_scooter", "name": "dd9dc56e2b25c889b16a9a1f3b99c0b2", "lat": 38.92362816666667, "fusion_lat": 0.0, "bike_id": "dd9dc56e2b25c889b16a9a1f3b99c0b2", "is_reserved": 0, "lon": -77.01949716666667, "is_disabled": 0, "fusion_lon": 0.0, "rental_uris": {"android": "https://dc.lft.to/lastmile_qr_scan", "ios": "https://dc.lft.to/lastmile_qr_scan"}}, {"type": "electric_scooter", "name": "b28aac7c53b30ac954301f8fbd28e1f0", "lat": 38.9114125, "fusion_lat": 0.0, "bike_id": "b28aac7c53b30ac954301f8fbd28e1f0", "is_reserved": 0, "lon": -77.02197433333333, "is_disabled": 0, "fusion_lon": 0.0, "rental_uris": {"android": "https://dc.lft.to/lastmile_qr_scan", "ios": "https://dc.lft.to/lastmile_qr_scan"}}, {"type": "electric_bike", "name": "f8950c6caf9c1dbb272107d314b64311", "lat": 38.985156, "fusion_lat": 0.0, "bike_id": "f8950c6caf9c1dbb272107d314b64311", "is_reserved": 0, "lon": -76.9820545, "is_disabled": 0, "fusion_lon": 0.0, "rental_uris": {"android": "https://dc.lft.to/lastmile_qr_scan", "ios": "https://dc.lft.to/lastmile_qr_scan"}}, {"type": "electric_scooter", "name": "bc55272a43d83b38c0283f7e6cac5935", "lat": 38.912576333333334, "fusion_lat": 0.0, "bike_id": "bc55272a43d83b38c0283f7e6cac5935", "is_reserved": 0, "lon": -77.02548933333334, "is_disabled": 0, "fusion_lon": 0.0, "rental_uris": {"android": "https://dc.lft.to/lastmile_qr_scan", "ios": "https://dc.lft.to/lastmile_qr_scan"}}, {"type": "electric_scooter", "name": "6e34fbaf73f5444db156a1925f7ffe6a", "lat": 38.884312, "fusion_lat": 0.0, "bike_id": "6e34fbaf73f5444db156a1925f7ffe6a", "is_reserved": 0, "lon": -76.99596333333334, "is_disabled": 0, "fusion_lon": 0.0, "rental_uris": {"android": "https://dc.lft.to/lastmile_qr_scan", "ios": "https://dc.lft.to/lastmile_qr_scan"}}, {"type": "electric_scooter", "name": "23f314b7ea0ffa28ec0687636320e378", "lat": 38.9091125, "fusion_lat": 0.0, "bike_id": "23f314b7ea0ffa28ec0687636320e378", "is_reserved": 0, "lon": -77.02803316666666, "is_disabled": 0, "fusion_lon": 0.0, "rental_uris": {"android": "https://dc.lft.to/lastmile_qr_scan", "ios": "https://dc.lft.to/lastmile_qr_scan"}}, {"type": "electric_scooter", "name": "ad0f501d92dd7fc6d0649a195502787b", "lat": 38.90117433333333, "fusion_lat": 0.0, "bike_id": "ad0f501d92dd7fc6d0649a195502787b", "is_reserved": 0, "lon": -77.031859, "is_disabled": 0, "fusion_lon": 0.0, "rental_uris": {"android": "https://dc.lft.to/lastmile_qr_scan", "ios": "https://dc.lft.to/lastmile_qr_scan"}}, {"type": "electric_scooter", "name": "91b3588342efab40ffa751ac4f1859fe", "lat": 38.884902333333336, "fusion_lat": 0.0, "bike_id": "91b3588342efab40ffa751ac4f1859fe", "is_reserved": 0, "lon": -76.956529, "is_disabled": 0, "fusion_lon": 0.0, "rental_uris": {"android": "https://dc.lft.to/lastmile_qr_scan", "ios": "https://dc.lft.to/lastmile_qr_scan"}}, {"type": "electric_scooter", "name": "fc4af9a987355f9faa5a8dead029e849", "lat": 38.923221, "fusion_lat": 0.0, "bike_id": "fc4af9a987355f9faa5a8dead029e849", "is_reserved": 0, "lon": -77.04521316666667, "is_disabled": 0, "fusion_lon": 0.0, "rental_uris": {"android": "https://dc.lft.to/lastmile_qr_scan", "ios": "https://dc.lft.to/lastmile_qr_scan"}}, {"type": "electric_scooter", "name": "4de2cb25f3f5d908575a55adaa04e140", "lat": 38.92747466666667, "fusion_lat": 0.0, "bike_id": "4de2cb25f3f5d908575a55adaa04e140", "is_reserved": 0, "lon": -77.0330545, "is_disabled": 0, "fusion_lon": 0.0, "rental_uris": {"android": "https://dc.lft.to/lastmile_qr_scan", "ios": "https://dc.lft.to/lastmile_qr_scan"}}, {"type": "electric_scooter", "name": "fa0fba74aa95f176b0a99aaf5634a36e", "lat": 38.92420383333334, "fusion_lat": 0.0, "bike_id": "fa0fba74aa95f176b0a99aaf5634a36e", "is_reserved": 0, "lon": -77.01942766666667, "is_disabled": 0, "fusion_lon": 0.0, "rental_uris": {"android": "https://dc.lft.to/lastmile_qr_scan", "ios": "https://dc.lft.to/lastmile_qr_scan"}}, {"type": "electric_scooter", "name": "83aeb53e3c989132b66fa2ba9b14e14c", "lat": 38.874020333333334, "fusion_lat": 0.0, "bike_id": "83aeb53e3c989132b66fa2ba9b14e14c", "is_reserved": 0, "lon": -76.99997733333333, "is_disabled": 0, "fusion_lon": 0.0, "rental_uris": {"android": "https://dc.lft.to/lastmile_qr_scan", "ios": "https://dc.lft.to/lastmile_qr_scan"}}, {"type": "electric_scooter", "name": "0b125bbb1bbb2f177bd0297a8f9dcec2", "lat": 38.903736, "fusion_lat": 0.0, "bike_id": "0b125bbb1bbb2f177bd0297a8f9dcec2", "is_reserved": 0, "lon": -77.04023633333334, "is_disabled": 0, "fusion_lon": 0.0, "rental_uris": {"android": "https://dc.lft.to/lastmile_qr_scan", "ios": "https://dc.lft.to/lastmile_qr_scan"}}, {"type": "electric_scooter", "name": "0374dedbfc9ee0a53b9442ba624fb89f", "lat": 38.90185266666667, "fusion_lat": 0.0, "bike_id": "0374dedbfc9ee0a53b9442ba624fb89f", "is_reserved": 0, "lon": -77.05892866666667, "is_disabled": 0, "fusion_lon": 0.0, "rental_uris": {"android": "https://dc.lft.to/lastmile_qr_scan", "ios": "https://dc.lft.to/lastmile_qr_scan"}}, {"type": "electric_scooter", "name": "79d817027f46c3cedf998754416e84c6", "lat": 38.88747383333333, "fusion_lat": 0.0, "bike_id": "79d817027f46c3cedf998754416e84c6", "is_reserved": 0, "lon": -77.02226783333333, "is_disabled": 0, "fusion_lon": 0.0, "rental_uris": {"android": "https://dc.lft.to/lastmile_qr_scan", "ios": "https://dc.lft.to/lastmile_qr_scan"}}, {"type": "electric_scooter", "name": "7569622ff7a2d7b342ea5b58ba206ecd", "lat": 38.95201016666667, "fusion_lat": 0.0, "bike_id": "7569622ff7a2d7b342ea5b58ba206ecd", "is_reserved": 0, "lon": -77.02733916666666, "is_disabled": 0, "fusion_lon": 0.0, "rental_uris": {"android": "https://dc.lft.to/lastmile_qr_scan", "ios": "https://dc.lft.to/lastmile_qr_scan"}}, {"type": "electric_scooter", "name": "48c912414d30d55933a7b738ccda6aef", "lat": 38.924789833333335, "fusion_lat": 0.0, "bike_id": "48c912414d30d55933a7b738ccda6aef", "is_reserved": 0, "lon": -77.0221355, "is_disabled": 0, "fusion_lon": 0.0, "rental_uris": {"android": "https://dc.lft.to/lastmile_qr_scan", "ios": "https://dc.lft.to/lastmile_qr_scan"}}, {"type": "electric_scooter", "name": "c1e19ed37e3ca3f468fd4d3267e43d32", "lat": 38.896870666666665, "fusion_lat": 0.0, "bike_id": "c1e19ed37e3ca3f468fd4d3267e43d32", "is_reserved": 0, "lon": -77.02390583333333, "is_disabled": 0, "fusion_lon": 0.0, "rental_uris": {"android": "https://dc.lft.to/lastmile_qr_scan", "ios": "https://dc.lft.to/lastmile_qr_scan"}}, {"type": "electric_scooter", "name": "bbf0fdc520f2027af98a2d65074cbe8a", "lat": 38.89248883333333, "fusion_lat": 0.0, "bike_id": "bbf0fdc520f2027af98a2d65074cbe8a", "is_reserved": 0, "lon": -77.03955816666667, "is_disabled": 0, "fusion_lon": 0.0, "rental_uris": {"android": "https://dc.lft.to/lastmile_qr_scan", "ios": "https://dc.lft.to/lastmile_qr_scan"}}, {"type": "electric_scooter", "name": "532b3cee75a2e6c3833c7c9c4bd0b664", "lat": 38.903151333333334, "fusion_lat": 0.0, "bike_id": "532b3cee75a2e6c3833c7c9c4bd0b664", "is_reserved": 0, "lon": -77.034601, "is_disabled": 0, "fusion_lon": 0.0, "rental_uris": {"android": "https://dc.lft.to/lastmile_qr_scan", "ios": "https://dc.lft.to/lastmile_qr_scan"}}, {"type": "electric_scooter", "name": "f9069f4993999c06232e2186d4f7f5e8", "lat": 38.896206, "fusion_lat": 0.0, "bike_id": "f9069f4993999c06232e2186d4f7f5e8", "is_reserved": 0, "lon": -77.0091875, "is_disabled": 0, "fusion_lon": 0.0, "rental_uris": {"android": "https://dc.lft.to/lastmile_qr_scan", "ios": "https://dc.lft.to/lastmile_qr_scan"}}, {"type": "electric_scooter", "name": "ef1a7f7b93fff1afc3cc1a6ed7a41842", "lat": 38.90913333333334, "fusion_lat": 0.0, "bike_id": "ef1a7f7b93fff1afc3cc1a6ed7a41842", "is_reserved": 0, "lon": -77.07185933333334, "is_disabled": 0, "fusion_lon": 0.0, "rental_uris": {"android": "https://dc.lft.to/lastmile_qr_scan", "ios": "https://dc.lft.to/lastmile_qr_scan"}}, {"type": "electric_scooter", "name": "7ab90c6ac882d035496a0188c26cb2fb", "lat": 38.91709766666666, "fusion_lat": 0.0, "bike_id": "7ab90c6ac882d035496a0188c26cb2fb", "is_reserved": 0, "lon": -77.03219766666666, "is_disabled": 0, "fusion_lon": 0.0, "rental_uris": {"android": "https://dc.lft.to/lastmile_qr_scan", "ios": "https://dc.lft.to/lastmile_qr_scan"}}, {"type": "electric_scooter", "name": "959d85c5500f2af2b61b31e0a8eedb4f", "lat": 38.93074566666667, "fusion_lat": 0.0, "bike_id": "959d85c5500f2af2b61b31e0a8eedb4f", "is_reserved": 0, "lon": -77.03203333333333, "is_disabled": 0, "fusion_lon": 0.0, "rental_uris": {"android": "https://dc.lft.to/lastmile_qr_scan", "ios": "https://dc.lft.to/lastmile_qr_scan"}}, {"type": "electric_scooter", "name": "0abbbccbab1c363c647e6d9fd920c677", "lat": 38.87464666666666, "fusion_lat": 0.0, "bike_id": "0abbbccbab1c363c647e6d9fd920c677", "is_reserved": 0, "lon": -77.00486233333334, "is_disabled": 0, "fusion_lon": 0.0, "rental_uris": {"android": "https://dc.lft.to/lastmile_qr_scan", "ios": "https://dc.lft.to/lastmile_qr_scan"}}, {"type": "electric_scooter", "name": "39c025cd7682b5e89cfe9260d0b95595", "lat": 38.9039765, "fusion_lat": 0.0, "bike_id": "39c025cd7682b5e89cfe9260d0b95595", "is_reserved": 0, "lon": -77.0400455, "is_disabled": 0, "fusion_lon": 0.0, "rental_uris": {"android": "https://dc.lft.to/lastmile_qr_scan", "ios": "https://dc.lft.to/lastmile_qr_scan"}}, {"type": "electric_scooter", "name": "054cb2fa0c1780ebbeb03f5cafefb941", "lat": 38.865651, "fusion_lat": 0.0, "bike_id": "054cb2fa0c1780ebbeb03f5cafefb941", "is_reserved": 0, "lon": -76.9833735, "is_disabled": 0, "fusion_lon": 0.0, "rental_uris": {"android": "https://dc.lft.to/lastmile_qr_scan", "ios": "https://dc.lft.to/lastmile_qr_scan"}}, {"type": "electric_scooter", "name": "9c3ab7e3023a5e3e7ecec607abaa6e78", "lat": 38.8922575, "fusion_lat": 0.0, "bike_id": "9c3ab7e3023a5e3e7ecec607abaa6e78", "is_reserved": 0, "lon": -77.04516983333333, "is_disabled": 0, "fusion_lon": 0.0, "rental_uris": {"android": "https://dc.lft.to/lastmile_qr_scan", "ios": "https://dc.lft.to/lastmile_qr_scan"}}, {"type": "electric_scooter", "name": "13d52608cce1aac2e92d2e7310a2b927", "lat": 38.90274316666667, "fusion_lat": 0.0, "bike_id": "13d52608cce1aac2e92d2e7310a2b927", "is_reserved": 0, "lon": -77.028308, "is_disabled": 0, "fusion_lon": 0.0, "rental_uris": {"android": "https://dc.lft.to/lastmile_qr_scan", "ios": "https://dc.lft.to/lastmile_qr_scan"}}, {"type": "electric_scooter", "name": "04044905d1e0775008ea81ccd3dd0270", "lat": 38.928959666666664, "fusion_lat": 0.0, "bike_id": "04044905d1e0775008ea81ccd3dd0270", "is_reserved": 0, "lon": -77.01672466666666, "is_disabled": 0, "fusion_lon": 0.0, "rental_uris": {"android": "https://dc.lft.to/lastmile_qr_scan", "ios": "https://dc.lft.to/lastmile_qr_scan"}}, {"type": "electric_scooter", "name": "2ba4d7d22aa085b5a6fd91a5a724bd8d", "lat": 38.90383033333333, "fusion_lat": 0.0, "bike_id": "2ba4d7d22aa085b5a6fd91a5a724bd8d", "is_reserved": 0, "lon": -77.03627616666667, "is_disabled": 0, "fusion_lon": 0.0, "rental_uris": {"android": "https://dc.lft.to/lastmile_qr_scan", "ios": "https://dc.lft.to/lastmile_qr_scan"}}, {"type": "electric_scooter", "name": "edc55b8d5950deedc6a557807a5e21b4", "lat": 38.923348, "fusion_lat": 0.0, "bike_id": "edc55b8d5950deedc6a557807a5e21b4", "is_reserved": 0, "lon": -77.04305716666667, "is_disabled": 0, "fusion_lon": 0.0, "rental_uris": {"android": "https://dc.lft.to/lastmile_qr_scan", "ios": "https://dc.lft.to/lastmile_qr_scan"}}, {"type": "electric_scooter", "name": "50275684808b1799839c6e15a5934e06", "lat": 38.892227166666665, "fusion_lat": 0.0, "bike_id": "50275684808b1799839c6e15a5934e06", "is_reserved": 0, "lon": -77.02641883333334, "is_disabled": 0, "fusion_lon": 0.0, "rental_uris": {"android": "https://dc.lft.to/lastmile_qr_scan", "ios": "https://dc.lft.to/lastmile_qr_scan"}}, {"type": "electric_scooter", "name": "6cc0a485052fafde76f8acbcf73bfd78", "lat": 38.899939, "fusion_lat": 0.0, "bike_id": "6cc0a485052fafde76f8acbcf73bfd78", "is_reserved": 0, "lon": -77.00690433333334, "is_disabled": 0, "fusion_lon": 0.0, "rental_uris": {"android": "https://dc.lft.to/lastmile_qr_scan", "ios": "https://dc.lft.to/lastmile_qr_scan"}}, {"type": "electric_scooter", "name": "45088e6b43e9f869035f17057b610ec6", "lat": 38.87907366666666, "fusion_lat": 0.0, "bike_id": "45088e6b43e9f869035f17057b610ec6", "is_reserved": 0, "lon": -77.021974, "is_disabled": 0, "fusion_lon": 0.0, "rental_uris": {"android": "https://dc.lft.to/lastmile_qr_scan", "ios": "https://dc.lft.to/lastmile_qr_scan"}}, {"type": "electric_scooter", "name": "3a65562b15ca2075172c3cf637151ed4", "lat": 38.91600866666667, "fusion_lat": 0.0, "bike_id": "3a65562b15ca2075172c3cf637151ed4", "is_reserved": 0, "lon": -77.02195833333333, "is_disabled": 0, "fusion_lon": 0.0, "rental_uris": {"android": "https://dc.lft.to/lastmile_qr_scan", "ios": "https://dc.lft.to/lastmile_qr_scan"}}, {"type": "electric_scooter", "name": "cffce32a0bb67ce1339f08c8721e43d0", "lat": 38.904849166666665, "fusion_lat": 0.0, "bike_id": "cffce32a0bb67ce1339f08c8721e43d0", "is_reserved": 0, "lon": -77.04363366666666, "is_disabled": 0, "fusion_lon": 0.0, "rental_uris": {"android": "https://dc.lft.to/lastmile_qr_scan", "ios": "https://dc.lft.to/lastmile_qr_scan"}}, {"type": "electric_scooter", "name": "e381766258ec7d2439ff00c3bd9c1b52", "lat": 38.901354, "fusion_lat": 0.0, "bike_id": "e381766258ec7d2439ff00c3bd9c1b52", "is_reserved": 0, "lon": -77.018103, "is_disabled": 0, "fusion_lon": 0.0, "rental_uris": {"android": "https://dc.lft.to/lastmile_qr_scan", "ios": "https://dc.lft.to/lastmile_qr_scan"}}, {"type": "electric_scooter", "name": "8fd9da552ecf2e0f348284cb2631f90d", "lat": 38.899694833333335, "fusion_lat": 0.0, "bike_id": "8fd9da552ecf2e0f348284cb2631f90d", "is_reserved": 0, "lon": -77.0338835, "is_disabled": 0, "fusion_lon": 0.0, "rental_uris": {"android": "https://dc.lft.to/lastmile_qr_scan", "ios": "https://dc.lft.to/lastmile_qr_scan"}}, {"type": "electric_scooter", "name": "1be3dddab9df41e7089cd2dddd08ddb3", "lat": 38.88363966666667, "fusion_lat": 0.0, "bike_id": "1be3dddab9df41e7089cd2dddd08ddb3", "is_reserved": 0, "lon": -77.0280685, "is_disabled": 0, "fusion_lon": 0.0, "rental_uris": {"android": "https://dc.lft.to/lastmile_qr_scan", "ios": "https://dc.lft.to/lastmile_qr_scan"}}, {"type": "electric_scooter", "name": "ed8ddbc26a35cbdb745feb5ac6f2b4f5", "lat": 38.928576, "fusion_lat": 0.0, "bike_id": "ed8ddbc26a35cbdb745feb5ac6f2b4f5", "is_reserved": 0, "lon": -77.0360785, "is_disabled": 0, "fusion_lon": 0.0, "rental_uris": {"android": "https://dc.lft.to/lastmile_qr_scan", "ios": "https://dc.lft.to/lastmile_qr_scan"}}, {"type": "electric_bike", "name": "563703524e2d3268be7c5e0637f6e55e", "lat": 38.848318, "fusion_lat": 0.0, "bike_id": "563703524e2d3268be7c5e0637f6e55e", "is_reserved": 0, "lon": -77.0790445, "is_disabled": 0, "fusion_lon": 0.0, "rental_uris": {"android": "https://dc.lft.to/lastmile_qr_scan", "ios": "https://dc.lft.to/lastmile_qr_scan"}}, {"type": "electric_scooter", "name": "506aa5006eca770ef684c791f10b45c4", "lat": 38.917053, "fusion_lat": 0.0, "bike_id": "506aa5006eca770ef684c791f10b45c4", "is_reserved": 0, "lon": -77.028419, "is_disabled": 0, "fusion_lon": 0.0, "rental_uris": {"android": "https://dc.lft.to/lastmile_qr_scan", "ios": "https://dc.lft.to/lastmile_qr_scan"}}, {"type": "electric_scooter", "name": "ec371a75891fa431fa93f30aeb26a385", "lat": 38.900222666666664, "fusion_lat": 0.0, "bike_id": "ec371a75891fa431fa93f30aeb26a385", "is_reserved": 0, "lon": -77.04143366666666, "is_disabled": 0, "fusion_lon": 0.0, "rental_uris": {"android": "https://dc.lft.to/lastmile_qr_scan", "ios": "https://dc.lft.to/lastmile_qr_scan"}}, {"type": "electric_scooter", "name": "90b2dda8198f62825c464e41b99349f5", "lat": 38.892262833333334, "fusion_lat": 0.0, "bike_id": "90b2dda8198f62825c464e41b99349f5", "is_reserved": 0, "lon": -77.0432955, "is_disabled": 0, "fusion_lon": 0.0, "rental_uris": {"android": "https://dc.lft.to/lastmile_qr_scan", "ios": "https://dc.lft.to/lastmile_qr_scan"}}, {"type": "electric_scooter", "name": "36bf7f527332950154ba98b538fc9984", "lat": 38.9013385, "fusion_lat": 0.0, "bike_id": "36bf7f527332950154ba98b538fc9984", "is_reserved": 0, "lon": -77.04347866666667, "is_disabled": 0, "fusion_lon": 0.0, "rental_uris": {"android": "https://dc.lft.to/lastmile_qr_scan", "ios": "https://dc.lft.to/lastmile_qr_scan"}}, {"type": "electric_scooter", "name": "f8376f03590859028f76409f6cf97f4a", "lat": 38.90169066666667, "fusion_lat": 0.0, "bike_id": "f8376f03590859028f76409f6cf97f4a", "is_reserved": 0, "lon": -76.93069916666667, "is_disabled": 0, "fusion_lon": 0.0, "rental_uris": {"android": "https://dc.lft.to/lastmile_qr_scan", "ios": "https://dc.lft.to/lastmile_qr_scan"}}, {"type": "electric_scooter", "name": "127f31751ac24d7672457e1df2f7f8a0", "lat": 38.9057065, "fusion_lat": 0.0, "bike_id": "127f31751ac24d7672457e1df2f7f8a0", "is_reserved": 0, "lon": -77.04335383333333, "is_disabled": 0, "fusion_lon": 0.0, "rental_uris": {"android": "https://dc.lft.to/lastmile_qr_scan", "ios": "https://dc.lft.to/lastmile_qr_scan"}}, {"type": "electric_bike", "name": "97dd77350e4310f7b11a24b2d91c8e71", "lat": 38.88652966666667, "fusion_lat": 0.0, "bike_id": "97dd77350e4310f7b11a24b2d91c8e71", "is_reserved": 0, "lon": -77.02828733333334, "is_disabled": 0, "fusion_lon": 0.0, "rental_uris": {"android": "https://dc.lft.to/lastmile_qr_scan", "ios": "https://dc.lft.to/lastmile_qr_scan"}}, {"type": "electric_scooter", "name": "50c9dea6adb712083df7e511fac4992b", "lat": 38.876261666666664, "fusion_lat": 0.0, "bike_id": "50c9dea6adb712083df7e511fac4992b", "is_reserved": 0, "lon": -77.00931283333334, "is_disabled": 0, "fusion_lon": 0.0, "rental_uris": {"android": "https://dc.lft.to/lastmile_qr_scan", "ios": "https://dc.lft.to/lastmile_qr_scan"}}, {"type": "electric_scooter", "name": "a83c0a8c91612fd36c5d11534bfe1bfe", "lat": 38.90369616666667, "fusion_lat": 0.0, "bike_id": "a83c0a8c91612fd36c5d11534bfe1bfe", "is_reserved": 0, "lon": -77.03853566666666, "is_disabled": 0, "fusion_lon": 0.0, "rental_uris": {"android": "https://dc.lft.to/lastmile_qr_scan", "ios": "https://dc.lft.to/lastmile_qr_scan"}}, {"type": "electric_scooter", "name": "c8890ae417d6aaeb803fc2691011310a", "lat": 38.92598316666667, "fusion_lat": 0.0, "bike_id": "c8890ae417d6aaeb803fc2691011310a", "is_reserved": 0, "lon": -77.02163733333333, "is_disabled": 0, "fusion_lon": 0.0, "rental_uris": {"android": "https://dc.lft.to/lastmile_qr_scan", "ios": "https://dc.lft.to/lastmile_qr_scan"}}, {"type": "electric_scooter", "name": "5c52c2ddf52c1c2fdc0e045a78ef42a0", "lat": 38.91620283333334, "fusion_lat": 0.0, "bike_id": "5c52c2ddf52c1c2fdc0e045a78ef42a0", "is_reserved": 0, "lon": -77.04878283333333, "is_disabled": 0, "fusion_lon": 0.0, "rental_uris": {"android": "https://dc.lft.to/lastmile_qr_scan", "ios": "https://dc.lft.to/lastmile_qr_scan"}}, {"type": "electric_bike", "name": "bc5baf83d308d06e24e6c6b725bec97b", "lat": 38.91773083333333, "fusion_lat": 0.0, "bike_id": "bc5baf83d308d06e24e6c6b725bec97b", "is_reserved": 0, "lon": -77.04768383333334, "is_disabled": 0, "fusion_lon": 0.0, "rental_uris": {"android": "https://dc.lft.to/lastmile_qr_scan", "ios": "https://dc.lft.to/lastmile_qr_scan"}}, {"type": "electric_scooter", "name": "64943886cf05366ac7ba660973a6be01", "lat": 38.8952525, "fusion_lat": 0.0, "bike_id": "64943886cf05366ac7ba660973a6be01", "is_reserved": 0, "lon": -77.02291033333333, "is_disabled": 0, "fusion_lon": 0.0, "rental_uris": {"android": "https://dc.lft.to/lastmile_qr_scan", "ios": "https://dc.lft.to/lastmile_qr_scan"}}, {"type": "electric_bike", "name": "54b91f4bb86799cfc0035622be1daa4b", "lat": 38.813339666666664, "fusion_lat": 0.0, "bike_id": "54b91f4bb86799cfc0035622be1daa4b", "is_reserved": 0, "lon": -77.05115966666666, "is_disabled": 0, "fusion_lon": 0.0, "rental_uris": {"android": "https://dc.lft.to/lastmile_qr_scan", "ios": "https://dc.lft.to/lastmile_qr_scan"}}, {"type": "electric_scooter", "name": "245a9ef9e9e9da6c7b80911b50d92bae", "lat": 38.898949333333334, "fusion_lat": 0.0, "bike_id": "245a9ef9e9e9da6c7b80911b50d92bae", "is_reserved": 0, "lon": -77.01864833333333, "is_disabled": 0, "fusion_lon": 0.0, "rental_uris": {"android": "https://dc.lft.to/lastmile_qr_scan", "ios": "https://dc.lft.to/lastmile_qr_scan"}}, {"type": "electric_scooter", "name": "0414a422ebfe798b0f8cf65353a4c994", "lat": 38.901580833333334, "fusion_lat": 0.0, "bike_id": "0414a422ebfe798b0f8cf65353a4c994", "is_reserved": 0, "lon": -76.97627366666667, "is_disabled": 0, "fusion_lon": 0.0, "rental_uris": {"android": "https://dc.lft.to/lastmile_qr_scan", "ios": "https://dc.lft.to/lastmile_qr_scan"}}, {"type": "electric_scooter", "name": "1c822e8163077b0e1c8ad2a9603f29f8", "lat": 38.899734, "fusion_lat": 0.0, "bike_id": "1c822e8163077b0e1c8ad2a9603f29f8", "is_reserved": 0, "lon": -77.045165, "is_disabled": 0, "fusion_lon": 0.0, "rental_uris": {"android": "https://dc.lft.to/lastmile_qr_scan", "ios": "https://dc.lft.to/lastmile_qr_scan"}}, {"type": "electric_scooter", "name": "06cec331527bc2c2b814e1c8c601b9ae", "lat": 38.90780133333333, "fusion_lat": 0.0, "bike_id": "06cec331527bc2c2b814e1c8c601b9ae", "is_reserved": 0, "lon": -77.0716515, "is_disabled": 0, "fusion_lon": 0.0, "rental_uris": {"android": "https://dc.lft.to/lastmile_qr_scan", "ios": "https://dc.lft.to/lastmile_qr_scan"}}, {"type": "electric_scooter", "name": "794077b02d32ccef79b2a1a981e6f29c", "lat": 38.8756935, "fusion_lat": 0.0, "bike_id": "794077b02d32ccef79b2a1a981e6f29c", "is_reserved": 0, "lon": -77.00934583333333, "is_disabled": 0, "fusion_lon": 0.0, "rental_uris": {"android": "https://dc.lft.to/lastmile_qr_scan", "ios": "https://dc.lft.to/lastmile_qr_scan"}}, {"type": "electric_bike", "name": "0332366c955a3cd1d5b4de4284bd3488", "lat": 38.8824845, "fusion_lat": 0.0, "bike_id": "0332366c955a3cd1d5b4de4284bd3488", "is_reserved": 0, "lon": -76.96259216666667, "is_disabled": 0, "fusion_lon": 0.0, "rental_uris": {"android": "https://dc.lft.to/lastmile_qr_scan", "ios": "https://dc.lft.to/lastmile_qr_scan"}}, {"type": "electric_scooter", "name": "9ca80900c93808b6a4e359ca31047839", "lat": 38.884913, "fusion_lat": 0.0, "bike_id": "9ca80900c93808b6a4e359ca31047839", "is_reserved": 0, "lon": -77.01527883333333, "is_disabled": 0, "fusion_lon": 0.0, "rental_uris": {"android": "https://dc.lft.to/lastmile_qr_scan", "ios": "https://dc.lft.to/lastmile_qr_scan"}}, {"type": "electric_scooter", "name": "64ae705915c0fc932b12e019ee1df757", "lat": 38.89615033333333, "fusion_lat": 0.0, "bike_id": "64ae705915c0fc932b12e019ee1df757", "is_reserved": 0, "lon": -77.02377, "is_disabled": 0, "fusion_lon": 0.0, "rental_uris": {"android": "https://dc.lft.to/lastmile_qr_scan", "ios": "https://dc.lft.to/lastmile_qr_scan"}}, {"type": "electric_scooter", "name": "850733720f3652c8e04ec2900ef8e267", "lat": 38.916565166666665, "fusion_lat": 0.0, "bike_id": "850733720f3652c8e04ec2900ef8e267", "is_reserved": 0, "lon": -77.0228065, "is_disabled": 0, "fusion_lon": 0.0, "rental_uris": {"android": "https://dc.lft.to/lastmile_qr_scan", "ios": "https://dc.lft.to/lastmile_qr_scan"}}, {"type": "electric_scooter", "name": "584e50ab090371a20dbc44a530947be6", "lat": 38.882297333333334, "fusion_lat": 0.0, "bike_id": "584e50ab090371a20dbc44a530947be6", "is_reserved": 0, "lon": -76.98974933333334, "is_disabled": 0, "fusion_lon": 0.0, "rental_uris": {"android": "https://dc.lft.to/lastmile_qr_scan", "ios": "https://dc.lft.to/lastmile_qr_scan"}}, {"type": "electric_scooter", "name": "bd6295bfa578a9660f12526675a1944f", "lat": 38.91410333333334, "fusion_lat": 0.0, "bike_id": "bd6295bfa578a9660f12526675a1944f", "is_reserved": 0, "lon": -77.01555866666666, "is_disabled": 0, "fusion_lon": 0.0, "rental_uris": {"android": "https://dc.lft.to/lastmile_qr_scan", "ios": "https://dc.lft.to/lastmile_qr_scan"}}, {"type": "electric_scooter", "name": "e5637a1e3846e153a25086a738e42adc", "lat": 38.91308883333333, "fusion_lat": 0.0, "bike_id": "e5637a1e3846e153a25086a738e42adc", "is_reserved": 0, "lon": -77.04868416666666, "is_disabled": 0, "fusion_lon": 0.0, "rental_uris": {"android": "https://dc.lft.to/lastmile_qr_scan", "ios": "https://dc.lft.to/lastmile_qr_scan"}}, {"type": "electric_scooter", "name": "e30dc7d597a4c2a60bdd744b5ba3f155", "lat": 38.94113383333333, "fusion_lat": 0.0, "bike_id": "e30dc7d597a4c2a60bdd744b5ba3f155", "is_reserved": 0, "lon": -77.07598, "is_disabled": 0, "fusion_lon": 0.0, "rental_uris": {"android": "https://dc.lft.to/lastmile_qr_scan", "ios": "https://dc.lft.to/lastmile_qr_scan"}}, {"type": "electric_scooter", "name": "9f5fcddb059eb563b76671da31f818a3", "lat": 38.90423166666667, "fusion_lat": 0.0, "bike_id": "9f5fcddb059eb563b76671da31f818a3", "is_reserved": 0, "lon": -77.00602916666666, "is_disabled": 0, "fusion_lon": 0.0, "rental_uris": {"android": "https://dc.lft.to/lastmile_qr_scan", "ios": "https://dc.lft.to/lastmile_qr_scan"}}, {"type": "electric_scooter", "name": "a039b112febe7d5db48e5ccd859a3522", "lat": 38.894979, "fusion_lat": 0.0, "bike_id": "a039b112febe7d5db48e5ccd859a3522", "is_reserved": 0, "lon": -77.017884, "is_disabled": 0, "fusion_lon": 0.0, "rental_uris": {"android": "https://dc.lft.to/lastmile_qr_scan", "ios": "https://dc.lft.to/lastmile_qr_scan"}}, {"type": "electric_scooter", "name": "d3ce7bd0e911b9408b279a478d6cffd6", "lat": 38.86509483333333, "fusion_lat": 0.0, "bike_id": "d3ce7bd0e911b9408b279a478d6cffd6", "is_reserved": 0, "lon": -76.98997516666667, "is_disabled": 0, "fusion_lon": 0.0, "rental_uris": {"android": "https://dc.lft.to/lastmile_qr_scan", "ios": "https://dc.lft.to/lastmile_qr_scan"}}, {"type": "electric_scooter", "name": "c318abd44685fc79a90f1496703f6b49", "lat": 38.890800666666664, "fusion_lat": 0.0, "bike_id": "c318abd44685fc79a90f1496703f6b49", "is_reserved": 0, "lon": -76.98829516666666, "is_disabled": 0, "fusion_lon": 0.0, "rental_uris": {"android": "https://dc.lft.to/lastmile_qr_scan", "ios": "https://dc.lft.to/lastmile_qr_scan"}}, {"type": "electric_scooter", "name": "18851a09974fa1dd4731c6da60453adb", "lat": 38.91623166666667, "fusion_lat": 0.0, "bike_id": "18851a09974fa1dd4731c6da60453adb", "is_reserved": 0, "lon": -77.04156316666666, "is_disabled": 0, "fusion_lon": 0.0, "rental_uris": {"android": "https://dc.lft.to/lastmile_qr_scan", "ios": "https://dc.lft.to/lastmile_qr_scan"}}, {"type": "electric_scooter", "name": "e4918147e49bcd3f7621cab5bca4f72b", "lat": 38.89846383333333, "fusion_lat": 0.0, "bike_id": "e4918147e49bcd3f7621cab5bca4f72b", "is_reserved": 0, "lon": -77.00738, "is_disabled": 0, "fusion_lon": 0.0, "rental_uris": {"android": "https://dc.lft.to/lastmile_qr_scan", "ios": "https://dc.lft.to/lastmile_qr_scan"}}, {"type": "electric_scooter", "name": "fbfe6a37905515311a0ee657483fe376", "lat": 38.88453883333333, "fusion_lat": 0.0, "bike_id": "fbfe6a37905515311a0ee657483fe376", "is_reserved": 0, "lon": -76.95097, "is_disabled": 0, "fusion_lon": 0.0, "rental_uris": {"android": "https://dc.lft.to/lastmile_qr_scan", "ios": "https://dc.lft.to/lastmile_qr_scan"}}, {"type": "electric_scooter", "name": "818396a69bf38679efd6bc83332411dc", "lat": 38.909638666666666, "fusion_lat": 0.0, "bike_id": "818396a69bf38679efd6bc83332411dc", "is_reserved": 0, "lon": -77.0230975, "is_disabled": 0, "fusion_lon": 0.0, "rental_uris": {"android": "https://dc.lft.to/lastmile_qr_scan", "ios": "https://dc.lft.to/lastmile_qr_scan"}}, {"type": "electric_scooter", "name": "9dc84da98f3bbec89f9c2152054d3344", "lat": 38.91699366666667, "fusion_lat": 0.0, "bike_id": "9dc84da98f3bbec89f9c2152054d3344", "is_reserved": 0, "lon": -77.04346316666667, "is_disabled": 0, "fusion_lon": 0.0, "rental_uris": {"android": "https://dc.lft.to/lastmile_qr_scan", "ios": "https://dc.lft.to/lastmile_qr_scan"}}, {"type": "electric_scooter", "name": "2fc97b9696ca471663754981697724d3", "lat": 38.9318515, "fusion_lat": 0.0, "bike_id": "2fc97b9696ca471663754981697724d3", "is_reserved": 0, "lon": -77.04299266666666, "is_disabled": 0, "fusion_lon": 0.0, "rental_uris": {"android": "https://dc.lft.to/lastmile_qr_scan", "ios": "https://dc.lft.to/lastmile_qr_scan"}}, {"type": "electric_scooter", "name": "33893eefdd525f96c4f9765963b9f64c", "lat": 38.89911583333333, "fusion_lat": 0.0, "bike_id": "33893eefdd525f96c4f9765963b9f64c", "is_reserved": 0, "lon": -77.0329605, "is_disabled": 0, "fusion_lon": 0.0, "rental_uris": {"android": "https://dc.lft.to/lastmile_qr_scan", "ios": "https://dc.lft.to/lastmile_qr_scan"}}, {"type": "electric_scooter", "name": "6745381661dde6b17d47b7771da6d824", "lat": 38.90203966666667, "fusion_lat": 0.0, "bike_id": "6745381661dde6b17d47b7771da6d824", "is_reserved": 0, "lon": -76.98194083333334, "is_disabled": 0, "fusion_lon": 0.0, "rental_uris": {"android": "https://dc.lft.to/lastmile_qr_scan", "ios": "https://dc.lft.to/lastmile_qr_scan"}}, {"type": "electric_scooter", "name": "58bf06194dce1049bdcbc54ccbfd55df", "lat": 38.9082325, "fusion_lat": 0.0, "bike_id": "58bf06194dce1049bdcbc54ccbfd55df", "is_reserved": 0, "lon": -77.03836183333334, "is_disabled": 0, "fusion_lon": 0.0, "rental_uris": {"android": "https://dc.lft.to/lastmile_qr_scan", "ios": "https://dc.lft.to/lastmile_qr_scan"}}, {"type": "electric_scooter", "name": "abe1882556e98f068a984644c9f66ee2", "lat": 38.941307333333334, "fusion_lat": 0.0, "bike_id": "abe1882556e98f068a984644c9f66ee2", "is_reserved": 0, "lon": -77.0153965, "is_disabled": 0, "fusion_lon": 0.0, "rental_uris": {"android": "https://dc.lft.to/lastmile_qr_scan", "ios": "https://dc.lft.to/lastmile_qr_scan"}}, {"type": "electric_scooter", "name": "98e696772d39ac5f47f864b0c9a0205a", "lat": 38.960477166666664, "fusion_lat": 0.0, "bike_id": "98e696772d39ac5f47f864b0c9a0205a", "is_reserved": 0, "lon": -77.02798783333333, "is_disabled": 0, "fusion_lon": 0.0, "rental_uris": {"android": "https://dc.lft.to/lastmile_qr_scan", "ios": "https://dc.lft.to/lastmile_qr_scan"}}, {"type": "electric_scooter", "name": "a15d31c05aa729a6a5dad3b0471ceb56", "lat": 38.896648, "fusion_lat": 0.0, "bike_id": "a15d31c05aa729a6a5dad3b0471ceb56", "is_reserved": 0, "lon": -77.01902233333334, "is_disabled": 0, "fusion_lon": 0.0, "rental_uris": {"android": "https://dc.lft.to/lastmile_qr_scan", "ios": "https://dc.lft.to/lastmile_qr_scan"}}, {"type": "electric_scooter", "name": "1a65e2636ed08ea3387b6625ddf16fbf", "lat": 38.897343, "fusion_lat": 0.0, "bike_id": "1a65e2636ed08ea3387b6625ddf16fbf", "is_reserved": 0, "lon": -77.007543, "is_disabled": 0, "fusion_lon": 0.0, "rental_uris": {"android": "https://dc.lft.to/lastmile_qr_scan", "ios": "https://dc.lft.to/lastmile_qr_scan"}}, {"type": "electric_scooter", "name": "d024fc78629914fe0945d7cee955b8cc", "lat": 38.905226166666665, "fusion_lat": 0.0, "bike_id": "d024fc78629914fe0945d7cee955b8cc", "is_reserved": 0, "lon": -77.0448555, "is_disabled": 0, "fusion_lon": 0.0, "rental_uris": {"android": "https://dc.lft.to/lastmile_qr_scan", "ios": "https://dc.lft.to/lastmile_qr_scan"}}, {"type": "electric_scooter", "name": "9fde288a93b2c941019598f165a3ad52", "lat": 38.896305, "fusion_lat": 0.0, "bike_id": "9fde288a93b2c941019598f165a3ad52", "is_reserved": 0, "lon": -77.025923, "is_disabled": 0, "fusion_lon": 0.0, "rental_uris": {"android": "https://dc.lft.to/lastmile_qr_scan", "ios": "https://dc.lft.to/lastmile_qr_scan"}}, {"type": "electric_scooter", "name": "be068730cb38339e091719b3ad5cfd53", "lat": 38.93608866666667, "fusion_lat": 0.0, "bike_id": "be068730cb38339e091719b3ad5cfd53", "is_reserved": 0, "lon": -77.03789766666667, "is_disabled": 0, "fusion_lon": 0.0, "rental_uris": {"android": "https://dc.lft.to/lastmile_qr_scan", "ios": "https://dc.lft.to/lastmile_qr_scan"}}, {"type": "electric_scooter", "name": "503243524bba0afe0fe3a16e2da0be98", "lat": 38.86261416666667, "fusion_lat": 0.0, "bike_id": "503243524bba0afe0fe3a16e2da0be98", "is_reserved": 0, "lon": -76.99262983333334, "is_disabled": 0, "fusion_lon": 0.0, "rental_uris": {"android": "https://dc.lft.to/lastmile_qr_scan", "ios": "https://dc.lft.to/lastmile_qr_scan"}}, {"type": "electric_scooter", "name": "f546a4f061a3e465b90870a841c45277", "lat": 38.926173666666664, "fusion_lat": 0.0, "bike_id": "f546a4f061a3e465b90870a841c45277", "is_reserved": 0, "lon": -77.021606, "is_disabled": 0, "fusion_lon": 0.0, "rental_uris": {"android": "https://dc.lft.to/lastmile_qr_scan", "ios": "https://dc.lft.to/lastmile_qr_scan"}}, {"type": "electric_scooter", "name": "92f4532ba371da8cc0cb456bc787bc61", "lat": 38.902509333333334, "fusion_lat": 0.0, "bike_id": "92f4532ba371da8cc0cb456bc787bc61", "is_reserved": 0, "lon": -77.00179333333334, "is_disabled": 0, "fusion_lon": 0.0, "rental_uris": {"android": "https://dc.lft.to/lastmile_qr_scan", "ios": "https://dc.lft.to/lastmile_qr_scan"}}, {"type": "electric_scooter", "name": "e91962423ab9ba400176fc64506e2f32", "lat": 38.90001633333333, "fusion_lat": 0.0, "bike_id": "e91962423ab9ba400176fc64506e2f32", "is_reserved": 0, "lon": -76.99942133333333, "is_disabled": 0, "fusion_lon": 0.0, "rental_uris": {"android": "https://dc.lft.to/lastmile_qr_scan", "ios": "https://dc.lft.to/lastmile_qr_scan"}}, {"type": "electric_scooter", "name": "145bd503ced3a987d9b8c48fcd641665", "lat": 38.90420116666667, "fusion_lat": 0.0, "bike_id": "145bd503ced3a987d9b8c48fcd641665", "is_reserved": 0, "lon": -77.04372116666667, "is_disabled": 0, "fusion_lon": 0.0, "rental_uris": {"android": "https://dc.lft.to/lastmile_qr_scan", "ios": "https://dc.lft.to/lastmile_qr_scan"}}, {"type": "electric_scooter", "name": "6c3e421145249a4f72768ce72c4d4ad1", "lat": 38.90283383333333, "fusion_lat": 0.0, "bike_id": "6c3e421145249a4f72768ce72c4d4ad1", "is_reserved": 0, "lon": -77.02274733333333, "is_disabled": 0, "fusion_lon": 0.0, "rental_uris": {"android": "https://dc.lft.to/lastmile_qr_scan", "ios": "https://dc.lft.to/lastmile_qr_scan"}}, {"type": "electric_scooter", "name": "2c97a2b0aad76ba3560a6b8c7ceee71f", "lat": 38.8922485, "fusion_lat": 0.0, "bike_id": "2c97a2b0aad76ba3560a6b8c7ceee71f", "is_reserved": 0, "lon": -77.04693883333333, "is_disabled": 0, "fusion_lon": 0.0, "rental_uris": {"android": "https://dc.lft.to/lastmile_qr_scan", "ios": "https://dc.lft.to/lastmile_qr_scan"}}, {"type": "electric_scooter", "name": "8677b7f330786a3d5aa82268208c484b", "lat": 38.886019, "fusion_lat": 0.0, "bike_id": "8677b7f330786a3d5aa82268208c484b", "is_reserved": 0, "lon": -76.95592816666667, "is_disabled": 0, "fusion_lon": 0.0, "rental_uris": {"android": "https://dc.lft.to/lastmile_qr_scan", "ios": "https://dc.lft.to/lastmile_qr_scan"}}, {"type": "electric_scooter", "name": "06569667868918ebab59b03ced222e15", "lat": 38.92146366666667, "fusion_lat": 0.0, "bike_id": "06569667868918ebab59b03ced222e15", "is_reserved": 0, "lon": -77.01922166666667, "is_disabled": 0, "fusion_lon": 0.0, "rental_uris": {"android": "https://dc.lft.to/lastmile_qr_scan", "ios": "https://dc.lft.to/lastmile_qr_scan"}}, {"type": "electric_scooter", "name": "ecad3d1b9f1e8479ff239493dd31340a", "lat": 38.93868066666667, "fusion_lat": 0.0, "bike_id": "ecad3d1b9f1e8479ff239493dd31340a", "is_reserved": 0, "lon": -77.0248375, "is_disabled": 0, "fusion_lon": 0.0, "rental_uris": {"android": "https://dc.lft.to/lastmile_qr_scan", "ios": "https://dc.lft.to/lastmile_qr_scan"}}, {"type": "electric_scooter", "name": "7b4a9a3febad5d7995634b3fa5f289bd", "lat": 38.88186133333333, "fusion_lat": 0.0, "bike_id": "7b4a9a3febad5d7995634b3fa5f289bd", "is_reserved": 0, "lon": -76.95884766666667, "is_disabled": 0, "fusion_lon": 0.0, "rental_uris": {"android": "https://dc.lft.to/lastmile_qr_scan", "ios": "https://dc.lft.to/lastmile_qr_scan"}}, {"type": "electric_scooter", "name": "c7f211d33e9a8bf203becac4c5bb1ce8", "lat": 38.897269666666666, "fusion_lat": 0.0, "bike_id": "c7f211d33e9a8bf203becac4c5bb1ce8", "is_reserved": 0, "lon": -77.0268975, "is_disabled": 0, "fusion_lon": 0.0, "rental_uris": {"android": "https://dc.lft.to/lastmile_qr_scan", "ios": "https://dc.lft.to/lastmile_qr_scan"}},