{"data": {"bikes": [{"rental_uris": {"ios": "https://dc.lft.to/lastmile_qr_scan", "android": "https://dc.lft.to/lastmile_qr_scan"}, "fusion_lon": 0.0, "type": "electric_scooter", "bike_id": "879a1ec5c6dbf48926b932b1a8be5411", "name": "879a1ec5c6dbf48926b932b1a8be5411", "lat": 38.89790433333334, "is_disabled": 0, "lon": -77.028096, "fusion_lat": 0.0, "is_reserved": 0}, {"rental_uris": {"ios": "https://dc.lft.to/lastmile_qr_scan", "android": "https://dc.lft.to/lastmile_qr_scan"}, "fusion_lon": 0.0, "type": "electric_scooter", "bike_id": "09f14cf796a8b3f6858d3080beea44fe", "name": "09f14cf796a8b3f6858d3080beea44fe", "lat": 38.9153605, "is_disabled": 0, "lon": -77.0320385, "fusion_lat": 0.0, "is_reserved": 0}, {"rental_uris": {"ios": "https://dc.lft.to/lastmile_qr_scan", "android": "https://dc.lft.to/lastmile_qr_scan"}, "fusion_lon": 0.0, "type": "electric_scooter", "bike_id": "6c6f914c1ac7cc2e49348cb05d131a2e", "name": "6c6f914c1ac7cc2e49348cb05d131a2e", "lat": 38.85322583333333, "is_disabled": 0, "lon": -76.96595683333334, "fusion_lat": 0.0, "is_reserved": 0}, {"rental_uris": {"ios": "https://dc.lft.to/lastmile_qr_scan", "android": "https://dc.lft.to/lastmile_qr_scan"}, "fusion_lon": 0.0, "type": "electric_scooter", "bike_id": "b805ae5766076007819f4da6c5c1f2de", "name": "b805ae5766076007819f4da6c5c1f2de", "lat": 38.90645983333334, "is_disabled": 0, "lon": -77.02953716666667, "fusion_lat": 0.0, "is_reserved": 0}, {"rental_uris": {"ios": "https://dc.lft.to/lastmile_qr_scan", "android": "https://dc.lft.to/lastmile_qr_scan"}, "fusion_lon": 0.0, "type": "electric_scooter", "bike_id": "b110c94929645e6b2cc3db50c522bc9d", "name": "b110c94929645e6b2cc3db50c522bc9d", "lat": 38.8624505, "is_disabled": 0, "lon": -76.995285, "fusion_lat": 0.0, "is_reserved": 0}, {"rental_uris": {"ios": "https://dc.lft.to/lastmile_qr_scan", "android": "https://dc.lft.to/lastmile_qr_scan"}, "fusion_lon": 0.0, "type": "electric_scooter", "bike_id": "d26bacf71b61bbbbe80e1b5049381d6f", "name": "d26bacf71b61bbbbe80e1b5049381d6f", "lat": 38.8850915, "is_disabled": 0, "lon": -76.9984615, "fusion_lat": 0.0, "is_reserved": 0}, {"rental_uris": {"ios": "https://dc.lft.to/lastmile_qr_scan", "android": "https://dc.lft.to/lastmile_qr_scan"}, "fusion_lon": 0.0, "type": "electric_scooter", "bike_id": "9f03cb771275ca5f83fa6f65a9f84d28", "name": "9f03cb771275ca5f83fa6f65a9f84d28", "lat": 38.9057855, "is_disabled": 0, "lon": -77.02381183333334, "fusion_lat": 0.0, "is_reserved": 0}, {"rental_uris": {"ios": "https://dc.lft.to/lastmile_qr_scan", "android": "https://dc.lft.to/lastmile_qr_scan"}, "fusion_lon": 0.0, "type": "electric_scooter", "bike_id": "3f98b6d956a0490d94d33b023002e91f", "name": "3f98b6d956a0490d94d33b023002e91f", "lat": 38.90024733333333, "is_disabled": 0, "lon": -77.01191183333333, "fusion_lat": 0.0, "is_reserved": 0}, {"rental_uris": {"ios": "https://dc.lft.to/lastmile_qr_scan", "android": "https://dc.lft.to/lastmile_qr_scan"}, "fusion_lon": 0.0, "type": "electric_bike", "bike_id": "97ef633f9dae7825dd5db69ae1e376bd", "name": "97ef633f9dae7825dd5db69ae1e376bd", "lat": 38.98826116666667, "is_disabled": 0, "lon": -76.987559, "fusion_lat": 0.0, "is_reserved": 0}, {"rental_uris": {"ios": "https://dc.lft.to/lastmile_qr_scan", "android": "https://dc.lft.to/lastmile_qr_scan"}, "fusion_lon": 0.0, "type": "electric_scooter", "bike_id": "e2b43170f7cb77b96d32042da80667ec", "name": "e2b43170f7cb77b96d32042da80667ec", "lat": 38.88018433333333, "is_disabled": 0, "lon": -76.9311415, "fusion_lat": 0.0, "is_reserved": 0}, {"rental_uris": {"ios": "https://dc.lft.to/lastmile_qr_scan", "android": "https://dc.lft.to/lastmile_qr_scan"}, "fusion_lon": 0.0, "type": "electric_scooter", "bike_id": "2e0c357b5618809092f557fd2270cea4", "name": "2e0c357b5618809092f557fd2270cea4", "lat": 38.895224666666664, "is_disabled": 0, "lon": -77.02832366666667, "fusion_lat": 0.0, "is_reserved": 0}, {"rental_uris": {"ios": "https://dc.lft.to/lastmile_qr_scan", "android": "https://dc.lft.to/lastmile_qr_scan"}, "fusion_lon": 0.0, "type": "electric_scooter", "bike_id": "8168aff3690ca05ffe2d327f58ffec8e", "name": "8168aff3690ca05ffe2d327f58ffec8e", "lat": 38.902060666666664, "is_disabled": 0, "lon": -77.022195, "fusion_lat": 0.0, "is_reserved": 0}, {"rental_uris": {"ios": "https://dc.lft.to/lastmile_qr_scan", "android": "https://dc.lft.to/lastmile_qr_scan"}, "fusion_lon": 0.0, "type": "electric_scooter", "bike_id": "cd7891982b46c3e46c6cbc2bb59521b0", "name": "cd7891982b46c3e46c6cbc2bb59521b0", "lat": 38.91891283333333, "is_disabled": 0, "lon": -77.0177145, "fusion_lat": 0.0, "is_reserved": 0}, {"rental_uris": {"ios": "https://dc.lft.to/lastmile_qr_scan", "android": "https://dc.lft.to/lastmile_qr_scan"}, "fusion_lon": 0.0, "type": "electric_scooter", "bike_id": "a843e26757b925a431df414818c6e5d2", "name": "a843e26757b925a431df414818c6e5d2", "lat": 38.9260375, "is_disabled": 0, "lon": -77.02413, "fusion_lat": 0.0, "is_reserved": 0}, {"rental_uris": {"ios": "https://dc.lft.to/lastmile_qr_scan", "android": "https://dc.lft.to/lastmile_qr_scan"}, "fusion_lon": 0.0, "type": "electric_scooter", "bike_id": "9a5500217569b8e5450a1e8f28e3c7c3", "name": "9a5500217569b8e5450a1e8f28e3c7c3", "lat": 38.915654833333335, "is_disabled": 0, "lon": -77.04698016666667, "fusion_lat": 0.0, "is_reserved": 0}, {"rental_uris": {"ios": "https://dc.lft.to/lastmile_qr_scan", "android": "https://dc.lft.to/lastmile_qr_scan"}, "fusion_lon": 0.0, "type": "electric_scooter", "bike_id": "2c2929175b1d5ed2ba29ab6865876451", "name": "2c2929175b1d5ed2ba29ab6865876451", "lat": 38.91262433333333, "is_disabled": 0, "lon": -77.04148533333333, "fusion_lat": 0.0, "is_reserved": 0}, {"rental_uris": {"ios": "https://dc.lft.to/lastmile_qr_scan", "android": "https://dc.lft.to/lastmile_qr_scan"}, "fusion_lon": 0.0, "type": "electric_scooter", "bike_id": "4fbbf234d1baf6abdbb0e445e9f7fdf7", "name": "4fbbf234d1baf6abdbb0e445e9f7fdf7", "lat": 38.929912, "is_disabled": 0, "lon": -77.02589583333334, "fusion_lat": 0.0, "is_reserved": 0}, {"rental_uris": {"ios": "https://dc.lft.to/lastmile_qr_scan", "android": "https://dc.lft.to/lastmile_qr_scan"}, "fusion_lon": 0.0, "type": "electric_scooter", "bike_id": "f49ae21680202b776dff82f77b0531c9", "name": "f49ae21680202b776dff82f77b0531c9", "lat": 38.90575066666667, "is_disabled": 0, "lon": -77.00571, "fusion_lat": 0.0, "is_reserved": 0}, {"rental_uris": {"ios": "https://dc.lft.to/lastmile_qr_scan", "android": "https://dc.lft.to/lastmile_qr_scan"}, "fusion_lon": 0.0, "type": "electric_scooter", "bike_id": "4ca6dd0b76cdc0f0d2f471ce94c44dcc", "name": "4ca6dd0b76cdc0f0d2f471ce94c44dcc", "lat": 38.89947883333333, "is_disabled": 0, "lon": -77.04326966666666, "fusion_lat": 0.0, "is_reserved": 0}, {"rental_uris": {"ios": "https://dc.lft.to/lastmile_qr_scan", "android": "https://dc.lft.to/lastmile_qr_scan"}, "fusion_lon": 0.0, "type": "electric_scooter", "bike_id": "088fed5141cfff976abb8069299d9b4a", "name": "088fed5141cfff976abb8069299d9b4a", "lat": 38.90515033333333, "is_disabled": 0, "lon": -77.047436, "fusion_lat": 0.0, "is_reserved": 0}, {"rental_uris": {"ios": "https://dc.lft.to/lastmile_qr_scan", "android": "https://dc.lft.to/lastmile_qr_scan"}, "fusion_lon": 0.0, "type": "electric_scooter", "bike_id": "54f39d2c72bba8e960ff06f462205bc4", "name": "54f39d2c72bba8e960ff06f462205bc4", "lat": 38.90536933333333, "is_disabled": 0, "lon": -77.0297175, "fusion_lat": 0.0, "is_reserved": 0}, {"rental_uris": {"ios": "https://dc.lft.to/lastmile_qr_scan", "android": "https://dc.lft.to/lastmile_qr_scan"}, "fusion_lon": 0.0, "type": "electric_scooter", "bike_id": "42016f915d91ba3952047023797ef343", "name": "42016f915d91ba3952047023797ef343", "lat": 38.93251683333333, "is_disabled": 0, "lon": -77.03278633333333, "fusion_lat": 0.0, "is_reserved": 0}, {"rental_uris": {"ios": "https://dc.lft.to/lastmile_qr_scan", "android": "https://dc.lft.to/lastmile_qr_scan"}, "fusion_lon": 0.0, "type": "electric_scooter", "bike_id": "942a548bbd606abe3ee10622de857417", "name": "942a548bbd606abe3ee10622de857417", "lat": 38.91253566666666, "is_disabled": 0, "lon": -77.0326875, "fusion_lat": 0.0, "is_reserved": 0}, {"rental_uris": {"ios": "https://dc.lft.to/lastmile_qr_scan", "android": "https://dc.lft.to/lastmile_qr_scan"}, "fusion_lon": 0.0, "type": "electric_scooter", "bike_id": "abdc770a028431b7748558e7b95b5ccf", "name": "abdc770a028431b7748558e7b95b5ccf", "lat": 38.915602166666666, "is_disabled": 0, "lon": -77.0327045, "fusion_lat": 0.0, "is_reserved": 0}, {"rental_uris": {"ios": "https://dc.lft.to/lastmile_qr_scan", "android": "https://dc.lft.to/lastmile_qr_scan"}, "fusion_lon": 0.0, "type": "electric_scooter", "bike_id": "793d6ccde998bea4e80e94cdd402fe44", "name": "793d6ccde998bea4e80e94cdd402fe44", "lat": 38.9023265, "is_disabled": 0, "lon": -77.002027, "fusion_lat": 0.0, "is_reserved": 0}, {"rental_uris": {"ios": "https://dc.lft.to/lastmile_qr_scan", "android": "https://dc.lft.to/lastmile_qr_scan"}, "fusion_lon": 0.0, "type": "electric_scooter", "bike_id": "f7aeb1f623197078e9a099afcbda4bcd", "name": "f7aeb1f623197078e9a099afcbda4bcd", "lat": 38.885009333333336, "is_disabled": 0, "lon": -77.005628, "fusion_lat": 0.0, "is_reserved": 0}, {"rental_uris": {"ios": "https://dc.lft.to/lastmile_qr_scan", "android": "https://dc.lft.to/lastmile_qr_scan"}, "fusion_lon": 0.0, "type": "electric_scooter", "bike_id": "63d0b2e8516c828413921c1a7bf53894", "name": "63d0b2e8516c828413921c1a7bf53894", "lat": 38.9178905, "is_disabled": 0, "lon": -77.02299916666666, "fusion_lat": 0.0, "is_reserved": 0}, {"rental_uris": {"ios": "https://dc.lft.to/lastmile_qr_scan", "android": "https://dc.lft.to/lastmile_qr_scan"}, "fusion_lon": 0.0, "type": "electric_scooter", "bike_id": "e24930411ff592a674e88ff42cb73cc1", "name": "e24930411ff592a674e88ff42cb73cc1", "lat": 38.89968116666667, "is_disabled": 0, "lon": -77.046107, "fusion_lat": 0.0, "is_reserved": 0}, {"rental_uris": {"ios": "https://dc.lft.to/lastmile_qr_scan", "android": "https://dc.lft.to/lastmile_qr_scan"}, "fusion_lon": 0.0, "type": "electric_scooter", "bike_id": "a109befa2a16fc8a40fa4f5d67303680", "name": "a109befa2a16fc8a40fa4f5d67303680", "lat": 38.897143, "is_disabled": 0, "lon": -77.00798316666666, "fusion_lat": 0.0, "is_reserved": 0}, {"rental_uris": {"ios": "https://dc.lft.to/lastmile_qr_scan", "android": "https://dc.lft.to/lastmile_qr_scan"}, "fusion_lon": 0.0, "type": "electric_scooter", "bike_id": "603de3ae4325cb659b0405bd92dcaee3", "name": "603de3ae4325cb659b0405bd92dcaee3", "lat": 38.86110516666667, "is_disabled": 0, "lon": -76.98371883333333, "fusion_lat": 0.0, "is_reserved": 0}, {"rental_uris": {"ios": "https://dc.lft.to/lastmile_qr_scan", "android": "https://dc.lft.to/lastmile_qr_scan"}, "fusion_lon": 0.0, "type": "electric_scooter", "bike_id": "dcbdcbe694d45557d0d8d8cc3d3509fa", "name": "dcbdcbe694d45557d0d8d8cc3d3509fa", "lat": 38.89614666666667, "is_disabled": 0, "lon": -76.99634783333333, "fusion_lat": 0.0, "is_reserved": 0}, {"rental_uris": {"ios": "https://dc.lft.to/lastmile_qr_scan", "android": "https://dc.lft.to/lastmile_qr_scan"}, "fusion_lon": 0.0, "type": "electric_scooter", "bike_id": "247fc0aa8c4cbe6f7605301cbaca9491", "name": "247fc0aa8c4cbe6f7605301cbaca9491", "lat": 38.920693, "is_disabled": 0, "lon": -77.02521816666666, "fusion_lat": 0.0, "is_reserved": 0}, {"rental_uris": {"ios": "https://dc.lft.to/lastmile_qr_scan", "android": "https://dc.lft.to/lastmile_qr_scan"}, "fusion_lon": 0.0, "type": "electric_bike", "bike_id": "6e13df40126b25ae98a0f47d7de76e04", "name": "6e13df40126b25ae98a0f47d7de76e04", "lat": 38.918727833333335, "is_disabled": 0, "lon": -76.9612345, "fusion_lat": 0.0, "is_reserved": 0}, {"rental_uris": {"ios": "https://dc.lft.to/lastmile_qr_scan", "android": "https://dc.lft.to/lastmile_qr_scan"}, "fusion_lon": 0.0, "type": "electric_scooter", "bike_id": "b7cdd53cfd457a8923a4160f930a21a0", "name": "b7cdd53cfd457a8923a4160f930a21a0", "lat": 38.92242433333333, "is_disabled": 0, "lon": -77.0308285, "fusion_lat": 0.0, "is_reserved": 0}, {"rental_uris": {"ios": "https://dc.lft.to/lastmile_qr_scan", "android": "https://dc.lft.to/lastmile_qr_scan"}, "fusion_lon": 0.0, "type": "electric_scooter", "bike_id": "fd319406bbd5988b3439399c4dd124cf", "name": "fd319406bbd5988b3439399c4dd124cf", "lat": 38.935371, "is_disabled": 0, "lon": -77.07289783333333, "fusion_lat": 0.0, "is_reserved": 0}, {"rental_uris": {"ios": "https://dc.lft.to/lastmile_qr_scan", "android": "https://dc.lft.to/lastmile_qr_scan"}, "fusion_lon": 0.0, "type": "electric_scooter", "bike_id": "3cba66c80b26e005c1448ec1aa6bc95e", "name": "3cba66c80b26e005c1448ec1aa6bc95e", "lat": 38.9017665, "is_disabled": 0, "lon": -76.92826383333333, "fusion_lat": 0.0, "is_reserved": 0}, {"rental_uris": {"ios": "https://dc.lft.to/lastmile_qr_scan", "android": "https://dc.lft.to/lastmile_qr_scan"}, "fusion_lon": 0.0, "type": "electric_scooter", "bike_id": "9ef8f3ed02261fb02a9e6bc21e8e47c3", "name": "9ef8f3ed02261fb02a9e6bc21e8e47c3", "lat": 38.90526283333333, "is_disabled": 0, "lon": -77.05087233333333, "fusion_lat": 0.0, "is_reserved": 0}, {"rental_uris": {"ios": "https://dc.lft.to/lastmile_qr_scan", "android": "https://dc.lft.to/lastmile_qr_scan"}, "fusion_lon": 0.0, "type": "electric_bike", "bike_id": "efc8c43f11b0c30fdef7e3e5a10f9659", "name": "efc8c43f11b0c30fdef7e3e5a10f9659", "lat": 39.029994, "is_disabled": 0, "lon": -77.10653266666667, "fusion_lat": 0.0, "is_reserved": 0}, {"rental_uris": {"ios": "https://dc.lft.to/lastmile_qr_scan", "android": "https://dc.lft.to/lastmile_qr_scan"}, "fusion_lon": 0.0, "type": "electric_scooter", "bike_id": "285ed10463dc5304f2b77161b8b5ac5b", "name": "285ed10463dc5304f2b77161b8b5ac5b", "lat": 38.924077, "is_disabled": 0, "lon": -77.04075866666666, "fusion_lat": 0.0, "is_reserved": 0}, {"rental_uris": {"ios": "https://dc.lft.to/lastmile_qr_scan", "android": "https://dc.lft.to/lastmile_qr_scan"}, "fusion_lon": 0.0, "type": "electric_scooter", "bike_id": "675e24e4b6632746a1570c489a8ea262", "name": "675e24e4b6632746a1570c489a8ea262", "lat": 38.907268333333334, "is_disabled": 0, "lon": -77.03351516666666, "fusion_lat": 0.0, "is_reserved": 0}, {"rental_uris": {"ios": "https://dc.lft.to/lastmile_qr_scan", "android": "https://dc.lft.to/lastmile_qr_scan"}, "fusion_lon": 0.0, "type": "electric_scooter", "bike_id": "a227bcdb8e59eb2739ca4dd7c46dc988", "name": "a227bcdb8e59eb2739ca4dd7c46dc988", "lat": 38.89863316666667, "is_disabled": 0, "lon": -77.03930433333333, "fusion_lat": 0.0, "is_reserved": 0}, {"rental_uris": {"ios": "https://dc.lft.to/lastmile_qr_scan", "android": "https://dc.lft.to/lastmile_qr_scan"}, "fusion_lon": 0.0, "type": "electric_bike", "bike_id": "7767cae5cb52f289fbddf9c1f0440d11", "name": "7767cae5cb52f289fbddf9c1f0440d11", "lat": 38.9856015, "is_disabled": 0, "lon": -76.9882895, "fusion_lat": 0.0, "is_reserved": 0}, {"rental_uris": {"ios": "https://dc.lft.to/lastmile_qr_scan", "android": "https://dc.lft.to/lastmile_qr_scan"}, "fusion_lon": 0.0, "type": "electric_scooter", "bike_id": "9a4496d5b0762fb3fb2bad0768a4d9ad", "name": "9a4496d5b0762fb3fb2bad0768a4d9ad", "lat": 38.8428935, "is_disabled": 0, "lon": -76.9994865, "fusion_lat": 0.0, "is_reserved": 0}, {"rental_uris": {"ios": "https://dc.lft.to/lastmile_qr_scan", "android": "https://dc.lft.to/lastmile_qr_scan"}, "fusion_lon": 0.0, "type": "electric_scooter", "bike_id": "b0d2139672f1dfa69cc66995d08fe315", "name": "b0d2139672f1dfa69cc66995d08fe315", "lat": 38.942786, "is_disabled": 0, "lon": -77.0293955, "fusion_lat": 0.0, "is_reserved": 0}, {"rental_uris": {"ios": "https://dc.lft.to/lastmile_qr_scan", "android": "https://dc.lft.to/lastmile_qr_scan"}, "fusion_lon": 0.0, "type": "electric_scooter", "bike_id": "f12b65c956744a957b89f2df7e6ada01", "name": "f12b65c956744a957b89f2df7e6ada01", "lat": 38.908294166666664, "is_disabled": 0, "lon": -76.997012, "fusion_lat": 0.0, "is_reserved": 0}, {"rental_uris": {"ios": "https://dc.lft.to/lastmile_qr_scan", "android": "https://dc.lft.to/lastmile_qr_scan"}, "fusion_lon": 0.0, "type": "electric_scooter", "bike_id": "ec25f08929ff43cabc89ec1f16c118f4", "name": "ec25f08929ff43cabc89ec1f16c118f4", "lat": 38.91684333333333, "is_disabled": 0, "lon": -76.98077783333333, "fusion_lat": 0.0, "is_reserved": 0}, {"rental_uris": {"ios": "https://dc.lft.to/lastmile_qr_scan", "android": "https://dc.lft.to/lastmile_qr_scan"}, "fusion_lon": 0.0, "type": "electric_scooter", "bike_id": "0ab6675534091d5a0033bc248cb54fed", "name": "0ab6675534091d5a0033bc248cb54fed", "lat": 38.894081666666665, "is_disabled": 0, "lon": -77.02179283333334, "fusion_lat": 0.0, "is_reserved": 0}, {"rental_uris": {"ios": "https://dc.lft.to/lastmile_qr_scan", "android": "https://dc.lft.to/lastmile_qr_scan"}, "fusion_lon": 0.0, "type": "electric_scooter", "bike_id": "c10dfe56aa75236578dc682205467d66", "name": "c10dfe56aa75236578dc682205467d66", "lat": 38.93299116666667, "is_disabled": 0, "lon": -77.02842983333333, "fusion_lat": 0.0, "is_reserved": 0}, {"rental_uris": {"ios": "https://dc.lft.to/lastmile_qr_scan", "android": "https://dc.lft.to/lastmile_qr_scan"}, "fusion_lon": 0.0, "type": "electric_scooter", "bike_id": "dfbb01763f76a048f61011e9119f1930", "name": "dfbb01763f76a048f61011e9119f1930", "lat": 38.900716833333334, "is_disabled": 0, "lon": -77.0501735, "fusion_lat": 0.0, "is_reserved": 0}, {"rental_uris": {"ios": "https://dc.lft.to/lastmile_qr_scan", "android": "https://dc.lft.to/lastmile_qr_scan"}, "fusion_lon": 0.0, "type": "electric_bike", "bike_id": "005837191d223f72a638c2ddee99cee9", "name": "005837191d223f72a638c2ddee99cee9", "lat": 38.99452766666667, "is_disabled": 0, "lon": -76.908152, "fusion_lat": 0.0, "is_reserved": 0}, {"rental_uris": {"ios": "https://dc.lft.to/lastmile_qr_scan", "android": "https://dc.lft.to/lastmile_qr_scan"}, "fusion_lon": 0.0, "type": "electric_scooter", "bike_id": "e8996e4c639383bbfffbec5c52aa3bdc", "name": "e8996e4c639383bbfffbec5c52aa3bdc", "lat": 38.901300166666665, "is_disabled": 0, "lon": -77.033471, "fusion_lat": 0.0, "is_reserved": 0}, {"rental_uris": {"ios": "https://dc.lft.to/lastmile_qr_scan", "android": "https://dc.lft.to/lastmile_qr_scan"}, "fusion_lon": 0.0, "type": "electric_scooter", "bike_id": "f9a30725addc8a8a864e99fc7ebb82fc", "name": "f9a30725addc8a8a864e99fc7ebb82fc", "lat": 38.887473, "is_disabled": 0, "lon": -77.02564233333334, "fusion_lat": 0.0, "is_reserved": 0}, {"rental_uris": {"ios": "https://dc.lft.to/lastmile_qr_scan", "android": "https://dc.lft.to/lastmile_qr_scan"}, "fusion_lon": 0.0, "type": "electric_scooter", "bike_id": "62115b33ca6eb83c6ede068b58e51c11", "name": "62115b33ca6eb83c6ede068b58e51c11", "lat": 38.90975133333333, "is_disabled": 0, "lon": -77.03390983333334, "fusion_lat": 0.0, "is_reserved": 0}, {"rental_uris": {"ios": "https://dc.lft.to/lastmile_qr_scan", "android": "https://dc.lft.to/lastmile_qr_scan"}, "fusion_lon": 0.0, "type": "electric_scooter", "bike_id": "6452cb537b3b420f894528324502a3d4", "name": "6452cb537b3b420f894528324502a3d4", "lat": 38.871105666666665, "is_disabled": 0, "lon": -77.0076555, "fusion_lat": 0.0, "is_reserved": 0}, {"rental_uris": {"ios": "https://dc.lft.to/lastmile_qr_scan", "android": "https://dc.lft.to/lastmile_qr_scan"}, "fusion_lon": 0.0, "type": "electric_scooter", "bike_id": "a47562effd9e1591c393fc08bf38dd5e", "name": "a47562effd9e1591c393fc08bf38dd5e", "lat": 38.907167333333334, "is_disabled": 0, "lon": -77.038586, "fusion_lat": 0.0, "is_reserved": 0}, {"rental_uris": {"ios": "https://dc.lft.to/lastmile_qr_scan", "android": "https://dc.lft.to/lastmile_qr_scan"}, "fusion_lon": 0.0, "type": "electric_scooter", "bike_id": "13f22d588a7c6edc414338a13445e6d4", "name": "13f22d588a7c6edc414338a13445e6d4", "lat": 38.87065283333333, "is_disabled": 0, "lon": -76.97984133333334, "fusion_lat": 0.0, "is_reserved": 0}, {"rental_uris": {"ios": "https://dc.lft.to/lastmile_qr_scan", "android": "https://dc.lft.to/lastmile_qr_scan"}, "fusion_lon": 0.0, "type": "electric_scooter", "bike_id": "6f1e9ab8b839ba8ab47115332065b975", "name": "6f1e9ab8b839ba8ab47115332065b975", "lat": 38.901396166666665, "is_disabled": 0, "lon": -76.95180016666667, "fusion_lat": 0.0, "is_reserved": 0}, {"rental_uris": {"ios": "https://dc.lft.to/lastmile_qr_scan", "android": "https://dc.lft.to/lastmile_qr_scan"}, "fusion_lon": 0.0, "type": "electric_bike", "bike_id": "d6c2919668dbbbeccbf407c6f5b9e830", "name": "d6c2919668dbbbeccbf407c6f5b9e830", "lat": 38.88009733333333, "is_disabled": 0, "lon": -76.91592983333334, "fusion_lat": 0.0, "is_reserved": 0}, {"rental_uris": {"ios": "https://dc.lft.to/lastmile_qr_scan", "android": "https://dc.lft.to/lastmile_qr_scan"}, "fusion_lon": 0.0, "type": "electric_scooter", "bike_id": "c9368874b8911299c8cbb4056b9767f1", "name": "c9368874b8911299c8cbb4056b9767f1", "lat": 38.90732333333333, "is_disabled": 0, "lon": -77.03448266666666, "fusion_lat": 0.0, "is_reserved": 0}, {"rental_uris": {"ios": "https://dc.lft.to/lastmile_qr_scan", "android": "https://dc.lft.to/lastmile_qr_scan"}, "fusion_lon": 0.0, "type": "electric_scooter", "bike_id": "0cca3194446acae04a14a160224e17e0", "name": "0cca3194446acae04a14a160224e17e0", "lat": 38.9072075, "is_disabled": 0, "lon": -77.0228395, "fusion_lat": 0.0, "is_reserved": 0}, {"rental_uris": {"ios": "https://dc.lft.to/lastmile_qr_scan", "android": "https://dc.lft.to/lastmile_qr_scan"}, "fusion_lon": 0.0, "type": "electric_scooter", "bike_id": "a03bab05602e44260659963c65181994", "name": "a03bab05602e44260659963c65181994", "lat": 38.90507216666666, "is_disabled": 0, "lon": -77.03451633333333, "fusion_lat": 0.0, "is_reserved": 0}, {"rental_uris": {"ios": "https://dc.lft.to/lastmile_qr_scan", "android": "https://dc.lft.to/lastmile_qr_scan"}, "fusion_lon": 0.0, "type": "electric_scooter", "bike_id": "35dcfebac7a217d1e976f3523ac0ee93", "name": "35dcfebac7a217d1e976f3523ac0ee93", "lat": 38.917086, "is_disabled": 0, "lon": -77.0272015, "fusion_lat": 0.0, "is_reserved": 0}, {"rental_uris": {"ios": "https://dc.lft.to/lastmile_qr_scan", "android": "https://dc.lft.to/lastmile_qr_scan"}, "fusion_lon": 0.0, "type": "electric_scooter", "bike_id": "d448c5b2228feec0c8080dbcb219f5a8", "name": "d448c5b2228feec0c8080dbcb219f5a8", "lat": 38.9015145, "is_disabled": 0, "lon": -77.03989566666667, "fusion_lat": 0.0, "is_reserved": 0}, {"rental_uris": {"ios": "https://dc.lft.to/lastmile_qr_scan", "android": "https://dc.lft.to/lastmile_qr_scan"}, "fusion_lon": 0.0, "type": "electric_scooter", "bike_id": "190e81b8c8aaac31a48adbe40881b76a", "name": "190e81b8c8aaac31a48adbe40881b76a", "lat": 38.893494, "is_disabled": 0, "lon": -76.98468866666667, "fusion_lat": 0.0, "is_reserved": 0}, {"rental_uris": {"ios": "https://dc.lft.to/lastmile_qr_scan", "android": "https://dc.lft.to/lastmile_qr_scan"}, "fusion_lon": 0.0, "type": "electric_scooter", "bike_id": "d7da6fc750a4b955c71a2ea6fa95c6c1", "name": "d7da6fc750a4b955c71a2ea6fa95c6c1", "lat": 38.892202166666664, "is_disabled": 0, "lon": -77.0318175, "fusion_lat": 0.0, "is_reserved": 0}, {"rental_uris": {"ios": "https://dc.lft.to/lastmile_qr_scan", "android": "https://dc.lft.to/lastmile_qr_scan"}, "fusion_lon": 0.0, "type": "electric_scooter", "bike_id": "0d44e807841d987ac7e98f8e570fa2e5", "name": "0d44e807841d987ac7e98f8e570fa2e5", "lat": 38.92863783333333, "is_disabled": 0, "lon": -77.037115, "fusion_lat": 0.0, "is_reserved": 0}, {"rental_uris": {"ios": "https://dc.lft.to/lastmile_qr_scan", "android": "https://dc.lft.to/lastmile_qr_scan"}, "fusion_lon": 0.0, "type": "electric_scooter", "bike_id": "1d18460f8b191de3d4300c67feb36de8", "name": "1d18460f8b191de3d4300c67feb36de8", "lat": 38.887397, "is_disabled": 0, "lon": -77.01526983333333, "fusion_lat": 0.0, "is_reserved": 0}, {"rental_uris": {"ios": "https://dc.lft.to/lastmile_qr_scan", "android": "https://dc.lft.to/lastmile_qr_scan"}, "fusion_lon": 0.0, "type": "electric_scooter", "bike_id": "eaed2bed47c99f26bc19869fd4aef804", "name": "eaed2bed47c99f26bc19869fd4aef804", "lat": 38.918102833333336, "is_disabled": 0, "lon": -77.02475333333334, "fusion_lat": 0.0, "is_reserved": 0}, {"rental_uris": {"ios": "https://dc.lft.to/lastmile_qr_scan", "android": "https://dc.lft.to/lastmile_qr_scan"}, "fusion_lon": 0.0, "type": "electric_scooter", "bike_id": "66de886b2047fdb6228d7228ce4288a2", "name": "66de886b2047fdb6228d7228ce4288a2", "lat": 38.90189383333333, "is_disabled": 0, "lon": -77.025898, "fusion_lat": 0.0, "is_reserved": 0}, {"rental_uris": {"ios": "https://dc.lft.to/lastmile_qr_scan", "android": "https://dc.lft.to/lastmile_qr_scan"}, "fusion_lon": 0.0, "type": "electric_bike", "bike_id": "997f93d732c8bf719fcf4e305a54d879", "name": "997f93d732c8bf719fcf4e305a54d879", "lat": 38.88221383333333, "is_disabled": 0, "lon": -77.1151705, "fusion_lat": 0.0, "is_reserved": 0}, {"rental_uris": {"ios": "https://dc.lft.to/lastmile_qr_scan", "android": "https://dc.lft.to/lastmile_qr_scan"}, "fusion_lon": 0.0, "type": "electric_scooter", "bike_id": "f21ed40be4f6c408a326be84462e9aa1", "name": "f21ed40be4f6c408a326be84462e9aa1", "lat": 38.914140333333336, "is_disabled": 0, "lon": -77.03997833333334, "fusion_lat": 0.0, "is_reserved": 0}, {"rental_uris": {"ios": "https://dc.lft.to/lastmile_qr_scan", "android": "https://dc.lft.to/lastmile_qr_scan"}, "fusion_lon": 0.0, "type": "electric_scooter", "bike_id": "17ec840c2852e2c1cc762989755bcd19", "name": "17ec840c2852e2c1cc762989755bcd19", "lat": 38.90965, "is_disabled": 0, "lon": -77.02176866666667, "fusion_lat": 0.0, "is_reserved": 0}, {"rental_uris": {"ios": "https://dc.lft.to/lastmile_qr_scan", "android": "https://dc.lft.to/lastmile_qr_scan"}, "fusion_lon": 0.0, "type": "electric_bike", "bike_id": "047d7a99e97415a9cea4e045c466eaf9", "name": "047d7a99e97415a9cea4e045c466eaf9", "lat": 38.86857933333334, "is_disabled": 0, "lon": -76.91656966666666, "fusion_lat": 0.0, "is_reserved": 0}, {"rental_uris": {"ios": "https://dc.lft.to/lastmile_qr_scan", "android": "https://dc.lft.to/lastmile_qr_scan"}, "fusion_lon": 0.0, "type": "electric_scooter", "bike_id": "9e89551f719091b77b339ca92f718153", "name": "9e89551f719091b77b339ca92f718153", "lat": 38.91416666666667, "is_disabled": 0, "lon": -77.03902283333333, "fusion_lat": 0.0, "is_reserved": 0}, {"rental_uris": {"ios": "https://dc.lft.to/lastmile_qr_scan", "android": "https://dc.lft.to/lastmile_qr_scan"}, "fusion_lon": 0.0, "type": "electric_bike", "bike_id": "81940ee50634bef2613b1eda39371a97", "name": "81940ee50634bef2613b1eda39371a97", "lat": 38.931880666666665, "is_disabled": 0, "lon": -77.22937466666667, "fusion_lat": 0.0, "is_reserved": 0}, {"rental_uris": {"ios": "https://dc.lft.to/lastmile_qr_scan", "android": "https://dc.lft.to/lastmile_qr_scan"}, "fusion_lon": 0.0, "type": "electric_scooter", "bike_id": "a86f56da67824c182e105b05d0c57bf3", "name": "a86f56da67824c182e105b05d0c57bf3", "lat": 38.8850195, "is_disabled": 0, "lon": -77.0056515, "fusion_lat": 0.0, "is_reserved": 0}, {"rental_uris": {"ios": "https://dc.lft.to/lastmile_qr_scan", "android": "https://dc.lft.to/lastmile_qr_scan"}, "fusion_lon": 0.0, "type": "electric_scooter", "bike_id": "653195ddf13ad1fd776f7a812ff97934", "name": "653195ddf13ad1fd776f7a812ff97934", "lat": 38.917502, "is_disabled": 0, "lon": -77.02486633333334, "fusion_lat": 0.0, "is_reserved": 0}, {"rental_uris": {"ios": "https://dc.lft.to/lastmile_qr_scan", "android": "https://dc.lft.to/lastmile_qr_scan"}, "fusion_lon": 0.0, "type": "electric_bike", "bike_id": "59783f759e518b41472c81eff1f253c8", "name": "59783f759e518b41472c81eff1f253c8", "lat": 38.9924885, "is_disabled": 0, "lon": -77.04997066666667, "fusion_lat": 0.0, "is_reserved": 0}, {"rental_uris": {"ios": "https://dc.lft.to/lastmile_qr_scan", "android": "https://dc.lft.to/lastmile_qr_scan"}, "fusion_lon": 0.0, "type": "electric_scooter", "bike_id": "edf7bb5ba9eb6f9c86b0e18c8c663201", "name": "edf7bb5ba9eb6f9c86b0e18c8c663201", "lat": 38.90064666666667, "is_disabled": 0, "lon": -77.03204883333333, "fusion_lat": 0.0, "is_reserved": 0}, {"rental_uris": {"ios": "https://dc.lft.to/lastmile_qr_scan", "android": "https://dc.lft.to/lastmile_qr_scan"}, "fusion_lon": 0.0, "type": "electric_scooter", "bike_id": "70fdd41351ec113f79ba8cad86f4237f", "name": "70fdd41351ec113f79ba8cad86f4237f", "lat": 38.9192785, "is_disabled": 0, "lon": -77.034279, "fusion_lat": 0.0, "is_reserved": 0}, {"rental_uris": {"ios": "https://dc.lft.to/lastmile_qr_scan", "android": "https://dc.lft.to/lastmile_qr_scan"}, "fusion_lon": 0.0, "type": "electric_scooter", "bike_id": "87319241bdda2bd0f22cf873beaafaa5", "name": "87319241bdda2bd0f22cf873beaafaa5", "lat": 38.909617, "is_disabled": 0, "lon": -77.04862233333333, "fusion_lat": 0.0, "is_reserved": 0}, {"rental_uris": {"ios": "https://dc.lft.to/lastmile_qr_scan", "android": "https://dc.lft.to/lastmile_qr_scan"}, "fusion_lon": 0.0, "type": "electric_scooter", "bike_id": "43b818cb58b5695a78dd81fbc4c3b42d", "name": "43b818cb58b5695a78dd81fbc4c3b42d", "lat": 38.9060815, "is_disabled": 0, "lon": -77.04327783333333, "fusion_lat": 0.0, "is_reserved": 0}, {"rental_uris": {"ios": "https://dc.lft.to/lastmile_qr_scan", "android": "https://dc.lft.to/lastmile_qr_scan"}, "fusion_lon": 0.0, "type": "electric_bike", "bike_id": "86e0decb4210d7e159bce39e518d1806", "name": "86e0decb4210d7e159bce39e518d1806", "lat": 38.855021666666666, "is_disabled": 0, "lon": -76.984265, "fusion_lat": 0.0, "is_reserved": 0}, {"rental_uris": {"ios": "https://dc.lft.to/lastmile_qr_scan", "android": "https://dc.lft.to/lastmile_qr_scan"}, "fusion_lon": 0.0, "type": "electric_scooter", "bike_id": "d4328d37eb877e50ed00c2d1ebf16ac6", "name": "d4328d37eb877e50ed00c2d1ebf16ac6", "lat": 38.91684166666667, "is_disabled": 0, "lon": -77.03288233333333, "fusion_lat": 0.0, "is_reserved": 0}, {"rental_uris": {"ios": "https://dc.lft.to/lastmile_qr_scan", "android": "https://dc.lft.to/lastmile_qr_scan"}, "fusion_lon": 0.0, "type": "electric_scooter", "bike_id": "04f3c10903650f6f5cf302d1413ef9eb", "name": "04f3c10903650f6f5cf302d1413ef9eb", "lat": 38.865864333333334, "is_disabled": 0, "lon": -77.01071416666667, "fusion_lat": 0.0, "is_reserved": 0}, {"rental_uris": {"ios": "https://dc.lft.to/lastmile_qr_scan", "android": "https://dc.lft.to/lastmile_qr_scan"}, "fusion_lon": 0.0, "type": "electric_bike", "bike_id": "29f04a84ef55d9ef3f20d3added71160", "name": "29f04a84ef55d9ef3f20d3added71160", "lat": 38.9938845, "is_disabled": 0, "lon": -77.02420083333334, "fusion_lat": 0.0, "is_reserved": 0}, {"rental_uris": {"ios": "https://dc.lft.to/lastmile_qr_scan", "android": "https://dc.lft.to/lastmile_qr_scan"}, "fusion_lon": 0.0, "type": "electric_scooter", "bike_id": "ac93ca097cfe5b90efcee0756df5e780", "name": "ac93ca097cfe5b90efcee0756df5e780", "lat": 38.898846166666665, "is_disabled": 0, "lon": -77.02170283333334, "fusion_lat": 0.0, "is_reserved": 0}, {"rental_uris": {"ios": "https://dc.lft.to/lastmile_qr_scan", "android": "https://dc.lft.to/lastmile_qr_scan"}, "fusion_lon": 0.0, "type": "electric_scooter", "bike_id": "6c6dfc3befb280d86c7bce9c605d0f59", "name": "6c6dfc3befb280d86c7bce9c605d0f59", "lat": 38.90849133333333, "is_disabled": 0, "lon": -77.06078433333333, "fusion_lat": 0.0, "is_reserved": 0}, {"rental_uris": {"ios": "https://dc.lft.to/lastmile_qr_scan", "android": "https://dc.lft.to/lastmile_qr_scan"}, "fusion_lon": 0.0, "type": "electric_scooter", "bike_id": "631183a452251b4ed0c2d9fc8e14256b", "name": "631183a452251b4ed0c2d9fc8e14256b", "lat": 38.90850016666667, "is_disabled": 0, "lon": -77.04769516666667, "fusion_lat": 0.0, "is_reserved": 0}, {"rental_uris": {"ios": "https://dc.lft.to/lastmile_qr_scan", "android": "https://dc.lft.to/lastmile_qr_scan"}, "fusion_lon": 0.0, "type": "electric_scooter", "bike_id": "8627e29e7a5922a6d1a6f829023a7a64", "name": "8627e29e7a5922a6d1a6f829023a7a64", "lat": 38.92237133333333, "is_disabled": 0, "lon": -77.03081616666667, "fusion_lat": 0.0, "is_reserved": 0}, {"rental_uris": {"ios": "https://dc.lft.to/lastmile_qr_scan", "android": "https://dc.lft.to/lastmile_qr_scan"}, "fusion_lon": 0.0, "type": "electric_scooter", "bike_id": "e1d427e18019024569efa90f7866fdcc", "name": "e1d427e18019024569efa90f7866fdcc", "lat": 38.92898683333333, "is_disabled": 0, "lon": -77.032408, "fusion_lat": 0.0, "is_reserved": 0}, {"rental_uris": {"ios": "https://dc.lft.to/lastmile_qr_scan", "android": "https://dc.lft.to/lastmile_qr_scan"}, "fusion_lon": 0.0, "type": "electric_scooter", "bike_id": "e538e825c1b4660689a14520a4f14903", "name": "e538e825c1b4660689a14520a4f14903", "lat": 38.89656433333333, "is_disabled": 0, "lon": -77.02713666666666, "fusion_lat": 0.0, "is_reserved": 0}, {"rental_uris": {"ios": "https://dc.lft.to/lastmile_qr_scan", "android": "https://dc.lft.to/lastmile_qr_scan"}, "fusion_lon": 0.0, "type": "electric_scooter", "bike_id": "96a844c7536c3a0266028f11ce7d3794", "name": "96a844c7536c3a0266028f11ce7d3794", "lat": 38.936354666666666, "is_disabled": 0, "lon": -77.02695983333334, "fusion_lat": 0.0, "is_reserved": 0}, {"rental_uris": {"ios": "https://dc.lft.to/lastmile_qr_scan", "android": "https://dc.lft.to/lastmile_qr_scan"}, "fusion_lon": 0.0, "type": "electric_scooter", "bike_id": "b63f4f045d7baa65ab59cae8ac2b1383", "name": "b63f4f045d7baa65ab59cae8ac2b1383", "lat": 38.915262166666665, "is_disabled": 0, "lon": -77.04615366666667, "fusion_lat": 0.0, "is_reserved": 0}, {"rental_uris": {"ios": "https://dc.lft.to/lastmile_qr_scan", "android": "https://dc.lft.to/lastmile_qr_scan"}, "fusion_lon": 0.0, "type": "electric_scooter", "bike_id": "0dd9f1a25532b798a32aa8278fd0deed", "name": "0dd9f1a25532b798a32aa8278fd0deed", "lat": 38.898403333333334, "is_disabled": 0, "lon": -76.94632816666666, "fusion_lat": 0.0, "is_reserved": 0}, {"rental_uris": {"ios": "https://dc.lft.to/lastmile_qr_scan", "android": "https://dc.lft.to/lastmile_qr_scan"}, "fusion_lon": 0.0, "type": "electric_scooter", "bike_id": "c22c53228597651126da4b7ad4a26b41", "name": "c22c53228597651126da4b7ad4a26b41", "lat": 38.904674166666666, "is_disabled": 0, "lon": -77.06215916666666, "fusion_lat": 0.0, "is_reserved": 0}, {"rental_uris": {"ios": "https://dc.lft.to/lastmile_qr_scan", "android": "https://dc.lft.to/lastmile_qr_scan"}, "fusion_lon": 0.0, "type": "electric_scooter", "bike_id": "94d6336655cf8b5b4c38ec0ab86e5c0b", "name": "94d6336655cf8b5b4c38ec0ab86e5c0b", "lat": 38.89217716666667, "is_disabled": 0, "lon": -77.0318215, "fusion_lat": 0.0, "is_reserved": 0}, {"rental_uris": {"ios": "https://dc.lft.to/lastmile_qr_scan", "android": "https://dc.lft.to/lastmile_qr_scan"}, "fusion_lon": 0.0, "type": "electric_scooter", "bike_id": "26e1f25030cacdb89e8be7764f946912", "name": "26e1f25030cacdb89e8be7764f946912", "lat": 38.953089166666665, "is_disabled": 0, "lon": -77.03597116666667, "fusion_lat": 0.0, "is_reserved": 0}, {"rental_uris": {"ios": "https://dc.lft.to/lastmile_qr_scan", "android": "https://dc.lft.to/lastmile_qr_scan"}, "fusion_lon": 0.0, "type": "electric_scooter", "bike_id": "22f4bc2a77a7e4a5afc5d1db70c910b0", "name": "22f4bc2a77a7e4a5afc5d1db70c910b0", "lat": 38.90819533333333, "is_disabled": 0, "lon": -77.0416175, "fusion_lat": 0.0, "is_reserved": 0}, {"rental_uris": {"ios": "https://dc.lft.to/lastmile_qr_scan", "android": "https://dc.lft.to/lastmile_qr_scan"}, "fusion_lon": 0.0, "type": "electric_scooter", "bike_id": "5622419260cb0e5af7712397ccd0af11", "name": "5622419260cb0e5af7712397ccd0af11", "lat": 38.87640316666667, "is_disabled": 0, "lon": -77.01569166666667, "fusion_lat": 0.0, "is_reserved": 0}, {"rental_uris": {"ios": "https://dc.lft.to/lastmile_qr_scan", "android": "https://dc.lft.to/lastmile_qr_scan"}, "fusion_lon": 0.0, "type": "electric_scooter", "bike_id": "44990eaba2de933cb2a49ab254a392ad", "name": "44990eaba2de933cb2a49ab254a392ad", "lat": 38.93144683333333, "is_disabled": 0, "lon": -77.03455366666667, "fusion_lat": 0.0, "is_reserved": 0}, {"rental_uris": {"ios": "https://dc.lft.to/lastmile_qr_scan", "android": "https://dc.lft.to/lastmile_qr_scan"}, "fusion_lon": 0.0, "type": "electric_scooter", "bike_id": "84840c26168a68be440ebab041e0013c", "name": "84840c26168a68be440ebab041e0013c", "lat": 38.919088, "is_disabled": 0, "lon": -77.02134483333333, "fusion_lat": 0.0, "is_reserved": 0}, {"rental_uris": {"ios": "https://dc.lft.to/lastmile_qr_scan", "android": "https://dc.lft.to/lastmile_qr_scan"}, "fusion_lon": 0.0, "type": "electric_bike", "bike_id": "284cea9641e95f18c6ee5eb1a7a097db", "name": "284cea9641e95f18c6ee5eb1a7a097db", "lat": 38.893356833333335, "is_disabled": 0, "lon": -77.124038, "fusion_lat": 0.0, "is_reserved": 0}, {"rental_uris": {"ios": "https://dc.lft.to/lastmile_qr_scan", "android": "https://dc.lft.to/lastmile_qr_scan"}, "fusion_lon": 0.0, "type": "electric_scooter", "bike_id": "de6fbe8db969f965f39944a04afacfa9", "name": "de6fbe8db969f965f39944a04afacfa9", "lat": 38.89967, "is_disabled": 0, "lon": -77.0461275, "fusion_lat": 0.0, "is_reserved": 0}, {"rental_uris": {"ios": "https://dc.lft.to/lastmile_qr_scan", "android": "https://dc.lft.to/lastmile_qr_scan"}, "fusion_lon": 0.0, "type": "electric_scooter", "bike_id": "51d1f7f7c430c8c5620648f59d4696f0", "name": "51d1f7f7c430c8c5620648f59d4696f0", "lat": 38.90163616666667, "is_disabled": 0, "lon": -77.02191916666666, "fusion_lat": 0.0, "is_reserved": 0}, {"rental_uris": {"ios": "https://dc.lft.to/lastmile_qr_scan", "android": "https://dc.lft.to/lastmile_qr_scan"}, "fusion_lon": 0.0, "type": "electric_scooter", "bike_id": "62c7665e0025fe0949472b08825a2248", "name": "62c7665e0025fe0949472b08825a2248", "lat": 38.89300133333333, "is_disabled": 0, "lon": -77.01226233333334, "fusion_lat": 0.0, "is_reserved": 0}, {"rental_uris": {"ios": "https://dc.lft.to/lastmile_qr_scan", "android": "https://dc.lft.to/lastmile_qr_scan"}, "fusion_lon": 0.0, "type": "electric_scooter", "bike_id": "a894643b60498602b51d4b81a87e3cd7", "name": "a894643b60498602b51d4b81a87e3cd7", "lat": 38.912191, "is_disabled": 0, "lon": -77.03192316666667, "fusion_lat": 0.0, "is_reserved": 0}, {"rental_uris": {"ios": "https://dc.lft.to/lastmile_qr_scan", "android": "https://dc.lft.to/lastmile_qr_scan"}, "fusion_lon": 0.0, "type": "electric_scooter", "bike_id": "b7ce70ef4a3591d50c3c64fad969fd97", "name": "b7ce70ef4a3591d50c3c64fad969fd97", "lat": 38.920035, "is_disabled": 0, "lon": -77.02403916666667, "fusion_lat": 0.0, "is_reserved": 0}, {"rental_uris": {"ios": "https://dc.lft.to/lastmile_qr_scan", "android": "https://dc.lft.to/lastmile_qr_scan"}, "fusion_lon": 0.0, "type": "electric_scooter", "bike_id": "fa1631a479a7eda6207493793fa46836", "name": "fa1631a479a7eda6207493793fa46836", "lat": 38.92115116666667, "is_disabled": 0, "lon": -77.04682416666667, "fusion_lat": 0.0, "is_reserved": 0}, {"rental_uris": {"ios": "https://dc.lft.to/lastmile_qr_scan", "android": "https://dc.lft.to/lastmile_qr_scan"}, "fusion_lon": 0.0, "type": "electric_scooter", "bike_id": "96d90406d3230f294ba16903783f8414", "name": "96d90406d3230f294ba16903783f8414", "lat": 38.902379833333335, "is_disabled": 0, "lon": -77.0021, "fusion_lat": 0.0, "is_reserved": 0}, {"rental_uris": {"ios": "https://dc.lft.to/lastmile_qr_scan", "android": "https://dc.lft.to/lastmile_qr_scan"}, "fusion_lon": 0.0, "type": "electric_scooter", "bike_id": "0949c7710fe0405fae5b91f0fef8e345", "name": "0949c7710fe0405fae5b91f0fef8e345", "lat": 38.92103083333333, "is_disabled": 0, "lon": -77.03053066666666, "fusion_lat": 0.0, "is_reserved": 0}, {"rental_uris": {"ios": "https://dc.lft.to/lastmile_qr_scan", "android": "https://dc.lft.to/lastmile_qr_scan"}, "fusion_lon": 0.0, "type": "electric_scooter", "bike_id": "454712127271584377677d88aec813c0", "name": "454712127271584377677d88aec813c0", "lat": 38.89841583333333, "is_disabled": 0, "lon": -76.9463405, "fusion_lat": 0.0, "is_reserved": 0}, {"rental_uris": {"ios": "https://dc.lft.to/lastmile_qr_scan", "android": "https://dc.lft.to/lastmile_qr_scan"}, "fusion_lon": 0.0, "type": "electric_scooter", "bike_id": "dd00c591c6b0d96a0405326e54f1dfd3", "name": "dd00c591c6b0d96a0405326e54f1dfd3", "lat": 38.9108965, "is_disabled": 0, "lon": -77.03849883333334, "fusion_lat": 0.0, "is_reserved": 0}, {"rental_uris": {"ios": "https://dc.lft.to/lastmile_qr_scan", "android": "https://dc.lft.to/lastmile_qr_scan"}, "fusion_lon": 0.0, "type": "electric_scooter", "bike_id": "62001d102ad692defc5acab4160ccaf1", "name": "62001d102ad692defc5acab4160ccaf1", "lat": 38.90391983333333, "is_disabled": 0, "lon": -77.027973, "fusion_lat": 0.0, "is_reserved": 0}, {"rental_uris": {"ios": "https://dc.lft.to/lastmile_qr_scan", "android": "https://dc.lft.to/lastmile_qr_scan"}, "fusion_lon": 0.0, "type": "electric_scooter", "bike_id": "fd9f45aa8541e04ba671604f2854f317", "name": "fd9f45aa8541e04ba671604f2854f317", "lat": 38.891053666666664, "is_disabled": 0, "lon": -77.0061445, "fusion_lat": 0.0, "is_reserved": 0}, {"rental_uris": {"ios": "https://dc.lft.to/lastmile_qr_scan", "android": "https://dc.lft.to/lastmile_qr_scan"}, "fusion_lon": 0.0, "type": "electric_bike", "bike_id": "6148d6948b70cbf2c63481d7398d0a36", "name": "6148d6948b70cbf2c63481d7398d0a36", "lat": 38.98497883333334, "is_disabled": 0, "lon": -76.981955, "fusion_lat": 0.0, "is_reserved": 0}, {"rental_uris": {"ios": "https://dc.lft.to/lastmile_qr_scan", "android": "https://dc.lft.to/lastmile_qr_scan"}, "fusion_lon": 0.0, "type": "electric_scooter", "bike_id": "1c3c4521afb7064c66c5db77d716e39b", "name": "1c3c4521afb7064c66c5db77d716e39b", "lat": 38.89767916666667, "is_disabled": 0, "lon": -77.01214966666667, "fusion_lat": 0.0, "is_reserved": 0}, {"rental_uris": {"ios": "https://dc.lft.to/lastmile_qr_scan", "android": "https://dc.lft.to/lastmile_qr_scan"}, "fusion_lon": 0.0, "type": "electric_scooter", "bike_id": "24d012357f83dc3a036b80b5d7191da7", "name": "24d012357f83dc3a036b80b5d7191da7", "lat": 38.899761166666664, "is_disabled": 0, "lon": -77.029627, "fusion_lat": 0.0, "is_reserved": 0}, {"rental_uris": {"ios": "https://dc.lft.to/lastmile_qr_scan", "android": "https://dc.lft.to/lastmile_qr_scan"}, "fusion_lon": 0.0, "type": "electric_scooter", "bike_id": "39d5341f6dfcbb74569090820f82f266", "name": "39d5341f6dfcbb74569090820f82f266", "lat": 38.93095316666667, "is_disabled": 0, "lon": -77.02507266666667, "fusion_lat": 0.0, "is_reserved": 0}, {"rental_uris": {"ios": "https://dc.lft.to/lastmile_qr_scan", "android": "https://dc.lft.to/lastmile_qr_scan"}, "fusion_lon": 0.0, "type": "electric_scooter", "bike_id": "c19a6dfb3dd069570e1ef34d29caaebe", "name": "c19a6dfb3dd069570e1ef34d29caaebe", "lat": 38.9192155, "is_disabled": 0, "lon": -77.03173, "fusion_lat": 0.0, "is_reserved": 0}, {"rental_uris": {"ios": "https://dc.lft.to/lastmile_qr_scan", "android": "https://dc.lft.to/lastmile_qr_scan"}, "fusion_lon": 0.0, "type": "electric_scooter", "bike_id": "e0b7403917f22654dd4b0709430fc6b8", "name": "e0b7403917f22654dd4b0709430fc6b8", "lat": 38.902326333333335, "is_disabled": 0, "lon": -77.04278133333334, "fusion_lat": 0.0, "is_reserved": 0}, {"rental_uris": {"ios": "https://dc.lft.to/lastmile_qr_scan", "android": "https://dc.lft.to/lastmile_qr_scan"}, "fusion_lon": 0.0, "type": "electric_scooter", "bike_id": "035e446e37023a89b118c9dfaccf4b42", "name": "035e446e37023a89b118c9dfaccf4b42", "lat": 38.9121675, "is_disabled": 0, "lon": -77.02711616666667, "fusion_lat": 0.0, "is_reserved": 0}, {"rental_uris": {"ios": "https://dc.lft.to/lastmile_qr_scan", "android": "https://dc.lft.to/lastmile_qr_scan"}, "fusion_lon": 0.0, "type": "electric_bike", "bike_id": "efaa677cffdd7d8335c1157f0860a6f7", "name": "efaa677cffdd7d8335c1157f0860a6f7", "lat": 38.90404483333333, "is_disabled": 0, "lon": -77.03478066666666, "fusion_lat": 0.0, "is_reserved": 0}, {"rental_uris": {"ios": "https://dc.lft.to/lastmile_qr_scan", "android": "https://dc.lft.to/lastmile_qr_scan"}, "fusion_lon": 0.0, "type": "electric_scooter", "bike_id": "ff1ef8195baa76d8a0cb9703bce095b3", "name": "ff1ef8195baa76d8a0cb9703bce095b3", "lat": 38.90723283333333, "is_disabled": 0, "lon": -77.03991683333334, "fusion_lat": 0.0, "is_reserved": 0}, {"rental_uris": {"ios": "https://dc.lft.to/lastmile_qr_scan", "android": "https://dc.lft.to/lastmile_qr_scan"}, "fusion_lon": 0.0, "type": "electric_scooter", "bike_id": "7e4524dea34e8e280b9ee9e015e9a9bc", "name": "7e4524dea34e8e280b9ee9e015e9a9bc", "lat": 38.899123833333334, "is_disabled": 0, "lon": -76.93368266666667, "fusion_lat": 0.0, "is_reserved": 0}, {"rental_uris": {"ios": "https://dc.lft.to/lastmile_qr_scan", "android": "https://dc.lft.to/lastmile_qr_scan"}, "fusion_lon": 0.0, "type": "electric_scooter", "bike_id": "3195ea1a83b83457807eed452f79eca3", "name": "3195ea1a83b83457807eed452f79eca3", "lat": 38.90851633333333, "is_disabled": 0, "lon": -76.99804533333334, "fusion_lat": 0.0, "is_reserved": 0}, {"rental_uris": {"ios": "https://dc.lft.to/lastmile_qr_scan", "android": "https://dc.lft.to/lastmile_qr_scan"}, "fusion_lon": 0.0, "type": "electric_bike", "bike_id": "20f421126fd1458d6e5a862e72e23f92", "name": "20f421126fd1458d6e5a862e72e23f92", "lat": 38.96644966666667, "is_disabled": 0, "lon": -76.93019516666666, "fusion_lat": 0.0, "is_reserved": 0}, {"rental_uris": {"ios": "https://dc.lft.to/lastmile_qr_scan", "android": "https://dc.lft.to/lastmile_qr_scan"}, "fusion_lon": 0.0, "type": "electric_scooter", "bike_id": "60ee53c4d313c44002daff24336b90e2", "name": "60ee53c4d313c44002daff24336b90e2", "lat": 38.92049466666667, "is_disabled": 0, "lon": -77.0242465, "fusion_lat": 0.0, "is_reserved": 0}, {"rental_uris": {"ios": "https://dc.lft.to/lastmile_qr_scan", "android": "https://dc.lft.to/lastmile_qr_scan"}, "fusion_lon": 0.0, "type": "electric_scooter", "bike_id": "01a9131e02e03be2c314970628afcc4a", "name": "01a9131e02e03be2c314970628afcc4a", "lat": 38.956146, "is_disabled": 0, "lon": -77.0327755, "fusion_lat": 0.0, "is_reserved": 0}, {"rental_uris": {"ios": "https://dc.lft.to/lastmile_qr_scan", "android": "https://dc.lft.to/lastmile_qr_scan"}, "fusion_lon": 0.0, "type": "electric_scooter", "bike_id": "9fc049e9756cd174461f09a6b9507713", "name": "9fc049e9756cd174461f09a6b9507713", "lat": 38.9055775, "is_disabled": 0, "lon": -77.02611816666666, "fusion_lat": 0.0, "is_reserved": 0}, {"rental_uris": {"ios": "https://dc.lft.to/lastmile_qr_scan", "android": "https://dc.lft.to/lastmile_qr_scan"}, "fusion_lon": 0.0, "type": "electric_scooter", "bike_id": "2457105633edee91bf75d402e3c92f02", "name": "2457105633edee91bf75d402e3c92f02", "lat": 38.89659566666667, "is_disabled": 0, "lon": -77.0503925, "fusion_lat": 0.0, "is_reserved": 0}, {"rental_uris": {"ios": "https://dc.lft.to/lastmile_qr_scan", "android": "https://dc.lft.to/lastmile_qr_scan"}, "fusion_lon": 0.0, "type": "electric_scooter", "bike_id": "818a2a5b1998669e44a35e68cca4b87a", "name": "818a2a5b1998669e44a35e68cca4b87a", "lat": 38.91882416666667, "is_disabled": 0, "lon": -77.04171466666666, "fusion_lat": 0.0, "is_reserved": 0}, {"rental_uris": {"ios": "https://dc.lft.to/lastmile_qr_scan", "android": "https://dc.lft.to/lastmile_qr_scan"}, "fusion_lon": 0.0, "type": "electric_scooter", "bike_id": "77cf95c96e04b090b6480cd364c92e0a", "name": "77cf95c96e04b090b6480cd364c92e0a", "lat": 38.927898666666664, "is_disabled": 0, "lon": -77.03111033333333, "fusion_lat": 0.0, "is_reserved": 0}, {"rental_uris": {"ios": "https://dc.lft.to/lastmile_qr_scan", "android": "https://dc.lft.to/lastmile_qr_scan"}, "fusion_lon": 0.0, "type": "electric_scooter", "bike_id": "237bbfe22f400e4a6706d8775eccf11e", "name": "237bbfe22f400e4a6706d8775eccf11e", "lat": 38.899109, "is_disabled": 0, "lon": -77.03291683333333, "fusion_lat": 0.0, "is_reserved": 0}, {"rental_uris": {"ios": "https://dc.lft.to/lastmile_qr_scan", "android": "https://dc.lft.to/lastmile_qr_scan"}, "fusion_lon": 0.0, "type": "electric_scooter", "bike_id": "1bbdb86772f0de397e718df878d30d75", "name": "1bbdb86772f0de397e718df878d30d75", "lat": 38.897219666666665, "is_disabled": 0, "lon": -77.019979, "fusion_lat": 0.0, "is_reserved": 0}, {"rental_uris": {"ios": "https://dc.lft.to/lastmile_qr_scan", "android": "https://dc.lft.to/lastmile_qr_scan"}, "fusion_lon": 0.0, "type": "electric_scooter", "bike_id": "b6b821b0462da9cfb8156cd47f91bf06", "name": "b6b821b0462da9cfb8156cd47f91bf06", "lat": 38.90374633333333, "is_disabled": 0, "lon": -77.04505383333333, "fusion_lat": 0.0, "is_reserved": 0}, {"rental_uris": {"ios": "https://dc.lft.to/lastmile_qr_scan", "android": "https://dc.lft.to/lastmile_qr_scan"}, "fusion_lon": 0.0, "type": "electric_scooter", "bike_id": "c3a93175a3c94cba5901d1225c2ca381", "name": "c3a93175a3c94cba5901d1225c2ca381", "lat": 38.94187133333333, "is_disabled": 0, "lon": -77.03325933333333, "fusion_lat": 0.0, "is_reserved": 0}, {"rental_uris": {"ios": "https://dc.lft.to/lastmile_qr_scan", "android": "https://dc.lft.to/lastmile_qr_scan"}, "fusion_lon": 0.0, "type": "electric_scooter", "bike_id": "aa30083e47b68b0e16121c49bb54f830", "name": "aa30083e47b68b0e16121c49bb54f830", "lat": 38.90554566666667, "is_disabled": 0, "lon": -77.0055715, "fusion_lat": 0.0, "is_reserved": 0}, {"rental_uris": {"ios": "https://dc.lft.to/lastmile_qr_scan", "android": "https://dc.lft.to/lastmile_qr_scan"}, "fusion_lon": 0.0, "type": "electric_scooter", "bike_id": "e072733c2dad08ff7e957e738e4bcd69", "name": "e072733c2dad08ff7e957e738e4bcd69", "lat": 38.901233500000004, "is_disabled": 0, "lon": -77.03939883333334, "fusion_lat": 0.0, "is_reserved": 0}, {"rental_uris": {"ios": "https://dc.lft.to/lastmile_qr_scan", "android": "https://dc.lft.to/lastmile_qr_scan"}, "fusion_lon": 0.0, "type": "electric_scooter", "bike_id": "811a58fd32867c035012cb3d030d5488", "name": "811a58fd32867c035012cb3d030d5488", "lat": 38.887449833333335, "is_disabled": 0, "lon": -77.025717, "fusion_lat": 0.0, "is_reserved": 0}, {"rental_uris": {"ios": "https://dc.lft.to/lastmile_qr_scan", "android": "https://dc.lft.to/lastmile_qr_scan"}, "fusion_lon": 0.0, "type": "electric_scooter", "bike_id": "e3ed61f7f206320eaee5671fe28e2a30", "name": "e3ed61f7f206320eaee5671fe28e2a30", "lat": 38.89865316666667, "is_disabled": 0, "lon": -77.03357233333334, "fusion_lat": 0.0, "is_reserved": 0}, {"rental_uris": {"ios": "https://dc.lft.to/lastmile_qr_scan", "android": "https://dc.lft.to/lastmile_qr_scan"}, "fusion_lon": 0.0, "type": "electric_scooter", "bike_id": "c9a439f72a43525e408dc7a0e8f1cb36", "name": "c9a439f72a43525e408dc7a0e8f1cb36", "lat": 38.904378333333334, "is_disabled": 0, "lon": -77.05149716666666, "fusion_lat": 0.0, "is_reserved": 0}, {"rental_uris": {"ios": "https://dc.lft.to/lastmile_qr_scan", "android": "https://dc.lft.to/lastmile_qr_scan"}, "fusion_lon": 0.0, "type": "electric_scooter", "bike_id": "367bdbbb34c71ebdba584e63f6328929", "name": "367bdbbb34c71ebdba584e63f6328929", "lat": 38.953965333333336, "is_disabled": 0, "lon": -77.02753016666666, "fusion_lat": 0.0, "is_reserved": 0}, {"rental_uris": {"ios": "https://dc.lft.to/lastmile_qr_scan", "android": "https://dc.lft.to/lastmile_qr_scan"}, "fusion_lon": 0.0, "type": "electric_scooter", "bike_id": "aa47e545517776769d6d11c6e6d76bcf", "name": "aa47e545517776769d6d11c6e6d76bcf", "lat": 38.908296166666666, "is_disabled": 0, "lon": -77.04881466666667, "fusion_lat": 0.0, "is_reserved": 0}, {"rental_uris": {"ios": "https://dc.lft.to/lastmile_qr_scan", "android": "https://dc.lft.to/lastmile_qr_scan"}, "fusion_lon": 0.0, "type": "electric_scooter", "bike_id": "02425371ff8ad9940fa5664eeb1785af", "name": "02425371ff8ad9940fa5664eeb1785af", "lat": 38.91267883333333, "is_disabled": 0, "lon": -77.036421, "fusion_lat": 0.0, "is_reserved": 0}, {"rental_uris": {"ios": "https://dc.lft.to/lastmile_qr_scan", "android": "https://dc.lft.to/lastmile_qr_scan"}, "fusion_lon": 0.0, "type": "electric_bike", "bike_id": "baf67e14c25f80c1f4b5c7dd9b1cb096", "name": "baf67e14c25f80c1f4b5c7dd9b1cb096", "lat": 38.857832, "is_disabled": 0, "lon": -76.98757066666667, "fusion_lat": 0.0, "is_reserved": 0}, {"rental_uris": {"ios": "https://dc.lft.to/lastmile_qr_scan", "android": "https://dc.lft.to/lastmile_qr_scan"}, "fusion_lon": 0.0, "type": "electric_scooter", "bike_id": "3ce2fe6cab11b83ad6aa57a765f57937", "name": "3ce2fe6cab11b83ad6aa57a765f57937", "lat": 38.902560333333334, "is_disabled": 0, "lon": -77.01806383333333, "fusion_lat": 0.0, "is_reserved": 0}, {"rental_uris": {"ios": "https://dc.lft.to/lastmile_qr_scan", "android": "https://dc.lft.to/lastmile_qr_scan"}, "fusion_lon": 0.0, "type": "electric_scooter", "bike_id": "d89e289a27c2635f5d1cc7c1cb082dc1", "name": "d89e289a27c2635f5d1cc7c1cb082dc1", "lat": 38.90984316666667, "is_disabled": 0, "lon": -77.0386015, "fusion_lat": 0.0, "is_reserved": 0}, {"rental_uris": {"ios": "https://dc.lft.to/lastmile_qr_scan", "android": "https://dc.lft.to/lastmile_qr_scan"}, "fusion_lon": 0.0, "type": "electric_scooter", "bike_id": "def52b34561a392e32cb327dc92555dd", "name": "def52b34561a392e32cb327dc92555dd", "lat": 38.940850833333336, "is_disabled": 0, "lon": -77.027333, "fusion_lat": 0.0, "is_reserved": 0}, {"rental_uris": {"ios": "https://dc.lft.to/lastmile_qr_scan", "android": "https://dc.lft.to/lastmile_qr_scan"}, "fusion_lon": 0.0, "type": "electric_scooter", "bike_id": "4581df7c1a47282ec5195638c9596c75", "name": "4581df7c1a47282ec5195638c9596c75", "lat": 38.8922215, "is_disabled": 0, "lon": -77.046618, "fusion_lat": 0.0, "is_reserved": 0}, {"rental_uris": {"ios": "https://dc.lft.to/lastmile_qr_scan", "android": "https://dc.lft.to/lastmile_qr_scan"}, "fusion_lon": 0.0, "type": "electric_scooter", "bike_id": "241c09eda9c8b7463d31b346b7246c4b", "name": "241c09eda9c8b7463d31b346b7246c4b", "lat": 38.92204183333333, "is_disabled": 0, "lon": -77.04252483333333, "fusion_lat": 0.0, "is_reserved": 0}, {"rental_uris": {"ios": "https://dc.lft.to/lastmile_qr_scan", "android": "https://dc.lft.to/lastmile_qr_scan"}, "fusion_lon": 0.0, "type": "electric_scooter", "bike_id": "7fd5a5ed61e46f86aa106fa4f58dd205", "name": "7fd5a5ed61e46f86aa106fa4f58dd205", "lat": 38.888863666666666, "is_disabled": 0, "lon": -77.01547333333333, "fusion_lat": 0.0, "is_reserved": 0}, {"rental_uris": {"ios": "https://dc.lft.to/lastmile_qr_scan", "android": "https://dc.lft.to/lastmile_qr_scan"}, "fusion_lon": 0.0, "type": "electric_scooter", "bike_id": "50e302bdf29c77173910d81a031f454c", "name": "50e302bdf29c77173910d81a031f454c", "lat": 38.90138016666667, "is_disabled": 0, "lon": -77.04160466666667, "fusion_lat": 0.0, "is_reserved": 0}, {"rental_uris": {"ios": "https://dc.lft.to/lastmile_qr_scan", "android": "https://dc.lft.to/lastmile_qr_scan"}, "fusion_lon": 0.0, "type": "electric_bike", "bike_id": "868834b8637b014951a99b3c492600ae", "name": "868834b8637b014951a99b3c492600ae", "lat": 38.99883883333333, "is_disabled": 0, "lon": -77.0286535, "fusion_lat": 0.0, "is_reserved": 0}, {"rental_uris": {"ios": "https://dc.lft.to/lastmile_qr_scan", "android": "https://dc.lft.to/lastmile_qr_scan"}, "fusion_lon": 0.0, "type": "electric_scooter", "bike_id": "3af5943b260d484ed6bb7033454cdf8b", "name": "3af5943b260d484ed6bb7033454cdf8b", "lat": 38.85805833333333, "is_disabled": 0, "lon": -76.98652783333333, "fusion_lat": 0.0, "is_reserved": 0}, {"rental_uris": {"ios": "https://dc.lft.to/lastmile_qr_scan", "android": "https://dc.lft.to/lastmile_qr_scan"}, "fusion_lon": 0.0, "type": "electric_scooter", "bike_id": "2f02037a6d4cf92a2c82166e6e834060", "name": "2f02037a6d4cf92a2c82166e6e834060", "lat": 38.928208833333336, "is_disabled": 0, "lon": -77.02255816666667, "fusion_lat": 0.0, "is_reserved": 0}, {"rental_uris": {"ios": "https://dc.lft.to/lastmile_qr_scan", "android": "https://dc.lft.to/lastmile_qr_scan"}, "fusion_lon": 0.0, "type": "electric_scooter", "bike_id": "ef756a9017abd55a5a418fbe47f23c41", "name": "ef756a9017abd55a5a418fbe47f23c41", "lat": 38.89521333333333, "is_disabled": 0, "lon": -77.02935883333333, "fusion_lat": 0.0, "is_reserved": 0}, {"rental_uris": {"ios": "https://dc.lft.to/lastmile_qr_scan", "android": "https://dc.lft.to/lastmile_qr_scan"}, "fusion_lon": 0.0, "type": "electric_scooter", "bike_id": "6b77f2efe271a2acd746c3a59d3992b1", "name": "6b77f2efe271a2acd746c3a59d3992b1", "lat": 38.90135766666667, "is_disabled": 0, "lon": -77.01194383333333, "fusion_lat": 0.0, "is_reserved": 0}, {"rental_uris": {"ios": "https://dc.lft.to/lastmile_qr_scan", "android": "https://dc.lft.to/lastmile_qr_scan"}, "fusion_lon": 0.0, "type": "electric_scooter", "bike_id": "4562f36df9495c7dbcdd29ac466e4484", "name": "4562f36df9495c7dbcdd29ac466e4484", "lat": 38.9125585, "is_disabled": 0, "lon": -77.01696183333334, "fusion_lat": 0.0, "is_reserved": 0}, {"rental_uris": {"ios": "https://dc.lft.to/lastmile_qr_scan", "android": "https://dc.lft.to/lastmile_qr_scan"}, "fusion_lon": 0.0, "type": "electric_bike", "bike_id": "0566b4da2b446291e7f9d007c9ab10a4", "name": "0566b4da2b446291e7f9d007c9ab10a4", "lat": 38.96758066666666, "is_disabled": 0, "lon": -77.09160683333333, "fusion_lat": 0.0, "is_reserved": 0}, {"rental_uris": {"ios": "https://dc.lft.to/lastmile_qr_scan", "android": "https://dc.lft.to/lastmile_qr_scan"}, "fusion_lon": 0.0, "type": "electric_scooter", "bike_id": "ba6059b4ef7a02c7c6789a0e8ddbb407", "name": "ba6059b4ef7a02c7c6789a0e8ddbb407", "lat": 38.91938366666667, "is_disabled": 0, "lon": -77.018041, "fusion_lat": 0.0, "is_reserved": 0}, {"rental_uris": {"ios": "https://dc.lft.to/lastmile_qr_scan", "android": "https://dc.lft.to/lastmile_qr_scan"}, "fusion_lon": 0.0, "type": "electric_scooter", "bike_id": "83a8c3e2f6eeb60453a86f94949321cd", "name": "83a8c3e2f6eeb60453a86f94949321cd", "lat": 38.8919475, "is_disabled": 0, "lon": -77.03173366666667, "fusion_lat": 0.0, "is_reserved": 0}, {"rental_uris": {"ios": "https://dc.lft.to/lastmile_qr_scan", "android": "https://dc.lft.to/lastmile_qr_scan"}, "fusion_lon": 0.0, "type": "electric_scooter", "bike_id": "15b22658a7d0589d9cf3e7c6b639efce", "name": "15b22658a7d0589d9cf3e7c6b639efce", "lat": 38.904882, "is_disabled": 0, "lon": -77.02943716666667, "fusion_lat": 0.0, "is_reserved": 0}, {"rental_uris": {"ios": "https://dc.lft.to/lastmile_qr_scan", "android": "https://dc.lft.to/lastmile_qr_scan"}, "fusion_lon": 0.0, "type": "electric_bike", "bike_id": "1e18bb96f2fa55c08c56f89c3d5b7bfd", "name": "1e18bb96f2fa55c08c56f89c3d5b7bfd", "lat": 38.86562933333333, "is_disabled": 0, "lon": -76.9733045, "fusion_lat": 0.0, "is_reserved": 0}, {"rental_uris": {"ios": "https://dc.lft.to/lastmile_qr_scan", "android": "https://dc.lft.to/lastmile_qr_scan"}, "fusion_lon": 0.0, "type": "electric_scooter", "bike_id": "8fb8d6be23c773c0d564dd892acf52ab", "name": "8fb8d6be23c773c0d564dd892acf52ab", "lat": 38.9202675, "is_disabled": 0, "lon": -77.011372, "fusion_lat": 0.0, "is_reserved": 0}, {"rental_uris": {"ios": "https://dc.lft.to/lastmile_qr_scan", "android": "https://dc.lft.to/lastmile_qr_scan"}, "fusion_lon": 0.0, "type": "electric_scooter", "bike_id": "c48130307b57c5a3b979fc72aff608f9", "name": "c48130307b57c5a3b979fc72aff608f9", "lat": 38.90726183333334, "is_disabled": 0, "lon": -77.02979416666666, "fusion_lat": 0.0, "is_reserved": 0}, {"rental_uris": {"ios": "https://dc.lft.to/lastmile_qr_scan", "android": "https://dc.lft.to/lastmile_qr_scan"}, "fusion_lon": 0.0, "type": "electric_scooter", "bike_id": "c0a79891adc3d47a75dd2535b0a9f2cc", "name": "c0a79891adc3d47a75dd2535b0a9f2cc", "lat": 38.930007333333336, "is_disabled": 0, "lon": -77.07840883333333, "fusion_lat": 0.0, "is_reserved": 0}, {"rental_uris": {"ios": "https://dc.lft.to/lastmile_qr_scan", "android": "https://dc.lft.to/lastmile_qr_scan"}, "fusion_lon": 0.0, "type": "electric_scooter", "bike_id": "656a7b74c292fdea3b101ae67122cced", "name": "656a7b74c292fdea3b101ae67122cced", "lat": 38.909722, "is_disabled": 0, "lon": -77.0338435, "fusion_lat": 0.0, "is_reserved": 0}, {"rental_uris": {"ios": "https://dc.lft.to/lastmile_qr_scan", "android": "https://dc.lft.to/lastmile_qr_scan"}, "fusion_lon": 0.0, "type": "electric_scooter", "bike_id": "b0f34eb7216073ec11bb7cc388cb52fe", "name": "b0f34eb7216073ec11bb7cc388cb52fe", "lat": 38.90339766666666, "is_disabled": 0, "lon": -77.02446133333333, "fusion_lat": 0.0, "is_reserved": 0}, {"rental_uris": {"ios": "https://dc.lft.to/lastmile_qr_scan", "android": "https://dc.lft.to/lastmile_qr_scan"}, "fusion_lon": 0.0, "type": "electric_scooter", "bike_id": "698ac979ab5c9ff0e370e3c7f0fcaa85", "name": "698ac979ab5c9ff0e370e3c7f0fcaa85", "lat": 38.937146, "is_disabled": 0, "lon": -77.03261733333333, "fusion_lat": 0.0, "is_reserved": 0}, {"rental_uris": {"ios": "https://dc.lft.to/lastmile_qr_scan", "android": "https://dc.lft.to/lastmile_qr_scan"}, "fusion_lon": 0.0, "type": "electric_scooter", "bike_id": "1ea21fa9372ba0c01935082949689dba", "name": "1ea21fa9372ba0c01935082949689dba", "lat": 38.905447833333334, "is_disabled": 0, "lon": -77.0059395, "fusion_lat": 0.0, "is_reserved": 0}, {"rental_uris": {"ios": "https://dc.lft.to/lastmile_qr_scan", "android": "https://dc.lft.to/lastmile_qr_scan"}, "fusion_lon": 0.0, "type": "electric_scooter", "bike_id": "79154f3cc3a440904a588ad6e047cc7e", "name": "79154f3cc3a440904a588ad6e047cc7e", "lat": 38.86363683333333, "is_disabled": 0, "lon": -76.99067183333334, "fusion_lat": 0.0, "is_reserved": 0}, {"rental_uris": {"ios": "https://dc.lft.to/lastmile_qr_scan", "android": "https://dc.lft.to/lastmile_qr_scan"}, "fusion_lon": 0.0, "type": "electric_scooter", "bike_id": "d04bf10bda708c70b4b4ce615cb49a00", "name": "d04bf10bda708c70b4b4ce615cb49a00", "lat": 38.89216783333333, "is_disabled": 0, "lon": -77.02220533333333, "fusion_lat": 0.0, "is_reserved": 0}, {"rental_uris": {"ios": "https://dc.lft.to/lastmile_qr_scan", "android": "https://dc.lft.to/lastmile_qr_scan"}, "fusion_lon": 0.0, "type": "electric_scooter", "bike_id": "79c4b3a95f7826b5d2b6492bfbf3479e", "name": "79c4b3a95f7826b5d2b6492bfbf3479e", "lat": 38.91201516666667, "is_disabled": 0, "lon": -76.9848435, "fusion_lat": 0.0, "is_reserved": 0}, {"rental_uris": {"ios": "https://dc.lft.to/lastmile_qr_scan", "android": "https://dc.lft.to/lastmile_qr_scan"}, "fusion_lon": 0.0, "type": "electric_scooter", "bike_id": "003fbdc09f48205c430c4e10a4dda79b", "name": "003fbdc09f48205c430c4e10a4dda79b", "lat": 38.906744333333336, "is_disabled": 0, "lon": -77.0344355, "fusion_lat": 0.0, "is_reserved": 0}, {"rental_uris": {"ios": "https://dc.lft.to/lastmile_qr_scan", "android": "https://dc.lft.to/lastmile_qr_scan"}, "fusion_lon": 0.0, "type": "electric_scooter", "bike_id": "a127f6e48af1c87c9a10e64ff1461b4b", "name": "a127f6e48af1c87c9a10e64ff1461b4b", "lat": 38.907299333333334, "is_disabled": 0, "lon": -77.02369833333333, "fusion_lat": 0.0, "is_reserved": 0}, {"rental_uris": {"ios": "https://dc.lft.to/lastmile_qr_scan", "android": "https://dc.lft.to/lastmile_qr_scan"}, "fusion_lon": 0.0, "type": "electric_scooter", "bike_id": "fb7767e65a68b243d7c9656926befac5", "name": "fb7767e65a68b243d7c9656926befac5", "lat": 38.891940166666664, "is_disabled": 0, "lon": -77.03172766666667, "fusion_lat": 0.0, "is_reserved": 0}, {"rental_uris": {"ios": "https://dc.lft.to/lastmile_qr_scan", "android": "https://dc.lft.to/lastmile_qr_scan"}, "fusion_lon": 0.0, "type": "electric_scooter", "bike_id": "d9fb3eb92af9bda14252fef7ab9cb610", "name": "d9fb3eb92af9bda14252fef7ab9cb610", "lat": 38.917328166666664, "is_disabled": 0, "lon": -76.99178716666667, "fusion_lat": 0.0, "is_reserved": 0}, {"rental_uris": {"ios": "https://dc.lft.to/lastmile_qr_scan", "android": "https://dc.lft.to/lastmile_qr_scan"}, "fusion_lon": 0.0, "type": "electric_scooter", "bike_id": "6e11ff749db8b4692d14c98b5973fffd", "name": "6e11ff749db8b4692d14c98b5973fffd", "lat": 38.91791833333333, "is_disabled": 0, "lon": -77.034478, "fusion_lat": 0.0, "is_reserved": 0}, {"rental_uris": {"ios": "https://dc.lft.to/lastmile_qr_scan", "android": "https://dc.lft.to/lastmile_qr_scan"}, "fusion_lon": 0.0, "type": "electric_scooter", "bike_id": "2457392fdc3424f42627579c3a7b3e92", "name": "2457392fdc3424f42627579c3a7b3e92", "lat": 38.8856585, "is_disabled": 0, "lon": -77.000684, "fusion_lat": 0.0, "is_reserved": 0}, {"rental_uris": {"ios": "https://dc.lft.to/lastmile_qr_scan", "android": "https://dc.lft.to/lastmile_qr_scan"}, "fusion_lon": 0.0, "type": "electric_scooter", "bike_id": "0f4d8d484cd68146b9f40ccc26e3190c", "name": "0f4d8d484cd68146b9f40ccc26e3190c", "lat": 38.90010866666667, "is_disabled": 0, "lon": -76.99591383333333, "fusion_lat": 0.0, "is_reserved": 0}, {"rental_uris": {"ios": "https://dc.lft.to/lastmile_qr_scan", "android": "https://dc.lft.to/lastmile_qr_scan"}, "fusion_lon": 0.0, "type": "electric_bike", "bike_id": "14079a19146526455191114dc21b7e30", "name": "14079a19146526455191114dc21b7e30", "lat": 38.970567833333334, "is_disabled": 0, "lon": -76.96059933333333, "fusion_lat": 0.0, "is_reserved": 0}, {"rental_uris": {"ios": "https://dc.lft.to/lastmile_qr_scan", "android": "https://dc.lft.to/lastmile_qr_scan"}, "fusion_lon": 0.0, "type": "electric_scooter", "bike_id": "473d0e4769d5e11c7e925face054dc49", "name": "473d0e4769d5e11c7e925face054dc49", "lat": 38.9216645, "is_disabled": 0, "lon": -77.0434585, "fusion_lat": 0.0, "is_reserved": 0}, {"rental_uris": {"ios": "https://dc.lft.to/lastmile_qr_scan", "android": "https://dc.lft.to/lastmile_qr_scan"}, "fusion_lon": 0.0, "type": "electric_scooter", "bike_id": "34dbbd6263f1f8ef7f52ecef425e3c5e", "name": "34dbbd6263f1f8ef7f52ecef425e3c5e", "lat": 38.90725283333333, "is_disabled": 0, "lon": -77.01131833333334, "fusion_lat": 0.0, "is_reserved": 0}, {"rental_uris": {"ios": "https://dc.lft.to/lastmile_qr_scan", "android": "https://dc.lft.to/lastmile_qr_scan"}, "fusion_lon": 0.0, "type": "electric_scooter", "bike_id": "eec8ad344d91c5dcd4926eb62874d6bb", "name": "eec8ad344d91c5dcd4926eb62874d6bb", "lat": 38.9157565, "is_disabled": 0, "lon": -77.01997883333334, "fusion_lat": 0.0, "is_reserved": 0}, {"rental_uris": {"ios": "https://dc.lft.to/lastmile_qr_scan", "android": "https://dc.lft.to/lastmile_qr_scan"}, "fusion_lon": 0.0, "type": "electric_scooter", "bike_id": "da74e8a80eca30d0ffab8287f22fc8fd", "name": "da74e8a80eca30d0ffab8287f22fc8fd", "lat": 38.920749, "is_disabled": 0, "lon": -77.02391633333333, "fusion_lat": 0.0, "is_reserved": 0}, {"rental_uris": {"ios": "https://dc.lft.to/lastmile_qr_scan", "android": "https://dc.lft.to/lastmile_qr_scan"}, "fusion_lon": 0.0, "type": "electric_scooter", "bike_id": "8ca08d763796fc1b4f5ff1bc51d1eac4", "name": "8ca08d763796fc1b4f5ff1bc51d1eac4", "lat": 38.90732, "is_disabled": 0, "lon": -77.02372366666667, "fusion_lat": 0.0, "is_reserved": 0}, {"rental_uris": {"ios": "https://dc.lft.to/lastmile_qr_scan", "android": "https://dc.lft.to/lastmile_qr_scan"}, "fusion_lon": 0.0, "type": "electric_bike", "bike_id": "072562db0c7790dccf7a770d03c1d703", "name": "072562db0c7790dccf7a770d03c1d703", "lat": 38.90774483333333, "is_disabled": 0, "lon": -77.07160283333333, "fusion_lat": 0.0, "is_reserved": 0}, {"rental_uris": {"ios": "https://dc.lft.to/lastmile_qr_scan", "android": "https://dc.lft.to/lastmile_qr_scan"}, "fusion_lon": 0.0, "type": "electric_scooter", "bike_id": "9510f7d8fc10694a2a2ad43e8d399735", "name": "9510f7d8fc10694a2a2ad43e8d399735", "lat": 38.892195, "is_disabled": 0, "lon": -77.02218683333334, "fusion_lat": 0.0, "is_reserved": 0}, {"rental_uris": {"ios": "https://dc.lft.to/lastmile_qr_scan", "android": "https://dc.lft.to/lastmile_qr_scan"}, "fusion_lon": 0.0, "type": "electric_bike", "bike_id": "ffc226f2425ee185e00dc6a0997d2387", "name": "ffc226f2425ee185e00dc6a0997d2387", "lat": 38.88822, "is_disabled": 0, "lon": -77.127425, "fusion_lat": 0.0, "is_reserved": 0}, {"rental_uris": {"ios": "https://dc.lft.to/lastmile_qr_scan", "android": "https://dc.lft.to/lastmile_qr_scan"}, "fusion_lon": 0.0, "type": "electric_scooter", "bike_id": "ea8097d6fd6dfa2050b15c5c99e93098", "name": "ea8097d6fd6dfa2050b15c5c99e93098", "lat": 38.865031, "is_disabled": 0, "lon": -76.99001583333333, "fusion_lat": 0.0, "is_reserved": 0}, {"rental_uris": {"ios": "https://dc.lft.to/lastmile_qr_scan", "android": "https://dc.lft.to/lastmile_qr_scan"}, "fusion_lon": 0.0, "type": "electric_bike", "bike_id": "53908792590ae12c0d6e65792ad64834", "name": "53908792590ae12c0d6e65792ad64834", "lat": 38.975730666666664, "is_disabled": 0, "lon": -76.96404466666667, "fusion_lat": 0.0, "is_reserved": 0}, {"rental_uris": {"ios": "https://dc.lft.to/lastmile_qr_scan", "android": "https://dc.lft.to/lastmile_qr_scan"}, "fusion_lon": 0.0, "type": "electric_scooter", "bike_id": "69ac794f87158b60db8d6cc4b6c73dda", "name": "69ac794f87158b60db8d6cc4b6c73dda", "lat": 38.92904866666667, "is_disabled": 0, "lon": -77.01663083333334, "fusion_lat": 0.0, "is_reserved": 0}, {"rental_uris": {"ios": "https://dc.lft.to/lastmile_qr_scan", "android": "https://dc.lft.to/lastmile_qr_scan"}, "fusion_lon": 0.0, "type": "electric_scooter", "bike_id": "ea6c000b37dc27a8db5d98df349b0a96", "name": "ea6c000b37dc27a8db5d98df349b0a96", "lat": 38.8874425, "is_disabled": 0, "lon": -77.02859783333334, "fusion_lat": 0.0, "is_reserved": 0}, {"rental_uris": {"ios": "https://dc.lft.to/lastmile_qr_scan", "android": "https://dc.lft.to/lastmile_qr_scan"}, "fusion_lon": 0.0, "type": "electric_bike", "bike_id": "942376cb8a15804c1f88518d405ab162", "name": "942376cb8a15804c1f88518d405ab162", "lat": 38.99224133333333, "is_disabled": 0, "lon": -76.87776783333334, "fusion_lat": 0.0, "is_reserved": 0}, {"rental_uris": {"ios": "https://dc.lft.to/lastmile_qr_scan", "android": "https://dc.lft.to/lastmile_qr_scan"}, "fusion_lon": 0.0, "type": "electric_bike", "bike_id": "4616792da4e6b693da2ad7309dccf3e8", "name": "4616792da4e6b693da2ad7309dccf3e8", "lat": 38.8896665, "is_disabled": 0, "lon": -76.94862633333334, "fusion_lat": 0.0, "is_reserved": 0}, {"rental_uris": {"ios": "https://dc.lft.to/lastmile_qr_scan", "android": "https://dc.lft.to/lastmile_qr_scan"}, "fusion_lon": 0.0, "type": "electric_scooter", "bike_id": "7417f18b664d514de1eaed95c310fea7", "name": "7417f18b664d514de1eaed95c310fea7", "lat": 38.9077505, "is_disabled": 0, "lon": -77.0323895, "fusion_lat": 0.0, "is_reserved": 0}, {"rental_uris": {"ios": "https://dc.lft.to/lastmile_qr_scan", "android": "https://dc.lft.to/lastmile_qr_scan"}, "fusion_lon": 0.0, "type": "electric_scooter", "bike_id": "751f8b50ecac5ba2dc1c7bc23fe503ad", "name": "751f8b50ecac5ba2dc1c7bc23fe503ad", "lat": 38.90345266666667, "is_disabled": 0, "lon": -77.0345585, "fusion_lat": 0.0, "is_reserved": 0}, {"rental_uris": {"ios": "https://dc.lft.to/lastmile_qr_scan", "android": "https://dc.lft.to/lastmile_qr_scan"}, "fusion_lon": 0.0, "type": "electric_scooter", "bike_id": "51ef6f4a42c58c837e893c243c5214f8", "name": "51ef6f4a42c58c837e893c243c5214f8", "lat": 38.935603, "is_disabled": 0, "lon": -77.02494383333334, "fusion_lat": 0.0, "is_reserved": 0}, {"rental_uris": {"ios": "https://dc.lft.to/lastmile_qr_scan", "android": "https://dc.lft.to/lastmile_qr_scan"}, "fusion_lon": 0.0, "type": "electric_scooter", "bike_id": "07e0e0140bbdce129898a7a9727756d6", "name": "07e0e0140bbdce129898a7a9727756d6", "lat": 38.882849, "is_disabled": 0, "lon": -76.99501016666666, "fusion_lat": 0.0, "is_reserved": 0}, {"rental_uris": {"ios": "https://dc.lft.to/lastmile_qr_scan", "android": "https://dc.lft.to/lastmile_qr_scan"}, "fusion_lon": 0.0, "type": "electric_scooter", "bike_id": "c3e29d95180e12d93ffdf442128a2b24", "name": "c3e29d95180e12d93ffdf442128a2b24", "lat": 38.92238733333333, "is_disabled": 0, "lon": -77.03665283333333, "fusion_lat": 0.0, "is_reserved": 0}, {"rental_uris": {"ios": "https://dc.lft.to/lastmile_qr_scan", "android": "https://dc.lft.to/lastmile_qr_scan"}, "fusion_lon": 0.0, "type": "electric_scooter", "bike_id": "9016e76afe5c409d43e14887e90f560b", "name": "9016e76afe5c409d43e14887e90f560b", "lat": 38.93410266666667, "is_disabled": 0, "lon": -77.04266033333333, "fusion_lat": 0.0, "is_reserved": 0}, {"rental_uris": {"ios": "https://dc.lft.to/lastmile_qr_scan", "android": "https://dc.lft.to/lastmile_qr_scan"}, "fusion_lon": 0.0, "type": "electric_bike", "bike_id": "016a0d52d06723c03aa15be936572381", "name": "016a0d52d06723c03aa15be936572381", "lat": 38.89576666666667, "is_disabled": 0, "lon": -76.97616133333334, "fusion_lat": 0.0, "is_reserved": 0}, {"rental_uris": {"ios": "https://dc.lft.to/lastmile_qr_scan", "android": "https://dc.lft.to/lastmile_qr_scan"}, "fusion_lon": 0.0, "type": "electric_bike", "bike_id": "927d7096ffe42cd052ecf3fdcb8f3e77", "name": "927d7096ffe42cd052ecf3fdcb8f3e77", "lat": 38.90678283333333, "is_disabled": 0, "lon": -76.9519285, "fusion_lat": 0.0, "is_reserved": 0}, {"rental_uris": {"ios": "https://dc.lft.to/lastmile_qr_scan", "android": "https://dc.lft.to/lastmile_qr_scan"}, "fusion_lon": 0.0, "type": "electric_scooter", "bike_id": "707df0cf0d7a5c559b35bb6e26a7157a", "name": "707df0cf0d7a5c559b35bb6e26a7157a", "lat": 38.920879, "is_disabled": 0, "lon": -77.025941, "fusion_lat": 0.0, "is_reserved": 0}, {"rental_uris": {"ios": "https://dc.lft.to/lastmile_qr_scan", "android": "https://dc.lft.to/lastmile_qr_scan"}, "fusion_lon": 0.0, "type": "electric_scooter", "bike_id": "78edd4d211f28a4c1d75a5a70cf6bc86", "name": "78edd4d211f28a4c1d75a5a70cf6bc86", "lat": 38.877056, "is_disabled": 0, "lon": -77.01653933333333, "fusion_lat": 0.0, "is_reserved": 0}, {"rental_uris": {"ios": "https://dc.lft.to/lastmile_qr_scan", "android": "https://dc.lft.to/lastmile_qr_scan"}, "fusion_lon": 0.0, "type": "electric_scooter", "bike_id": "45c25b77ec5eb5a758b45813d22f4fa4", "name": "45c25b77ec5eb5a758b45813d22f4fa4", "lat": 38.9198325, "is_disabled": 0, "lon": -77.04173316666666, "fusion_lat": 0.0, "is_reserved": 0}, {"rental_uris": {"ios": "https://dc.lft.to/lastmile_qr_scan", "android": "https://dc.lft.to/lastmile_qr_scan"}, "fusion_lon": 0.0, "type": "electric_scooter", "bike_id": "b3c562e60613016c2e9cdb1242fefce7", "name": "b3c562e60613016c2e9cdb1242fefce7", "lat": 38.905261, "is_disabled": 0, "lon": -77.05026816666667, "fusion_lat": 0.0, "is_reserved": 0}, {"rental_uris": {"ios": "https://dc.lft.to/lastmile_qr_scan", "android": "https://dc.lft.to/lastmile_qr_scan"}, "fusion_lon": 0.0, "type": "electric_scooter", "bike_id": "86eea55220a64c5e6630009f1ef87919", "name": "86eea55220a64c5e6630009f1ef87919", "lat": 38.884485166666664, "is_disabled": 0, "lon": -76.95097483333333, "fusion_lat": 0.0, "is_reserved": 0}, {"rental_uris": {"ios": "https://dc.lft.to/lastmile_qr_scan", "android": "https://dc.lft.to/lastmile_qr_scan"}, "fusion_lon": 0.0, "type": "electric_scooter", "bike_id": "b6b0077a1ed92dd271fc5899ce2651be", "name": "b6b0077a1ed92dd271fc5899ce2651be", "lat": 38.9083485, "is_disabled": 0, "lon": -77.03472333333333, "fusion_lat": 0.0, "is_reserved": 0}, {"rental_uris": {"ios": "https://dc.lft.to/lastmile_qr_scan", "android": "https://dc.lft.to/lastmile_qr_scan"}, "fusion_lon": 0.0, "type": "electric_scooter", "bike_id": "c09e97c8deb3af958974746b2a4f57f5", "name": "c09e97c8deb3af958974746b2a4f57f5", "lat": 38.9005855, "is_disabled": 0, "lon": -77.0477125, "fusion_lat": 0.0, "is_reserved": 0}, {"rental_uris": {"ios": "https://dc.lft.to/lastmile_qr_scan", "android": "https://dc.lft.to/lastmile_qr_scan"}, "fusion_lon": 0.0, "type": "electric_scooter", "bike_id": "17c805f101d1ad1faa7ae16495c17a92", "name": "17c805f101d1ad1faa7ae16495c17a92", "lat": 38.9088875, "is_disabled": 0, "lon": -77.03389816666666, "fusion_lat": 0.0, "is_reserved": 0}, {"rental_uris": {"ios": "https://dc.lft.to/lastmile_qr_scan", "android": "https://dc.lft.to/lastmile_qr_scan"}, "fusion_lon": 0.0, "type": "electric_bike", "bike_id": "2659fe6a4422ed9d3108dadb14c6fbd1", "name": "2659fe6a4422ed9d3108dadb14c6fbd1", "lat": 38.91588133333333, "is_disabled": 0, "lon": -76.97151516666666, "fusion_lat": 0.0, "is_reserved": 0}, {"rental_uris": {"ios": "https://dc.lft.to/lastmile_qr_scan", "android": "https://dc.lft.to/lastmile_qr_scan"}, "fusion_lon": 0.0, "type": "electric_bike", "bike_id": "d67dfc2023495762aa090a8160c4bcc3", "name": "d67dfc2023495762aa090a8160c4bcc3", "lat": 38.88382583333333, "is_disabled": 0, "lon": -77.01786466666667, "fusion_lat": 0.0, "is_reserved": 0}, {"rental_uris": {"ios": "https://dc.lft.to/lastmile_qr_scan", "android": "https://dc.lft.to/lastmile_qr_scan"}, "fusion_lon": 0.0, "type": "electric_bike", "bike_id": "1773fe88e0b7a5041ce97c78f48d8cd5", "name": "1773fe88e0b7a5041ce97c78f48d8cd5", "lat": 38.86905866666667, "is_disabled": 0, "lon": -77.1318235, "fusion_lat": 0.0, "is_reserved": 0}, {"rental_uris": {"ios": "https://dc.lft.to/lastmile_qr_scan", "android": "https://dc.lft.to/lastmile_qr_scan"}, "fusion_lon": 0.0, "type": "electric_bike", "bike_id": "7ae8ffadab6f7cd4d28839ff63bd5ffd", "name": "7ae8ffadab6f7cd4d28839ff63bd5ffd", "lat": 38.9205605, "is_disabled": 0, "lon": -77.07536833333333, "fusion_lat": 0.0, "is_reserved": 0}, {"rental_uris": {"ios": "https://dc.lft.to/lastmile_qr_scan", "android": "https://dc.lft.to/lastmile_qr_scan"}, "fusion_lon": 0.0, "type": "electric_scooter", "bike_id": "052eb429b392f977ae656aa4275c4c5e", "name": "052eb429b392f977ae656aa4275c4c5e", "lat": 38.9039395, "is_disabled": 0, "lon": -77.0280155, "fusion_lat": 0.0, "is_reserved": 0}, {"rental_uris": {"ios": "https://dc.lft.to/lastmile_qr_scan", "android": "https://dc.lft.to/lastmile_qr_scan"}, "fusion_lon": 0.0, "type": "electric_scooter", "bike_id": "f418b343fc8a8289d80684dd120bee5c", "name": "f418b343fc8a8289d80684dd120bee5c", "lat": 38.895799, "is_disabled": 0, "lon": -77.0231035, "fusion_lat": 0.0, "is_reserved": 0}, {"rental_uris": {"ios": "https://dc.lft.to/lastmile_qr_scan", "android": "https://dc.lft.to/lastmile_qr_scan"}, "fusion_lon": 0.0, "type": "electric_bike", "bike_id": "5d35c732869d8dffee2f755756683101", "name": "5d35c732869d8dffee2f755756683101", "lat": 38.91989083333333, "is_disabled": 0, "lon": -76.973132, "fusion_lat": 0.0, "is_reserved": 0}, {"rental_uris": {"ios": "https://dc.lft.to/lastmile_qr_scan", "android": "https://dc.lft.to/lastmile_qr_scan"}, "fusion_lon": 0.0, "type": "electric_scooter", "bike_id": "157618e1da4af0e0b48d2529568e1e6d", "name": "157618e1da4af0e0b48d2529568e1e6d", "lat": 38.895362166666665, "is_disabled": 0, "lon": -77.01622166666667, "fusion_lat": 0.0, "is_reserved": 0}, {"rental_uris": {"ios": "https://dc.lft.to/lastmile_qr_scan", "android": "https://dc.lft.to/lastmile_qr_scan"}, "fusion_lon": 0.0, "type": "electric_scooter", "bike_id": "bc24fdf8060acd48fc78a367d4c514de", "name": "bc24fdf8060acd48fc78a367d4c514de", "lat": 38.8983315, "is_disabled": 0, "lon": -76.9463275, "fusion_lat": 0.0, "is_reserved": 0}, {"rental_uris": {"ios": "https://dc.lft.to/lastmile_qr_scan", "android": "https://dc.lft.to/lastmile_qr_scan"}, "fusion_lon": 0.0, "type": "electric_scooter", "bike_id": "33743cd93ae48648e67892956eb10376", "name": "33743cd93ae48648e67892956eb10376", "lat": 38.916014, "is_disabled": 0, "lon": -77.04009766666667, "fusion_lat": 0.0, "is_reserved": 0}, {"rental_uris": {"ios": "https://dc.lft.to/lastmile_qr_scan", "android": "https://dc.lft.to/lastmile_qr_scan"}, "fusion_lon": 0.0, "type": "electric_scooter", "bike_id": "7882ae1fb826088686d1c73e7ca3c8be", "name": "7882ae1fb826088686d1c73e7ca3c8be", "lat": 38.933093666666664, "is_disabled": 0, "lon": -77.03267316666667, "fusion_lat": 0.0, "is_reserved": 0}, {"rental_uris": {"ios": "https://dc.lft.to/lastmile_qr_scan", "android": "https://dc.lft.to/lastmile_qr_scan"}, "fusion_lon": 0.0, "type": "electric_scooter", "bike_id": "1e9848bddc3761457050ae43bb7fbc10", "name": "1e9848bddc3761457050ae43bb7fbc10", "lat": 38.90456233333333, "is_disabled": 0, "lon": -77.028125, "fusion_lat": 0.0, "is_reserved": 0}, {"rental_uris": {"ios": "https://dc.lft.to/lastmile_qr_scan", "android": "https://dc.lft.to/lastmile_qr_scan"}, "fusion_lon": 0.0, "type": "electric_scooter", "bike_id": "75fba4a024525128269e88ae9ad323ae", "name": "75fba4a024525128269e88ae9ad323ae", "lat": 38.9026485, "is_disabled": 0, "lon": -77.0299855, "fusion_lat": 0.0, "is_reserved": 0}, {"rental_uris": {"ios": "https://dc.lft.to/lastmile_qr_scan", "android": "https://dc.lft.to/lastmile_qr_scan"}, "fusion_lon": 0.0, "type": "electric_bike", "bike_id": "9ac5af83ba744254766965a86e480f28", "name": "9ac5af83ba744254766965a86e480f28", "lat": 38.935455, "is_disabled": 0, "lon": -77.08187, "fusion_lat": 0.0, "is_reserved": 0}, {"rental_uris": {"ios": "https://dc.lft.to/lastmile_qr_scan", "android": "https://dc.lft.to/lastmile_qr_scan"}, "fusion_lon": 0.0, "type": "electric_scooter", "bike_id": "6fe600241ed68af5f0629bc9c5a7095c", "name": "6fe600241ed68af5f0629bc9c5a7095c", "lat": 38.92717616666667, "is_disabled": 0, "lon": -77.04196366666666, "fusion_lat": 0.0, "is_reserved": 0}, {"rental_uris": {"ios": "https://dc.lft.to/lastmile_qr_scan", "android": "https://dc.lft.to/lastmile_qr_scan"}, "fusion_lon": 0.0, "type": "electric_bike", "bike_id": "2be0c32d030219a97c270eb60c348951", "name": "2be0c32d030219a97c270eb60c348951", "lat": 38.97538133333333, "is_disabled": 0, "lon": -76.99528416666666, "fusion_lat": 0.0, "is_reserved": 0}, {"rental_uris": {"ios": "https://dc.lft.to/lastmile_qr_scan", "android": "https://dc.lft.to/lastmile_qr_scan"}, "fusion_lon": 0.0, "type": "electric_scooter", "bike_id": "ccf67222fbd08f55e8e6e146bffbbe23", "name": "ccf67222fbd08f55e8e6e146bffbbe23", "lat": 38.91693133333333, "is_disabled": 0, "lon": -77.02986433333334, "fusion_lat": 0.0, "is_reserved": 0}, {"rental_uris": {"ios": "https://dc.lft.to/lastmile_qr_scan", "android": "https://dc.lft.to/lastmile_qr_scan"}, "fusion_lon": 0.0, "type": "electric_bike", "bike_id": "625f76c0f92d9d8f0f784d077333c809", "name": "625f76c0f92d9d8f0f784d077333c809", "lat": 38.8708465, "is_disabled": 0, "lon": -77.012092, "fusion_lat": 0.0, "is_reserved": 0}, {"rental_uris": {"ios": "https://dc.lft.to/lastmile_qr_scan", "android": "https://dc.lft.to/lastmile_qr_scan"}, "fusion_lon": 0.0, "type": "electric_scooter", "bike_id": "ac3d44712e28b97742ce92d9214265a1", "name": "ac3d44712e28b97742ce92d9214265a1", "lat": 38.8994155, "is_disabled": 0, "lon": -77.029482, "fusion_lat": 0.0, "is_reserved": 0}, {"rental_uris": {"ios": "https://dc.lft.to/lastmile_qr_scan", "android": "https://dc.lft.to/lastmile_qr_scan"}, "fusion_lon": 0.0, "type": "electric_bike", "bike_id": "f68f71d05db788d6852d72015914ed52", "name": "f68f71d05db788d6852d72015914ed52", "lat": 38.955177666666664, "is_disabled": 0, "lon": -76.99987283333333, "fusion_lat": 0.0, "is_reserved": 0}, {"rental_uris": {"ios": "https://dc.lft.to/lastmile_qr_scan", "android": "https://dc.lft.to/lastmile_qr_scan"}, "fusion_lon": 0.0, "type": "electric_scooter", "bike_id": "023079e4531f257be222ae441c6b2cd9", "name": "023079e4531f257be222ae441c6b2cd9", "lat": 38.90493766666667, "is_disabled": 0, "lon": -77.02948766666667, "fusion_lat": 0.0, "is_reserved": 0}, {"rental_uris": {"ios": "https://dc.lft.to/lastmile_qr_scan", "android": "https://dc.lft.to/lastmile_qr_scan"}, "fusion_lon": 0.0, "type": "electric_scooter", "bike_id": "e060f9ea42c81f522859677be1a1e0f7", "name": "e060f9ea42c81f522859677be1a1e0f7", "lat": 38.9300135, "is_disabled": 0, "lon": -77.02205233333333, "fusion_lat": 0.0, "is_reserved": 0}, {"rental_uris": {"ios": "https://dc.lft.to/lastmile_qr_scan", "android": "https://dc.lft.to/lastmile_qr_scan"}, "fusion_lon": 0.0, "type": "electric_scooter", "bike_id": "bd18d274d038eabb4ba01116f180fdc2", "name": "bd18d274d038eabb4ba01116f180fdc2", "lat": 38.88495116666667, "is_disabled": 0, "lon": -77.02081266666667, "fusion_lat": 0.0, "is_reserved": 0}, {"rental_uris": {"ios": "https://dc.lft.to/lastmile_qr_scan", "android": "https://dc.lft.to/lastmile_qr_scan"}, "fusion_lon": 0.0, "type": "electric_scooter", "bike_id": "d9e97afdaa5f7ae4340e41965c40e042", "name": "d9e97afdaa5f7ae4340e41965c40e042", "lat": 38.9095355, "is_disabled": 0, "lon": -77.02715, "fusion_lat": 0.0, "is_reserved": 0}, {"rental_uris": {"ios": "https://dc.lft.to/lastmile_qr_scan", "android": "https://dc.lft.to/lastmile_qr_scan"}, "fusion_lon": 0.0, "type": "electric_scooter", "bike_id": "44ce7518ace9529741342d92925afcd9", "name": "44ce7518ace9529741342d92925afcd9", "lat": 38.900163, "is_disabled": 0, "lon": -77.03321933333334, "fusion_lat": 0.0, "is_reserved": 0}, {"rental_uris": {"ios": "https://dc.lft.to/lastmile_qr_scan", "android": "https://dc.lft.to/lastmile_qr_scan"}, "fusion_lon": 0.0, "type": "electric_scooter", "bike_id": "9cc4350da0db09c63ef0d318e75dbb60", "name": "9cc4350da0db09c63ef0d318e75dbb60", "lat": 38.89932, "is_disabled": 0, "lon": -77.02797633333333, "fusion_lat": 0.0, "is_reserved": 0}, {"rental_uris": {"ios": "https://dc.lft.to/lastmile_qr_scan", "android": "https://dc.lft.to/lastmile_qr_scan"}, "fusion_lon": 0.0, "type": "electric_scooter", "bike_id": "c68fb62f17d08036ad03b0f4ff774dcc", "name": "c68fb62f17d08036ad03b0f4ff774dcc", "lat": 38.933370833333335, "is_disabled": 0, "lon": -77.04128933333334, "fusion_lat": 0.0, "is_reserved": 0}, {"rental_uris": {"ios": "https://dc.lft.to/lastmile_qr_scan", "android": "https://dc.lft.to/lastmile_qr_scan"}, "fusion_lon": 0.0, "type": "electric_scooter", "bike_id": "21ef54089abef31ee8f4f180781447b3", "name": "21ef54089abef31ee8f4f180781447b3", "lat": 38.93179933333333, "is_disabled": 0, "lon": -77.02352883333333, "fusion_lat": 0.0, "is_reserved": 0}, {"rental_uris": {"ios": "https://dc.lft.to/lastmile_qr_scan", "android": "https://dc.lft.to/lastmile_qr_scan"}, "fusion_lon": 0.0, "type": "electric_scooter", "bike_id": "3b9cd670e2fce4dc08cc4c482955a736", "name": "3b9cd670e2fce4dc08cc4c482955a736", "lat": 38.867367333333334, "is_disabled": 0, "lon": -76.979395, "fusion_lat": 0.0, "is_reserved": 0}, {"rental_uris": {"ios": "https://dc.lft.to/lastmile_qr_scan", "android": "https://dc.lft.to/lastmile_qr_scan"}, "fusion_lon": 0.0, "type": "electric_scooter", "bike_id": "cefd68a3c54ae2d785cab3df247d433c", "name": "cefd68a3c54ae2d785cab3df247d433c", "lat": 38.923165166666664, "is_disabled": 0, "lon": -77.04619016666666, "fusion_lat": 0.0, "is_reserved": 0}, {"rental_uris": {"ios": "https://dc.lft.to/lastmile_qr_scan", "android": "https://dc.lft.to/lastmile_qr_scan"}, "fusion_lon": 0.0, "type": "electric_scooter", "bike_id": "7f4485d17b1ecfd6e9daaba6c0b4a432", "name": "7f4485d17b1ecfd6e9daaba6c0b4a432", "lat": 38.9036365, "is_disabled": 0, "lon": -77.04517883333334, "fusion_lat": 0.0, "is_reserved": 0}, {"rental_uris": {"ios": "https://dc.lft.to/lastmile_qr_scan", "android": "https://dc.lft.to/lastmile_qr_scan"}, "fusion_lon": 0.0, "type": "electric_scooter", "bike_id": "3bc4d0a71f390391c104ba9cab0d754e", "name": "3bc4d0a71f390391c104ba9cab0d754e", "lat": 38.924211166666666, "is_disabled": 0, "lon": -77.03529333333333, "fusion_lat": 0.0, "is_reserved": 0}, {"rental_uris": {"ios": "https://dc.lft.to/lastmile_qr_scan", "android": "https://dc.lft.to/lastmile_qr_scan"}, "fusion_lon": 0.0, "type": "electric_scooter", "bike_id": "a59768f51eac218c0791a97485e8014d", "name": "a59768f51eac218c0791a97485e8014d", "lat": 38.898973, "is_disabled": 0, "lon": -77.032657, "fusion_lat": 0.0, "is_reserved": 0}, {"rental_uris": {"ios": "https://dc.lft.to/lastmile_qr_scan", "android": "https://dc.lft.to/lastmile_qr_scan"}, "fusion_lon": 0.0, "type": "electric_scooter", "bike_id": "b88a3067a6047c97a7755d448679bff9", "name": "b88a3067a6047c97a7755d448679bff9", "lat": 38.9214245, "is_disabled": 0, "lon": -77.02958933333333, "fusion_lat": 0.0, "is_reserved": 0}, {"rental_uris": {"ios": "https://dc.lft.to/lastmile_qr_scan", "android": "https://dc.lft.to/lastmile_qr_scan"}, "fusion_lon": 0.0, "type": "electric_scooter", "bike_id": "be5513f23f77aff31dd054d5b70746bb", "name": "be5513f23f77aff31dd054d5b70746bb", "lat": 38.885326166666665, "is_disabled": 0, "lon": -76.92693683333333, "fusion_lat": 0.0, "is_reserved": 0}, {"rental_uris": {"ios": "https://dc.lft.to/lastmile_qr_scan", "android": "https://dc.lft.to/lastmile_qr_scan"}, "fusion_lon": 0.0, "type": "electric_scooter", "bike_id": "f70a34734c9e670475d021c45e065164", "name": "f70a34734c9e670475d021c45e065164", "lat": 38.90031466666667, "is_disabled": 0, "lon": -77.03354566666667, "fusion_lat": 0.0, "is_reserved": 0}, {"rental_uris": {"ios": "https://dc.lft.to/lastmile_qr_scan", "android": "https://dc.lft.to/lastmile_qr_scan"}, "fusion_lon": 0.0, "type": "electric_scooter", "bike_id": "5a45d4952415914fad67b0c9a6608de1", "name": "5a45d4952415914fad67b0c9a6608de1", "lat": 38.91734183333333, "is_disabled": 0, "lon": -77.036386, "fusion_lat": 0.0, "is_reserved": 0}, {"rental_uris": {"ios": "https://dc.lft.to/lastmile_qr_scan", "android": "https://dc.lft.to/lastmile_qr_scan"}, "fusion_lon": 0.0, "type": "electric_scooter", "bike_id": "06542333deea424ad3e37c734426e3ec", "name": "06542333deea424ad3e37c734426e3ec", "lat": 38.9242035, "is_disabled": 0, "lon": -77.02011216666666, "fusion_lat": 0.0, "is_reserved": 0}, {"rental_uris": {"ios": "https://dc.lft.to/lastmile_qr_scan", "android": "https://dc.lft.to/lastmile_qr_scan"}, "fusion_lon": 0.0, "type": "electric_scooter", "bike_id": "0ad7da2ae8778257dc75ebbf97989507", "name": "0ad7da2ae8778257dc75ebbf97989507", "lat": 38.89676216666667, "is_disabled": 0, "lon": -76.9353645, "fusion_lat": 0.0, "is_reserved": 0}, {"rental_uris": {"ios": "https://dc.lft.to/lastmile_qr_scan", "android": "https://dc.lft.to/lastmile_qr_scan"}, "fusion_lon": 0.0, "type": "electric_scooter", "bike_id": "283062d69923e8030dbc4bc54a56c684", "name": "283062d69923e8030dbc4bc54a56c684", "lat": 38.897820833333334, "is_disabled": 0, "lon": -77.05005066666666, "fusion_lat": 0.0, "is_reserved": 0}, {"rental_uris": {"ios": "https://dc.lft.to/lastmile_qr_scan", "android": "https://dc.lft.to/lastmile_qr_scan"}, "fusion_lon": 0.0, "type": "electric_scooter", "bike_id": "f9f0be4720f3be508767206e6f37bc28", "name": "f9f0be4720f3be508767206e6f37bc28", "lat": 38.90552533333333, "is_disabled": 0, "lon": -77.005891, "fusion_lat": 0.0, "is_reserved": 0}, {"rental_uris": {"ios": "https://dc.lft.to/lastmile_qr_scan", "android": "https://dc.lft.to/lastmile_qr_scan"}, "fusion_lon": 0.0, "type": "electric_scooter", "bike_id": "e79a786e6f741a1f7b62d84bb715913e", "name": "e79a786e6f741a1f7b62d84bb715913e", "lat": 38.90336333333333, "is_disabled": 0, "lon": -77.04335583333334, "fusion_lat": 0.0, "is_reserved": 0}, {"rental_uris": {"ios": "https://dc.lft.to/lastmile_qr_scan", "android": "https://dc.lft.to/lastmile_qr_scan"}, "fusion_lon": 0.0, "type": "electric_scooter", "bike_id": "5203d05bfd370454ade26023f0701616", "name": "5203d05bfd370454ade26023f0701616", "lat": 38.898455166666665, "is_disabled": 0, "lon": -76.94454, "fusion_lat": 0.0, "is_reserved": 0}, {"rental_uris": {"ios": "https://dc.lft.to/lastmile_qr_scan", "android": "https://dc.lft.to/lastmile_qr_scan"}, "fusion_lon": 0.0, "type": "electric_scooter", "bike_id": "5318b462e3d0993646294bd3408e42b3", "name": "5318b462e3d0993646294bd3408e42b3", "lat": 38.893352666666665, "is_disabled": 0, "lon": -77.021201, "fusion_lat": 0.0, "is_reserved": 0}, {"rental_uris": {"ios": "https://dc.lft.to/lastmile_qr_scan", "android": "https://dc.lft.to/lastmile_qr_scan"}, "fusion_lon": 0.0, "type": "electric_bike", "bike_id": "88b3612025e908dd150d6026e34c08e6", "name": "88b3612025e908dd150d6026e34c08e6", "lat": 38.917463833333336, "is_disabled": 0, "lon": -76.98979733333333, "fusion_lat": 0.0, "is_reserved": 0}, {"rental_uris": {"ios": "https://dc.lft.to/lastmile_qr_scan", "android": "https://dc.lft.to/lastmile_qr_scan"}, "fusion_lon": 0.0, "type": "electric_scooter", "bike_id": "c16a548d894c66d93d166f0a9df5762c", "name": "c16a548d894c66d93d166f0a9df5762c", "lat": 38.9408285, "is_disabled": 0, "lon": -77.02720366666667, "fusion_lat": 0.0, "is_reserved": 0}, {"rental_uris": {"ios": "https://dc.lft.to/lastmile_qr_scan", "android": "https://dc.lft.to/lastmile_qr_scan"}, "fusion_lon": 0.0, "type": "electric_scooter", "bike_id": "e566fc27ece1c1b8160f90d416fb4c92", "name": "e566fc27ece1c1b8160f90d416fb4c92", "lat": 38.9077425, "is_disabled": 0, "lon": -77.04504183333333, "fusion_lat": 0.0, "is_reserved": 0}, {"rental_uris": {"ios": "https://dc.lft.to/lastmile_qr_scan", "android": "https://dc.lft.to/lastmile_qr_scan"}, "fusion_lon": 0.0, "type": "electric_bike", "bike_id": "e833318b64e95cf127b3d9c0818fd93e", "name": "e833318b64e95cf127b3d9c0818fd93e", "lat": 39.022975, "is_disabled": 0, "lon": -77.02104916666667, "fusion_lat": 0.0, "is_reserved": 0}, {"rental_uris": {"ios": "https://dc.lft.to/lastmile_qr_scan", "android": "https://dc.lft.to/lastmile_qr_scan"}, "fusion_lon": 0.0, "type": "electric_scooter", "bike_id": "acbd9700da4c480169680c987d076918", "name": "acbd9700da4c480169680c987d076918", "lat": 38.890431, "is_disabled": 0, "lon": -76.93750766666666, "fusion_lat": 0.0, "is_reserved": 0}, {"rental_uris": {"ios": "https://dc.lft.to/lastmile_qr_scan", "android": "https://dc.lft.to/lastmile_qr_scan"}, "fusion_lon": 0.0, "type": "electric_scooter", "bike_id": "417a81b718384885a9c245ce93364a50", "name": "417a81b718384885a9c245ce93364a50", "lat": 38.89766133333333, "is_disabled": 0, "lon": -77.0513795, "fusion_lat": 0.0, "is_reserved": 0}, {"rental_uris": {"ios": "https://dc.lft.to/lastmile_qr_scan", "android": "https://dc.lft.to/lastmile_qr_scan"}, "fusion_lon": 0.0, "type": "electric_scooter", "bike_id": "c64ce0af7f509c423cb4e27612e47a83", "name": "c64ce0af7f509c423cb4e27612e47a83", "lat": 38.9026055, "is_disabled": 0, "lon": -77.01764433333334, "fusion_lat": 0.0, "is_reserved": 0}, {"rental_uris": {"ios": "https://dc.lft.to/lastmile_qr_scan", "android": "https://dc.lft.to/lastmile_qr_scan"}, "fusion_lon": 0.0, "type": "electric_scooter", "bike_id": "dfdec71bfabc18e5c3931a17cc2d5feb", "name": "dfdec71bfabc18e5c3931a17cc2d5feb", "lat": 38.90682433333333, "is_disabled": 0, "lon": -77.03842333333333, "fusion_lat": 0.0, "is_reserved": 0}, {"rental_uris": {"ios": "https://dc.lft.to/lastmile_qr_scan", "android": "https://dc.lft.to/lastmile_qr_scan"}, "fusion_lon": 0.0, "type": "electric_scooter", "bike_id": "af3f7c012d972342c52ce860fcecfb03", "name": "af3f7c012d972342c52ce860fcecfb03", "lat": 38.892188, "is_disabled": 0, "lon": -77.02261816666666, "fusion_lat": 0.0, "is_reserved": 0}, {"rental_uris": {"ios": "https://dc.lft.to/lastmile_qr_scan", "android": "https://dc.lft.to/lastmile_qr_scan"}, "fusion_lon": 0.0, "type": "electric_scooter", "bike_id": "71ee9ffce5ceb5e686feb79bbcf9b11a", "name": "71ee9ffce5ceb5e686feb79bbcf9b11a", "lat": 38.92737066666667, "is_disabled": 0, "lon": -77.03475916666666, "fusion_lat": 0.0, "is_reserved": 0}, {"rental_uris": {"ios": "https://dc.lft.to/lastmile_qr_scan", "android": "https://dc.lft.to/lastmile_qr_scan"}, "fusion_lon": 0.0, "type": "electric_scooter", "bike_id": "4e2819efaaab6d7b1e791874f2b95529", "name": "4e2819efaaab6d7b1e791874f2b95529", "lat": 38.907734166666664, "is_disabled": 0, "lon": -77.02703533333333, "fusion_lat": 0.0, "is_reserved": 0}, {"rental_uris": {"ios": "https://dc.lft.to/lastmile_qr_scan", "android": "https://dc.lft.to/lastmile_qr_scan"}, "fusion_lon": 0.0, "type": "electric_scooter", "bike_id": "e7d750ab8b7627b4c30eb833efc2f369", "name": "e7d750ab8b7627b4c30eb833efc2f369", "lat": 38.8789345, "is_disabled": 0, "lon": -76.9352315, "fusion_lat": 0.0, "is_reserved": 0}, {"rental_uris": {"ios": "https://dc.lft.to/lastmile_qr_scan", "android": "https://dc.lft.to/lastmile_qr_scan"}, "fusion_lon": 0.0, "type": "electric_scooter", "bike_id": "57d45c17bcc62c91132297496dd1c586", "name": "57d45c17bcc62c91132297496dd1c586", "lat": 38.898061, "is_disabled": 0, "lon": -77.05212483333334, "fusion_lat": 0.0, "is_reserved": 0}, {"rental_uris": {"ios": "https://dc.lft.to/lastmile_qr_scan", "android": "https://dc.lft.to/lastmile_qr_scan"}, "fusion_lon": 0.0, "type": "electric_scooter", "bike_id": "35bc3980f1de409ee2853bfb12f78dec", "name": "35bc3980f1de409ee2853bfb12f78dec", "lat": 38.89742233333333, "is_disabled": 0, "lon": -77.00033766666667, "fusion_lat": 0.0, "is_reserved": 0}, {"rental_uris": {"ios": "https://dc.lft.to/lastmile_qr_scan", "android": "https://dc.lft.to/lastmile_qr_scan"}, "fusion_lon": 0.0, "type": "electric_scooter", "bike_id": "0c5b432a1e92fb2172c3a1137010a8ec", "name": "0c5b432a1e92fb2172c3a1137010a8ec", "lat": 38.91133983333334, "is_disabled": 0, "lon": -77.021925, "fusion_lat": 0.0, "is_reserved": 0}, {"rental_uris": {"ios": "https://dc.lft.to/lastmile_qr_scan", "android": "https://dc.lft.to/lastmile_qr_scan"}, "fusion_lon": 0.0, "type": "electric_scooter", "bike_id": "7507a95a12ec5f54d7c5fe16f21d2cb8", "name": "7507a95a12ec5f54d7c5fe16f21d2cb8", "lat": 38.900589, "is_disabled": 0, "lon": -76.93384433333334, "fusion_lat": 0.0, "is_reserved": 0}, {"rental_uris": {"ios": "https://dc.lft.to/lastmile_qr_scan", "android": "https://dc.lft.to/lastmile_qr_scan"}, "fusion_lon": 0.0, "type": "electric_bike", "bike_id": "66790870f064beadf933842ab19b1714", "name": "66790870f064beadf933842ab19b1714", "lat": 38.974014833333335, "is_disabled": 0, "lon": -77.02493683333333, "fusion_lat": 0.0, "is_reserved": 0}, {"rental_uris": {"ios": "https://dc.lft.to/lastmile_qr_scan", "android": "https://dc.lft.to/lastmile_qr_scan"}, "fusion_lon": 0.0, "type": "electric_scooter", "bike_id": "e9b164f181f59257c371afe75cac98c0", "name": "e9b164f181f59257c371afe75cac98c0", "lat": 38.910123, "is_disabled": 0, "lon": -77.03194783333333, "fusion_lat": 0.0, "is_reserved": 0}, {"rental_uris": {"ios": "https://dc.lft.to/lastmile_qr_scan", "android": "https://dc.lft.to/lastmile_qr_scan"}, "fusion_lon": 0.0, "type": "electric_scooter", "bike_id": "ad88c8792ebc462485fa50f49184576b", "name": "ad88c8792ebc462485fa50f49184576b", "lat": 38.905745, "is_disabled": 0, "lon": -77.04357066666667, "fusion_lat": 0.0, "is_reserved": 0}, {"rental_uris": {"ios": "https://dc.lft.to/lastmile_qr_scan", "android": "https://dc.lft.to/lastmile_qr_scan"}, "fusion_lon": 0.0, "type": "electric_scooter", "bike_id": "89e05134d3586047b5a5b24e72b00ca6", "name": "89e05134d3586047b5a5b24e72b00ca6", "lat": 38.8936075, "is_disabled": 0, "lon": -77.039677, "fusion_lat": 0.0, "is_reserved": 0}, {"rental_uris": {"ios": "https://dc.lft.to/lastmile_qr_scan", "android": "https://dc.lft.to/lastmile_qr_scan"}, "fusion_lon": 0.0, "type": "electric_scooter", "bike_id": "4f2f783f888b9ed9b701651db401c3aa", "name": "4f2f783f888b9ed9b701651db401c3aa", "lat": 38.93364016666666, "is_disabled": 0, "lon": -77.05747466666666, "fusion_lat": 0.0, "is_reserved": 0}, {"rental_uris": {"ios": "https://dc.lft.to/lastmile_qr_scan", "android": "https://dc.lft.to/lastmile_qr_scan"}, "fusion_lon": 0.0, "type": "electric_scooter", "bike_id": "41d72c4e1479ff2b920e1836e9210856", "name": "41d72c4e1479ff2b920e1836e9210856", "lat": 38.865037666666666, "is_disabled": 0, "lon": -76.99000916666667, "fusion_lat": 0.0, "is_reserved": 0}, {"rental_uris": {"ios": "https://dc.lft.to/lastmile_qr_scan", "android": "https://dc.lft.to/lastmile_qr_scan"}, "fusion_lon": 0.0, "type": "electric_scooter", "bike_id": "47abe1bf6fbd5c31e7386ae13eab2587", "name": "47abe1bf6fbd5c31e7386ae13eab2587", "lat": 38.90387116666667, "is_disabled": 0, "lon": -77.03819233333333, "fusion_lat": 0.0, "is_reserved": 0}, {"rental_uris": {"ios": "https://dc.lft.to/lastmile_qr_scan", "android": "https://dc.lft.to/lastmile_qr_scan"}, "fusion_lon": 0.0, "type": "electric_scooter", "bike_id": "1b0499b576b67395d6e4023ae35094bb", "name": "1b0499b576b67395d6e4023ae35094bb", "lat": 38.9280915, "is_disabled": 0, "lon": -77.02345816666667, "fusion_lat": 0.0, "is_reserved": 0}, {"rental_uris": {"ios": "https://dc.lft.to/lastmile_qr_scan", "android": "https://dc.lft.to/lastmile_qr_scan"}, "fusion_lon": 0.0, "type": "electric_bike", "bike_id": "19b4179fa9fc830e8dd2db8d7287b6c8", "name": "19b4179fa9fc830e8dd2db8d7287b6c8", "lat": 38.917023666666665, "is_disabled": 0, "lon": -77.09562616666666, "fusion_lat": 0.0, "is_reserved": 0}, {"rental_uris": {"ios": "https://dc.lft.to/lastmile_qr_scan", "android": "https://dc.lft.to/lastmile_qr_scan"}, "fusion_lon": 0.0, "type": "electric_scooter", "bike_id": "2c55136ad10dbc5cb6138cac5a02d26c", "name": "2c55136ad10dbc5cb6138cac5a02d26c", "lat": 38.908644333333335, "is_disabled": 0, "lon": -77.03219166666666, "fusion_lat": 0.0, "is_reserved": 0}, {"rental_uris": {"ios": "https://dc.lft.to/lastmile_qr_scan", "android": "https://dc.lft.to/lastmile_qr_scan"},