{"data": {"bikes": [{"name": "3d8a546967851472043154b45b4a4ec1", "fusion_lat": 0.0, "type": "electric_scooter", "lat": 38.93614216666667, "is_reserved": 0, "is_disabled": 0, "fusion_lon": 0.0, "bike_id": "3d8a546967851472043154b45b4a4ec1", "lon": -77.05583583333333, "rental_uris": {"ios": "https://dc.lft.to/lastmile_qr_scan", "android": "https://dc.lft.to/lastmile_qr_scan"}}, {"name": "e9ca08569c143e5be818232360a2715c", "fusion_lat": 0.0, "type": "electric_scooter", "lat": 38.906467166666665, "is_reserved": 0, "is_disabled": 0, "fusion_lon": 0.0, "bike_id": "e9ca08569c143e5be818232360a2715c", "lon": -77.01398, "rental_uris": {"ios": "https://dc.lft.to/lastmile_qr_scan", "android": "https://dc.lft.to/lastmile_qr_scan"}}, {"name": "11e6421c9d7538f2ed65c6e86bd3136d", "fusion_lat": 0.0, "type": "electric_scooter", "lat": 38.901076833333335, "is_reserved": 0, "is_disabled": 0, "fusion_lon": 0.0, "bike_id": "11e6421c9d7538f2ed65c6e86bd3136d", "lon": -77.020089, "rental_uris": {"ios": "https://dc.lft.to/lastmile_qr_scan", "android": "https://dc.lft.to/lastmile_qr_scan"}}, {"name": "efb5e82686fdf40f65ada04b21768649", "fusion_lat": 0.0, "type": "electric_scooter", "lat": 38.928117666666665, "is_reserved": 0, "is_disabled": 0, "fusion_lon": 0.0, "bike_id": "efb5e82686fdf40f65ada04b21768649", "lon": -77.0286275, "rental_uris": {"ios": "https://dc.lft.to/lastmile_qr_scan", "android": "https://dc.lft.to/lastmile_qr_scan"}}, {"name": "8db8bb37d3091cc70805dcdd732fb882", "fusion_lat": 0.0, "type": "electric_scooter", "lat": 38.90238216666667, "is_reserved": 0, "is_disabled": 0, "fusion_lon": 0.0, "bike_id": "8db8bb37d3091cc70805dcdd732fb882", "lon": -77.00203366666666, "rental_uris": {"ios": "https://dc.lft.to/lastmile_qr_scan", "android": "https://dc.lft.to/lastmile_qr_scan"}}, {"name": "2cc4f0b314b4062214f5de9960ae3ec3", "fusion_lat": 0.0, "type": "electric_scooter", "lat": 38.914548, "is_reserved": 0, "is_disabled": 0, "fusion_lon": 0.0, "bike_id": "2cc4f0b314b4062214f5de9960ae3ec3", "lon": -77.071673, "rental_uris": {"ios": "https://dc.lft.to/lastmile_qr_scan", "android": "https://dc.lft.to/lastmile_qr_scan"}}, {"name": "7ee74c66beddf97eb1128b7245f11bd1", "fusion_lat": 0.0, "type": "electric_scooter", "lat": 38.90514016666667, "is_reserved": 0, "is_disabled": 0, "fusion_lon": 0.0, "bike_id": "7ee74c66beddf97eb1128b7245f11bd1", "lon": -77.06882883333333, "rental_uris": {"ios": "https://dc.lft.to/lastmile_qr_scan", "android": "https://dc.lft.to/lastmile_qr_scan"}}, {"name": "f405886b30cb0acc8cec3552e42ed91a", "fusion_lat": 0.0, "type": "electric_scooter", "lat": 38.938280166666665, "is_reserved": 0, "is_disabled": 0, "fusion_lon": 0.0, "bike_id": "f405886b30cb0acc8cec3552e42ed91a", "lon": -77.02450583333334, "rental_uris": {"ios": "https://dc.lft.to/lastmile_qr_scan", "android": "https://dc.lft.to/lastmile_qr_scan"}}, {"name": "ad3c4970bf2b2fab76de509a18af347b", "fusion_lat": 0.0, "type": "electric_scooter", "lat": 38.9012095, "is_reserved": 0, "is_disabled": 0, "fusion_lon": 0.0, "bike_id": "ad3c4970bf2b2fab76de509a18af347b", "lon": -77.03187883333334, "rental_uris": {"ios": "https://dc.lft.to/lastmile_qr_scan", "android": "https://dc.lft.to/lastmile_qr_scan"}}, {"name": "63979454e37cd12555fa833722eba9c7", "fusion_lat": 0.0, "type": "electric_scooter", "lat": 38.919938, "is_reserved": 0, "is_disabled": 0, "fusion_lon": 0.0, "bike_id": "63979454e37cd12555fa833722eba9c7", "lon": -77.0332155, "rental_uris": {"ios": "https://dc.lft.to/lastmile_qr_scan", "android": "https://dc.lft.to/lastmile_qr_scan"}}, {"name": "b83af21eed2500b4bd2352c05c372aac", "fusion_lat": 0.0, "type": "electric_bike", "lat": 38.92849366666667, "is_reserved": 0, "is_disabled": 0, "fusion_lon": 0.0, "bike_id": "b83af21eed2500b4bd2352c05c372aac", "lon": -77.10508016666667, "rental_uris": {"ios": "https://dc.lft.to/lastmile_qr_scan", "android": "https://dc.lft.to/lastmile_qr_scan"}}, {"name": "96ca50b1850ed40bfd4bceff20ed0b0d", "fusion_lat": 0.0, "type": "electric_scooter", "lat": 38.89191733333333, "is_reserved": 0, "is_disabled": 0, "fusion_lon": 0.0, "bike_id": "96ca50b1850ed40bfd4bceff20ed0b0d", "lon": -77.00341366666666, "rental_uris": {"ios": "https://dc.lft.to/lastmile_qr_scan", "android": "https://dc.lft.to/lastmile_qr_scan"}}, {"name": "a6bcc70bc31857a30ab7ff62ce01e143", "fusion_lat": 0.0, "type": "electric_bike", "lat": 38.965498333333336, "is_reserved": 0, "is_disabled": 0, "fusion_lon": 0.0, "bike_id": "a6bcc70bc31857a30ab7ff62ce01e143", "lon": -77.035166, "rental_uris": {"ios": "https://dc.lft.to/lastmile_qr_scan", "android": "https://dc.lft.to/lastmile_qr_scan"}}, {"name": "884928ad79554757fb2968fc73113780", "fusion_lat": 0.0, "type": "electric_scooter", "lat": 38.93174666666667, "is_reserved": 0, "is_disabled": 0, "fusion_lon": 0.0, "bike_id": "884928ad79554757fb2968fc73113780", "lon": -77.05609216666667, "rental_uris": {"ios": "https://dc.lft.to/lastmile_qr_scan", "android": "https://dc.lft.to/lastmile_qr_scan"}}, {"name": "b03f0ec497eaab549a6f352915ee6c4a", "fusion_lat": 0.0, "type": "electric_scooter", "lat": 38.924339333333336, "is_reserved": 0, "is_disabled": 0, "fusion_lon": 0.0, "bike_id": "b03f0ec497eaab549a6f352915ee6c4a", "lon": -77.04133566666667, "rental_uris": {"ios": "https://dc.lft.to/lastmile_qr_scan", "android": "https://dc.lft.to/lastmile_qr_scan"}}, {"name": "3df49381365813140c982a696fc13ae3", "fusion_lat": 0.0, "type": "electric_scooter", "lat": 38.92065, "is_reserved": 0, "is_disabled": 0, "fusion_lon": 0.0, "bike_id": "3df49381365813140c982a696fc13ae3", "lon": -77.0470165, "rental_uris": {"ios": "https://dc.lft.to/lastmile_qr_scan", "android": "https://dc.lft.to/lastmile_qr_scan"}}, {"name": "f4e5403bac3379f7cc57ed54e0e6888e", "fusion_lat": 0.0, "type": "electric_scooter", "lat": 38.89089766666667, "is_reserved": 0, "is_disabled": 0, "fusion_lon": 0.0, "bike_id": "f4e5403bac3379f7cc57ed54e0e6888e", "lon": -76.99783783333334, "rental_uris": {"ios": "https://dc.lft.to/lastmile_qr_scan", "android": "https://dc.lft.to/lastmile_qr_scan"}}, {"name": "61a46c9b5db2521b62e76386131213f6", "fusion_lat": 0.0, "type": "electric_scooter", "lat": 38.921221, "is_reserved": 0, "is_disabled": 0, "fusion_lon": 0.0, "bike_id": "61a46c9b5db2521b62e76386131213f6", "lon": -77.03190416666666, "rental_uris": {"ios": "https://dc.lft.to/lastmile_qr_scan", "android": "https://dc.lft.to/lastmile_qr_scan"}}, {"name": "674192dfe55384b0137608a16837f8a1", "fusion_lat": 0.0, "type": "electric_scooter", "lat": 38.912286, "is_reserved": 0, "is_disabled": 0, "fusion_lon": 0.0, "bike_id": "674192dfe55384b0137608a16837f8a1", "lon": -77.0383805, "rental_uris": {"ios": "https://dc.lft.to/lastmile_qr_scan", "android": "https://dc.lft.to/lastmile_qr_scan"}}, {"name": "54fea515f5ca0ae4afcef34198dc5521", "fusion_lat": 0.0, "type": "electric_bike", "lat": 38.929761, "is_reserved": 0, "is_disabled": 0, "fusion_lon": 0.0, "bike_id": "54fea515f5ca0ae4afcef34198dc5521", "lon": -77.22564916666667, "rental_uris": {"ios": "https://dc.lft.to/lastmile_qr_scan", "android": "https://dc.lft.to/lastmile_qr_scan"}}, {"name": "58db6c44d3a294ac3922a701c9c33c00", "fusion_lat": 0.0, "type": "electric_scooter", "lat": 38.9067135, "is_reserved": 0, "is_disabled": 0, "fusion_lon": 0.0, "bike_id": "58db6c44d3a294ac3922a701c9c33c00", "lon": -77.028058, "rental_uris": {"ios": "https://dc.lft.to/lastmile_qr_scan", "android": "https://dc.lft.to/lastmile_qr_scan"}}, {"name": "b26e0f3ea2591faffc5f7672c0d25a67", "fusion_lat": 0.0, "type": "electric_scooter", "lat": 38.9106525, "is_reserved": 0, "is_disabled": 0, "fusion_lon": 0.0, "bike_id": "b26e0f3ea2591faffc5f7672c0d25a67", "lon": -77.0532355, "rental_uris": {"ios": "https://dc.lft.to/lastmile_qr_scan", "android": "https://dc.lft.to/lastmile_qr_scan"}}, {"name": "e90ec736597b75962c2b856410fe85f8", "fusion_lat": 0.0, "type": "electric_scooter", "lat": 38.892581, "is_reserved": 0, "is_disabled": 0, "fusion_lon": 0.0, "bike_id": "e90ec736597b75962c2b856410fe85f8", "lon": -77.02408633333333, "rental_uris": {"ios": "https://dc.lft.to/lastmile_qr_scan", "android": "https://dc.lft.to/lastmile_qr_scan"}}, {"name": "c2cc0f3bdec5c4561258a85cef747fea", "fusion_lat": 0.0, "type": "electric_scooter", "lat": 38.916888, "is_reserved": 0, "is_disabled": 0, "fusion_lon": 0.0, "bike_id": "c2cc0f3bdec5c4561258a85cef747fea", "lon": -77.02896883333334, "rental_uris": {"ios": "https://dc.lft.to/lastmile_qr_scan", "android": "https://dc.lft.to/lastmile_qr_scan"}}, {"name": "f6e97817563a74b73bb9ea2355df5f09", "fusion_lat": 0.0, "type": "electric_bike", "lat": 38.8319425, "is_reserved": 0, "is_disabled": 0, "fusion_lon": 0.0, "bike_id": "f6e97817563a74b73bb9ea2355df5f09", "lon": -77.07682116666666, "rental_uris": {"ios": "https://dc.lft.to/lastmile_qr_scan", "android": "https://dc.lft.to/lastmile_qr_scan"}}, {"name": "244a5c420e584aef371b598349849a3d", "fusion_lat": 0.0, "type": "electric_scooter", "lat": 38.896122166666665, "is_reserved": 0, "is_disabled": 0, "fusion_lon": 0.0, "bike_id": "244a5c420e584aef371b598349849a3d", "lon": -77.04686316666667, "rental_uris": {"ios": "https://dc.lft.to/lastmile_qr_scan", "android": "https://dc.lft.to/lastmile_qr_scan"}}, {"name": "a74a92965b634e245449abdf08ed47ee", "fusion_lat": 0.0, "type": "electric_scooter", "lat": 38.90235933333334, "is_reserved": 0, "is_disabled": 0, "fusion_lon": 0.0, "bike_id": "a74a92965b634e245449abdf08ed47ee", "lon": -77.0514685, "rental_uris": {"ios": "https://dc.lft.to/lastmile_qr_scan", "android": "https://dc.lft.to/lastmile_qr_scan"}}, {"name": "b1275b3cf364d417926e70a6812983fa", "fusion_lat": 0.0, "type": "electric_scooter", "lat": 38.921816666666665, "is_reserved": 0, "is_disabled": 0, "fusion_lon": 0.0, "bike_id": "b1275b3cf364d417926e70a6812983fa", "lon": -77.0425385, "rental_uris": {"ios": "https://dc.lft.to/lastmile_qr_scan", "android": "https://dc.lft.to/lastmile_qr_scan"}}, {"name": "c777114dc40e770b41dbf995cc2d30cc", "fusion_lat": 0.0, "type": "electric_bike", "lat": 38.955430666666665, "is_reserved": 0, "is_disabled": 0, "fusion_lon": 0.0, "bike_id": "c777114dc40e770b41dbf995cc2d30cc", "lon": -76.93541, "rental_uris": {"ios": "https://dc.lft.to/lastmile_qr_scan", "android": "https://dc.lft.to/lastmile_qr_scan"}}, {"name": "8ccacd09bb62cff8c9aee09481326efd", "fusion_lat": 0.0, "type": "electric_scooter", "lat": 38.92250166666667, "is_reserved": 0, "is_disabled": 0, "fusion_lon": 0.0, "bike_id": "8ccacd09bb62cff8c9aee09481326efd", "lon": -77.01949066666667, "rental_uris": {"ios": "https://dc.lft.to/lastmile_qr_scan", "android": "https://dc.lft.to/lastmile_qr_scan"}}, {"name": "ae6d871e4ab159e21ce87a60dc0bb166", "fusion_lat": 0.0, "type": "electric_scooter", "lat": 38.892301, "is_reserved": 0, "is_disabled": 0, "fusion_lon": 0.0, "bike_id": "ae6d871e4ab159e21ce87a60dc0bb166", "lon": -77.0500335, "rental_uris": {"ios": "https://dc.lft.to/lastmile_qr_scan", "android": "https://dc.lft.to/lastmile_qr_scan"}}, {"name": "9d13f461d34686f3610bc9b474a06e7a", "fusion_lat": 0.0, "type": "electric_scooter", "lat": 38.93360283333333, "is_reserved": 0, "is_disabled": 0, "fusion_lon": 0.0, "bike_id": "9d13f461d34686f3610bc9b474a06e7a", "lon": -77.03721416666667, "rental_uris": {"ios": "https://dc.lft.to/lastmile_qr_scan", "android": "https://dc.lft.to/lastmile_qr_scan"}}, {"name": "54d9b835ee79348f7f8513c0c558490c", "fusion_lat": 0.0, "type": "electric_bike", "lat": 38.81308683333334, "is_reserved": 0, "is_disabled": 0, "fusion_lon": 0.0, "bike_id": "54d9b835ee79348f7f8513c0c558490c", "lon": -77.11213566666666, "rental_uris": {"ios": "https://dc.lft.to/lastmile_qr_scan", "android": "https://dc.lft.to/lastmile_qr_scan"}}, {"name": "7325e3a6a80e5b4a5343bf0acd5588da", "fusion_lat": 0.0, "type": "electric_scooter", "lat": 38.906726666666664, "is_reserved": 0, "is_disabled": 0, "fusion_lon": 0.0, "bike_id": "7325e3a6a80e5b4a5343bf0acd5588da", "lon": -76.97810866666667, "rental_uris": {"ios": "https://dc.lft.to/lastmile_qr_scan", "android": "https://dc.lft.to/lastmile_qr_scan"}}, {"name": "5fe31846f341f9d157ae15adf9e4e267", "fusion_lat": 0.0, "type": "electric_scooter", "lat": 38.90451983333333, "is_reserved": 0, "is_disabled": 0, "fusion_lon": 0.0, "bike_id": "5fe31846f341f9d157ae15adf9e4e267", "lon": -77.03839966666666, "rental_uris": {"ios": "https://dc.lft.to/lastmile_qr_scan", "android": "https://dc.lft.to/lastmile_qr_scan"}}, {"name": "6e5744ccb0d1d35b9c6efd695e049076", "fusion_lat": 0.0, "type": "electric_bike", "lat": 38.8918725, "is_reserved": 0, "is_disabled": 0, "fusion_lon": 0.0, "bike_id": "6e5744ccb0d1d35b9c6efd695e049076", "lon": -77.12262333333334, "rental_uris": {"ios": "https://dc.lft.to/lastmile_qr_scan", "android": "https://dc.lft.to/lastmile_qr_scan"}}, {"name": "59459eb5e5a11cd3a6f7e6ebfaa0fa90", "fusion_lat": 0.0, "type": "electric_scooter", "lat": 38.885990166666666, "is_reserved": 0, "is_disabled": 0, "fusion_lon": 0.0, "bike_id": "59459eb5e5a11cd3a6f7e6ebfaa0fa90", "lon": -77.022023, "rental_uris": {"ios": "https://dc.lft.to/lastmile_qr_scan", "android": "https://dc.lft.to/lastmile_qr_scan"}}, {"name": "004a6f03ad5e6e7ef45cb172b774c398", "fusion_lat": 0.0, "type": "electric_scooter", "lat": 38.919398, "is_reserved": 0, "is_disabled": 0, "fusion_lon": 0.0, "bike_id": "004a6f03ad5e6e7ef45cb172b774c398", "lon": -77.04542966666666, "rental_uris": {"ios": "https://dc.lft.to/lastmile_qr_scan", "android": "https://dc.lft.to/lastmile_qr_scan"}}, {"name": "1cedfdbfff7ee3744fe8e2dab63628f3", "fusion_lat": 0.0, "type": "electric_scooter", "lat": 38.93242333333333, "is_reserved": 0, "is_disabled": 0, "fusion_lon": 0.0, "bike_id": "1cedfdbfff7ee3744fe8e2dab63628f3", "lon": -77.03853016666666, "rental_uris": {"ios": "https://dc.lft.to/lastmile_qr_scan", "android": "https://dc.lft.to/lastmile_qr_scan"}}, {"name": "755477117189bb511c5c50f489abef02", "fusion_lat": 0.0, "type": "electric_scooter", "lat": 38.899720333333335, "is_reserved": 0, "is_disabled": 0, "fusion_lon": 0.0, "bike_id": "755477117189bb511c5c50f489abef02", "lon": -77.0294525, "rental_uris": {"ios": "https://dc.lft.to/lastmile_qr_scan", "android": "https://dc.lft.to/lastmile_qr_scan"}}, {"name": "f528242b77a40009dd70367d7265d046", "fusion_lat": 0.0, "type": "electric_scooter", "lat": 38.8607125, "is_reserved": 0, "is_disabled": 0, "fusion_lon": 0.0, "bike_id": "f528242b77a40009dd70367d7265d046", "lon": -76.9674755, "rental_uris": {"ios": "https://dc.lft.to/lastmile_qr_scan", "android": "https://dc.lft.to/lastmile_qr_scan"}}, {"name": "f736009132fa4314f9733efe6ba9ab55", "fusion_lat": 0.0, "type": "electric_scooter", "lat": 38.91474, "is_reserved": 0, "is_disabled": 0, "fusion_lon": 0.0, "bike_id": "f736009132fa4314f9733efe6ba9ab55", "lon": -76.981112, "rental_uris": {"ios": "https://dc.lft.to/lastmile_qr_scan", "android": "https://dc.lft.to/lastmile_qr_scan"}}, {"name": "8d5e6b5b906f2c20bbdb84f17561b682", "fusion_lat": 0.0, "type": "electric_scooter", "lat": 38.922110333333336, "is_reserved": 0, "is_disabled": 0, "fusion_lon": 0.0, "bike_id": "8d5e6b5b906f2c20bbdb84f17561b682", "lon": -77.0430285, "rental_uris": {"ios": "https://dc.lft.to/lastmile_qr_scan", "android": "https://dc.lft.to/lastmile_qr_scan"}}, {"name": "226cb3ae6a559a0f5ae704ce644d6799", "fusion_lat": 0.0, "type": "electric_bike", "lat": 38.880996333333336, "is_reserved": 0, "is_disabled": 0, "fusion_lon": 0.0, "bike_id": "226cb3ae6a559a0f5ae704ce644d6799", "lon": -77.11463933333333, "rental_uris": {"ios": "https://dc.lft.to/lastmile_qr_scan", "android": "https://dc.lft.to/lastmile_qr_scan"}}, {"name": "be52fea63303136df2b5d66fbada61ed", "fusion_lat": 0.0, "type": "electric_scooter", "lat": 38.901159166666666, "is_reserved": 0, "is_disabled": 0, "fusion_lon": 0.0, "bike_id": "be52fea63303136df2b5d66fbada61ed", "lon": -77.05004333333333, "rental_uris": {"ios": "https://dc.lft.to/lastmile_qr_scan", "android": "https://dc.lft.to/lastmile_qr_scan"}}, {"name": "5c6b0ba39410db1dd654409581c66097", "fusion_lat": 0.0, "type": "electric_bike", "lat": 38.9407385, "is_reserved": 0, "is_disabled": 0, "fusion_lon": 0.0, "bike_id": "5c6b0ba39410db1dd654409581c66097", "lon": -77.038205, "rental_uris": {"ios": "https://dc.lft.to/lastmile_qr_scan", "android": "https://dc.lft.to/lastmile_qr_scan"}}, {"name": "bdea7ca236ff05b282e2867f9f55c3a5", "fusion_lat": 0.0, "type": "electric_scooter", "lat": 38.906659833333336, "is_reserved": 0, "is_disabled": 0, "fusion_lon": 0.0, "bike_id": "bdea7ca236ff05b282e2867f9f55c3a5", "lon": -77.027134, "rental_uris": {"ios": "https://dc.lft.to/lastmile_qr_scan", "android": "https://dc.lft.to/lastmile_qr_scan"}}, {"name": "fd3a9a90f2399ab41c0a7bf8a660e31e", "fusion_lat": 0.0, "type": "electric_scooter", "lat": 38.901295, "is_reserved": 0, "is_disabled": 0, "fusion_lon": 0.0, "bike_id": "fd3a9a90f2399ab41c0a7bf8a660e31e", "lon": -77.04356233333333, "rental_uris": {"ios": "https://dc.lft.to/lastmile_qr_scan", "android": "https://dc.lft.to/lastmile_qr_scan"}}, {"name": "929b0ecfa3fcf22baf8d0f4e47e87bfb", "fusion_lat": 0.0, "type": "electric_scooter", "lat": 38.911749666666665, "is_reserved": 0, "is_disabled": 0, "fusion_lon": 0.0, "bike_id": "929b0ecfa3fcf22baf8d0f4e47e87bfb", "lon": -77.03645533333334, "rental_uris": {"ios": "https://dc.lft.to/lastmile_qr_scan", "android": "https://dc.lft.to/lastmile_qr_scan"}}, {"name": "fb2274ed0964c622382e5ca900e19dc2", "fusion_lat": 0.0, "type": "electric_scooter", "lat": 38.884903, "is_reserved": 0, "is_disabled": 0, "fusion_lon": 0.0, "bike_id": "fb2274ed0964c622382e5ca900e19dc2", "lon": -77.0071135, "rental_uris": {"ios": "https://dc.lft.to/lastmile_qr_scan", "android": "https://dc.lft.to/lastmile_qr_scan"}}, {"name": "df8051a49b15554515b394154e5d9705", "fusion_lat": 0.0, "type": "electric_bike", "lat": 39.058124, "is_reserved": 0, "is_disabled": 0, "fusion_lon": 0.0, "bike_id": "df8051a49b15554515b394154e5d9705", "lon": -77.12621016666667, "rental_uris": {"ios": "https://dc.lft.to/lastmile_qr_scan", "android": "https://dc.lft.to/lastmile_qr_scan"}}, {"name": "a086ed87eab4e684b57b6d67f31d89d4", "fusion_lat": 0.0, "type": "electric_scooter", "lat": 38.911082666666665, "is_reserved": 0, "is_disabled": 0, "fusion_lon": 0.0, "bike_id": "a086ed87eab4e684b57b6d67f31d89d4", "lon": -77.04289983333334, "rental_uris": {"ios": "https://dc.lft.to/lastmile_qr_scan", "android": "https://dc.lft.to/lastmile_qr_scan"}}, {"name": "8ab55ba7182df93e345d9b4d628b409d", "fusion_lat": 0.0, "type": "electric_scooter", "lat": 38.895954, "is_reserved": 0, "is_disabled": 0, "fusion_lon": 0.0, "bike_id": "8ab55ba7182df93e345d9b4d628b409d", "lon": -77.022545, "rental_uris": {"ios": "https://dc.lft.to/lastmile_qr_scan", "android": "https://dc.lft.to/lastmile_qr_scan"}}, {"name": "a26a0fe03660a1ffe81e693d6b97bb71", "fusion_lat": 0.0, "type": "electric_scooter", "lat": 38.89637583333333, "is_reserved": 0, "is_disabled": 0, "fusion_lon": 0.0, "bike_id": "a26a0fe03660a1ffe81e693d6b97bb71", "lon": -77.03217383333333, "rental_uris": {"ios": "https://dc.lft.to/lastmile_qr_scan", "android": "https://dc.lft.to/lastmile_qr_scan"}}, {"name": "bd884e47a6be0b23e8c567a84ddb3ff8", "fusion_lat": 0.0, "type": "electric_scooter", "lat": 38.928384, "is_reserved": 0, "is_disabled": 0, "fusion_lon": 0.0, "bike_id": "bd884e47a6be0b23e8c567a84ddb3ff8", "lon": -77.01411183333333, "rental_uris": {"ios": "https://dc.lft.to/lastmile_qr_scan", "android": "https://dc.lft.to/lastmile_qr_scan"}}, {"name": "74cb72036adb54475e80740e22b2f924", "fusion_lat": 0.0, "type": "electric_scooter", "lat": 38.8996645, "is_reserved": 0, "is_disabled": 0, "fusion_lon": 0.0, "bike_id": "74cb72036adb54475e80740e22b2f924", "lon": -77.02673533333333, "rental_uris": {"ios": "https://dc.lft.to/lastmile_qr_scan", "android": "https://dc.lft.to/lastmile_qr_scan"}}, {"name": "068e6f65e0d32d8b30565d577270c304", "fusion_lat": 0.0, "type": "electric_scooter", "lat": 38.907530666666666, "is_reserved": 0, "is_disabled": 0, "fusion_lon": 0.0, "bike_id": "068e6f65e0d32d8b30565d577270c304", "lon": -77.04496666666667, "rental_uris": {"ios": "https://dc.lft.to/lastmile_qr_scan", "android": "https://dc.lft.to/lastmile_qr_scan"}}, {"name": "dd21aade5291c5fa8c2533131c58e55b", "fusion_lat": 0.0, "type": "electric_scooter", "lat": 38.902100833333336, "is_reserved": 0, "is_disabled": 0, "fusion_lon": 0.0, "bike_id": "dd21aade5291c5fa8c2533131c58e55b", "lon": -77.05030016666667, "rental_uris": {"ios": "https://dc.lft.to/lastmile_qr_scan", "android": "https://dc.lft.to/lastmile_qr_scan"}}, {"name": "5180d894bd4e5a4c75a222fb7d8962b1", "fusion_lat": 0.0, "type": "electric_bike", "lat": 38.94961983333334, "is_reserved": 0, "is_disabled": 0, "fusion_lon": 0.0, "bike_id": "5180d894bd4e5a4c75a222fb7d8962b1", "lon": -76.9610335, "rental_uris": {"ios": "https://dc.lft.to/lastmile_qr_scan", "android": "https://dc.lft.to/lastmile_qr_scan"}}, {"name": "c84a254a06f638ac0e8b333ba2094fcf", "fusion_lat": 0.0, "type": "electric_scooter", "lat": 38.905535666666665, "is_reserved": 0, "is_disabled": 0, "fusion_lon": 0.0, "bike_id": "c84a254a06f638ac0e8b333ba2094fcf", "lon": -77.00512633333334, "rental_uris": {"ios": "https://dc.lft.to/lastmile_qr_scan", "android": "https://dc.lft.to/lastmile_qr_scan"}}, {"name": "cb2866c024bd56133aec6e27dfab1527", "fusion_lat": 0.0, "type": "electric_bike", "lat": 39.0890095, "is_reserved": 0, "is_disabled": 0, "fusion_lon": 0.0, "bike_id": "cb2866c024bd56133aec6e27dfab1527", "lon": -77.17846533333334, "rental_uris": {"ios": "https://dc.lft.to/lastmile_qr_scan", "android": "https://dc.lft.to/lastmile_qr_scan"}}, {"name": "0da5de3f9643d653d047c587d8169c5a", "fusion_lat": 0.0, "type": "electric_bike", "lat": 38.846099, "is_reserved": 0, "is_disabled": 0, "fusion_lon": 0.0, "bike_id": "0da5de3f9643d653d047c587d8169c5a", "lon": -76.97828783333334, "rental_uris": {"ios": "https://dc.lft.to/lastmile_qr_scan", "android": "https://dc.lft.to/lastmile_qr_scan"}}, {"name": "e5be4d3ae1945be5c07af7f07404c16a", "fusion_lat": 0.0, "type": "electric_bike", "lat": 38.959287, "is_reserved": 0, "is_disabled": 0, "fusion_lon": 0.0, "bike_id": "e5be4d3ae1945be5c07af7f07404c16a", "lon": -76.92532866666667, "rental_uris": {"ios": "https://dc.lft.to/lastmile_qr_scan", "android": "https://dc.lft.to/lastmile_qr_scan"}}, {"name": "7cc25a958b4e0424d873c891e83ecb57", "fusion_lat": 0.0, "type": "electric_scooter", "lat": 38.895503, "is_reserved": 0, "is_disabled": 0, "fusion_lon": 0.0, "bike_id": "7cc25a958b4e0424d873c891e83ecb57", "lon": -76.948756, "rental_uris": {"ios": "https://dc.lft.to/lastmile_qr_scan", "android": "https://dc.lft.to/lastmile_qr_scan"}}, {"name": "8590f6916d53cc9d5c366191a1f94b04", "fusion_lat": 0.0, "type": "electric_scooter", "lat": 38.903814833333335, "is_reserved": 0, "is_disabled": 0, "fusion_lon": 0.0, "bike_id": "8590f6916d53cc9d5c366191a1f94b04", "lon": -77.04488783333333, "rental_uris": {"ios": "https://dc.lft.to/lastmile_qr_scan", "android": "https://dc.lft.to/lastmile_qr_scan"}}, {"name": "e1aaeb81ed03641edf915a3e2ba8f981", "fusion_lat": 0.0, "type": "electric_scooter", "lat": 38.913245, "is_reserved": 0, "is_disabled": 0, "fusion_lon": 0.0, "bike_id": "e1aaeb81ed03641edf915a3e2ba8f981", "lon": -77.03186566666666, "rental_uris": {"ios": "https://dc.lft.to/lastmile_qr_scan", "android": "https://dc.lft.to/lastmile_qr_scan"}}, {"name": "dff5ff5e3405dc8be8d49b8bc2a8aac4", "fusion_lat": 0.0, "type": "electric_scooter", "lat": 38.8989445, "is_reserved": 0, "is_disabled": 0, "fusion_lon": 0.0, "bike_id": "dff5ff5e3405dc8be8d49b8bc2a8aac4", "lon": -77.03292016666667, "rental_uris": {"ios": "https://dc.lft.to/lastmile_qr_scan", "android": "https://dc.lft.to/lastmile_qr_scan"}}, {"name": "aac0e082714a8e5720bee01564717dc0", "fusion_lat": 0.0, "type": "electric_bike", "lat": 38.87754233333333, "is_reserved": 0, "is_disabled": 0, "fusion_lon": 0.0, "bike_id": "aac0e082714a8e5720bee01564717dc0", "lon": -76.979849, "rental_uris": {"ios": "https://dc.lft.to/lastmile_qr_scan", "android": "https://dc.lft.to/lastmile_qr_scan"}}, {"name": "62e1a5104b620adcec0100a8cd8401a9", "fusion_lat": 0.0, "type": "electric_bike", "lat": 38.926919833333336, "is_reserved": 0, "is_disabled": 0, "fusion_lon": 0.0, "bike_id": "62e1a5104b620adcec0100a8cd8401a9", "lon": -77.00787933333334, "rental_uris": {"ios": "https://dc.lft.to/lastmile_qr_scan", "android": "https://dc.lft.to/lastmile_qr_scan"}}, {"name": "bec1a303a22cc7674a169e63e2effaa1", "fusion_lat": 0.0, "type": "electric_scooter", "lat": 38.9068795, "is_reserved": 0, "is_disabled": 0, "fusion_lon": 0.0, "bike_id": "bec1a303a22cc7674a169e63e2effaa1", "lon": -77.04336383333333, "rental_uris": {"ios": "https://dc.lft.to/lastmile_qr_scan", "android": "https://dc.lft.to/lastmile_qr_scan"}}, {"name": "76274e45dc4f311de6bf941f868fb1d3", "fusion_lat": 0.0, "type": "electric_bike", "lat": 38.9395675, "is_reserved": 0, "is_disabled": 0, "fusion_lon": 0.0, "bike_id": "76274e45dc4f311de6bf941f868fb1d3", "lon": -77.36093016666666, "rental_uris": {"ios": "https://dc.lft.to/lastmile_qr_scan", "android": "https://dc.lft.to/lastmile_qr_scan"}}, {"name": "de2ae19bb752f6156011cd3a54dcb506", "fusion_lat": 0.0, "type": "electric_scooter", "lat": 38.90825866666667, "is_reserved": 0, "is_disabled": 0, "fusion_lon": 0.0, "bike_id": "de2ae19bb752f6156011cd3a54dcb506", "lon": -77.0390915, "rental_uris": {"ios": "https://dc.lft.to/lastmile_qr_scan", "android": "https://dc.lft.to/lastmile_qr_scan"}}, {"name": "4dc5c871403af18657f45633c02be5f3", "fusion_lat": 0.0, "type": "electric_scooter", "lat": 38.9096145, "is_reserved": 0, "is_disabled": 0, "fusion_lon": 0.0, "bike_id": "4dc5c871403af18657f45633c02be5f3", "lon": -77.03422083333334, "rental_uris": {"ios": "https://dc.lft.to/lastmile_qr_scan", "android": "https://dc.lft.to/lastmile_qr_scan"}}, {"name": "498bb50baaa9c4b07e40638abacb5111", "fusion_lat": 0.0, "type": "electric_scooter", "lat": 38.92196933333334, "is_reserved": 0, "is_disabled": 0, "fusion_lon": 0.0, "bike_id": "498bb50baaa9c4b07e40638abacb5111", "lon": -77.04232316666666, "rental_uris": {"ios": "https://dc.lft.to/lastmile_qr_scan", "android": "https://dc.lft.to/lastmile_qr_scan"}}, {"name": "48f6cd5dea06291cee67197e8d4d7dc3", "fusion_lat": 0.0, "type": "electric_scooter", "lat": 38.90022716666667, "is_reserved": 0, "is_disabled": 0, "fusion_lon": 0.0, "bike_id": "48f6cd5dea06291cee67197e8d4d7dc3", "lon": -77.05323116666666, "rental_uris": {"ios": "https://dc.lft.to/lastmile_qr_scan", "android": "https://dc.lft.to/lastmile_qr_scan"}}, {"name": "c82c66fb419b5ffe83d3b91abed47411", "fusion_lat": 0.0, "type": "electric_bike", "lat": 38.845965666666665, "is_reserved": 0, "is_disabled": 0, "fusion_lon": 0.0, "bike_id": "c82c66fb419b5ffe83d3b91abed47411", "lon": -76.96878633333333, "rental_uris": {"ios": "https://dc.lft.to/lastmile_qr_scan", "android": "https://dc.lft.to/lastmile_qr_scan"}}, {"name": "ce41f7472ee51bed28c900a43f80977b", "fusion_lat": 0.0, "type": "electric_scooter", "lat": 38.893537333333335, "is_reserved": 0, "is_disabled": 0, "fusion_lon": 0.0, "bike_id": "ce41f7472ee51bed28c900a43f80977b", "lon": -77.00339766666667, "rental_uris": {"ios": "https://dc.lft.to/lastmile_qr_scan", "android": "https://dc.lft.to/lastmile_qr_scan"}}, {"name": "47a8f54203c1a66f24ec1b7d392977c5", "fusion_lat": 0.0, "type": "electric_scooter", "lat": 38.9078505, "is_reserved": 0, "is_disabled": 0, "fusion_lon": 0.0, "bike_id": "47a8f54203c1a66f24ec1b7d392977c5", "lon": -77.0724635, "rental_uris": {"ios": "https://dc.lft.to/lastmile_qr_scan", "android": "https://dc.lft.to/lastmile_qr_scan"}}, {"name": "4ba7e42513d9de4d0b5bf3339516cdcc", "fusion_lat": 0.0, "type": "electric_scooter", "lat": 38.870863166666666, "is_reserved": 0, "is_disabled": 0, "fusion_lon": 0.0, "bike_id": "4ba7e42513d9de4d0b5bf3339516cdcc", "lon": -77.01375883333333, "rental_uris": {"ios": "https://dc.lft.to/lastmile_qr_scan", "android": "https://dc.lft.to/lastmile_qr_scan"}}, {"name": "a51ccd48a50f86e10db2e26e0328f8a3", "fusion_lat": 0.0, "type": "electric_scooter", "lat": 38.912362, "is_reserved": 0, "is_disabled": 0, "fusion_lon": 0.0, "bike_id": "a51ccd48a50f86e10db2e26e0328f8a3", "lon": -77.04876366666667, "rental_uris": {"ios": "https://dc.lft.to/lastmile_qr_scan", "android": "https://dc.lft.to/lastmile_qr_scan"}}, {"name": "1938e323ea7ada692d550d7a1ee7d1b6", "fusion_lat": 0.0, "type": "electric_scooter", "lat": 38.926489833333335, "is_reserved": 0, "is_disabled": 0, "fusion_lon": 0.0, "bike_id": "1938e323ea7ada692d550d7a1ee7d1b6", "lon": -77.03722666666667, "rental_uris": {"ios": "https://dc.lft.to/lastmile_qr_scan", "android": "https://dc.lft.to/lastmile_qr_scan"}}, {"name": "7cf53a1847a45dc02b64e3477e8c9b10", "fusion_lat": 0.0, "type": "electric_scooter", "lat": 38.92823633333333, "is_reserved": 0, "is_disabled": 0, "fusion_lon": 0.0, "bike_id": "7cf53a1847a45dc02b64e3477e8c9b10", "lon": -77.02258866666666, "rental_uris": {"ios": "https://dc.lft.to/lastmile_qr_scan", "android": "https://dc.lft.to/lastmile_qr_scan"}}, {"name": "e3163fb9f2a48bb58f2f6e052928e0f3", "fusion_lat": 0.0, "type": "electric_bike", "lat": 38.92806916666667, "is_reserved": 0, "is_disabled": 0, "fusion_lon": 0.0, "bike_id": "e3163fb9f2a48bb58f2f6e052928e0f3", "lon": -77.04365683333333, "rental_uris": {"ios": "https://dc.lft.to/lastmile_qr_scan", "android": "https://dc.lft.to/lastmile_qr_scan"}}, {"name": "2f1fca11e766bc33f9a110053c01f151", "fusion_lat": 0.0, "type": "electric_scooter", "lat": 38.90508666666667, "is_reserved": 0, "is_disabled": 0, "fusion_lon": 0.0, "bike_id": "2f1fca11e766bc33f9a110053c01f151", "lon": -76.99449133333333, "rental_uris": {"ios": "https://dc.lft.to/lastmile_qr_scan", "android": "https://dc.lft.to/lastmile_qr_scan"}}, {"name": "ad86e491ff05bfafb7d537f06070231f", "fusion_lat": 0.0, "type": "electric_scooter", "lat": 38.86661216666667, "is_reserved": 0, "is_disabled": 0, "fusion_lon": 0.0, "bike_id": "ad86e491ff05bfafb7d537f06070231f", "lon": -76.98887033333334, "rental_uris": {"ios": "https://dc.lft.to/lastmile_qr_scan", "android": "https://dc.lft.to/lastmile_qr_scan"}}, {"name": "38ecd4f915f5ceae9d3cb4ef3ef5d5ba", "fusion_lat": 0.0, "type": "electric_scooter", "lat": 38.9232795, "is_reserved": 0, "is_disabled": 0, "fusion_lon": 0.0, "bike_id": "38ecd4f915f5ceae9d3cb4ef3ef5d5ba", "lon": -77.03777816666667, "rental_uris": {"ios": "https://dc.lft.to/lastmile_qr_scan", "android": "https://dc.lft.to/lastmile_qr_scan"}}, {"name": "59f43e01dbc100c74ab4d37ab2366ea7", "fusion_lat": 0.0, "type": "electric_scooter", "lat": 38.90672816666667, "is_reserved": 0, "is_disabled": 0, "fusion_lon": 0.0, "bike_id": "59f43e01dbc100c74ab4d37ab2366ea7", "lon": -77.02706516666667, "rental_uris": {"ios": "https://dc.lft.to/lastmile_qr_scan", "android": "https://dc.lft.to/lastmile_qr_scan"}}, {"name": "2f68f5ddeb75e799a5694cb368c2fa9e", "fusion_lat": 0.0, "type": "electric_scooter", "lat": 38.9250865, "is_reserved": 0, "is_disabled": 0, "fusion_lon": 0.0, "bike_id": "2f68f5ddeb75e799a5694cb368c2fa9e", "lon": -77.00225733333333, "rental_uris": {"ios": "https://dc.lft.to/lastmile_qr_scan", "android": "https://dc.lft.to/lastmile_qr_scan"}}, {"name": "6a81410ad46e41fbd81820f475c0961c", "fusion_lat": 0.0, "type": "electric_bike", "lat": 38.894695, "is_reserved": 0, "is_disabled": 0, "fusion_lon": 0.0, "bike_id": "6a81410ad46e41fbd81820f475c0961c", "lon": -77.0465895, "rental_uris": {"ios": "https://dc.lft.to/lastmile_qr_scan", "android": "https://dc.lft.to/lastmile_qr_scan"}}, {"name": "163273bd05125562d1dfe14c3139e78c", "fusion_lat": 0.0, "type": "electric_scooter", "lat": 38.932514166666664, "is_reserved": 0, "is_disabled": 0, "fusion_lon": 0.0, "bike_id": "163273bd05125562d1dfe14c3139e78c", "lon": -77.04008366666666, "rental_uris": {"ios": "https://dc.lft.to/lastmile_qr_scan", "android": "https://dc.lft.to/lastmile_qr_scan"}}, {"name": "e237ce9a36c844a83306b82a1612eb3a", "fusion_lat": 0.0, "type": "electric_bike", "lat": 38.87548833333334, "is_reserved": 0, "is_disabled": 0, "fusion_lon": 0.0, "bike_id": "e237ce9a36c844a83306b82a1612eb3a", "lon": -76.9675455, "rental_uris": {"ios": "https://dc.lft.to/lastmile_qr_scan", "android": "https://dc.lft.to/lastmile_qr_scan"}}, {"name": "aa482f6fd7295055c9468bd8b39ec060", "fusion_lat": 0.0, "type": "electric_scooter", "lat": 38.918077833333335, "is_reserved": 0, "is_disabled": 0, "fusion_lon": 0.0, "bike_id": "aa482f6fd7295055c9468bd8b39ec060", "lon": -77.031765, "rental_uris": {"ios": "https://dc.lft.to/lastmile_qr_scan", "android": "https://dc.lft.to/lastmile_qr_scan"}}, {"name": "1e4633ad69cb271acb6aef5acc33305f", "fusion_lat": 0.0, "type": "electric_scooter", "lat": 38.89995616666667, "is_reserved": 0, "is_disabled": 0, "fusion_lon": 0.0, "bike_id": "1e4633ad69cb271acb6aef5acc33305f", "lon": -76.98843183333334, "rental_uris": {"ios": "https://dc.lft.to/lastmile_qr_scan", "android": "https://dc.lft.to/lastmile_qr_scan"}}, {"name": "1c5eeb446cca07aef67ce2e16d587445", "fusion_lat": 0.0, "type": "electric_scooter", "lat": 38.90038966666667, "is_reserved": 0, "is_disabled": 0, "fusion_lon": 0.0, "bike_id": "1c5eeb446cca07aef67ce2e16d587445", "lon": -77.00628, "rental_uris": {"ios": "https://dc.lft.to/lastmile_qr_scan", "android": "https://dc.lft.to/lastmile_qr_scan"}}, {"name": "e9b63c43f32222c7e5e1520d325534c4", "fusion_lat": 0.0, "type": "electric_bike", "lat": 38.949693333333336, "is_reserved": 0, "is_disabled": 0, "fusion_lon": 0.0, "bike_id": "e9b63c43f32222c7e5e1520d325534c4", "lon": -76.97286483333333, "rental_uris": {"ios": "https://dc.lft.to/lastmile_qr_scan", "android": "https://dc.lft.to/lastmile_qr_scan"}}, {"name": "19a65cdc12db8c749d41a2d549b5e2c9", "fusion_lat": 0.0, "type": "electric_scooter", "lat": 38.9026205, "is_reserved": 0, "is_disabled": 0, "fusion_lon": 0.0, "bike_id": "19a65cdc12db8c749d41a2d549b5e2c9", "lon": -77.01752333333333, "rental_uris": {"ios": "https://dc.lft.to/lastmile_qr_scan", "android": "https://dc.lft.to/lastmile_qr_scan"}}, {"name": "4a0b1e7c4d2391e20d47cc291c38c33b", "fusion_lat": 0.0, "type": "electric_scooter", "lat": 38.90139533333333, "is_reserved": 0, "is_disabled": 0, "fusion_lon": 0.0, "bike_id": "4a0b1e7c4d2391e20d47cc291c38c33b", "lon": -77.04348, "rental_uris": {"ios": "https://dc.lft.to/lastmile_qr_scan", "android": "https://dc.lft.to/lastmile_qr_scan"}}, {"name": "c5691f8294f8b5661568fe24e772b5b0", "fusion_lat": 0.0, "type": "electric_scooter", "lat": 38.907409666666666, "is_reserved": 0, "is_disabled": 0, "fusion_lon": 0.0, "bike_id": "c5691f8294f8b5661568fe24e772b5b0", "lon": -77.04667483333333, "rental_uris": {"ios": "https://dc.lft.to/lastmile_qr_scan", "android": "https://dc.lft.to/lastmile_qr_scan"}}, {"name": "c978d1f577b275b44ffe855546cc1101", "fusion_lat": 0.0, "type": "electric_scooter", "lat": 38.893903, "is_reserved": 0, "is_disabled": 0, "fusion_lon": 0.0, "bike_id": "c978d1f577b275b44ffe855546cc1101", "lon": -77.05475783333333, "rental_uris": {"ios": "https://dc.lft.to/lastmile_qr_scan", "android": "https://dc.lft.to/lastmile_qr_scan"}}, {"name": "49d59df0201a3b31715e551bc6c7295e", "fusion_lat": 0.0, "type": "electric_scooter", "lat": 38.9013835, "is_reserved": 0, "is_disabled": 0, "fusion_lon": 0.0, "bike_id": "49d59df0201a3b31715e551bc6c7295e", "lon": -77.039404, "rental_uris": {"ios": "https://dc.lft.to/lastmile_qr_scan", "android": "https://dc.lft.to/lastmile_qr_scan"}}, {"name": "a4433ed615a5ed3e40afe4727428bed6", "fusion_lat": 0.0, "type": "electric_scooter", "lat": 38.900375333333336, "is_reserved": 0, "is_disabled": 0, "fusion_lon": 0.0, "bike_id": "a4433ed615a5ed3e40afe4727428bed6", "lon": -77.00195266666667, "rental_uris": {"ios": "https://dc.lft.to/lastmile_qr_scan", "android": "https://dc.lft.to/lastmile_qr_scan"}}, {"name": "935747302b858ef0a1d2d7cd0626845e", "fusion_lat": 0.0, "type": "electric_scooter", "lat": 38.876599, "is_reserved": 0, "is_disabled": 0, "fusion_lon": 0.0, "bike_id": "935747302b858ef0a1d2d7cd0626845e", "lon": -77.0033615, "rental_uris": {"ios": "https://dc.lft.to/lastmile_qr_scan", "android": "https://dc.lft.to/lastmile_qr_scan"}}, {"name": "17fa1d8adbcb5da908061b9a989ac546", "fusion_lat": 0.0, "type": "electric_scooter", "lat": 38.930541833333336, "is_reserved": 0, "is_disabled": 0, "fusion_lon": 0.0, "bike_id": "17fa1d8adbcb5da908061b9a989ac546", "lon": -77.02317983333333, "rental_uris": {"ios": "https://dc.lft.to/lastmile_qr_scan", "android": "https://dc.lft.to/lastmile_qr_scan"}}, {"name": "4daee5728fa674752b41de966616e72d", "fusion_lat": 0.0, "type": "electric_bike", "lat": 38.85218183333333, "is_reserved": 0, "is_disabled": 0, "fusion_lon": 0.0, "bike_id": "4daee5728fa674752b41de966616e72d", "lon": -77.12961683333333, "rental_uris": {"ios": "https://dc.lft.to/lastmile_qr_scan", "android": "https://dc.lft.to/lastmile_qr_scan"}}, {"name": "c4eb6878d5cdf2478a045aba9b57a046", "fusion_lat": 0.0, "type": "electric_scooter", "lat": 38.885162333333334, "is_reserved": 0, "is_disabled": 0, "fusion_lon": 0.0, "bike_id": "c4eb6878d5cdf2478a045aba9b57a046", "lon": -77.03355583333334, "rental_uris": {"ios": "https://dc.lft.to/lastmile_qr_scan", "android": "https://dc.lft.to/lastmile_qr_scan"}}, {"name": "2a2f1d691b70537f82fe6c9890fdbee8", "fusion_lat": 0.0, "type": "electric_bike", "lat": 38.984515, "is_reserved": 0, "is_disabled": 0, "fusion_lon": 0.0, "bike_id": "2a2f1d691b70537f82fe6c9890fdbee8", "lon": -76.955228, "rental_uris": {"ios": "https://dc.lft.to/lastmile_qr_scan", "android": "https://dc.lft.to/lastmile_qr_scan"}}, {"name": "c1e112ef6f198b4ee3624e2609f5f1e0", "fusion_lat": 0.0, "type": "electric_scooter", "lat": 38.88048383333334, "is_reserved": 0, "is_disabled": 0, "fusion_lon": 0.0, "bike_id": "c1e112ef6f198b4ee3624e2609f5f1e0", "lon": -76.95983416666667, "rental_uris": {"ios": "https://dc.lft.to/lastmile_qr_scan", "android": "https://dc.lft.to/lastmile_qr_scan"}}, {"name": "d62cf404a8ab565a90ba67d252caa3ea", "fusion_lat": 0.0, "type": "electric_scooter", "lat": 38.939133166666664, "is_reserved": 0, "is_disabled": 0, "fusion_lon": 0.0, "bike_id": "d62cf404a8ab565a90ba67d252caa3ea", "lon": -77.03660683333334, "rental_uris": {"ios": "https://dc.lft.to/lastmile_qr_scan", "android": "https://dc.lft.to/lastmile_qr_scan"}}, {"name": "c561aeb8f6029ba4d2a605b597c9932f", "fusion_lat": 0.0, "type": "electric_scooter", "lat": 38.895527333333334, "is_reserved": 0, "is_disabled": 0, "fusion_lon": 0.0, "bike_id": "c561aeb8f6029ba4d2a605b597c9932f", "lon": -76.98374566666666, "rental_uris": {"ios": "https://dc.lft.to/lastmile_qr_scan", "android": "https://dc.lft.to/lastmile_qr_scan"}}, {"name": "359fbdd4ca93ebde56f7f0114bf14fe5", "fusion_lat": 0.0, "type": "electric_scooter", "lat": 38.878371, "is_reserved": 0, "is_disabled": 0, "fusion_lon": 0.0, "bike_id": "359fbdd4ca93ebde56f7f0114bf14fe5", "lon": -77.01745183333334, "rental_uris": {"ios": "https://dc.lft.to/lastmile_qr_scan", "android": "https://dc.lft.to/lastmile_qr_scan"}}, {"name": "07a857bcac47ebcf15150a9bbcd774b0", "fusion_lat": 0.0, "type": "electric_bike", "lat": 38.86593383333334, "is_reserved": 0, "is_disabled": 0, "fusion_lon": 0.0, "bike_id": "07a857bcac47ebcf15150a9bbcd774b0", "lon": -76.932281, "rental_uris": {"ios": "https://dc.lft.to/lastmile_qr_scan", "android": "https://dc.lft.to/lastmile_qr_scan"}}, {"name": "dbd4dd30218d7e58d91f53fcce779203", "fusion_lat": 0.0, "type": "electric_scooter", "lat": 38.900554666666665, "is_reserved": 0, "is_disabled": 0, "fusion_lon": 0.0, "bike_id": "dbd4dd30218d7e58d91f53fcce779203", "lon": -76.94754216666666, "rental_uris": {"ios": "https://dc.lft.to/lastmile_qr_scan", "android": "https://dc.lft.to/lastmile_qr_scan"}}, {"name": "c40275f941c94e10f2f61c06b8b61922", "fusion_lat": 0.0, "type": "electric_scooter", "lat": 38.90574, "is_reserved": 0, "is_disabled": 0, "fusion_lon": 0.0, "bike_id": "c40275f941c94e10f2f61c06b8b61922", "lon": -77.00609666666666, "rental_uris": {"ios": "https://dc.lft.to/lastmile_qr_scan", "android": "https://dc.lft.to/lastmile_qr_scan"}}, {"name": "e06b29fa3753005ad9434f3e5cbd5879", "fusion_lat": 0.0, "type": "electric_scooter", "lat": 38.91798333333333, "is_reserved": 0, "is_disabled": 0, "fusion_lon": 0.0, "bike_id": "e06b29fa3753005ad9434f3e5cbd5879", "lon": -77.04016, "rental_uris": {"ios": "https://dc.lft.to/lastmile_qr_scan", "android": "https://dc.lft.to/lastmile_qr_scan"}}, {"name": "06f5af9c4398e281bca66637f65ff6c6", "fusion_lat": 0.0, "type": "electric_scooter", "lat": 38.917095833333335, "is_reserved": 0, "is_disabled": 0, "fusion_lon": 0.0, "bike_id": "06f5af9c4398e281bca66637f65ff6c6", "lon": -77.03144483333334, "rental_uris": {"ios": "https://dc.lft.to/lastmile_qr_scan", "android": "https://dc.lft.to/lastmile_qr_scan"}}, {"name": "7daf5d0b9d6d08ca3a263aec4555ad04", "fusion_lat": 0.0, "type": "electric_scooter", "lat": 38.91815916666667, "is_reserved": 0, "is_disabled": 0, "fusion_lon": 0.0, "bike_id": "7daf5d0b9d6d08ca3a263aec4555ad04", "lon": -77.031957, "rental_uris": {"ios": "https://dc.lft.to/lastmile_qr_scan", "android": "https://dc.lft.to/lastmile_qr_scan"}}, {"name": "c402d05dbb350fad070912d2dde8a88f", "fusion_lat": 0.0, "type": "electric_bike", "lat": 38.852448333333335, "is_reserved": 0, "is_disabled": 0, "fusion_lon": 0.0, "bike_id": "c402d05dbb350fad070912d2dde8a88f", "lon": -77.1142935, "rental_uris": {"ios": "https://dc.lft.to/lastmile_qr_scan", "android": "https://dc.lft.to/lastmile_qr_scan"}}, {"name": "fa11a44f13ccd7c35324215d50f430ca", "fusion_lat": 0.0, "type": "electric_scooter", "lat": 38.89224166666666, "is_reserved": 0, "is_disabled": 0, "fusion_lon": 0.0, "bike_id": "fa11a44f13ccd7c35324215d50f430ca", "lon": -77.048, "rental_uris": {"ios": "https://dc.lft.to/lastmile_qr_scan", "android": "https://dc.lft.to/lastmile_qr_scan"}}, {"name": "4e5320ab168ecb1d9a99e41465dd89e7", "fusion_lat": 0.0, "type": "electric_scooter", "lat": 38.922247166666665, "is_reserved": 0, "is_disabled": 0, "fusion_lon": 0.0, "bike_id": "4e5320ab168ecb1d9a99e41465dd89e7", "lon": -77.02110783333333, "rental_uris": {"ios": "https://dc.lft.to/lastmile_qr_scan", "android": "https://dc.lft.to/lastmile_qr_scan"}}, {"name": "7a70206e1110885f8d8f627de56023d8", "fusion_lat": 0.0, "type": "electric_scooter", "lat": 38.8980275, "is_reserved": 0, "is_disabled": 0, "fusion_lon": 0.0, "bike_id": "7a70206e1110885f8d8f627de56023d8", "lon": -77.04606766666667, "rental_uris": {"ios": "https://dc.lft.to/lastmile_qr_scan", "android": "https://dc.lft.to/lastmile_qr_scan"}}, {"name": "2aa2156d249e1a9a10ec6285b68c9e8c", "fusion_lat": 0.0, "type": "electric_scooter", "lat": 38.8849035, "is_reserved": 0, "is_disabled": 0, "fusion_lon": 0.0, "bike_id": "2aa2156d249e1a9a10ec6285b68c9e8c", "lon": -77.00712983333334, "rental_uris": {"ios": "https://dc.lft.to/lastmile_qr_scan", "android": "https://dc.lft.to/lastmile_qr_scan"}}, {"name": "e928fb5b659c062dd80270388a0bd027", "fusion_lat": 0.0, "type": "electric_scooter", "lat": 38.91265966666667, "is_reserved": 0, "is_disabled": 0, "fusion_lon": 0.0, "bike_id": "e928fb5b659c062dd80270388a0bd027", "lon": -77.03873533333334, "rental_uris": {"ios": "https://dc.lft.to/lastmile_qr_scan", "android": "https://dc.lft.to/lastmile_qr_scan"}}, {"name": "73ea0fa6b99b366860ec3efefa2e7cb2", "fusion_lat": 0.0, "type": "electric_scooter", "lat": 38.8922825, "is_reserved": 0, "is_disabled": 0, "fusion_lon": 0.0, "bike_id": "73ea0fa6b99b366860ec3efefa2e7cb2", "lon": -77.02126966666667, "rental_uris": {"ios": "https://dc.lft.to/lastmile_qr_scan", "android": "https://dc.lft.to/lastmile_qr_scan"}}, {"name": "647daa9acfb43f6875ef954af3a4551e", "fusion_lat": 0.0, "type": "electric_scooter", "lat": 38.89726733333333, "is_reserved": 0, "is_disabled": 0, "fusion_lon": 0.0, "bike_id": "647daa9acfb43f6875ef954af3a4551e", "lon": -77.02041416666667, "rental_uris": {"ios": "https://dc.lft.to/lastmile_qr_scan", "android": "https://dc.lft.to/lastmile_qr_scan"}}, {"name": "61dac10885334263e94fe5ebc7327ebb", "fusion_lat": 0.0, "type": "electric_scooter", "lat": 38.85808933333333, "is_reserved": 0, "is_disabled": 0, "fusion_lon": 0.0, "bike_id": "61dac10885334263e94fe5ebc7327ebb", "lon": -76.98652516666667, "rental_uris": {"ios": "https://dc.lft.to/lastmile_qr_scan", "android": "https://dc.lft.to/lastmile_qr_scan"}}, {"name": "7fa4a681ed475277cf868ee47815940e", "fusion_lat": 0.0, "type": "electric_scooter", "lat": 38.90137416666666, "is_reserved": 0, "is_disabled": 0, "fusion_lon": 0.0, "bike_id": "7fa4a681ed475277cf868ee47815940e", "lon": -76.99121066666666, "rental_uris": {"ios": "https://dc.lft.to/lastmile_qr_scan", "android": "https://dc.lft.to/lastmile_qr_scan"}}, {"name": "7f22a5e5aa6f47107a4d42f76090803c", "fusion_lat": 0.0, "type": "electric_bike", "lat": 39.051902166666665, "is_reserved": 0, "is_disabled": 0, "fusion_lon": 0.0, "bike_id": "7f22a5e5aa6f47107a4d42f76090803c", "lon": -77.10913616666667, "rental_uris": {"ios": "https://dc.lft.to/lastmile_qr_scan", "android": "https://dc.lft.to/lastmile_qr_scan"}}, {"name": "e1f3d59ff5e16a7361c0d54daa8f5403", "fusion_lat": 0.0, "type": "electric_scooter", "lat": 38.923667, "is_reserved": 0, "is_disabled": 0, "fusion_lon": 0.0, "bike_id": "e1f3d59ff5e16a7361c0d54daa8f5403", "lon": -77.01905116666667, "rental_uris": {"ios": "https://dc.lft.to/lastmile_qr_scan", "android": "https://dc.lft.to/lastmile_qr_scan"}}, {"name": "eaeddc3bbea0cd9ed5dcfb9333f9fa52", "fusion_lat": 0.0, "type": "electric_scooter", "lat": 38.87948183333334, "is_reserved": 0, "is_disabled": 0, "fusion_lon": 0.0, "bike_id": "eaeddc3bbea0cd9ed5dcfb9333f9fa52", "lon": -77.00824933333334, "rental_uris": {"ios": "https://dc.lft.to/lastmile_qr_scan", "android": "https://dc.lft.to/lastmile_qr_scan"}}, {"name": "2221c34abc87032226e712dec56baf47", "fusion_lat": 0.0, "type": "electric_scooter", "lat": 38.914058, "is_reserved": 0, "is_disabled": 0, "fusion_lon": 0.0, "bike_id": "2221c34abc87032226e712dec56baf47", "lon": -77.0321795, "rental_uris": {"ios": "https://dc.lft.to/lastmile_qr_scan", "android": "https://dc.lft.to/lastmile_qr_scan"}}, {"name": "c7d8933b80aba1d754492e5ea2feb110", "fusion_lat": 0.0, "type": "electric_bike", "lat": 38.841648166666666, "is_reserved": 0, "is_disabled": 0, "fusion_lon": 0.0, "bike_id": "c7d8933b80aba1d754492e5ea2feb110", "lon": -77.08889483333333, "rental_uris": {"ios": "https://dc.lft.to/lastmile_qr_scan", "android": "https://dc.lft.to/lastmile_qr_scan"}}, {"name": "b963c562db5f67d7c3b74205c95ba559", "fusion_lat": 0.0, "type": "electric_scooter", "lat": 38.88393716666667, "is_reserved": 0, "is_disabled": 0, "fusion_lon": 0.0, "bike_id": "b963c562db5f67d7c3b74205c95ba559", "lon": -77.0176775, "rental_uris": {"ios": "https://dc.lft.to/lastmile_qr_scan", "android": "https://dc.lft.to/lastmile_qr_scan"}}, {"name": "14e515ddec5d1c2f399d2384ffe27328", "fusion_lat": 0.0, "type": "electric_scooter", "lat": 38.90736166666667, "is_reserved": 0, "is_disabled": 0, "fusion_lon": 0.0, "bike_id": "14e515ddec5d1c2f399d2384ffe27328", "lon": -77.00337716666667, "rental_uris": {"ios": "https://dc.lft.to/lastmile_qr_scan", "android": "https://dc.lft.to/lastmile_qr_scan"}}, {"name": "a8cb38394f39e3c6db71f0eb2551f61d", "fusion_lat": 0.0, "type": "electric_scooter", "lat": 38.902760666666666, "is_reserved": 0, "is_disabled": 0, "fusion_lon": 0.0, "bike_id": "a8cb38394f39e3c6db71f0eb2551f61d", "lon": -77.03866266666667, "rental_uris": {"ios": "https://dc.lft.to/lastmile_qr_scan", "android": "https://dc.lft.to/lastmile_qr_scan"}}, {"name": "13703433a3c97f415cf95a35c416ab35", "fusion_lat": 0.0, "type": "electric_scooter", "lat": 38.90538216666667, "is_reserved": 0, "is_disabled": 0, "fusion_lon": 0.0, "bike_id": "13703433a3c97f415cf95a35c416ab35", "lon": -77.05019233333333, "rental_uris": {"ios": "https://dc.lft.to/lastmile_qr_scan", "android": "https://dc.lft.to/lastmile_qr_scan"}}, {"name": "7de834b7976bced9eea5615a10a3b75a", "fusion_lat": 0.0, "type": "electric_scooter", "lat": 38.920123833333335, "is_reserved": 0, "is_disabled": 0, "fusion_lon": 0.0, "bike_id": "7de834b7976bced9eea5615a10a3b75a", "lon": -77.03160483333333, "rental_uris": {"ios": "https://dc.lft.to/lastmile_qr_scan", "android": "https://dc.lft.to/lastmile_qr_scan"}}, {"name": "d1c757d347207592b62338ae160fde1e", "fusion_lat": 0.0, "type": "electric_scooter", "lat": 38.8988095, "is_reserved": 0, "is_disabled": 0, "fusion_lon": 0.0, "bike_id": "d1c757d347207592b62338ae160fde1e", "lon": -77.0199865, "rental_uris": {"ios": "https://dc.lft.to/lastmile_qr_scan", "android": "https://dc.lft.to/lastmile_qr_scan"}}, {"name": "29b93c9380aa758ed8eb7eb66825e954", "fusion_lat": 0.0, "type": "electric_bike", "lat": 38.87232633333333, "is_reserved": 0, "is_disabled": 0, "fusion_lon": 0.0, "bike_id": "29b93c9380aa758ed8eb7eb66825e954", "lon": -77.01167983333333, "rental_uris": {"ios": "https://dc.lft.to/lastmile_qr_scan", "android": "https://dc.lft.to/lastmile_qr_scan"}}, {"name": "8016f01875fd3213f297b70e17bf1932", "fusion_lat": 0.0, "type": "electric_bike", "lat": 38.9945345, "is_reserved": 0, "is_disabled": 0, "fusion_lon": 0.0, "bike_id": "8016f01875fd3213f297b70e17bf1932", "lon": -76.908142, "rental_uris": {"ios": "https://dc.lft.to/lastmile_qr_scan", "android": "https://dc.lft.to/lastmile_qr_scan"}}, {"name": "6f93569e564dfb3a9d95821320177a70", "fusion_lat": 0.0, "type": "electric_scooter", "lat": 38.9002815, "is_reserved": 0, "is_disabled": 0, "fusion_lon": 0.0, "bike_id": "6f93569e564dfb3a9d95821320177a70", "lon": -77.04678183333333, "rental_uris": {"ios": "https://dc.lft.to/lastmile_qr_scan", "android": "https://dc.lft.to/lastmile_qr_scan"}}, {"name": "05bfe6ac33a25da0214f9670d984f0d8", "fusion_lat": 0.0, "type": "electric_scooter", "lat": 38.922594833333335, "is_reserved": 0, "is_disabled": 0, "fusion_lon": 0.0, "bike_id": "05bfe6ac33a25da0214f9670d984f0d8", "lon": -77.04144883333333, "rental_uris": {"ios": "https://dc.lft.to/lastmile_qr_scan", "android": "https://dc.lft.to/lastmile_qr_scan"}}, {"name": "dc0d5316fc3aa6b0357cb1639d918271", "fusion_lat": 0.0, "type": "electric_scooter", "lat": 38.90205516666666, "is_reserved": 0, "is_disabled": 0, "fusion_lon": 0.0, "bike_id": "dc0d5316fc3aa6b0357cb1639d918271", "lon": -77.02217083333333, "rental_uris": {"ios": "https://dc.lft.to/lastmile_qr_scan", "android": "https://dc.lft.to/lastmile_qr_scan"}}, {"name": "16ddcd229625d3519f4881473b5c406b", "fusion_lat": 0.0, "type": "electric_scooter", "lat": 38.90024533333333, "is_reserved": 0, "is_disabled": 0, "fusion_lon": 0.0, "bike_id": "16ddcd229625d3519f4881473b5c406b", "lon": -76.99625066666667, "rental_uris": {"ios": "https://dc.lft.to/lastmile_qr_scan", "android": "https://dc.lft.to/lastmile_qr_scan"}}, {"name": "3f96693cd671cb1ae032737593d108a5", "fusion_lat": 0.0, "type": "electric_scooter", "lat": 38.89800066666667, "is_reserved": 0, "is_disabled": 0, "fusion_lon": 0.0, "bike_id": "3f96693cd671cb1ae032737593d108a5", "lon": -76.9916395, "rental_uris": {"ios": "https://dc.lft.to/lastmile_qr_scan", "android": "https://dc.lft.to/lastmile_qr_scan"}}, {"name": "a6de21513018421a77eca3ddd97b4c36", "fusion_lat": 0.0, "type": "electric_scooter", "lat": 38.911278, "is_reserved": 0, "is_disabled": 0, "fusion_lon": 0.0, "bike_id": "a6de21513018421a77eca3ddd97b4c36", "lon": -77.021964, "rental_uris": {"ios": "https://dc.lft.to/lastmile_qr_scan", "android": "https://dc.lft.to/lastmile_qr_scan"}}, {"name": "9794f8ec395dae7264d2802d688062dc", "fusion_lat": 0.0, "type": "electric_scooter", "lat": 38.91194483333334, "is_reserved": 0, "is_disabled": 0, "fusion_lon": 0.0, "bike_id": "9794f8ec395dae7264d2802d688062dc", "lon": -77.03835666666667, "rental_uris": {"ios": "https://dc.lft.to/lastmile_qr_scan", "android": "https://dc.lft.to/lastmile_qr_scan"}}, {"name": "8d19c35a4907cde7df794488d5b89de0", "fusion_lat": 0.0, "type": "electric_scooter", "lat": 38.878674, "is_reserved": 0, "is_disabled": 0, "fusion_lon": 0.0, "bike_id": "8d19c35a4907cde7df794488d5b89de0", "lon": -76.96523783333333, "rental_uris": {"ios": "https://dc.lft.to/lastmile_qr_scan", "android": "https://dc.lft.to/lastmile_qr_scan"}}, {"name": "f8ebfc9100a7d9106c8fb1c99a118205", "fusion_lat": 0.0, "type": "electric_scooter", "lat": 38.91805266666667, "is_reserved": 0, "is_disabled": 0, "fusion_lon": 0.0, "bike_id": "f8ebfc9100a7d9106c8fb1c99a118205", "lon": -77.02492833333334, "rental_uris": {"ios": "https://dc.lft.to/lastmile_qr_scan", "android": "https://dc.lft.to/lastmile_qr_scan"}}, {"name": "6b17030c9ca78659cbe567ccaa90503f", "fusion_lat": 0.0, "type": "electric_scooter", "lat": 38.90879066666667, "is_reserved": 0, "is_disabled": 0, "fusion_lon": 0.0, "bike_id": "6b17030c9ca78659cbe567ccaa90503f", "lon": -77.076038, "rental_uris": {"ios": "https://dc.lft.to/lastmile_qr_scan", "android": "https://dc.lft.to/lastmile_qr_scan"}}, {"name": "f27a35de046748684eb299bd28570b17", "fusion_lat": 0.0, "type": "electric_scooter", "lat": 38.90335316666667, "is_reserved": 0, "is_disabled": 0, "fusion_lon": 0.0, "bike_id": "f27a35de046748684eb299bd28570b17", "lon": -77.0544155, "rental_uris": {"ios": "https://dc.lft.to/lastmile_qr_scan", "android": "https://dc.lft.to/lastmile_qr_scan"}}, {"name": "6bfceab11f0b50f2873d56a6569b2220", "fusion_lat": 0.0, "type": "electric_scooter", "lat": 38.895176666666664, "is_reserved": 0, "is_disabled": 0, "fusion_lon": 0.0, "bike_id": "6bfceab11f0b50f2873d56a6569b2220", "lon": -76.99209433333333, "rental_uris": {"ios": "https://dc.lft.to/lastmile_qr_scan", "android": "https://dc.lft.to/lastmile_qr_scan"}}, {"name": "8289877c0afe136acb5efdd004862511", "fusion_lat": 0.0, "type": "electric_scooter", "lat": 38.954867666666665, "is_reserved": 0, "is_disabled": 0, "fusion_lon": 0.0, "bike_id": "8289877c0afe136acb5efdd004862511", "lon": -77.0698075, "rental_uris": {"ios": "https://dc.lft.to/lastmile_qr_scan", "android": "https://dc.lft.to/lastmile_qr_scan"}}, {"name": "0a2c75e980874a1498624bcc4b7b45e1", "fusion_lat": 0.0, "type": "electric_scooter", "lat": 38.898998666666664, "is_reserved": 0, "is_disabled": 0, "fusion_lon": 0.0, "bike_id": "0a2c75e980874a1498624bcc4b7b45e1", "lon": -77.03296566666667, "rental_uris": {"ios": "https://dc.lft.to/lastmile_qr_scan", "android": "https://dc.lft.to/lastmile_qr_scan"}}, {"name": "f657303cf4d84bd10f90c36f814a94fb", "fusion_lat": 0.0, "type": "electric_scooter", "lat": 38.90381933333333, "is_reserved": 0, "is_disabled": 0, "fusion_lon": 0.0, "bike_id": "f657303cf4d84bd10f90c36f814a94fb", "lon": -77.04176283333334, "rental_uris": {"ios": "https://dc.lft.to/lastmile_qr_scan", "android": "https://dc.lft.to/lastmile_qr_scan"}}, {"name": "3695b0e05258b5da06763ca30f320b97", "fusion_lat": 0.0, "type": "electric_scooter", "lat": 38.89047766666667, "is_reserved": 0, "is_disabled": 0, "fusion_lon": 0.0, "bike_id": "3695b0e05258b5da06763ca30f320b97", "lon": -76.93754516666667, "rental_uris": {"ios": "https://dc.lft.to/lastmile_qr_scan", "android": "https://dc.lft.to/lastmile_qr_scan"}}, {"name": "e31b8a9c6ec1ddf6724f8457816c5744", "fusion_lat": 0.0, "type": "electric_scooter", "lat": 38.923419, "is_reserved": 0, "is_disabled": 0, "fusion_lon": 0.0, "bike_id": "e31b8a9c6ec1ddf6724f8457816c5744", "lon": -77.03225616666667, "rental_uris": {"ios": "https://dc.lft.to/lastmile_qr_scan", "android": "https://dc.lft.to/lastmile_qr_scan"}}, {"name": "1007b63775221b30a19f7888a2ddf9ef", "fusion_lat": 0.0, "type": "electric_bike", "lat": 38.896082666666665, "is_reserved": 0, "is_disabled": 0, "fusion_lon": 0.0, "bike_id": "1007b63775221b30a19f7888a2ddf9ef", "lon": -76.988404, "rental_uris": {"ios": "https://dc.lft.to/lastmile_qr_scan", "android": "https://dc.lft.to/lastmile_qr_scan"}}, {"name": "2626fdcbf0ebf08ffa8532d6fd98f50e", "fusion_lat": 0.0, "type": "electric_scooter", "lat": 38.91627233333333, "is_reserved": 0, "is_disabled": 0, "fusion_lon": 0.0, "bike_id": "2626fdcbf0ebf08ffa8532d6fd98f50e", "lon": -77.03184166666666, "rental_uris": {"ios": "https://dc.lft.to/lastmile_qr_scan", "android": "https://dc.lft.to/lastmile_qr_scan"}}, {"name": "576d87b4d7c5acf44dfeed7b75e9235a", "fusion_lat": 0.0, "type": "electric_scooter", "lat": 38.862477166666665, "is_reserved": 0, "is_disabled": 0, "fusion_lon": 0.0, "bike_id": "576d87b4d7c5acf44dfeed7b75e9235a", "lon": -76.99533283333334, "rental_uris": {"ios": "https://dc.lft.to/lastmile_qr_scan", "android": "https://dc.lft.to/lastmile_qr_scan"}}, {"name": "401426d0f58d91e1bc83fb13165537fe", "fusion_lat": 0.0, "type": "electric_scooter", "lat": 38.923896, "is_reserved": 0, "is_disabled": 0, "fusion_lon": 0.0, "bike_id": "401426d0f58d91e1bc83fb13165537fe", "lon": -77.02978366666666, "rental_uris": {"ios": "https://dc.lft.to/lastmile_qr_scan", "android": "https://dc.lft.to/lastmile_qr_scan"}}, {"name": "ec9fc7338fff0c9d29622fbba61fd898", "fusion_lat": 0.0, "type": "electric_scooter", "lat": 38.93716283333333, "is_reserved": 0, "is_disabled": 0, "fusion_lon": 0.0, "bike_id": "ec9fc7338fff0c9d29622fbba61fd898", "lon": -77.02455833333333, "rental_uris": {"ios": "https://dc.lft.to/lastmile_qr_scan", "android": "https://dc.lft.to/lastmile_qr_scan"}}, {"name": "ce9384f84c3f48e3ff7d7de2ee3e5523", "fusion_lat": 0.0, "type": "electric_bike", "lat": 38.88590283333333, "is_reserved": 0, "is_disabled": 0, "fusion_lon": 0.0, "bike_id": "ce9384f84c3f48e3ff7d7de2ee3e5523", "lon": -77.10329916666667, "rental_uris": {"ios": "https://dc.lft.to/lastmile_qr_scan", "android": "https://dc.lft.to/lastmile_qr_scan"}}, {"name": "edc333a10f3692ef91744cef1f4869c6", "fusion_lat": 0.0, "type": "electric_scooter", "lat": 38.930027333333335, "is_reserved": 0, "is_disabled": 0, "fusion_lon": 0.0, "bike_id": "edc333a10f3692ef91744cef1f4869c6", "lon": -77.02304733333334, "rental_uris": {"ios": "https://dc.lft.to/lastmile_qr_scan", "android": "https://dc.lft.to/lastmile_qr_scan"}}, {"name": "a49946144c881e751d65f479e7ea00de", "fusion_lat": 0.0, "type": "electric_scooter", "lat": 38.864187666666666, "is_reserved": 0, "is_disabled": 0, "fusion_lon": 0.0, "bike_id": "a49946144c881e751d65f479e7ea00de", "lon": -76.9804005, "rental_uris": {"ios": "https://dc.lft.to/lastmile_qr_scan", "android": "https://dc.lft.to/lastmile_qr_scan"}}, {"name": "4c1030a1cdd5261ace71158d227c4b4c", "fusion_lat": 0.0, "type": "electric_bike", "lat": 38.896357, "is_reserved": 0, "is_disabled": 0, "fusion_lon": 0.0, "bike_id": "4c1030a1cdd5261ace71158d227c4b4c", "lon": -77.1045515, "rental_uris": {"ios": "https://dc.lft.to/lastmile_qr_scan", "android": "https://dc.lft.to/lastmile_qr_scan"}}, {"name": "232bc232e3c6c00662071b4af867f83c", "fusion_lat": 0.0, "type": "electric_scooter", "lat": 38.9003375, "is_reserved": 0, "is_disabled": 0, "fusion_lon": 0.0, "bike_id": "232bc232e3c6c00662071b4af867f83c", "lon": -77.00207, "rental_uris": {"ios": "https://dc.lft.to/lastmile_qr_scan", "android": "https://dc.lft.to/lastmile_qr_scan"}}, {"name": "4e3c59c792775870af0fe35809661c7b", "fusion_lat": 0.0, "type": "electric_scooter", "lat": 38.868179833333336, "is_reserved": 0, "is_disabled": 0, "fusion_lon": 0.0, "bike_id": "4e3c59c792775870af0fe35809661c7b", "lon": -76.98617883333333, "rental_uris": {"ios": "https://dc.lft.to/lastmile_qr_scan", "android": "https://dc.lft.to/lastmile_qr_scan"}}, {"name": "4cf6307a995aedc6dff7d4e454c40f3c", "fusion_lat": 0.0, "type": "electric_scooter", "lat": 38.90781283333333, "is_reserved": 0, "is_disabled": 0, "fusion_lon": 0.0, "bike_id": "4cf6307a995aedc6dff7d4e454c40f3c", "lon": -77.03759216666667, "rental_uris": {"ios": "https://dc.lft.to/lastmile_qr_scan", "android": "https://dc.lft.to/lastmile_qr_scan"}}, {"name": "f87737ddb10b853ad09fc8980554f2b1", "fusion_lat": 0.0, "type": "electric_scooter", "lat": 38.88519516666667, "is_reserved": 0, "is_disabled": 0, "fusion_lon": 0.0, "bike_id": "f87737ddb10b853ad09fc8980554f2b1", "lon": -77.00340516666667, "rental_uris": {"ios": "https://dc.lft.to/lastmile_qr_scan", "android": "https://dc.lft.to/lastmile_qr_scan"}}, {"name": "0ebbfe840f406393eff255fb75071514", "fusion_lat": 0.0, "type": "electric_scooter", "lat": 38.909665833333335, "is_reserved": 0, "is_disabled": 0, "fusion_lon": 0.0, "bike_id": "0ebbfe840f406393eff255fb75071514", "lon": -77.0466365, "rental_uris": {"ios": "https://dc.lft.to/lastmile_qr_scan", "android": "https://dc.lft.to/lastmile_qr_scan"}}, {"name": "128b4331efc882a1e3b09f67a53e3742", "fusion_lat": 0.0, "type": "electric_scooter", "lat": 38.92135016666667, "is_reserved": 0, "is_disabled": 0, "fusion_lon": 0.0, "bike_id": "128b4331efc882a1e3b09f67a53e3742", "lon": -77.045553, "rental_uris": {"ios": "https://dc.lft.to/lastmile_qr_scan", "android": "https://dc.lft.to/lastmile_qr_scan"}}, {"name": "8eafee0195a803fe135d743b90762ce3", "fusion_lat": 0.0, "type": "electric_scooter", "lat": 38.924678166666666, "is_reserved": 0, "is_disabled": 0, "fusion_lon": 0.0, "bike_id": "8eafee0195a803fe135d743b90762ce3", "lon": -77.03058633333333, "rental_uris": {"ios": "https://dc.lft.to/lastmile_qr_scan", "android": "https://dc.lft.to/lastmile_qr_scan"}}, {"name": "ed2fba85a2b82f9c9603048b3dadfa6e", "fusion_lat": 0.0, "type": "electric_scooter", "lat": 38.88223933333333, "is_reserved": 0, "is_disabled": 0, "fusion_lon": 0.0, "bike_id": "ed2fba85a2b82f9c9603048b3dadfa6e", "lon": -76.9417885, "rental_uris": {"ios": "https://dc.lft.to/lastmile_qr_scan", "android": "https://dc.lft.to/lastmile_qr_scan"}}, {"name": "225ff06abe96c8c30327ff83eca006a4", "fusion_lat": 0.0, "type": "electric_scooter", "lat": 38.90958366666667, "is_reserved": 0, "is_disabled": 0, "fusion_lon": 0.0, "bike_id": "225ff06abe96c8c30327ff83eca006a4", "lon": -77.04865, "rental_uris": {"ios": "https://dc.lft.to/lastmile_qr_scan", "android": "https://dc.lft.to/lastmile_qr_scan"}}, {"name": "e7ef4a56c5c52cbdb50ebd8137bb19c6", "fusion_lat": 0.0, "type": "electric_scooter", "lat": 38.881609833333336, "is_reserved": 0, "is_disabled": 0, "fusion_lon": 0.0, "bike_id": "e7ef4a56c5c52cbdb50ebd8137bb19c6", "lon": -77.01313283333333, "rental_uris": {"ios": "https://dc.lft.to/lastmile_qr_scan", "android": "https://dc.lft.to/lastmile_qr_scan"}}, {"name": "409d5846d3d2afb2006e505cf0af95da", "fusion_lat": 0.0, "type": "electric_scooter", "lat": 38.90257966666667, "is_reserved": 0, "is_disabled": 0, "fusion_lon": 0.0, "bike_id": "409d5846d3d2afb2006e505cf0af95da", "lon": -77.03158566666667, "rental_uris": {"ios": "https://dc.lft.to/lastmile_qr_scan", "android": "https://dc.lft.to/lastmile_qr_scan"}}, {"name": "396422d27a9e1ecb93208b55f7d631f5", "fusion_lat": 0.0, "type": "electric_scooter", "lat": 38.92103933333333, "is_reserved": 0, "is_disabled": 0, "fusion_lon": 0.0, "bike_id": "396422d27a9e1ecb93208b55f7d631f5", "lon": -77.05475366666667, "rental_uris": {"ios": "https://dc.lft.to/lastmile_qr_scan", "android": "https://dc.lft.to/lastmile_qr_scan"}}, {"name": "983de080e25a62b0f711688becc9090b", "fusion_lat": 0.0, "type": "electric_scooter", "lat": 38.908680333333336, "is_reserved": 0, "is_disabled": 0, "fusion_lon": 0.0, "bike_id": "983de080e25a62b0f711688becc9090b", "lon": -77.01290183333333, "rental_uris": {"ios": "https://dc.lft.to/lastmile_qr_scan", "android": "https://dc.lft.to/lastmile_qr_scan"}}, {"name": "4f7b94e6ec80f72a020a606d1221d53f", "fusion_lat": 0.0, "type": "electric_scooter", "lat": 38.900464, "is_reserved": 0, "is_disabled": 0, "fusion_lon": 0.0, "bike_id": "4f7b94e6ec80f72a020a606d1221d53f", "lon": -76.99146716666667, "rental_uris": {"ios": "https://dc.lft.to/lastmile_qr_scan", "android": "https://dc.lft.to/lastmile_qr_scan"}}, {"name": "7f60148ab4a98aa50d6130aec8198dc5", "fusion_lat": 0.0, "type": "electric_scooter", "lat": 38.91830683333333, "is_reserved": 0, "is_disabled": 0, "fusion_lon": 0.0, "bike_id": "7f60148ab4a98aa50d6130aec8198dc5", "lon": -77.02306516666667, "rental_uris": {"ios": "https://dc.lft.to/lastmile_qr_scan", "android": "https://dc.lft.to/lastmile_qr_scan"}}, {"name": "7e49f720acff7c7999fb654ce6b74c28", "fusion_lat": 0.0, "type": "electric_scooter", "lat": 38.915619666666665, "is_reserved": 0, "is_disabled": 0, "fusion_lon": 0.0, "bike_id": "7e49f720acff7c7999fb654ce6b74c28", "lon": -77.02559066666667, "rental_uris": {"ios": "https://dc.lft.to/lastmile_qr_scan", "android": "https://dc.lft.to/lastmile_qr_scan"}}, {"name": "faae83877a7f80bd347ad31bde8b2278", "fusion_lat": 0.0, "type": "electric_scooter", "lat": 38.862599, "is_reserved": 0, "is_disabled": 0, "fusion_lon": 0.0, "bike_id": "faae83877a7f80bd347ad31bde8b2278", "lon": -76.98712233333333, "rental_uris": {"ios": "https://dc.lft.to/lastmile_qr_scan", "android": "https://dc.lft.to/lastmile_qr_scan"}}, {"name": "c8cacec7ec423eb22b50d0c10488b8ca", "fusion_lat": 0.0, "type": "electric_scooter", "lat": 38.91937733333334, "is_reserved": 0, "is_disabled": 0, "fusion_lon": 0.0, "bike_id": "c8cacec7ec423eb22b50d0c10488b8ca", "lon": -77.03433216666667, "rental_uris": {"ios": "https://dc.lft.to/lastmile_qr_scan", "android": "https://dc.lft.to/lastmile_qr_scan"}}, {"name": "4d4763db1c144cf35d7743e08bb12be2", "fusion_lat": 0.0, "type": "electric_scooter", "lat": 38.929476666666666, "is_reserved": 0, "is_disabled": 0, "fusion_lon": 0.0, "bike_id": "4d4763db1c144cf35d7743e08bb12be2", "lon": -77.0377425, "rental_uris": {"ios": "https://dc.lft.to/lastmile_qr_scan", "android": "https://dc.lft.to/lastmile_qr_scan"}}, {"name": "69704a63479869122a20b2badc8b714e", "fusion_lat": 0.0, "type": "electric_scooter", "lat": 38.938987833333336, "is_reserved": 0, "is_disabled": 0, "fusion_lon": 0.0, "bike_id": "69704a63479869122a20b2badc8b714e", "lon": -77.03282583333333, "rental_uris": {"ios": "https://dc.lft.to/lastmile_qr_scan", "android": "https://dc.lft.to/lastmile_qr_scan"}}, {"name": "e814a32da30ea5156b20e6820d403ff0", "fusion_lat": 0.0, "type": "electric_scooter", "lat": 38.895194333333336, "is_reserved": 0, "is_disabled": 0, "fusion_lon": 0.0, "bike_id": "e814a32da30ea5156b20e6820d403ff0", "lon": -77.02410366666666, "rental_uris": {"ios": "https://dc.lft.to/lastmile_qr_scan", "android": "https://dc.lft.to/lastmile_qr_scan"}}, {"name": "f9a565fbfe0d43f6341a6199a8b360b5", "fusion_lat": 0.0, "type": "electric_scooter", "lat": 38.91856533333333, "is_reserved": 0, "is_disabled": 0, "fusion_lon": 0.0, "bike_id": "f9a565fbfe0d43f6341a6199a8b360b5", "lon": -77.01503383333333, "rental_uris": {"ios": "https://dc.lft.to/lastmile_qr_scan", "android": "https://dc.lft.to/lastmile_qr_scan"}}, {"name": "63b8a28ad81167ada680dfbf7b63a12e", "fusion_lat": 0.0, "type": "electric_scooter", "lat": 38.9310505, "is_reserved": 0, "is_disabled": 0, "fusion_lon": 0.0, "bike_id": "63b8a28ad81167ada680dfbf7b63a12e", "lon": -77.02399283333334, "rental_uris": {"ios": "https://dc.lft.to/lastmile_qr_scan", "android": "https://dc.lft.to/lastmile_qr_scan"}}, {"name": "3da34fbb6b6ee7c50908afa3a1a1a1ab", "fusion_lat": 0.0, "type": "electric_scooter", "lat": 38.8984315, "is_reserved": 0, "is_disabled": 0, "fusion_lon": 0.0, "bike_id": "3da34fbb6b6ee7c50908afa3a1a1a1ab", "lon": -77.0074305, "rental_uris": {"ios": "https://dc.lft.to/lastmile_qr_scan", "android": "https://dc.lft.to/lastmile_qr_scan"}}, {"name": "4e2fe4f222918519c84af2e90bc1856a", "fusion_lat": 0.0, "type": "electric_scooter", "lat": 38.900856, "is_reserved": 0, "is_disabled": 0, "fusion_lon": 0.0, "bike_id": "4e2fe4f222918519c84af2e90bc1856a", "lon": -77.05002716666667, "rental_uris": {"ios": "https://dc.lft.to/lastmile_qr_scan", "android": "https://dc.lft.to/lastmile_qr_scan"}}, {"name": "2deebdc68d1f3a8008b5da8890f09d47", "fusion_lat": 0.0, "type": "electric_scooter", "lat": 38.9072945, "is_reserved": 0, "is_disabled": 0, "fusion_lon": 0.0, "bike_id": "2deebdc68d1f3a8008b5da8890f09d47", "lon": -77.043268, "rental_uris": {"ios": "https://dc.lft.to/lastmile_qr_scan", "android": "https://dc.lft.to/lastmile_qr_scan"}}, {"name": "ef06707b7a75ee21900afb316df57094", "fusion_lat": 0.0, "type": "electric_scooter", "lat": 38.905924166666665, "is_reserved": 0, "is_disabled": 0, "fusion_lon": 0.0, "bike_id": "ef06707b7a75ee21900afb316df57094", "lon": -77.0062005, "rental_uris": {"ios": "https://dc.lft.to/lastmile_qr_scan", "android": "https://dc.lft.to/lastmile_qr_scan"}}, {"name": "ec515812da9fdf15c22e027b77580469", "fusion_lat": 0.0, "type": "electric_scooter", "lat": 38.92677916666667, "is_reserved": 0, "is_disabled": 0, "fusion_lon": 0.0, "bike_id": "ec515812da9fdf15c22e027b77580469", "lon": -77.0151895, "rental_uris": {"ios": "https://dc.lft.to/lastmile_qr_scan", "android": "https://dc.lft.to/lastmile_qr_scan"}}, {"name": "7d07c0053f67dc1ca4812ebbbd0ddd3c", "fusion_lat": 0.0, "type": "electric_scooter", "lat": 38.9077325, "is_reserved": 0, "is_disabled": 0, "fusion_lon": 0.0, "bike_id": "7d07c0053f67dc1ca4812ebbbd0ddd3c", "lon": -77.03856116666667, "rental_uris": {"ios": "https://dc.lft.to/lastmile_qr_scan", "android": "https://dc.lft.to/lastmile_qr_scan"}}, {"name": "0a34015ff790a311ddfb9683c341f4ec", "fusion_lat": 0.0, "type": "electric_scooter", "lat": 38.93572316666667, "is_reserved": 0, "is_disabled": 0, "fusion_lon": 0.0, "bike_id": "0a34015ff790a311ddfb9683c341f4ec", "lon": -77.0212235, "rental_uris": {"ios": "https://dc.lft.to/lastmile_qr_scan", "android": "https://dc.lft.to/lastmile_qr_scan"}}, {"name": "eebdd928de93207188f60d08bfbb6888", "fusion_lat": 0.0, "type": "electric_scooter", "lat": 38.897474, "is_reserved": 0, "is_disabled": 0, "fusion_lon": 0.0, "bike_id": "eebdd928de93207188f60d08bfbb6888", "lon": -76.99607216666666, "rental_uris": {"ios": "https://dc.lft.to/lastmile_qr_scan", "android": "https://dc.lft.to/lastmile_qr_scan"}}, {"name": "1511e5cacb3c12e11c322debc260a68c", "fusion_lat": 0.0, "type": "electric_bike", "lat": 38.89769783333333, "is_reserved": 0, "is_disabled": 0, "fusion_lon": 0.0, "bike_id": "1511e5cacb3c12e11c322debc260a68c", "lon": -76.90435466666666, "rental_uris": {"ios": "https://dc.lft.to/lastmile_qr_scan", "android": "https://dc.lft.to/lastmile_qr_scan"}}, {"name": "40c5949598810d1fbab680b81368d32f", "fusion_lat": 0.0, "type": "electric_scooter", "lat": 38.93427233333333, "is_reserved": 0, "is_disabled": 0, "fusion_lon": 0.0, "bike_id": "40c5949598810d1fbab680b81368d32f", "lon": -77.0400405, "rental_uris": {"ios": "https://dc.lft.to/lastmile_qr_scan", "android": "https://dc.lft.to/lastmile_qr_scan"}}, {"name": "cb4acc545f81ba75557a0d9d6df415cc", "fusion_lat": 0.0, "type": "electric_scooter", "lat": 38.938688, "is_reserved": 0, "is_disabled": 0, "fusion_lon": 0.0, "bike_id": "cb4acc545f81ba75557a0d9d6df415cc", "lon": -77.02223433333333, "rental_uris": {"ios": "https://dc.lft.to/lastmile_qr_scan", "android": "https://dc.lft.to/lastmile_qr_scan"}}, {"name": "2a2b1cd38e7f6e89794da8079ccf52bc", "fusion_lat": 0.0, "type": "electric_scooter", "lat": 38.905703833333334, "is_reserved": 0, "is_disabled": 0, "fusion_lon": 0.0, "bike_id": "2a2b1cd38e7f6e89794da8079ccf52bc", "lon": -77.03699433333334, "rental_uris": {"ios": "https://dc.lft.to/lastmile_qr_scan", "android": "https://dc.lft.to/lastmile_qr_scan"}}, {"name": "aa0cf9e321211cd6fa7e4f3be165b595", "fusion_lat": 0.0, "type": "electric_scooter", "lat": 38.8683, "is_reserved": 0, "is_disabled": 0, "fusion_lon": 0.0, "bike_id": "aa0cf9e321211cd6fa7e4f3be165b595", "lon": -76.98609816666666, "rental_uris": {"ios": "https://dc.lft.to/lastmile_qr_scan", "android": "https://dc.lft.to/lastmile_qr_scan"}}, {"name": "03f87f27cf2bc841a5ff1d7319653071", "fusion_lat": 0.0, "type": "electric_scooter", "lat": 38.914032166666665, "is_reserved": 0, "is_disabled": 0, "fusion_lon": 0.0, "bike_id": "03f87f27cf2bc841a5ff1d7319653071", "lon": -77.0395085, "rental_uris": {"ios": "https://dc.lft.to/lastmile_qr_scan", "android": "https://dc.lft.to/lastmile_qr_scan"}}, {"name": "eac3a9347cd5b9203472e2ba4bfab750", "fusion_lat": 0.0, "type": "electric_scooter", "lat": 38.902597666666665, "is_reserved": 0, "is_disabled": 0, "fusion_lon": 0.0, "bike_id": "eac3a9347cd5b9203472e2ba4bfab750", "lon": -77.005674, "rental_uris": {"ios": "https://dc.lft.to/lastmile_qr_scan", "android": "https://dc.lft.to/lastmile_qr_scan"}}, {"name": "c7e4daec5a9f03368ca5df1ec5c699ce", "fusion_lat": 0.0, "type": "electric_scooter", "lat": 38.885828, "is_reserved": 0, "is_disabled": 0, "fusion_lon": 0.0, "bike_id": "c7e4daec5a9f03368ca5df1ec5c699ce", "lon": -76.9950725, "rental_uris": {"ios": "https://dc.lft.to/lastmile_qr_scan", "android": "https://dc.lft.to/lastmile_qr_scan"}}, {"name": "c4d6d53f8f9d0e28048fc27aa8b894d3", "fusion_lat": 0.0, "type": "electric_scooter", "lat": 38.92847033333334, "is_reserved": 0, "is_disabled": 0, "fusion_lon": 0.0, "bike_id": "c4d6d53f8f9d0e28048fc27aa8b894d3", "lon": -77.01414066666666, "rental_uris": {"ios": "https://dc.lft.to/lastmile_qr_scan", "android": "https://dc.lft.to/lastmile_qr_scan"}}, {"name": "98dbe0d0b245f79943a0abaf7d330ffe", "fusion_lat": 0.0, "type": "electric_scooter", "lat": 38.915168333333334, "is_reserved": 0, "is_disabled": 0, "fusion_lon": 0.0, "bike_id": "98dbe0d0b245f79943a0abaf7d330ffe", "lon": -77.04638433333334, "rental_uris": {"ios": "https://dc.lft.to/lastmile_qr_scan", "android": "https://dc.lft.to/lastmile_qr_scan"}}, {"name": "3d331d4bbd1ad312c455f27fe422abb2", "fusion_lat": 0.0, "type": "electric_scooter", "lat": 38.91594666666667, "is_reserved": 0, "is_disabled": 0, "fusion_lon": 0.0, "bike_id": "3d331d4bbd1ad312c455f27fe422abb2", "lon": -77.0425165, "rental_uris": {"ios": "https://dc.lft.to/lastmile_qr_scan", "android": "https://dc.lft.to/lastmile_qr_scan"}}, {"name": "5c8b91954efc9094ae2b12687c87cd47", "fusion_lat": 0.0, "type": "electric_scooter", "lat": 38.91710633333334, "is_reserved": 0, "is_disabled": 0, "fusion_lon": 0.0, "bike_id": "5c8b91954efc9094ae2b12687c87cd47", "lon": -77.03225666666667, "rental_uris": {"ios": "https://dc.lft.to/lastmile_qr_scan", "android": "https://dc.lft.to/lastmile_qr_scan"}}, {"name": "70a26127b83ae48b5fa884212368714e", "fusion_lat": 0.0, "type": "electric_scooter", "lat": 38.8763665, "is_reserved": 0, "is_disabled": 0, "fusion_lon": 0.0, "bike_id": "70a26127b83ae48b5fa884212368714e", "lon": -77.01474583333334, "rental_uris": {"ios": "https://dc.lft.to/lastmile_qr_scan", "android": "https://dc.lft.to/lastmile_qr_scan"}}, {"name": "f46d3623679373cb6fb53e7a00bc9471", "fusion_lat": 0.0, "type": "electric_scooter", "lat": 38.90954766666667, "is_reserved": 0, "is_disabled": 0, "fusion_lon": 0.0, "bike_id": "f46d3623679373cb6fb53e7a00bc9471", "lon": -77.02405033333334, "rental_uris": {"ios": "https://dc.lft.to/lastmile_qr_scan", "android": "https://dc.lft.to/lastmile_qr_scan"}}, {"name": "9c432652448c5a054f77e10dfe106090", "fusion_lat": 0.0, "type": "electric_scooter", "lat": 38.89551733333333, "is_reserved": 0, "is_disabled": 0, "fusion_lon": 0.0, "bike_id": "9c432652448c5a054f77e10dfe106090", "lon": -77.04671016666667, "rental_uris": {"ios": "https://dc.lft.to/lastmile_qr_scan", "android": "https://dc.lft.to/lastmile_qr_scan"}}, {"name": "da80739b4ddca9a83866f69f0b840716", "fusion_lat": 0.0, "type": "electric_bike", "lat": 38.905222, "is_reserved": 0, "is_disabled": 0, "fusion_lon": 0.0, "bike_id": "da80739b4ddca9a83866f69f0b840716", "lon": -77.07185166666666, "rental_uris": {"ios": "https://dc.lft.to/lastmile_qr_scan", "android": "https://dc.lft.to/lastmile_qr_scan"}}, {"name": "03a49c21b79d3208c53c31770a119efe", "fusion_lat": 0.0, "type": "electric_scooter", "lat": 38.905309333333335, "is_reserved": 0, "is_disabled": 0, "fusion_lon": 0.0, "bike_id": "03a49c21b79d3208c53c31770a119efe", "lon": -77.0638195, "rental_uris": {"ios": "https://dc.lft.to/lastmile_qr_scan", "android": "https://dc.lft.to/lastmile_qr_scan"}}, {"name": "3c7ee14e7103295349d7249e9fb2fb47", "fusion_lat": 0.0, "type": "electric_scooter", "lat": 38.90151516666667, "is_reserved": 0, "is_disabled": 0, "fusion_lon": 0.0, "bike_id": "3c7ee14e7103295349d7249e9fb2fb47", "lon": -77.03975166666666, "rental_uris": {"ios": "https://dc.lft.to/lastmile_qr_scan", "android": "https://dc.lft.to/lastmile_qr_scan"}}, {"name": "1f1cbc7525971e21a4a450c6e2f8c6ef", "fusion_lat": 0.0, "type": "electric_bike", "lat": 38.949193333333334, "is_reserved": 0, "is_disabled": 0, "fusion_lon": 0.0, "bike_id": "1f1cbc7525971e21a4a450c6e2f8c6ef", "lon": -77.00841066666666, "rental_uris": {"ios": "https://dc.lft.to/lastmile_qr_scan", "android": "https://dc.lft.to/lastmile_qr_scan"}}, {"name": "4bc565cf2c1cf5b41b2cfe62b0411709", "fusion_lat": 0.0, "type": "electric_scooter", "lat": 38.9056165, "is_reserved": 0, "is_disabled": 0, "fusion_lon": 0.0, "bike_id": "4bc565cf2c1cf5b41b2cfe62b0411709", "lon": -76.9808065, "rental_uris": {"ios": "https://dc.lft.to/lastmile_qr_scan", "android": "https://dc.lft.to/lastmile_qr_scan"}}, {"name": "b1879db3c92b7784f291fb456201933b", "fusion_lat": 0.0, "type": "electric_scooter", "lat": 38.9033755, "is_reserved": 0, "is_disabled": 0, "fusion_lon": 0.0, "bike_id": "b1879db3c92b7784f291fb456201933b", "lon": -76.94665466666666, "rental_uris": {"ios": "https://dc.lft.to/lastmile_qr_scan", "android": "https://dc.lft.to/lastmile_qr_scan"}}, {"name": "e4bccc7a6b136f19155f833b572a72ea", "fusion_lat": 0.0, "type": "electric_bike", "lat": 38.943636, "is_reserved": 0, "is_disabled": 0, "fusion_lon": 0.0, "bike_id": "e4bccc7a6b136f19155f833b572a72ea", "lon": -77.0034605, "rental_uris": {"ios": "https://dc.lft.to/lastmile_qr_scan", "android": "https://dc.lft.to/lastmile_qr_scan"}}, {"name": "1a7f6ab1689b5a7939d451db4d638d5e", "fusion_lat": 0.0, "type": "electric_bike", "lat": 38.992368166666665, "is_reserved": 0, "is_disabled": 0, "fusion_lon": 0.0, "bike_id": "1a7f6ab1689b5a7939d451db4d638d5e", "lon": -76.87822133333333, "rental_uris": {"ios": "https://dc.lft.to/lastmile_qr_scan", "android": "https://dc.lft.to/lastmile_qr_scan"}}, {"name": "8fa4db60f5a1bfa406b2353642f8c6b4", "fusion_lat": 0.0, "type": "electric_bike", "lat": 38.884274166666664, "is_reserved": 0, "is_disabled": 0, "fusion_lon": 0.0, "bike_id": "8fa4db60f5a1bfa406b2353642f8c6b4", "lon": -76.95752416666667, "rental_uris": {"ios": "https://dc.lft.to/lastmile_qr_scan", "android": "https://dc.lft.to/lastmile_qr_scan"}}, {"name": "663564a8d4f934362784b18185866e2f", "fusion_lat": 0.0, "type": "electric_bike", "lat": 38.8765445, "is_reserved": 0, "is_disabled": 0, "fusion_lon": 0.0, "bike_id": "663564a8d4f934362784b18185866e2f", "lon": -77.00875583333334, "rental_uris": {"ios": "https://dc.lft.to/lastmile_qr_scan", "android": "https://dc.lft.to/lastmile_qr_scan"}}, {"name": "31fd1117a040adc3209ea81e52bea578", "fusion_lat": 0.0, "type": "electric_scooter", "lat": 38.90857666666667, "is_reserved": 0, "is_disabled": 0, "fusion_lon": 0.0, "bike_id": "31fd1117a040adc3209ea81e52bea578", "lon": -76.98603966666667, "rental_uris": {"ios": "https://dc.lft.to/lastmile_qr_scan", "android": "https://dc.lft.to/lastmile_qr_scan"}}, {"name": "22d99a465a0bbbfa72eee30b3276a106", "fusion_lat": 0.0, "type": "electric_scooter", "lat": 38.8851355, "is_reserved": 0, "is_disabled": 0, "fusion_lon": 0.0, "bike_id": "22d99a465a0bbbfa72eee30b3276a106", "lon": -77.02090583333333, "rental_uris": {"ios": "https://dc.lft.to/lastmile_qr_scan", "android": "https://dc.lft.to/lastmile_qr_scan"}}, {"name": "cd9f289b763622dfa832b8d03514659b", "fusion_lat": 0.0, "type": "electric_scooter", "lat": 38.924301166666666, "is_reserved": 0, "is_disabled": 0, "fusion_lon": 0.0, "bike_id": "cd9f289b763622dfa832b8d03514659b", "lon": -77.04246716666667, "rental_uris": {"ios": "https://dc.lft.to/lastmile_qr_scan", "android": "https://dc.lft.to/lastmile_qr_scan"}}, {"name": "b8a5e67a2e92b54d8a1166736c5d0d19", "fusion_lat": 0.0, "type": "electric_scooter", "lat": 38.917009666666665, "is_reserved": 0, "is_disabled": 0, "fusion_lon": 0.0, "bike_id": "b8a5e67a2e92b54d8a1166736c5d0d19", "lon": -77.03077433333333, "rental_uris": {"ios": "https://dc.lft.to/lastmile_qr_scan", "android": "https://dc.lft.to/lastmile_qr_scan"}}, {"name": "a5f2aafccdf19978a00b82e4cc842e28", "fusion_lat": 0.0, "type": "electric_scooter", "lat": 38.8665825, "is_reserved": 0, "is_disabled": 0, "fusion_lon": 0.0, "bike_id": "a5f2aafccdf19978a00b82e4cc842e28", "lon": -76.98884016666666, "rental_uris": {"ios": "https://dc.lft.to/lastmile_qr_scan", "android": "https://dc.lft.to/lastmile_qr_scan"}}, {"name": "7470e81a5fa55a0cd4a76c6c0fbba6aa", "fusion_lat": 0.0, "type": "electric_scooter", "lat": 38.884875, "is_reserved": 0, "is_disabled": 0, "fusion_lon": 0.0, "bike_id": "7470e81a5fa55a0cd4a76c6c0fbba6aa", "lon": -77.00711016666666, "rental_uris": {"ios": "https://dc.lft.to/lastmile_qr_scan", "android": "https://dc.lft.to/lastmile_qr_scan"}}, {"name": "49f7a0908f187270e57461629ce4108b", "fusion_lat": 0.0, "type": "electric_scooter", "lat": 38.89954266666667, "is_reserved": 0, "is_disabled": 0, "fusion_lon": 0.0, "bike_id": "49f7a0908f187270e57461629ce4108b", "lon": -77.00915183333333, "rental_uris": {"ios": "https://dc.lft.to/lastmile_qr_scan", "android": "https://dc.lft.to/lastmile_qr_scan"}}, {"name": "6ae7600597db84deff9403c98bb37188", "fusion_lat": 0.0, "type": "electric_scooter", "lat": 38.92440933333334, "is_reserved": 0, "is_disabled": 0, "fusion_lon": 0.0, "bike_id": "6ae7600597db84deff9403c98bb37188", "lon": -77.042201, "rental_uris": {"ios": "https://dc.lft.to/lastmile_qr_scan", "android": "https://dc.lft.to/lastmile_qr_scan"}}, {"name": "f8d7d0f90748601928e9276e5ce4d4dd", "fusion_lat": 0.0, "type": "electric_scooter", "lat": 38.924283833333334, "is_reserved": 0, "is_disabled": 0, "fusion_lon": 0.0, "bike_id": "f8d7d0f90748601928e9276e5ce4d4dd", "lon": -77.04478716666667, "rental_uris": {"ios": "https://dc.lft.to/lastmile_qr_scan", "android": "https://dc.lft.to/lastmile_qr_scan"}}, {"name": "ab38ae24e2418674bff45ca791a07d18", "fusion_lat": 0.0, "type": "electric_bike", "lat": 39.00015583333333, "is_reserved": 0, "is_disabled": 0, "fusion_lon": 0.0, "bike_id": "ab38ae24e2418674bff45ca791a07d18", "lon": -77.01741933333334, "rental_uris": {"ios": "https://dc.lft.to/lastmile_qr_scan", "android": "https://dc.lft.to/lastmile_qr_scan"}}, {"name": "17653d3820f717cb525af07eba26d608", "fusion_lat": 0.0, "type": "electric_scooter", "lat": 38.897973666666665, "is_reserved": 0, "is_disabled": 0, "fusion_lon": 0.0, "bike_id": "17653d3820f717cb525af07eba26d608", "lon": -77.01205583333333, "rental_uris": {"ios": "https://dc.lft.to/lastmile_qr_scan", "android": "https://dc.lft.to/lastmile_qr_scan"}}, {"name": "2cb75740016fbfa373d8015efbef028d", "fusion_lat": 0.0, "type": "electric_scooter", "lat": 38.93068433333333, "is_reserved": 0, "is_disabled": 0, "fusion_lon": 0.0, "bike_id": "2cb75740016fbfa373d8015efbef028d", "lon": -77.02980633333334, "rental_uris": {"ios": "https://dc.lft.to/lastmile_qr_scan", "android": "https://dc.lft.to/lastmile_qr_scan"}}, {"name": "976fb84ebd925c6d7bb807f43320d29a", "fusion_lat": 0.0, "type": "electric_bike", "lat": 38.94921683333333, "is_reserved": 0, "is_disabled": 0, "fusion_lon": 0.0, "bike_id": "976fb84ebd925c6d7bb807f43320d29a", "lon": -77.00796333333334, "rental_uris": {"ios": "https://dc.lft.to/lastmile_qr_scan", "android": "https://dc.lft.to/lastmile_qr_scan"}}, {"name": "a1a2e111668fcfb8e1784c8475fe5300", "fusion_lat": 0.0, "type": "electric_bike", "lat": 38.81248733333334, "is_reserved": 0, "is_disabled": 0, "fusion_lon": 0.0, "bike_id": "a1a2e111668fcfb8e1784c8475fe5300", "lon": -77.11760016666666, "rental_uris": {"ios": "https://dc.lft.to/lastmile_qr_scan", "android": "https://dc.lft.to/lastmile_qr_scan"}}, {"name": "bf0617b53516b7dd0d5d557f66813c53", "fusion_lat": 0.0, "type": "electric_scooter", "lat": 38.918388, "is_reserved": 0, "is_disabled": 0, "fusion_lon": 0.0, "bike_id": "bf0617b53516b7dd0d5d557f66813c53", "lon": -77.02290333333333, "rental_uris": {"ios": "https://dc.lft.to/lastmile_qr_scan", "android": "https://dc.lft.to/lastmile_qr_scan"}}, {"name": "9f6dbd582be6d8275dcdf77f9ed65700", "fusion_lat": 0.0, "type": "electric_scooter", "lat": 38.88504966666667, "is_reserved": 0, "is_disabled": 0, "fusion_lon": 0.0, "bike_id": "9f6dbd582be6d8275dcdf77f9ed65700", "lon": -77.02196033333334, "rental_uris": {"ios": "https://dc.lft.to/lastmile_qr_scan", "android": "https://dc.lft.to/lastmile_qr_scan"}}, {"name": "d605b238b49ded04bd196c2bfe06c484", "fusion_lat": 0.0, "type": "electric_scooter", "lat": 38.92072433333333, "is_reserved": 0, "is_disabled": 0, "fusion_lon": 0.0, "bike_id": "d605b238b49ded04bd196c2bfe06c484", "lon": -77.02315166666666, "rental_uris": {"ios": "https://dc.lft.to/lastmile_qr_scan", "android": "https://dc.lft.to/lastmile_qr_scan"}}, {"name": "11358b3b5c45e693f75595175cfc2766", "fusion_lat": 0.0, "type": "electric_scooter", "lat": 38.903900666666665, "is_reserved": 0, "is_disabled": 0, "fusion_lon": 0.0, "bike_id": "11358b3b5c45e693f75595175cfc2766", "lon": -77.03438083333333, "rental_uris": {"ios": "https://dc.lft.to/lastmile_qr_scan", "android": "https://dc.lft.to/lastmile_qr_scan"}}, {"name": "1ac4738e1c17c62a547e94b5cc0139ab", "fusion_lat": 0.0, "type": "electric_scooter", "lat": 38.939634, "is_reserved": 0, "is_disabled": 0, "fusion_lon": 0.0, "bike_id": "1ac4738e1c17c62a547e94b5cc0139ab", "lon": -77.02750866666666, "rental_uris": {"ios": "https://dc.lft.to/lastmile_qr_scan", "android": "https://dc.lft.to/lastmile_qr_scan"}}, {"name": "3edcc45aa7b8ff789e922fe31346cf58", "fusion_lat": 0.0, "type": "electric_scooter", "lat": 38.89231216666667, "is_reserved": 0, "is_disabled": 0, "fusion_lon": 0.0, "bike_id": "3edcc45aa7b8ff789e922fe31346cf58", "lon": -77.01505583333334, "rental_uris": {"ios": "https://dc.lft.to/lastmile_qr_scan", "android": "https://dc.lft.to/lastmile_qr_scan"}}, {"name": "3878d73eab690e2448cedf2f03d053ea", "fusion_lat": 0.0, "type": "electric_bike", "lat": 38.856833333333334, "is_reserved": 0, "is_disabled": 0, "fusion_lon": 0.0, "bike_id": "3878d73eab690e2448cedf2f03d053ea", "lon": -77.08539616666667, "rental_uris": {"ios": "https://dc.lft.to/lastmile_qr_scan", "android": "https://dc.lft.to/lastmile_qr_scan"}}, {"name": "e87e65c8068edb7e4b655715132855bc", "fusion_lat": 0.0, "type": "electric_scooter", "lat": 38.916343499999996, "is_reserved": 0, "is_disabled": 0, "fusion_lon": 0.0, "bike_id": "e87e65c8068edb7e4b655715132855bc", "lon": -77.00100533333334, "rental_uris": {"ios": "https://dc.lft.to/lastmile_qr_scan", "android": "https://dc.lft.to/lastmile_qr_scan"}}, {"name": "5c48cffad1e80c9fa1ff7582d4454dca", "fusion_lat": 0.0, "type": "electric_bike", "lat": 39.088598, "is_reserved": 0, "is_disabled": 0, "fusion_lon": 0.0, "bike_id": "5c48cffad1e80c9fa1ff7582d4454dca", "lon": -77.1784235, "rental_uris": {"ios": "https://dc.lft.to/lastmile_qr_scan", "android": "https://dc.lft.to/lastmile_qr_scan"}}, {"name": "fbed9ae26a586619f214d29e00ccfc2e", "fusion_lat": 0.0, "type": "electric_scooter", "lat": 38.865347, "is_reserved": 0, "is_disabled": 0, "fusion_lon": 0.0, "bike_id": "fbed9ae26a586619f214d29e00ccfc2e", "lon": -76.98700616666666, "rental_uris": {"ios": "https://dc.lft.to/lastmile_qr_scan", "android": "https://dc.lft.to/lastmile_qr_scan"}}, {"name": "7753fe30ebcb123a92678ac366b776b6", "fusion_lat": 0.0, "type": "electric_scooter", "lat": 38.9026955, "is_reserved": 0, "is_disabled": 0, "fusion_lon": 0.0, "bike_id": "7753fe30ebcb123a92678ac366b776b6", "lon": -76.9871065, "rental_uris": {"ios": "https://dc.lft.to/lastmile_qr_scan", "android": "https://dc.lft.to/lastmile_qr_scan"}}, {"name": "5688387aba280322c1ca8af961371ecf", "fusion_lat": 0.0, "type": "electric_scooter", "lat": 38.911061333333336, "is_reserved": 0, "is_disabled": 0, "fusion_lon": 0.0, "bike_id": "5688387aba280322c1ca8af961371ecf", "lon": -77.00358383333334, "rental_uris": {"ios": "https://dc.lft.to/lastmile_qr_scan", "android": "https://dc.lft.to/lastmile_qr_scan"}}, {"name": "f1a1d1d48b37cc350bc4cfdfbc86fe4c", "fusion_lat": 0.0, "type": "electric_bike", "lat": 38.93522016666667, "is_reserved": 0, "is_disabled": 0, "fusion_lon": 0.0, "bike_id": "f1a1d1d48b37cc350bc4cfdfbc86fe4c", "lon": -76.95063666666667, "rental_uris": {"ios": "https://dc.lft.to/lastmile_qr_scan", "android": "https://dc.lft.to/lastmile_qr_scan"}}, {"name": "27587e36d6e2813a36ac006166212c32", "fusion_lat": 0.0, "type": "electric_scooter", "lat": 38.87659566666667, "is_reserved": 0, "is_disabled": 0, "fusion_lon": 0.0, "bike_id": "27587e36d6e2813a36ac006166212c32", "lon": -77.000712, "rental_uris": {"ios": "https://dc.lft.to/lastmile_qr_scan", "android": "https://dc.lft.to/lastmile_qr_scan"}}, {"name": "0cfaac72a7022dba396cd73331d6fbd5", "fusion_lat": 0.0, "type": "electric_scooter", "lat": 38.90567016666667, "is_reserved": 0, "is_disabled": 0, "fusion_lon": 0.0, "bike_id": "0cfaac72a7022dba396cd73331d6fbd5", "lon": -77.02404316666667, "rental_uris": {"ios": "https://dc.lft.to/lastmile_qr_scan", "android": "https://dc.lft.to/lastmile_qr_scan"}}, {"name": "1f23750f73136e42d070f99c12d2036f", "fusion_lat": 0.0, "type": "electric_scooter", "lat": 38.902746666666665, "is_reserved": 0, "is_disabled": 0, "fusion_lon": 0.0, "bike_id": "1f23750f73136e42d070f99c12d2036f", "lon": -77.0366005, "rental_uris": {"ios": "https://dc.lft.to/lastmile_qr_scan", "android": "https://dc.lft.to/lastmile_qr_scan"}}, {"name": "717ba883d4b27719101f12ef3fef059f", "fusion_lat": 0.0, "type": "electric_scooter", "lat": 38.86696083333333, "is_reserved": 0, "is_disabled": 0, "fusion_lon": 0.0, "bike_id": "717ba883d4b27719101f12ef3fef059f", "lon": -76.98903466666667, "rental_uris": {"ios": "https://dc.lft.to/lastmile_qr_scan", "android": "https://dc.lft.to/lastmile_qr_scan"}}, {"name": "6c8781a3c927e3e0cd38c0dbb9a3f85f", "fusion_lat": 0.0, "type": "electric_bike", "lat": 38.92858716666667, "is_reserved": 0, "is_disabled": 0, "fusion_lon": 0.0, "bike_id": "6c8781a3c927e3e0cd38c0dbb9a3f85f", "lon": -77.222128, "rental_uris": {"ios": "https://dc.lft.to/lastmile_qr_scan", "android": "https://dc.lft.to/lastmile_qr_scan"}}, {"name": "8d8a8034af5225e98c8cd108212133c7", "fusion_lat": 0.0, "type": "electric_bike", "lat": 39.053156, "is_reserved": 0, "is_disabled": 0, "fusion_lon": 0.0, "bike_id": "8d8a8034af5225e98c8cd108212133c7", "lon": -77.04772833333334, "rental_uris": {"ios": "https://dc.lft.to/lastmile_qr_scan", "android": "https://dc.lft.to/lastmile_qr_scan"}}, {"name": "c465d12f5494b73e5acc8cbdbbc0813e", "fusion_lat": 0.0, "type": "electric_scooter", "lat": 38.90514983333333, "is_reserved": 0, "is_disabled": 0, "fusion_lon": 0.0, "bike_id": "c465d12f5494b73e5acc8cbdbbc0813e", "lon": -77.04353733333333, "rental_uris": {"ios": "https://dc.lft.to/lastmile_qr_scan", "android": "https://dc.lft.to/lastmile_qr_scan"}}, {"name": "5a781386bca8ec7753396ebe1b484c82", "fusion_lat": 0.0, "type": "electric_scooter", "lat": 38.87461183333333, "is_reserved": 0, "is_disabled": 0, "fusion_lon": 0.0, "bike_id": "5a781386bca8ec7753396ebe1b484c82", "lon": -77.00610316666666, "rental_uris": {"ios": "https://dc.lft.to/lastmile_qr_scan", "android": "https://dc.lft.to/lastmile_qr_scan"}}, {"name": "d7d6abb7f4ade2b4c46d1b926c4c1c79", "fusion_lat": 0.0, "type": "electric_scooter", "lat": 38.896040166666666, "is_reserved": 0, "is_disabled": 0, "fusion_lon": 0.0, "bike_id": "d7d6abb7f4ade2b4c46d1b926c4c1c79", "lon": -77.02304916666667, "rental_uris": {"ios": "https://dc.lft.to/lastmile_qr_scan", "android": "https://dc.lft.to/lastmile_qr_scan"}}, {"name": "5912909cb4647961cc653ea323bfe474", "fusion_lat": 0.0, "type": "electric_bike", "lat": 38.936706666666666, "is_reserved": 0, "is_disabled": 0, "fusion_lon": 0.0, "bike_id": "5912909cb4647961cc653ea323bfe474", "lon": -76.95207233333333, "rental_uris": {"ios": "https://dc.lft.to/lastmile_qr_scan", "android": "https://dc.lft.to/lastmile_qr_scan"}}, {"name": "3aaf8e49757e2e4b5ca091ea1bf5aef0", "fusion_lat": 0.0, "type": "electric_scooter", "lat": 38.894157666666665, "is_reserved": 0, "is_disabled": 0, "fusion_lon": 0.0, "bike_id": "3aaf8e49757e2e4b5ca091ea1bf5aef0", "lon": -76.93955466666667, "rental_uris": {"ios": "https://dc.lft.to/lastmile_qr_scan", "android": "https://dc.lft.to/lastmile_qr_scan"}}, {"name": "307f03f79c26ef60a90b131d43bee9d7", "fusion_lat": 0.0, "type": "electric_scooter", "lat": 38.92231966666667, "is_reserved": 0, "is_disabled": 0, "fusion_lon": 0.0, "bike_id": "307f03f79c26ef60a90b131d43bee9d7", "lon": -77.02335783333334, "rental_uris": {"ios": "https://dc.lft.to/lastmile_qr_scan", "android": "https://dc.lft.to/lastmile_qr_scan"}}, {"name": "2ad11027582afb7352dcfd97cb8d0366", "fusion_lat": 0.0, "type": "electric_scooter", "lat": 38.901494166666666, "is_reserved": 0, "is_disabled": 0, "fusion_lon": 0.0, "bike_id": "2ad11027582afb7352dcfd97cb8d0366", "lon": -77.0287305, "rental_uris": {"ios": "https://dc.lft.to/lastmile_qr_scan", "android": "https://dc.lft.to/lastmile_qr_scan"}}, {"name": "573530a16865bb89b648fb373c363491", "fusion_lat": 0.0, "type": "electric_scooter", "lat": 38.90313533333333, "is_reserved": 0, "is_disabled": 0, "fusion_lon": 0.0, "bike_id": "573530a16865bb89b648fb373c363491", "lon": -77.02874416666667, "rental_uris": {"ios": "https://dc.lft.to/lastmile_qr_scan", "android": "https://dc.lft.to/lastmile_qr_scan"}}, {"name": "9d41b21db90036921be213649b5281c4", "fusion_lat": 0.0, "type": "electric_scooter", "lat": 38.87093516666667, "is_reserved": 0, "is_disabled": 0, "fusion_lon": 0.0, "bike_id": "9d41b21db90036921be213649b5281c4", "lon": -76.96596583333333, "rental_uris": {"ios": "https://dc.lft.to/lastmile_qr_scan", "android": "https://dc.lft.to/lastmile_qr_scan"}}, {"name": "3efc48b76d3a517718ca8f3808bab6b8", "fusion_lat": 0.0, "type": "electric_scooter", "lat": 38.883827333333336, "is_reserved": 0, "is_disabled": 0, "fusion_lon": 0.0, "bike_id": "3efc48b76d3a517718ca8f3808bab6b8", "lon": -76.99521283333333, "rental_uris": {"ios": "https://dc.lft.to/lastmile_qr_scan", "android": "https://dc.lft.to/lastmile_qr_scan"}}, {"name": "fe1cb6a87a29ef7e5d5063fb94ca99ee", "fusion_lat": 0.0, "type": "electric_scooter", "lat": 38.896645666666664, "is_reserved": 0, "is_disabled": 0, "fusion_lon": 0.0, "bike_id": "fe1cb6a87a29ef7e5d5063fb94ca99ee", "lon": -77.0089855, "rental_uris": {"ios": "https://dc.lft.to/lastmile_qr_scan", "android": "https://dc.lft.to/lastmile_qr_scan"}}, {"name": "e233124f486e51bf3968670875bbc724", "fusion_lat": 0.0, "type": "electric_bike", "lat": 38.92733916666667, "is_reserved": 0, "is_disabled": 0, "fusion_lon": 0.0, "bike_id": "e233124f486e51bf3968670875bbc724", "lon": -77.01342233333334, "rental_uris": {"ios": "https://dc.lft.to/lastmile_qr_scan", "android": "https://dc.lft.to/lastmile_qr_scan"}}, {"name": "1c1d081e5adae0b49c30b9fdbdac09ec", "fusion_lat": 0.0, "type": "electric_scooter", "lat": 38.9121715, "is_reserved": 0, "is_disabled": 0, "fusion_lon": 0.0, "bike_id": "1c1d081e5adae0b49c30b9fdbdac09ec", "lon": -77.07595883333333, "rental_uris": {"ios": "https://dc.lft.to/lastmile_qr_scan", "android": "https://dc.lft.to/lastmile_qr_scan"}}, {"name": "a3fc0cb8a8a8d6eebbb4b75c96b934c7", "fusion_lat": 0.0, "type": "electric_scooter", "lat": 38.916987, "is_reserved": 0, "is_disabled": 0, "fusion_lon": 0.0, "bike_id": "a3fc0cb8a8a8d6eebbb4b75c96b934c7", "lon": -77.04272166666667, "rental_uris": {"ios": "https://dc.lft.to/lastmile_qr_scan", "android": "https://dc.lft.to/lastmile_qr_scan"}}, {"name": "c5060f51086c4ed6180b8dd451cab6a6", "fusion_lat": 0.0, "type": "electric_scooter", "lat": 38.891873333333336, "is_reserved": 0, "is_disabled": 0, "fusion_lon": 0.0, "bike_id": "c5060f51086c4ed6180b8dd451cab6a6", "lon": -77.0033845, "rental_uris": {"ios": "https://dc.lft.to/lastmile_qr_scan", "android": "https://dc.lft.to/lastmile_qr_scan"}}, {"name": "bf71d4a9803507ea14167aa0a999d56d", "fusion_lat": 0.0, "type": "electric_scooter", "lat": 38.896428, "is_reserved": 0, "is_disabled": 0, "fusion_lon": 0.0, "bike_id": "bf71d4a9803507ea14167aa0a999d56d", "lon": -77.0093045, "rental_uris": {"ios": "https://dc.lft.to/lastmile_qr_scan", "android": "https://dc.lft.to/lastmile_qr_scan"}}, {"name": "bdd11704db315054da424d3c6535d0b3", "fusion_lat": 0.0, "type": "electric_scooter", "lat": 38.884978833333335, "is_reserved": 0, "is_disabled": 0, "fusion_lon": 0.0, "bike_id": "bdd11704db315054da424d3c6535d0b3", "lon": -77.02198483333333, "rental_uris": {"ios": "https://dc.lft.to/lastmile_qr_scan", "android": "https://dc.lft.to/lastmile_qr_scan"}}, {"name": "b05b1a7546c12ab9fe58d828eda979ea", "fusion_lat": 0.0, "type": "electric_scooter", "lat": 38.92863083333334, "is_reserved": 0, "is_disabled": 0, "fusion_lon": 0.0, "bike_id": "b05b1a7546c12ab9fe58d828eda979ea", "lon": -77.03247783333333, "rental_uris": {"ios": "https://dc.lft.to/lastmile_qr_scan", "android": "https://dc.lft.to/lastmile_qr_scan"}}, {"name": "0b3628cff481365413752f6c4527b151", "fusion_lat": 0.0, "type": "electric_scooter", "lat": 38.89590616666667, "is_reserved": 0, "is_disabled": 0, "fusion_lon": 0.0, "bike_id": "0b3628cff481365413752f6c4527b151", "lon": -76.937153, "rental_uris": {"ios": "https://dc.lft.to/lastmile_qr_scan", "android": "https://dc.lft.to/lastmile_qr_scan"}}, {"name": "e755cccf762562e19c609674231b19c8", "fusion_lat": 0.0, "type": "electric_scooter", "lat": 38.9038855, "is_reserved": 0, "is_disabled": 0, "fusion_lon": 0.0, "bike_id": "e755cccf762562e19c609674231b19c8", "lon": -77.03864116666666, "rental_uris": {"ios": "https://dc.lft.to/lastmile_qr_scan", "android": "https://dc.lft.to/lastmile_qr_scan"}}, {"name": "fdc5ae8cd084991597671b0dac32f2b8", "fusion_lat": 0.0, "type": "electric_scooter", "lat": 38.909045666666664, "is_reserved": 0, "is_disabled": 0, "fusion_lon": 0.0, "bike_id": "fdc5ae8cd084991597671b0dac32f2b8", "lon": -77.02710566666667, "rental_uris": {"ios": "https://dc.lft.to/lastmile_qr_scan", "android": "https://dc.lft.to/lastmile_qr_scan"}}, {"name": "d86c55da99584a96a354d3df17542706", "fusion_lat": 0.0, "type": "electric_scooter", "lat": 38.912711333333334, "is_reserved": 0, "is_disabled": 0, "fusion_lon": 0.0, "bike_id": "d86c55da99584a96a354d3df17542706", "lon": -77.0608965, "rental_uris": {"ios": "https://dc.lft.to/lastmile_qr_scan", "android": "https://dc.lft.to/lastmile_qr_scan"}}, {"name": "028ce5e617eb5b2a838893a34ebd6104", "fusion_lat": 0.0, "type": "electric_scooter", "lat": 38.898055666666664, "is_reserved": 0, "is_disabled": 0, "fusion_lon": 0.0, "bike_id": "028ce5e617eb5b2a838893a34ebd6104", "lon": -77.02819516666666, "rental_uris": {"ios": "https://dc.lft.to/lastmile_qr_scan", "android": "https://dc.lft.to/lastmile_qr_scan"}}, {"name": "7875d32aab245174b05b88151725e556", "fusion_lat": 0.0, "type": "electric_scooter", "lat": 38.914212, "is_reserved": 0, "is_disabled": 0, "fusion_lon": 0.0, "bike_id": "7875d32aab245174b05b88151725e556", "lon": -77.008861, "rental_uris": {"ios": "https://dc.lft.to/lastmile_qr_scan", "android": "https://dc.lft.to/lastmile_qr_scan"}}, {"name": "82bf640d4690fb811efa0530c3d63c8d", "fusion_lat": 0.0, "type": "electric_scooter", "lat": 38.906744833333335, "is_reserved": 0, "is_disabled": 0, "fusion_lon": 0.0, "bike_id": "82bf640d4690fb811efa0530c3d63c8d", "lon": -77.02072433333333, "rental_uris": {"ios": "https://dc.lft.to/lastmile_qr_scan", "android": "https://dc.lft.to/lastmile_qr_scan"}}, {"name": "04627756e4c312b2b66c8d56eb9ed8dc", "fusion_lat": 0.0, "type": "electric_scooter", "lat": 38.9003655, "is_reserved": 0, "is_disabled": 0, "fusion_lon": 0.0, "bike_id": "04627756e4c312b2b66c8d56eb9ed8dc", "lon": -77.00192916666667, "rental_uris": {"ios": "https://dc.lft.to/lastmile_qr_scan", "android": "https://dc.lft.to/lastmile_qr_scan"}}, {"name": "655b02574060eb47ca669d3a2e3609f4", "fusion_lat": 0.0, "type": "electric_scooter", "lat": 38.8806755, "is_reserved": 0, "is_disabled": 0, "fusion_lon": 0.0, "bike_id": "655b02574060eb47ca669d3a2e3609f4", "lon": -76.9353395, "rental_uris": {"ios": "https://dc.lft.to/lastmile_qr_scan", "android": "https://dc.lft.to/lastmile_qr_scan"}}, {"name": "5c2f8a154bcbb17fbadc196bd4fb6cbe", "fusion_lat": 0.0, "type": "electric_bike", "lat": 38.920068666666666, "is_reserved": 0, "is_disabled": 0, "fusion_lon": 0.0, "bike_id": "5c2f8a154bcbb17fbadc196bd4fb6cbe", "lon": -76.97492683333333, "rental_uris": {"ios": "https://dc.lft.to/lastmile_qr_scan", "android": "https://dc.lft.to/lastmile_qr_scan"}},