{"data": {"bikes": [{"fusion_lon": 0.0, "name": "060b60205b25475b0bd6f5f892e91ba3", "rental_uris": {"android": "https://dc.lft.to/lastmile_qr_scan", "ios": "https://dc.lft.to/lastmile_qr_scan"}, "lat": 38.9158015, "bike_id": "060b60205b25475b0bd6f5f892e91ba3", "is_disabled": 0, "lon": -77.01235716666666, "is_reserved": 0, "fusion_lat": 0.0, "type": "electric_scooter"}, {"fusion_lon": 0.0, "name": "73b434a6becb17cd7b335184bee9d693", "rental_uris": {"android": "https://dc.lft.to/lastmile_qr_scan", "ios": "https://dc.lft.to/lastmile_qr_scan"}, "lat": 38.902429, "bike_id": "73b434a6becb17cd7b335184bee9d693", "is_disabled": 0, "lon": -76.97413466666667, "is_reserved": 0, "fusion_lat": 0.0, "type": "electric_scooter"}, {"fusion_lon": 0.0, "name": "1b3b894031aeebe8952640209ca96462", "rental_uris": {"android": "https://dc.lft.to/lastmile_qr_scan", "ios": "https://dc.lft.to/lastmile_qr_scan"}, "lat": 38.92592416666667, "bike_id": "1b3b894031aeebe8952640209ca96462", "is_disabled": 0, "lon": -77.0242725, "is_reserved": 0, "fusion_lat": 0.0, "type": "electric_bike"}, {"fusion_lon": 0.0, "name": "b54ec625c732c811251254a603d23cc2", "rental_uris": {"android": "https://dc.lft.to/lastmile_qr_scan", "ios": "https://dc.lft.to/lastmile_qr_scan"}, "lat": 38.90221833333333, "bike_id": "b54ec625c732c811251254a603d23cc2", "is_disabled": 0, "lon": -77.0445635, "is_reserved": 0, "fusion_lat": 0.0, "type": "electric_scooter"}, {"fusion_lon": 0.0, "name": "477db315e624fc4468c76a8461876bc2", "rental_uris": {"android": "https://dc.lft.to/lastmile_qr_scan", "ios": "https://dc.lft.to/lastmile_qr_scan"}, "lat": 38.9429955, "bike_id": "477db315e624fc4468c76a8461876bc2", "is_disabled": 0, "lon": -77.03459116666667, "is_reserved": 0, "fusion_lat": 0.0, "type": "electric_scooter"}, {"fusion_lon": 0.0, "name": "4ffd9886913e66e0241531c6c5aaae80", "rental_uris": {"android": "https://dc.lft.to/lastmile_qr_scan", "ios": "https://dc.lft.to/lastmile_qr_scan"}, "lat": 38.9165475, "bike_id": "4ffd9886913e66e0241531c6c5aaae80", "is_disabled": 0, "lon": -77.00924966666666, "is_reserved": 0, "fusion_lat": 0.0, "type": "electric_scooter"}, {"fusion_lon": 0.0, "name": "08a34fc97bc789a989eb01f9b17b1c1b", "rental_uris": {"android": "https://dc.lft.to/lastmile_qr_scan", "ios": "https://dc.lft.to/lastmile_qr_scan"}, "lat": 38.9215195, "bike_id": "08a34fc97bc789a989eb01f9b17b1c1b", "is_disabled": 0, "lon": -77.0353045, "is_reserved": 0, "fusion_lat": 0.0, "type": "electric_scooter"}, {"fusion_lon": 0.0, "name": "8b496061764a96dd52e84f07fcd0dc8a", "rental_uris": {"android": "https://dc.lft.to/lastmile_qr_scan", "ios": "https://dc.lft.to/lastmile_qr_scan"}, "lat": 38.914997166666666, "bike_id": "8b496061764a96dd52e84f07fcd0dc8a", "is_disabled": 0, "lon": -77.04490966666667, "is_reserved": 0, "fusion_lat": 0.0, "type": "electric_scooter"}, {"fusion_lon": 0.0, "name": "297da423f33f995e4c3ef6be678a36e0", "rental_uris": {"android": "https://dc.lft.to/lastmile_qr_scan", "ios": "https://dc.lft.to/lastmile_qr_scan"}, "lat": 38.92470466666666, "bike_id": "297da423f33f995e4c3ef6be678a36e0", "is_disabled": 0, "lon": -77.02203616666667, "is_reserved": 0, "fusion_lat": 0.0, "type": "electric_scooter"}, {"fusion_lon": 0.0, "name": "e984168f5e469ec23c5fe3459b4f4a35", "rental_uris": {"android": "https://dc.lft.to/lastmile_qr_scan", "ios": "https://dc.lft.to/lastmile_qr_scan"}, "lat": 38.89224166666666, "bike_id": "e984168f5e469ec23c5fe3459b4f4a35", "is_disabled": 0, "lon": -77.04364466666667, "is_reserved": 0, "fusion_lat": 0.0, "type": "electric_scooter"}, {"fusion_lon": 0.0, "name": "9114854419736598ee532e557675261a", "rental_uris": {"android": "https://dc.lft.to/lastmile_qr_scan", "ios": "https://dc.lft.to/lastmile_qr_scan"}, "lat": 38.9232475, "bike_id": "9114854419736598ee532e557675261a", "is_disabled": 0, "lon": -77.0367965, "is_reserved": 0, "fusion_lat": 0.0, "type": "electric_scooter"}, {"fusion_lon": 0.0, "name": "07a1891660fa34d4d87a73d264ccd2d6", "rental_uris": {"android": "https://dc.lft.to/lastmile_qr_scan", "ios": "https://dc.lft.to/lastmile_qr_scan"}, "lat": 38.92408116666667, "bike_id": "07a1891660fa34d4d87a73d264ccd2d6", "is_disabled": 0, "lon": -77.05170616666666, "is_reserved": 0, "fusion_lat": 0.0, "type": "electric_scooter"}, {"fusion_lon": 0.0, "name": "251195c769b755eb4bda54620e6475c9", "rental_uris": {"android": "https://dc.lft.to/lastmile_qr_scan", "ios": "https://dc.lft.to/lastmile_qr_scan"}, "lat": 39.038137166666665, "bike_id": "251195c769b755eb4bda54620e6475c9", "is_disabled": 0, "lon": -77.0422585, "is_reserved": 0, "fusion_lat": 0.0, "type": "electric_bike"}, {"fusion_lon": 0.0, "name": "d326b0b2f8daacdd15d97a12bf8f035c", "rental_uris": {"android": "https://dc.lft.to/lastmile_qr_scan", "ios": "https://dc.lft.to/lastmile_qr_scan"}, "lat": 38.89416933333333, "bike_id": "d326b0b2f8daacdd15d97a12bf8f035c", "is_disabled": 0, "lon": -76.99772083333333, "is_reserved": 0, "fusion_lat": 0.0, "type": "electric_scooter"}, {"fusion_lon": 0.0, "name": "ff951d110b291676f430d6ce9f087f25", "rental_uris": {"android": "https://dc.lft.to/lastmile_qr_scan", "ios": "https://dc.lft.to/lastmile_qr_scan"}, "lat": 38.92592583333333, "bike_id": "ff951d110b291676f430d6ce9f087f25", "is_disabled": 0, "lon": -77.037463, "is_reserved": 0, "fusion_lat": 0.0, "type": "electric_scooter"}, {"fusion_lon": 0.0, "name": "0ff1f8bc8e1b65a33ef90600b12f0584", "rental_uris": {"android": "https://dc.lft.to/lastmile_qr_scan", "ios": "https://dc.lft.to/lastmile_qr_scan"}, "lat": 38.88219483333334, "bike_id": "0ff1f8bc8e1b65a33ef90600b12f0584", "is_disabled": 0, "lon": -76.9392375, "is_reserved": 0, "fusion_lat": 0.0, "type": "electric_scooter"}, {"fusion_lon": 0.0, "name": "9aa83bff10c697e428b049c29fa4ff3e", "rental_uris": {"android": "https://dc.lft.to/lastmile_qr_scan", "ios": "https://dc.lft.to/lastmile_qr_scan"}, "lat": 38.911118, "bike_id": "9aa83bff10c697e428b049c29fa4ff3e", "is_disabled": 0, "lon": -77.03833066666667, "is_reserved": 0, "fusion_lat": 0.0, "type": "electric_scooter"}, {"fusion_lon": 0.0, "name": "efb1a1b1152e281ed1cb172ae0416287", "rental_uris": {"android": "https://dc.lft.to/lastmile_qr_scan", "ios": "https://dc.lft.to/lastmile_qr_scan"}, "lat": 38.9017885, "bike_id": "efb1a1b1152e281ed1cb172ae0416287", "is_disabled": 0, "lon": -76.98832666666667, "is_reserved": 0, "fusion_lat": 0.0, "type": "electric_scooter"}, {"fusion_lon": 0.0, "name": "eeece1d889c2f1c2dec90ce61a53333a", "rental_uris": {"android": "https://dc.lft.to/lastmile_qr_scan", "ios": "https://dc.lft.to/lastmile_qr_scan"}, "lat": 38.92319066666667, "bike_id": "eeece1d889c2f1c2dec90ce61a53333a", "is_disabled": 0, "lon": -77.0381545, "is_reserved": 0, "fusion_lat": 0.0, "type": "electric_scooter"}, {"fusion_lon": 0.0, "name": "46d428d30bd69bc44a04a7c4dc647517", "rental_uris": {"android": "https://dc.lft.to/lastmile_qr_scan", "ios": "https://dc.lft.to/lastmile_qr_scan"}, "lat": 38.902187, "bike_id": "46d428d30bd69bc44a04a7c4dc647517", "is_disabled": 0, "lon": -77.023691, "is_reserved": 0, "fusion_lat": 0.0, "type": "electric_scooter"}, {"fusion_lon": 0.0, "name": "580db2b00bdc532b558c17729bf42706", "rental_uris": {"android": "https://dc.lft.to/lastmile_qr_scan", "ios": "https://dc.lft.to/lastmile_qr_scan"}, "lat": 38.90701133333334, "bike_id": "580db2b00bdc532b558c17729bf42706", "is_disabled": 0, "lon": -76.987056, "is_reserved": 0, "fusion_lat": 0.0, "type": "electric_scooter"}, {"fusion_lon": 0.0, "name": "b2c484b486085d87e6c12e8684f5ab61", "rental_uris": {"android": "https://dc.lft.to/lastmile_qr_scan", "ios": "https://dc.lft.to/lastmile_qr_scan"}, "lat": 38.91844583333334, "bike_id": "b2c484b486085d87e6c12e8684f5ab61", "is_disabled": 0, "lon": -77.038593, "is_reserved": 0, "fusion_lat": 0.0, "type": "electric_scooter"}, {"fusion_lon": 0.0, "name": "14e5cc5bb4f656ac5d81aa6f86713812", "rental_uris": {"android": "https://dc.lft.to/lastmile_qr_scan", "ios": "https://dc.lft.to/lastmile_qr_scan"}, "lat": 38.926009, "bike_id": "14e5cc5bb4f656ac5d81aa6f86713812", "is_disabled": 0, "lon": -77.021544, "is_reserved": 0, "fusion_lat": 0.0, "type": "electric_scooter"}, {"fusion_lon": 0.0, "name": "73266d4f5dbf2752b7be6de2cce5b9e1", "rental_uris": {"android": "https://dc.lft.to/lastmile_qr_scan", "ios": "https://dc.lft.to/lastmile_qr_scan"}, "lat": 38.91179566666667, "bike_id": "73266d4f5dbf2752b7be6de2cce5b9e1", "is_disabled": 0, "lon": -77.0609515, "is_reserved": 0, "fusion_lat": 0.0, "type": "electric_scooter"}, {"fusion_lon": 0.0, "name": "53a3debeb5da1f02947aa678551fb088", "rental_uris": {"android": "https://dc.lft.to/lastmile_qr_scan", "ios": "https://dc.lft.to/lastmile_qr_scan"}, "lat": 38.922278666666664, "bike_id": "53a3debeb5da1f02947aa678551fb088", "is_disabled": 0, "lon": -76.97531233333333, "is_reserved": 0, "fusion_lat": 0.0, "type": "electric_scooter"}, {"fusion_lon": 0.0, "name": "659597993ec2fac967ef5487ce1192a7", "rental_uris": {"android": "https://dc.lft.to/lastmile_qr_scan", "ios": "https://dc.lft.to/lastmile_qr_scan"}, "lat": 38.910142, "bike_id": "659597993ec2fac967ef5487ce1192a7", "is_disabled": 0, "lon": -77.02105933333333, "is_reserved": 0, "fusion_lat": 0.0, "type": "electric_scooter"}, {"fusion_lon": 0.0, "name": "ecbd72627b4fe73e809eb63eed75baa9", "rental_uris": {"android": "https://dc.lft.to/lastmile_qr_scan", "ios": "https://dc.lft.to/lastmile_qr_scan"}, "lat": 38.9282595, "bike_id": "ecbd72627b4fe73e809eb63eed75baa9", "is_disabled": 0, "lon": -77.0140475, "is_reserved": 0, "fusion_lat": 0.0, "type": "electric_scooter"}, {"fusion_lon": 0.0, "name": "13025e873e400718b88d15c77ee69714", "rental_uris": {"android": "https://dc.lft.to/lastmile_qr_scan", "ios": "https://dc.lft.to/lastmile_qr_scan"}, "lat": 38.912691, "bike_id": "13025e873e400718b88d15c77ee69714", "is_disabled": 0, "lon": -77.02209833333333, "is_reserved": 0, "fusion_lat": 0.0, "type": "electric_scooter"}, {"fusion_lon": 0.0, "name": "ce3733c7d74aed8f823e7439a530720a", "rental_uris": {"android": "https://dc.lft.to/lastmile_qr_scan", "ios": "https://dc.lft.to/lastmile_qr_scan"}, "lat": 38.89184233333334, "bike_id": "ce3733c7d74aed8f823e7439a530720a", "is_disabled": 0, "lon": -76.93595683333334, "is_reserved": 0, "fusion_lat": 0.0, "type": "electric_scooter"}, {"fusion_lon": 0.0, "name": "5aac66b07987e17d4c7a621275bf1585", "rental_uris": {"android": "https://dc.lft.to/lastmile_qr_scan", "ios": "https://dc.lft.to/lastmile_qr_scan"}, "lat": 38.8968015, "bike_id": "5aac66b07987e17d4c7a621275bf1585", "is_disabled": 0, "lon": -77.02775183333334, "is_reserved": 0, "fusion_lat": 0.0, "type": "electric_scooter"}, {"fusion_lon": 0.0, "name": "ee2ce42713a27e7544bb1d6b3cbf267d", "rental_uris": {"android": "https://dc.lft.to/lastmile_qr_scan", "ios": "https://dc.lft.to/lastmile_qr_scan"}, "lat": 38.918165333333334, "bike_id": "ee2ce42713a27e7544bb1d6b3cbf267d", "is_disabled": 0, "lon": -77.02476816666666, "is_reserved": 0, "fusion_lat": 0.0, "type": "electric_scooter"}, {"fusion_lon": 0.0, "name": "1bfa74f5ffa2f7d7f40b21c529570d0b", "rental_uris": {"android": "https://dc.lft.to/lastmile_qr_scan", "ios": "https://dc.lft.to/lastmile_qr_scan"}, "lat": 38.92963983333333, "bike_id": "1bfa74f5ffa2f7d7f40b21c529570d0b", "is_disabled": 0, "lon": -77.042004, "is_reserved": 0, "fusion_lat": 0.0, "type": "electric_scooter"}, {"fusion_lon": 0.0, "name": "9c23148162c62893e176eddc95808cbd", "rental_uris": {"android": "https://dc.lft.to/lastmile_qr_scan", "ios": "https://dc.lft.to/lastmile_qr_scan"}, "lat": 38.92599883333333, "bike_id": "9c23148162c62893e176eddc95808cbd", "is_disabled": 0, "lon": -77.02154233333333, "is_reserved": 0, "fusion_lat": 0.0, "type": "electric_scooter"}, {"fusion_lon": 0.0, "name": "040f5e0b61e0bc8c560f16cb4f1668be", "rental_uris": {"android": "https://dc.lft.to/lastmile_qr_scan", "ios": "https://dc.lft.to/lastmile_qr_scan"}, "lat": 38.90764683333333, "bike_id": "040f5e0b61e0bc8c560f16cb4f1668be", "is_disabled": 0, "lon": -77.03579966666666, "is_reserved": 0, "fusion_lat": 0.0, "type": "electric_scooter"}, {"fusion_lon": 0.0, "name": "37e1eecb7b2a7a3bdd74e8a979c1555f", "rental_uris": {"android": "https://dc.lft.to/lastmile_qr_scan", "ios": "https://dc.lft.to/lastmile_qr_scan"}, "lat": 38.926384166666665, "bike_id": "37e1eecb7b2a7a3bdd74e8a979c1555f", "is_disabled": 0, "lon": -77.02504966666666, "is_reserved": 0, "fusion_lat": 0.0, "type": "electric_scooter"}, {"fusion_lon": 0.0, "name": "3dbf3f78570990f1ca8726909e56060f", "rental_uris": {"android": "https://dc.lft.to/lastmile_qr_scan", "ios": "https://dc.lft.to/lastmile_qr_scan"}, "lat": 38.9165605, "bike_id": "3dbf3f78570990f1ca8726909e56060f", "is_disabled": 0, "lon": -77.0295235, "is_reserved": 0, "fusion_lat": 0.0, "type": "electric_scooter"}, {"fusion_lon": 0.0, "name": "e5af632b5083130c2cbd3ad51a505909", "rental_uris": {"android": "https://dc.lft.to/lastmile_qr_scan", "ios": "https://dc.lft.to/lastmile_qr_scan"}, "lat": 38.915348, "bike_id": "e5af632b5083130c2cbd3ad51a505909", "is_disabled": 0, "lon": -77.04469833333333, "is_reserved": 0, "fusion_lat": 0.0, "type": "electric_scooter"}, {"fusion_lon": 0.0, "name": "e815f890ec779b11bfb4d1fb2e3ed3bd", "rental_uris": {"android": "https://dc.lft.to/lastmile_qr_scan", "ios": "https://dc.lft.to/lastmile_qr_scan"}, "lat": 38.94727566666667, "bike_id": "e815f890ec779b11bfb4d1fb2e3ed3bd", "is_disabled": 0, "lon": -77.06545283333334, "is_reserved": 0, "fusion_lat": 0.0, "type": "electric_scooter"}, {"fusion_lon": 0.0, "name": "af7a0ddb3a735f96f2cd8df51e8d0654", "rental_uris": {"android": "https://dc.lft.to/lastmile_qr_scan", "ios": "https://dc.lft.to/lastmile_qr_scan"}, "lat": 38.92850583333333, "bike_id": "af7a0ddb3a735f96f2cd8df51e8d0654", "is_disabled": 0, "lon": -77.02876216666667, "is_reserved": 0, "fusion_lat": 0.0, "type": "electric_scooter"}, {"fusion_lon": 0.0, "name": "ced5a91bcd283fa8ecbee654e03b4c76", "rental_uris": {"android": "https://dc.lft.to/lastmile_qr_scan", "ios": "https://dc.lft.to/lastmile_qr_scan"}, "lat": 38.9001885, "bike_id": "ced5a91bcd283fa8ecbee654e03b4c76", "is_disabled": 0, "lon": -77.04082333333334, "is_reserved": 0, "fusion_lat": 0.0, "type": "electric_scooter"}, {"fusion_lon": 0.0, "name": "95264734bbcd7249623cefa8883d8819", "rental_uris": {"android": "https://dc.lft.to/lastmile_qr_scan", "ios": "https://dc.lft.to/lastmile_qr_scan"}, "lat": 38.904245333333336, "bike_id": "95264734bbcd7249623cefa8883d8819", "is_disabled": 0, "lon": -77.05337083333333, "is_reserved": 0, "fusion_lat": 0.0, "type": "electric_scooter"}, {"fusion_lon": 0.0, "name": "960217f9932ad028f7c635a61c5b74c4", "rental_uris": {"android": "https://dc.lft.to/lastmile_qr_scan", "ios": "https://dc.lft.to/lastmile_qr_scan"}, "lat": 38.93036766666667, "bike_id": "960217f9932ad028f7c635a61c5b74c4", "is_disabled": 0, "lon": -77.02968866666667, "is_reserved": 0, "fusion_lat": 0.0, "type": "electric_scooter"}, {"fusion_lon": 0.0, "name": "3a21f95c1509a7dc565bba310f6783dc", "rental_uris": {"android": "https://dc.lft.to/lastmile_qr_scan", "ios": "https://dc.lft.to/lastmile_qr_scan"}, "lat": 38.82848633333333, "bike_id": "3a21f95c1509a7dc565bba310f6783dc", "is_disabled": 0, "lon": -77.05902983333333, "is_reserved": 0, "fusion_lat": 0.0, "type": "electric_bike"}, {"fusion_lon": 0.0, "name": "42dd62cfd68f814a4ed4dda27e215f75", "rental_uris": {"android": "https://dc.lft.to/lastmile_qr_scan", "ios": "https://dc.lft.to/lastmile_qr_scan"}, "lat": 38.899023166666666, "bike_id": "42dd62cfd68f814a4ed4dda27e215f75", "is_disabled": 0, "lon": -76.98829416666666, "is_reserved": 0, "fusion_lat": 0.0, "type": "electric_scooter"}, {"fusion_lon": 0.0, "name": "daef68508d723c59e299d8f6642c7a8f", "rental_uris": {"android": "https://dc.lft.to/lastmile_qr_scan", "ios": "https://dc.lft.to/lastmile_qr_scan"}, "lat": 38.92366766666667, "bike_id": "daef68508d723c59e299d8f6642c7a8f", "is_disabled": 0, "lon": -77.07638516666667, "is_reserved": 0, "fusion_lat": 0.0, "type": "electric_scooter"}, {"fusion_lon": 0.0, "name": "4b4bf06a5dc136d7b18a7f135bb28518", "rental_uris": {"android": "https://dc.lft.to/lastmile_qr_scan", "ios": "https://dc.lft.to/lastmile_qr_scan"}, "lat": 38.91702433333333, "bike_id": "4b4bf06a5dc136d7b18a7f135bb28518", "is_disabled": 0, "lon": -77.03625116666667, "is_reserved": 0, "fusion_lat": 0.0, "type": "electric_scooter"}, {"fusion_lon": 0.0, "name": "da76492e7c205c3622f3e58d4ab2c22d", "rental_uris": {"android": "https://dc.lft.to/lastmile_qr_scan", "ios": "https://dc.lft.to/lastmile_qr_scan"}, "lat": 38.926308, "bike_id": "da76492e7c205c3622f3e58d4ab2c22d", "is_disabled": 0, "lon": -77.03505466666667, "is_reserved": 0, "fusion_lat": 0.0, "type": "electric_scooter"}, {"fusion_lon": 0.0, "name": "0aaf66fa993f0637448f9d8b8d6467ef", "rental_uris": {"android": "https://dc.lft.to/lastmile_qr_scan", "ios": "https://dc.lft.to/lastmile_qr_scan"}, "lat": 38.91647, "bike_id": "0aaf66fa993f0637448f9d8b8d6467ef", "is_disabled": 0, "lon": -77.0102935, "is_reserved": 0, "fusion_lat": 0.0, "type": "electric_scooter"}, {"fusion_lon": 0.0, "name": "2d1b29eaa799c167060f51cc3e5ca98d", "rental_uris": {"android": "https://dc.lft.to/lastmile_qr_scan", "ios": "https://dc.lft.to/lastmile_qr_scan"}, "lat": 38.9218945, "bike_id": "2d1b29eaa799c167060f51cc3e5ca98d", "is_disabled": 0, "lon": -77.03514316666667, "is_reserved": 0, "fusion_lat": 0.0, "type": "electric_scooter"}, {"fusion_lon": 0.0, "name": "28fe8fc22e84ed356eac1d0101635146", "rental_uris": {"android": "https://dc.lft.to/lastmile_qr_scan", "ios": "https://dc.lft.to/lastmile_qr_scan"}, "lat": 38.938549, "bike_id": "28fe8fc22e84ed356eac1d0101635146", "is_disabled": 0, "lon": -77.02448366666667, "is_reserved": 0, "fusion_lat": 0.0, "type": "electric_scooter"}, {"fusion_lon": 0.0, "name": "3f1fe68a96cdedbf8012e89d65f4aa44", "rental_uris": {"android": "https://dc.lft.to/lastmile_qr_scan", "ios": "https://dc.lft.to/lastmile_qr_scan"}, "lat": 38.936988, "bike_id": "3f1fe68a96cdedbf8012e89d65f4aa44", "is_disabled": 0, "lon": -77.05597916666666, "is_reserved": 0, "fusion_lat": 0.0, "type": "electric_scooter"}, {"fusion_lon": 0.0, "name": "c67ea326714d3108f228942bf3c73552", "rental_uris": {"android": "https://dc.lft.to/lastmile_qr_scan", "ios": "https://dc.lft.to/lastmile_qr_scan"}, "lat": 38.917207, "bike_id": "c67ea326714d3108f228942bf3c73552", "is_disabled": 0, "lon": -77.029613, "is_reserved": 0, "fusion_lat": 0.0, "type": "electric_scooter"}, {"fusion_lon": 0.0, "name": "39e491a81e20d3f208b8f70f4c3cef54", "rental_uris": {"android": "https://dc.lft.to/lastmile_qr_scan", "ios": "https://dc.lft.to/lastmile_qr_scan"}, "lat": 38.92358983333333, "bike_id": "39e491a81e20d3f208b8f70f4c3cef54", "is_disabled": 0, "lon": -77.05422766666666, "is_reserved": 0, "fusion_lat": 0.0, "type": "electric_scooter"}, {"fusion_lon": 0.0, "name": "56d2461df02f0507f2c25102eed99125", "rental_uris": {"android": "https://dc.lft.to/lastmile_qr_scan", "ios": "https://dc.lft.to/lastmile_qr_scan"}, "lat": 38.90527933333333, "bike_id": "56d2461df02f0507f2c25102eed99125", "is_disabled": 0, "lon": -77.06234433333333, "is_reserved": 0, "fusion_lat": 0.0, "type": "electric_scooter"}, {"fusion_lon": 0.0, "name": "acf63e2bf73f08e95071ac0e93b096be", "rental_uris": {"android": "https://dc.lft.to/lastmile_qr_scan", "ios": "https://dc.lft.to/lastmile_qr_scan"}, "lat": 38.91475916666667, "bike_id": "acf63e2bf73f08e95071ac0e93b096be", "is_disabled": 0, "lon": -77.0401415, "is_reserved": 0, "fusion_lat": 0.0, "type": "electric_scooter"}, {"fusion_lon": 0.0, "name": "73569c4ac94518242ca234c379e59ad7", "rental_uris": {"android": "https://dc.lft.to/lastmile_qr_scan", "ios": "https://dc.lft.to/lastmile_qr_scan"}, "lat": 38.900267, "bike_id": "73569c4ac94518242ca234c379e59ad7", "is_disabled": 0, "lon": -76.98756716666666, "is_reserved": 0, "fusion_lat": 0.0, "type": "electric_scooter"}, {"fusion_lon": 0.0, "name": "8dd2dd612c026eb5bb3d2fdfcf568c3e", "rental_uris": {"android": "https://dc.lft.to/lastmile_qr_scan", "ios": "https://dc.lft.to/lastmile_qr_scan"}, "lat": 38.91652233333333, "bike_id": "8dd2dd612c026eb5bb3d2fdfcf568c3e", "is_disabled": 0, "lon": -77.00949983333334, "is_reserved": 0, "fusion_lat": 0.0, "type": "electric_scooter"}, {"fusion_lon": 0.0, "name": "4a9f6e88e775cc108650b0eed9920df8", "rental_uris": {"android": "https://dc.lft.to/lastmile_qr_scan", "ios": "https://dc.lft.to/lastmile_qr_scan"}, "lat": 38.87202416666667, "bike_id": "4a9f6e88e775cc108650b0eed9920df8", "is_disabled": 0, "lon": -77.009311, "is_reserved": 0, "fusion_lat": 0.0, "type": "electric_scooter"}, {"fusion_lon": 0.0, "name": "2d3c8eec9ce0cf6bcca4b997e71c7856", "rental_uris": {"android": "https://dc.lft.to/lastmile_qr_scan", "ios": "https://dc.lft.to/lastmile_qr_scan"}, "lat": 38.8086415, "bike_id": "2d3c8eec9ce0cf6bcca4b997e71c7856", "is_disabled": 0, "lon": -77.11254366666667, "is_reserved": 0, "fusion_lat": 0.0, "type": "electric_bike"}, {"fusion_lon": 0.0, "name": "195184912180faf2398520ae8f409833", "rental_uris": {"android": "https://dc.lft.to/lastmile_qr_scan", "ios": "https://dc.lft.to/lastmile_qr_scan"}, "lat": 38.87574216666667, "bike_id": "195184912180faf2398520ae8f409833", "is_disabled": 0, "lon": -77.005783, "is_reserved": 0, "fusion_lat": 0.0, "type": "electric_scooter"}, {"fusion_lon": 0.0, "name": "451e49abd87a439379783d4875dbbb21", "rental_uris": {"android": "https://dc.lft.to/lastmile_qr_scan", "ios": "https://dc.lft.to/lastmile_qr_scan"}, "lat": 38.8717385, "bike_id": "451e49abd87a439379783d4875dbbb21", "is_disabled": 0, "lon": -77.23393433333334, "is_reserved": 0, "fusion_lat": 0.0, "type": "electric_bike"}, {"fusion_lon": 0.0, "name": "386e670ad6f8cbfb89450f6fdf789c28", "rental_uris": {"android": "https://dc.lft.to/lastmile_qr_scan", "ios": "https://dc.lft.to/lastmile_qr_scan"}, "lat": 38.9096315, "bike_id": "386e670ad6f8cbfb89450f6fdf789c28", "is_disabled": 0, "lon": -77.0244525, "is_reserved": 0, "fusion_lat": 0.0, "type": "electric_scooter"}, {"fusion_lon": 0.0, "name": "1c9f3b6c1fb57d797bf88b4cfa2a7629", "rental_uris": {"android": "https://dc.lft.to/lastmile_qr_scan", "ios": "https://dc.lft.to/lastmile_qr_scan"}, "lat": 38.916106, "bike_id": "1c9f3b6c1fb57d797bf88b4cfa2a7629", "is_disabled": 0, "lon": -77.02289966666666, "is_reserved": 0, "fusion_lat": 0.0, "type": "electric_scooter"}, {"fusion_lon": 0.0, "name": "a09872cce6c83b47fcc6ab347570052c", "rental_uris": {"android": "https://dc.lft.to/lastmile_qr_scan", "ios": "https://dc.lft.to/lastmile_qr_scan"}, "lat": 38.909460833333334, "bike_id": "a09872cce6c83b47fcc6ab347570052c", "is_disabled": 0, "lon": -77.04500816666666, "is_reserved": 0, "fusion_lat": 0.0, "type": "electric_scooter"}, {"fusion_lon": 0.0, "name": "aa3a78496c2bd7317e92b9eccff7fddd", "rental_uris": {"android": "https://dc.lft.to/lastmile_qr_scan", "ios": "https://dc.lft.to/lastmile_qr_scan"}, "lat": 38.94166933333333, "bike_id": "aa3a78496c2bd7317e92b9eccff7fddd", "is_disabled": 0, "lon": -77.02559466666666, "is_reserved": 0, "fusion_lat": 0.0, "type": "electric_scooter"}, {"fusion_lon": 0.0, "name": "efc6073b504930f6f4101696a68f42bf", "rental_uris": {"android": "https://dc.lft.to/lastmile_qr_scan", "ios": "https://dc.lft.to/lastmile_qr_scan"}, "lat": 38.973706, "bike_id": "efc6073b504930f6f4101696a68f42bf", "is_disabled": 0, "lon": -77.01863666666667, "is_reserved": 0, "fusion_lat": 0.0, "type": "electric_scooter"}, {"fusion_lon": 0.0, "name": "fc516fcb3575a2c4618a33c8760c23cc", "rental_uris": {"android": "https://dc.lft.to/lastmile_qr_scan", "ios": "https://dc.lft.to/lastmile_qr_scan"}, "lat": 38.917594, "bike_id": "fc516fcb3575a2c4618a33c8760c23cc", "is_disabled": 0, "lon": -77.00920316666667, "is_reserved": 0, "fusion_lat": 0.0, "type": "electric_scooter"}, {"fusion_lon": 0.0, "name": "29ef95b24fd878a85cfb8bb41afc9c99", "rental_uris": {"android": "https://dc.lft.to/lastmile_qr_scan", "ios": "https://dc.lft.to/lastmile_qr_scan"}, "lat": 38.90365366666666, "bike_id": "29ef95b24fd878a85cfb8bb41afc9c99", "is_disabled": 0, "lon": -76.99839083333333, "is_reserved": 0, "fusion_lat": 0.0, "type": "electric_scooter"}, {"fusion_lon": 0.0, "name": "bc6bb4ec923c0a469d91310e4556db12", "rental_uris": {"android": "https://dc.lft.to/lastmile_qr_scan", "ios": "https://dc.lft.to/lastmile_qr_scan"}, "lat": 38.89451833333333, "bike_id": "bc6bb4ec923c0a469d91310e4556db12", "is_disabled": 0, "lon": -77.02672333333334, "is_reserved": 0, "fusion_lat": 0.0, "type": "electric_scooter"}, {"fusion_lon": 0.0, "name": "4b66de5cb1a8eb71c45b65aefcd90d65", "rental_uris": {"android": "https://dc.lft.to/lastmile_qr_scan", "ios": "https://dc.lft.to/lastmile_qr_scan"}, "lat": 38.900561833333335, "bike_id": "4b66de5cb1a8eb71c45b65aefcd90d65", "is_disabled": 0, "lon": -77.0319005, "is_reserved": 0, "fusion_lat": 0.0, "type": "electric_scooter"}, {"fusion_lon": 0.0, "name": "9b7cc2b7c42e14bb0f503574c23b6f94", "rental_uris": {"android": "https://dc.lft.to/lastmile_qr_scan", "ios": "https://dc.lft.to/lastmile_qr_scan"}, "lat": 38.886071, "bike_id": "9b7cc2b7c42e14bb0f503574c23b6f94", "is_disabled": 0, "lon": -77.00280533333333, "is_reserved": 0, "fusion_lat": 0.0, "type": "electric_scooter"}, {"fusion_lon": 0.0, "name": "3da95af40f0bc647d6f72599a9dff13c", "rental_uris": {"android": "https://dc.lft.to/lastmile_qr_scan", "ios": "https://dc.lft.to/lastmile_qr_scan"}, "lat": 38.90271216666667, "bike_id": "3da95af40f0bc647d6f72599a9dff13c", "is_disabled": 0, "lon": -77.017625, "is_reserved": 0, "fusion_lat": 0.0, "type": "electric_scooter"}, {"fusion_lon": 0.0, "name": "7f724167ed266cb0be5587cc41c790a2", "rental_uris": {"android": "https://dc.lft.to/lastmile_qr_scan", "ios": "https://dc.lft.to/lastmile_qr_scan"}, "lat": 38.90523266666667, "bike_id": "7f724167ed266cb0be5587cc41c790a2", "is_disabled": 0, "lon": -77.03042216666667, "is_reserved": 0, "fusion_lat": 0.0, "type": "electric_scooter"}, {"fusion_lon": 0.0, "name": "e36c9fa52e56e9444f0a71415a9a51e9", "rental_uris": {"android": "https://dc.lft.to/lastmile_qr_scan", "ios": "https://dc.lft.to/lastmile_qr_scan"}, "lat": 38.91707183333333, "bike_id": "e36c9fa52e56e9444f0a71415a9a51e9", "is_disabled": 0, "lon": -77.00112683333333, "is_reserved": 0, "fusion_lat": 0.0, "type": "electric_scooter"}, {"fusion_lon": 0.0, "name": "54233be6557f650f937add8931d5493d", "rental_uris": {"android": "https://dc.lft.to/lastmile_qr_scan", "ios": "https://dc.lft.to/lastmile_qr_scan"}, "lat": 38.9204615, "bike_id": "54233be6557f650f937add8931d5493d", "is_disabled": 0, "lon": -77.02422666666666, "is_reserved": 0, "fusion_lat": 0.0, "type": "electric_scooter"}, {"fusion_lon": 0.0, "name": "63f5267700c930f15cbe7054b8fda9e2", "rental_uris": {"android": "https://dc.lft.to/lastmile_qr_scan", "ios": "https://dc.lft.to/lastmile_qr_scan"}, "lat": 38.90395483333333, "bike_id": "63f5267700c930f15cbe7054b8fda9e2", "is_disabled": 0, "lon": -77.04361466666667, "is_reserved": 0, "fusion_lat": 0.0, "type": "electric_scooter"}, {"fusion_lon": 0.0, "name": "10a862a35e596919b3823673afe488a0", "rental_uris": {"android": "https://dc.lft.to/lastmile_qr_scan", "ios": "https://dc.lft.to/lastmile_qr_scan"}, "lat": 38.9306425, "bike_id": "10a862a35e596919b3823673afe488a0", "is_disabled": 0, "lon": -77.03943466666666, "is_reserved": 0, "fusion_lat": 0.0, "type": "electric_scooter"}, {"fusion_lon": 0.0, "name": "1e28654d021f2bdb0c243df582ecff58", "rental_uris": {"android": "https://dc.lft.to/lastmile_qr_scan", "ios": "https://dc.lft.to/lastmile_qr_scan"}, "lat": 38.918023, "bike_id": "1e28654d021f2bdb0c243df582ecff58", "is_disabled": 0, "lon": -77.03442866666667, "is_reserved": 0, "fusion_lat": 0.0, "type": "electric_scooter"}, {"fusion_lon": 0.0, "name": "9812ad189c96424bf1c508646c7b8eb0", "rental_uris": {"android": "https://dc.lft.to/lastmile_qr_scan", "ios": "https://dc.lft.to/lastmile_qr_scan"}, "lat": 38.92962966666666, "bike_id": "9812ad189c96424bf1c508646c7b8eb0", "is_disabled": 0, "lon": -77.0280055, "is_reserved": 0, "fusion_lat": 0.0, "type": "electric_scooter"}, {"fusion_lon": 0.0, "name": "d90ef6449a48cce18a663e5d05f6173d", "rental_uris": {"android": "https://dc.lft.to/lastmile_qr_scan", "ios": "https://dc.lft.to/lastmile_qr_scan"}, "lat": 38.907204666666665, "bike_id": "d90ef6449a48cce18a663e5d05f6173d", "is_disabled": 0, "lon": -77.04850066666667, "is_reserved": 0, "fusion_lat": 0.0, "type": "electric_scooter"}, {"fusion_lon": 0.0, "name": "4f6f38f50b6a129b5c3c304a6790753b", "rental_uris": {"android": "https://dc.lft.to/lastmile_qr_scan", "ios": "https://dc.lft.to/lastmile_qr_scan"}, "lat": 38.91959883333333, "bike_id": "4f6f38f50b6a129b5c3c304a6790753b", "is_disabled": 0, "lon": -77.0484615, "is_reserved": 0, "fusion_lat": 0.0, "type": "electric_scooter"}, {"fusion_lon": 0.0, "name": "8842e1891f347893c035554d9b70591f", "rental_uris": {"android": "https://dc.lft.to/lastmile_qr_scan", "ios": "https://dc.lft.to/lastmile_qr_scan"}, "lat": 39.084957333333335, "bike_id": "8842e1891f347893c035554d9b70591f", "is_disabled": 0, "lon": -76.95046316666667, "is_reserved": 0, "fusion_lat": 0.0, "type": "electric_bike"}, {"fusion_lon": 0.0, "name": "5dc94aec7a6080da01abcd876c0a38b0", "rental_uris": {"android": "https://dc.lft.to/lastmile_qr_scan", "ios": "https://dc.lft.to/lastmile_qr_scan"}, "lat": 38.90195683333334, "bike_id": "5dc94aec7a6080da01abcd876c0a38b0", "is_disabled": 0, "lon": -77.05898016666667, "is_reserved": 0, "fusion_lat": 0.0, "type": "electric_scooter"}, {"fusion_lon": 0.0, "name": "cdf6f74fe9a8ae8140afbdee308c55cd", "rental_uris": {"android": "https://dc.lft.to/lastmile_qr_scan", "ios": "https://dc.lft.to/lastmile_qr_scan"}, "lat": 38.892308, "bike_id": "cdf6f74fe9a8ae8140afbdee308c55cd", "is_disabled": 0, "lon": -77.03370316666667, "is_reserved": 0, "fusion_lat": 0.0, "type": "electric_scooter"}, {"fusion_lon": 0.0, "name": "f348632aec4dee100812d371f9a7f416", "rental_uris": {"android": "https://dc.lft.to/lastmile_qr_scan", "ios": "https://dc.lft.to/lastmile_qr_scan"}, "lat": 38.9014605, "bike_id": "f348632aec4dee100812d371f9a7f416", "is_disabled": 0, "lon": -77.05065266666666, "is_reserved": 0, "fusion_lat": 0.0, "type": "electric_scooter"}, {"fusion_lon": 0.0, "name": "598a18cf894930af5715f98b419edbf8", "rental_uris": {"android": "https://dc.lft.to/lastmile_qr_scan", "ios": "https://dc.lft.to/lastmile_qr_scan"}, "lat": 38.944218166666666, "bike_id": "598a18cf894930af5715f98b419edbf8", "is_disabled": 0, "lon": -77.055196, "is_reserved": 0, "fusion_lat": 0.0, "type": "electric_scooter"}, {"fusion_lon": 0.0, "name": "5d5294e921bf8a993179085ea8cea028", "rental_uris": {"android": "https://dc.lft.to/lastmile_qr_scan", "ios": "https://dc.lft.to/lastmile_qr_scan"}, "lat": 38.873148, "bike_id": "5d5294e921bf8a993179085ea8cea028", "is_disabled": 0, "lon": -77.0139235, "is_reserved": 0, "fusion_lat": 0.0, "type": "electric_scooter"}, {"fusion_lon": 0.0, "name": "a646ddf76698ee73178af21a10741599", "rental_uris": {"android": "https://dc.lft.to/lastmile_qr_scan", "ios": "https://dc.lft.to/lastmile_qr_scan"}, "lat": 38.91122983333333, "bike_id": "a646ddf76698ee73178af21a10741599", "is_disabled": 0, "lon": -77.04366833333333, "is_reserved": 0, "fusion_lat": 0.0, "type": "electric_scooter"}, {"fusion_lon": 0.0, "name": "5c89609541f46df3dc2ce8a31024e08b", "rental_uris": {"android": "https://dc.lft.to/lastmile_qr_scan", "ios": "https://dc.lft.to/lastmile_qr_scan"}, "lat": 38.89615766666667, "bike_id": "5c89609541f46df3dc2ce8a31024e08b", "is_disabled": 0, "lon": -76.92977383333333, "is_reserved": 0, "fusion_lat": 0.0, "type": "electric_scooter"}, {"fusion_lon": 0.0, "name": "8f6738b327f47e4c945612f56742f982", "rental_uris": {"android": "https://dc.lft.to/lastmile_qr_scan", "ios": "https://dc.lft.to/lastmile_qr_scan"}, "lat": 38.94151033333333, "bike_id": "8f6738b327f47e4c945612f56742f982", "is_disabled": 0, "lon": -77.00198, "is_reserved": 0, "fusion_lat": 0.0, "type": "electric_bike"}, {"fusion_lon": 0.0, "name": "6872b2cc25a643106668c219758999c5", "rental_uris": {"android": "https://dc.lft.to/lastmile_qr_scan", "ios": "https://dc.lft.to/lastmile_qr_scan"}, "lat": 38.893672333333335, "bike_id": "6872b2cc25a643106668c219758999c5", "is_disabled": 0, "lon": -76.9845905, "is_reserved": 0, "fusion_lat": 0.0, "type": "electric_scooter"}, {"fusion_lon": 0.0, "name": "2d30d0f1efd96c61257132311b54666f", "rental_uris": {"android": "https://dc.lft.to/lastmile_qr_scan", "ios": "https://dc.lft.to/lastmile_qr_scan"}, "lat": 38.920488166666665, "bike_id": "2d30d0f1efd96c61257132311b54666f", "is_disabled": 0, "lon": -77.02414333333333, "is_reserved": 0, "fusion_lat": 0.0, "type": "electric_scooter"}, {"fusion_lon": 0.0, "name": "aaef37a4e9213e448d410d4cb4ca81a2", "rental_uris": {"android": "https://dc.lft.to/lastmile_qr_scan", "ios": "https://dc.lft.to/lastmile_qr_scan"}, "lat": 38.880740833333334, "bike_id": "aaef37a4e9213e448d410d4cb4ca81a2", "is_disabled": 0, "lon": -77.03720983333334, "is_reserved": 0, "fusion_lat": 0.0, "type": "electric_scooter"}, {"fusion_lon": 0.0, "name": "5289731fc1249a8fd202b1dac463cdd3", "rental_uris": {"android": "https://dc.lft.to/lastmile_qr_scan", "ios": "https://dc.lft.to/lastmile_qr_scan"}, "lat": 38.8955585, "bike_id": "5289731fc1249a8fd202b1dac463cdd3", "is_disabled": 0, "lon": -77.12738316666666, "is_reserved": 0, "fusion_lat": 0.0, "type": "electric_bike"}, {"fusion_lon": 0.0, "name": "bc571254df616983ad3a517ef4ca63f7", "rental_uris": {"android": "https://dc.lft.to/lastmile_qr_scan", "ios": "https://dc.lft.to/lastmile_qr_scan"}, "lat": 38.956283, "bike_id": "bc571254df616983ad3a517ef4ca63f7", "is_disabled": 0, "lon": -77.02955683333333, "is_reserved": 0, "fusion_lat": 0.0, "type": "electric_scooter"}, {"fusion_lon": 0.0, "name": "e5656434eadb14d485408ae98d2b64e1", "rental_uris": {"android": "https://dc.lft.to/lastmile_qr_scan", "ios": "https://dc.lft.to/lastmile_qr_scan"}, "lat": 38.902400166666666, "bike_id": "e5656434eadb14d485408ae98d2b64e1", "is_disabled": 0, "lon": -77.032638, "is_reserved": 0, "fusion_lat": 0.0, "type": "electric_scooter"}, {"fusion_lon": 0.0, "name": "910e9047e593c6a97f938b0ce5eebbbb", "rental_uris": {"android": "https://dc.lft.to/lastmile_qr_scan", "ios": "https://dc.lft.to/lastmile_qr_scan"}, "lat": 38.92382033333333, "bike_id": "910e9047e593c6a97f938b0ce5eebbbb", "is_disabled": 0, "lon": -77.0366115, "is_reserved": 0, "fusion_lat": 0.0, "type": "electric_scooter"}, {"fusion_lon": 0.0, "name": "97a23514a6fda638a73d4cbc6b45b608", "rental_uris": {"android": "https://dc.lft.to/lastmile_qr_scan", "ios": "https://dc.lft.to/lastmile_qr_scan"}, "lat": 38.90563683333333, "bike_id": "97a23514a6fda638a73d4cbc6b45b608", "is_disabled": 0, "lon": -77.0348795, "is_reserved": 0, "fusion_lat": 0.0, "type": "electric_scooter"}, {"fusion_lon": 0.0, "name": "dc99bfebb3ad499fbd53a726a296617c", "rental_uris": {"android": "https://dc.lft.to/lastmile_qr_scan", "ios": "https://dc.lft.to/lastmile_qr_scan"}, "lat": 38.91552183333334, "bike_id": "dc99bfebb3ad499fbd53a726a296617c", "is_disabled": 0, "lon": -77.03664283333333, "is_reserved": 0, "fusion_lat": 0.0, "type": "electric_scooter"}, {"fusion_lon": 0.0, "name": "e178e62d243104a44028f0a8d5beee24", "rental_uris": {"android": "https://dc.lft.to/lastmile_qr_scan", "ios": "https://dc.lft.to/lastmile_qr_scan"}, "lat": 38.949267666666664, "bike_id": "e178e62d243104a44028f0a8d5beee24", "is_disabled": 0, "lon": -76.95916133333333, "is_reserved": 0, "fusion_lat": 0.0, "type": "electric_bike"}, {"fusion_lon": 0.0, "name": "0922c03afe3b303fa9147a2b57591172", "rental_uris": {"android": "https://dc.lft.to/lastmile_qr_scan", "ios": "https://dc.lft.to/lastmile_qr_scan"}, "lat": 38.90202633333333, "bike_id": "0922c03afe3b303fa9147a2b57591172", "is_disabled": 0, "lon": -77.06120816666666, "is_reserved": 0, "fusion_lat": 0.0, "type": "electric_scooter"}, {"fusion_lon": 0.0, "name": "a2e2e1f157952877f3302bd481311027", "rental_uris": {"android": "https://dc.lft.to/lastmile_qr_scan", "ios": "https://dc.lft.to/lastmile_qr_scan"}, "lat": 38.9018995, "bike_id": "a2e2e1f157952877f3302bd481311027", "is_disabled": 0, "lon": -77.02167483333334, "is_reserved": 0, "fusion_lat": 0.0, "type": "electric_scooter"}, {"fusion_lon": 0.0, "name": "6b8dd6518aa10f4b350fa6ab5cf56a87", "rental_uris": {"android": "https://dc.lft.to/lastmile_qr_scan", "ios": "https://dc.lft.to/lastmile_qr_scan"}, "lat": 38.939108166666664, "bike_id": "6b8dd6518aa10f4b350fa6ab5cf56a87", "is_disabled": 0, "lon": -77.06039933333334, "is_reserved": 0, "fusion_lat": 0.0, "type": "electric_scooter"}, {"fusion_lon": 0.0, "name": "e2988d143a9abaf054107c2896e424f2", "rental_uris": {"android": "https://dc.lft.to/lastmile_qr_scan", "ios": "https://dc.lft.to/lastmile_qr_scan"}, "lat": 38.91556383333333, "bike_id": "e2988d143a9abaf054107c2896e424f2", "is_disabled": 0, "lon": -77.00720166666666, "is_reserved": 0, "fusion_lat": 0.0, "type": "electric_scooter"}, {"fusion_lon": 0.0, "name": "606a2b869c5fde7758a65b024ba6ff03", "rental_uris": {"android": "https://dc.lft.to/lastmile_qr_scan", "ios": "https://dc.lft.to/lastmile_qr_scan"}, "lat": 38.90494133333333, "bike_id": "606a2b869c5fde7758a65b024ba6ff03", "is_disabled": 0, "lon": -77.04866333333334, "is_reserved": 0, "fusion_lat": 0.0, "type": "electric_scooter"}, {"fusion_lon": 0.0, "name": "0ba7db14ccc345093eacf1d99d078237", "rental_uris": {"android": "https://dc.lft.to/lastmile_qr_scan", "ios": "https://dc.lft.to/lastmile_qr_scan"}, "lat": 38.908933833333336, "bike_id": "0ba7db14ccc345093eacf1d99d078237", "is_disabled": 0, "lon": -77.072662, "is_reserved": 0, "fusion_lat": 0.0, "type": "electric_scooter"}, {"fusion_lon": 0.0, "name": "ef1f6d4ce55c4245aae8e15b7715c93b", "rental_uris": {"android": "https://dc.lft.to/lastmile_qr_scan", "ios": "https://dc.lft.to/lastmile_qr_scan"}, "lat": 38.92844483333333, "bike_id": "ef1f6d4ce55c4245aae8e15b7715c93b", "is_disabled": 0, "lon": -77.05420083333334, "is_reserved": 0, "fusion_lat": 0.0, "type": "electric_scooter"}, {"fusion_lon": 0.0, "name": "9d2b1c05209e810884786d82ccd2fbc1", "rental_uris": {"android": "https://dc.lft.to/lastmile_qr_scan", "ios": "https://dc.lft.to/lastmile_qr_scan"}, "lat": 38.929448666666666, "bike_id": "9d2b1c05209e810884786d82ccd2fbc1", "is_disabled": 0, "lon": -77.03292816666666, "is_reserved": 0, "fusion_lat": 0.0, "type": "electric_scooter"}, {"fusion_lon": 0.0, "name": "0a84518c4256fbfa3bc2637c6524e3b6", "rental_uris": {"android": "https://dc.lft.to/lastmile_qr_scan", "ios": "https://dc.lft.to/lastmile_qr_scan"}, "lat": 38.927829833333334, "bike_id": "0a84518c4256fbfa3bc2637c6524e3b6", "is_disabled": 0, "lon": -77.03085016666667, "is_reserved": 0, "fusion_lat": 0.0, "type": "electric_scooter"}, {"fusion_lon": 0.0, "name": "a081d5e8f05abd2c800d2a05770b73ec", "rental_uris": {"android": "https://dc.lft.to/lastmile_qr_scan", "ios": "https://dc.lft.to/lastmile_qr_scan"}, "lat": 38.905171333333335, "bike_id": "a081d5e8f05abd2c800d2a05770b73ec", "is_disabled": 0, "lon": -77.0295885, "is_reserved": 0, "fusion_lat": 0.0, "type": "electric_scooter"}, {"fusion_lon": 0.0, "name": "3865a611d56f16424abc921aa7baf776", "rental_uris": {"android": "https://dc.lft.to/lastmile_qr_scan", "ios": "https://dc.lft.to/lastmile_qr_scan"}, "lat": 38.92908583333333, "bike_id": "3865a611d56f16424abc921aa7baf776", "is_disabled": 0, "lon": -77.0325095, "is_reserved": 0, "fusion_lat": 0.0, "type": "electric_scooter"}, {"fusion_lon": 0.0, "name": "e323fcdf62a08d94ae715002fede14a2", "rental_uris": {"android": "https://dc.lft.to/lastmile_qr_scan", "ios": "https://dc.lft.to/lastmile_qr_scan"}, "lat": 38.9127215, "bike_id": "e323fcdf62a08d94ae715002fede14a2", "is_disabled": 0, "lon": -77.01619583333333, "is_reserved": 0, "fusion_lat": 0.0, "type": "electric_scooter"}, {"fusion_lon": 0.0, "name": "32bb661faa542689a8640dbc1487c107", "rental_uris": {"android": "https://dc.lft.to/lastmile_qr_scan", "ios": "https://dc.lft.to/lastmile_qr_scan"}, "lat": 38.92598316666667, "bike_id": "32bb661faa542689a8640dbc1487c107", "is_disabled": 0, "lon": -77.021575, "is_reserved": 0, "fusion_lat": 0.0, "type": "electric_scooter"}, {"fusion_lon": 0.0, "name": "31d59b5219ba003e31b0a48e34a46096", "rental_uris": {"android": "https://dc.lft.to/lastmile_qr_scan", "ios": "https://dc.lft.to/lastmile_qr_scan"}, "lat": 38.910530666666666, "bike_id": "31d59b5219ba003e31b0a48e34a46096", "is_disabled": 0, "lon": -77.05325283333333, "is_reserved": 0, "fusion_lat": 0.0, "type": "electric_scooter"}, {"fusion_lon": 0.0, "name": "714d9867b4ec0313bec185b92ea59203", "rental_uris": {"android": "https://dc.lft.to/lastmile_qr_scan", "ios": "https://dc.lft.to/lastmile_qr_scan"}, "lat": 38.93599016666667, "bike_id": "714d9867b4ec0313bec185b92ea59203", "is_disabled": 0, "lon": -77.056085, "is_reserved": 0, "fusion_lat": 0.0, "type": "electric_scooter"}, {"fusion_lon": 0.0, "name": "e9b6e93d987874b72e5b4cfc7ef35029", "rental_uris": {"android": "https://dc.lft.to/lastmile_qr_scan", "ios": "https://dc.lft.to/lastmile_qr_scan"}, "lat": 38.9236275, "bike_id": "e9b6e93d987874b72e5b4cfc7ef35029", "is_disabled": 0, "lon": -77.05136933333333, "is_reserved": 0, "fusion_lat": 0.0, "type": "electric_scooter"}, {"fusion_lon": 0.0, "name": "18956d319ba7b7b3ee6f40bd50e1c46f", "rental_uris": {"android": "https://dc.lft.to/lastmile_qr_scan", "ios": "https://dc.lft.to/lastmile_qr_scan"}, "lat": 38.905843, "bike_id": "18956d319ba7b7b3ee6f40bd50e1c46f", "is_disabled": 0, "lon": -77.04110733333333, "is_reserved": 0, "fusion_lat": 0.0, "type": "electric_scooter"}, {"fusion_lon": 0.0, "name": "bd2f6273ee3f76e0463c24ee7c29f044", "rental_uris": {"android": "https://dc.lft.to/lastmile_qr_scan", "ios": "https://dc.lft.to/lastmile_qr_scan"}, "lat": 38.896330666666664, "bike_id": "bd2f6273ee3f76e0463c24ee7c29f044", "is_disabled": 0, "lon": -77.0321585, "is_reserved": 0, "fusion_lat": 0.0, "type": "electric_scooter"}, {"fusion_lon": 0.0, "name": "b271fba5ca76801dc59218a5513b7fa2", "rental_uris": {"android": "https://dc.lft.to/lastmile_qr_scan", "ios": "https://dc.lft.to/lastmile_qr_scan"}, "lat": 38.894893833333334, "bike_id": "b271fba5ca76801dc59218a5513b7fa2", "is_disabled": 0, "lon": -76.9489445, "is_reserved": 0, "fusion_lat": 0.0, "type": "electric_scooter"}, {"fusion_lon": 0.0, "name": "9d7874bb8868ebf9334500fa1bbead47", "rental_uris": {"android": "https://dc.lft.to/lastmile_qr_scan", "ios": "https://dc.lft.to/lastmile_qr_scan"}, "lat": 38.875373833333335, "bike_id": "9d7874bb8868ebf9334500fa1bbead47", "is_disabled": 0, "lon": -77.01741833333334, "is_reserved": 0, "fusion_lat": 0.0, "type": "electric_scooter"}, {"fusion_lon": 0.0, "name": "c6faee748792c4c7a2af7feb7dc64f49", "rental_uris": {"android": "https://dc.lft.to/lastmile_qr_scan", "ios": "https://dc.lft.to/lastmile_qr_scan"}, "lat": 38.897843333333334, "bike_id": "c6faee748792c4c7a2af7feb7dc64f49", "is_disabled": 0, "lon": -77.0500155, "is_reserved": 0, "fusion_lat": 0.0, "type": "electric_scooter"}, {"fusion_lon": 0.0, "name": "08dbb5b28dc77fdb2c96eb30b57514f1", "rental_uris": {"android": "https://dc.lft.to/lastmile_qr_scan", "ios": "https://dc.lft.to/lastmile_qr_scan"}, "lat": 38.883692333333336, "bike_id": "08dbb5b28dc77fdb2c96eb30b57514f1", "is_disabled": 0, "lon": -76.99519516666666, "is_reserved": 0, "fusion_lat": 0.0, "type": "electric_scooter"}, {"fusion_lon": 0.0, "name": "157ca637faf51ec095f243f2e4e39d9a", "rental_uris": {"android": "https://dc.lft.to/lastmile_qr_scan", "ios": "https://dc.lft.to/lastmile_qr_scan"}, "lat": 38.906772, "bike_id": "157ca637faf51ec095f243f2e4e39d9a", "is_disabled": 0, "lon": -77.026999, "is_reserved": 0, "fusion_lat": 0.0, "type": "electric_scooter"}, {"fusion_lon": 0.0, "name": "0f498fac59826a4d65a384056992c059", "rental_uris": {"android": "https://dc.lft.to/lastmile_qr_scan", "ios": "https://dc.lft.to/lastmile_qr_scan"}, "lat": 38.892999833333334, "bike_id": "0f498fac59826a4d65a384056992c059", "is_disabled": 0, "lon": -76.93969316666667, "is_reserved": 0, "fusion_lat": 0.0, "type": "electric_scooter"}, {"fusion_lon": 0.0, "name": "7b6b4683b2e6b76d5418179655805235", "rental_uris": {"android": "https://dc.lft.to/lastmile_qr_scan", "ios": "https://dc.lft.to/lastmile_qr_scan"}, "lat": 38.944405833333334, "bike_id": "7b6b4683b2e6b76d5418179655805235", "is_disabled": 0, "lon": -77.06351466666666, "is_reserved": 0, "fusion_lat": 0.0, "type": "electric_scooter"}, {"fusion_lon": 0.0, "name": "2b55d44b07d61b94d641bfcd3242ba50", "rental_uris": {"android": "https://dc.lft.to/lastmile_qr_scan", "ios": "https://dc.lft.to/lastmile_qr_scan"}, "lat": 38.906878, "bike_id": "2b55d44b07d61b94d641bfcd3242ba50", "is_disabled": 0, "lon": -77.04885883333333, "is_reserved": 0, "fusion_lat": 0.0, "type": "electric_scooter"}, {"fusion_lon": 0.0, "name": "21ddc68b8367348195ca107ef2b7ba2e", "rental_uris": {"android": "https://dc.lft.to/lastmile_qr_scan", "ios": "https://dc.lft.to/lastmile_qr_scan"}, "lat": 38.92360333333333, "bike_id": "21ddc68b8367348195ca107ef2b7ba2e", "is_disabled": 0, "lon": -77.05029116666667, "is_reserved": 0, "fusion_lat": 0.0, "type": "electric_scooter"}, {"fusion_lon": 0.0, "name": "8d168d8c4d7d6b3a161b971183cfcfa5", "rental_uris": {"android": "https://dc.lft.to/lastmile_qr_scan", "ios": "https://dc.lft.to/lastmile_qr_scan"}, "lat": 38.847569166666666, "bike_id": "8d168d8c4d7d6b3a161b971183cfcfa5", "is_disabled": 0, "lon": -77.05371833333334, "is_reserved": 0, "fusion_lat": 0.0, "type": "electric_bike"}, {"fusion_lon": 0.0, "name": "90e88513afe22589352750c5f9029b72", "rental_uris": {"android": "https://dc.lft.to/lastmile_qr_scan", "ios": "https://dc.lft.to/lastmile_qr_scan"}, "lat": 38.922721833333334, "bike_id": "90e88513afe22589352750c5f9029b72", "is_disabled": 0, "lon": -77.02966783333333, "is_reserved": 0, "fusion_lat": 0.0, "type": "electric_scooter"}, {"fusion_lon": 0.0, "name": "ea7475049274bca7eaea8083d59ac5e3", "rental_uris": {"android": "https://dc.lft.to/lastmile_qr_scan", "ios": "https://dc.lft.to/lastmile_qr_scan"}, "lat": 38.89225716666667, "bike_id": "ea7475049274bca7eaea8083d59ac5e3", "is_disabled": 0, "lon": -77.0172605, "is_reserved": 0, "fusion_lat": 0.0, "type": "electric_scooter"}, {"fusion_lon": 0.0, "name": "2db7a1bd5b6f33329d7cf75a87eea5ae", "rental_uris": {"android": "https://dc.lft.to/lastmile_qr_scan", "ios": "https://dc.lft.to/lastmile_qr_scan"}, "lat": 38.94802283333333, "bike_id": "2db7a1bd5b6f33329d7cf75a87eea5ae", "is_disabled": 0, "lon": -76.9597335, "is_reserved": 0, "fusion_lat": 0.0, "type": "electric_bike"}, {"fusion_lon": 0.0, "name": "833d3c4e5e0ee9782244558a9258e99c", "rental_uris": {"android": "https://dc.lft.to/lastmile_qr_scan", "ios": "https://dc.lft.to/lastmile_qr_scan"}, "lat": 38.92366716666667, "bike_id": "833d3c4e5e0ee9782244558a9258e99c", "is_disabled": 0, "lon": -77.019571, "is_reserved": 0, "fusion_lat": 0.0, "type": "electric_scooter"}, {"fusion_lon": 0.0, "name": "66fa6b70f745f9f89b5542934ed591f1", "rental_uris": {"android": "https://dc.lft.to/lastmile_qr_scan", "ios": "https://dc.lft.to/lastmile_qr_scan"}, "lat": 38.877343, "bike_id": "66fa6b70f745f9f89b5542934ed591f1", "is_disabled": 0, "lon": -76.9949015, "is_reserved": 0, "fusion_lat": 0.0, "type": "electric_scooter"}, {"fusion_lon": 0.0, "name": "b19b3058b1620aba74cb9d7e9a4b51da", "rental_uris": {"android": "https://dc.lft.to/lastmile_qr_scan", "ios": "https://dc.lft.to/lastmile_qr_scan"}, "lat": 38.90054216666667, "bike_id": "b19b3058b1620aba74cb9d7e9a4b51da", "is_disabled": 0, "lon": -76.984861, "is_reserved": 0, "fusion_lat": 0.0, "type": "electric_scooter"}, {"fusion_lon": 0.0, "name": "eda362fc6663fd060046b53632f5fcc8", "rental_uris": {"android": "https://dc.lft.to/lastmile_qr_scan", "ios": "https://dc.lft.to/lastmile_qr_scan"}, "lat": 38.89176716666667, "bike_id": "eda362fc6663fd060046b53632f5fcc8", "is_disabled": 0, "lon": -76.9425445, "is_reserved": 0, "fusion_lat": 0.0, "type": "electric_scooter"}, {"fusion_lon": 0.0, "name": "fe9b14b23cadc47286a042255213cf4b", "rental_uris": {"android": "https://dc.lft.to/lastmile_qr_scan", "ios": "https://dc.lft.to/lastmile_qr_scan"}, "lat": 38.904554166666664, "bike_id": "fe9b14b23cadc47286a042255213cf4b", "is_disabled": 0, "lon": -77.02592216666666, "is_reserved": 0, "fusion_lat": 0.0, "type": "electric_scooter"}, {"fusion_lon": 0.0, "name": "f714c100b0652dc0b66d85b8b004999e", "rental_uris": {"android": "https://dc.lft.to/lastmile_qr_scan", "ios": "https://dc.lft.to/lastmile_qr_scan"}, "lat": 38.92462, "bike_id": "f714c100b0652dc0b66d85b8b004999e", "is_disabled": 0, "lon": -77.03946616666667, "is_reserved": 0, "fusion_lat": 0.0, "type": "electric_scooter"}, {"fusion_lon": 0.0, "name": "3f7d74c0a91a6ce879d5b7b8793c707d", "rental_uris": {"android": "https://dc.lft.to/lastmile_qr_scan", "ios": "https://dc.lft.to/lastmile_qr_scan"}, "lat": 38.935232666666664, "bike_id": "3f7d74c0a91a6ce879d5b7b8793c707d", "is_disabled": 0, "lon": -77.032583, "is_reserved": 0, "fusion_lat": 0.0, "type": "electric_scooter"}, {"fusion_lon": 0.0, "name": "c776a14506040b34ad710a6c0f59f463", "rental_uris": {"android": "https://dc.lft.to/lastmile_qr_scan", "ios": "https://dc.lft.to/lastmile_qr_scan"}, "lat": 38.8946615, "bike_id": "c776a14506040b34ad710a6c0f59f463", "is_disabled": 0, "lon": -76.99714633333333, "is_reserved": 0, "fusion_lat": 0.0, "type": "electric_scooter"}, {"fusion_lon": 0.0, "name": "cefb4600f698231e53ba1021514200a2", "rental_uris": {"android": "https://dc.lft.to/lastmile_qr_scan", "ios": "https://dc.lft.to/lastmile_qr_scan"}, "lat": 38.911937, "bike_id": "cefb4600f698231e53ba1021514200a2", "is_disabled": 0, "lon": -77.03203566666667, "is_reserved": 0, "fusion_lat": 0.0, "type": "electric_scooter"}, {"fusion_lon": 0.0, "name": "b18d2ce7e2431570a3a9ec5410935c1c", "rental_uris": {"android": "https://dc.lft.to/lastmile_qr_scan", "ios": "https://dc.lft.to/lastmile_qr_scan"}, "lat": 38.90492583333333, "bike_id": "b18d2ce7e2431570a3a9ec5410935c1c", "is_disabled": 0, "lon": -76.97739666666666, "is_reserved": 0, "fusion_lat": 0.0, "type": "electric_scooter"}, {"fusion_lon": 0.0, "name": "310118a55858873c75c5d73f5326ae23", "rental_uris": {"android": "https://dc.lft.to/lastmile_qr_scan", "ios": "https://dc.lft.to/lastmile_qr_scan"}, "lat": 38.9155785, "bike_id": "310118a55858873c75c5d73f5326ae23", "is_disabled": 0, "lon": -77.0487745, "is_reserved": 0, "fusion_lat": 0.0, "type": "electric_scooter"}, {"fusion_lon": 0.0, "name": "682b9f3ad68a4c3d2147f8f59aa54db4", "rental_uris": {"android": "https://dc.lft.to/lastmile_qr_scan", "ios": "https://dc.lft.to/lastmile_qr_scan"}, "lat": 38.93150716666667, "bike_id": "682b9f3ad68a4c3d2147f8f59aa54db4", "is_disabled": 0, "lon": -77.07850933333333, "is_reserved": 0, "fusion_lat": 0.0, "type": "electric_scooter"}, {"fusion_lon": 0.0, "name": "1da085b0852bcbc2ec106ea6de0a07f6", "rental_uris": {"android": "https://dc.lft.to/lastmile_qr_scan", "ios": "https://dc.lft.to/lastmile_qr_scan"}, "lat": 38.959120166666665, "bike_id": "1da085b0852bcbc2ec106ea6de0a07f6", "is_disabled": 0, "lon": -77.00015216666667, "is_reserved": 0, "fusion_lat": 0.0, "type": "electric_scooter"}, {"fusion_lon": 0.0, "name": "9447a9288b6f1925b3ec931b2c0e9fa9", "rental_uris": {"android": "https://dc.lft.to/lastmile_qr_scan", "ios": "https://dc.lft.to/lastmile_qr_scan"}, "lat": 38.89232916666667, "bike_id": "9447a9288b6f1925b3ec931b2c0e9fa9", "is_disabled": 0, "lon": -77.05004966666667, "is_reserved": 0, "fusion_lat": 0.0, "type": "electric_scooter"}, {"fusion_lon": 0.0, "name": "babe14352f886ae7f367086b7f0fd5bf", "rental_uris": {"android": "https://dc.lft.to/lastmile_qr_scan", "ios": "https://dc.lft.to/lastmile_qr_scan"}, "lat": 38.9006465, "bike_id": "babe14352f886ae7f367086b7f0fd5bf", "is_disabled": 0, "lon": -77.04762933333333, "is_reserved": 0, "fusion_lat": 0.0, "type": "electric_scooter"}, {"fusion_lon": 0.0, "name": "6a4561bb3c2156d698e0b3790108cb51", "rental_uris": {"android": "https://dc.lft.to/lastmile_qr_scan", "ios": "https://dc.lft.to/lastmile_qr_scan"}, "lat": 38.90033566666666, "bike_id": "6a4561bb3c2156d698e0b3790108cb51", "is_disabled": 0, "lon": -76.99619333333334, "is_reserved": 0, "fusion_lat": 0.0, "type": "electric_scooter"}, {"fusion_lon": 0.0, "name": "f03680eb8cfb7d3eb8dca4e1ee8a0a7a", "rental_uris": {"android": "https://dc.lft.to/lastmile_qr_scan", "ios": "https://dc.lft.to/lastmile_qr_scan"}, "lat": 38.85240783333333, "bike_id": "f03680eb8cfb7d3eb8dca4e1ee8a0a7a", "is_disabled": 0, "lon": -77.05312266666667, "is_reserved": 0, "fusion_lat": 0.0, "type": "electric_bike"}, {"fusion_lon": 0.0, "name": "dc185a084dc32bdd30342aa051468aec", "rental_uris": {"android": "https://dc.lft.to/lastmile_qr_scan", "ios": "https://dc.lft.to/lastmile_qr_scan"}, "lat": 38.903303333333334, "bike_id": "dc185a084dc32bdd30342aa051468aec", "is_disabled": 0, "lon": -76.9822845, "is_reserved": 0, "fusion_lat": 0.0, "type": "electric_scooter"}, {"fusion_lon": 0.0, "name": "44aa98ad0c0e26084f3e0af94c8f6c9f", "rental_uris": {"android": "https://dc.lft.to/lastmile_qr_scan", "ios": "https://dc.lft.to/lastmile_qr_scan"}, "lat": 38.87677083333333, "bike_id": "44aa98ad0c0e26084f3e0af94c8f6c9f", "is_disabled": 0, "lon": -77.01996333333334, "is_reserved": 0, "fusion_lat": 0.0, "type": "electric_scooter"}, {"fusion_lon": 0.0, "name": "dc58aaddf751aa6fd1ddc5a7593d5909", "rental_uris": {"android": "https://dc.lft.to/lastmile_qr_scan", "ios": "https://dc.lft.to/lastmile_qr_scan"}, "lat": 38.912582666666665, "bike_id": "dc58aaddf751aa6fd1ddc5a7593d5909", "is_disabled": 0, "lon": -77.03824833333333, "is_reserved": 0, "fusion_lat": 0.0, "type": "electric_scooter"}, {"fusion_lon": 0.0, "name": "ec98710680801bc114d021bdd527abb0", "rental_uris": {"android": "https://dc.lft.to/lastmile_qr_scan", "ios": "https://dc.lft.to/lastmile_qr_scan"}, "lat": 38.906759, "bike_id": "ec98710680801bc114d021bdd527abb0", "is_disabled": 0, "lon": -77.027042, "is_reserved": 0, "fusion_lat": 0.0, "type": "electric_scooter"}, {"fusion_lon": 0.0, "name": "6df557eba87c893bb0385f45429eb884", "rental_uris": {"android": "https://dc.lft.to/lastmile_qr_scan", "ios": "https://dc.lft.to/lastmile_qr_scan"}, "lat": 38.92059066666667, "bike_id": "6df557eba87c893bb0385f45429eb884", "is_disabled": 0, "lon": -77.02297, "is_reserved": 0, "fusion_lat": 0.0, "type": "electric_scooter"}, {"fusion_lon": 0.0, "name": "c32ad6ca3f200e9221053ac3404e5048", "rental_uris": {"android": "https://dc.lft.to/lastmile_qr_scan", "ios": "https://dc.lft.to/lastmile_qr_scan"}, "lat": 38.9212645, "bike_id": "c32ad6ca3f200e9221053ac3404e5048", "is_disabled": 0, "lon": -77.0208705, "is_reserved": 0, "fusion_lat": 0.0, "type": "electric_scooter"}, {"fusion_lon": 0.0, "name": "310fb6d5f4d3038848637e6cd8a30679", "rental_uris": {"android": "https://dc.lft.to/lastmile_qr_scan", "ios": "https://dc.lft.to/lastmile_qr_scan"}, "lat": 38.903931, "bike_id": "310fb6d5f4d3038848637e6cd8a30679", "is_disabled": 0, "lon": -76.98103066666667, "is_reserved": 0, "fusion_lat": 0.0, "type": "electric_scooter"}, {"fusion_lon": 0.0, "name": "1d84a0e0ddf7319c8e429eac86c62a9c", "rental_uris": {"android": "https://dc.lft.to/lastmile_qr_scan", "ios": "https://dc.lft.to/lastmile_qr_scan"}, "lat": 38.907734, "bike_id": "1d84a0e0ddf7319c8e429eac86c62a9c", "is_disabled": 0, "lon": -77.0245975, "is_reserved": 0, "fusion_lat": 0.0, "type": "electric_scooter"}, {"fusion_lon": 0.0, "name": "1a12699ca0b6c5d0a1f7fe4d71b25448", "rental_uris": {"android": "https://dc.lft.to/lastmile_qr_scan", "ios": "https://dc.lft.to/lastmile_qr_scan"}, "lat": 38.8938745, "bike_id": "1a12699ca0b6c5d0a1f7fe4d71b25448", "is_disabled": 0, "lon": -76.868474, "is_reserved": 0, "fusion_lat": 0.0, "type": "electric_bike"}, {"fusion_lon": 0.0, "name": "c7bce4a38befb2dc7f4acfa3d9209003", "rental_uris": {"android": "https://dc.lft.to/lastmile_qr_scan", "ios": "https://dc.lft.to/lastmile_qr_scan"}, "lat": 38.90043216666667, "bike_id": "c7bce4a38befb2dc7f4acfa3d9209003", "is_disabled": 0, "lon": -77.03304533333333, "is_reserved": 0, "fusion_lat": 0.0, "type": "electric_scooter"}, {"fusion_lon": 0.0, "name": "45717ee2cdfd490eee95d6d4ed848201", "rental_uris": {"android": "https://dc.lft.to/lastmile_qr_scan", "ios": "https://dc.lft.to/lastmile_qr_scan"}, "lat": 38.928005, "bike_id": "45717ee2cdfd490eee95d6d4ed848201", "is_disabled": 0, "lon": -77.0553265, "is_reserved": 0, "fusion_lat": 0.0, "type": "electric_scooter"}, {"fusion_lon": 0.0, "name": "7bf1442e539c4591f04f4c2f5141503b", "rental_uris": {"android": "https://dc.lft.to/lastmile_qr_scan", "ios": "https://dc.lft.to/lastmile_qr_scan"}, "lat": 38.90853333333333, "bike_id": "7bf1442e539c4591f04f4c2f5141503b", "is_disabled": 0, "lon": -77.01018616666667, "is_reserved": 0, "fusion_lat": 0.0, "type": "electric_scooter"}, {"fusion_lon": 0.0, "name": "109348b85880ffd22e2cd3e392e7b6c2", "rental_uris": {"android": "https://dc.lft.to/lastmile_qr_scan", "ios": "https://dc.lft.to/lastmile_qr_scan"}, "lat": 38.9350355, "bike_id": "109348b85880ffd22e2cd3e392e7b6c2", "is_disabled": 0, "lon": -77.03708166666667, "is_reserved": 0, "fusion_lat": 0.0, "type": "electric_scooter"}, {"fusion_lon": 0.0, "name": "fa372b9fd1c6b51c033ecf7312fab399", "rental_uris": {"android": "https://dc.lft.to/lastmile_qr_scan", "ios": "https://dc.lft.to/lastmile_qr_scan"}, "lat": 38.92640566666667, "bike_id": "fa372b9fd1c6b51c033ecf7312fab399", "is_disabled": 0, "lon": -77.0406455, "is_reserved": 0, "fusion_lat": 0.0, "type": "electric_scooter"}, {"fusion_lon": 0.0, "name": "6e348d5eda89a99ee6d47b57053e0f0e", "rental_uris": {"android": "https://dc.lft.to/lastmile_qr_scan", "ios": "https://dc.lft.to/lastmile_qr_scan"}, "lat": 38.924497833333334, "bike_id": "6e348d5eda89a99ee6d47b57053e0f0e", "is_disabled": 0, "lon": -77.039727, "is_reserved": 0, "fusion_lat": 0.0, "type": "electric_scooter"}, {"fusion_lon": 0.0, "name": "09c1abec0ed8ab0fa72c7e8dd5dd125b", "rental_uris": {"android": "https://dc.lft.to/lastmile_qr_scan", "ios": "https://dc.lft.to/lastmile_qr_scan"}, "lat": 38.901547666666666, "bike_id": "09c1abec0ed8ab0fa72c7e8dd5dd125b", "is_disabled": 0, "lon": -77.049984, "is_reserved": 0, "fusion_lat": 0.0, "type": "electric_scooter"}, {"fusion_lon": 0.0, "name": "ac4d892c041e7d2d4f37a155ffe684ea", "rental_uris": {"android": "https://dc.lft.to/lastmile_qr_scan", "ios": "https://dc.lft.to/lastmile_qr_scan"}, "lat": 38.90015983333333, "bike_id": "ac4d892c041e7d2d4f37a155ffe684ea", "is_disabled": 0, "lon": -77.0413615, "is_reserved": 0, "fusion_lat": 0.0, "type": "electric_scooter"}, {"fusion_lon": 0.0, "name": "4b58b02ea212d72461a9696a69ddba8d", "rental_uris": {"android": "https://dc.lft.to/lastmile_qr_scan", "ios": "https://dc.lft.to/lastmile_qr_scan"}, "lat": 38.91758733333333, "bike_id": "4b58b02ea212d72461a9696a69ddba8d", "is_disabled": 0, "lon": -77.02819166666667, "is_reserved": 0, "fusion_lat": 0.0, "type": "electric_scooter"}, {"fusion_lon": 0.0, "name": "29ab89c198d88450fcf6497d0fcedbba", "rental_uris": {"android": "https://dc.lft.to/lastmile_qr_scan", "ios": "https://dc.lft.to/lastmile_qr_scan"}, "lat": 38.90585883333333, "bike_id": "29ab89c198d88450fcf6497d0fcedbba", "is_disabled": 0, "lon": -77.04690116666667, "is_reserved": 0, "fusion_lat": 0.0, "type": "electric_scooter"}, {"fusion_lon": 0.0, "name": "ed170fedbeeb39c15e21db91c7d0d986", "rental_uris": {"android": "https://dc.lft.to/lastmile_qr_scan", "ios": "https://dc.lft.to/lastmile_qr_scan"}, "lat": 38.895649166666665, "bike_id": "ed170fedbeeb39c15e21db91c7d0d986", "is_disabled": 0, "lon": -77.04144833333334, "is_reserved": 0, "fusion_lat": 0.0, "type": "electric_scooter"}, {"fusion_lon": 0.0, "name": "9a288c6cb3975870dc9033e0b8c09e5e", "rental_uris": {"android": "https://dc.lft.to/lastmile_qr_scan", "ios": "https://dc.lft.to/lastmile_qr_scan"}, "lat": 38.9173945, "bike_id": "9a288c6cb3975870dc9033e0b8c09e5e", "is_disabled": 0, "lon": -77.02118316666666, "is_reserved": 0, "fusion_lat": 0.0, "type": "electric_scooter"}, {"fusion_lon": 0.0, "name": "eb2ff7846d320155447ac642ce7c4949", "rental_uris": {"android": "https://dc.lft.to/lastmile_qr_scan", "ios": "https://dc.lft.to/lastmile_qr_scan"}, "lat": 38.92538916666667, "bike_id": "eb2ff7846d320155447ac642ce7c4949", "is_disabled": 0, "lon": -77.03405983333333, "is_reserved": 0, "fusion_lat": 0.0, "type": "electric_scooter"}, {"fusion_lon": 0.0, "name": "8a145076919ae69435b23e6aa37347f0", "rental_uris": {"android": "https://dc.lft.to/lastmile_qr_scan", "ios": "https://dc.lft.to/lastmile_qr_scan"}, "lat": 38.90150966666667, "bike_id": "8a145076919ae69435b23e6aa37347f0", "is_disabled": 0, "lon": -76.9742355, "is_reserved": 0, "fusion_lat": 0.0, "type": "electric_scooter"}, {"fusion_lon": 0.0, "name": "50452feadb30d9f305852550f8dafe8c", "rental_uris": {"android": "https://dc.lft.to/lastmile_qr_scan", "ios": "https://dc.lft.to/lastmile_qr_scan"}, "lat": 38.93280683333333, "bike_id": "50452feadb30d9f305852550f8dafe8c", "is_disabled": 0, "lon": -77.025589, "is_reserved": 0, "fusion_lat": 0.0, "type": "electric_scooter"}, {"fusion_lon": 0.0, "name": "e5a1d40bae3f8eee7ddff2ad3c97580d", "rental_uris": {"android": "https://dc.lft.to/lastmile_qr_scan", "ios": "https://dc.lft.to/lastmile_qr_scan"}, "lat": 38.91508683333333, "bike_id": "e5a1d40bae3f8eee7ddff2ad3c97580d", "is_disabled": 0, "lon": -77.032134, "is_reserved": 0, "fusion_lat": 0.0, "type": "electric_scooter"}, {"fusion_lon": 0.0, "name": "403fe59c77e06ad7dbfad94cecdc51c4", "rental_uris": {"android": "https://dc.lft.to/lastmile_qr_scan", "ios": "https://dc.lft.to/lastmile_qr_scan"}, "lat": 38.927674333333336, "bike_id": "403fe59c77e06ad7dbfad94cecdc51c4", "is_disabled": 0, "lon": -77.03108, "is_reserved": 0, "fusion_lat": 0.0, "type": "electric_scooter"}, {"fusion_lon": 0.0, "name": "da29f75515754f6316d0e79da4bfd8ad", "rental_uris": {"android": "https://dc.lft.to/lastmile_qr_scan", "ios": "https://dc.lft.to/lastmile_qr_scan"}, "lat": 38.92083083333333, "bike_id": "da29f75515754f6316d0e79da4bfd8ad", "is_disabled": 0, "lon": -77.02302333333333, "is_reserved": 0, "fusion_lat": 0.0, "type": "electric_scooter"}, {"fusion_lon": 0.0, "name": "906ee4f2adc337cc51f30a75ec960ea3", "rental_uris": {"android": "https://dc.lft.to/lastmile_qr_scan", "ios": "https://dc.lft.to/lastmile_qr_scan"}, "lat": 38.91854433333334, "bike_id": "906ee4f2adc337cc51f30a75ec960ea3", "is_disabled": 0, "lon": -76.960905, "is_reserved": 0, "fusion_lat": 0.0, "type": "electric_bike"}, {"fusion_lon": 0.0, "name": "09be9f00521f3dbcf125fa2a39c7f586", "rental_uris": {"android": "https://dc.lft.to/lastmile_qr_scan", "ios": "https://dc.lft.to/lastmile_qr_scan"}, "lat": 38.895056833333335, "bike_id": "09be9f00521f3dbcf125fa2a39c7f586", "is_disabled": 0, "lon": -76.93475583333333, "is_reserved": 0, "fusion_lat": 0.0, "type": "electric_scooter"}, {"fusion_lon": 0.0, "name": "771cfee3fcddd65d840a6c4d7118dd28", "rental_uris": {"android": "https://dc.lft.to/lastmile_qr_scan", "ios": "https://dc.lft.to/lastmile_qr_scan"}, "lat": 38.916953166666666, "bike_id": "771cfee3fcddd65d840a6c4d7118dd28", "is_disabled": 0, "lon": -77.04336266666667, "is_reserved": 0, "fusion_lat": 0.0, "type": "electric_scooter"}, {"fusion_lon": 0.0, "name": "32f20d072bbdd40a8847c572f6b37b9e", "rental_uris": {"android": "https://dc.lft.to/lastmile_qr_scan", "ios": "https://dc.lft.to/lastmile_qr_scan"}, "lat": 38.91715083333333, "bike_id": "32f20d072bbdd40a8847c572f6b37b9e", "is_disabled": 0, "lon": -77.03868733333333, "is_reserved": 0, "fusion_lat": 0.0, "type": "electric_scooter"}, {"fusion_lon": 0.0, "name": "fe71db3223dc23a43b072aa740115f04", "rental_uris": {"android": "https://dc.lft.to/lastmile_qr_scan", "ios": "https://dc.lft.to/lastmile_qr_scan"}, "lat": 38.9156485, "bike_id": "fe71db3223dc23a43b072aa740115f04", "is_disabled": 0, "lon": -77.04495516666667, "is_reserved": 0, "fusion_lat": 0.0, "type": "electric_scooter"}, {"fusion_lon": 0.0, "name": "e4f503f64ea4ed4f517e7c321d570686", "rental_uris": {"android": "https://dc.lft.to/lastmile_qr_scan", "ios": "https://dc.lft.to/lastmile_qr_scan"}, "lat": 38.926771, "bike_id": "e4f503f64ea4ed4f517e7c321d570686", "is_disabled": 0, "lon": -77.03241483333333, "is_reserved": 0, "fusion_lat": 0.0, "type": "electric_scooter"}, {"fusion_lon": 0.0, "name": "bf59e82fbedbda009c77bc9172adf032", "rental_uris": {"android": "https://dc.lft.to/lastmile_qr_scan", "ios": "https://dc.lft.to/lastmile_qr_scan"}, "lat": 38.90518383333333, "bike_id": "bf59e82fbedbda009c77bc9172adf032", "is_disabled": 0, "lon": -77.06101033333333, "is_reserved": 0, "fusion_lat": 0.0, "type": "electric_scooter"}, {"fusion_lon": 0.0, "name": "014c7297b1f6be334e9d5b90dceeceab", "rental_uris": {"android": "https://dc.lft.to/lastmile_qr_scan", "ios": "https://dc.lft.to/lastmile_qr_scan"}, "lat": 38.8883675, "bike_id": "014c7297b1f6be334e9d5b90dceeceab", "is_disabled": 0, "lon": -76.98690483333333, "is_reserved": 0, "fusion_lat": 0.0, "type": "electric_scooter"}, {"fusion_lon": 0.0, "name": "c6cf7561146f6232f16a040091f0922b", "rental_uris": {"android": "https://dc.lft.to/lastmile_qr_scan", "ios": "https://dc.lft.to/lastmile_qr_scan"}, "lat": 38.903309166666666, "bike_id": "c6cf7561146f6232f16a040091f0922b", "is_disabled": 0, "lon": -76.97532416666667, "is_reserved": 0, "fusion_lat": 0.0, "type": "electric_bike"}, {"fusion_lon": 0.0, "name": "1a7cb0aaac2644a74447abc1141a8b55", "rental_uris": {"android": "https://dc.lft.to/lastmile_qr_scan", "ios": "https://dc.lft.to/lastmile_qr_scan"}, "lat": 38.91927, "bike_id": "1a7cb0aaac2644a74447abc1141a8b55", "is_disabled": 0, "lon": -77.01166283333333, "is_reserved": 0, "fusion_lat": 0.0, "type": "electric_scooter"}, {"fusion_lon": 0.0, "name": "73597cdbeb0eb4346b76742adc4bfe8f", "rental_uris": {"android": "https://dc.lft.to/lastmile_qr_scan", "ios": "https://dc.lft.to/lastmile_qr_scan"}, "lat": 38.920256, "bike_id": "73597cdbeb0eb4346b76742adc4bfe8f", "is_disabled": 0, "lon": -77.028058, "is_reserved": 0, "fusion_lat": 0.0, "type": "electric_scooter"}, {"fusion_lon": 0.0, "name": "35cf38c74ff135633966cb993d0a822f", "rental_uris": {"android": "https://dc.lft.to/lastmile_qr_scan", "ios": "https://dc.lft.to/lastmile_qr_scan"}, "lat": 38.910061166666665, "bike_id": "35cf38c74ff135633966cb993d0a822f", "is_disabled": 0, "lon": -76.99397883333333, "is_reserved": 0, "fusion_lat": 0.0, "type": "electric_scooter"}, {"fusion_lon": 0.0, "name": "a2ead6145bc6671cd1195e39db85395a", "rental_uris": {"android": "https://dc.lft.to/lastmile_qr_scan", "ios": "https://dc.lft.to/lastmile_qr_scan"}, "lat": 38.93118783333333, "bike_id": "a2ead6145bc6671cd1195e39db85395a", "is_disabled": 0, "lon": -77.02069866666666, "is_reserved": 0, "fusion_lat": 0.0, "type": "electric_scooter"}, {"fusion_lon": 0.0, "name": "b02b461562dddd93b93ec6535119d7a2", "rental_uris": {"android": "https://dc.lft.to/lastmile_qr_scan", "ios": "https://dc.lft.to/lastmile_qr_scan"}, "lat": 38.903295666666665, "bike_id": "b02b461562dddd93b93ec6535119d7a2", "is_disabled": 0, "lon": -76.93369166666666, "is_reserved": 0, "fusion_lat": 0.0, "type": "electric_bike"}, {"fusion_lon": 0.0, "name": "a673d5ce40af092b8270ef96c8116700", "rental_uris": {"android": "https://dc.lft.to/lastmile_qr_scan", "ios": "https://dc.lft.to/lastmile_qr_scan"}, "lat": 38.7933835, "bike_id": "a673d5ce40af092b8270ef96c8116700", "is_disabled": 0, "lon": -77.00055416666666, "is_reserved": 0, "fusion_lat": 0.0, "type": "electric_bike"}, {"fusion_lon": 0.0, "name": "e7313278fae34950a107b0a4e14e555a", "rental_uris": {"android": "https://dc.lft.to/lastmile_qr_scan", "ios": "https://dc.lft.to/lastmile_qr_scan"}, "lat": 38.888701166666664, "bike_id": "e7313278fae34950a107b0a4e14e555a", "is_disabled": 0, "lon": -77.04001616666666, "is_reserved": 0, "fusion_lat": 0.0, "type": "electric_scooter"}, {"fusion_lon": 0.0, "name": "20ed5232f281c23906b29a0cd9741dda", "rental_uris": {"android": "https://dc.lft.to/lastmile_qr_scan", "ios": "https://dc.lft.to/lastmile_qr_scan"}, "lat": 38.918614833333336, "bike_id": "20ed5232f281c23906b29a0cd9741dda", "is_disabled": 0, "lon": -77.04836516666667, "is_reserved": 0, "fusion_lat": 0.0, "type": "electric_scooter"}, {"fusion_lon": 0.0, "name": "8350516480e3a83b7b44fa3f9e7b5aaa", "rental_uris": {"android": "https://dc.lft.to/lastmile_qr_scan", "ios": "https://dc.lft.to/lastmile_qr_scan"}, "lat": 38.911804333333336, "bike_id": "8350516480e3a83b7b44fa3f9e7b5aaa", "is_disabled": 0, "lon": -77.0385565, "is_reserved": 0, "fusion_lat": 0.0, "type": "electric_scooter"}, {"fusion_lon": 0.0, "name": "81a5f69528865c0d448edcdeedd790e6", "rental_uris": {"android": "https://dc.lft.to/lastmile_qr_scan", "ios": "https://dc.lft.to/lastmile_qr_scan"}, "lat": 38.903650666666664, "bike_id": "81a5f69528865c0d448edcdeedd790e6", "is_disabled": 0, "lon": -77.039854, "is_reserved": 0, "fusion_lat": 0.0, "type": "electric_scooter"}, {"fusion_lon": 0.0, "name": "ad498c7494d1d98c11414dfd71ad0ccc", "rental_uris": {"android": "https://dc.lft.to/lastmile_qr_scan", "ios": "https://dc.lft.to/lastmile_qr_scan"}, "lat": 38.92360883333333, "bike_id": "ad498c7494d1d98c11414dfd71ad0ccc", "is_disabled": 0, "lon": -77.05030083333334, "is_reserved": 0, "fusion_lat": 0.0, "type": "electric_scooter"}, {"fusion_lon": 0.0, "name": "ab5e9c9c9c7ba049c5ba806192f4da12", "rental_uris": {"android": "https://dc.lft.to/lastmile_qr_scan", "ios": "https://dc.lft.to/lastmile_qr_scan"}, "lat": 38.9190505, "bike_id": "ab5e9c9c9c7ba049c5ba806192f4da12", "is_disabled": 0, "lon": -77.01360083333333, "is_reserved": 0, "fusion_lat": 0.0, "type": "electric_scooter"}, {"fusion_lon": 0.0, "name": "2419686dd0ae4770f8ad625c03311b10", "rental_uris": {"android": "https://dc.lft.to/lastmile_qr_scan", "ios": "https://dc.lft.to/lastmile_qr_scan"}, "lat": 39.094371833333334, "bike_id": "2419686dd0ae4770f8ad625c03311b10", "is_disabled": 0, "lon": -77.134594, "is_reserved": 0, "fusion_lat": 0.0, "type": "electric_bike"}, {"fusion_lon": 0.0, "name": "67baaa10ae8cab91d036b218b0eb0d61", "rental_uris": {"android": "https://dc.lft.to/lastmile_qr_scan", "ios": "https://dc.lft.to/lastmile_qr_scan"}, "lat": 38.91693266666667, "bike_id": "67baaa10ae8cab91d036b218b0eb0d61", "is_disabled": 0, "lon": -77.0383375, "is_reserved": 0, "fusion_lat": 0.0, "type": "electric_scooter"}, {"fusion_lon": 0.0, "name": "7f8fb9e65ffaafb687cdf3a2e4b357f4", "rental_uris": {"android": "https://dc.lft.to/lastmile_qr_scan", "ios": "https://dc.lft.to/lastmile_qr_scan"}, "lat": 38.9021875, "bike_id": "7f8fb9e65ffaafb687cdf3a2e4b357f4", "is_disabled": 0, "lon": -77.04402033333334, "is_reserved": 0, "fusion_lat": 0.0, "type": "electric_scooter"}, {"fusion_lon": 0.0, "name": "090567aa09e4e250e7bb9bfd1dc97e5a", "rental_uris": {"android": "https://dc.lft.to/lastmile_qr_scan", "ios": "https://dc.lft.to/lastmile_qr_scan"}, "lat": 38.89505066666667, "bike_id": "090567aa09e4e250e7bb9bfd1dc97e5a", "is_disabled": 0, "lon": -77.02173566666667, "is_reserved": 0, "fusion_lat": 0.0, "type": "electric_scooter"}, {"fusion_lon": 0.0, "name": "bd1d5a9ed312d631ae877c728f2c2c6c", "rental_uris": {"android": "https://dc.lft.to/lastmile_qr_scan", "ios": "https://dc.lft.to/lastmile_qr_scan"}, "lat": 38.936391666666665, "bike_id": "bd1d5a9ed312d631ae877c728f2c2c6c", "is_disabled": 0, "lon": -77.0601205, "is_reserved": 0, "fusion_lat": 0.0, "type": "electric_scooter"}, {"fusion_lon": 0.0, "name": "7dc110f70deb60d1adbe753429fa97d6", "rental_uris": {"android": "https://dc.lft.to/lastmile_qr_scan", "ios": "https://dc.lft.to/lastmile_qr_scan"}, "lat": 38.912698166666665, "bike_id": "7dc110f70deb60d1adbe753429fa97d6", "is_disabled": 0, "lon": -77.022097, "is_reserved": 0, "fusion_lat": 0.0, "type": "electric_scooter"}, {"fusion_lon": 0.0, "name": "f651317489e61aefd1a585da03c160a4", "rental_uris": {"android": "https://dc.lft.to/lastmile_qr_scan", "ios": "https://dc.lft.to/lastmile_qr_scan"}, "lat": 38.898911166666664, "bike_id": "f651317489e61aefd1a585da03c160a4", "is_disabled": 0, "lon": -77.032795, "is_reserved": 0, "fusion_lat": 0.0, "type": "electric_scooter"}, {"fusion_lon": 0.0, "name": "f4f9e46a67506732f6c2c3f0bb19dafa", "rental_uris": {"android": "https://dc.lft.to/lastmile_qr_scan", "ios": "https://dc.lft.to/lastmile_qr_scan"}, "lat": 38.923727, "bike_id": "f4f9e46a67506732f6c2c3f0bb19dafa", "is_disabled": 0, "lon": -77.021261, "is_reserved": 0, "fusion_lat": 0.0, "type": "electric_scooter"}, {"fusion_lon": 0.0, "name": "6858f9196da6449b74c609abf8288dbf", "rental_uris": {"android": "https://dc.lft.to/lastmile_qr_scan", "ios": "https://dc.lft.to/lastmile_qr_scan"}, "lat": 38.90111133333333, "bike_id": "6858f9196da6449b74c609abf8288dbf", "is_disabled": 0, "lon": -77.04992233333333, "is_reserved": 0, "fusion_lat": 0.0, "type": "electric_scooter"}, {"fusion_lon": 0.0, "name": "0b7b93c54134c209c4d2baf8df5b5717", "rental_uris": {"android": "https://dc.lft.to/lastmile_qr_scan", "ios": "https://dc.lft.to/lastmile_qr_scan"}, "lat": 38.89980933333333, "bike_id": "0b7b93c54134c209c4d2baf8df5b5717", "is_disabled": 0, "lon": -77.02146483333334, "is_reserved": 0, "fusion_lat": 0.0, "type": "electric_scooter"}, {"fusion_lon": 0.0, "name": "dcfbf6b169263eae27ff45ff9c90f93d", "rental_uris": {"android": "https://dc.lft.to/lastmile_qr_scan", "ios": "https://dc.lft.to/lastmile_qr_scan"}, "lat": 38.897072333333334, "bike_id": "dcfbf6b169263eae27ff45ff9c90f93d", "is_disabled": 0, "lon": -76.9911825, "is_reserved": 0, "fusion_lat": 0.0, "type": "electric_scooter"}, {"fusion_lon": 0.0, "name": "ec4008255316e8242216b822015604e7", "rental_uris": {"android": "https://dc.lft.to/lastmile_qr_scan", "ios": "https://dc.lft.to/lastmile_qr_scan"}, "lat": 38.883929333333334, "bike_id": "ec4008255316e8242216b822015604e7", "is_disabled": 0, "lon": -76.98559616666667, "is_reserved": 0, "fusion_lat": 0.0, "type": "electric_scooter"}, {"fusion_lon": 0.0, "name": "617a618e05343b7aa57a26a045ef11ad", "rental_uris": {"android": "https://dc.lft.to/lastmile_qr_scan", "ios": "https://dc.lft.to/lastmile_qr_scan"}, "lat": 38.92723066666667, "bike_id": "617a618e05343b7aa57a26a045ef11ad", "is_disabled": 0, "lon": -77.035527, "is_reserved": 0, "fusion_lat": 0.0, "type": "electric_scooter"}, {"fusion_lon": 0.0, "name": "5970091dc8d8ff6bd25ae15261b6dca8", "rental_uris": {"android": "https://dc.lft.to/lastmile_qr_scan", "ios": "https://dc.lft.to/lastmile_qr_scan"}, "lat": 38.945038, "bike_id": "5970091dc8d8ff6bd25ae15261b6dca8", "is_disabled": 0, "lon": -77.06387566666666, "is_reserved": 0, "fusion_lat": 0.0, "type": "electric_scooter"}, {"fusion_lon": 0.0, "name": "b71851387dc51e0ea319ac0af9ed82fa", "rental_uris": {"android": "https://dc.lft.to/lastmile_qr_scan", "ios": "https://dc.lft.to/lastmile_qr_scan"}, "lat": 38.94164883333333, "bike_id": "b71851387dc51e0ea319ac0af9ed82fa", "is_disabled": 0, "lon": -77.02559016666666, "is_reserved": 0, "fusion_lat": 0.0, "type": "electric_scooter"}, {"fusion_lon": 0.0, "name": "cd93477f2854703221503ff2240b4509", "rental_uris": {"android": "https://dc.lft.to/lastmile_qr_scan", "ios": "https://dc.lft.to/lastmile_qr_scan"}, "lat": 38.89850333333333, "bike_id": "cd93477f2854703221503ff2240b4509", "is_disabled": 0, "lon": -77.04372983333333, "is_reserved": 0, "fusion_lat": 0.0, "type": "electric_scooter"}, {"fusion_lon": 0.0, "name": "52d7f10618a13533d89806fe082d539e", "rental_uris": {"android": "https://dc.lft.to/lastmile_qr_scan", "ios": "https://dc.lft.to/lastmile_qr_scan"}, "lat": 38.90943733333334, "bike_id": "52d7f10618a13533d89806fe082d539e", "is_disabled": 0, "lon": -77.03852516666667, "is_reserved": 0, "fusion_lat": 0.0, "type": "electric_scooter"}, {"fusion_lon": 0.0, "name": "8a286ba56bbef608bd1701ee5c5d58bf", "rental_uris": {"android": "https://dc.lft.to/lastmile_qr_scan", "ios": "https://dc.lft.to/lastmile_qr_scan"}, "lat": 38.888777, "bike_id": "8a286ba56bbef608bd1701ee5c5d58bf", "is_disabled": 0, "lon": -76.990342, "is_reserved": 0, "fusion_lat": 0.0, "type": "electric_scooter"}, {"fusion_lon": 0.0, "name": "0854b1036e4a46a14db5a2aaf53e0cf1", "rental_uris": {"android": "https://dc.lft.to/lastmile_qr_scan", "ios": "https://dc.lft.to/lastmile_qr_scan"}, "lat": 38.9248065, "bike_id": "0854b1036e4a46a14db5a2aaf53e0cf1", "is_disabled": 0, "lon": -77.02243316666667, "is_reserved": 0, "fusion_lat": 0.0, "type": "electric_scooter"}, {"fusion_lon": 0.0, "name": "bff9338edc2cf49e0a74a9d43d4c9fd1", "rental_uris": {"android": "https://dc.lft.to/lastmile_qr_scan", "ios": "https://dc.lft.to/lastmile_qr_scan"}, "lat": 38.90573333333333, "bike_id": "bff9338edc2cf49e0a74a9d43d4c9fd1", "is_disabled": 0, "lon": -77.00572383333333, "is_reserved": 0, "fusion_lat": 0.0, "type": "electric_scooter"}, {"fusion_lon": 0.0, "name": "412614d9af401b087e73a3545c5560c0", "rental_uris": {"android": "https://dc.lft.to/lastmile_qr_scan", "ios": "https://dc.lft.to/lastmile_qr_scan"}, "lat": 38.87886566666667, "bike_id": "412614d9af401b087e73a3545c5560c0", "is_disabled": 0, "lon": -77.0060825, "is_reserved": 0, "fusion_lat": 0.0, "type": "electric_scooter"}, {"fusion_lon": 0.0, "name": "24607b63718a688aaa9401a69422ae02", "rental_uris": {"android": "https://dc.lft.to/lastmile_qr_scan", "ios": "https://dc.lft.to/lastmile_qr_scan"}, "lat": 38.92066766666667, "bike_id": "24607b63718a688aaa9401a69422ae02", "is_disabled": 0, "lon": -77.034632, "is_reserved": 0, "fusion_lat": 0.0, "type": "electric_scooter"}, {"fusion_lon": 0.0, "name": "3a82af761ca706dd88ee68f3f22aa7e1", "rental_uris": {"android": "https://dc.lft.to/lastmile_qr_scan", "ios": "https://dc.lft.to/lastmile_qr_scan"}, "lat": 38.918245166666665, "bike_id": "3a82af761ca706dd88ee68f3f22aa7e1", "is_disabled": 0, "lon": -77.04174866666666, "is_reserved": 0, "fusion_lat": 0.0, "type": "electric_scooter"}, {"fusion_lon": 0.0, "name": "29cf32db2eecd88a23f885eb5b46edfd", "rental_uris": {"android": "https://dc.lft.to/lastmile_qr_scan", "ios": "https://dc.lft.to/lastmile_qr_scan"}, "lat": 38.90231416666666, "bike_id": "29cf32db2eecd88a23f885eb5b46edfd", "is_disabled": 0, "lon": -77.05334116666667, "is_reserved": 0, "fusion_lat": 0.0, "type": "electric_scooter"}, {"fusion_lon": 0.0, "name": "b0ce01bc990bfef94ccd4670d8a6132c", "rental_uris": {"android": "https://dc.lft.to/lastmile_qr_scan", "ios": "https://dc.lft.to/lastmile_qr_scan"}, "lat": 38.9179005, "bike_id": "b0ce01bc990bfef94ccd4670d8a6132c", "is_disabled": 0, "lon": -77.04018083333334, "is_reserved": 0, "fusion_lat": 0.0, "type": "electric_scooter"}, {"fusion_lon": 0.0, "name": "8877446281c4975d495dc9005bc95bef", "rental_uris": {"android": "https://dc.lft.to/lastmile_qr_scan", "ios": "https://dc.lft.to/lastmile_qr_scan"}, "lat": 38.937167333333335, "bike_id": "8877446281c4975d495dc9005bc95bef", "is_disabled": 0, "lon": -77.03289733333334, "is_reserved": 0, "fusion_lat": 0.0, "type": "electric_scooter"}, {"fusion_lon": 0.0, "name": "10084cf354f06a306699daf8af06837e", "rental_uris": {"android": "https://dc.lft.to/lastmile_qr_scan", "ios": "https://dc.lft.to/lastmile_qr_scan"}, "lat": 38.9095845, "bike_id": "10084cf354f06a306699daf8af06837e", "is_disabled": 0, "lon": -77.038546, "is_reserved": 0, "fusion_lat": 0.0, "type": "electric_scooter"}, {"fusion_lon": 0.0, "name": "8a980e5859b68ccbb6ff92271978a891", "rental_uris": {"android": "https://dc.lft.to/lastmile_qr_scan", "ios": "https://dc.lft.to/lastmile_qr_scan"}, "lat": 38.919880666666664, "bike_id": "8a980e5859b68ccbb6ff92271978a891", "is_disabled": 0, "lon": -77.03268433333334, "is_reserved": 0, "fusion_lat": 0.0, "type": "electric_scooter"}, {"fusion_lon": 0.0, "name": "3814710337931a37ac2c7b61794b9945", "rental_uris": {"android": "https://dc.lft.to/lastmile_qr_scan", "ios": "https://dc.lft.to/lastmile_qr_scan"}, "lat": 38.926100166666664, "bike_id": "3814710337931a37ac2c7b61794b9945", "is_disabled": 0, "lon": -77.02169016666667, "is_reserved": 0, "fusion_lat": 0.0, "type": "electric_scooter"}, {"fusion_lon": 0.0, "name": "bc3896842b01ed9b95b7f76e2e40ea9f", "rental_uris": {"android": "https://dc.lft.to/lastmile_qr_scan", "ios": "https://dc.lft.to/lastmile_qr_scan"}, "lat": 38.92612783333333, "bike_id": "bc3896842b01ed9b95b7f76e2e40ea9f", "is_disabled": 0, "lon": -77.02228233333334, "is_reserved": 0, "fusion_lat": 0.0, "type": "electric_scooter"}, {"fusion_lon": 0.0, "name": "04d758e1f33b74e3b4a06ea0b49ae282", "rental_uris": {"android": "https://dc.lft.to/lastmile_qr_scan", "ios": "https://dc.lft.to/lastmile_qr_scan"}, "lat": 38.918201833333335, "bike_id": "04d758e1f33b74e3b4a06ea0b49ae282", "is_disabled": 0, "lon": -77.04174433333333, "is_reserved": 0, "fusion_lat": 0.0, "type": "electric_scooter"}, {"fusion_lon": 0.0, "name": "3d7b5fbb38b199b5ee233ccc30fa291c", "rental_uris": {"android": "https://dc.lft.to/lastmile_qr_scan", "ios": "https://dc.lft.to/lastmile_qr_scan"}, "lat": 38.93380333333333, "bike_id": "3d7b5fbb38b199b5ee233ccc30fa291c", "is_disabled": 0, "lon": -77.032488, "is_reserved": 0, "fusion_lat": 0.0, "type": "electric_scooter"}, {"fusion_lon": 0.0, "name": "194ef17318260b13701b17d11bd5a603", "rental_uris": {"android": "https://dc.lft.to/lastmile_qr_scan", "ios": "https://dc.lft.to/lastmile_qr_scan"}, "lat": 38.91842233333333, "bike_id": "194ef17318260b13701b17d11bd5a603", "is_disabled": 0, "lon": -77.03858366666667, "is_reserved": 0, "fusion_lat": 0.0, "type": "electric_scooter"}, {"fusion_lon": 0.0, "name": "e03db452c1ffc1c166b8260dc4a46764", "rental_uris": {"android": "https://dc.lft.to/lastmile_qr_scan", "ios": "https://dc.lft.to/lastmile_qr_scan"}, "lat": 38.9187585, "bike_id": "e03db452c1ffc1c166b8260dc4a46764", "is_disabled": 0, "lon": -77.03505683333333, "is_reserved": 0, "fusion_lat": 0.0, "type": "electric_scooter"}, {"fusion_lon": 0.0, "name": "32bdc0a27707c0a68c2b39056ef0bbf8", "rental_uris": {"android": "https://dc.lft.to/lastmile_qr_scan", "ios": "https://dc.lft.to/lastmile_qr_scan"}, "lat": 38.924412333333336, "bike_id": "32bdc0a27707c0a68c2b39056ef0bbf8", "is_disabled": 0, "lon": -77.02159316666666, "is_reserved": 0, "fusion_lat": 0.0, "type": "electric_scooter"}, {"fusion_lon": 0.0, "name": "c3c22c95d5f1d5ae74e742b547b07395", "rental_uris": {"android": "https://dc.lft.to/lastmile_qr_scan", "ios": "https://dc.lft.to/lastmile_qr_scan"}, "lat": 38.996772, "bike_id": "c3c22c95d5f1d5ae74e742b547b07395", "is_disabled": 0, "lon": -77.037766, "is_reserved": 0, "fusion_lat": 0.0, "type": "electric_bike"}, {"fusion_lon": 0.0, "name": "f6b988039599d327807da6b675054240", "rental_uris": {"android": "https://dc.lft.to/lastmile_qr_scan", "ios": "https://dc.lft.to/lastmile_qr_scan"}, "lat": 38.903673, "bike_id": "f6b988039599d327807da6b675054240", "is_disabled": 0, "lon": -77.0321635, "is_reserved": 0, "fusion_lat": 0.0, "type": "electric_scooter"}, {"fusion_lon": 0.0, "name": "b72a06bffa993b62d6de9e53a8c40ec0", "rental_uris": {"android": "https://dc.lft.to/lastmile_qr_scan", "ios": "https://dc.lft.to/lastmile_qr_scan"}, "lat": 38.969160333333335, "bike_id": "b72a06bffa993b62d6de9e53a8c40ec0", "is_disabled": 0, "lon": -76.9949205, "is_reserved": 0, "fusion_lat": 0.0, "type": "electric_bike"}, {"fusion_lon": 0.0, "name": "1f951bc71208657c84070c73de339a45", "rental_uris": {"android": "https://dc.lft.to/lastmile_qr_scan", "ios": "https://dc.lft.to/lastmile_qr_scan"}, "lat": 38.924377666666665, "bike_id": "1f951bc71208657c84070c73de339a45", "is_disabled": 0, "lon": -77.05209366666666, "is_reserved": 0, "fusion_lat": 0.0, "type": "electric_scooter"}, {"fusion_lon": 0.0, "name": "0cb0949d03cf18dda4898d970d68edbd", "rental_uris": {"android": "https://dc.lft.to/lastmile_qr_scan", "ios": "https://dc.lft.to/lastmile_qr_scan"}, "lat": 38.92471716666667, "bike_id": "0cb0949d03cf18dda4898d970d68edbd", "is_disabled": 0, "lon": -77.02205, "is_reserved": 0, "fusion_lat": 0.0, "type": "electric_scooter"}, {"fusion_lon": 0.0, "name": "42164e185194ea41fcd5ea7be0b786f8", "rental_uris": {"android": "https://dc.lft.to/lastmile_qr_scan", "ios": "https://dc.lft.to/lastmile_qr_scan"}, "lat": 38.91357766666667, "bike_id": "42164e185194ea41fcd5ea7be0b786f8", "is_disabled": 0, "lon": -77.02003666666667, "is_reserved": 0, "fusion_lat": 0.0, "type": "electric_scooter"}, {"fusion_lon": 0.0, "name": "e6371d0a465c99213bd0580ebc1081dd", "rental_uris": {"android": "https://dc.lft.to/lastmile_qr_scan", "ios": "https://dc.lft.to/lastmile_qr_scan"}, "lat": 38.878605, "bike_id": "e6371d0a465c99213bd0580ebc1081dd", "is_disabled": 0, "lon": -77.00486366666667, "is_reserved": 0, "fusion_lat": 0.0, "type": "electric_scooter"}, {"fusion_lon": 0.0, "name": "c6ab247dc9624d096540455e0eeb4863", "rental_uris": {"android": "https://dc.lft.to/lastmile_qr_scan", "ios": "https://dc.lft.to/lastmile_qr_scan"}, "lat": 38.909997, "bike_id": "c6ab247dc9624d096540455e0eeb4863", "is_disabled": 0, "lon": -77.0400635, "is_reserved": 0, "fusion_lat": 0.0, "type": "electric_scooter"}, {"fusion_lon": 0.0, "name": "fefbbb28fd2157f9295431adec54b6b1", "rental_uris": {"android": "https://dc.lft.to/lastmile_qr_scan", "ios": "https://dc.lft.to/lastmile_qr_scan"}, "lat": 38.912531666666666, "bike_id": "fefbbb28fd2157f9295431adec54b6b1", "is_disabled": 0, "lon": -77.04553316666667, "is_reserved": 0, "fusion_lat": 0.0, "type": "electric_scooter"}, {"fusion_lon": 0.0, "name": "bf79fcda26db26576a9d5ecf7ec76ae3", "rental_uris": {"android": "https://dc.lft.to/lastmile_qr_scan", "ios": "https://dc.lft.to/lastmile_qr_scan"}, "lat": 38.800537, "bike_id": "bf79fcda26db26576a9d5ecf7ec76ae3", "is_disabled": 0, "lon": -77.12837333333333, "is_reserved": 0, "fusion_lat": 0.0, "type": "electric_bike"}, {"fusion_lon": 0.0, "name": "8050311ce74764a92d3e376d995edbcc", "rental_uris": {"android": "https://dc.lft.to/lastmile_qr_scan", "ios": "https://dc.lft.to/lastmile_qr_scan"}, "lat": 38.90040166666667, "bike_id": "8050311ce74764a92d3e376d995edbcc", "is_disabled": 0, "lon": -77.00216883333333, "is_reserved": 0, "fusion_lat": 0.0, "type": "electric_scooter"}, {"fusion_lon": 0.0, "name": "d7eb7cf2ff11a5de395679a19d70ad3f", "rental_uris": {"android": "https://dc.lft.to/lastmile_qr_scan", "ios": "https://dc.lft.to/lastmile_qr_scan"}, "lat": 38.90631833333333, "bike_id": "d7eb7cf2ff11a5de395679a19d70ad3f", "is_disabled": 0, "lon": -77.05126566666667, "is_reserved": 0, "fusion_lat": 0.0, "type": "electric_scooter"}, {"fusion_lon": 0.0, "name": "1f28e6ec0a3fdc57a78c349232db6288", "rental_uris": {"android": "https://dc.lft.to/lastmile_qr_scan", "ios": "https://dc.lft.to/lastmile_qr_scan"}, "lat": 38.89421016666667, "bike_id": "1f28e6ec0a3fdc57a78c349232db6288", "is_disabled": 0, "lon": -76.997684, "is_reserved": 0, "fusion_lat": 0.0, "type": "electric_scooter"}, {"fusion_lon": 0.0, "name": "3c7d408ac0b76ed6fe25405a24e3ef97", "rental_uris": {"android": "https://dc.lft.to/lastmile_qr_scan", "ios": "https://dc.lft.to/lastmile_qr_scan"}, "lat": 38.892202833333336, "bike_id": "3c7d408ac0b76ed6fe25405a24e3ef97", "is_disabled": 0, "lon": -77.0436375, "is_reserved": 0, "fusion_lat": 0.0, "type": "electric_scooter"}, {"fusion_lon": 0.0, "name": "3befccebd3d1531bf3504984bf00dfe8", "rental_uris": {"android": "https://dc.lft.to/lastmile_qr_scan", "ios": "https://dc.lft.to/lastmile_qr_scan"}, "lat": 38.931111333333334, "bike_id": "3befccebd3d1531bf3504984bf00dfe8", "is_disabled": 0, "lon": -77.03509316666667, "is_reserved": 0, "fusion_lat": 0.0, "type": "electric_scooter"}, {"fusion_lon": 0.0, "name": "c8682915a0b9d1c6277d34cf7537d585", "rental_uris": {"android": "https://dc.lft.to/lastmile_qr_scan", "ios": "https://dc.lft.to/lastmile_qr_scan"}, "lat": 38.88322616666667, "bike_id": "c8682915a0b9d1c6277d34cf7537d585", "is_disabled": 0, "lon": -77.00962883333334, "is_reserved": 0, "fusion_lat": 0.0, "type": "electric_scooter"}, {"fusion_lon": 0.0, "name": "56bb29ce66bd5d526824499bba38f750", "rental_uris": {"android": "https://dc.lft.to/lastmile_qr_scan", "ios": "https://dc.lft.to/lastmile_qr_scan"}, "lat": 38.9156885, "bike_id": "56bb29ce66bd5d526824499bba38f750", "is_disabled": 0, "lon": -77.0461855, "is_reserved": 0, "fusion_lat": 0.0, "type": "electric_scooter"}, {"fusion_lon": 0.0, "name": "aad21b025fa0e1f3d03cb44aa4cd728a", "rental_uris": {"android": "https://dc.lft.to/lastmile_qr_scan", "ios": "https://dc.lft.to/lastmile_qr_scan"}, "lat": 38.927927833333335, "bike_id": "aad21b025fa0e1f3d03cb44aa4cd728a", "is_disabled": 0, "lon": -77.03151616666666, "is_reserved": 0, "fusion_lat": 0.0, "type": "electric_scooter"}, {"fusion_lon": 0.0, "name": "ea451033cdc2e94199feca217166d415", "rental_uris": {"android": "https://dc.lft.to/lastmile_qr_scan", "ios": "https://dc.lft.to/lastmile_qr_scan"}, "lat": 38.909022666666665, "bike_id": "ea451033cdc2e94199feca217166d415", "is_disabled": 0, "lon": -76.98393266666666, "is_reserved": 0, "fusion_lat": 0.0, "type": "electric_scooter"}, {"fusion_lon": 0.0, "name": "6732579766144028ef793df6b9fffcc1", "rental_uris": {"android": "https://dc.lft.to/lastmile_qr_scan", "ios": "https://dc.lft.to/lastmile_qr_scan"}, "lat": 38.900588, "bike_id": "6732579766144028ef793df6b9fffcc1", "is_disabled": 0, "lon": -76.98487366666667, "is_reserved": 0, "fusion_lat": 0.0, "type": "electric_scooter"}, {"fusion_lon": 0.0, "name": "c087f713a3a4aaf692f95bdb5212c614", "rental_uris": {"android": "https://dc.lft.to/lastmile_qr_scan", "ios": "https://dc.lft.to/lastmile_qr_scan"}, "lat": 38.912510166666664, "bike_id": "c087f713a3a4aaf692f95bdb5212c614", "is_disabled": 0, "lon": -77.0319195, "is_reserved": 0, "fusion_lat": 0.0, "type": "electric_scooter"}, {"fusion_lon": 0.0, "name": "b25d115ad5adb677b40f65d8b65feaac", "rental_uris": {"android": "https://dc.lft.to/lastmile_qr_scan", "ios": "https://dc.lft.to/lastmile_qr_scan"}, "lat": 38.9180165, "bike_id": "b25d115ad5adb677b40f65d8b65feaac", "is_disabled": 0, "lon": -77.03102066666666, "is_reserved": 0, "fusion_lat": 0.0, "type": "electric_scooter"}, {"fusion_lon": 0.0, "name": "93cf6396e22f6d8c33bb50295d20dae9", "rental_uris": {"android": "https://dc.lft.to/lastmile_qr_scan", "ios": "https://dc.lft.to/lastmile_qr_scan"}, "lat": 38.923858833333334, "bike_id": "93cf6396e22f6d8c33bb50295d20dae9", "is_disabled": 0, "lon": -77.043129, "is_reserved": 0, "fusion_lat": 0.0, "type": "electric_scooter"}, {"fusion_lon": 0.0, "name": "c04ff461d958cbb7b57ac5bdddb0d5c5", "rental_uris": {"android": "https://dc.lft.to/lastmile_qr_scan", "ios": "https://dc.lft.to/lastmile_qr_scan"}, "lat": 38.897397833333336, "bike_id": "c04ff461d958cbb7b57ac5bdddb0d5c5", "is_disabled": 0, "lon": -77.01384816666666, "is_reserved": 0, "fusion_lat": 0.0, "type": "electric_scooter"}, {"fusion_lon": 0.0, "name": "9bc16f3f72e72db13b6481b1be40fd17", "rental_uris": {"android": "https://dc.lft.to/lastmile_qr_scan", "ios": "https://dc.lft.to/lastmile_qr_scan"}, "lat": 38.92476, "bike_id": "9bc16f3f72e72db13b6481b1be40fd17", "is_disabled": 0, "lon": -77.031048, "is_reserved": 0, "fusion_lat": 0.0, "type": "electric_scooter"}, {"fusion_lon": 0.0, "name": "0f5f5799b8b43e7077d2857235d772f6", "rental_uris": {"android": "https://dc.lft.to/lastmile_qr_scan", "ios": "https://dc.lft.to/lastmile_qr_scan"}, "lat": 38.897431833333336, "bike_id": "0f5f5799b8b43e7077d2857235d772f6", "is_disabled": 0, "lon": -77.027021, "is_reserved": 0, "fusion_lat": 0.0, "type": "electric_scooter"}, {"fusion_lon": 0.0, "name": "d35eda5203dc40fefbc8cb6658492a9a", "rental_uris": {"android": "https://dc.lft.to/lastmile_qr_scan", "ios": "https://dc.lft.to/lastmile_qr_scan"}, "lat": 38.88625433333333, "bike_id": "d35eda5203dc40fefbc8cb6658492a9a", "is_disabled": 0, "lon": -77.031661, "is_reserved": 0, "fusion_lat": 0.0, "type": "electric_scooter"}, {"fusion_lon": 0.0, "name": "95b6ef98630f6301342599bd68d2fa7a", "rental_uris": {"android": "https://dc.lft.to/lastmile_qr_scan", "ios": "https://dc.lft.to/lastmile_qr_scan"}, "lat": 38.922185666666664, "bike_id": "95b6ef98630f6301342599bd68d2fa7a", "is_disabled": 0, "lon": -77.02419766666667, "is_reserved": 0, "fusion_lat": 0.0, "type": "electric_scooter"}, {"fusion_lon": 0.0, "name": "7ab6faa588d1ba7b10581968711a2c73", "rental_uris": {"android": "https://dc.lft.to/lastmile_qr_scan", "ios": "https://dc.lft.to/lastmile_qr_scan"}, "lat": 38.950236833333335, "bike_id": "7ab6faa588d1ba7b10581968711a2c73", "is_disabled": 0, "lon": -77.067106, "is_reserved": 0, "fusion_lat": 0.0, "type": "electric_scooter"}, {"fusion_lon": 0.0, "name": "7316998e2cf14d0c5ef906f45eabf57e", "rental_uris": {"android": "https://dc.lft.to/lastmile_qr_scan", "ios": "https://dc.lft.to/lastmile_qr_scan"}, "lat": 38.9018135, "bike_id": "7316998e2cf14d0c5ef906f45eabf57e", "is_disabled": 0, "lon": -77.00125533333333, "is_reserved": 0, "fusion_lat": 0.0, "type": "electric_scooter"}, {"fusion_lon": 0.0, "name": "5d9cf316123777860b076dea5048265b", "rental_uris": {"android": "https://dc.lft.to/lastmile_qr_scan", "ios": "https://dc.lft.to/lastmile_qr_scan"}, "lat": 38.89327866666667, "bike_id": "5d9cf316123777860b076dea5048265b", "is_disabled": 0, "lon": -77.04679133333333, "is_reserved": 0, "fusion_lat": 0.0, "type": "electric_scooter"}, {"fusion_lon": 0.0, "name": "5f18c7807a5fdb95f5cd903d80c8791b", "rental_uris": {"android": "https://dc.lft.to/lastmile_qr_scan", "ios": "https://dc.lft.to/lastmile_qr_scan"}, "lat": 38.78396683333333, "bike_id": "5f18c7807a5fdb95f5cd903d80c8791b", "is_disabled": 0, "lon": -77.12074083333333, "is_reserved": 0, "fusion_lat": 0.0, "type": "electric_bike"}, {"fusion_lon": 0.0, "name": "6f3ea12bc6b7c0719190a049c94ba63b", "rental_uris": {"android": "https://dc.lft.to/lastmile_qr_scan", "ios": "https://dc.lft.to/lastmile_qr_scan"}, "lat": 38.934930666666666, "bike_id": "6f3ea12bc6b7c0719190a049c94ba63b", "is_disabled": 0, "lon": -77.04454433333333, "is_reserved": 0, "fusion_lat": 0.0, "type": "electric_scooter"}, {"fusion_lon": 0.0, "name": "fd2bf1a77e7b135b68d139f8834f5871", "rental_uris": {"android": "https://dc.lft.to/lastmile_qr_scan", "ios": "https://dc.lft.to/lastmile_qr_scan"}, "lat": 38.91803566666667, "bike_id": "fd2bf1a77e7b135b68d139f8834f5871", "is_disabled": 0, "lon": -77.03148333333333, "is_reserved": 0, "fusion_lat": 0.0, "type": "electric_scooter"}, {"fusion_lon": 0.0, "name": "bbe50cc124831732f823cc9ddf13ecad", "rental_uris": {"android": "https://dc.lft.to/lastmile_qr_scan", "ios": "https://dc.lft.to/lastmile_qr_scan"}, "lat": 38.90111316666667, "bike_id": "bbe50cc124831732f823cc9ddf13ecad", "is_disabled": 0, "lon": -77.04485433333333, "is_reserved": 0, "fusion_lat": 0.0, "type": "electric_scooter"}, {"fusion_lon": 0.0, "name": "7550c4b62a46859436abe36fc069a49b", "rental_uris": {"android": "https://dc.lft.to/lastmile_qr_scan", "ios": "https://dc.lft.to/lastmile_qr_scan"}, "lat": 38.86247083333333, "bike_id": "7550c4b62a46859436abe36fc069a49b", "is_disabled": 0, "lon": -76.99498633333333, "is_reserved": 0, "fusion_lat": 0.0, "type": "electric_scooter"}, {"fusion_lon": 0.0, "name": "756ea550e38bc8aa3a55147576f2967c", "rental_uris": {"android": "https://dc.lft.to/lastmile_qr_scan", "ios": "https://dc.lft.to/lastmile_qr_scan"}, "lat": 38.90484333333333, "bike_id": "756ea550e38bc8aa3a55147576f2967c", "is_disabled": 0, "lon": -77.0486835, "is_reserved": 0, "fusion_lat": 0.0, "type": "electric_scooter"}, {"fusion_lon": 0.0, "name": "fad845ccf4b8c17d63b057832e6230f5", "rental_uris": {"android": "https://dc.lft.to/lastmile_qr_scan", "ios": "https://dc.lft.to/lastmile_qr_scan"}, "lat": 38.92327133333333, "bike_id": "fad845ccf4b8c17d63b057832e6230f5", "is_disabled": 0, "lon": -77.01959033333333, "is_reserved": 0, "fusion_lat": 0.0, "type": "electric_scooter"}, {"fusion_lon": 0.0, "name": "525cd8dd71bc0e4c9dcf05ed42d4da51", "rental_uris": {"android": "https://dc.lft.to/lastmile_qr_scan", "ios": "https://dc.lft.to/lastmile_qr_scan"}, "lat": 38.928652166666666, "bike_id": "525cd8dd71bc0e4c9dcf05ed42d4da51", "is_disabled": 0, "lon": -77.03340883333334, "is_reserved": 0, "fusion_lat": 0.0, "type": "electric_scooter"}, {"fusion_lon": 0.0, "name": "1888b8dd7782ed6fd2403cbb87992bda", "rental_uris": {"android": "https://dc.lft.to/lastmile_qr_scan", "ios": "https://dc.lft.to/lastmile_qr_scan"}, "lat": 38.925976, "bike_id": "1888b8dd7782ed6fd2403cbb87992bda", "is_disabled": 0, "lon": -77.02435866666667, "is_reserved": 0, "fusion_lat": 0.0, "type": "electric_bike"}, {"fusion_lon": 0.0, "name": "e51dcf754a836502959d2cf8ce142f2c", "rental_uris": {"android": "https://dc.lft.to/lastmile_qr_scan", "ios": "https://dc.lft.to/lastmile_qr_scan"}, "lat": 38.89712266666667, "bike_id": "e51dcf754a836502959d2cf8ce142f2c", "is_disabled": 0, "lon": -76.99119733333333, "is_reserved": 0, "fusion_lat": 0.0, "type": "electric_scooter"}, {"fusion_lon": 0.0, "name": "c3e0322d8a6d0959d17f7bcb7ab5cffb", "rental_uris": {"android": "https://dc.lft.to/lastmile_qr_scan", "ios": "https://dc.lft.to/lastmile_qr_scan"}, "lat": 38.89881333333334, "bike_id": "c3e0322d8a6d0959d17f7bcb7ab5cffb", "is_disabled": 0, "lon": -76.98837116666667, "is_reserved": 0, "fusion_lat": 0.0, "type": "electric_scooter"}, {"fusion_lon": 0.0, "name": "0e653122beff8908220b9ecbe657d71f", "rental_uris": {"android": "https://dc.lft.to/lastmile_qr_scan", "ios": "https://dc.lft.to/lastmile_qr_scan"}, "lat": 38.989919666666665, "bike_id": "0e653122beff8908220b9ecbe657d71f", "is_disabled": 0, "lon": -77.03361966666667, "is_reserved": 0, "fusion_lat": 0.0, "type": "electric_scooter"}, {"fusion_lon": 0.0, "name": "b810954e2f6d81b30364c5fa3faa8c31", "rental_uris": {"android": "https://dc.lft.to/lastmile_qr_scan", "ios": "https://dc.lft.to/lastmile_qr_scan"}, "lat": 38.89815133333333, "bike_id": "b810954e2f6d81b30364c5fa3faa8c31", "is_disabled": 0, "lon": -76.990616, "is_reserved": 0, "fusion_lat": 0.0, "type": "electric_bike"}, {"fusion_lon": 0.0, "name": "e931656cdb512b562c226d98ebd16464", "rental_uris": {"android": "https://dc.lft.to/lastmile_qr_scan", "ios": "https://dc.lft.to/lastmile_qr_scan"}, "lat": 38.92641583333333, "bike_id": "e931656cdb512b562c226d98ebd16464", "is_disabled": 0, "lon": -77.0250625, "is_reserved": 0, "fusion_lat": 0.0, "type": "electric_scooter"}, {"fusion_lon": 0.0, "name": "802d3db5075763333f8ef612d66cdd51", "rental_uris": {"android": "https://dc.lft.to/lastmile_qr_scan", "ios": "https://dc.lft.to/lastmile_qr_scan"}, "lat": 38.8860165, "bike_id": "802d3db5075763333f8ef612d66cdd51", "is_disabled": 0, "lon": -77.045135, "is_reserved": 0, "fusion_lat": 0.0, "type": "electric_scooter"}, {"fusion_lon": 0.0, "name": "936a1f45f9237ba38c8f1fe044f5c1b8", "rental_uris": {"android": "https://dc.lft.to/lastmile_qr_scan", "ios": "https://dc.lft.to/lastmile_qr_scan"}, "lat": 38.923608333333334, "bike_id": "936a1f45f9237ba38c8f1fe044f5c1b8", "is_disabled": 0, "lon": -77.019528, "is_reserved": 0, "fusion_lat": 0.0, "type": "electric_scooter"}, {"fusion_lon": 0.0, "name": "a138bdb35f300da37121d7ab2ae367a0", "rental_uris": {"android": "https://dc.lft.to/lastmile_qr_scan", "ios": "https://dc.lft.to/lastmile_qr_scan"}, "lat": 38.89692816666667, "bike_id": "a138bdb35f300da37121d7ab2ae367a0", "is_disabled": 0, "lon": -77.00504516666666, "is_reserved": 0, "fusion_lat": 0.0, "type": "electric_scooter"}, {"fusion_lon": 0.0, "name": "df9429feac64051d38f20c8c4c9ddb9d", "rental_uris": {"android": "https://dc.lft.to/lastmile_qr_scan", "ios": "https://dc.lft.to/lastmile_qr_scan"}, "lat": 38.92357916666667, "bike_id": "df9429feac64051d38f20c8c4c9ddb9d", "is_disabled": 0, "lon": -77.05425616666666, "is_reserved": 0, "fusion_lat": 0.0, "type": "electric_scooter"}, {"fusion_lon": 0.0, "name": "cdeff1afc1a9cdac591ab7e11f6ade36", "rental_uris": {"android": "https://dc.lft.to/lastmile_qr_scan", "ios": "https://dc.lft.to/lastmile_qr_scan"}, "lat": 38.951813666666666, "bike_id": "cdeff1afc1a9cdac591ab7e11f6ade36", "is_disabled": 0, "lon": -77.02614883333334, "is_reserved": 0, "fusion_lat": 0.0, "type": "electric_scooter"}, {"fusion_lon": 0.0, "name": "b41f994403f0582a5dd38b1be34eb2ef", "rental_uris": {"android": "https://dc.lft.to/lastmile_qr_scan", "ios": "https://dc.lft.to/lastmile_qr_scan"}, "lat": 38.920532, "bike_id": "b41f994403f0582a5dd38b1be34eb2ef", "is_disabled": 0, "lon": -77.04185233333334, "is_reserved": 0, "fusion_lat": 0.0, "type": "electric_scooter"},