{"data": {"bikes": [{"rental_uris": {"ios": "https://dc.lft.to/lastmile_qr_scan", "android": "https://dc.lft.to/lastmile_qr_scan"}, "type": "electric_scooter", "name": "78e5582f0363a3373454a62a9113e7ac", "is_reserved": 0, "lon": -77.01463833333334, "is_disabled": 0, "fusion_lat": 0.0, "lat": 38.879376666666666, "bike_id": "78e5582f0363a3373454a62a9113e7ac", "fusion_lon": 0.0}, {"rental_uris": {"ios": "https://dc.lft.to/lastmile_qr_scan", "android": "https://dc.lft.to/lastmile_qr_scan"}, "type": "electric_scooter", "name": "b8f522d262d4acc572f3173a5e540f73", "is_reserved": 0, "lon": -77.03853083333334, "is_disabled": 0, "fusion_lat": 0.0, "lat": 38.932414333333334, "bike_id": "b8f522d262d4acc572f3173a5e540f73", "fusion_lon": 0.0}, {"rental_uris": {"ios": "https://dc.lft.to/lastmile_qr_scan", "android": "https://dc.lft.to/lastmile_qr_scan"}, "type": "electric_scooter", "name": "5aaedc4f8254daa6f5f33abe60c0c32b", "is_reserved": 0, "lon": -76.929125, "is_disabled": 0, "fusion_lat": 0.0, "lat": 38.8927065, "bike_id": "5aaedc4f8254daa6f5f33abe60c0c32b", "fusion_lon": 0.0}, {"rental_uris": {"ios": "https://dc.lft.to/lastmile_qr_scan", "android": "https://dc.lft.to/lastmile_qr_scan"}, "type": "electric_bike", "name": "05488f6541dccab8c6ef6d5bbcfeb4b8", "is_reserved": 0, "lon": -77.0945025, "is_disabled": 0, "fusion_lat": 0.0, "lat": 38.807531, "bike_id": "05488f6541dccab8c6ef6d5bbcfeb4b8", "fusion_lon": 0.0}, {"rental_uris": {"ios": "https://dc.lft.to/lastmile_qr_scan", "android": "https://dc.lft.to/lastmile_qr_scan"}, "type": "electric_scooter", "name": "38d3efee5d4abadbc479998d6ca29f7f", "is_reserved": 0, "lon": -77.02005166666666, "is_disabled": 0, "fusion_lat": 0.0, "lat": 38.905117, "bike_id": "38d3efee5d4abadbc479998d6ca29f7f", "fusion_lon": 0.0}, {"rental_uris": {"ios": "https://dc.lft.to/lastmile_qr_scan", "android": "https://dc.lft.to/lastmile_qr_scan"}, "type": "electric_scooter", "name": "3b1cfd2b5996cd2c6ba60526140954e0", "is_reserved": 0, "lon": -76.97212, "is_disabled": 0, "fusion_lat": 0.0, "lat": 38.917201, "bike_id": "3b1cfd2b5996cd2c6ba60526140954e0", "fusion_lon": 0.0}, {"rental_uris": {"ios": "https://dc.lft.to/lastmile_qr_scan", "android": "https://dc.lft.to/lastmile_qr_scan"}, "type": "electric_scooter", "name": "b0cc7379d70c77ee9a130ea6ed982abb", "is_reserved": 0, "lon": -77.01377333333333, "is_disabled": 0, "fusion_lat": 0.0, "lat": 38.898236833333335, "bike_id": "b0cc7379d70c77ee9a130ea6ed982abb", "fusion_lon": 0.0}, {"rental_uris": {"ios": "https://dc.lft.to/lastmile_qr_scan", "android": "https://dc.lft.to/lastmile_qr_scan"}, "type": "electric_bike", "name": "b5d740604d763c5c2bc0fb0b8b5b27cb", "is_reserved": 0, "lon": -77.07278566666666, "is_disabled": 0, "fusion_lat": 0.0, "lat": 38.91762416666667, "bike_id": "b5d740604d763c5c2bc0fb0b8b5b27cb", "fusion_lon": 0.0}, {"rental_uris": {"ios": "https://dc.lft.to/lastmile_qr_scan", "android": "https://dc.lft.to/lastmile_qr_scan"}, "type": "electric_scooter", "name": "ca352d78ae1e688e585c633de01d142b", "is_reserved": 0, "lon": -77.0440705, "is_disabled": 0, "fusion_lat": 0.0, "lat": 38.89600133333333, "bike_id": "ca352d78ae1e688e585c633de01d142b", "fusion_lon": 0.0}, {"rental_uris": {"ios": "https://dc.lft.to/lastmile_qr_scan", "android": "https://dc.lft.to/lastmile_qr_scan"}, "type": "electric_scooter", "name": "ec178f9fa34c344bfeb61a8f283f7d42", "is_reserved": 0, "lon": -77.02201316666667, "is_disabled": 0, "fusion_lat": 0.0, "lat": 38.951602666666666, "bike_id": "ec178f9fa34c344bfeb61a8f283f7d42", "fusion_lon": 0.0}, {"rental_uris": {"ios": "https://dc.lft.to/lastmile_qr_scan", "android": "https://dc.lft.to/lastmile_qr_scan"}, "type": "electric_scooter", "name": "47677a3a68536f84e0f683f2f03c6bd5", "is_reserved": 0, "lon": -77.04395666666667, "is_disabled": 0, "fusion_lat": 0.0, "lat": 38.920337, "bike_id": "47677a3a68536f84e0f683f2f03c6bd5", "fusion_lon": 0.0}, {"rental_uris": {"ios": "https://dc.lft.to/lastmile_qr_scan", "android": "https://dc.lft.to/lastmile_qr_scan"}, "type": "electric_scooter", "name": "14f4ad313a61218cf1471ca5e66c1d3a", "is_reserved": 0, "lon": -77.04267383333334, "is_disabled": 0, "fusion_lat": 0.0, "lat": 38.9223885, "bike_id": "14f4ad313a61218cf1471ca5e66c1d3a", "fusion_lon": 0.0}, {"rental_uris": {"ios": "https://dc.lft.to/lastmile_qr_scan", "android": "https://dc.lft.to/lastmile_qr_scan"}, "type": "electric_scooter", "name": "06533b6b7e4df4b3575296606f032d1b", "is_reserved": 0, "lon": -77.021097, "is_disabled": 0, "fusion_lat": 0.0, "lat": 38.909408166666665, "bike_id": "06533b6b7e4df4b3575296606f032d1b", "fusion_lon": 0.0}, {"rental_uris": {"ios": "https://dc.lft.to/lastmile_qr_scan", "android": "https://dc.lft.to/lastmile_qr_scan"}, "type": "electric_bike", "name": "b61753b11fb32924a73416dbb0534fea", "is_reserved": 0, "lon": -77.08568, "is_disabled": 0, "fusion_lat": 0.0, "lat": 38.87422, "bike_id": "b61753b11fb32924a73416dbb0534fea", "fusion_lon": 0.0}, {"rental_uris": {"ios": "https://dc.lft.to/lastmile_qr_scan", "android": "https://dc.lft.to/lastmile_qr_scan"}, "type": "electric_scooter", "name": "7ae9b64fb36088339a51816af2263eee", "is_reserved": 0, "lon": -76.98811866666667, "is_disabled": 0, "fusion_lat": 0.0, "lat": 38.900170833333334, "bike_id": "7ae9b64fb36088339a51816af2263eee", "fusion_lon": 0.0}, {"rental_uris": {"ios": "https://dc.lft.to/lastmile_qr_scan", "android": "https://dc.lft.to/lastmile_qr_scan"}, "type": "electric_scooter", "name": "26ddd239d01277e815f6a89369e10d81", "is_reserved": 0, "lon": -77.04184833333333, "is_disabled": 0, "fusion_lat": 0.0, "lat": 38.920591333333334, "bike_id": "26ddd239d01277e815f6a89369e10d81", "fusion_lon": 0.0}, {"rental_uris": {"ios": "https://dc.lft.to/lastmile_qr_scan", "android": "https://dc.lft.to/lastmile_qr_scan"}, "type": "electric_scooter", "name": "d253f8716f5d592b21c14fded6acfb20", "is_reserved": 0, "lon": -76.998906, "is_disabled": 0, "fusion_lat": 0.0, "lat": 38.95298583333334, "bike_id": "d253f8716f5d592b21c14fded6acfb20", "fusion_lon": 0.0}, {"rental_uris": {"ios": "https://dc.lft.to/lastmile_qr_scan", "android": "https://dc.lft.to/lastmile_qr_scan"}, "type": "electric_scooter", "name": "4f93c2c0e45198f86a9dd51f42604c88", "is_reserved": 0, "lon": -77.044368, "is_disabled": 0, "fusion_lat": 0.0, "lat": 38.9182945, "bike_id": "4f93c2c0e45198f86a9dd51f42604c88", "fusion_lon": 0.0}, {"rental_uris": {"ios": "https://dc.lft.to/lastmile_qr_scan", "android": "https://dc.lft.to/lastmile_qr_scan"}, "type": "electric_scooter", "name": "49023e405c13d26614cbcc464274e6ab", "is_reserved": 0, "lon": -77.0295055, "is_disabled": 0, "fusion_lat": 0.0, "lat": 38.91683883333334, "bike_id": "49023e405c13d26614cbcc464274e6ab", "fusion_lon": 0.0}, {"rental_uris": {"ios": "https://dc.lft.to/lastmile_qr_scan", "android": "https://dc.lft.to/lastmile_qr_scan"}, "type": "electric_scooter", "name": "9711fb2c76bf5959a1e4fbd66f07fe62", "is_reserved": 0, "lon": -77.046042, "is_disabled": 0, "fusion_lat": 0.0, "lat": 38.90967066666666, "bike_id": "9711fb2c76bf5959a1e4fbd66f07fe62", "fusion_lon": 0.0}, {"rental_uris": {"ios": "https://dc.lft.to/lastmile_qr_scan", "android": "https://dc.lft.to/lastmile_qr_scan"}, "type": "electric_scooter", "name": "355a96749c6c752170cfa282a0643105", "is_reserved": 0, "lon": -76.946633, "is_disabled": 0, "fusion_lat": 0.0, "lat": 38.898731166666664, "bike_id": "355a96749c6c752170cfa282a0643105", "fusion_lon": 0.0}, {"rental_uris": {"ios": "https://dc.lft.to/lastmile_qr_scan", "android": "https://dc.lft.to/lastmile_qr_scan"}, "type": "electric_scooter", "name": "dcd0cd7a48b187f84935c7c3d997f878", "is_reserved": 0, "lon": -77.02534266666666, "is_disabled": 0, "fusion_lat": 0.0, "lat": 38.90063766666667, "bike_id": "dcd0cd7a48b187f84935c7c3d997f878", "fusion_lon": 0.0}, {"rental_uris": {"ios": "https://dc.lft.to/lastmile_qr_scan", "android": "https://dc.lft.to/lastmile_qr_scan"}, "type": "electric_bike", "name": "5cdca5d06f39fc6601502600cd98bc6a", "is_reserved": 0, "lon": -77.02086233333333, "is_disabled": 0, "fusion_lat": 0.0, "lat": 38.95846516666667, "bike_id": "5cdca5d06f39fc6601502600cd98bc6a", "fusion_lon": 0.0}, {"rental_uris": {"ios": "https://dc.lft.to/lastmile_qr_scan", "android": "https://dc.lft.to/lastmile_qr_scan"}, "type": "electric_scooter", "name": "d4349ff0e575138c51fa6b21e1e5e453", "is_reserved": 0, "lon": -77.04658766666667, "is_disabled": 0, "fusion_lat": 0.0, "lat": 38.90042433333333, "bike_id": "d4349ff0e575138c51fa6b21e1e5e453", "fusion_lon": 0.0}, {"rental_uris": {"ios": "https://dc.lft.to/lastmile_qr_scan", "android": "https://dc.lft.to/lastmile_qr_scan"}, "type": "electric_scooter", "name": "66d50785c83af97245e16ff5e0be2e76", "is_reserved": 0, "lon": -77.02288983333334, "is_disabled": 0, "fusion_lat": 0.0, "lat": 38.9088255, "bike_id": "66d50785c83af97245e16ff5e0be2e76", "fusion_lon": 0.0}, {"rental_uris": {"ios": "https://dc.lft.to/lastmile_qr_scan", "android": "https://dc.lft.to/lastmile_qr_scan"}, "type": "electric_scooter", "name": "2dab7d6d8979e7cdc0641a2aa6d22c3e", "is_reserved": 0, "lon": -76.99505333333333, "is_disabled": 0, "fusion_lat": 0.0, "lat": 38.881152666666665, "bike_id": "2dab7d6d8979e7cdc0641a2aa6d22c3e", "fusion_lon": 0.0}, {"rental_uris": {"ios": "https://dc.lft.to/lastmile_qr_scan", "android": "https://dc.lft.to/lastmile_qr_scan"}, "type": "electric_scooter", "name": "e23470aef281cc9bee416f9406d27760", "is_reserved": 0, "lon": -77.03917766666666, "is_disabled": 0, "fusion_lat": 0.0, "lat": 38.92463166666667, "bike_id": "e23470aef281cc9bee416f9406d27760", "fusion_lon": 0.0}, {"rental_uris": {"ios": "https://dc.lft.to/lastmile_qr_scan", "android": "https://dc.lft.to/lastmile_qr_scan"}, "type": "electric_scooter", "name": "9ec978e5d279fccc9ff7c3714783577e", "is_reserved": 0, "lon": -77.04338483333333, "is_disabled": 0, "fusion_lat": 0.0, "lat": 38.9073465, "bike_id": "9ec978e5d279fccc9ff7c3714783577e", "fusion_lon": 0.0}, {"rental_uris": {"ios": "https://dc.lft.to/lastmile_qr_scan", "android": "https://dc.lft.to/lastmile_qr_scan"}, "type": "electric_scooter", "name": "f8dd8d1ee4672f06bb176b7ddfcbb76b", "is_reserved": 0, "lon": -77.032241, "is_disabled": 0, "fusion_lat": 0.0, "lat": 38.898962, "bike_id": "f8dd8d1ee4672f06bb176b7ddfcbb76b", "fusion_lon": 0.0}, {"rental_uris": {"ios": "https://dc.lft.to/lastmile_qr_scan", "android": "https://dc.lft.to/lastmile_qr_scan"}, "type": "electric_scooter", "name": "12de739c63f1e9ac336757e813f5e6f1", "is_reserved": 0, "lon": -77.03131033333334, "is_disabled": 0, "fusion_lat": 0.0, "lat": 38.923734333333336, "bike_id": "12de739c63f1e9ac336757e813f5e6f1", "fusion_lon": 0.0}, {"rental_uris": {"ios": "https://dc.lft.to/lastmile_qr_scan", "android": "https://dc.lft.to/lastmile_qr_scan"}, "type": "electric_scooter", "name": "735a151f8bf3fd84914448af109583aa", "is_reserved": 0, "lon": -77.0296945, "is_disabled": 0, "fusion_lat": 0.0, "lat": 38.9166905, "bike_id": "735a151f8bf3fd84914448af109583aa", "fusion_lon": 0.0}, {"rental_uris": {"ios": "https://dc.lft.to/lastmile_qr_scan", "android": "https://dc.lft.to/lastmile_qr_scan"}, "type": "electric_scooter", "name": "9b4da2185ef48fc88f1e57430074ff8a", "is_reserved": 0, "lon": -77.02835233333333, "is_disabled": 0, "fusion_lat": 0.0, "lat": 38.887425666666665, "bike_id": "9b4da2185ef48fc88f1e57430074ff8a", "fusion_lon": 0.0}, {"rental_uris": {"ios": "https://dc.lft.to/lastmile_qr_scan", "android": "https://dc.lft.to/lastmile_qr_scan"}, "type": "electric_scooter", "name": "8635a41e768b9c54907cd58da1e83df4", "is_reserved": 0, "lon": -77.03138333333334, "is_disabled": 0, "fusion_lat": 0.0, "lat": 38.92372483333333, "bike_id": "8635a41e768b9c54907cd58da1e83df4", "fusion_lon": 0.0}, {"rental_uris": {"ios": "https://dc.lft.to/lastmile_qr_scan", "android": "https://dc.lft.to/lastmile_qr_scan"}, "type": "electric_bike", "name": "fc879a0f435114d6e6a045cdc8a3f070", "is_reserved": 0, "lon": -77.052679, "is_disabled": 0, "fusion_lat": 0.0, "lat": 38.94090883333333, "bike_id": "fc879a0f435114d6e6a045cdc8a3f070", "fusion_lon": 0.0}, {"rental_uris": {"ios": "https://dc.lft.to/lastmile_qr_scan", "android": "https://dc.lft.to/lastmile_qr_scan"}, "type": "electric_scooter", "name": "763dc39413c8cf3046dc4932f7f4602f", "is_reserved": 0, "lon": -77.07154983333334, "is_disabled": 0, "fusion_lat": 0.0, "lat": 38.89480566666667, "bike_id": "763dc39413c8cf3046dc4932f7f4602f", "fusion_lon": 0.0}, {"rental_uris": {"ios": "https://dc.lft.to/lastmile_qr_scan", "android": "https://dc.lft.to/lastmile_qr_scan"}, "type": "electric_scooter", "name": "222c4da955bfeabb901f2606360d564d", "is_reserved": 0, "lon": -77.00323583333333, "is_disabled": 0, "fusion_lat": 0.0, "lat": 38.87750066666667, "bike_id": "222c4da955bfeabb901f2606360d564d", "fusion_lon": 0.0}, {"rental_uris": {"ios": "https://dc.lft.to/lastmile_qr_scan", "android": "https://dc.lft.to/lastmile_qr_scan"}, "type": "electric_scooter", "name": "497c4943197082cd37d59dfee501cbd8", "is_reserved": 0, "lon": -77.01761683333334, "is_disabled": 0, "fusion_lat": 0.0, "lat": 38.90034466666667, "bike_id": "497c4943197082cd37d59dfee501cbd8", "fusion_lon": 0.0}, {"rental_uris": {"ios": "https://dc.lft.to/lastmile_qr_scan", "android": "https://dc.lft.to/lastmile_qr_scan"}, "type": "electric_scooter", "name": "00db09cfefe3a49893fc63cf0488b610", "is_reserved": 0, "lon": -77.0346105, "is_disabled": 0, "fusion_lat": 0.0, "lat": 38.90721966666667, "bike_id": "00db09cfefe3a49893fc63cf0488b610", "fusion_lon": 0.0}, {"rental_uris": {"ios": "https://dc.lft.to/lastmile_qr_scan", "android": "https://dc.lft.to/lastmile_qr_scan"}, "type": "electric_scooter", "name": "709a57e14f034bfb092db37e196e12d0", "is_reserved": 0, "lon": -76.99289083333333, "is_disabled": 0, "fusion_lat": 0.0, "lat": 38.902620166666665, "bike_id": "709a57e14f034bfb092db37e196e12d0", "fusion_lon": 0.0}, {"rental_uris": {"ios": "https://dc.lft.to/lastmile_qr_scan", "android": "https://dc.lft.to/lastmile_qr_scan"}, "type": "electric_scooter", "name": "459623c1af3b09a6d6a58674af5e468f", "is_reserved": 0, "lon": -77.0182685, "is_disabled": 0, "fusion_lat": 0.0, "lat": 38.9214815, "bike_id": "459623c1af3b09a6d6a58674af5e468f", "fusion_lon": 0.0}, {"rental_uris": {"ios": "https://dc.lft.to/lastmile_qr_scan", "android": "https://dc.lft.to/lastmile_qr_scan"}, "type": "electric_scooter", "name": "3693f3104bcf3ec589c4597c96cdef31", "is_reserved": 0, "lon": -77.040032, "is_disabled": 0, "fusion_lat": 0.0, "lat": 38.90221283333333, "bike_id": "3693f3104bcf3ec589c4597c96cdef31", "fusion_lon": 0.0}, {"rental_uris": {"ios": "https://dc.lft.to/lastmile_qr_scan", "android": "https://dc.lft.to/lastmile_qr_scan"}, "type": "electric_scooter", "name": "f5d6ca80adccb5185299c7d93cebd10e", "is_reserved": 0, "lon": -77.07832583333334, "is_disabled": 0, "fusion_lat": 0.0, "lat": 38.94569416666667, "bike_id": "f5d6ca80adccb5185299c7d93cebd10e", "fusion_lon": 0.0}, {"rental_uris": {"ios": "https://dc.lft.to/lastmile_qr_scan", "android": "https://dc.lft.to/lastmile_qr_scan"}, "type": "electric_scooter", "name": "62452b17daff69586907efcf1563a241", "is_reserved": 0, "lon": -77.04607216666666, "is_disabled": 0, "fusion_lat": 0.0, "lat": 38.905718, "bike_id": "62452b17daff69586907efcf1563a241", "fusion_lon": 0.0}, {"rental_uris": {"ios": "https://dc.lft.to/lastmile_qr_scan", "android": "https://dc.lft.to/lastmile_qr_scan"}, "type": "electric_scooter", "name": "206968fe5343125584c802af498bf593", "is_reserved": 0, "lon": -77.0188425, "is_disabled": 0, "fusion_lat": 0.0, "lat": 38.8974855, "bike_id": "206968fe5343125584c802af498bf593", "fusion_lon": 0.0}, {"rental_uris": {"ios": "https://dc.lft.to/lastmile_qr_scan", "android": "https://dc.lft.to/lastmile_qr_scan"}, "type": "electric_scooter", "name": "2b311f71db13bc0244a0d25a2a7990fa", "is_reserved": 0, "lon": -77.065763, "is_disabled": 0, "fusion_lat": 0.0, "lat": 38.903864, "bike_id": "2b311f71db13bc0244a0d25a2a7990fa", "fusion_lon": 0.0}, {"rental_uris": {"ios": "https://dc.lft.to/lastmile_qr_scan", "android": "https://dc.lft.to/lastmile_qr_scan"}, "type": "electric_scooter", "name": "4265de88e6ac44e29155e13ea3187bf3", "is_reserved": 0, "lon": -77.07920816666666, "is_disabled": 0, "fusion_lat": 0.0, "lat": 38.945637833333336, "bike_id": "4265de88e6ac44e29155e13ea3187bf3", "fusion_lon": 0.0}, {"rental_uris": {"ios": "https://dc.lft.to/lastmile_qr_scan", "android": "https://dc.lft.to/lastmile_qr_scan"}, "type": "electric_scooter", "name": "54f16cce316b277163b892aa775ecdf5", "is_reserved": 0, "lon": -77.03214666666666, "is_disabled": 0, "fusion_lat": 0.0, "lat": 38.938702, "bike_id": "54f16cce316b277163b892aa775ecdf5", "fusion_lon": 0.0}, {"rental_uris": {"ios": "https://dc.lft.to/lastmile_qr_scan", "android": "https://dc.lft.to/lastmile_qr_scan"}, "type": "electric_scooter", "name": "76920e5db6e5eb24ab816d4176abd89a", "is_reserved": 0, "lon": -77.00283933333333, "is_disabled": 0, "fusion_lat": 0.0, "lat": 38.846154, "bike_id": "76920e5db6e5eb24ab816d4176abd89a", "fusion_lon": 0.0}, {"rental_uris": {"ios": "https://dc.lft.to/lastmile_qr_scan", "android": "https://dc.lft.to/lastmile_qr_scan"}, "type": "electric_scooter", "name": "e958cac20852401923ce48c3c119a9b8", "is_reserved": 0, "lon": -77.0464705, "is_disabled": 0, "fusion_lat": 0.0, "lat": 38.91791966666667, "bike_id": "e958cac20852401923ce48c3c119a9b8", "fusion_lon": 0.0}, {"rental_uris": {"ios": "https://dc.lft.to/lastmile_qr_scan", "android": "https://dc.lft.to/lastmile_qr_scan"}, "type": "electric_bike", "name": "96751f9131a4b1510543f91a3d51b4c9", "is_reserved": 0, "lon": -76.99626716666667, "is_disabled": 0, "fusion_lat": 0.0, "lat": 38.928536666666666, "bike_id": "96751f9131a4b1510543f91a3d51b4c9", "fusion_lon": 0.0}, {"rental_uris": {"ios": "https://dc.lft.to/lastmile_qr_scan", "android": "https://dc.lft.to/lastmile_qr_scan"}, "type": "electric_scooter", "name": "0f8d435ea87d28f89e91b2e9bc0e4ec7", "is_reserved": 0, "lon": -77.021412, "is_disabled": 0, "fusion_lat": 0.0, "lat": 38.92556116666667, "bike_id": "0f8d435ea87d28f89e91b2e9bc0e4ec7", "fusion_lon": 0.0}, {"rental_uris": {"ios": "https://dc.lft.to/lastmile_qr_scan", "android": "https://dc.lft.to/lastmile_qr_scan"}, "type": "electric_bike", "name": "d97d13fb7817eaf7328e645f821f9d96", "is_reserved": 0, "lon": -77.04078366666667, "is_disabled": 0, "fusion_lat": 0.0, "lat": 38.83066, "bike_id": "d97d13fb7817eaf7328e645f821f9d96", "fusion_lon": 0.0}, {"rental_uris": {"ios": "https://dc.lft.to/lastmile_qr_scan", "android": "https://dc.lft.to/lastmile_qr_scan"}, "type": "electric_bike", "name": "1a0cfee554cb8640b29526f92701450c", "is_reserved": 0, "lon": -77.002071, "is_disabled": 0, "fusion_lat": 0.0, "lat": 38.988463, "bike_id": "1a0cfee554cb8640b29526f92701450c", "fusion_lon": 0.0}, {"rental_uris": {"ios": "https://dc.lft.to/lastmile_qr_scan", "android": "https://dc.lft.to/lastmile_qr_scan"}, "type": "electric_scooter", "name": "8f4ce5567de190b8099b3b73e0513a03", "is_reserved": 0, "lon": -77.01797683333334, "is_disabled": 0, "fusion_lat": 0.0, "lat": 38.9023385, "bike_id": "8f4ce5567de190b8099b3b73e0513a03", "fusion_lon": 0.0}, {"rental_uris": {"ios": "https://dc.lft.to/lastmile_qr_scan", "android": "https://dc.lft.to/lastmile_qr_scan"}, "type": "electric_scooter", "name": "bbae62238f89162a5ddd62a0ed5f5de5", "is_reserved": 0, "lon": -77.0337415, "is_disabled": 0, "fusion_lat": 0.0, "lat": 38.910287333333336, "bike_id": "bbae62238f89162a5ddd62a0ed5f5de5", "fusion_lon": 0.0}, {"rental_uris": {"ios": "https://dc.lft.to/lastmile_qr_scan", "android": "https://dc.lft.to/lastmile_qr_scan"}, "type": "electric_scooter", "name": "559f8d773579ddf26945ba6d4dac213b", "is_reserved": 0, "lon": -77.03859533333333, "is_disabled": 0, "fusion_lat": 0.0, "lat": 38.911249833333336, "bike_id": "559f8d773579ddf26945ba6d4dac213b", "fusion_lon": 0.0}, {"rental_uris": {"ios": "https://dc.lft.to/lastmile_qr_scan", "android": "https://dc.lft.to/lastmile_qr_scan"}, "type": "electric_scooter", "name": "7af64adc49475d588bba3ec5a57c287f", "is_reserved": 0, "lon": -77.0281735, "is_disabled": 0, "fusion_lat": 0.0, "lat": 38.9564245, "bike_id": "7af64adc49475d588bba3ec5a57c287f", "fusion_lon": 0.0}, {"rental_uris": {"ios": "https://dc.lft.to/lastmile_qr_scan", "android": "https://dc.lft.to/lastmile_qr_scan"}, "type": "electric_scooter", "name": "678cfd7c16a52275e811af0f61629336", "is_reserved": 0, "lon": -77.05339733333334, "is_disabled": 0, "fusion_lat": 0.0, "lat": 38.90235083333334, "bike_id": "678cfd7c16a52275e811af0f61629336", "fusion_lon": 0.0}, {"rental_uris": {"ios": "https://dc.lft.to/lastmile_qr_scan", "android": "https://dc.lft.to/lastmile_qr_scan"}, "type": "electric_scooter", "name": "498774263e69cfc290f4337d8fa6d5ec", "is_reserved": 0, "lon": -77.0060275, "is_disabled": 0, "fusion_lat": 0.0, "lat": 38.875621333333335, "bike_id": "498774263e69cfc290f4337d8fa6d5ec", "fusion_lon": 0.0}, {"rental_uris": {"ios": "https://dc.lft.to/lastmile_qr_scan", "android": "https://dc.lft.to/lastmile_qr_scan"}, "type": "electric_scooter", "name": "9cc1ed3ab99678d5b062670663744ad6", "is_reserved": 0, "lon": -77.024053, "is_disabled": 0, "fusion_lat": 0.0, "lat": 38.909737, "bike_id": "9cc1ed3ab99678d5b062670663744ad6", "fusion_lon": 0.0}, {"rental_uris": {"ios": "https://dc.lft.to/lastmile_qr_scan", "android": "https://dc.lft.to/lastmile_qr_scan"}, "type": "electric_scooter", "name": "ed0301f7c98b8afcc17e5f6aecac19ab", "is_reserved": 0, "lon": -77.0229935, "is_disabled": 0, "fusion_lat": 0.0, "lat": 38.961327, "bike_id": "ed0301f7c98b8afcc17e5f6aecac19ab", "fusion_lon": 0.0}, {"rental_uris": {"ios": "https://dc.lft.to/lastmile_qr_scan", "android": "https://dc.lft.to/lastmile_qr_scan"}, "type": "electric_scooter", "name": "421c10937484f52956d4fde68a9889a4", "is_reserved": 0, "lon": -77.03939533333333, "is_disabled": 0, "fusion_lat": 0.0, "lat": 38.90017666666667, "bike_id": "421c10937484f52956d4fde68a9889a4", "fusion_lon": 0.0}, {"rental_uris": {"ios": "https://dc.lft.to/lastmile_qr_scan", "android": "https://dc.lft.to/lastmile_qr_scan"}, "type": "electric_scooter", "name": "a0a6955a1f6670a11301c442694d4647", "is_reserved": 0, "lon": -77.0216055, "is_disabled": 0, "fusion_lat": 0.0, "lat": 38.92459133333333, "bike_id": "a0a6955a1f6670a11301c442694d4647", "fusion_lon": 0.0}, {"rental_uris": {"ios": "https://dc.lft.to/lastmile_qr_scan", "android": "https://dc.lft.to/lastmile_qr_scan"}, "type": "electric_scooter", "name": "0ead452647c9dd2415795601f0ed22fe", "is_reserved": 0, "lon": -76.9318555, "is_disabled": 0, "fusion_lat": 0.0, "lat": 38.89877333333333, "bike_id": "0ead452647c9dd2415795601f0ed22fe", "fusion_lon": 0.0}, {"rental_uris": {"ios": "https://dc.lft.to/lastmile_qr_scan", "android": "https://dc.lft.to/lastmile_qr_scan"}, "type": "electric_scooter", "name": "34ab1227c959f3020a94d3221191c947", "is_reserved": 0, "lon": -77.038224, "is_disabled": 0, "fusion_lat": 0.0, "lat": 38.96261916666667, "bike_id": "34ab1227c959f3020a94d3221191c947", "fusion_lon": 0.0}, {"rental_uris": {"ios": "https://dc.lft.to/lastmile_qr_scan", "android": "https://dc.lft.to/lastmile_qr_scan"}, "type": "electric_scooter", "name": "542baabc643417546597bc5f2dfc5934", "is_reserved": 0, "lon": -77.07027566666666, "is_disabled": 0, "fusion_lat": 0.0, "lat": 38.893445666666665, "bike_id": "542baabc643417546597bc5f2dfc5934", "fusion_lon": 0.0}, {"rental_uris": {"ios": "https://dc.lft.to/lastmile_qr_scan", "android": "https://dc.lft.to/lastmile_qr_scan"}, "type": "electric_scooter", "name": "3a7bd082c1faa0dee09fe54cb9946819", "is_reserved": 0, "lon": -76.99038633333333, "is_disabled": 0, "fusion_lat": 0.0, "lat": 38.86424733333333, "bike_id": "3a7bd082c1faa0dee09fe54cb9946819", "fusion_lon": 0.0}, {"rental_uris": {"ios": "https://dc.lft.to/lastmile_qr_scan", "android": "https://dc.lft.to/lastmile_qr_scan"}, "type": "electric_scooter", "name": "7c51f21f6fecb5775d92dfefe0066d70", "is_reserved": 0, "lon": -77.0285835, "is_disabled": 0, "fusion_lat": 0.0, "lat": 38.91255783333333, "bike_id": "7c51f21f6fecb5775d92dfefe0066d70", "fusion_lon": 0.0}, {"rental_uris": {"ios": "https://dc.lft.to/lastmile_qr_scan", "android": "https://dc.lft.to/lastmile_qr_scan"}, "type": "electric_scooter", "name": "d1acb3eec0043dab6a0158bd2b6ea9fd", "is_reserved": 0, "lon": -77.02381, "is_disabled": 0, "fusion_lat": 0.0, "lat": 38.90583183333333, "bike_id": "d1acb3eec0043dab6a0158bd2b6ea9fd", "fusion_lon": 0.0}, {"rental_uris": {"ios": "https://dc.lft.to/lastmile_qr_scan", "android": "https://dc.lft.to/lastmile_qr_scan"}, "type": "electric_bike", "name": "28f5b027812b739f66ad171b015a78d8", "is_reserved": 0, "lon": -77.1292885, "is_disabled": 0, "fusion_lat": 0.0, "lat": 38.865839666666666, "bike_id": "28f5b027812b739f66ad171b015a78d8", "fusion_lon": 0.0}, {"rental_uris": {"ios": "https://dc.lft.to/lastmile_qr_scan", "android": "https://dc.lft.to/lastmile_qr_scan"}, "type": "electric_scooter", "name": "751c8bf9888ff17ab658b092e38a8bae", "is_reserved": 0, "lon": -77.01499066666666, "is_disabled": 0, "fusion_lat": 0.0, "lat": 38.926682666666665, "bike_id": "751c8bf9888ff17ab658b092e38a8bae", "fusion_lon": 0.0}, {"rental_uris": {"ios": "https://dc.lft.to/lastmile_qr_scan", "android": "https://dc.lft.to/lastmile_qr_scan"}, "type": "electric_scooter", "name": "eba3d1df5ccc342feb7db996a8185108", "is_reserved": 0, "lon": -77.040369, "is_disabled": 0, "fusion_lat": 0.0, "lat": 38.92311566666667, "bike_id": "eba3d1df5ccc342feb7db996a8185108", "fusion_lon": 0.0}, {"rental_uris": {"ios": "https://dc.lft.to/lastmile_qr_scan", "android": "https://dc.lft.to/lastmile_qr_scan"}, "type": "electric_scooter", "name": "d6041412426e647294d02f64d1fa8979", "is_reserved": 0, "lon": -77.04362733333333, "is_disabled": 0, "fusion_lat": 0.0, "lat": 38.8921235, "bike_id": "d6041412426e647294d02f64d1fa8979", "fusion_lon": 0.0}, {"rental_uris": {"ios": "https://dc.lft.to/lastmile_qr_scan", "android": "https://dc.lft.to/lastmile_qr_scan"}, "type": "electric_scooter", "name": "5d64dbfda36f5096da5d27b71c599840", "is_reserved": 0, "lon": -77.039112, "is_disabled": 0, "fusion_lat": 0.0, "lat": 38.915559333333334, "bike_id": "5d64dbfda36f5096da5d27b71c599840", "fusion_lon": 0.0}, {"rental_uris": {"ios": "https://dc.lft.to/lastmile_qr_scan", "android": "https://dc.lft.to/lastmile_qr_scan"}, "type": "electric_scooter", "name": "4e5edf3458b83959f9ad7ec7c2905edc", "is_reserved": 0, "lon": -77.05816066666667, "is_disabled": 0, "fusion_lat": 0.0, "lat": 38.93517716666667, "bike_id": "4e5edf3458b83959f9ad7ec7c2905edc", "fusion_lon": 0.0}, {"rental_uris": {"ios": "https://dc.lft.to/lastmile_qr_scan", "android": "https://dc.lft.to/lastmile_qr_scan"}, "type": "electric_scooter", "name": "199e9ff77fdd4d5383ebe0741e10ce4a", "is_reserved": 0, "lon": -77.00190383333333, "is_disabled": 0, "fusion_lat": 0.0, "lat": 38.91196816666667, "bike_id": "199e9ff77fdd4d5383ebe0741e10ce4a", "fusion_lon": 0.0}, {"rental_uris": {"ios": "https://dc.lft.to/lastmile_qr_scan", "android": "https://dc.lft.to/lastmile_qr_scan"}, "type": "electric_scooter", "name": "1e83cc4a7502de0039a11a9bc086e8f6", "is_reserved": 0, "lon": -77.0006025, "is_disabled": 0, "fusion_lat": 0.0, "lat": 38.874577, "bike_id": "1e83cc4a7502de0039a11a9bc086e8f6", "fusion_lon": 0.0}, {"rental_uris": {"ios": "https://dc.lft.to/lastmile_qr_scan", "android": "https://dc.lft.to/lastmile_qr_scan"}, "type": "electric_bike", "name": "8b35d92c4e57af36c110ffe7052b2b3a", "is_reserved": 0, "lon": -76.9415215, "is_disabled": 0, "fusion_lat": 0.0, "lat": 38.89027083333333, "bike_id": "8b35d92c4e57af36c110ffe7052b2b3a", "fusion_lon": 0.0}, {"rental_uris": {"ios": "https://dc.lft.to/lastmile_qr_scan", "android": "https://dc.lft.to/lastmile_qr_scan"}, "type": "electric_scooter", "name": "52af14729895c1f83fceb6fc3fe09fed", "is_reserved": 0, "lon": -77.03826683333334, "is_disabled": 0, "fusion_lat": 0.0, "lat": 38.90962066666667, "bike_id": "52af14729895c1f83fceb6fc3fe09fed", "fusion_lon": 0.0}, {"rental_uris": {"ios": "https://dc.lft.to/lastmile_qr_scan", "android": "https://dc.lft.to/lastmile_qr_scan"}, "type": "electric_scooter", "name": "8b09dd6937d64f5a15a6633b88bab73d", "is_reserved": 0, "lon": -77.01210416666666, "is_disabled": 0, "fusion_lat": 0.0, "lat": 38.91195583333333, "bike_id": "8b09dd6937d64f5a15a6633b88bab73d", "fusion_lon": 0.0}, {"rental_uris": {"ios": "https://dc.lft.to/lastmile_qr_scan", "android": "https://dc.lft.to/lastmile_qr_scan"}, "type": "electric_scooter", "name": "34f67f2a4a50bc62d7b3d6c8159f6fb9", "is_reserved": 0, "lon": -77.02149083333333, "is_disabled": 0, "fusion_lat": 0.0, "lat": 38.8960115, "bike_id": "34f67f2a4a50bc62d7b3d6c8159f6fb9", "fusion_lon": 0.0}, {"rental_uris": {"ios": "https://dc.lft.to/lastmile_qr_scan", "android": "https://dc.lft.to/lastmile_qr_scan"}, "type": "electric_scooter", "name": "b8a2ee1a8533f06a54dbe61e6048b5be", "is_reserved": 0, "lon": -77.037308, "is_disabled": 0, "fusion_lat": 0.0, "lat": 38.91614833333333, "bike_id": "b8a2ee1a8533f06a54dbe61e6048b5be", "fusion_lon": 0.0}, {"rental_uris": {"ios": "https://dc.lft.to/lastmile_qr_scan", "android": "https://dc.lft.to/lastmile_qr_scan"}, "type": "electric_scooter", "name": "88a2f4276d9a605d1c1f2db8f27a7286", "is_reserved": 0, "lon": -77.03833616666667, "is_disabled": 0, "fusion_lat": 0.0, "lat": 38.904157833333336, "bike_id": "88a2f4276d9a605d1c1f2db8f27a7286", "fusion_lon": 0.0}, {"rental_uris": {"ios": "https://dc.lft.to/lastmile_qr_scan", "android": "https://dc.lft.to/lastmile_qr_scan"}, "type": "electric_scooter", "name": "bb1c6b03b268067597747910851946ba", "is_reserved": 0, "lon": -76.9936245, "is_disabled": 0, "fusion_lat": 0.0, "lat": 38.900405, "bike_id": "bb1c6b03b268067597747910851946ba", "fusion_lon": 0.0}, {"rental_uris": {"ios": "https://dc.lft.to/lastmile_qr_scan", "android": "https://dc.lft.to/lastmile_qr_scan"}, "type": "electric_scooter", "name": "89697ebffec092205b8aeb97377e55ab", "is_reserved": 0, "lon": -77.05694616666666, "is_disabled": 0, "fusion_lat": 0.0, "lat": 38.9371975, "bike_id": "89697ebffec092205b8aeb97377e55ab", "fusion_lon": 0.0}, {"rental_uris": {"ios": "https://dc.lft.to/lastmile_qr_scan", "android": "https://dc.lft.to/lastmile_qr_scan"}, "type": "electric_scooter", "name": "11781da430e7e8523d0e7655359f20df", "is_reserved": 0, "lon": -77.01950933333333, "is_disabled": 0, "fusion_lat": 0.0, "lat": 38.93134216666667, "bike_id": "11781da430e7e8523d0e7655359f20df", "fusion_lon": 0.0}, {"rental_uris": {"ios": "https://dc.lft.to/lastmile_qr_scan", "android": "https://dc.lft.to/lastmile_qr_scan"}, "type": "electric_scooter", "name": "d642c21587fcf3acbddaf1b18008c191", "is_reserved": 0, "lon": -77.03058916666667, "is_disabled": 0, "fusion_lat": 0.0, "lat": 38.99033266666667, "bike_id": "d642c21587fcf3acbddaf1b18008c191", "fusion_lon": 0.0}, {"rental_uris": {"ios": "https://dc.lft.to/lastmile_qr_scan", "android": "https://dc.lft.to/lastmile_qr_scan"}, "type": "electric_scooter", "name": "6191a5b0d7dc017bdcbac1103cbd6499", "is_reserved": 0, "lon": -77.02385783333334, "is_disabled": 0, "fusion_lat": 0.0, "lat": 38.9207755, "bike_id": "6191a5b0d7dc017bdcbac1103cbd6499", "fusion_lon": 0.0}, {"rental_uris": {"ios": "https://dc.lft.to/lastmile_qr_scan", "android": "https://dc.lft.to/lastmile_qr_scan"}, "type": "electric_scooter", "name": "ff60fc65f6cff853f397edc0267b3b94", "is_reserved": 0, "lon": -77.02807833333334, "is_disabled": 0, "fusion_lat": 0.0, "lat": 38.930837333333336, "bike_id": "ff60fc65f6cff853f397edc0267b3b94", "fusion_lon": 0.0}, {"rental_uris": {"ios": "https://dc.lft.to/lastmile_qr_scan", "android": "https://dc.lft.to/lastmile_qr_scan"}, "type": "electric_scooter", "name": "414e1b46e1b0b486d07388e061aa9b10", "is_reserved": 0, "lon": -77.038306, "is_disabled": 0, "fusion_lat": 0.0, "lat": 38.906532166666665, "bike_id": "414e1b46e1b0b486d07388e061aa9b10", "fusion_lon": 0.0}, {"rental_uris": {"ios": "https://dc.lft.to/lastmile_qr_scan", "android": "https://dc.lft.to/lastmile_qr_scan"}, "type": "electric_scooter", "name": "d3e4382d78cce1f36bcea59da2532fc7", "is_reserved": 0, "lon": -77.0372135, "is_disabled": 0, "fusion_lat": 0.0, "lat": 38.92642883333333, "bike_id": "d3e4382d78cce1f36bcea59da2532fc7", "fusion_lon": 0.0}, {"rental_uris": {"ios": "https://dc.lft.to/lastmile_qr_scan", "android": "https://dc.lft.to/lastmile_qr_scan"}, "type": "electric_scooter", "name": "ec9ee480eefc6b04b7ff8d77d891dbc6", "is_reserved": 0, "lon": -77.02617166666667, "is_disabled": 0, "fusion_lat": 0.0, "lat": 38.90362733333333, "bike_id": "ec9ee480eefc6b04b7ff8d77d891dbc6", "fusion_lon": 0.0}, {"rental_uris": {"ios": "https://dc.lft.to/lastmile_qr_scan", "android": "https://dc.lft.to/lastmile_qr_scan"}, "type": "electric_scooter", "name": "c77144f03949eaf812fd7db80245746c", "is_reserved": 0, "lon": -77.01980433333334, "is_disabled": 0, "fusion_lat": 0.0, "lat": 38.887223, "bike_id": "c77144f03949eaf812fd7db80245746c", "fusion_lon": 0.0}, {"rental_uris": {"ios": "https://dc.lft.to/lastmile_qr_scan", "android": "https://dc.lft.to/lastmile_qr_scan"}, "type": "electric_scooter", "name": "1798c29f196c03f69701246bbae28825", "is_reserved": 0, "lon": -77.02715583333334, "is_disabled": 0, "fusion_lat": 0.0, "lat": 38.895805333333335, "bike_id": "1798c29f196c03f69701246bbae28825", "fusion_lon": 0.0}, {"rental_uris": {"ios": "https://dc.lft.to/lastmile_qr_scan", "android": "https://dc.lft.to/lastmile_qr_scan"}, "type": "electric_scooter", "name": "906210ae5c5d4a093b92b876a890ed8f", "is_reserved": 0, "lon": -77.0217835, "is_disabled": 0, "fusion_lat": 0.0, "lat": 38.911030833333335, "bike_id": "906210ae5c5d4a093b92b876a890ed8f", "fusion_lon": 0.0}, {"rental_uris": {"ios": "https://dc.lft.to/lastmile_qr_scan", "android": "https://dc.lft.to/lastmile_qr_scan"}, "type": "electric_scooter", "name": "216a7ebf372e629f6dbcd8ee90d67976", "is_reserved": 0, "lon": -77.03477266666667, "is_disabled": 0, "fusion_lat": 0.0, "lat": 38.90832916666667, "bike_id": "216a7ebf372e629f6dbcd8ee90d67976", "fusion_lon": 0.0}, {"rental_uris": {"ios": "https://dc.lft.to/lastmile_qr_scan", "android": "https://dc.lft.to/lastmile_qr_scan"}, "type": "electric_scooter", "name": "01634027ec085755db487c18e83faa99", "is_reserved": 0, "lon": -77.0445835, "is_disabled": 0, "fusion_lat": 0.0, "lat": 38.9247675, "bike_id": "01634027ec085755db487c18e83faa99", "fusion_lon": 0.0}, {"rental_uris": {"ios": "https://dc.lft.to/lastmile_qr_scan", "android": "https://dc.lft.to/lastmile_qr_scan"}, "type": "electric_scooter", "name": "7e31204bd43d23f9b4145e9a7af9f3e8", "is_reserved": 0, "lon": -76.9974145, "is_disabled": 0, "fusion_lat": 0.0, "lat": 38.90130083333333, "bike_id": "7e31204bd43d23f9b4145e9a7af9f3e8", "fusion_lon": 0.0}, {"rental_uris": {"ios": "https://dc.lft.to/lastmile_qr_scan", "android": "https://dc.lft.to/lastmile_qr_scan"}, "type": "electric_scooter", "name": "651cd290edc6495bac4efcc220ed0b59", "is_reserved": 0, "lon": -77.03195766666667, "is_disabled": 0, "fusion_lat": 0.0, "lat": 38.894555833333335, "bike_id": "651cd290edc6495bac4efcc220ed0b59", "fusion_lon": 0.0}, {"rental_uris": {"ios": "https://dc.lft.to/lastmile_qr_scan", "android": "https://dc.lft.to/lastmile_qr_scan"}, "type": "electric_scooter", "name": "cd3a55f04f4a60ff992671c2cec23906", "is_reserved": 0, "lon": -77.011081, "is_disabled": 0, "fusion_lat": 0.0, "lat": 38.89564716666667, "bike_id": "cd3a55f04f4a60ff992671c2cec23906", "fusion_lon": 0.0}, {"rental_uris": {"ios": "https://dc.lft.to/lastmile_qr_scan", "android": "https://dc.lft.to/lastmile_qr_scan"}, "type": "electric_scooter", "name": "2c848e16f02e60e8a22440f6487f236f", "is_reserved": 0, "lon": -77.04861866666667, "is_disabled": 0, "fusion_lat": 0.0, "lat": 38.9064705, "bike_id": "2c848e16f02e60e8a22440f6487f236f", "fusion_lon": 0.0}, {"rental_uris": {"ios": "https://dc.lft.to/lastmile_qr_scan", "android": "https://dc.lft.to/lastmile_qr_scan"}, "type": "electric_bike", "name": "d8c4c652841843bbf64f319f1c3c58b0", "is_reserved": 0, "lon": -77.02341216666666, "is_disabled": 0, "fusion_lat": 0.0, "lat": 38.887425666666665, "bike_id": "d8c4c652841843bbf64f319f1c3c58b0", "fusion_lon": 0.0}, {"rental_uris": {"ios": "https://dc.lft.to/lastmile_qr_scan", "android": "https://dc.lft.to/lastmile_qr_scan"}, "type": "electric_scooter", "name": "18b306538a69edc18e42c5a204493b23", "is_reserved": 0, "lon": -77.053197, "is_disabled": 0, "fusion_lat": 0.0, "lat": 38.90244783333333, "bike_id": "18b306538a69edc18e42c5a204493b23", "fusion_lon": 0.0}, {"rental_uris": {"ios": "https://dc.lft.to/lastmile_qr_scan", "android": "https://dc.lft.to/lastmile_qr_scan"}, "type": "electric_scooter", "name": "4218092ee4fa2a11d2689536970993bd", "is_reserved": 0, "lon": -77.015704, "is_disabled": 0, "fusion_lat": 0.0, "lat": 38.8761395, "bike_id": "4218092ee4fa2a11d2689536970993bd", "fusion_lon": 0.0}, {"rental_uris": {"ios": "https://dc.lft.to/lastmile_qr_scan", "android": "https://dc.lft.to/lastmile_qr_scan"}, "type": "electric_scooter", "name": "c202a6f1b541697160d91fdea12a1e46", "is_reserved": 0, "lon": -77.04345383333333, "is_disabled": 0, "fusion_lat": 0.0, "lat": 38.91387866666667, "bike_id": "c202a6f1b541697160d91fdea12a1e46", "fusion_lon": 0.0}, {"rental_uris": {"ios": "https://dc.lft.to/lastmile_qr_scan", "android": "https://dc.lft.to/lastmile_qr_scan"}, "type": "electric_bike", "name": "f80b4e61ed437bbc9b2b402f19bbdf7a", "is_reserved": 0, "lon": -77.06411416666667, "is_disabled": 0, "fusion_lat": 0.0, "lat": 38.906353333333335, "bike_id": "f80b4e61ed437bbc9b2b402f19bbdf7a", "fusion_lon": 0.0}, {"rental_uris": {"ios": "https://dc.lft.to/lastmile_qr_scan", "android": "https://dc.lft.to/lastmile_qr_scan"}, "type": "electric_scooter", "name": "045d0539ca9920889125fdbea88b8627", "is_reserved": 0, "lon": -77.03737933333333, "is_disabled": 0, "fusion_lat": 0.0, "lat": 38.879983, "bike_id": "045d0539ca9920889125fdbea88b8627", "fusion_lon": 0.0}, {"rental_uris": {"ios": "https://dc.lft.to/lastmile_qr_scan", "android": "https://dc.lft.to/lastmile_qr_scan"}, "type": "electric_scooter", "name": "a6ff0304f88f7287e8d5d7bfa325d5e4", "is_reserved": 0, "lon": -77.022056, "is_disabled": 0, "fusion_lat": 0.0, "lat": 38.89229433333333, "bike_id": "a6ff0304f88f7287e8d5d7bfa325d5e4", "fusion_lon": 0.0}, {"rental_uris": {"ios": "https://dc.lft.to/lastmile_qr_scan", "android": "https://dc.lft.to/lastmile_qr_scan"}, "type": "electric_scooter", "name": "9aeb090a9cf8106619b7f38adaf0e983", "is_reserved": 0, "lon": -77.04524983333333, "is_disabled": 0, "fusion_lat": 0.0, "lat": 38.91111683333333, "bike_id": "9aeb090a9cf8106619b7f38adaf0e983", "fusion_lon": 0.0}, {"rental_uris": {"ios": "https://dc.lft.to/lastmile_qr_scan", "android": "https://dc.lft.to/lastmile_qr_scan"}, "type": "electric_scooter", "name": "54f847f2ab6cff9540583820a9d37851", "is_reserved": 0, "lon": -77.03202633333333, "is_disabled": 0, "fusion_lat": 0.0, "lat": 38.91638566666666, "bike_id": "54f847f2ab6cff9540583820a9d37851", "fusion_lon": 0.0}, {"rental_uris": {"ios": "https://dc.lft.to/lastmile_qr_scan", "android": "https://dc.lft.to/lastmile_qr_scan"}, "type": "electric_scooter", "name": "9dd151415bcc29f43ef22150ac563f44", "is_reserved": 0, "lon": -77.018114, "is_disabled": 0, "fusion_lat": 0.0, "lat": 38.922269666666665, "bike_id": "9dd151415bcc29f43ef22150ac563f44", "fusion_lon": 0.0}, {"rental_uris": {"ios": "https://dc.lft.to/lastmile_qr_scan", "android": "https://dc.lft.to/lastmile_qr_scan"}, "type": "electric_scooter", "name": "7519279fd5a127c444206572825e5d08", "is_reserved": 0, "lon": -77.02195266666666, "is_disabled": 0, "fusion_lat": 0.0, "lat": 38.9107465, "bike_id": "7519279fd5a127c444206572825e5d08", "fusion_lon": 0.0}, {"rental_uris": {"ios": "https://dc.lft.to/lastmile_qr_scan", "android": "https://dc.lft.to/lastmile_qr_scan"}, "type": "electric_scooter", "name": "0e20ea88e27e81775d53a0c76029900c", "is_reserved": 0, "lon": -77.00664383333333, "is_disabled": 0, "fusion_lat": 0.0, "lat": 38.876529, "bike_id": "0e20ea88e27e81775d53a0c76029900c", "fusion_lon": 0.0}, {"rental_uris": {"ios": "https://dc.lft.to/lastmile_qr_scan", "android": "https://dc.lft.to/lastmile_qr_scan"}, "type": "electric_bike", "name": "521c42e1e9d41e23501e216ce5d623ca", "is_reserved": 0, "lon": -77.12904716666667, "is_disabled": 0, "fusion_lat": 0.0, "lat": 38.799712, "bike_id": "521c42e1e9d41e23501e216ce5d623ca", "fusion_lon": 0.0}, {"rental_uris": {"ios": "https://dc.lft.to/lastmile_qr_scan", "android": "https://dc.lft.to/lastmile_qr_scan"}, "type": "electric_scooter", "name": "55afa2f5ebdb7b2d34329c7b01ef58ce", "is_reserved": 0, "lon": -77.04359366666667, "is_disabled": 0, "fusion_lat": 0.0, "lat": 38.92248416666666, "bike_id": "55afa2f5ebdb7b2d34329c7b01ef58ce", "fusion_lon": 0.0}, {"rental_uris": {"ios": "https://dc.lft.to/lastmile_qr_scan", "android": "https://dc.lft.to/lastmile_qr_scan"}, "type": "electric_scooter", "name": "e09a6a67ec68150b34848df920bc29f5", "is_reserved": 0, "lon": -77.036514, "is_disabled": 0, "fusion_lat": 0.0, "lat": 38.9230845, "bike_id": "e09a6a67ec68150b34848df920bc29f5", "fusion_lon": 0.0}, {"rental_uris": {"ios": "https://dc.lft.to/lastmile_qr_scan", "android": "https://dc.lft.to/lastmile_qr_scan"}, "type": "electric_bike", "name": "1338564d3907d2d36dedd41f66f6c08a", "is_reserved": 0, "lon": -76.91802066666666, "is_disabled": 0, "fusion_lat": 0.0, "lat": 39.000006, "bike_id": "1338564d3907d2d36dedd41f66f6c08a", "fusion_lon": 0.0}, {"rental_uris": {"ios": "https://dc.lft.to/lastmile_qr_scan", "android": "https://dc.lft.to/lastmile_qr_scan"}, "type": "electric_scooter", "name": "c00da1daef2fcbd0c5a2f170216d39fd", "is_reserved": 0, "lon": -77.04739883333333, "is_disabled": 0, "fusion_lat": 0.0, "lat": 38.91768366666667, "bike_id": "c00da1daef2fcbd0c5a2f170216d39fd", "fusion_lon": 0.0}, {"rental_uris": {"ios": "https://dc.lft.to/lastmile_qr_scan", "android": "https://dc.lft.to/lastmile_qr_scan"}, "type": "electric_scooter", "name": "fdf306dc69c205f8f9d424e5bc053612", "is_reserved": 0, "lon": -77.0263095, "is_disabled": 0, "fusion_lat": 0.0, "lat": 38.92475866666667, "bike_id": "fdf306dc69c205f8f9d424e5bc053612", "fusion_lon": 0.0}, {"rental_uris": {"ios": "https://dc.lft.to/lastmile_qr_scan", "android": "https://dc.lft.to/lastmile_qr_scan"}, "type": "electric_scooter", "name": "1f777265ddc11c60d8884ebd3918dde5", "is_reserved": 0, "lon": -76.99498516666667, "is_disabled": 0, "fusion_lat": 0.0, "lat": 38.8823145, "bike_id": "1f777265ddc11c60d8884ebd3918dde5", "fusion_lon": 0.0}, {"rental_uris": {"ios": "https://dc.lft.to/lastmile_qr_scan", "android": "https://dc.lft.to/lastmile_qr_scan"}, "type": "electric_bike", "name": "cf874ab54cbf798e083df661f9eac673", "is_reserved": 0, "lon": -76.98346599999999, "is_disabled": 0, "fusion_lat": 0.0, "lat": 38.86262283333333, "bike_id": "cf874ab54cbf798e083df661f9eac673", "fusion_lon": 0.0}, {"rental_uris": {"ios": "https://dc.lft.to/lastmile_qr_scan", "android": "https://dc.lft.to/lastmile_qr_scan"}, "type": "electric_scooter", "name": "fd9a14a2dfaca263c5aa39d0ffcafb3c", "is_reserved": 0, "lon": -77.04173266666666, "is_disabled": 0, "fusion_lat": 0.0, "lat": 38.9119465, "bike_id": "fd9a14a2dfaca263c5aa39d0ffcafb3c", "fusion_lon": 0.0}, {"rental_uris": {"ios": "https://dc.lft.to/lastmile_qr_scan", "android": "https://dc.lft.to/lastmile_qr_scan"}, "type": "electric_scooter", "name": "a189648948d832c1de27c2145aa3950f", "is_reserved": 0, "lon": -76.99997433333333, "is_disabled": 0, "fusion_lat": 0.0, "lat": 38.90771183333333, "bike_id": "a189648948d832c1de27c2145aa3950f", "fusion_lon": 0.0}, {"rental_uris": {"ios": "https://dc.lft.to/lastmile_qr_scan", "android": "https://dc.lft.to/lastmile_qr_scan"}, "type": "electric_scooter", "name": "b659df62387d3dac6609a8e5d1985708", "is_reserved": 0, "lon": -77.00284083333334, "is_disabled": 0, "fusion_lat": 0.0, "lat": 38.907625333333336, "bike_id": "b659df62387d3dac6609a8e5d1985708", "fusion_lon": 0.0}, {"rental_uris": {"ios": "https://dc.lft.to/lastmile_qr_scan", "android": "https://dc.lft.to/lastmile_qr_scan"}, "type": "electric_scooter", "name": "0c3af3e245d33f93a3890bd899264d41", "is_reserved": 0, "lon": -77.04463033333333, "is_disabled": 0, "fusion_lat": 0.0, "lat": 38.919179166666666, "bike_id": "0c3af3e245d33f93a3890bd899264d41", "fusion_lon": 0.0}, {"rental_uris": {"ios": "https://dc.lft.to/lastmile_qr_scan", "android": "https://dc.lft.to/lastmile_qr_scan"}, "type": "electric_scooter", "name": "5ad34545773a37e3ad13c1ddf041f1ad", "is_reserved": 0, "lon": -77.03835883333333, "is_disabled": 0, "fusion_lat": 0.0, "lat": 38.9099585, "bike_id": "5ad34545773a37e3ad13c1ddf041f1ad", "fusion_lon": 0.0}, {"rental_uris": {"ios": "https://dc.lft.to/lastmile_qr_scan", "android": "https://dc.lft.to/lastmile_qr_scan"}, "type": "electric_scooter", "name": "3f9893335278b33dac6093d5baf070f6", "is_reserved": 0, "lon": -77.03464816666667, "is_disabled": 0, "fusion_lat": 0.0, "lat": 38.905628666666665, "bike_id": "3f9893335278b33dac6093d5baf070f6", "fusion_lon": 0.0}, {"rental_uris": {"ios": "https://dc.lft.to/lastmile_qr_scan", "android": "https://dc.lft.to/lastmile_qr_scan"}, "type": "electric_scooter", "name": "6d4b2666c9627ff8d3fa0cbca2b0afd6", "is_reserved": 0, "lon": -77.00212133333333, "is_disabled": 0, "fusion_lat": 0.0, "lat": 38.898186333333335, "bike_id": "6d4b2666c9627ff8d3fa0cbca2b0afd6", "fusion_lon": 0.0}, {"rental_uris": {"ios": "https://dc.lft.to/lastmile_qr_scan", "android": "https://dc.lft.to/lastmile_qr_scan"}, "type": "electric_bike", "name": "f8c4342fdb87d292ce3be20f5e8d9ed8", "is_reserved": 0, "lon": -77.221819, "is_disabled": 0, "fusion_lat": 0.0, "lat": 38.87176016666667, "bike_id": "f8c4342fdb87d292ce3be20f5e8d9ed8", "fusion_lon": 0.0}, {"rental_uris": {"ios": "https://dc.lft.to/lastmile_qr_scan", "android": "https://dc.lft.to/lastmile_qr_scan"}, "type": "electric_scooter", "name": "b47ab0dfd4cf42563a715d0aafc68b7e", "is_reserved": 0, "lon": -77.0316235, "is_disabled": 0, "fusion_lat": 0.0, "lat": 38.90607966666666, "bike_id": "b47ab0dfd4cf42563a715d0aafc68b7e", "fusion_lon": 0.0}, {"rental_uris": {"ios": "https://dc.lft.to/lastmile_qr_scan", "android": "https://dc.lft.to/lastmile_qr_scan"}, "type": "electric_scooter", "name": "25381e0a26aa3e55e75014e0b276d130", "is_reserved": 0, "lon": -76.98455266666667, "is_disabled": 0, "fusion_lat": 0.0, "lat": 38.900205666666665, "bike_id": "25381e0a26aa3e55e75014e0b276d130", "fusion_lon": 0.0}, {"rental_uris": {"ios": "https://dc.lft.to/lastmile_qr_scan", "android": "https://dc.lft.to/lastmile_qr_scan"}, "type": "electric_scooter", "name": "b6151bb29eac994168f4aa65bc36b411", "is_reserved": 0, "lon": -77.04520866666667, "is_disabled": 0, "fusion_lat": 0.0, "lat": 38.91105733333333, "bike_id": "b6151bb29eac994168f4aa65bc36b411", "fusion_lon": 0.0}, {"rental_uris": {"ios": "https://dc.lft.to/lastmile_qr_scan", "android": "https://dc.lft.to/lastmile_qr_scan"}, "type": "electric_scooter", "name": "b83b3253828bb7495f9f28c4b43a1d0f", "is_reserved": 0, "lon": -77.01972183333334, "is_disabled": 0, "fusion_lat": 0.0, "lat": 38.92254666666667, "bike_id": "b83b3253828bb7495f9f28c4b43a1d0f", "fusion_lon": 0.0}, {"rental_uris": {"ios": "https://dc.lft.to/lastmile_qr_scan", "android": "https://dc.lft.to/lastmile_qr_scan"}, "type": "electric_scooter", "name": "59e10c99d497d43c6a2bd9d56b395282", "is_reserved": 0, "lon": -76.99153133333333, "is_disabled": 0, "fusion_lat": 0.0, "lat": 38.888197166666664, "bike_id": "59e10c99d497d43c6a2bd9d56b395282", "fusion_lon": 0.0}, {"rental_uris": {"ios": "https://dc.lft.to/lastmile_qr_scan", "android": "https://dc.lft.to/lastmile_qr_scan"}, "type": "electric_scooter", "name": "520342db89e9e88f29ce1a097b8280e7", "is_reserved": 0, "lon": -77.04221833333334, "is_disabled": 0, "fusion_lat": 0.0, "lat": 38.91107683333333, "bike_id": "520342db89e9e88f29ce1a097b8280e7", "fusion_lon": 0.0}, {"rental_uris": {"ios": "https://dc.lft.to/lastmile_qr_scan", "android": "https://dc.lft.to/lastmile_qr_scan"}, "type": "electric_scooter", "name": "43608619c004e4fe5b6342bc66b06d43", "is_reserved": 0, "lon": -77.064781, "is_disabled": 0, "fusion_lat": 0.0, "lat": 38.926985, "bike_id": "43608619c004e4fe5b6342bc66b06d43", "fusion_lon": 0.0}, {"rental_uris": {"ios": "https://dc.lft.to/lastmile_qr_scan", "android": "https://dc.lft.to/lastmile_qr_scan"}, "type": "electric_scooter", "name": "4c3541122e4fe4175730a292092f5877", "is_reserved": 0, "lon": -77.00043916666667, "is_disabled": 0, "fusion_lat": 0.0, "lat": 38.8743475, "bike_id": "4c3541122e4fe4175730a292092f5877", "fusion_lon": 0.0}, {"rental_uris": {"ios": "https://dc.lft.to/lastmile_qr_scan", "android": "https://dc.lft.to/lastmile_qr_scan"}, "type": "electric_scooter", "name": "38c73aba9e87b1e3577eb6eca8466215", "is_reserved": 0, "lon": -76.99843583333333, "is_disabled": 0, "fusion_lat": 0.0, "lat": 38.900127166666664, "bike_id": "38c73aba9e87b1e3577eb6eca8466215", "fusion_lon": 0.0}, {"rental_uris": {"ios": "https://dc.lft.to/lastmile_qr_scan", "android": "https://dc.lft.to/lastmile_qr_scan"}, "type": "electric_scooter", "name": "4f91b0568ea044594351a1e1e8213301", "is_reserved": 0, "lon": -76.99373816666667, "is_disabled": 0, "fusion_lat": 0.0, "lat": 38.8934115, "bike_id": "4f91b0568ea044594351a1e1e8213301", "fusion_lon": 0.0}, {"rental_uris": {"ios": "https://dc.lft.to/lastmile_qr_scan", "android": "https://dc.lft.to/lastmile_qr_scan"}, "type": "electric_scooter", "name": "d463fd9447d37518b742b7490d101341", "is_reserved": 0, "lon": -77.023361, "is_disabled": 0, "fusion_lat": 0.0, "lat": 38.91667916666667, "bike_id": "d463fd9447d37518b742b7490d101341", "fusion_lon": 0.0}, {"rental_uris": {"ios": "https://dc.lft.to/lastmile_qr_scan", "android": "https://dc.lft.to/lastmile_qr_scan"}, "type": "electric_bike", "name": "d106c3e18850590dfaa36f9e2aa3328c", "is_reserved": 0, "lon": -77.10723466666667, "is_disabled": 0, "fusion_lat": 0.0, "lat": 38.855425333333336, "bike_id": "d106c3e18850590dfaa36f9e2aa3328c", "fusion_lon": 0.0}, {"rental_uris": {"ios": "https://dc.lft.to/lastmile_qr_scan", "android": "https://dc.lft.to/lastmile_qr_scan"}, "type": "electric_scooter", "name": "f7f53d99df9cfc104284391d06682cc0", "is_reserved": 0, "lon": -77.01849266666666, "is_disabled": 0, "fusion_lat": 0.0, "lat": 38.89965633333333, "bike_id": "f7f53d99df9cfc104284391d06682cc0", "fusion_lon": 0.0}, {"rental_uris": {"ios": "https://dc.lft.to/lastmile_qr_scan", "android": "https://dc.lft.to/lastmile_qr_scan"}, "type": "electric_scooter", "name": "85884286d80c23d69821e89dec4cfdd9", "is_reserved": 0, "lon": -77.02488466666667, "is_disabled": 0, "fusion_lat": 0.0, "lat": 38.904045833333335, "bike_id": "85884286d80c23d69821e89dec4cfdd9", "fusion_lon": 0.0}, {"rental_uris": {"ios": "https://dc.lft.to/lastmile_qr_scan", "android": "https://dc.lft.to/lastmile_qr_scan"}, "type": "electric_scooter", "name": "14c725595ef7f362689718cea8b19457", "is_reserved": 0, "lon": -77.02141966666667, "is_disabled": 0, "fusion_lat": 0.0, "lat": 38.89735966666667, "bike_id": "14c725595ef7f362689718cea8b19457", "fusion_lon": 0.0}, {"rental_uris": {"ios": "https://dc.lft.to/lastmile_qr_scan", "android": "https://dc.lft.to/lastmile_qr_scan"}, "type": "electric_scooter", "name": "ae5fdf0cb06bd4b4e257632e27bd56bc", "is_reserved": 0, "lon": -77.02224516666666, "is_disabled": 0, "fusion_lat": 0.0, "lat": 38.92078566666667, "bike_id": "ae5fdf0cb06bd4b4e257632e27bd56bc", "fusion_lon": 0.0}, {"rental_uris": {"ios": "https://dc.lft.to/lastmile_qr_scan", "android": "https://dc.lft.to/lastmile_qr_scan"}, "type": "electric_scooter", "name": "4941f97348effb0bb70e8879b0cbc1cd", "is_reserved": 0, "lon": -77.03750766666667, "is_disabled": 0, "fusion_lat": 0.0, "lat": 38.929153666666664, "bike_id": "4941f97348effb0bb70e8879b0cbc1cd", "fusion_lon": 0.0}, {"rental_uris": {"ios": "https://dc.lft.to/lastmile_qr_scan", "android": "https://dc.lft.to/lastmile_qr_scan"}, "type": "electric_scooter", "name": "e4a04b3699d2f9075de78fb55bf55e16", "is_reserved": 0, "lon": -77.03063683333333, "is_disabled": 0, "fusion_lat": 0.0, "lat": 38.926657, "bike_id": "e4a04b3699d2f9075de78fb55bf55e16", "fusion_lon": 0.0}, {"rental_uris": {"ios": "https://dc.lft.to/lastmile_qr_scan", "android": "https://dc.lft.to/lastmile_qr_scan"}, "type": "electric_scooter", "name": "8580e201a69587f57b054ca337deed18", "is_reserved": 0, "lon": -77.02107383333333, "is_disabled": 0, "fusion_lat": 0.0, "lat": 38.91408783333333, "bike_id": "8580e201a69587f57b054ca337deed18", "fusion_lon": 0.0}, {"rental_uris": {"ios": "https://dc.lft.to/lastmile_qr_scan", "android": "https://dc.lft.to/lastmile_qr_scan"}, "type": "electric_scooter", "name": "d38fe27a4a7451ba2d1b60a082289742", "is_reserved": 0, "lon": -77.029707, "is_disabled": 0, "fusion_lat": 0.0, "lat": 38.924294333333336, "bike_id": "d38fe27a4a7451ba2d1b60a082289742", "fusion_lon": 0.0}, {"rental_uris": {"ios": "https://dc.lft.to/lastmile_qr_scan", "android": "https://dc.lft.to/lastmile_qr_scan"}, "type": "electric_scooter", "name": "bcf8ea50db9663e7ad64dd9ea98ef6a9", "is_reserved": 0, "lon": -77.018653, "is_disabled": 0, "fusion_lat": 0.0, "lat": 38.95151466666667, "bike_id": "bcf8ea50db9663e7ad64dd9ea98ef6a9", "fusion_lon": 0.0}, {"rental_uris": {"ios": "https://dc.lft.to/lastmile_qr_scan", "android": "https://dc.lft.to/lastmile_qr_scan"}, "type": "electric_scooter", "name": "3c1bbd1c85d604e9bce6c95ab162dc55", "is_reserved": 0, "lon": -77.0209615, "is_disabled": 0, "fusion_lat": 0.0, "lat": 38.91639283333333, "bike_id": "3c1bbd1c85d604e9bce6c95ab162dc55", "fusion_lon": 0.0}, {"rental_uris": {"ios": "https://dc.lft.to/lastmile_qr_scan", "android": "https://dc.lft.to/lastmile_qr_scan"}, "type": "electric_scooter", "name": "bba2d651b20e7ca6ea4fe79a2a8b027c", "is_reserved": 0, "lon": -77.00762366666666, "is_disabled": 0, "fusion_lat": 0.0, "lat": 38.907451333333334, "bike_id": "bba2d651b20e7ca6ea4fe79a2a8b027c", "fusion_lon": 0.0}, {"rental_uris": {"ios": "https://dc.lft.to/lastmile_qr_scan", "android": "https://dc.lft.to/lastmile_qr_scan"}, "type": "electric_scooter", "name": "51e972a335d56d4f94ec5bb1a2c74a08", "is_reserved": 0, "lon": -77.03207066666667, "is_disabled": 0, "fusion_lat": 0.0, "lat": 38.916879333333334, "bike_id": "51e972a335d56d4f94ec5bb1a2c74a08", "fusion_lon": 0.0}, {"rental_uris": {"ios": "https://dc.lft.to/lastmile_qr_scan", "android": "https://dc.lft.to/lastmile_qr_scan"}, "type": "electric_scooter", "name": "230537ec16a977bea34f2f3bc07dff81", "is_reserved": 0, "lon": -77.05058616666666, "is_disabled": 0, "fusion_lat": 0.0, "lat": 38.9007865, "bike_id": "230537ec16a977bea34f2f3bc07dff81", "fusion_lon": 0.0}, {"rental_uris": {"ios": "https://dc.lft.to/lastmile_qr_scan", "android": "https://dc.lft.to/lastmile_qr_scan"}, "type": "electric_scooter", "name": "716e811a359bff06aba3640387adb052", "is_reserved": 0, "lon": -76.99098616666667, "is_disabled": 0, "fusion_lat": 0.0, "lat": 38.85734716666666, "bike_id": "716e811a359bff06aba3640387adb052", "fusion_lon": 0.0}, {"rental_uris": {"ios": "https://dc.lft.to/lastmile_qr_scan", "android": "https://dc.lft.to/lastmile_qr_scan"}, "type": "electric_scooter", "name": "a6fa7c3dfc1754497e1b1a394e0b6255", "is_reserved": 0, "lon": -77.03767966666666, "is_disabled": 0, "fusion_lat": 0.0, "lat": 38.90726033333333, "bike_id": "a6fa7c3dfc1754497e1b1a394e0b6255", "fusion_lon": 0.0}, {"rental_uris": {"ios": "https://dc.lft.to/lastmile_qr_scan", "android": "https://dc.lft.to/lastmile_qr_scan"}, "type": "electric_scooter", "name": "e2136843b14bc4fa784d811c4331865c", "is_reserved": 0, "lon": -77.0227915, "is_disabled": 0, "fusion_lat": 0.0, "lat": 38.92566633333333, "bike_id": "e2136843b14bc4fa784d811c4331865c", "fusion_lon": 0.0}, {"rental_uris": {"ios": "https://dc.lft.to/lastmile_qr_scan", "android": "https://dc.lft.to/lastmile_qr_scan"}, "type": "electric_scooter", "name": "ad0eb1b6647edf32c4ad7bcb437b9ac6", "is_reserved": 0, "lon": -77.04346666666666, "is_disabled": 0, "fusion_lat": 0.0, "lat": 38.92176283333333, "bike_id": "ad0eb1b6647edf32c4ad7bcb437b9ac6", "fusion_lon": 0.0}, {"rental_uris": {"ios": "https://dc.lft.to/lastmile_qr_scan", "android": "https://dc.lft.to/lastmile_qr_scan"}, "type": "electric_scooter", "name": "e72398c3ea206ee611c04e032c9c796c", "is_reserved": 0, "lon": -77.0333115, "is_disabled": 0, "fusion_lat": 0.0, "lat": 38.9141475, "bike_id": "e72398c3ea206ee611c04e032c9c796c", "fusion_lon": 0.0}, {"rental_uris": {"ios": "https://dc.lft.to/lastmile_qr_scan", "android": "https://dc.lft.to/lastmile_qr_scan"}, "type": "electric_scooter", "name": "f0b58b882c07665e18c300f7be891ea9", "is_reserved": 0, "lon": -76.98096966666667, "is_disabled": 0, "fusion_lat": 0.0, "lat": 38.857177666666665, "bike_id": "f0b58b882c07665e18c300f7be891ea9", "fusion_lon": 0.0}, {"rental_uris": {"ios": "https://dc.lft.to/lastmile_qr_scan", "android": "https://dc.lft.to/lastmile_qr_scan"}, "type": "electric_scooter", "name": "46b0523c71217167449a8b225a5deed0", "is_reserved": 0, "lon": -77.04873416666666, "is_disabled": 0, "fusion_lat": 0.0, "lat": 38.90975983333333, "bike_id": "46b0523c71217167449a8b225a5deed0", "fusion_lon": 0.0}, {"rental_uris": {"ios": "https://dc.lft.to/lastmile_qr_scan", "android": "https://dc.lft.to/lastmile_qr_scan"}, "type": "electric_scooter", "name": "3e4378ef58604cc950541898207648cb", "is_reserved": 0, "lon": -77.04456133333333, "is_disabled": 0, "fusion_lat": 0.0, "lat": 38.9232575, "bike_id": "3e4378ef58604cc950541898207648cb", "fusion_lon": 0.0}, {"rental_uris": {"ios": "https://dc.lft.to/lastmile_qr_scan", "android": "https://dc.lft.to/lastmile_qr_scan"}, "type": "electric_scooter", "name": "e2e7fcb7e2a91ad0757d7c440774f517", "is_reserved": 0, "lon": -77.02207833333334, "is_disabled": 0, "fusion_lat": 0.0, "lat": 38.90548616666667, "bike_id": "e2e7fcb7e2a91ad0757d7c440774f517", "fusion_lon": 0.0}, {"rental_uris": {"ios": "https://dc.lft.to/lastmile_qr_scan", "android": "https://dc.lft.to/lastmile_qr_scan"}, "type": "electric_scooter", "name": "31e67b3e1b95fae5384b2e1bbe25631b", "is_reserved": 0, "lon": -77.0711335, "is_disabled": 0, "fusion_lat": 0.0, "lat": 38.905763, "bike_id": "31e67b3e1b95fae5384b2e1bbe25631b", "fusion_lon": 0.0}, {"rental_uris": {"ios": "https://dc.lft.to/lastmile_qr_scan", "android": "https://dc.lft.to/lastmile_qr_scan"}, "type": "electric_scooter", "name": "17a47b5b14c6b206dc9ec2a8abfb90fe", "is_reserved": 0, "lon": -77.045055, "is_disabled": 0, "fusion_lat": 0.0, "lat": 38.89225, "bike_id": "17a47b5b14c6b206dc9ec2a8abfb90fe", "fusion_lon": 0.0}, {"rental_uris": {"ios": "https://dc.lft.to/lastmile_qr_scan", "android": "https://dc.lft.to/lastmile_qr_scan"}, "type": "electric_scooter", "name": "22b76054a248842a6fb7414827406bfd", "is_reserved": 0, "lon": -77.0405595, "is_disabled": 0, "fusion_lat": 0.0, "lat": 38.917718, "bike_id": "22b76054a248842a6fb7414827406bfd", "fusion_lon": 0.0}, {"rental_uris": {"ios": "https://dc.lft.to/lastmile_qr_scan", "android": "https://dc.lft.to/lastmile_qr_scan"}, "type": "electric_bike", "name": "0d7f649c7113a3cf45f2610215bbe935", "is_reserved": 0, "lon": -76.9615135, "is_disabled": 0, "fusion_lat": 0.0, "lat": 38.85613716666667, "bike_id": "0d7f649c7113a3cf45f2610215bbe935", "fusion_lon": 0.0}, {"rental_uris": {"ios": "https://dc.lft.to/lastmile_qr_scan", "android": "https://dc.lft.to/lastmile_qr_scan"}, "type": "electric_scooter", "name": "cd5cb395dd361eca816a88b5eff145c6", "is_reserved": 0, "lon": -77.0616925, "is_disabled": 0, "fusion_lat": 0.0, "lat": 38.90265633333333, "bike_id": "cd5cb395dd361eca816a88b5eff145c6", "fusion_lon": 0.0}, {"rental_uris": {"ios": "https://dc.lft.to/lastmile_qr_scan", "android": "https://dc.lft.to/lastmile_qr_scan"}, "type": "electric_scooter", "name": "8c64a547c250012cc337e1f91a32b6d2", "is_reserved": 0, "lon": -77.04516983333333, "is_disabled": 0, "fusion_lat": 0.0, "lat": 38.90773983333333, "bike_id": "8c64a547c250012cc337e1f91a32b6d2", "fusion_lon": 0.0}, {"rental_uris": {"ios": "https://dc.lft.to/lastmile_qr_scan", "android": "https://dc.lft.to/lastmile_qr_scan"}, "type": "electric_scooter", "name": "74b9f2a42e7b851d72465c26260e3c83", "is_reserved": 0, "lon": -77.0280215, "is_disabled": 0, "fusion_lat": 0.0, "lat": 38.909232, "bike_id": "74b9f2a42e7b851d72465c26260e3c83", "fusion_lon": 0.0}, {"rental_uris": {"ios": "https://dc.lft.to/lastmile_qr_scan", "android": "https://dc.lft.to/lastmile_qr_scan"}, "type": "electric_bike", "name": "def74a63fdba6d4724473fb2f33abf31", "is_reserved": 0, "lon": -76.9625555, "is_disabled": 0, "fusion_lat": 0.0, "lat": 38.88245516666667, "bike_id": "def74a63fdba6d4724473fb2f33abf31", "fusion_lon": 0.0}, {"rental_uris": {"ios": "https://dc.lft.to/lastmile_qr_scan", "android": "https://dc.lft.to/lastmile_qr_scan"}, "type": "electric_scooter", "name": "7da40af512949fa4aaa255743b63f042", "is_reserved": 0, "lon": -76.9974895, "is_disabled": 0, "fusion_lat": 0.0, "lat": 38.885043333333336, "bike_id": "7da40af512949fa4aaa255743b63f042", "fusion_lon": 0.0}, {"rental_uris": {"ios": "https://dc.lft.to/lastmile_qr_scan", "android": "https://dc.lft.to/lastmile_qr_scan"}, "type": "electric_scooter", "name": "1b6f56c58b4598fb8b49798f145b50da", "is_reserved": 0, "lon": -76.9841675, "is_disabled": 0, "fusion_lat": 0.0, "lat": 38.87989366666667, "bike_id": "1b6f56c58b4598fb8b49798f145b50da", "fusion_lon": 0.0}, {"rental_uris": {"ios": "https://dc.lft.to/lastmile_qr_scan", "android": "https://dc.lft.to/lastmile_qr_scan"}, "type": "electric_scooter", "name": "f17fe66fcbb24ab75673aa0ccbf2a642", "is_reserved": 0, "lon": -77.040986, "is_disabled": 0, "fusion_lat": 0.0, "lat": 38.92531483333333, "bike_id": "f17fe66fcbb24ab75673aa0ccbf2a642", "fusion_lon": 0.0}, {"rental_uris": {"ios": "https://dc.lft.to/lastmile_qr_scan", "android": "https://dc.lft.to/lastmile_qr_scan"}, "type": "electric_scooter", "name": "fddd253ede58826fc2437a1244006dc4", "is_reserved": 0, "lon": -77.038907, "is_disabled": 0, "fusion_lat": 0.0, "lat": 38.9232095, "bike_id": "fddd253ede58826fc2437a1244006dc4", "fusion_lon": 0.0}, {"rental_uris": {"ios": "https://dc.lft.to/lastmile_qr_scan", "android": "https://dc.lft.to/lastmile_qr_scan"}, "type": "electric_scooter", "name": "947f6c10276943eca8852164d35c00c8", "is_reserved": 0, "lon": -77.02806366666667, "is_disabled": 0, "fusion_lat": 0.0, "lat": 38.9308535, "bike_id": "947f6c10276943eca8852164d35c00c8", "fusion_lon": 0.0}, {"rental_uris": {"ios": "https://dc.lft.to/lastmile_qr_scan", "android": "https://dc.lft.to/lastmile_qr_scan"}, "type": "electric_scooter", "name": "e8dde8be8dace5f5745d17c6559ef20d", "is_reserved": 0, "lon": -77.02484216666667, "is_disabled": 0, "fusion_lat": 0.0, "lat": 38.9388865, "bike_id": "e8dde8be8dace5f5745d17c6559ef20d", "fusion_lon": 0.0}, {"rental_uris": {"ios": "https://dc.lft.to/lastmile_qr_scan", "android": "https://dc.lft.to/lastmile_qr_scan"}, "type": "electric_scooter", "name": "52d16479a2279598eff916728202c816", "is_reserved": 0, "lon": -77.03461916666667, "is_disabled": 0, "fusion_lat": 0.0, "lat": 38.90571633333333, "bike_id": "52d16479a2279598eff916728202c816", "fusion_lon": 0.0}, {"rental_uris": {"ios": "https://dc.lft.to/lastmile_qr_scan", "android": "https://dc.lft.to/lastmile_qr_scan"}, "type": "electric_scooter", "name": "d52a591ad1ec2e8145f1bb053c7e33f7", "is_reserved": 0, "lon": -77.04093733333333, "is_disabled": 0, "fusion_lat": 0.0, "lat": 38.91725816666667, "bike_id": "d52a591ad1ec2e8145f1bb053c7e33f7", "fusion_lon": 0.0}, {"rental_uris": {"ios": "https://dc.lft.to/lastmile_qr_scan", "android": "https://dc.lft.to/lastmile_qr_scan"}, "type": "electric_scooter", "name": "1f12fe2f1bfa0984af47a11c07b3ac3d", "is_reserved": 0, "lon": -77.026997, "is_disabled": 0, "fusion_lat": 0.0, "lat": 38.92283, "bike_id": "1f12fe2f1bfa0984af47a11c07b3ac3d", "fusion_lon": 0.0}, {"rental_uris": {"ios": "https://dc.lft.to/lastmile_qr_scan", "android": "https://dc.lft.to/lastmile_qr_scan"}, "type": "electric_scooter", "name": "5a984deee65378d52a9edd976dd3bb8f", "is_reserved": 0, "lon": -77.04337833333334, "is_disabled": 0, "fusion_lat": 0.0, "lat": 38.907493333333335, "bike_id": "5a984deee65378d52a9edd976dd3bb8f", "fusion_lon": 0.0}, {"rental_uris": {"ios": "https://dc.lft.to/lastmile_qr_scan", "android": "https://dc.lft.to/lastmile_qr_scan"}, "type": "electric_scooter", "name": "2a11f62d61b28b55ad5a10af750b6447", "is_reserved": 0, "lon": -77.02683333333333, "is_disabled": 0, "fusion_lat": 0.0, "lat": 38.895907, "bike_id": "2a11f62d61b28b55ad5a10af750b6447", "fusion_lon": 0.0}, {"rental_uris": {"ios": "https://dc.lft.to/lastmile_qr_scan", "android": "https://dc.lft.to/lastmile_qr_scan"}, "type": "electric_scooter", "name": "d6569a9493dc403816f39fc73ac13224", "is_reserved": 0, "lon": -77.000559, "is_disabled": 0, "fusion_lat": 0.0, "lat": 38.87375683333333, "bike_id": "d6569a9493dc403816f39fc73ac13224", "fusion_lon": 0.0}, {"rental_uris": {"ios": "https://dc.lft.to/lastmile_qr_scan", "android": "https://dc.lft.to/lastmile_qr_scan"}, "type": "electric_scooter", "name": "10483b238de19e0de3a86bd1fbc7a746", "is_reserved": 0, "lon": -77.012323, "is_disabled": 0, "fusion_lat": 0.0, "lat": 38.86977366666667, "bike_id": "10483b238de19e0de3a86bd1fbc7a746", "fusion_lon": 0.0}, {"rental_uris": {"ios": "https://dc.lft.to/lastmile_qr_scan", "android": "https://dc.lft.to/lastmile_qr_scan"}, "type": "electric_scooter", "name": "715b7dfe6e925dc55ff8723cfcd5e0e2", "is_reserved": 0, "lon": -77.08177366666666, "is_disabled": 0, "fusion_lat": 0.0, "lat": 38.9334025, "bike_id": "715b7dfe6e925dc55ff8723cfcd5e0e2", "fusion_lon": 0.0}, {"rental_uris": {"ios": "https://dc.lft.to/lastmile_qr_scan", "android": "https://dc.lft.to/lastmile_qr_scan"}, "type": "electric_scooter", "name": "84eedfe6f3e796a510b62613b9601b07", "is_reserved": 0, "lon": -77.02716533333333, "is_disabled": 0, "fusion_lat": 0.0, "lat": 38.91018833333333, "bike_id": "84eedfe6f3e796a510b62613b9601b07", "fusion_lon": 0.0}, {"rental_uris": {"ios": "https://dc.lft.to/lastmile_qr_scan", "android": "https://dc.lft.to/lastmile_qr_scan"}, "type": "electric_scooter", "name": "e178d9d2f25cd11952968a0d9c2617cf", "is_reserved": 0, "lon": -76.97359766666666, "is_disabled": 0, "fusion_lat": 0.0, "lat": 38.85025666666667, "bike_id": "e178d9d2f25cd11952968a0d9c2617cf", "fusion_lon": 0.0}, {"rental_uris": {"ios": "https://dc.lft.to/lastmile_qr_scan", "android": "https://dc.lft.to/lastmile_qr_scan"}, "type": "electric_scooter", "name": "590ca3a80ff61cb9fda52daeccde37d3", "is_reserved": 0, "lon": -77.04347483333333, "is_disabled": 0, "fusion_lat": 0.0, "lat": 38.913557, "bike_id": "590ca3a80ff61cb9fda52daeccde37d3", "fusion_lon": 0.0}, {"rental_uris": {"ios": "https://dc.lft.to/lastmile_qr_scan", "android": "https://dc.lft.to/lastmile_qr_scan"}, "type": "electric_scooter", "name": "5ead1769c572206ca947c9c6f8b5193c", "is_reserved": 0, "lon": -76.95449583333334, "is_disabled": 0, "fusion_lat": 0.0, "lat": 38.883913166666666, "bike_id": "5ead1769c572206ca947c9c6f8b5193c", "fusion_lon": 0.0}, {"rental_uris": {"ios": "https://dc.lft.to/lastmile_qr_scan", "android": "https://dc.lft.to/lastmile_qr_scan"}, "type": "electric_scooter", "name": "72cad9521a70a2b3cf04a5140494ddbe", "is_reserved": 0, "lon": -76.99511866666667, "is_disabled": 0, "fusion_lat": 0.0, "lat": 38.889885666666665, "bike_id": "72cad9521a70a2b3cf04a5140494ddbe", "fusion_lon": 0.0}, {"rental_uris": {"ios": "https://dc.lft.to/lastmile_qr_scan", "android": "https://dc.lft.to/lastmile_qr_scan"}, "type": "electric_scooter", "name": "156bb668f374093f76406ba71408c705", "is_reserved": 0, "lon": -76.98702066666667, "is_disabled": 0, "fusion_lat": 0.0, "lat": 38.859648166666666, "bike_id": "156bb668f374093f76406ba71408c705", "fusion_lon": 0.0}, {"rental_uris": {"ios": "https://dc.lft.to/lastmile_qr_scan", "android": "https://dc.lft.to/lastmile_qr_scan"}, "type": "electric_scooter", "name": "3d89ee317c88a981ca7e97b5fb1d24e2", "is_reserved": 0, "lon": -77.01109316666667, "is_disabled": 0, "fusion_lat": 0.0, "lat": 38.89574666666667, "bike_id": "3d89ee317c88a981ca7e97b5fb1d24e2", "fusion_lon": 0.0}, {"rental_uris": {"ios": "https://dc.lft.to/lastmile_qr_scan", "android": "https://dc.lft.to/lastmile_qr_scan"}, "type": "electric_scooter", "name": "75736e7904f5b2cd9909699f5e44cd75", "is_reserved": 0, "lon": -77.0176355, "is_disabled": 0, "fusion_lat": 0.0, "lat": 38.92043966666667, "bike_id": "75736e7904f5b2cd9909699f5e44cd75", "fusion_lon": 0.0}, {"rental_uris": {"ios": "https://dc.lft.to/lastmile_qr_scan", "android": "https://dc.lft.to/lastmile_qr_scan"}, "type": "electric_scooter", "name": "87ef66bbc2366a9debff324c319eb2da", "is_reserved": 0, "lon": -77.02661383333333, "is_disabled": 0, "fusion_lat": 0.0, "lat": 38.924888, "bike_id": "87ef66bbc2366a9debff324c319eb2da", "fusion_lon": 0.0}, {"rental_uris": {"ios": "https://dc.lft.to/lastmile_qr_scan", "android": "https://dc.lft.to/lastmile_qr_scan"}, "type": "electric_scooter", "name": "93a9c0f43a114d2356c6e1166c11cc16", "is_reserved": 0, "lon": -77.034505, "is_disabled": 0, "fusion_lat": 0.0, "lat": 38.905582833333334, "bike_id": "93a9c0f43a114d2356c6e1166c11cc16", "fusion_lon": 0.0}, {"rental_uris": {"ios": "https://dc.lft.to/lastmile_qr_scan", "android": "https://dc.lft.to/lastmile_qr_scan"}, "type": "electric_scooter", "name": "6694d76e2b0b293d6cfd783d024837af", "is_reserved": 0, "lon": -77.049281, "is_disabled": 0, "fusion_lat": 0.0, "lat": 38.919389, "bike_id": "6694d76e2b0b293d6cfd783d024837af", "fusion_lon": 0.0}, {"rental_uris": {"ios": "https://dc.lft.to/lastmile_qr_scan", "android": "https://dc.lft.to/lastmile_qr_scan"}, "type": "electric_scooter", "name": "6cfc102a6d3abb1fb4bef27718166af0", "is_reserved": 0, "lon": -77.04178883333333, "is_disabled": 0, "fusion_lat": 0.0, "lat": 38.91411733333333, "bike_id": "6cfc102a6d3abb1fb4bef27718166af0", "fusion_lon": 0.0}, {"rental_uris": {"ios": "https://dc.lft.to/lastmile_qr_scan", "android": "https://dc.lft.to/lastmile_qr_scan"}, "type": "electric_scooter", "name": "783a919bc005c655969939422798532a", "is_reserved": 0, "lon": -77.04051766666667, "is_disabled": 0, "fusion_lat": 0.0, "lat": 38.93006616666667, "bike_id": "783a919bc005c655969939422798532a", "fusion_lon": 0.0}, {"rental_uris": {"ios": "https://dc.lft.to/lastmile_qr_scan", "android": "https://dc.lft.to/lastmile_qr_scan"}, "type": "electric_scooter", "name": "099163fa26f846ed9ec1e4d0ce4d7567", "is_reserved": 0, "lon": -77.0462355, "is_disabled": 0, "fusion_lat": 0.0, "lat": 38.91404716666667, "bike_id": "099163fa26f846ed9ec1e4d0ce4d7567", "fusion_lon": 0.0}, {"rental_uris": {"ios": "https://dc.lft.to/lastmile_qr_scan", "android": "https://dc.lft.to/lastmile_qr_scan"}, "type": "electric_scooter", "name": "0d0c9110eeddc9d95c685eb81a3d2ece", "is_reserved": 0, "lon": -77.0543165, "is_disabled": 0, "fusion_lat": 0.0, "lat": 38.92847666666667, "bike_id": "0d0c9110eeddc9d95c685eb81a3d2ece", "fusion_lon": 0.0}, {"rental_uris": {"ios": "https://dc.lft.to/lastmile_qr_scan", "android": "https://dc.lft.to/lastmile_qr_scan"}, "type": "electric_scooter", "name": "afa6198e0df2fad5fa07d7a4b9ec032c", "is_reserved": 0, "lon": -77.0295945, "is_disabled": 0, "fusion_lat": 0.0, "lat": 38.916990166666665, "bike_id": "afa6198e0df2fad5fa07d7a4b9ec032c", "fusion_lon": 0.0}, {"rental_uris": {"ios": "https://dc.lft.to/lastmile_qr_scan", "android": "https://dc.lft.to/lastmile_qr_scan"}, "type": "electric_scooter", "name": "c95fe50683e6f2bc06f0d3b8e3becbcd", "is_reserved": 0, "lon": -77.023165, "is_disabled": 0, "fusion_lat": 0.0, "lat": 38.920686333333336, "bike_id": "c95fe50683e6f2bc06f0d3b8e3becbcd", "fusion_lon": 0.0}, {"rental_uris": {"ios": "https://dc.lft.to/lastmile_qr_scan", "android": "https://dc.lft.to/lastmile_qr_scan"}, "type": "electric_scooter", "name": "a8707a2150509515d0e83d09327cfeeb", "is_reserved": 0, "lon": -77.026796, "is_disabled": 0, "fusion_lat": 0.0, "lat": 38.9247895, "bike_id": "a8707a2150509515d0e83d09327cfeeb", "fusion_lon": 0.0}, {"rental_uris": {"ios": "https://dc.lft.to/lastmile_qr_scan", "android": "https://dc.lft.to/lastmile_qr_scan"}, "type": "electric_scooter", "name": "a9f9b076b064414848b99073389ad132", "is_reserved": 0, "lon": -76.95737366666667, "is_disabled": 0, "fusion_lat": 0.0, "lat": 38.883868666666665, "bike_id": "a9f9b076b064414848b99073389ad132", "fusion_lon": 0.0}, {"rental_uris": {"ios": "https://dc.lft.to/lastmile_qr_scan", "android": "https://dc.lft.to/lastmile_qr_scan"}, "type": "electric_scooter", "name": "727229167fe3376489aa9c10a0c2009d", "is_reserved": 0, "lon": -77.0343715, "is_disabled": 0, "fusion_lat": 0.0, "lat": 38.917061, "bike_id": "727229167fe3376489aa9c10a0c2009d", "fusion_lon": 0.0}, {"rental_uris": {"ios": "https://dc.lft.to/lastmile_qr_scan", "android": "https://dc.lft.to/lastmile_qr_scan"}, "type": "electric_scooter", "name": "4ccab0ef0b4294ac7a916eeee98ba3b7", "is_reserved": 0, "lon": -77.07165716666667, "is_disabled": 0, "fusion_lat": 0.0, "lat": 38.90778616666667, "bike_id": "4ccab0ef0b4294ac7a916eeee98ba3b7", "fusion_lon": 0.0}, {"rental_uris": {"ios": "https://dc.lft.to/lastmile_qr_scan", "android": "https://dc.lft.to/lastmile_qr_scan"}, "type": "electric_scooter", "name": "7dd6e5e7817a61c4d8182c368544d77a", "is_reserved": 0, "lon": -77.004874, "is_disabled": 0, "fusion_lat": 0.0, "lat": 38.87460133333333, "bike_id": "7dd6e5e7817a61c4d8182c368544d77a", "fusion_lon": 0.0}, {"rental_uris": {"ios": "https://dc.lft.to/lastmile_qr_scan", "android": "https://dc.lft.to/lastmile_qr_scan"}, "type": "electric_scooter", "name": "82de1dd38a82e6a72c6b0b0d63dfbf87", "is_reserved": 0, "lon": -77.023876, "is_disabled": 0, "fusion_lat": 0.0, "lat": 38.92073216666667, "bike_id": "82de1dd38a82e6a72c6b0b0d63dfbf87", "fusion_lon": 0.0}, {"rental_uris": {"ios": "https://dc.lft.to/lastmile_qr_scan", "android": "https://dc.lft.to/lastmile_qr_scan"}, "type": "electric_scooter", "name": "64860ecc5e563d38d498d536796a4212", "is_reserved": 0, "lon": -77.0413435, "is_disabled": 0, "fusion_lat": 0.0, "lat": 38.9071415, "bike_id": "64860ecc5e563d38d498d536796a4212", "fusion_lon": 0.0}, {"rental_uris": {"ios": "https://dc.lft.to/lastmile_qr_scan", "android": "https://dc.lft.to/lastmile_qr_scan"}, "type": "electric_scooter", "name": "28af854beb3fc743f309b936681991d0", "is_reserved": 0, "lon": -77.0396285, "is_disabled": 0, "fusion_lat": 0.0, "lat": 38.924543666666665, "bike_id": "28af854beb3fc743f309b936681991d0", "fusion_lon": 0.0}, {"rental_uris": {"ios": "https://dc.lft.to/lastmile_qr_scan", "android": "https://dc.lft.to/lastmile_qr_scan"}, "type": "electric_bike", "name": "d5e2ec1de0fb0b66b6d3f0b59efef68c", "is_reserved": 0, "lon": -76.93860533333333, "is_disabled": 0, "fusion_lat": 0.0, "lat": 38.977693333333335, "bike_id": "d5e2ec1de0fb0b66b6d3f0b59efef68c", "fusion_lon": 0.0}, {"rental_uris": {"ios": "https://dc.lft.to/lastmile_qr_scan", "android": "https://dc.lft.to/lastmile_qr_scan"}, "type": "electric_scooter", "name": "5909525261dd040fcfdf8df495b72480", "is_reserved": 0, "lon": -77.00071733333333, "is_disabled": 0, "fusion_lat": 0.0, "lat": 38.89486183333333, "bike_id": "5909525261dd040fcfdf8df495b72480", "fusion_lon": 0.0}, {"rental_uris": {"ios": "https://dc.lft.to/lastmile_qr_scan", "android": "https://dc.lft.to/lastmile_qr_scan"}, "type": "electric_scooter", "name": "890019076dd88ee01533e8e222ec0390", "is_reserved": 0, "lon": -77.0641665, "is_disabled": 0, "fusion_lat": 0.0, "lat": 38.9091185, "bike_id": "890019076dd88ee01533e8e222ec0390", "fusion_lon": 0.0}, {"rental_uris": {"ios": "https://dc.lft.to/lastmile_qr_scan", "android": "https://dc.lft.to/lastmile_qr_scan"}, "type": "electric_scooter", "name": "ab6cbdabef959441336dfb924634e562", "is_reserved": 0, "lon": -77.017588, "is_disabled": 0, "fusion_lat": 0.0, "lat": 38.876852166666666, "bike_id": "ab6cbdabef959441336dfb924634e562", "fusion_lon": 0.0}, {"rental_uris": {"ios": "https://dc.lft.to/lastmile_qr_scan", "android": "https://dc.lft.to/lastmile_qr_scan"}, "type": "electric_scooter", "name": "efd1c1e00626a208b56a2d0f67a7bc2b", "is_reserved": 0, "lon": -77.02422416666667, "is_disabled": 0, "fusion_lat": 0.0, "lat": 38.918227, "bike_id": "efd1c1e00626a208b56a2d0f67a7bc2b", "fusion_lon": 0.0}, {"rental_uris": {"ios": "https://dc.lft.to/lastmile_qr_scan", "android": "https://dc.lft.to/lastmile_qr_scan"}, "type": "electric_scooter", "name": "3c727fa737032027b349c4ccbb9496f6", "is_reserved": 0, "lon": -77.02963816666667, "is_disabled": 0, "fusion_lat": 0.0, "lat": 38.935635, "bike_id": "3c727fa737032027b349c4ccbb9496f6", "fusion_lon": 0.0}, {"rental_uris": {"ios": "https://dc.lft.to/lastmile_qr_scan", "android": "https://dc.lft.to/lastmile_qr_scan"}, "type": "electric_scooter", "name": "94b51cdd1c4965c630952e9a3507a009", "is_reserved": 0, "lon": -77.044336, "is_disabled": 0, "fusion_lat": 0.0, "lat": 38.921090166666666, "bike_id": "94b51cdd1c4965c630952e9a3507a009", "fusion_lon": 0.0}, {"rental_uris": {"ios": "https://dc.lft.to/lastmile_qr_scan", "android": "https://dc.lft.to/lastmile_qr_scan"}, "type": "electric_scooter", "name": "9c12b803977380892a79ff6aad28f834", "is_reserved": 0, "lon": -77.030578, "is_disabled": 0, "fusion_lat": 0.0, "lat": 38.92384, "bike_id": "9c12b803977380892a79ff6aad28f834", "fusion_lon": 0.0}, {"rental_uris": {"ios": "https://dc.lft.to/lastmile_qr_scan", "android": "https://dc.lft.to/lastmile_qr_scan"}, "type": "electric_scooter", "name": "221d44b2aba12ed7a6fc4767e2843306", "is_reserved": 0, "lon": -77.03199066666667, "is_disabled": 0, "fusion_lat": 0.0, "lat": 38.909123, "bike_id": "221d44b2aba12ed7a6fc4767e2843306", "fusion_lon": 0.0}, {"rental_uris": {"ios": "https://dc.lft.to/lastmile_qr_scan", "android": "https://dc.lft.to/lastmile_qr_scan"}, "type": "electric_scooter", "name": "696bcd531e87fb645f523d877d3a0533", "is_reserved": 0, "lon": -77.00514833333334, "is_disabled": 0, "fusion_lat": 0.0, "lat": 38.896766666666664, "bike_id": "696bcd531e87fb645f523d877d3a0533", "fusion_lon": 0.0}, {"rental_uris": {"ios": "https://dc.lft.to/lastmile_qr_scan", "android": "https://dc.lft.to/lastmile_qr_scan"}, "type": "electric_scooter", "name": "d3063500ff06afcbd4c4952324b17204", "is_reserved": 0, "lon": -77.02962533333333, "is_disabled": 0, "fusion_lat": 0.0, "lat": 38.916841166666664, "bike_id": "d3063500ff06afcbd4c4952324b17204", "fusion_lon": 0.0}, {"rental_uris": {"ios": "https://dc.lft.to/lastmile_qr_scan", "android": "https://dc.lft.to/lastmile_qr_scan"}, "type": "electric_bike", "name": "f1464207a9be10cf19bb49af936728f7", "is_reserved": 0, "lon": -77.089677, "is_disabled": 0, "fusion_lat": 0.0, "lat": 38.84110666666667, "bike_id": "f1464207a9be10cf19bb49af936728f7", "fusion_lon": 0.0}, {"rental_uris": {"ios": "https://dc.lft.to/lastmile_qr_scan", "android": "https://dc.lft.to/lastmile_qr_scan"}, "type": "electric_scooter", "name": "14a0c413d28782f72bad0ab338dbe619", "is_reserved": 0, "lon": -77.028329, "is_disabled": 0, "fusion_lat": 0.0, "lat": 38.904550666666665, "bike_id": "14a0c413d28782f72bad0ab338dbe619", "fusion_lon": 0.0}, {"rental_uris": {"ios": "https://dc.lft.to/lastmile_qr_scan", "android": "https://dc.lft.to/lastmile_qr_scan"}, "type": "electric_scooter", "name": "966dd2c27d62af9499baf28316d017b4", "is_reserved": 0, "lon": -77.03076833333333, "is_disabled": 0, "fusion_lat": 0.0, "lat": 38.897124833333336, "bike_id": "966dd2c27d62af9499baf28316d017b4", "fusion_lon": 0.0}, {"rental_uris": {"ios": "https://dc.lft.to/lastmile_qr_scan", "android": "https://dc.lft.to/lastmile_qr_scan"}, "type": "electric_bike", "name": "a9a3a7d2009cd74aef906dc96cca2e51", "is_reserved": 0, "lon": -76.95745366666667, "is_disabled": 0, "fusion_lat": 0.0, "lat": 38.88858316666666, "bike_id": "a9a3a7d2009cd74aef906dc96cca2e51", "fusion_lon": 0.0}, {"rental_uris": {"ios": "https://dc.lft.to/lastmile_qr_scan", "android": "https://dc.lft.to/lastmile_qr_scan"}, "type": "electric_scooter", "name": "ab4b57c87cebcfaa36a93f3292e54d10", "is_reserved": 0, "lon": -77.03136966666666, "is_disabled": 0, "fusion_lat": 0.0, "lat": 38.906286333333334, "bike_id": "ab4b57c87cebcfaa36a93f3292e54d10", "fusion_lon": 0.0}, {"rental_uris": {"ios": "https://dc.lft.to/lastmile_qr_scan", "android": "https://dc.lft.to/lastmile_qr_scan"}, "type": "electric_scooter", "name": "f4040d654e02e4b07bbe3793435c13bb", "is_reserved": 0, "lon": -76.94717216666666, "is_disabled": 0, "fusion_lat": 0.0, "lat": 38.890813666666666, "bike_id": "f4040d654e02e4b07bbe3793435c13bb", "fusion_lon": 0.0}, {"rental_uris": {"ios": "https://dc.lft.to/lastmile_qr_scan", "android": "https://dc.lft.to/lastmile_qr_scan"}, "type": "electric_scooter", "name": "1def74ffecbf4a7e27d04bd52ddd3f0f", "is_reserved": 0, "lon": -77.002448, "is_disabled": 0, "fusion_lat": 0.0, "lat": 38.907858833333336, "bike_id": "1def74ffecbf4a7e27d04bd52ddd3f0f", "fusion_lon": 0.0}, {"rental_uris": {"ios": "https://dc.lft.to/lastmile_qr_scan", "android": "https://dc.lft.to/lastmile_qr_scan"}, "type": "electric_scooter", "name": "904d5a92417f01bb4f5eef01ed56ad7f", "is_reserved": 0, "lon": -76.996083, "is_disabled": 0, "fusion_lat": 0.0, "lat": 38.887181, "bike_id": "904d5a92417f01bb4f5eef01ed56ad7f", "fusion_lon": 0.0}, {"rental_uris": {"ios": "https://dc.lft.to/lastmile_qr_scan", "android": "https://dc.lft.to/lastmile_qr_scan"}, "type": "electric_scooter", "name": "5ed97fc69f5902f74b600271463e2874", "is_reserved": 0, "lon": -77.018444, "is_disabled": 0, "fusion_lat": 0.0, "lat": 38.91511, "bike_id": "5ed97fc69f5902f74b600271463e2874", "fusion_lon": 0.0}, {"rental_uris": {"ios": "https://dc.lft.to/lastmile_qr_scan", "android": "https://dc.lft.to/lastmile_qr_scan"}, "type": "electric_scooter", "name": "98ba3a4dd851a11deb1983a982764af2", "is_reserved": 0, "lon": -77.00220266666666, "is_disabled": 0, "fusion_lat": 0.0, "lat": 38.9075515, "bike_id": "98ba3a4dd851a11deb1983a982764af2", "fusion_lon": 0.0}, {"rental_uris": {"ios": "https://dc.lft.to/lastmile_qr_scan", "android": "https://dc.lft.to/lastmile_qr_scan"}, "type": "electric_scooter", "name": "92677bcbad04dc79b143a93893778087", "is_reserved": 0, "lon": -77.04126766666667, "is_disabled": 0, "fusion_lat": 0.0, "lat": 38.934054333333336, "bike_id": "92677bcbad04dc79b143a93893778087", "fusion_lon": 0.0}, {"rental_uris": {"ios": "https://dc.lft.to/lastmile_qr_scan", "android": "https://dc.lft.to/lastmile_qr_scan"}, "type": "electric_scooter", "name": "9bac1f09981354870f454c9cc3b37aa5", "is_reserved": 0, "lon": -77.0163405, "is_disabled": 0, "fusion_lat": 0.0, "lat": 38.90259666666667, "bike_id": "9bac1f09981354870f454c9cc3b37aa5", "fusion_lon": 0.0}, {"rental_uris": {"ios": "https://dc.lft.to/lastmile_qr_scan", "android": "https://dc.lft.to/lastmile_qr_scan"}, "type": "electric_scooter", "name": "0bee8fe708b52c04a8a64bef245c1728", "is_reserved": 0, "lon": -76.99344883333333, "is_disabled": 0, "fusion_lat": 0.0, "lat": 38.90015066666667, "bike_id": "0bee8fe708b52c04a8a64bef245c1728", "fusion_lon": 0.0}, {"rental_uris": {"ios": "https://dc.lft.to/lastmile_qr_scan", "android": "https://dc.lft.to/lastmile_qr_scan"}, "type": "electric_scooter", "name": "fdfc6ac3d223912c0646278e8b3dace3", "is_reserved": 0, "lon": -77.03838733333333, "is_disabled": 0, "fusion_lat": 0.0, "lat": 38.91196716666666, "bike_id": "fdfc6ac3d223912c0646278e8b3dace3", "fusion_lon": 0.0}, {"rental_uris": {"ios": "https://dc.lft.to/lastmile_qr_scan", "android": "https://dc.lft.to/lastmile_qr_scan"}, "type": "electric_scooter", "name": "1831e2287a957abf3c3ffee64161cded", "is_reserved": 0, "lon": -77.0345875, "is_disabled": 0, "fusion_lat": 0.0, "lat": 38.905605666666666, "bike_id": "1831e2287a957abf3c3ffee64161cded", "fusion_lon": 0.0}, {"rental_uris": {"ios": "https://dc.lft.to/lastmile_qr_scan", "android": "https://dc.lft.to/lastmile_qr_scan"}, "type": "electric_scooter", "name": "cd90e489a149541b8972211ce68b1b1f", "is_reserved": 0, "lon": -77.05910833333333, "is_disabled": 0, "fusion_lat": 0.0, "lat": 38.9018275, "bike_id": "cd90e489a149541b8972211ce68b1b1f", "fusion_lon": 0.0}, {"rental_uris": {"ios": "https://dc.lft.to/lastmile_qr_scan", "android": "https://dc.lft.to/lastmile_qr_scan"}, "type": "electric_scooter", "name": "af311ff737e0d993e994e0a07fc2c816", "is_reserved": 0, "lon": -77.02074283333333, "is_disabled": 0, "fusion_lat": 0.0, "lat": 38.930228166666666, "bike_id": "af311ff737e0d993e994e0a07fc2c816", "fusion_lon": 0.0}, {"rental_uris": {"ios": "https://dc.lft.to/lastmile_qr_scan", "android": "https://dc.lft.to/lastmile_qr_scan"}, "type": "electric_bike", "name": "d77929d7d4e0c72460bb979051699ea1", "is_reserved": 0, "lon": -76.96322233333333, "is_disabled": 0, "fusion_lat": 0.0, "lat": 38.93900933333333, "bike_id": "d77929d7d4e0c72460bb979051699ea1", "fusion_lon": 0.0}, {"rental_uris": {"ios": "https://dc.lft.to/lastmile_qr_scan", "android": "https://dc.lft.to/lastmile_qr_scan"}, "type": "electric_scooter", "name": "440dd30a254f4bf23378de74a0f0f212", "is_reserved": 0, "lon": -77.02834133333333, "is_disabled": 0, "fusion_lat": 0.0, "lat": 38.88736983333333, "bike_id": "440dd30a254f4bf23378de74a0f0f212", "fusion_lon": 0.0}, {"rental_uris": {"ios": "https://dc.lft.to/lastmile_qr_scan", "android": "https://dc.lft.to/lastmile_qr_scan"}, "type": "electric_scooter", "name": "c2665cb0c83f7dfea3a4f368ad438a86", "is_reserved": 0, "lon": -77.0270465, "is_disabled": 0, "fusion_lat": 0.0, "lat": 38.917343833333334, "bike_id": "c2665cb0c83f7dfea3a4f368ad438a86", "fusion_lon": 0.0}, {"rental_uris": {"ios": "https://dc.lft.to/lastmile_qr_scan", "android": "https://dc.lft.to/lastmile_qr_scan"}, "type": "electric_scooter", "name": "7f4e3703a73641bb4ea59ffa405cded9", "is_reserved": 0, "lon": -77.04172833333334, "is_disabled": 0, "fusion_lat": 0.0, "lat": 38.9140765, "bike_id": "7f4e3703a73641bb4ea59ffa405cded9", "fusion_lon": 0.0}, {"rental_uris": {"ios": "https://dc.lft.to/lastmile_qr_scan", "android": "https://dc.lft.to/lastmile_qr_scan"}, "type": "electric_scooter", "name": "dd181c022ff7713b8656971b6ddd5e16", "is_reserved": 0, "lon": -76.99620966666667, "is_disabled": 0, "fusion_lat": 0.0, "lat": 38.899956, "bike_id": "dd181c022ff7713b8656971b6ddd5e16", "fusion_lon": 0.0}, {"rental_uris": {"ios": "https://dc.lft.to/lastmile_qr_scan", "android": "https://dc.lft.to/lastmile_qr_scan"}, "type": "electric_scooter", "name": "b799ab5d03a097150ac9a927deb7fc87", "is_reserved": 0, "lon": -77.0055325, "is_disabled": 0, "fusion_lat": 0.0, "lat": 38.91188016666667, "bike_id": "b799ab5d03a097150ac9a927deb7fc87", "fusion_lon": 0.0}, {"rental_uris": {"ios": "https://dc.lft.to/lastmile_qr_scan", "android": "https://dc.lft.to/lastmile_qr_scan"}, "type": "electric_scooter", "name": "ea3cb483484ce87147a58bba2ac69be8", "is_reserved": 0, "lon": -77.01053166666667, "is_disabled": 0, "fusion_lat": 0.0, "lat": 38.91193916666667, "bike_id": "ea3cb483484ce87147a58bba2ac69be8", "fusion_lon": 0.0}, {"rental_uris": {"ios": "https://dc.lft.to/lastmile_qr_scan", "android": "https://dc.lft.to/lastmile_qr_scan"}, "type": "electric_scooter", "name": "59a0400040780c1ba98dcaa3e39f8898", "is_reserved": 0, "lon": -77.03639383333334, "is_disabled": 0, "fusion_lat": 0.0, "lat": 38.9248415, "bike_id": "59a0400040780c1ba98dcaa3e39f8898", "fusion_lon": 0.0}, {"rental_uris": {"ios": "https://dc.lft.to/lastmile_qr_scan", "android": "https://dc.lft.to/lastmile_qr_scan"}, "type": "electric_scooter", "name": "cf8901c0edd2c1c8294e8e1ea4ead198", "is_reserved": 0, "lon": -77.02015616666667, "is_disabled": 0, "fusion_lat": 0.0, "lat": 38.92328233333333, "bike_id": "cf8901c0edd2c1c8294e8e1ea4ead198", "fusion_lon": 0.0}, {"rental_uris": {"ios": "https://dc.lft.to/lastmile_qr_scan", "android": "https://dc.lft.to/lastmile_qr_scan"}, "type": "electric_scooter", "name": "fd0a2beb8094ece3268fb5ee2725bc2d", "is_reserved": 0, "lon": -77.00312766666667, "is_disabled": 0, "fusion_lat": 0.0, "lat": 38.90906966666667, "bike_id": "fd0a2beb8094ece3268fb5ee2725bc2d", "fusion_lon": 0.0}, {"rental_uris": {"ios": "https://dc.lft.to/lastmile_qr_scan", "android": "https://dc.lft.to/lastmile_qr_scan"}, "type": "electric_scooter", "name": "d2806522187b2f10531c7af262b1c8bb", "is_reserved": 0, "lon": -77.042016, "is_disabled": 0, "fusion_lat": 0.0, "lat": 38.92253916666667, "bike_id": "d2806522187b2f10531c7af262b1c8bb", "fusion_lon": 0.0}, {"rental_uris": {"ios": "https://dc.lft.to/lastmile_qr_scan", "android": "https://dc.lft.to/lastmile_qr_scan"}, "type": "electric_scooter", "name": "9f0ff3a25a79343181873a407bd8e784", "is_reserved": 0, "lon": -77.071628, "is_disabled": 0, "fusion_lat": 0.0, "lat": 38.90760016666667, "bike_id": "9f0ff3a25a79343181873a407bd8e784", "fusion_lon": 0.0}, {"rental_uris": {"ios": "https://dc.lft.to/lastmile_qr_scan", "android": "https://dc.lft.to/lastmile_qr_scan"}, "type": "electric_scooter", "name": "bf7ed553bd115d8fd2265e3178c590e4", "is_reserved": 0, "lon": -76.92934416666667, "is_disabled": 0, "fusion_lat": 0.0, "lat": 38.90341883333333, "bike_id": "bf7ed553bd115d8fd2265e3178c590e4", "fusion_lon": 0.0}, {"rental_uris": {"ios": "https://dc.lft.to/lastmile_qr_scan", "android": "https://dc.lft.to/lastmile_qr_scan"}, "type": "electric_scooter", "name": "71754874fcf327bed5ef5ac4e32bef67", "is_reserved": 0, "lon": -77.06309266666666, "is_disabled": 0, "fusion_lat": 0.0, "lat": 38.943832666666665, "bike_id": "71754874fcf327bed5ef5ac4e32bef67", "fusion_lon": 0.0}, {"rental_uris": {"ios": "https://dc.lft.to/lastmile_qr_scan", "android": "https://dc.lft.to/lastmile_qr_scan"}, "type": "electric_scooter", "name": "69b005beb08104761c913201364fe398", "is_reserved": 0, "lon": -77.023977, "is_disabled": 0, "fusion_lat": 0.0, "lat": 38.906586833333336, "bike_id": "69b005beb08104761c913201364fe398", "fusion_lon": 0.0}, {"rental_uris": {"ios": "https://dc.lft.to/lastmile_qr_scan", "android": "https://dc.lft.to/lastmile_qr_scan"}, "type": "electric_bike", "name": "ecfc14738cfe109b52a1047365ca6cc8", "is_reserved": 0, "lon": -76.96302733333333, "is_disabled": 0, "fusion_lat": 0.0, "lat": 38.896966166666665, "bike_id": "ecfc14738cfe109b52a1047365ca6cc8", "fusion_lon": 0.0}, {"rental_uris": {"ios": "https://dc.lft.to/lastmile_qr_scan", "android": "https://dc.lft.to/lastmile_qr_scan"}, "type": "electric_scooter", "name": "8dcbb537129982ba976433acd74c6e56", "is_reserved": 0, "lon": -77.01588016666666, "is_disabled": 0, "fusion_lat": 0.0, "lat": 38.8722565, "bike_id": "8dcbb537129982ba976433acd74c6e56", "fusion_lon": 0.0}, {"rental_uris": {"ios": "https://dc.lft.to/lastmile_qr_scan", "android": "https://dc.lft.to/lastmile_qr_scan"}, "type": "electric_scooter", "name": "7fa24fd41ce6093af489207d6b3a713a", "is_reserved": 0, "lon": -77.04007183333333, "is_disabled": 0, "fusion_lat": 0.0, "lat": 38.922504, "bike_id": "7fa24fd41ce6093af489207d6b3a713a", "fusion_lon": 0.0}, {"rental_uris": {"ios": "https://dc.lft.to/lastmile_qr_scan", "android": "https://dc.lft.to/lastmile_qr_scan"}, "type": "electric_scooter", "name": "e4975b85b240964331e5f4dea14136af", "is_reserved": 0, "lon": -77.05081633333333, "is_disabled": 0, "fusion_lat": 0.0, "lat": 38.903740666666664, "bike_id": "e4975b85b240964331e5f4dea14136af", "fusion_lon": 0.0}, {"rental_uris": {"ios": "https://dc.lft.to/lastmile_qr_scan", "android": "https://dc.lft.to/lastmile_qr_scan"}, "type": "electric_scooter", "name": "16894a57a7769b746587bfb62e941186", "is_reserved": 0, "lon": -77.02980466666666, "is_disabled": 0, "fusion_lat": 0.0, "lat": 38.91663233333333, "bike_id": "16894a57a7769b746587bfb62e941186", "fusion_lon": 0.0}, {"rental_uris": {"ios": "https://dc.lft.to/lastmile_qr_scan", "android": "https://dc.lft.to/lastmile_qr_scan"}, "type": "electric_scooter", "name": "e4e64995ddfa1cdb87be51eb4e4c6092", "is_reserved": 0, "lon": -77.006408, "is_disabled": 0, "fusion_lat": 0.0, "lat": 38.878235, "bike_id": "e4e64995ddfa1cdb87be51eb4e4c6092", "fusion_lon": 0.0}, {"rental_uris": {"ios": "https://dc.lft.to/lastmile_qr_scan", "android": "https://dc.lft.to/lastmile_qr_scan"}, "type": "electric_scooter", "name": "c1ce3a2746947e490fa8d77695a62af9", "is_reserved": 0, "lon": -77.02787433333333, "is_disabled": 0, "fusion_lat": 0.0, "lat": 38.892385166666664, "bike_id": "c1ce3a2746947e490fa8d77695a62af9", "fusion_lon": 0.0}, {"rental_uris": {"ios": "https://dc.lft.to/lastmile_qr_scan", "android": "https://dc.lft.to/lastmile_qr_scan"}, "type": "electric_scooter", "name": "bb02de3dd52b78b64edaf295d92ecec1", "is_reserved": 0, "lon": -77.03812816666667, "is_disabled": 0, "fusion_lat": 0.0, "lat": 38.9311615, "bike_id": "bb02de3dd52b78b64edaf295d92ecec1", "fusion_lon": 0.0}, {"rental_uris": {"ios": "https://dc.lft.to/lastmile_qr_scan", "android": "https://dc.lft.to/lastmile_qr_scan"}, "type": "electric_scooter", "name": "45a505dc69e2ba93aeabaed7b3e76df8", "is_reserved": 0, "lon": -77.06628566666667, "is_disabled": 0, "fusion_lat": 0.0, "lat": 38.90512866666667, "bike_id": "45a505dc69e2ba93aeabaed7b3e76df8", "fusion_lon": 0.0}, {"rental_uris": {"ios": "https://dc.lft.to/lastmile_qr_scan", "android": "https://dc.lft.to/lastmile_qr_scan"}, "type": "electric_scooter", "name": "03a3866f0a4d66e67fbbce7d683e5d62", "is_reserved": 0, "lon": -77.03416916666667, "is_disabled": 0, "fusion_lat": 0.0, "lat": 38.9219675, "bike_id": "03a3866f0a4d66e67fbbce7d683e5d62", "fusion_lon": 0.0}, {"rental_uris": {"ios": "https://dc.lft.to/lastmile_qr_scan", "android": "https://dc.lft.to/lastmile_qr_scan"}, "type": "electric_scooter", "name": "ec8e788418c6c30f8b92c6aa5d86ccc9", "is_reserved": 0, "lon": -77.02502333333334, "is_disabled": 0, "fusion_lat": 0.0, "lat": 38.935517, "bike_id": "ec8e788418c6c30f8b92c6aa5d86ccc9", "fusion_lon": 0.0}, {"rental_uris": {"ios": "https://dc.lft.to/lastmile_qr_scan", "android": "https://dc.lft.to/lastmile_qr_scan"}, "type": "electric_bike", "name": "c4eea78f5840fd4f3e4e18c08f7b3494", "is_reserved": 0, "lon": -77.12650133333334, "is_disabled": 0, "fusion_lat": 0.0, "lat": 38.8191505, "bike_id": "c4eea78f5840fd4f3e4e18c08f7b3494", "fusion_lon": 0.0}, {"rental_uris": {"ios": "https://dc.lft.to/lastmile_qr_scan", "android": "https://dc.lft.to/lastmile_qr_scan"}, "type": "electric_scooter", "name": "310b87a722392a90bb68b12eb93de664", "is_reserved": 0, "lon": -77.00541716666666, "is_disabled": 0, "fusion_lat": 0.0, "lat": 38.87639383333333, "bike_id": "310b87a722392a90bb68b12eb93de664", "fusion_lon": 0.0}, {"rental_uris": {"ios": "https://dc.lft.to/lastmile_qr_scan", "android": "https://dc.lft.to/lastmile_qr_scan"}, "type": "electric_scooter", "name": "3ec7ceb84bd96bd4732c710aaf190d5f", "is_reserved": 0, "lon": -77.05909583333333, "is_disabled": 0, "fusion_lat": 0.0, "lat": 38.9028165, "bike_id": "3ec7ceb84bd96bd4732c710aaf190d5f", "fusion_lon": 0.0}, {"rental_uris": {"ios": "https://dc.lft.to/lastmile_qr_scan", "android": "https://dc.lft.to/lastmile_qr_scan"}, "type": "electric_scooter", "name": "5126be48051eecc0959daad4f06971bb", "is_reserved": 0, "lon": -76.98502733333333, "is_disabled": 0, "fusion_lat": 0.0, "lat": 38.87994583333333, "bike_id": "5126be48051eecc0959daad4f06971bb", "fusion_lon": 0.0}, {"rental_uris": {"ios": "https://dc.lft.to/lastmile_qr_scan", "android": "https://dc.lft.to/lastmile_qr_scan"}, "type": "electric_bike", "name": "f914ab29f9c8925a08a6cf5ef0bd6373", "is_reserved": 0, "lon": -77.0853005, "is_disabled": 0, "fusion_lat": 0.0, "lat": 38.8564855, "bike_id": "f914ab29f9c8925a08a6cf5ef0bd6373", "fusion_lon": 0.0}, {"rental_uris": {"ios": "https://dc.lft.to/lastmile_qr_scan", "android": "https://dc.lft.to/lastmile_qr_scan"}, "type": "electric_bike", "name": "3a932e8cfe50249636191a1e6699abbe", "is_reserved": 0, "lon": -76.9332935, "is_disabled": 0, "fusion_lat": 0.0, "lat": 38.95155, "bike_id": "3a932e8cfe50249636191a1e6699abbe", "fusion_lon": 0.0}, {"rental_uris": {"ios": "https://dc.lft.to/lastmile_qr_scan", "android": "https://dc.lft.to/lastmile_qr_scan"}, "type": "electric_bike", "name": "ec67ba02cc1a24633cacd4ad21dd29d9", "is_reserved": 0, "lon": -77.09617583333333, "is_disabled": 0, "fusion_lat": 0.0, "lat": 38.97444133333333, "bike_id": "ec67ba02cc1a24633cacd4ad21dd29d9", "fusion_lon": 0.0}, {"rental_uris": {"ios": "https://dc.lft.to/lastmile_qr_scan", "android": "https://dc.lft.to/lastmile_qr_scan"}, "type": "electric_scooter", "name": "4433587365f58740f4dc9e48e82fc2c7", "is_reserved": 0, "lon": -77.02408183333333, "is_disabled": 0, "fusion_lat": 0.0, "lat": 38.90968266666667, "bike_id": "4433587365f58740f4dc9e48e82fc2c7", "fusion_lon": 0.0}, {"rental_uris": {"ios": "https://dc.lft.to/lastmile_qr_scan", "android": "https://dc.lft.to/lastmile_qr_scan"}, "type": "electric_scooter", "name": "e32850ff8f5b3d056948ad9601914058", "is_reserved": 0, "lon": -77.04010016666666, "is_disabled": 0, "fusion_lat": 0.0, "lat": 38.922538, "bike_id": "e32850ff8f5b3d056948ad9601914058", "fusion_lon": 0.0}, {"rental_uris": {"ios": "https://dc.lft.to/lastmile_qr_scan", "android": "https://dc.lft.to/lastmile_qr_scan"}, "type": "electric_scooter", "name": "0297f7f8d4b56a98bcfb3dfd25e746e3", "is_reserved": 0, "lon": -77.00958166666666, "is_disabled": 0, "fusion_lat": 0.0, "lat": 38.8746485, "bike_id": "0297f7f8d4b56a98bcfb3dfd25e746e3", "fusion_lon": 0.0}, {"rental_uris": {"ios": "https://dc.lft.to/lastmile_qr_scan", "android": "https://dc.lft.to/lastmile_qr_scan"}, "type": "electric_scooter", "name": "6e1b3fda2b85095b284cba8857927e43", "is_reserved": 0, "lon": -77.02977, "is_disabled": 0, "fusion_lat": 0.0, "lat": 38.92365083333333, "bike_id": "6e1b3fda2b85095b284cba8857927e43", "fusion_lon": 0.0}, {"rental_uris": {"ios": "https://dc.lft.to/lastmile_qr_scan", "android": "https://dc.lft.to/lastmile_qr_scan"}, "type": "electric_scooter", "name": "b36aceada89c3abbfca7c7cdca5ec6f9", "is_reserved": 0, "lon": -77.07867483333334, "is_disabled": 0, "fusion_lat": 0.0, "lat": 38.93142066666667, "bike_id": "b36aceada89c3abbfca7c7cdca5ec6f9", "fusion_lon": 0.0}, {"rental_uris": {"ios": "https://dc.lft.to/lastmile_qr_scan", "android": "https://dc.lft.to/lastmile_qr_scan"}, "type": "electric_scooter", "name": "28a25299f6fa2b5de417ee06d5c2d704", "is_reserved": 0, "lon": -77.03089333333334, "is_disabled": 0, "fusion_lat": 0.0, "lat": 38.910439333333336, "bike_id": "28a25299f6fa2b5de417ee06d5c2d704", "fusion_lon": 0.0}, {"rental_uris": {"ios": "https://dc.lft.to/lastmile_qr_scan", "android": "https://dc.lft.to/lastmile_qr_scan"}, "type": "electric_scooter", "name": "ef4741d4c14908fea85ef337477ab54a", "is_reserved": 0, "lon": -77.00511766666666, "is_disabled": 0, "fusion_lat": 0.0, "lat": 38.87855033333334, "bike_id": "ef4741d4c14908fea85ef337477ab54a", "fusion_lon": 0.0}, {"rental_uris": {"ios": "https://dc.lft.to/lastmile_qr_scan", "android": "https://dc.lft.to/lastmile_qr_scan"}, "type": "electric_scooter", "name": "8b3706f0449bb2cc41569d962f1fd3ac", "is_reserved": 0, "lon": -77.01998583333334, "is_disabled": 0, "fusion_lat": 0.0, "lat": 38.900538166666664, "bike_id": "8b3706f0449bb2cc41569d962f1fd3ac", "fusion_lon": 0.0}, {"rental_uris": {"ios": "https://dc.lft.to/lastmile_qr_scan", "android": "https://dc.lft.to/lastmile_qr_scan"}, "type": "electric_scooter", "name": "cec935e42993b015345efe2552334cbc", "is_reserved": 0, "lon": -77.02352033333334, "is_disabled": 0, "fusion_lat": 0.0, "lat": 38.94526916666667, "bike_id": "cec935e42993b015345efe2552334cbc", "fusion_lon": 0.0}, {"rental_uris": {"ios": "https://dc.lft.to/lastmile_qr_scan", "android": "https://dc.lft.to/lastmile_qr_scan"}, "type": "electric_scooter", "name": "f79e85a918c7b56e009b789ed7c64cbc", "is_reserved": 0, "lon": -77.04122783333334, "is_disabled": 0, "fusion_lat": 0.0, "lat": 38.9309565, "bike_id": "f79e85a918c7b56e009b789ed7c64cbc", "fusion_lon": 0.0}, {"rental_uris": {"ios": "https://dc.lft.to/lastmile_qr_scan", "android": "https://dc.lft.to/lastmile_qr_scan"}, "type": "electric_scooter", "name": "afbfc00b281ffb9f3f336f959b41eb74", "is_reserved": 0, "lon": -76.98577816666666, "is_disabled": 0, "fusion_lat": 0.0, "lat": 38.85453183333333, "bike_id": "afbfc00b281ffb9f3f336f959b41eb74", "fusion_lon": 0.0}, {"rental_uris": {"ios": "https://dc.lft.to/lastmile_qr_scan", "android": "https://dc.lft.to/lastmile_qr_scan"},