{"data": {"bikes": [{"is_reserved": 0, "type": "electric_bike", "bike_id": "0a1ad8b4735e28d1b07b17094df1ffc9", "lat": 38.832997166666665, "lon": -77.08406333333333, "rental_uris": {"android": "https://dc.lft.to/lastmile_qr_scan", "ios": "https://dc.lft.to/lastmile_qr_scan"}, "is_disabled": 0, "fusion_lat": 0.0, "name": "0a1ad8b4735e28d1b07b17094df1ffc9", "fusion_lon": 0.0}, {"is_reserved": 0, "type": "electric_scooter", "bike_id": "be1aaa22173c95205ca242ac12faab1b", "lat": 38.89679783333333, "lon": -77.00512183333333, "rental_uris": {"android": "https://dc.lft.to/lastmile_qr_scan", "ios": "https://dc.lft.to/lastmile_qr_scan"}, "is_disabled": 0, "fusion_lat": 0.0, "name": "be1aaa22173c95205ca242ac12faab1b", "fusion_lon": 0.0}, {"is_reserved": 0, "type": "electric_scooter", "bike_id": "4af6426575ffc4f7927094451f6569c2", "lat": 38.92246433333333, "lon": -77.04257733333333, "rental_uris": {"android": "https://dc.lft.to/lastmile_qr_scan", "ios": "https://dc.lft.to/lastmile_qr_scan"}, "is_disabled": 0, "fusion_lat": 0.0, "name": "4af6426575ffc4f7927094451f6569c2", "fusion_lon": 0.0}, {"is_reserved": 0, "type": "electric_scooter", "bike_id": "0f5fcb7d59f8a1a1cf3094cfa440360c", "lat": 38.919276333333336, "lon": -77.03421433333334, "rental_uris": {"android": "https://dc.lft.to/lastmile_qr_scan", "ios": "https://dc.lft.to/lastmile_qr_scan"}, "is_disabled": 0, "fusion_lat": 0.0, "name": "0f5fcb7d59f8a1a1cf3094cfa440360c", "fusion_lon": 0.0}, {"is_reserved": 0, "type": "electric_scooter", "bike_id": "cc31d9b5a5e28cb420bdfdd2fd696d22", "lat": 38.93716366666666, "lon": -77.03266533333333, "rental_uris": {"android": "https://dc.lft.to/lastmile_qr_scan", "ios": "https://dc.lft.to/lastmile_qr_scan"}, "is_disabled": 0, "fusion_lat": 0.0, "name": "cc31d9b5a5e28cb420bdfdd2fd696d22", "fusion_lon": 0.0}, {"is_reserved": 0, "type": "electric_scooter", "bike_id": "9afc716d2199507f167dde96bd5c50ee", "lat": 38.88605666666667, "lon": -76.98814983333334, "rental_uris": {"android": "https://dc.lft.to/lastmile_qr_scan", "ios": "https://dc.lft.to/lastmile_qr_scan"}, "is_disabled": 0, "fusion_lat": 0.0, "name": "9afc716d2199507f167dde96bd5c50ee", "fusion_lon": 0.0}, {"is_reserved": 0, "type": "electric_scooter", "bike_id": "269bd97c2b1553afcc8113082ddb7a2e", "lat": 38.92458716666667, "lon": -77.05223366666667, "rental_uris": {"android": "https://dc.lft.to/lastmile_qr_scan", "ios": "https://dc.lft.to/lastmile_qr_scan"}, "is_disabled": 0, "fusion_lat": 0.0, "name": "269bd97c2b1553afcc8113082ddb7a2e", "fusion_lon": 0.0}, {"is_reserved": 0, "type": "electric_scooter", "bike_id": "745b8bdba1b0167bc9dde2eb05dfc289", "lat": 38.9283485, "lon": -77.00607316666667, "rental_uris": {"android": "https://dc.lft.to/lastmile_qr_scan", "ios": "https://dc.lft.to/lastmile_qr_scan"}, "is_disabled": 0, "fusion_lat": 0.0, "name": "745b8bdba1b0167bc9dde2eb05dfc289", "fusion_lon": 0.0}, {"is_reserved": 0, "type": "electric_scooter", "bike_id": "8fff600358b514663f0c5e85fac68117", "lat": 38.896174333333335, "lon": -77.0440905, "rental_uris": {"android": "https://dc.lft.to/lastmile_qr_scan", "ios": "https://dc.lft.to/lastmile_qr_scan"}, "is_disabled": 0, "fusion_lat": 0.0, "name": "8fff600358b514663f0c5e85fac68117", "fusion_lon": 0.0}, {"is_reserved": 0, "type": "electric_scooter", "bike_id": "e1539d0e2db2683f0dd8f37304762481", "lat": 38.901200833333334, "lon": -77.02792933333333, "rental_uris": {"android": "https://dc.lft.to/lastmile_qr_scan", "ios": "https://dc.lft.to/lastmile_qr_scan"}, "is_disabled": 0, "fusion_lat": 0.0, "name": "e1539d0e2db2683f0dd8f37304762481", "fusion_lon": 0.0}, {"is_reserved": 0, "type": "electric_scooter", "bike_id": "a1922d956e055cb03970f9a41d125e60", "lat": 38.845509, "lon": -76.99695316666667, "rental_uris": {"android": "https://dc.lft.to/lastmile_qr_scan", "ios": "https://dc.lft.to/lastmile_qr_scan"}, "is_disabled": 0, "fusion_lat": 0.0, "name": "a1922d956e055cb03970f9a41d125e60", "fusion_lon": 0.0}, {"is_reserved": 0, "type": "electric_scooter", "bike_id": "701309c9bdf3b71aa3021ac30192ea7e", "lat": 38.904840666666665, "lon": -77.0322025, "rental_uris": {"android": "https://dc.lft.to/lastmile_qr_scan", "ios": "https://dc.lft.to/lastmile_qr_scan"}, "is_disabled": 0, "fusion_lat": 0.0, "name": "701309c9bdf3b71aa3021ac30192ea7e", "fusion_lon": 0.0}, {"is_reserved": 0, "type": "electric_scooter", "bike_id": "6a7fd4688d64e6a714c7d57004fe7ecf", "lat": 38.926014, "lon": -77.0215265, "rental_uris": {"android": "https://dc.lft.to/lastmile_qr_scan", "ios": "https://dc.lft.to/lastmile_qr_scan"}, "is_disabled": 0, "fusion_lat": 0.0, "name": "6a7fd4688d64e6a714c7d57004fe7ecf", "fusion_lon": 0.0}, {"is_reserved": 0, "type": "electric_scooter", "bike_id": "16b1dcc3e0a46d802b34694559dee7cc", "lat": 38.915612833333334, "lon": -77.03089483333333, "rental_uris": {"android": "https://dc.lft.to/lastmile_qr_scan", "ios": "https://dc.lft.to/lastmile_qr_scan"}, "is_disabled": 0, "fusion_lat": 0.0, "name": "16b1dcc3e0a46d802b34694559dee7cc", "fusion_lon": 0.0}, {"is_reserved": 0, "type": "electric_scooter", "bike_id": "4826e442c77be79359d89765d37cab1b", "lat": 38.884412, "lon": -76.957649, "rental_uris": {"android": "https://dc.lft.to/lastmile_qr_scan", "ios": "https://dc.lft.to/lastmile_qr_scan"}, "is_disabled": 0, "fusion_lat": 0.0, "name": "4826e442c77be79359d89765d37cab1b", "fusion_lon": 0.0}, {"is_reserved": 0, "type": "electric_bike", "bike_id": "cc01e093bf469aee09c8e966e4fc02b3", "lat": 38.959540833333335, "lon": -77.01982416666667, "rental_uris": {"android": "https://dc.lft.to/lastmile_qr_scan", "ios": "https://dc.lft.to/lastmile_qr_scan"}, "is_disabled": 0, "fusion_lat": 0.0, "name": "cc01e093bf469aee09c8e966e4fc02b3", "fusion_lon": 0.0}, {"is_reserved": 0, "type": "electric_scooter", "bike_id": "479574c1a2a592ed0358565601e0db02", "lat": 38.9173305, "lon": -77.0416695, "rental_uris": {"android": "https://dc.lft.to/lastmile_qr_scan", "ios": "https://dc.lft.to/lastmile_qr_scan"}, "is_disabled": 0, "fusion_lat": 0.0, "name": "479574c1a2a592ed0358565601e0db02", "fusion_lon": 0.0}, {"is_reserved": 0, "type": "electric_scooter", "bike_id": "f2b634e005a07aeee0f2457fe53029ae", "lat": 38.9001665, "lon": -76.99901733333333, "rental_uris": {"android": "https://dc.lft.to/lastmile_qr_scan", "ios": "https://dc.lft.to/lastmile_qr_scan"}, "is_disabled": 0, "fusion_lat": 0.0, "name": "f2b634e005a07aeee0f2457fe53029ae", "fusion_lon": 0.0}, {"is_reserved": 0, "type": "electric_scooter", "bike_id": "748f7c415cb9e13649a73ccef8a13048", "lat": 38.892562833333336, "lon": -76.9414025, "rental_uris": {"android": "https://dc.lft.to/lastmile_qr_scan", "ios": "https://dc.lft.to/lastmile_qr_scan"}, "is_disabled": 0, "fusion_lat": 0.0, "name": "748f7c415cb9e13649a73ccef8a13048", "fusion_lon": 0.0}, {"is_reserved": 0, "type": "electric_scooter", "bike_id": "1c1985b6fb59c2c1328653961d4e6e61", "lat": 38.897168, "lon": -77.00753866666666, "rental_uris": {"android": "https://dc.lft.to/lastmile_qr_scan", "ios": "https://dc.lft.to/lastmile_qr_scan"}, "is_disabled": 0, "fusion_lat": 0.0, "name": "1c1985b6fb59c2c1328653961d4e6e61", "fusion_lon": 0.0}, {"is_reserved": 0, "type": "electric_scooter", "bike_id": "f571fc7d5f530982327d4e211939621d", "lat": 38.9111165, "lon": -77.03829666666667, "rental_uris": {"android": "https://dc.lft.to/lastmile_qr_scan", "ios": "https://dc.lft.to/lastmile_qr_scan"}, "is_disabled": 0, "fusion_lat": 0.0, "name": "f571fc7d5f530982327d4e211939621d", "fusion_lon": 0.0}, {"is_reserved": 0, "type": "electric_scooter", "bike_id": "2df5b7d69f4749e55e5e971eda325344", "lat": 38.906376, "lon": -77.07022966666666, "rental_uris": {"android": "https://dc.lft.to/lastmile_qr_scan", "ios": "https://dc.lft.to/lastmile_qr_scan"}, "is_disabled": 0, "fusion_lat": 0.0, "name": "2df5b7d69f4749e55e5e971eda325344", "fusion_lon": 0.0}, {"is_reserved": 0, "type": "electric_scooter", "bike_id": "3c258cb1b8f7cf320f8e572eda134ed0", "lat": 38.9081995, "lon": -77.02953666666667, "rental_uris": {"android": "https://dc.lft.to/lastmile_qr_scan", "ios": "https://dc.lft.to/lastmile_qr_scan"}, "is_disabled": 0, "fusion_lat": 0.0, "name": "3c258cb1b8f7cf320f8e572eda134ed0", "fusion_lon": 0.0}, {"is_reserved": 0, "type": "electric_scooter", "bike_id": "49ea1c7921ac0c3e3e51f794abe24443", "lat": 38.92258833333333, "lon": -77.03657616666666, "rental_uris": {"android": "https://dc.lft.to/lastmile_qr_scan", "ios": "https://dc.lft.to/lastmile_qr_scan"}, "is_disabled": 0, "fusion_lat": 0.0, "name": "49ea1c7921ac0c3e3e51f794abe24443", "fusion_lon": 0.0}, {"is_reserved": 0, "type": "electric_bike", "bike_id": "5971ae0a47d413b86639c9d794693ad8", "lat": 38.98716966666667, "lon": -76.94588983333334, "rental_uris": {"android": "https://dc.lft.to/lastmile_qr_scan", "ios": "https://dc.lft.to/lastmile_qr_scan"}, "is_disabled": 0, "fusion_lat": 0.0, "name": "5971ae0a47d413b86639c9d794693ad8", "fusion_lon": 0.0}, {"is_reserved": 0, "type": "electric_scooter", "bike_id": "2846f3da95b22571819dc9850d6f356c", "lat": 38.92243766666667, "lon": -77.04261216666667, "rental_uris": {"android": "https://dc.lft.to/lastmile_qr_scan", "ios": "https://dc.lft.to/lastmile_qr_scan"}, "is_disabled": 0, "fusion_lat": 0.0, "name": "2846f3da95b22571819dc9850d6f356c", "fusion_lon": 0.0}, {"is_reserved": 0, "type": "electric_bike", "bike_id": "7f1fb115181f507f6d7cda0f6f73aa7a", "lat": 38.8445625, "lon": -76.93160633333333, "rental_uris": {"android": "https://dc.lft.to/lastmile_qr_scan", "ios": "https://dc.lft.to/lastmile_qr_scan"}, "is_disabled": 0, "fusion_lat": 0.0, "name": "7f1fb115181f507f6d7cda0f6f73aa7a", "fusion_lon": 0.0}, {"is_reserved": 0, "type": "electric_scooter", "bike_id": "511f15828bb61d3d2f922babb448f055", "lat": 38.905243166666665, "lon": -77.04739733333334, "rental_uris": {"android": "https://dc.lft.to/lastmile_qr_scan", "ios": "https://dc.lft.to/lastmile_qr_scan"}, "is_disabled": 0, "fusion_lat": 0.0, "name": "511f15828bb61d3d2f922babb448f055", "fusion_lon": 0.0}, {"is_reserved": 0, "type": "electric_bike", "bike_id": "c9a1a0ed09affe9089d965272dc2cb8d", "lat": 38.94798433333333, "lon": -76.94247083333333, "rental_uris": {"android": "https://dc.lft.to/lastmile_qr_scan", "ios": "https://dc.lft.to/lastmile_qr_scan"}, "is_disabled": 0, "fusion_lat": 0.0, "name": "c9a1a0ed09affe9089d965272dc2cb8d", "fusion_lon": 0.0}, {"is_reserved": 0, "type": "electric_scooter", "bike_id": "ccea2e79a5584c6cea83de6030dea225", "lat": 38.915529, "lon": -77.03119983333333, "rental_uris": {"android": "https://dc.lft.to/lastmile_qr_scan", "ios": "https://dc.lft.to/lastmile_qr_scan"}, "is_disabled": 0, "fusion_lat": 0.0, "name": "ccea2e79a5584c6cea83de6030dea225", "fusion_lon": 0.0}, {"is_reserved": 0, "type": "electric_scooter", "bike_id": "f2163c5446f264ea6724e6f4c461d68f", "lat": 38.916366, "lon": -77.0320845, "rental_uris": {"android": "https://dc.lft.to/lastmile_qr_scan", "ios": "https://dc.lft.to/lastmile_qr_scan"}, "is_disabled": 0, "fusion_lat": 0.0, "name": "f2163c5446f264ea6724e6f4c461d68f", "fusion_lon": 0.0}, {"is_reserved": 0, "type": "electric_scooter", "bike_id": "0f496593fcbd73b05f83e26720f88b5f", "lat": 38.926769, "lon": -77.00743766666666, "rental_uris": {"android": "https://dc.lft.to/lastmile_qr_scan", "ios": "https://dc.lft.to/lastmile_qr_scan"}, "is_disabled": 0, "fusion_lat": 0.0, "name": "0f496593fcbd73b05f83e26720f88b5f", "fusion_lon": 0.0}, {"is_reserved": 0, "type": "electric_scooter", "bike_id": "2068fc4aef18ef2863bac460b1333701", "lat": 38.911081, "lon": -77.00257116666667, "rental_uris": {"android": "https://dc.lft.to/lastmile_qr_scan", "ios": "https://dc.lft.to/lastmile_qr_scan"}, "is_disabled": 0, "fusion_lat": 0.0, "name": "2068fc4aef18ef2863bac460b1333701", "fusion_lon": 0.0}, {"is_reserved": 0, "type": "electric_scooter", "bike_id": "78dcbe8f69666099e409ee6b566e7971", "lat": 38.89543166666667, "lon": -76.98336333333333, "rental_uris": {"android": "https://dc.lft.to/lastmile_qr_scan", "ios": "https://dc.lft.to/lastmile_qr_scan"}, "is_disabled": 0, "fusion_lat": 0.0, "name": "78dcbe8f69666099e409ee6b566e7971", "fusion_lon": 0.0}, {"is_reserved": 0, "type": "electric_scooter", "bike_id": "9b2c33348d530f3189ff82e1c35234c7", "lat": 38.90030333333333, "lon": -77.036241, "rental_uris": {"android": "https://dc.lft.to/lastmile_qr_scan", "ios": "https://dc.lft.to/lastmile_qr_scan"}, "is_disabled": 0, "fusion_lat": 0.0, "name": "9b2c33348d530f3189ff82e1c35234c7", "fusion_lon": 0.0}, {"is_reserved": 0, "type": "electric_scooter", "bike_id": "2657529c7d83c175b1872c4d23e4ec63", "lat": 38.9117855, "lon": -77.03185166666667, "rental_uris": {"android": "https://dc.lft.to/lastmile_qr_scan", "ios": "https://dc.lft.to/lastmile_qr_scan"}, "is_disabled": 0, "fusion_lat": 0.0, "name": "2657529c7d83c175b1872c4d23e4ec63", "fusion_lon": 0.0}, {"is_reserved": 0, "type": "electric_bike", "bike_id": "db5068a1479fbfd75510a8efb9296841", "lat": 38.8633315, "lon": -76.9872105, "rental_uris": {"android": "https://dc.lft.to/lastmile_qr_scan", "ios": "https://dc.lft.to/lastmile_qr_scan"}, "is_disabled": 0, "fusion_lat": 0.0, "name": "db5068a1479fbfd75510a8efb9296841", "fusion_lon": 0.0}, {"is_reserved": 0, "type": "electric_scooter", "bike_id": "250dd2bfab34616976e5c98ee05dc311", "lat": 38.91986583333333, "lon": -76.97304633333333, "rental_uris": {"android": "https://dc.lft.to/lastmile_qr_scan", "ios": "https://dc.lft.to/lastmile_qr_scan"}, "is_disabled": 0, "fusion_lat": 0.0, "name": "250dd2bfab34616976e5c98ee05dc311", "fusion_lon": 0.0}, {"is_reserved": 0, "type": "electric_scooter", "bike_id": "504a8c9ad973562a0ec1ebc24f27acb4", "lat": 38.91764116666667, "lon": -77.00364583333334, "rental_uris": {"android": "https://dc.lft.to/lastmile_qr_scan", "ios": "https://dc.lft.to/lastmile_qr_scan"}, "is_disabled": 0, "fusion_lat": 0.0, "name": "504a8c9ad973562a0ec1ebc24f27acb4", "fusion_lon": 0.0}, {"is_reserved": 0, "type": "electric_scooter", "bike_id": "539f458d6829844ba34eefd30ed6386f", "lat": 38.91787733333334, "lon": -77.04106333333333, "rental_uris": {"android": "https://dc.lft.to/lastmile_qr_scan", "ios": "https://dc.lft.to/lastmile_qr_scan"}, "is_disabled": 0, "fusion_lat": 0.0, "name": "539f458d6829844ba34eefd30ed6386f", "fusion_lon": 0.0}, {"is_reserved": 0, "type": "electric_scooter", "bike_id": "09d822db51f28417faae97ff04723ce5", "lat": 38.90010933333333, "lon": -76.98906466666666, "rental_uris": {"android": "https://dc.lft.to/lastmile_qr_scan", "ios": "https://dc.lft.to/lastmile_qr_scan"}, "is_disabled": 0, "fusion_lat": 0.0, "name": "09d822db51f28417faae97ff04723ce5", "fusion_lon": 0.0}, {"is_reserved": 0, "type": "electric_bike", "bike_id": "b2154e573f28e05d47719458cb2d87ca", "lat": 39.00003016666667, "lon": -76.91802266666667, "rental_uris": {"android": "https://dc.lft.to/lastmile_qr_scan", "ios": "https://dc.lft.to/lastmile_qr_scan"}, "is_disabled": 0, "fusion_lat": 0.0, "name": "b2154e573f28e05d47719458cb2d87ca", "fusion_lon": 0.0}, {"is_reserved": 0, "type": "electric_scooter", "bike_id": "327fdb7e8a7c189963ef5509fbc7cea8", "lat": 38.917208, "lon": -77.03836883333334, "rental_uris": {"android": "https://dc.lft.to/lastmile_qr_scan", "ios": "https://dc.lft.to/lastmile_qr_scan"}, "is_disabled": 0, "fusion_lat": 0.0, "name": "327fdb7e8a7c189963ef5509fbc7cea8", "fusion_lon": 0.0}, {"is_reserved": 0, "type": "electric_bike", "bike_id": "46241c4014f0aa39dbdcf3b639269b6b", "lat": 39.010954, "lon": -77.04956983333334, "rental_uris": {"android": "https://dc.lft.to/lastmile_qr_scan", "ios": "https://dc.lft.to/lastmile_qr_scan"}, "is_disabled": 0, "fusion_lat": 0.0, "name": "46241c4014f0aa39dbdcf3b639269b6b", "fusion_lon": 0.0}, {"is_reserved": 0, "type": "electric_scooter", "bike_id": "a71441e1d3b3864f5127c2b8dfc00bba", "lat": 38.903853166666664, "lon": -77.04198516666666, "rental_uris": {"android": "https://dc.lft.to/lastmile_qr_scan", "ios": "https://dc.lft.to/lastmile_qr_scan"}, "is_disabled": 0, "fusion_lat": 0.0, "name": "a71441e1d3b3864f5127c2b8dfc00bba", "fusion_lon": 0.0}, {"is_reserved": 0, "type": "electric_scooter", "bike_id": "6f97bf33aa012d6d0a5a440e03241e12", "lat": 38.92445, "lon": -77.04023916666667, "rental_uris": {"android": "https://dc.lft.to/lastmile_qr_scan", "ios": "https://dc.lft.to/lastmile_qr_scan"}, "is_disabled": 0, "fusion_lat": 0.0, "name": "6f97bf33aa012d6d0a5a440e03241e12", "fusion_lon": 0.0}, {"is_reserved": 0, "type": "electric_scooter", "bike_id": "8648666eade23404cd1d5c28ec496cf3", "lat": 38.917769, "lon": -77.04097483333334, "rental_uris": {"android": "https://dc.lft.to/lastmile_qr_scan", "ios": "https://dc.lft.to/lastmile_qr_scan"}, "is_disabled": 0, "fusion_lat": 0.0, "name": "8648666eade23404cd1d5c28ec496cf3", "fusion_lon": 0.0}, {"is_reserved": 0, "type": "electric_scooter", "bike_id": "fa3738560805b395850de7fd3df44450", "lat": 38.910516, "lon": -77.04089166666667, "rental_uris": {"android": "https://dc.lft.to/lastmile_qr_scan", "ios": "https://dc.lft.to/lastmile_qr_scan"}, "is_disabled": 0, "fusion_lat": 0.0, "name": "fa3738560805b395850de7fd3df44450", "fusion_lon": 0.0}, {"is_reserved": 0, "type": "electric_scooter", "bike_id": "a9263a0c717c88a4c8e43337e058875f", "lat": 38.934829, "lon": -77.05646816666666, "rental_uris": {"android": "https://dc.lft.to/lastmile_qr_scan", "ios": "https://dc.lft.to/lastmile_qr_scan"}, "is_disabled": 0, "fusion_lat": 0.0, "name": "a9263a0c717c88a4c8e43337e058875f", "fusion_lon": 0.0}, {"is_reserved": 0, "type": "electric_scooter", "bike_id": "a0e95bc15b83235260397c6663896878", "lat": 38.920736166666664, "lon": -77.02314633333333, "rental_uris": {"android": "https://dc.lft.to/lastmile_qr_scan", "ios": "https://dc.lft.to/lastmile_qr_scan"}, "is_disabled": 0, "fusion_lat": 0.0, "name": "a0e95bc15b83235260397c6663896878", "fusion_lon": 0.0}, {"is_reserved": 0, "type": "electric_scooter", "bike_id": "a5c8fbc695e1a260e48d8853aa45efe7", "lat": 38.90685916666666, "lon": -77.01539266666667, "rental_uris": {"android": "https://dc.lft.to/lastmile_qr_scan", "ios": "https://dc.lft.to/lastmile_qr_scan"}, "is_disabled": 0, "fusion_lat": 0.0, "name": "a5c8fbc695e1a260e48d8853aa45efe7", "fusion_lon": 0.0}, {"is_reserved": 0, "type": "electric_scooter", "bike_id": "fa55833cb077e5cccdaca1c336841fa4", "lat": 38.92605616666667, "lon": -77.02161216666667, "rental_uris": {"android": "https://dc.lft.to/lastmile_qr_scan", "ios": "https://dc.lft.to/lastmile_qr_scan"}, "is_disabled": 0, "fusion_lat": 0.0, "name": "fa55833cb077e5cccdaca1c336841fa4", "fusion_lon": 0.0}, {"is_reserved": 0, "type": "electric_scooter", "bike_id": "7f95d3a466eaa6905bba0cccccd92f1b", "lat": 38.904037, "lon": -77.024792, "rental_uris": {"android": "https://dc.lft.to/lastmile_qr_scan", "ios": "https://dc.lft.to/lastmile_qr_scan"}, "is_disabled": 0, "fusion_lat": 0.0, "name": "7f95d3a466eaa6905bba0cccccd92f1b", "fusion_lon": 0.0}, {"is_reserved": 0, "type": "electric_scooter", "bike_id": "4092a9d842e8dd2eb23fa1ea75179373", "lat": 38.892231333333335, "lon": -77.031046, "rental_uris": {"android": "https://dc.lft.to/lastmile_qr_scan", "ios": "https://dc.lft.to/lastmile_qr_scan"}, "is_disabled": 0, "fusion_lat": 0.0, "name": "4092a9d842e8dd2eb23fa1ea75179373", "fusion_lon": 0.0}, {"is_reserved": 0, "type": "electric_scooter", "bike_id": "6e7e3034bfeee3a8b9ca2b8acdb09299", "lat": 38.892455166666664, "lon": -77.01353483333334, "rental_uris": {"android": "https://dc.lft.to/lastmile_qr_scan", "ios": "https://dc.lft.to/lastmile_qr_scan"}, "is_disabled": 0, "fusion_lat": 0.0, "name": "6e7e3034bfeee3a8b9ca2b8acdb09299", "fusion_lon": 0.0}, {"is_reserved": 0, "type": "electric_bike", "bike_id": "df53e48dd7a0df83ffabd10cd1f5c733", "lat": 38.9181155, "lon": -77.03796616666666, "rental_uris": {"android": "https://dc.lft.to/lastmile_qr_scan", "ios": "https://dc.lft.to/lastmile_qr_scan"}, "is_disabled": 0, "fusion_lat": 0.0, "name": "df53e48dd7a0df83ffabd10cd1f5c733", "fusion_lon": 0.0}, {"is_reserved": 0, "type": "electric_scooter", "bike_id": "74ace9481d3dc78e86b211ec39313995", "lat": 38.905869833333334, "lon": -77.00902533333333, "rental_uris": {"android": "https://dc.lft.to/lastmile_qr_scan", "ios": "https://dc.lft.to/lastmile_qr_scan"}, "is_disabled": 0, "fusion_lat": 0.0, "name": "74ace9481d3dc78e86b211ec39313995", "fusion_lon": 0.0}, {"is_reserved": 0, "type": "electric_scooter", "bike_id": "746a367a1d32aa120fae3bb171392fdb", "lat": 38.900767, "lon": -77.02684466666666, "rental_uris": {"android": "https://dc.lft.to/lastmile_qr_scan", "ios": "https://dc.lft.to/lastmile_qr_scan"}, "is_disabled": 0, "fusion_lat": 0.0, "name": "746a367a1d32aa120fae3bb171392fdb", "fusion_lon": 0.0}, {"is_reserved": 0, "type": "electric_bike", "bike_id": "94a871fec288a7e07681f6bbe7fa643b", "lat": 38.86913933333334, "lon": -77.01163383333333, "rental_uris": {"android": "https://dc.lft.to/lastmile_qr_scan", "ios": "https://dc.lft.to/lastmile_qr_scan"}, "is_disabled": 0, "fusion_lat": 0.0, "name": "94a871fec288a7e07681f6bbe7fa643b", "fusion_lon": 0.0}, {"is_reserved": 0, "type": "electric_scooter", "bike_id": "8624caabe30265128def50b50f31115d", "lat": 38.88726583333333, "lon": -76.983768, "rental_uris": {"android": "https://dc.lft.to/lastmile_qr_scan", "ios": "https://dc.lft.to/lastmile_qr_scan"}, "is_disabled": 0, "fusion_lat": 0.0, "name": "8624caabe30265128def50b50f31115d", "fusion_lon": 0.0}, {"is_reserved": 0, "type": "electric_bike", "bike_id": "7d9983955c31b8a199441fa2cd30e49a", "lat": 38.929136, "lon": -77.09739866666666, "rental_uris": {"android": "https://dc.lft.to/lastmile_qr_scan", "ios": "https://dc.lft.to/lastmile_qr_scan"}, "is_disabled": 0, "fusion_lat": 0.0, "name": "7d9983955c31b8a199441fa2cd30e49a", "fusion_lon": 0.0}, {"is_reserved": 0, "type": "electric_scooter", "bike_id": "261a4aed6014b204a39494bf3d217766", "lat": 38.900936, "lon": -77.05066933333333, "rental_uris": {"android": "https://dc.lft.to/lastmile_qr_scan", "ios": "https://dc.lft.to/lastmile_qr_scan"}, "is_disabled": 0, "fusion_lat": 0.0, "name": "261a4aed6014b204a39494bf3d217766", "fusion_lon": 0.0}, {"is_reserved": 0, "type": "electric_scooter", "bike_id": "eda7ce81500e7b3afaf40d0c0a63517e", "lat": 38.894889666666664, "lon": -77.00203966666666, "rental_uris": {"android": "https://dc.lft.to/lastmile_qr_scan", "ios": "https://dc.lft.to/lastmile_qr_scan"}, "is_disabled": 0, "fusion_lat": 0.0, "name": "eda7ce81500e7b3afaf40d0c0a63517e", "fusion_lon": 0.0}, {"is_reserved": 0, "type": "electric_scooter", "bike_id": "76622bbb51febf05709291b56f2e2619", "lat": 38.934275166666666, "lon": -77.03750816666667, "rental_uris": {"android": "https://dc.lft.to/lastmile_qr_scan", "ios": "https://dc.lft.to/lastmile_qr_scan"}, "is_disabled": 0, "fusion_lat": 0.0, "name": "76622bbb51febf05709291b56f2e2619", "fusion_lon": 0.0}, {"is_reserved": 0, "type": "electric_scooter", "bike_id": "5fc718dd83bc0a40a785cfbdedb4bdfc", "lat": 38.922606333333334, "lon": -77.03653533333333, "rental_uris": {"android": "https://dc.lft.to/lastmile_qr_scan", "ios": "https://dc.lft.to/lastmile_qr_scan"}, "is_disabled": 0, "fusion_lat": 0.0, "name": "5fc718dd83bc0a40a785cfbdedb4bdfc", "fusion_lon": 0.0}, {"is_reserved": 0, "type": "electric_scooter", "bike_id": "0d0feccad58fb72c65d6cf50fd0821f9", "lat": 38.90254616666667, "lon": -77.01762566666666, "rental_uris": {"android": "https://dc.lft.to/lastmile_qr_scan", "ios": "https://dc.lft.to/lastmile_qr_scan"}, "is_disabled": 0, "fusion_lat": 0.0, "name": "0d0feccad58fb72c65d6cf50fd0821f9", "fusion_lon": 0.0}, {"is_reserved": 0, "type": "electric_scooter", "bike_id": "a5b09d68955d29fa5f26f55d9f57605c", "lat": 38.90542283333333, "lon": -77.02204066666667, "rental_uris": {"android": "https://dc.lft.to/lastmile_qr_scan", "ios": "https://dc.lft.to/lastmile_qr_scan"}, "is_disabled": 0, "fusion_lat": 0.0, "name": "a5b09d68955d29fa5f26f55d9f57605c", "fusion_lon": 0.0}, {"is_reserved": 0, "type": "electric_scooter", "bike_id": "bde3b35a197ef050a83b04a4742baac5", "lat": 38.89643433333333, "lon": -77.00916233333334, "rental_uris": {"android": "https://dc.lft.to/lastmile_qr_scan", "ios": "https://dc.lft.to/lastmile_qr_scan"}, "is_disabled": 0, "fusion_lat": 0.0, "name": "bde3b35a197ef050a83b04a4742baac5", "fusion_lon": 0.0}, {"is_reserved": 0, "type": "electric_scooter", "bike_id": "c99c090bc4149a518cb9bc8457b09841", "lat": 38.92615283333333, "lon": -77.02156433333333, "rental_uris": {"android": "https://dc.lft.to/lastmile_qr_scan", "ios": "https://dc.lft.to/lastmile_qr_scan"}, "is_disabled": 0, "fusion_lat": 0.0, "name": "c99c090bc4149a518cb9bc8457b09841", "fusion_lon": 0.0}, {"is_reserved": 0, "type": "electric_scooter", "bike_id": "89da4241ffb8c3c884e1f3ce017e1b7a", "lat": 38.90056233333333, "lon": -77.05430133333333, "rental_uris": {"android": "https://dc.lft.to/lastmile_qr_scan", "ios": "https://dc.lft.to/lastmile_qr_scan"}, "is_disabled": 0, "fusion_lat": 0.0, "name": "89da4241ffb8c3c884e1f3ce017e1b7a", "fusion_lon": 0.0}, {"is_reserved": 0, "type": "electric_scooter", "bike_id": "4ce5f19025aac8a633f12c13fd8a33f0", "lat": 38.904680666666664, "lon": -77.00724383333333, "rental_uris": {"android": "https://dc.lft.to/lastmile_qr_scan", "ios": "https://dc.lft.to/lastmile_qr_scan"}, "is_disabled": 0, "fusion_lat": 0.0, "name": "4ce5f19025aac8a633f12c13fd8a33f0", "fusion_lon": 0.0}, {"is_reserved": 0, "type": "electric_scooter", "bike_id": "6d1c4d9a4b39a4696269121fe51d2a27", "lat": 38.88639366666666, "lon": -76.996131, "rental_uris": {"android": "https://dc.lft.to/lastmile_qr_scan", "ios": "https://dc.lft.to/lastmile_qr_scan"}, "is_disabled": 0, "fusion_lat": 0.0, "name": "6d1c4d9a4b39a4696269121fe51d2a27", "fusion_lon": 0.0}, {"is_reserved": 0, "type": "electric_scooter", "bike_id": "802002fbc282f7f01f71d3b40e63948f", "lat": 38.88770683333333, "lon": -76.93262733333333, "rental_uris": {"android": "https://dc.lft.to/lastmile_qr_scan", "ios": "https://dc.lft.to/lastmile_qr_scan"}, "is_disabled": 0, "fusion_lat": 0.0, "name": "802002fbc282f7f01f71d3b40e63948f", "fusion_lon": 0.0}, {"is_reserved": 0, "type": "electric_scooter", "bike_id": "73d4c8f99154f4fbbd45d2ee50d67043", "lat": 38.9276725, "lon": -77.027849, "rental_uris": {"android": "https://dc.lft.to/lastmile_qr_scan", "ios": "https://dc.lft.to/lastmile_qr_scan"}, "is_disabled": 0, "fusion_lat": 0.0, "name": "73d4c8f99154f4fbbd45d2ee50d67043", "fusion_lon": 0.0}, {"is_reserved": 0, "type": "electric_scooter", "bike_id": "e430ad65979d34a40019de1e02861b22", "lat": 38.905608, "lon": -77.005839, "rental_uris": {"android": "https://dc.lft.to/lastmile_qr_scan", "ios": "https://dc.lft.to/lastmile_qr_scan"}, "is_disabled": 0, "fusion_lat": 0.0, "name": "e430ad65979d34a40019de1e02861b22", "fusion_lon": 0.0}, {"is_reserved": 0, "type": "electric_scooter", "bike_id": "1bb88e6458a684ce59057e1908eca8df", "lat": 38.916354, "lon": -77.04621366666667, "rental_uris": {"android": "https://dc.lft.to/lastmile_qr_scan", "ios": "https://dc.lft.to/lastmile_qr_scan"}, "is_disabled": 0, "fusion_lat": 0.0, "name": "1bb88e6458a684ce59057e1908eca8df", "fusion_lon": 0.0}, {"is_reserved": 0, "type": "electric_scooter", "bike_id": "974d4df51dbcde8656afa51d081ad56c", "lat": 38.90242083333333, "lon": -77.01674216666666, "rental_uris": {"android": "https://dc.lft.to/lastmile_qr_scan", "ios": "https://dc.lft.to/lastmile_qr_scan"}, "is_disabled": 0, "fusion_lat": 0.0, "name": "974d4df51dbcde8656afa51d081ad56c", "fusion_lon": 0.0}, {"is_reserved": 0, "type": "electric_scooter", "bike_id": "17f6d4882c54bfa69589855ab8c2ed30", "lat": 38.90877283333333, "lon": -77.002234, "rental_uris": {"android": "https://dc.lft.to/lastmile_qr_scan", "ios": "https://dc.lft.to/lastmile_qr_scan"}, "is_disabled": 0, "fusion_lat": 0.0, "name": "17f6d4882c54bfa69589855ab8c2ed30", "fusion_lon": 0.0}, {"is_reserved": 0, "type": "electric_scooter", "bike_id": "27528eaa2bc28516b7cbb8f3a2ca2c19", "lat": 38.91804066666667, "lon": -77.0319195, "rental_uris": {"android": "https://dc.lft.to/lastmile_qr_scan", "ios": "https://dc.lft.to/lastmile_qr_scan"}, "is_disabled": 0, "fusion_lat": 0.0, "name": "27528eaa2bc28516b7cbb8f3a2ca2c19", "fusion_lon": 0.0}, {"is_reserved": 0, "type": "electric_scooter", "bike_id": "e2157e4a2847c3131fc69bcd4c084af8", "lat": 38.92450916666667, "lon": -77.02031533333333, "rental_uris": {"android": "https://dc.lft.to/lastmile_qr_scan", "ios": "https://dc.lft.to/lastmile_qr_scan"}, "is_disabled": 0, "fusion_lat": 0.0, "name": "e2157e4a2847c3131fc69bcd4c084af8", "fusion_lon": 0.0}, {"is_reserved": 0, "type": "electric_scooter", "bike_id": "892a4fac8b1c40155c7a9600f00277ae", "lat": 38.8992535, "lon": -76.94576633333334, "rental_uris": {"android": "https://dc.lft.to/lastmile_qr_scan", "ios": "https://dc.lft.to/lastmile_qr_scan"}, "is_disabled": 0, "fusion_lat": 0.0, "name": "892a4fac8b1c40155c7a9600f00277ae", "fusion_lon": 0.0}, {"is_reserved": 0, "type": "electric_scooter", "bike_id": "455e4b7833717d239adf2283ae0582b5", "lat": 38.90098883333334, "lon": -77.01627266666667, "rental_uris": {"android": "https://dc.lft.to/lastmile_qr_scan", "ios": "https://dc.lft.to/lastmile_qr_scan"}, "is_disabled": 0, "fusion_lat": 0.0, "name": "455e4b7833717d239adf2283ae0582b5", "fusion_lon": 0.0}, {"is_reserved": 0, "type": "electric_scooter", "bike_id": "8b32e2b01dc5f74ab4c8cf01b4cb7028", "lat": 38.924331, "lon": -77.0403705, "rental_uris": {"android": "https://dc.lft.to/lastmile_qr_scan", "ios": "https://dc.lft.to/lastmile_qr_scan"}, "is_disabled": 0, "fusion_lat": 0.0, "name": "8b32e2b01dc5f74ab4c8cf01b4cb7028", "fusion_lon": 0.0}, {"is_reserved": 0, "type": "electric_scooter", "bike_id": "25e173184a4c5f4777963425725ac466", "lat": 38.897986833333334, "lon": -77.0334135, "rental_uris": {"android": "https://dc.lft.to/lastmile_qr_scan", "ios": "https://dc.lft.to/lastmile_qr_scan"}, "is_disabled": 0, "fusion_lat": 0.0, "name": "25e173184a4c5f4777963425725ac466", "fusion_lon": 0.0}, {"is_reserved": 0, "type": "electric_scooter", "bike_id": "974af78ac1680c767ed096fb912e0335", "lat": 38.940106, "lon": -77.02734933333333, "rental_uris": {"android": "https://dc.lft.to/lastmile_qr_scan", "ios": "https://dc.lft.to/lastmile_qr_scan"}, "is_disabled": 0, "fusion_lat": 0.0, "name": "974af78ac1680c767ed096fb912e0335", "fusion_lon": 0.0}, {"is_reserved": 0, "type": "electric_scooter", "bike_id": "97b56638bd532d5f322972ce3edf82c0", "lat": 38.907056, "lon": -77.03437416666667, "rental_uris": {"android": "https://dc.lft.to/lastmile_qr_scan", "ios": "https://dc.lft.to/lastmile_qr_scan"}, "is_disabled": 0, "fusion_lat": 0.0, "name": "97b56638bd532d5f322972ce3edf82c0", "fusion_lon": 0.0}, {"is_reserved": 0, "type": "electric_scooter", "bike_id": "e3b10d9885b939615663ed57a8e06afe", "lat": 38.897322833333334, "lon": -76.94700066666667, "rental_uris": {"android": "https://dc.lft.to/lastmile_qr_scan", "ios": "https://dc.lft.to/lastmile_qr_scan"}, "is_disabled": 0, "fusion_lat": 0.0, "name": "e3b10d9885b939615663ed57a8e06afe", "fusion_lon": 0.0}, {"is_reserved": 0, "type": "electric_scooter", "bike_id": "4b8bc995d80ae33590d3269d71375920", "lat": 38.960320833333334, "lon": -77.02428533333334, "rental_uris": {"android": "https://dc.lft.to/lastmile_qr_scan", "ios": "https://dc.lft.to/lastmile_qr_scan"}, "is_disabled": 0, "fusion_lat": 0.0, "name": "4b8bc995d80ae33590d3269d71375920", "fusion_lon": 0.0}, {"is_reserved": 0, "type": "electric_scooter", "bike_id": "ffdfed8fbf128504a8f1d46057e65b0e", "lat": 38.936327166666665, "lon": -77.07297983333333, "rental_uris": {"android": "https://dc.lft.to/lastmile_qr_scan", "ios": "https://dc.lft.to/lastmile_qr_scan"}, "is_disabled": 0, "fusion_lat": 0.0, "name": "ffdfed8fbf128504a8f1d46057e65b0e", "fusion_lon": 0.0}, {"is_reserved": 0, "type": "electric_scooter", "bike_id": "6b86d808ee37748c0e513e0fffcb1fe5", "lat": 38.89960716666667, "lon": -77.04483733333333, "rental_uris": {"android": "https://dc.lft.to/lastmile_qr_scan", "ios": "https://dc.lft.to/lastmile_qr_scan"}, "is_disabled": 0, "fusion_lat": 0.0, "name": "6b86d808ee37748c0e513e0fffcb1fe5", "fusion_lon": 0.0}, {"is_reserved": 0, "type": "electric_scooter", "bike_id": "59ad6bc882656551f509ac63ee1f51da", "lat": 38.9175795, "lon": -77.01461883333333, "rental_uris": {"android": "https://dc.lft.to/lastmile_qr_scan", "ios": "https://dc.lft.to/lastmile_qr_scan"}, "is_disabled": 0, "fusion_lat": 0.0, "name": "59ad6bc882656551f509ac63ee1f51da", "fusion_lon": 0.0}, {"is_reserved": 0, "type": "electric_bike", "bike_id": "36f2d695171924028d7bc2b62befc6f5", "lat": 38.90373, "lon": -77.0452645, "rental_uris": {"android": "https://dc.lft.to/lastmile_qr_scan", "ios": "https://dc.lft.to/lastmile_qr_scan"}, "is_disabled": 0, "fusion_lat": 0.0, "name": "36f2d695171924028d7bc2b62befc6f5", "fusion_lon": 0.0}, {"is_reserved": 0, "type": "electric_scooter", "bike_id": "930c809e82f6dc492de45bb9b1d320f9", "lat": 38.91255133333333, "lon": -77.02850116666667, "rental_uris": {"android": "https://dc.lft.to/lastmile_qr_scan", "ios": "https://dc.lft.to/lastmile_qr_scan"}, "is_disabled": 0, "fusion_lat": 0.0, "name": "930c809e82f6dc492de45bb9b1d320f9", "fusion_lon": 0.0}, {"is_reserved": 0, "type": "electric_scooter", "bike_id": "ffc7003e12b25aeab4648421559db7db", "lat": 38.90580633333333, "lon": -77.04110983333334, "rental_uris": {"android": "https://dc.lft.to/lastmile_qr_scan", "ios": "https://dc.lft.to/lastmile_qr_scan"}, "is_disabled": 0, "fusion_lat": 0.0, "name": "ffc7003e12b25aeab4648421559db7db", "fusion_lon": 0.0}, {"is_reserved": 0, "type": "electric_scooter", "bike_id": "26e68c7073221ff13853308496fe4837", "lat": 38.923845, "lon": -77.02982233333333, "rental_uris": {"android": "https://dc.lft.to/lastmile_qr_scan", "ios": "https://dc.lft.to/lastmile_qr_scan"}, "is_disabled": 0, "fusion_lat": 0.0, "name": "26e68c7073221ff13853308496fe4837", "fusion_lon": 0.0}, {"is_reserved": 0, "type": "electric_bike", "bike_id": "8b65769c3204d5beccbc79955e32217f", "lat": 38.938763, "lon": -76.99303616666667, "rental_uris": {"android": "https://dc.lft.to/lastmile_qr_scan", "ios": "https://dc.lft.to/lastmile_qr_scan"}, "is_disabled": 0, "fusion_lat": 0.0, "name": "8b65769c3204d5beccbc79955e32217f", "fusion_lon": 0.0}, {"is_reserved": 0, "type": "electric_scooter", "bike_id": "fdc41a2b20924644c6e20a41ef805809", "lat": 38.93178533333333, "lon": -77.0234945, "rental_uris": {"android": "https://dc.lft.to/lastmile_qr_scan", "ios": "https://dc.lft.to/lastmile_qr_scan"}, "is_disabled": 0, "fusion_lat": 0.0, "name": "fdc41a2b20924644c6e20a41ef805809", "fusion_lon": 0.0}, {"is_reserved": 0, "type": "electric_scooter", "bike_id": "2c17229d5d039676f820d833b9e54251", "lat": 38.86633666666667, "lon": -76.9828675, "rental_uris": {"android": "https://dc.lft.to/lastmile_qr_scan", "ios": "https://dc.lft.to/lastmile_qr_scan"}, "is_disabled": 0, "fusion_lat": 0.0, "name": "2c17229d5d039676f820d833b9e54251", "fusion_lon": 0.0}, {"is_reserved": 0, "type": "electric_scooter", "bike_id": "a67fbc7bb371fb16e38f1d0b4e2c3245", "lat": 38.884896, "lon": -76.98536533333333, "rental_uris": {"android": "https://dc.lft.to/lastmile_qr_scan", "ios": "https://dc.lft.to/lastmile_qr_scan"}, "is_disabled": 0, "fusion_lat": 0.0, "name": "a67fbc7bb371fb16e38f1d0b4e2c3245", "fusion_lon": 0.0}, {"is_reserved": 0, "type": "electric_bike", "bike_id": "7261bb7499c9432ab424882bfed6cebd", "lat": 38.854200666666664, "lon": -77.08364816666666, "rental_uris": {"android": "https://dc.lft.to/lastmile_qr_scan", "ios": "https://dc.lft.to/lastmile_qr_scan"}, "is_disabled": 0, "fusion_lat": 0.0, "name": "7261bb7499c9432ab424882bfed6cebd", "fusion_lon": 0.0}, {"is_reserved": 0, "type": "electric_scooter", "bike_id": "7bf7b58ec4a88da20d1d0a736f3353e3", "lat": 38.895114666666665, "lon": -77.02801216666667, "rental_uris": {"android": "https://dc.lft.to/lastmile_qr_scan", "ios": "https://dc.lft.to/lastmile_qr_scan"}, "is_disabled": 0, "fusion_lat": 0.0, "name": "7bf7b58ec4a88da20d1d0a736f3353e3", "fusion_lon": 0.0}, {"is_reserved": 0, "type": "electric_scooter", "bike_id": "3ce04aaba3ee2b4026da24454c548c6f", "lat": 38.899288, "lon": -77.03380216666666, "rental_uris": {"android": "https://dc.lft.to/lastmile_qr_scan", "ios": "https://dc.lft.to/lastmile_qr_scan"}, "is_disabled": 0, "fusion_lat": 0.0, "name": "3ce04aaba3ee2b4026da24454c548c6f", "fusion_lon": 0.0}, {"is_reserved": 0, "type": "electric_bike", "bike_id": "117a244f4fea782e2074f63b7c06cf1f", "lat": 38.8700625, "lon": -77.229946, "rental_uris": {"android": "https://dc.lft.to/lastmile_qr_scan", "ios": "https://dc.lft.to/lastmile_qr_scan"}, "is_disabled": 0, "fusion_lat": 0.0, "name": "117a244f4fea782e2074f63b7c06cf1f", "fusion_lon": 0.0}, {"is_reserved": 0, "type": "electric_scooter", "bike_id": "7ac15f0c51ba8330843719d4d186b756", "lat": 38.925225166666664, "lon": -77.05056183333333, "rental_uris": {"android": "https://dc.lft.to/lastmile_qr_scan", "ios": "https://dc.lft.to/lastmile_qr_scan"}, "is_disabled": 0, "fusion_lat": 0.0, "name": "7ac15f0c51ba8330843719d4d186b756", "fusion_lon": 0.0}, {"is_reserved": 0, "type": "electric_scooter", "bike_id": "a5e4820bf1010227a521a4c1e3d1ea17", "lat": 38.893539, "lon": -77.0033355, "rental_uris": {"android": "https://dc.lft.to/lastmile_qr_scan", "ios": "https://dc.lft.to/lastmile_qr_scan"}, "is_disabled": 0, "fusion_lat": 0.0, "name": "a5e4820bf1010227a521a4c1e3d1ea17", "fusion_lon": 0.0}, {"is_reserved": 0, "type": "electric_scooter", "bike_id": "e43c9303b74446b9647471a7075f0811", "lat": 38.90021483333334, "lon": -77.0121695, "rental_uris": {"android": "https://dc.lft.to/lastmile_qr_scan", "ios": "https://dc.lft.to/lastmile_qr_scan"}, "is_disabled": 0, "fusion_lat": 0.0, "name": "e43c9303b74446b9647471a7075f0811", "fusion_lon": 0.0}, {"is_reserved": 0, "type": "electric_scooter", "bike_id": "a95bdcca88997e99cb76a1655e22c427", "lat": 38.9089375, "lon": -77.003017, "rental_uris": {"android": "https://dc.lft.to/lastmile_qr_scan", "ios": "https://dc.lft.to/lastmile_qr_scan"}, "is_disabled": 0, "fusion_lat": 0.0, "name": "a95bdcca88997e99cb76a1655e22c427", "fusion_lon": 0.0}, {"is_reserved": 0, "type": "electric_scooter", "bike_id": "cf35b879942e1f3b09a6287147e84090", "lat": 38.886274, "lon": -77.02221616666667, "rental_uris": {"android": "https://dc.lft.to/lastmile_qr_scan", "ios": "https://dc.lft.to/lastmile_qr_scan"}, "is_disabled": 0, "fusion_lat": 0.0, "name": "cf35b879942e1f3b09a6287147e84090", "fusion_lon": 0.0}, {"is_reserved": 0, "type": "electric_scooter", "bike_id": "4ff6c3d517834fb79489e0c675f5e6c9", "lat": 38.9067225, "lon": -77.02707466666666, "rental_uris": {"android": "https://dc.lft.to/lastmile_qr_scan", "ios": "https://dc.lft.to/lastmile_qr_scan"}, "is_disabled": 0, "fusion_lat": 0.0, "name": "4ff6c3d517834fb79489e0c675f5e6c9", "fusion_lon": 0.0}, {"is_reserved": 0, "type": "electric_scooter", "bike_id": "305818b3172eca6b325c0225d4a95327", "lat": 38.898937, "lon": -77.03273866666666, "rental_uris": {"android": "https://dc.lft.to/lastmile_qr_scan", "ios": "https://dc.lft.to/lastmile_qr_scan"}, "is_disabled": 0, "fusion_lat": 0.0, "name": "305818b3172eca6b325c0225d4a95327", "fusion_lon": 0.0}, {"is_reserved": 0, "type": "electric_scooter", "bike_id": "fbef6c2ff984a4b62940334ef036c497", "lat": 38.897380166666665, "lon": -76.99769366666666, "rental_uris": {"android": "https://dc.lft.to/lastmile_qr_scan", "ios": "https://dc.lft.to/lastmile_qr_scan"}, "is_disabled": 0, "fusion_lat": 0.0, "name": "fbef6c2ff984a4b62940334ef036c497", "fusion_lon": 0.0}, {"is_reserved": 0, "type": "electric_scooter", "bike_id": "3dc754bea4c413ebbd2564b1559db4a5", "lat": 38.9043235, "lon": -77.025014, "rental_uris": {"android": "https://dc.lft.to/lastmile_qr_scan", "ios": "https://dc.lft.to/lastmile_qr_scan"}, "is_disabled": 0, "fusion_lat": 0.0, "name": "3dc754bea4c413ebbd2564b1559db4a5", "fusion_lon": 0.0}, {"is_reserved": 0, "type": "electric_scooter", "bike_id": "d07e155e96b5ac403e97a5aeb8515e4c", "lat": 38.9155765, "lon": -77.03989916666667, "rental_uris": {"android": "https://dc.lft.to/lastmile_qr_scan", "ios": "https://dc.lft.to/lastmile_qr_scan"}, "is_disabled": 0, "fusion_lat": 0.0, "name": "d07e155e96b5ac403e97a5aeb8515e4c", "fusion_lon": 0.0}, {"is_reserved": 0, "type": "electric_scooter", "bike_id": "28e6f7268153707af17cb99c71c9f06f", "lat": 38.9163845, "lon": -77.02371633333334, "rental_uris": {"android": "https://dc.lft.to/lastmile_qr_scan", "ios": "https://dc.lft.to/lastmile_qr_scan"}, "is_disabled": 0, "fusion_lat": 0.0, "name": "28e6f7268153707af17cb99c71c9f06f", "fusion_lon": 0.0}, {"is_reserved": 0, "type": "electric_bike", "bike_id": "aec4cd08626482d47dce482f2d3eba06", "lat": 38.946674, "lon": -76.99329983333334, "rental_uris": {"android": "https://dc.lft.to/lastmile_qr_scan", "ios": "https://dc.lft.to/lastmile_qr_scan"}, "is_disabled": 0, "fusion_lat": 0.0, "name": "aec4cd08626482d47dce482f2d3eba06", "fusion_lon": 0.0}, {"is_reserved": 0, "type": "electric_scooter", "bike_id": "1513040f84390a31fde16b6df6c834e7", "lat": 38.892176, "lon": -77.0241615, "rental_uris": {"android": "https://dc.lft.to/lastmile_qr_scan", "ios": "https://dc.lft.to/lastmile_qr_scan"}, "is_disabled": 0, "fusion_lat": 0.0, "name": "1513040f84390a31fde16b6df6c834e7", "fusion_lon": 0.0}, {"is_reserved": 0, "type": "electric_scooter", "bike_id": "a0b7e9e9ba054d843270b669d292e532", "lat": 38.918395, "lon": -77.03897516666666, "rental_uris": {"android": "https://dc.lft.to/lastmile_qr_scan", "ios": "https://dc.lft.to/lastmile_qr_scan"}, "is_disabled": 0, "fusion_lat": 0.0, "name": "a0b7e9e9ba054d843270b669d292e532", "fusion_lon": 0.0}, {"is_reserved": 0, "type": "electric_scooter", "bike_id": "da8c628113ba0218825bb9c958e80471", "lat": 38.91606983333333, "lon": -77.02391, "rental_uris": {"android": "https://dc.lft.to/lastmile_qr_scan", "ios": "https://dc.lft.to/lastmile_qr_scan"}, "is_disabled": 0, "fusion_lat": 0.0, "name": "da8c628113ba0218825bb9c958e80471", "fusion_lon": 0.0}, {"is_reserved": 0, "type": "electric_scooter", "bike_id": "bed399e58734518688d103050368eb33", "lat": 38.93645316666667, "lon": -77.024448, "rental_uris": {"android": "https://dc.lft.to/lastmile_qr_scan", "ios": "https://dc.lft.to/lastmile_qr_scan"}, "is_disabled": 0, "fusion_lat": 0.0, "name": "bed399e58734518688d103050368eb33", "fusion_lon": 0.0}, {"is_reserved": 0, "type": "electric_scooter", "bike_id": "931f1c28e9916aace44bdab939640dc5", "lat": 38.92256066666667, "lon": -77.0351955, "rental_uris": {"android": "https://dc.lft.to/lastmile_qr_scan", "ios": "https://dc.lft.to/lastmile_qr_scan"}, "is_disabled": 0, "fusion_lat": 0.0, "name": "931f1c28e9916aace44bdab939640dc5", "fusion_lon": 0.0}, {"is_reserved": 0, "type": "electric_scooter", "bike_id": "cedf365faca4a970b0ff4222d22b086b", "lat": 38.8977415, "lon": -77.02684083333334, "rental_uris": {"android": "https://dc.lft.to/lastmile_qr_scan", "ios": "https://dc.lft.to/lastmile_qr_scan"}, "is_disabled": 0, "fusion_lat": 0.0, "name": "cedf365faca4a970b0ff4222d22b086b", "fusion_lon": 0.0}, {"is_reserved": 0, "type": "electric_scooter", "bike_id": "2c7a98303d353535ab9c235b532a2e71", "lat": 38.88506116666667, "lon": -77.01111416666667, "rental_uris": {"android": "https://dc.lft.to/lastmile_qr_scan", "ios": "https://dc.lft.to/lastmile_qr_scan"}, "is_disabled": 0, "fusion_lat": 0.0, "name": "2c7a98303d353535ab9c235b532a2e71", "fusion_lon": 0.0}, {"is_reserved": 0, "type": "electric_scooter", "bike_id": "f85bc5f0871c3931e12caaf8f7105a44", "lat": 38.94693083333333, "lon": -77.02243966666667, "rental_uris": {"android": "https://dc.lft.to/lastmile_qr_scan", "ios": "https://dc.lft.to/lastmile_qr_scan"}, "is_disabled": 0, "fusion_lat": 0.0, "name": "f85bc5f0871c3931e12caaf8f7105a44", "fusion_lon": 0.0}, {"is_reserved": 0, "type": "electric_scooter", "bike_id": "e38358b8d2cf094841d9f164dc851b5f", "lat": 38.915695666666664, "lon": -77.02969333333333, "rental_uris": {"android": "https://dc.lft.to/lastmile_qr_scan", "ios": "https://dc.lft.to/lastmile_qr_scan"}, "is_disabled": 0, "fusion_lat": 0.0, "name": "e38358b8d2cf094841d9f164dc851b5f", "fusion_lon": 0.0}, {"is_reserved": 0, "type": "electric_scooter", "bike_id": "59de93bf94e7340848f5c5695e3c4f2c", "lat": 38.91265116666667, "lon": -77.012473, "rental_uris": {"android": "https://dc.lft.to/lastmile_qr_scan", "ios": "https://dc.lft.to/lastmile_qr_scan"}, "is_disabled": 0, "fusion_lat": 0.0, "name": "59de93bf94e7340848f5c5695e3c4f2c", "fusion_lon": 0.0}, {"is_reserved": 0, "type": "electric_scooter", "bike_id": "4ab522bd826c9b2200b2d229072d45c1", "lat": 38.9118975, "lon": -77.00721066666667, "rental_uris": {"android": "https://dc.lft.to/lastmile_qr_scan", "ios": "https://dc.lft.to/lastmile_qr_scan"}, "is_disabled": 0, "fusion_lat": 0.0, "name": "4ab522bd826c9b2200b2d229072d45c1", "fusion_lon": 0.0}, {"is_reserved": 0, "type": "electric_scooter", "bike_id": "62e115ecf0d9e72b4a68b67eb9013c27", "lat": 38.95958183333333, "lon": -77.07258966666667, "rental_uris": {"android": "https://dc.lft.to/lastmile_qr_scan", "ios": "https://dc.lft.to/lastmile_qr_scan"}, "is_disabled": 0, "fusion_lat": 0.0, "name": "62e115ecf0d9e72b4a68b67eb9013c27", "fusion_lon": 0.0}, {"is_reserved": 0, "type": "electric_scooter", "bike_id": "8bff387850db44a97ae357980e5e1bb3", "lat": 38.9249195, "lon": -77.02709933333334, "rental_uris": {"android": "https://dc.lft.to/lastmile_qr_scan", "ios": "https://dc.lft.to/lastmile_qr_scan"}, "is_disabled": 0, "fusion_lat": 0.0, "name": "8bff387850db44a97ae357980e5e1bb3", "fusion_lon": 0.0}, {"is_reserved": 0, "type": "electric_scooter", "bike_id": "66eb9b327b5de948af91450e94326128", "lat": 38.89549616666667, "lon": -76.98491583333333, "rental_uris": {"android": "https://dc.lft.to/lastmile_qr_scan", "ios": "https://dc.lft.to/lastmile_qr_scan"}, "is_disabled": 0, "fusion_lat": 0.0, "name": "66eb9b327b5de948af91450e94326128", "fusion_lon": 0.0}, {"is_reserved": 0, "type": "electric_scooter", "bike_id": "0cebebad2862be151fc13281fe79dcb7", "lat": 38.900090666666664, "lon": -77.01027983333333, "rental_uris": {"android": "https://dc.lft.to/lastmile_qr_scan", "ios": "https://dc.lft.to/lastmile_qr_scan"}, "is_disabled": 0, "fusion_lat": 0.0, "name": "0cebebad2862be151fc13281fe79dcb7", "fusion_lon": 0.0}, {"is_reserved": 0, "type": "electric_scooter", "bike_id": "6489d4a11c366ce280e9dd9ec691a524", "lat": 38.887309, "lon": -77.02200316666666, "rental_uris": {"android": "https://dc.lft.to/lastmile_qr_scan", "ios": "https://dc.lft.to/lastmile_qr_scan"}, "is_disabled": 0, "fusion_lat": 0.0, "name": "6489d4a11c366ce280e9dd9ec691a524", "fusion_lon": 0.0}, {"is_reserved": 0, "type": "electric_scooter", "bike_id": "10815637d75f3180258606246225af2a", "lat": 38.8962275, "lon": -77.02610783333333, "rental_uris": {"android": "https://dc.lft.to/lastmile_qr_scan", "ios": "https://dc.lft.to/lastmile_qr_scan"}, "is_disabled": 0, "fusion_lat": 0.0, "name": "10815637d75f3180258606246225af2a", "fusion_lon": 0.0}, {"is_reserved": 0, "type": "electric_scooter", "bike_id": "b279b1eb60252172be89ad9a7364165b", "lat": 38.892207166666665, "lon": -77.03231166666667, "rental_uris": {"android": "https://dc.lft.to/lastmile_qr_scan", "ios": "https://dc.lft.to/lastmile_qr_scan"}, "is_disabled": 0, "fusion_lat": 0.0, "name": "b279b1eb60252172be89ad9a7364165b", "fusion_lon": 0.0}, {"is_reserved": 0, "type": "electric_scooter", "bike_id": "dc37dff68a500ae891c8866cd5e080de", "lat": 38.90086433333333, "lon": -77.0495685, "rental_uris": {"android": "https://dc.lft.to/lastmile_qr_scan", "ios": "https://dc.lft.to/lastmile_qr_scan"}, "is_disabled": 0, "fusion_lat": 0.0, "name": "dc37dff68a500ae891c8866cd5e080de", "fusion_lon": 0.0}, {"is_reserved": 0, "type": "electric_scooter", "bike_id": "39f1b4f599bc6c0481b4977c516e299f", "lat": 38.938710666666665, "lon": -77.0321245, "rental_uris": {"android": "https://dc.lft.to/lastmile_qr_scan", "ios": "https://dc.lft.to/lastmile_qr_scan"}, "is_disabled": 0, "fusion_lat": 0.0, "name": "39f1b4f599bc6c0481b4977c516e299f", "fusion_lon": 0.0}, {"is_reserved": 0, "type": "electric_scooter", "bike_id": "1da6c37dec5e26b11d298106df4269c6", "lat": 38.92485683333334, "lon": -77.0270455, "rental_uris": {"android": "https://dc.lft.to/lastmile_qr_scan", "ios": "https://dc.lft.to/lastmile_qr_scan"}, "is_disabled": 0, "fusion_lat": 0.0, "name": "1da6c37dec5e26b11d298106df4269c6", "fusion_lon": 0.0}, {"is_reserved": 0, "type": "electric_scooter", "bike_id": "1c7aa7e7b18614216c95b307f31dc469", "lat": 38.922984, "lon": -77.03025283333334, "rental_uris": {"android": "https://dc.lft.to/lastmile_qr_scan", "ios": "https://dc.lft.to/lastmile_qr_scan"}, "is_disabled": 0, "fusion_lat": 0.0, "name": "1c7aa7e7b18614216c95b307f31dc469", "fusion_lon": 0.0}, {"is_reserved": 0, "type": "electric_scooter", "bike_id": "19c64b13986babef0aca31c89326b0b9", "lat": 38.9226455, "lon": -77.019648, "rental_uris": {"android": "https://dc.lft.to/lastmile_qr_scan", "ios": "https://dc.lft.to/lastmile_qr_scan"}, "is_disabled": 0, "fusion_lat": 0.0, "name": "19c64b13986babef0aca31c89326b0b9", "fusion_lon": 0.0}, {"is_reserved": 0, "type": "electric_bike", "bike_id": "a17f059534f2c21048a95a74cfcd711d", "lat": 38.901714, "lon": -76.97662616666666, "rental_uris": {"android": "https://dc.lft.to/lastmile_qr_scan", "ios": "https://dc.lft.to/lastmile_qr_scan"}, "is_disabled": 0, "fusion_lat": 0.0, "name": "a17f059534f2c21048a95a74cfcd711d", "fusion_lon": 0.0}, {"is_reserved": 0, "type": "electric_scooter", "bike_id": "784a2a72b649aded3c66d58a739d7318", "lat": 38.911094, "lon": -77.073465, "rental_uris": {"android": "https://dc.lft.to/lastmile_qr_scan", "ios": "https://dc.lft.to/lastmile_qr_scan"}, "is_disabled": 0, "fusion_lat": 0.0, "name": "784a2a72b649aded3c66d58a739d7318", "fusion_lon": 0.0}, {"is_reserved": 0, "type": "electric_scooter", "bike_id": "634406626ddf887fbbc836014186b8bc", "lat": 38.923146, "lon": -77.04134783333333, "rental_uris": {"android": "https://dc.lft.to/lastmile_qr_scan", "ios": "https://dc.lft.to/lastmile_qr_scan"}, "is_disabled": 0, "fusion_lat": 0.0, "name": "634406626ddf887fbbc836014186b8bc", "fusion_lon": 0.0}, {"is_reserved": 0, "type": "electric_scooter", "bike_id": "5df72b40f9dc24bb79ebbdc15261afb3", "lat": 38.914181166666665, "lon": -77.01874166666667, "rental_uris": {"android": "https://dc.lft.to/lastmile_qr_scan", "ios": "https://dc.lft.to/lastmile_qr_scan"}, "is_disabled": 0, "fusion_lat": 0.0, "name": "5df72b40f9dc24bb79ebbdc15261afb3", "fusion_lon": 0.0}, {"is_reserved": 0, "type": "electric_scooter", "bike_id": "9cd7c314dcc666de0a6d83b3f11bf974", "lat": 38.9215855, "lon": -77.03379083333333, "rental_uris": {"android": "https://dc.lft.to/lastmile_qr_scan", "ios": "https://dc.lft.to/lastmile_qr_scan"}, "is_disabled": 0, "fusion_lat": 0.0, "name": "9cd7c314dcc666de0a6d83b3f11bf974", "fusion_lon": 0.0}, {"is_reserved": 0, "type": "electric_bike", "bike_id": "14019fb3420175bfe4f6932259300a75", "lat": 38.87679716666667, "lon": -77.01996733333333, "rental_uris": {"android": "https://dc.lft.to/lastmile_qr_scan", "ios": "https://dc.lft.to/lastmile_qr_scan"}, "is_disabled": 0, "fusion_lat": 0.0, "name": "14019fb3420175bfe4f6932259300a75", "fusion_lon": 0.0}, {"is_reserved": 0, "type": "electric_scooter", "bike_id": "38bdc3e5e23648ed2545865d8c10b34c", "lat": 38.91404516666667, "lon": -77.031665, "rental_uris": {"android": "https://dc.lft.to/lastmile_qr_scan", "ios": "https://dc.lft.to/lastmile_qr_scan"}, "is_disabled": 0, "fusion_lat": 0.0, "name": "38bdc3e5e23648ed2545865d8c10b34c", "fusion_lon": 0.0}, {"is_reserved": 0, "type": "electric_scooter", "bike_id": "41316c6274a1f51a5111f85c7b1b971c", "lat": 38.926115, "lon": -77.021561, "rental_uris": {"android": "https://dc.lft.to/lastmile_qr_scan", "ios": "https://dc.lft.to/lastmile_qr_scan"}, "is_disabled": 0, "fusion_lat": 0.0, "name": "41316c6274a1f51a5111f85c7b1b971c", "fusion_lon": 0.0}, {"is_reserved": 0, "type": "electric_scooter", "bike_id": "b0b63ff2fd866ffec42d2ebf0943f4f2", "lat": 38.89993366666667, "lon": -77.0271695, "rental_uris": {"android": "https://dc.lft.to/lastmile_qr_scan", "ios": "https://dc.lft.to/lastmile_qr_scan"}, "is_disabled": 0, "fusion_lat": 0.0, "name": "b0b63ff2fd866ffec42d2ebf0943f4f2", "fusion_lon": 0.0}, {"is_reserved": 0, "type": "electric_scooter", "bike_id": "1ab67848409daffa388ce6bbd4582413", "lat": 38.966481333333334, "lon": -77.00888716666667, "rental_uris": {"android": "https://dc.lft.to/lastmile_qr_scan", "ios": "https://dc.lft.to/lastmile_qr_scan"}, "is_disabled": 0, "fusion_lat": 0.0, "name": "1ab67848409daffa388ce6bbd4582413", "fusion_lon": 0.0}, {"is_reserved": 0, "type": "electric_scooter", "bike_id": "6558a7cbbdd2e78b39e1bf32731e39cd", "lat": 38.92102583333333, "lon": -77.0315915, "rental_uris": {"android": "https://dc.lft.to/lastmile_qr_scan", "ios": "https://dc.lft.to/lastmile_qr_scan"}, "is_disabled": 0, "fusion_lat": 0.0, "name": "6558a7cbbdd2e78b39e1bf32731e39cd", "fusion_lon": 0.0}, {"is_reserved": 0, "type": "electric_scooter", "bike_id": "b6860823cbae7169e6d99671e2b1b0f0", "lat": 38.91691933333333, "lon": -77.028136, "rental_uris": {"android": "https://dc.lft.to/lastmile_qr_scan", "ios": "https://dc.lft.to/lastmile_qr_scan"}, "is_disabled": 0, "fusion_lat": 0.0, "name": "b6860823cbae7169e6d99671e2b1b0f0", "fusion_lon": 0.0}, {"is_reserved": 0, "type": "electric_scooter", "bike_id": "0dece452c2a26b97c411a08549f61567", "lat": 38.9525165, "lon": -77.02388483333333, "rental_uris": {"android": "https://dc.lft.to/lastmile_qr_scan", "ios": "https://dc.lft.to/lastmile_qr_scan"}, "is_disabled": 0, "fusion_lat": 0.0, "name": "0dece452c2a26b97c411a08549f61567", "fusion_lon": 0.0}, {"is_reserved": 0, "type": "electric_scooter", "bike_id": "ee3cb06ae75057b5312d7524a72d38f8", "lat": 38.91630516666667, "lon": -77.01584183333334, "rental_uris": {"android": "https://dc.lft.to/lastmile_qr_scan", "ios": "https://dc.lft.to/lastmile_qr_scan"}, "is_disabled": 0, "fusion_lat": 0.0, "name": "ee3cb06ae75057b5312d7524a72d38f8", "fusion_lon": 0.0}, {"is_reserved": 0, "type": "electric_scooter", "bike_id": "4536a48d65b15d7ce1256847bd496e8e", "lat": 38.93530666666667, "lon": -77.02488816666667, "rental_uris": {"android": "https://dc.lft.to/lastmile_qr_scan", "ios": "https://dc.lft.to/lastmile_qr_scan"}, "is_disabled": 0, "fusion_lat": 0.0, "name": "4536a48d65b15d7ce1256847bd496e8e", "fusion_lon": 0.0}, {"is_reserved": 0, "type": "electric_scooter", "bike_id": "89227f7becf9ea52993cdd43d3c15e3a", "lat": 38.9187245, "lon": -77.013613, "rental_uris": {"android": "https://dc.lft.to/lastmile_qr_scan", "ios": "https://dc.lft.to/lastmile_qr_scan"}, "is_disabled": 0, "fusion_lat": 0.0, "name": "89227f7becf9ea52993cdd43d3c15e3a", "fusion_lon": 0.0}, {"is_reserved": 0, "type": "electric_scooter", "bike_id": "935c1277834576643465be5504dce9ae", "lat": 38.9058495, "lon": -77.03660716666667, "rental_uris": {"android": "https://dc.lft.to/lastmile_qr_scan", "ios": "https://dc.lft.to/lastmile_qr_scan"}, "is_disabled": 0, "fusion_lat": 0.0, "name": "935c1277834576643465be5504dce9ae", "fusion_lon": 0.0}, {"is_reserved": 0, "type": "electric_scooter", "bike_id": "e279d464d50f37167efa3e3713e34547", "lat": 38.898864833333334, "lon": -77.03230666666667, "rental_uris": {"android": "https://dc.lft.to/lastmile_qr_scan", "ios": "https://dc.lft.to/lastmile_qr_scan"}, "is_disabled": 0, "fusion_lat": 0.0, "name": "e279d464d50f37167efa3e3713e34547", "fusion_lon": 0.0}, {"is_reserved": 0, "type": "electric_bike", "bike_id": "fc984363870a7afe6bde30a3bb85a45e", "lat": 38.995445333333336, "lon": -77.07447383333333, "rental_uris": {"android": "https://dc.lft.to/lastmile_qr_scan", "ios": "https://dc.lft.to/lastmile_qr_scan"}, "is_disabled": 0, "fusion_lat": 0.0, "name": "fc984363870a7afe6bde30a3bb85a45e", "fusion_lon": 0.0}, {"is_reserved": 0, "type": "electric_scooter", "bike_id": "5f95fe0d4c9044a642a6c11d3c1cbd34", "lat": 38.91223733333333, "lon": -77.0268565, "rental_uris": {"android": "https://dc.lft.to/lastmile_qr_scan", "ios": "https://dc.lft.to/lastmile_qr_scan"}, "is_disabled": 0, "fusion_lat": 0.0, "name": "5f95fe0d4c9044a642a6c11d3c1cbd34", "fusion_lon": 0.0}, {"is_reserved": 0, "type": "electric_bike", "bike_id": "30333b58b12c1f2937511d98c8b9733c", "lat": 38.908498333333334, "lon": -77.06355516666666, "rental_uris": {"android": "https://dc.lft.to/lastmile_qr_scan", "ios": "https://dc.lft.to/lastmile_qr_scan"}, "is_disabled": 0, "fusion_lat": 0.0, "name": "30333b58b12c1f2937511d98c8b9733c", "fusion_lon": 0.0}, {"is_reserved": 0, "type": "electric_scooter", "bike_id": "de65748269c1284022be76af9fcfd079", "lat": 38.895930166666666, "lon": -76.9298055, "rental_uris": {"android": "https://dc.lft.to/lastmile_qr_scan", "ios": "https://dc.lft.to/lastmile_qr_scan"}, "is_disabled": 0, "fusion_lat": 0.0, "name": "de65748269c1284022be76af9fcfd079", "fusion_lon": 0.0}, {"is_reserved": 0, "type": "electric_scooter", "bike_id": "ff99fd12497d35063c598de15fe805a5", "lat": 38.89520783333333, "lon": -77.03951816666667, "rental_uris": {"android": "https://dc.lft.to/lastmile_qr_scan", "ios": "https://dc.lft.to/lastmile_qr_scan"}, "is_disabled": 0, "fusion_lat": 0.0, "name": "ff99fd12497d35063c598de15fe805a5", "fusion_lon": 0.0}, {"is_reserved": 0, "type": "electric_scooter", "bike_id": "cae42abdbb7f404afccd7dfd5db29599", "lat": 38.900378, "lon": -76.99841933333333, "rental_uris": {"android": "https://dc.lft.to/lastmile_qr_scan", "ios": "https://dc.lft.to/lastmile_qr_scan"}, "is_disabled": 0, "fusion_lat": 0.0, "name": "cae42abdbb7f404afccd7dfd5db29599", "fusion_lon": 0.0}, {"is_reserved": 0, "type": "electric_scooter", "bike_id": "a43088e9ce49d63831ae42d96dea047c", "lat": 38.892187666666665, "lon": -77.02416316666667, "rental_uris": {"android": "https://dc.lft.to/lastmile_qr_scan", "ios": "https://dc.lft.to/lastmile_qr_scan"}, "is_disabled": 0, "fusion_lat": 0.0, "name": "a43088e9ce49d63831ae42d96dea047c", "fusion_lon": 0.0}, {"is_reserved": 0, "type": "electric_scooter", "bike_id": "59509b803f320cda07848aa87d2d432b", "lat": 38.898471, "lon": -77.02206316666667, "rental_uris": {"android": "https://dc.lft.to/lastmile_qr_scan", "ios": "https://dc.lft.to/lastmile_qr_scan"}, "is_disabled": 0, "fusion_lat": 0.0, "name": "59509b803f320cda07848aa87d2d432b", "fusion_lon": 0.0}, {"is_reserved": 0, "type": "electric_scooter", "bike_id": "8393d31a16357f8036533a4f4a12c35a", "lat": 38.87654766666667, "lon": -77.00824233333333, "rental_uris": {"android": "https://dc.lft.to/lastmile_qr_scan", "ios": "https://dc.lft.to/lastmile_qr_scan"}, "is_disabled": 0, "fusion_lat": 0.0, "name": "8393d31a16357f8036533a4f4a12c35a", "fusion_lon": 0.0}, {"is_reserved": 0, "type": "electric_scooter", "bike_id": "278fdae4af34e6d8da06d88594306287", "lat": 38.92393933333334, "lon": -77.04455033333333, "rental_uris": {"android": "https://dc.lft.to/lastmile_qr_scan", "ios": "https://dc.lft.to/lastmile_qr_scan"}, "is_disabled": 0, "fusion_lat": 0.0, "name": "278fdae4af34e6d8da06d88594306287", "fusion_lon": 0.0}, {"is_reserved": 0, "type": "electric_scooter", "bike_id": "36de5ec2f72cbfbf55e36d2dc36149d8", "lat": 38.898399833333336, "lon": -77.0304335, "rental_uris": {"android": "https://dc.lft.to/lastmile_qr_scan", "ios": "https://dc.lft.to/lastmile_qr_scan"}, "is_disabled": 0, "fusion_lat": 0.0, "name": "36de5ec2f72cbfbf55e36d2dc36149d8", "fusion_lon": 0.0}, {"is_reserved": 0, "type": "electric_scooter", "bike_id": "5c226927587369a29d775ffde7d7fd5f", "lat": 38.923334, "lon": -77.0188515, "rental_uris": {"android": "https://dc.lft.to/lastmile_qr_scan", "ios": "https://dc.lft.to/lastmile_qr_scan"}, "is_disabled": 0, "fusion_lat": 0.0, "name": "5c226927587369a29d775ffde7d7fd5f", "fusion_lon": 0.0}, {"is_reserved": 0, "type": "electric_scooter", "bike_id": "8e8ffbf7ca47b2fac01122c31c36b0a7", "lat": 38.915828166666664, "lon": -77.012272, "rental_uris": {"android": "https://dc.lft.to/lastmile_qr_scan", "ios": "https://dc.lft.to/lastmile_qr_scan"}, "is_disabled": 0, "fusion_lat": 0.0, "name": "8e8ffbf7ca47b2fac01122c31c36b0a7", "fusion_lon": 0.0}, {"is_reserved": 0, "type": "electric_scooter", "bike_id": "eb0abeb432ab8c621b0ba74ab027ab1f", "lat": 38.9192185, "lon": -77.04168533333333, "rental_uris": {"android": "https://dc.lft.to/lastmile_qr_scan", "ios": "https://dc.lft.to/lastmile_qr_scan"}, "is_disabled": 0, "fusion_lat": 0.0, "name": "eb0abeb432ab8c621b0ba74ab027ab1f", "fusion_lon": 0.0}, {"is_reserved": 0, "type": "electric_bike", "bike_id": "4a7f9bea437bff7f03603cfdb90b69fc", "lat": 38.999372, "lon": -77.05133066666667, "rental_uris": {"android": "https://dc.lft.to/lastmile_qr_scan", "ios": "https://dc.lft.to/lastmile_qr_scan"}, "is_disabled": 0, "fusion_lat": 0.0, "name": "4a7f9bea437bff7f03603cfdb90b69fc", "fusion_lon": 0.0}, {"is_reserved": 0, "type": "electric_scooter", "bike_id": "adbe04c6b4522221c4094796072d5326", "lat": 38.898259, "lon": -76.94644016666666, "rental_uris": {"android": "https://dc.lft.to/lastmile_qr_scan", "ios": "https://dc.lft.to/lastmile_qr_scan"}, "is_disabled": 0, "fusion_lat": 0.0, "name": "adbe04c6b4522221c4094796072d5326", "fusion_lon": 0.0}, {"is_reserved": 0, "type": "electric_scooter", "bike_id": "0a2426731d50b0c0ab4fdd60e60d1075", "lat": 38.9198725, "lon": -77.0418195, "rental_uris": {"android": "https://dc.lft.to/lastmile_qr_scan", "ios": "https://dc.lft.to/lastmile_qr_scan"}, "is_disabled": 0, "fusion_lat": 0.0, "name": "0a2426731d50b0c0ab4fdd60e60d1075", "fusion_lon": 0.0}, {"is_reserved": 0, "type": "electric_scooter", "bike_id": "b0b39a84c557cf29a0f26e8da68271af", "lat": 38.9069815, "lon": -77.03456766666666, "rental_uris": {"android": "https://dc.lft.to/lastmile_qr_scan", "ios": "https://dc.lft.to/lastmile_qr_scan"}, "is_disabled": 0, "fusion_lat": 0.0, "name": "b0b39a84c557cf29a0f26e8da68271af", "fusion_lon": 0.0}, {"is_reserved": 0, "type": "electric_scooter", "bike_id": "364123a286804c64d205f4ea494219a6", "lat": 38.91800583333333, "lon": -77.03187166666666, "rental_uris": {"android": "https://dc.lft.to/lastmile_qr_scan", "ios": "https://dc.lft.to/lastmile_qr_scan"}, "is_disabled": 0, "fusion_lat": 0.0, "name": "364123a286804c64d205f4ea494219a6", "fusion_lon": 0.0}, {"is_reserved": 0, "type": "electric_scooter", "bike_id": "df3a9c024f23165141a53badb3e0d1bc", "lat": 38.91684683333333, "lon": -77.02947616666667, "rental_uris": {"android": "https://dc.lft.to/lastmile_qr_scan", "ios": "https://dc.lft.to/lastmile_qr_scan"}, "is_disabled": 0, "fusion_lat": 0.0, "name": "df3a9c024f23165141a53badb3e0d1bc", "fusion_lon": 0.0}, {"is_reserved": 0, "type": "electric_scooter", "bike_id": "33c50bbaaa3ac8b2708001582cce6c94", "lat": 38.931861166666664, "lon": -77.03679683333333, "rental_uris": {"android": "https://dc.lft.to/lastmile_qr_scan", "ios": "https://dc.lft.to/lastmile_qr_scan"}, "is_disabled": 0, "fusion_lat": 0.0, "name": "33c50bbaaa3ac8b2708001582cce6c94", "fusion_lon": 0.0}, {"is_reserved": 0, "type": "electric_scooter", "bike_id": "7bfe4181bafbf18c61ba79735d8b7231", "lat": 38.89235766666667, "lon": -77.048728, "rental_uris": {"android": "https://dc.lft.to/lastmile_qr_scan", "ios": "https://dc.lft.to/lastmile_qr_scan"}, "is_disabled": 0, "fusion_lat": 0.0, "name": "7bfe4181bafbf18c61ba79735d8b7231", "fusion_lon": 0.0}, {"is_reserved": 0, "type": "electric_scooter", "bike_id": "da76e063a882d256e86b3c1dbcbfc650", "lat": 38.92421616666667, "lon": -77.01947533333333, "rental_uris": {"android": "https://dc.lft.to/lastmile_qr_scan", "ios": "https://dc.lft.to/lastmile_qr_scan"}, "is_disabled": 0, "fusion_lat": 0.0, "name": "da76e063a882d256e86b3c1dbcbfc650", "fusion_lon": 0.0}, {"is_reserved": 0, "type": "electric_scooter", "bike_id": "b9fd82117147432fe1bd97149287cb1d", "lat": 38.92709883333333, "lon": -77.00261933333333, "rental_uris": {"android": "https://dc.lft.to/lastmile_qr_scan", "ios": "https://dc.lft.to/lastmile_qr_scan"}, "is_disabled": 0, "fusion_lat": 0.0, "name": "b9fd82117147432fe1bd97149287cb1d", "fusion_lon": 0.0}, {"is_reserved": 0, "type": "electric_scooter", "bike_id": "ed2a7e70b0283d681497ae15b0a519db", "lat": 38.87341166666667, "lon": -76.99168666666667, "rental_uris": {"android": "https://dc.lft.to/lastmile_qr_scan", "ios": "https://dc.lft.to/lastmile_qr_scan"}, "is_disabled": 0, "fusion_lat": 0.0, "name": "ed2a7e70b0283d681497ae15b0a519db", "fusion_lon": 0.0}, {"is_reserved": 0, "type": "electric_scooter", "bike_id": "9ee921b5c3f1be5c74b985b7397e397c", "lat": 38.91818333333333, "lon": -77.03997166666667, "rental_uris": {"android": "https://dc.lft.to/lastmile_qr_scan", "ios": "https://dc.lft.to/lastmile_qr_scan"}, "is_disabled": 0, "fusion_lat": 0.0, "name": "9ee921b5c3f1be5c74b985b7397e397c", "fusion_lon": 0.0}, {"is_reserved": 0, "type": "electric_scooter", "bike_id": "39b91053874fcba95573456e0c7fd854", "lat": 38.896199333333335, "lon": -77.0317235, "rental_uris": {"android": "https://dc.lft.to/lastmile_qr_scan", "ios": "https://dc.lft.to/lastmile_qr_scan"}, "is_disabled": 0, "fusion_lat": 0.0, "name": "39b91053874fcba95573456e0c7fd854", "fusion_lon": 0.0}, {"is_reserved": 0, "type": "electric_bike", "bike_id": "5071b4399b6942651681a4707056e8c4", "lat": 38.92031766666667, "lon": -76.99575683333333, "rental_uris": {"android": "https://dc.lft.to/lastmile_qr_scan", "ios": "https://dc.lft.to/lastmile_qr_scan"}, "is_disabled": 0, "fusion_lat": 0.0, "name": "5071b4399b6942651681a4707056e8c4", "fusion_lon": 0.0}, {"is_reserved": 0, "type": "electric_scooter", "bike_id": "5c3d352d01a0fdfe48855d88aa63f61d", "lat": 38.892384166666666, "lon": -77.048978, "rental_uris": {"android": "https://dc.lft.to/lastmile_qr_scan", "ios": "https://dc.lft.to/lastmile_qr_scan"}, "is_disabled": 0, "fusion_lat": 0.0, "name": "5c3d352d01a0fdfe48855d88aa63f61d", "fusion_lon": 0.0}, {"is_reserved": 0, "type": "electric_scooter", "bike_id": "cf78340427b61907a04cea935fbdd6cc", "lat": 38.91065033333334, "lon": -77.036582, "rental_uris": {"android": "https://dc.lft.to/lastmile_qr_scan", "ios": "https://dc.lft.to/lastmile_qr_scan"}, "is_disabled": 0, "fusion_lat": 0.0, "name": "cf78340427b61907a04cea935fbdd6cc", "fusion_lon": 0.0}, {"is_reserved": 0, "type": "electric_scooter", "bike_id": "4209db3f248df35654d73bdcc9470248", "lat": 38.901559666666664, "lon": -77.0590925, "rental_uris": {"android": "https://dc.lft.to/lastmile_qr_scan", "ios": "https://dc.lft.to/lastmile_qr_scan"}, "is_disabled": 0, "fusion_lat": 0.0, "name": "4209db3f248df35654d73bdcc9470248", "fusion_lon": 0.0}, {"is_reserved": 0, "type": "electric_scooter", "bike_id": "079ff798b6d8ee4d4f2cc32d3cc48e03", "lat": 38.897081166666666, "lon": -77.02771616666666, "rental_uris": {"android": "https://dc.lft.to/lastmile_qr_scan", "ios": "https://dc.lft.to/lastmile_qr_scan"}, "is_disabled": 0, "fusion_lat": 0.0, "name": "079ff798b6d8ee4d4f2cc32d3cc48e03", "fusion_lon": 0.0}, {"is_reserved": 0, "type": "electric_scooter", "bike_id": "e50049922f834be8c5f90b6c471abc0d", "lat": 38.93073733333333, "lon": -77.02814866666667, "rental_uris": {"android": "https://dc.lft.to/lastmile_qr_scan", "ios": "https://dc.lft.to/lastmile_qr_scan"}, "is_disabled": 0, "fusion_lat": 0.0, "name": "e50049922f834be8c5f90b6c471abc0d", "fusion_lon": 0.0}, {"is_reserved": 0, "type": "electric_scooter", "bike_id": "27b32685bee8c4e8cda4a27249acc77f", "lat": 38.88372666666667, "lon": -76.99515066666666, "rental_uris": {"android": "https://dc.lft.to/lastmile_qr_scan", "ios": "https://dc.lft.to/lastmile_qr_scan"}, "is_disabled": 0, "fusion_lat": 0.0, "name": "27b32685bee8c4e8cda4a27249acc77f", "fusion_lon": 0.0}, {"is_reserved": 0, "type": "electric_scooter", "bike_id": "10e249cde2803f7a470bf0ce9e624d5a", "lat": 38.93117, "lon": -77.02313533333333, "rental_uris": {"android": "https://dc.lft.to/lastmile_qr_scan", "ios": "https://dc.lft.to/lastmile_qr_scan"}, "is_disabled": 0, "fusion_lat": 0.0, "name": "10e249cde2803f7a470bf0ce9e624d5a", "fusion_lon": 0.0}, {"is_reserved": 0, "type": "electric_scooter", "bike_id": "4dbfde7a74da689b3b240a8509dff90e", "lat": 38.91711033333333, "lon": -77.0415305, "rental_uris": {"android": "https://dc.lft.to/lastmile_qr_scan", "ios": "https://dc.lft.to/lastmile_qr_scan"}, "is_disabled": 0, "fusion_lat": 0.0, "name": "4dbfde7a74da689b3b240a8509dff90e", "fusion_lon": 0.0}, {"is_reserved": 0, "type": "electric_scooter", "bike_id": "932cbb141d3d05865bd25aee4f8d7b5d", "lat": 38.91955333333333, "lon": -76.9995305, "rental_uris": {"android": "https://dc.lft.to/lastmile_qr_scan", "ios": "https://dc.lft.to/lastmile_qr_scan"}, "is_disabled": 0, "fusion_lat": 0.0, "name": "932cbb141d3d05865bd25aee4f8d7b5d", "fusion_lon": 0.0}, {"is_reserved": 0, "type": "electric_scooter", "bike_id": "680422e0e08aa02e52821d4daa98598f", "lat": 38.93229916666667, "lon": -76.99738966666666, "rental_uris": {"android": "https://dc.lft.to/lastmile_qr_scan", "ios": "https://dc.lft.to/lastmile_qr_scan"}, "is_disabled": 0, "fusion_lat": 0.0, "name": "680422e0e08aa02e52821d4daa98598f", "fusion_lon": 0.0}, {"is_reserved": 0, "type": "electric_bike", "bike_id": "7882964682b3cb225f49c4169352a0b3", "lat": 38.9456425, "lon": -76.9583835, "rental_uris": {"android": "https://dc.lft.to/lastmile_qr_scan", "ios": "https://dc.lft.to/lastmile_qr_scan"}, "is_disabled": 0, "fusion_lat": 0.0, "name": "7882964682b3cb225f49c4169352a0b3", "fusion_lon": 0.0}, {"is_reserved": 0, "type": "electric_scooter", "bike_id": "5a9759a49125987d29a4f83824f98195", "lat": 38.893655333333335, "lon": -76.94808783333333, "rental_uris": {"android": "https://dc.lft.to/lastmile_qr_scan", "ios": "https://dc.lft.to/lastmile_qr_scan"}, "is_disabled": 0, "fusion_lat": 0.0, "name": "5a9759a49125987d29a4f83824f98195", "fusion_lon": 0.0}, {"is_reserved": 0, "type": "electric_scooter", "bike_id": "3863c6d443280dda9e8494c210cca2ea", "lat": 38.874699, "lon": -77.00547233333333, "rental_uris": {"android": "https://dc.lft.to/lastmile_qr_scan", "ios": "https://dc.lft.to/lastmile_qr_scan"}, "is_disabled": 0, "fusion_lat": 0.0, "name": "3863c6d443280dda9e8494c210cca2ea", "fusion_lon": 0.0}, {"is_reserved": 0, "type": "electric_scooter", "bike_id": "65e8e5dc3d3264ed9db69934e2367675", "lat": 38.896199333333335, "lon": -76.9972665, "rental_uris": {"android": "https://dc.lft.to/lastmile_qr_scan", "ios": "https://dc.lft.to/lastmile_qr_scan"}, "is_disabled": 0, "fusion_lat": 0.0, "name": "65e8e5dc3d3264ed9db69934e2367675", "fusion_lon": 0.0}, {"is_reserved": 0, "type": "electric_bike", "bike_id": "0979b3b89c55a66ad078bf8ce2dc4eb8", "lat": 38.958728666666666, "lon": -76.9704465, "rental_uris": {"android": "https://dc.lft.to/lastmile_qr_scan", "ios": "https://dc.lft.to/lastmile_qr_scan"}, "is_disabled": 0, "fusion_lat": 0.0, "name": "0979b3b89c55a66ad078bf8ce2dc4eb8", "fusion_lon": 0.0}, {"is_reserved": 0, "type": "electric_scooter", "bike_id": "c227142e10e892de0694a2cb1afae40c", "lat": 38.931353, "lon": -77.02365633333334, "rental_uris": {"android": "https://dc.lft.to/lastmile_qr_scan", "ios": "https://dc.lft.to/lastmile_qr_scan"}, "is_disabled": 0, "fusion_lat": 0.0, "name": "c227142e10e892de0694a2cb1afae40c", "fusion_lon": 0.0}, {"is_reserved": 0, "type": "electric_scooter", "bike_id": "aaff5df2ca8b9b6515d28247fafa34b6", "lat": 38.907187666666665, "lon": -77.00803133333334, "rental_uris": {"android": "https://dc.lft.to/lastmile_qr_scan", "ios": "https://dc.lft.to/lastmile_qr_scan"}, "is_disabled": 0, "fusion_lat": 0.0, "name": "aaff5df2ca8b9b6515d28247fafa34b6", "fusion_lon": 0.0}, {"is_reserved": 0, "type": "electric_scooter", "bike_id": "c5af0d79ca79ff52139ff6db3da9ca6c", "lat": 38.92975, "lon": -77.05502466666667, "rental_uris": {"android": "https://dc.lft.to/lastmile_qr_scan", "ios": "https://dc.lft.to/lastmile_qr_scan"}, "is_disabled": 0, "fusion_lat": 0.0, "name": "c5af0d79ca79ff52139ff6db3da9ca6c", "fusion_lon": 0.0}, {"is_reserved": 0, "type": "electric_scooter", "bike_id": "aa3e2dee5a8be49d3fcde57035decde0", "lat": 38.92398516666667, "lon": -77.05059766666666, "rental_uris": {"android": "https://dc.lft.to/lastmile_qr_scan", "ios": "https://dc.lft.to/lastmile_qr_scan"}, "is_disabled": 0, "fusion_lat": 0.0, "name": "aa3e2dee5a8be49d3fcde57035decde0", "fusion_lon": 0.0}, {"is_reserved": 0, "type": "electric_bike", "bike_id": "cfbf89336ff165003dd0471b7289e038", "lat": 38.84106033333333, "lon": -77.08932383333334, "rental_uris": {"android": "https://dc.lft.to/lastmile_qr_scan", "ios": "https://dc.lft.to/lastmile_qr_scan"}, "is_disabled": 0, "fusion_lat": 0.0, "name": "cfbf89336ff165003dd0471b7289e038", "fusion_lon": 0.0}, {"is_reserved": 0, "type": "electric_scooter", "bike_id": "7178d88c4da43a1c5668c9300f9009cb", "lat": 38.9124305, "lon": -77.04760516666667, "rental_uris": {"android": "https://dc.lft.to/lastmile_qr_scan", "ios": "https://dc.lft.to/lastmile_qr_scan"}, "is_disabled": 0, "fusion_lat": 0.0, "name": "7178d88c4da43a1c5668c9300f9009cb", "fusion_lon": 0.0}, {"is_reserved": 0, "type": "electric_scooter", "bike_id": "11443f15f951f5f730cd2ef2b7bbadb2", "lat": 38.90252783333333, "lon": -77.0175615, "rental_uris": {"android": "https://dc.lft.to/lastmile_qr_scan", "ios": "https://dc.lft.to/lastmile_qr_scan"}, "is_disabled": 0, "fusion_lat": 0.0, "name": "11443f15f951f5f730cd2ef2b7bbadb2", "fusion_lon": 0.0}, {"is_reserved": 0, "type": "electric_scooter", "bike_id": "66755deeb3eef294ac67e2fff753fff0", "lat": 38.90723583333333, "lon": -77.02505483333333, "rental_uris": {"android": "https://dc.lft.to/lastmile_qr_scan", "ios": "https://dc.lft.to/lastmile_qr_scan"}, "is_disabled": 0, "fusion_lat": 0.0, "name": "66755deeb3eef294ac67e2fff753fff0", "fusion_lon": 0.0}, {"is_reserved": 0, "type": "electric_scooter", "bike_id": "43b48f9767904aa753a5618f694f48fd", "lat": 38.919626, "lon": -77.01439833333333, "rental_uris": {"android": "https://dc.lft.to/lastmile_qr_scan", "ios": "https://dc.lft.to/lastmile_qr_scan"}, "is_disabled": 0, "fusion_lat": 0.0, "name": "43b48f9767904aa753a5618f694f48fd", "fusion_lon": 0.0}, {"is_reserved": 0, "type": "electric_bike", "bike_id": "46639d8890fb81b988fff07765556715", "lat": 38.94317933333333, "lon": -76.99016483333334, "rental_uris": {"android": "https://dc.lft.to/lastmile_qr_scan", "ios": "https://dc.lft.to/lastmile_qr_scan"}, "is_disabled": 0, "fusion_lat": 0.0, "name": "46639d8890fb81b988fff07765556715", "fusion_lon": 0.0}, {"is_reserved": 0, "type": "electric_scooter", "bike_id": "afae84091ebc377cbebe0d0b5092b42b", "lat": 38.904964166666666, "lon": -76.988643, "rental_uris": {"android": "https://dc.lft.to/lastmile_qr_scan", "ios": "https://dc.lft.to/lastmile_qr_scan"}, "is_disabled": 0, "fusion_lat": 0.0, "name": "afae84091ebc377cbebe0d0b5092b42b", "fusion_lon": 0.0}, {"is_reserved": 0, "type": "electric_scooter", "bike_id": "bd93c11f2f1c1e4e1e78d0cd7f1c2bbb", "lat": 38.9046955, "lon": -77.02582083333333, "rental_uris": {"android": "https://dc.lft.to/lastmile_qr_scan", "ios": "https://dc.lft.to/lastmile_qr_scan"}, "is_disabled": 0, "fusion_lat": 0.0, "name": "bd93c11f2f1c1e4e1e78d0cd7f1c2bbb", "fusion_lon": 0.0}, {"is_reserved": 0, "type": "electric_scooter", "bike_id": "e8305bf25d67d5f2957ef2c588651972", "lat": 38.955194, "lon": -77.02401533333334, "rental_uris": {"android": "https://dc.lft.to/lastmile_qr_scan", "ios": "https://dc.lft.to/lastmile_qr_scan"}, "is_disabled": 0, "fusion_lat": 0.0, "name": "e8305bf25d67d5f2957ef2c588651972", "fusion_lon": 0.0}, {"is_reserved": 0, "type": "electric_scooter", "bike_id": "c2107a52a9e1619389fb77586b15e162", "lat": 38.90580416666667, "lon": -77.03666333333334, "rental_uris": {"android": "https://dc.lft.to/lastmile_qr_scan", "ios": "https://dc.lft.to/lastmile_qr_scan"}, "is_disabled": 0, "fusion_lat": 0.0, "name": "c2107a52a9e1619389fb77586b15e162", "fusion_lon": 0.0}, {"is_reserved": 0, "type": "electric_scooter", "bike_id": "cf7e3add33b72dc81f2ac4278536500f", "lat": 38.898603333333334, "lon": -76.97758633333333, "rental_uris": {"android": "https://dc.lft.to/lastmile_qr_scan", "ios": "https://dc.lft.to/lastmile_qr_scan"}, "is_disabled": 0, "fusion_lat": 0.0, "name": "cf7e3add33b72dc81f2ac4278536500f", "fusion_lon": 0.0}, {"is_reserved": 0, "type": "electric_bike", "bike_id": "c57d7f0accbceb5d62971c69626a9034", "lat": 38.8560005, "lon": -76.9745145, "rental_uris": {"android": "https://dc.lft.to/lastmile_qr_scan", "ios": "https://dc.lft.to/lastmile_qr_scan"}, "is_disabled": 0, "fusion_lat": 0.0, "name": "c57d7f0accbceb5d62971c69626a9034", "fusion_lon": 0.0}, {"is_reserved": 0, "type": "electric_bike", "bike_id": "853157c1ee6813060a84f5331c72f438", "lat": 38.857898, "lon": -76.98744583333334, "rental_uris": {"android": "https://dc.lft.to/lastmile_qr_scan", "ios": "https://dc.lft.to/lastmile_qr_scan"}, "is_disabled": 0, "fusion_lat": 0.0, "name": "853157c1ee6813060a84f5331c72f438", "fusion_lon": 0.0}, {"is_reserved": 0, "type": "electric_scooter", "bike_id": "171f95ab8374a1eee7693c2c6b78da78", "lat": 38.92361983333333, "lon": -77.04314166666667, "rental_uris": {"android": "https://dc.lft.to/lastmile_qr_scan", "ios": "https://dc.lft.to/lastmile_qr_scan"}, "is_disabled": 0, "fusion_lat": 0.0, "name": "171f95ab8374a1eee7693c2c6b78da78", "fusion_lon": 0.0}, {"is_reserved": 0, "type": "electric_scooter", "bike_id": "e25e93632772035c8167c6d6e6fe2eff", "lat": 38.91084983333333, "lon": -77.02177333333333, "rental_uris": {"android": "https://dc.lft.to/lastmile_qr_scan", "ios": "https://dc.lft.to/lastmile_qr_scan"}, "is_disabled": 0, "fusion_lat": 0.0, "name": "e25e93632772035c8167c6d6e6fe2eff", "fusion_lon": 0.0}, {"is_reserved": 0, "type": "electric_scooter", "bike_id": "fe81ecdbf14ca8d1f6f9b5955d8281e1", "lat": 38.91907883333333, "lon": -77.03119366666667, "rental_uris": {"android": "https://dc.lft.to/lastmile_qr_scan", "ios": "https://dc.lft.to/lastmile_qr_scan"}, "is_disabled": 0, "fusion_lat": 0.0, "name": "fe81ecdbf14ca8d1f6f9b5955d8281e1", "fusion_lon": 0.0}, {"is_reserved": 0, "type": "electric_scooter", "bike_id": "a6308b5e027eedf5f5cb2ca0dd0bcb54", "lat": 38.91415683333334, "lon": -77.03136966666666, "rental_uris": {"android": "https://dc.lft.to/lastmile_qr_scan", "ios": "https://dc.lft.to/lastmile_qr_scan"}, "is_disabled": 0, "fusion_lat": 0.0, "name": "a6308b5e027eedf5f5cb2ca0dd0bcb54", "fusion_lon": 0.0}, {"is_reserved": 0, "type": "electric_scooter", "bike_id": "a2b166415a1157ccfb59bc911f443a29", "lat": 38.921385, "lon": -77.0470825, "rental_uris": {"android": "https://dc.lft.to/lastmile_qr_scan", "ios": "https://dc.lft.to/lastmile_qr_scan"}, "is_disabled": 0, "fusion_lat": 0.0, "name": "a2b166415a1157ccfb59bc911f443a29", "fusion_lon": 0.0}, {"is_reserved": 0, "type": "electric_bike", "bike_id": "ce96a10d858e8bf7134c9df8314d1190", "lat": 38.806759166666666, "lon": -77.08754466666667, "rental_uris": {"android": "https://dc.lft.to/lastmile_qr_scan", "ios": "https://dc.lft.to/lastmile_qr_scan"}, "is_disabled": 0, "fusion_lat": 0.0, "name": "ce96a10d858e8bf7134c9df8314d1190", "fusion_lon": 0.0}, {"is_reserved": 0, "type": "electric_scooter", "bike_id": "bc80f5d7f416995949ae54fb5114bf67", "lat": 38.885115166666665, "lon": -77.01750033333333, "rental_uris": {"android": "https://dc.lft.to/lastmile_qr_scan", "ios": "https://dc.lft.to/lastmile_qr_scan"}, "is_disabled": 0, "fusion_lat": 0.0, "name": "bc80f5d7f416995949ae54fb5114bf67", "fusion_lon": 0.0}, {"is_reserved": 0, "type": "electric_bike", "bike_id": "955dd5915e5b02e293a1fdc6807206e9", "lat": 38.872117, "lon": -77.11737866666667, "rental_uris": {"android": "https://dc.lft.to/lastmile_qr_scan", "ios": "https://dc.lft.to/lastmile_qr_scan"}, "is_disabled": 0, "fusion_lat": 0.0, "name": "955dd5915e5b02e293a1fdc6807206e9", "fusion_lon": 0.0}, {"is_reserved": 0, "type": "electric_scooter", "bike_id": "4c32f46fde24aa4acc4b5c45f9b45a79", "lat": 38.91630766666667, "lon": -77.0064135, "rental_uris": {"android": "https://dc.lft.to/lastmile_qr_scan", "ios": "https://dc.lft.to/lastmile_qr_scan"}, "is_disabled": 0, "fusion_lat": 0.0, "name": "4c32f46fde24aa4acc4b5c45f9b45a79", "fusion_lon": 0.0}, {"is_reserved": 0, "type": "electric_scooter", "bike_id": "536aa4da56a0fd1717f610a7e18b7365", "lat": 38.90724983333333, "lon": -77.04751316666666, "rental_uris": {"android": "https://dc.lft.to/lastmile_qr_scan", "ios": "https://dc.lft.to/lastmile_qr_scan"}, "is_disabled": 0, "fusion_lat": 0.0, "name": "536aa4da56a0fd1717f610a7e18b7365", "fusion_lon": 0.0}, {"is_reserved": 0, "type": "electric_scooter", "bike_id": "1dc78108f5144f794337834ddba14790", "lat": 38.9241075, "lon": -77.0403805, "rental_uris": {"android": "https://dc.lft.to/lastmile_qr_scan", "ios": "https://dc.lft.to/lastmile_qr_scan"}, "is_disabled": 0, "fusion_lat": 0.0, "name": "1dc78108f5144f794337834ddba14790", "fusion_lon": 0.0}, {"is_reserved": 0, "type": "electric_scooter", "bike_id": "f93c2f486eefd0a5b8d9640dc4ed00e6", "lat": 38.914586, "lon": -77.02197466666667, "rental_uris": {"android": "https://dc.lft.to/lastmile_qr_scan", "ios": "https://dc.lft.to/lastmile_qr_scan"}, "is_disabled": 0, "fusion_lat": 0.0, "name": "f93c2f486eefd0a5b8d9640dc4ed00e6", "fusion_lon": 0.0}, {"is_reserved": 0, "type": "electric_scooter", "bike_id": "bcfe8e4c776e056c28920cf79f0d5e8c", "lat": 38.912865833333335, "lon": -77.0230095, "rental_uris": {"android": "https://dc.lft.to/lastmile_qr_scan", "ios": "https://dc.lft.to/lastmile_qr_scan"}, "is_disabled": 0, "fusion_lat": 0.0, "name": "bcfe8e4c776e056c28920cf79f0d5e8c", "fusion_lon": 0.0}, {"is_reserved": 0, "type": "electric_bike", "bike_id": "4704d4383dc2395635053d1634c38434", "lat": 38.79335583333334, "lon": -77.00043666666667, "rental_uris": {"android": "https://dc.lft.to/lastmile_qr_scan", "ios": "https://dc.lft.to/lastmile_qr_scan"}, "is_disabled": 0, "fusion_lat": 0.0, "name": "4704d4383dc2395635053d1634c38434", "fusion_lon": 0.0}, {"is_reserved": 0, "type": "electric_scooter", "bike_id": "2108b6172a076041a20ba0df4367607c", "lat": 38.934841166666665, "lon": -77.07326283333333, "rental_uris": {"android": "https://dc.lft.to/lastmile_qr_scan", "ios": "https://dc.lft.to/lastmile_qr_scan"}, "is_disabled": 0, "fusion_lat": 0.0, "name": "2108b6172a076041a20ba0df4367607c", "fusion_lon": 0.0}, {"is_reserved": 0, "type": "electric_scooter", "bike_id": "1c217776e2040c2e3ba765ae7898d13d", "lat": 38.90548066666667, "lon": -77.05916866666666, "rental_uris": {"android": "https://dc.lft.to/lastmile_qr_scan", "ios": "https://dc.lft.to/lastmile_qr_scan"}, "is_disabled": 0, "fusion_lat": 0.0, "name": "1c217776e2040c2e3ba765ae7898d13d", "fusion_lon": 0.0}, {"is_reserved": 0, "type": "electric_scooter", "bike_id": "cc5c92281f72d12d4e666782ac79ee8f", "lat": 38.89226816666667, "lon": -77.04635033333334, "rental_uris": {"android": "https://dc.lft.to/lastmile_qr_scan", "ios": "https://dc.lft.to/lastmile_qr_scan"}, "is_disabled": 0, "fusion_lat": 0.0, "name": "cc5c92281f72d12d4e666782ac79ee8f", "fusion_lon": 0.0}, {"is_reserved": 0, "type": "electric_scooter", "bike_id": "084f50b5f78a4a3bd34217ddafa15aa9", "lat": 38.9070125, "lon": -77.044973, "rental_uris": {"android": "https://dc.lft.to/lastmile_qr_scan", "ios": "https://dc.lft.to/lastmile_qr_scan"}, "is_disabled": 0, "fusion_lat": 0.0, "name": "084f50b5f78a4a3bd34217ddafa15aa9", "fusion_lon": 0.0}, {"is_reserved": 0, "type": "electric_scooter", "bike_id": "29249b789f8f1357454deb48afbe529d", "lat": 38.88696483333333, "lon": -77.03165266666667, "rental_uris": {"android": "https://dc.lft.to/lastmile_qr_scan", "ios": "https://dc.lft.to/lastmile_qr_scan"}, "is_disabled": 0, "fusion_lat": 0.0, "name": "29249b789f8f1357454deb48afbe529d", "fusion_lon": 0.0}, {"is_reserved": 0, "type": "electric_scooter", "bike_id": "460cd08bf0f7af0772e7212c391dd63f", "lat": 38.893424833333334, "lon": -76.99375066666667, "rental_uris": {"android": "https://dc.lft.to/lastmile_qr_scan", "ios": "https://dc.lft.to/lastmile_qr_scan"}, "is_disabled": 0, "fusion_lat": 0.0, "name": "460cd08bf0f7af0772e7212c391dd63f", "fusion_lon": 0.0}, {"is_reserved": 0, "type": "electric_scooter", "bike_id": "ce7e324300977469b00df8a5338e56e6", "lat": 38.91687866666667, "lon": -77.03764266666667, "rental_uris": {"android": "https://dc.lft.to/lastmile_qr_scan", "ios": "https://dc.lft.to/lastmile_qr_scan"}, "is_disabled": 0, "fusion_lat": 0.0, "name": "ce7e324300977469b00df8a5338e56e6", "fusion_lon": 0.0}, {"is_reserved": 0, "type": "electric_scooter", "bike_id": "7f272e18c76f8b88e3bb7d8f5011bc53", "lat": 38.902536833333336, "lon": -77.03559283333334, "rental_uris": {"android": "https://dc.lft.to/lastmile_qr_scan", "ios": "https://dc.lft.to/lastmile_qr_scan"}, "is_disabled": 0, "fusion_lat": 0.0, "name": "7f272e18c76f8b88e3bb7d8f5011bc53", "fusion_lon": 0.0}, {"is_reserved": 0, "type": "electric_scooter", "bike_id": "2f5cac41ec29ace0266bfe8c89c0e83d", "lat": 38.91265833333333, "lon": -77.04840183333333, "rental_uris": {"android": "https://dc.lft.to/lastmile_qr_scan", "ios": "https://dc.lft.to/lastmile_qr_scan"}, "is_disabled": 0, "fusion_lat": 0.0, "name": "2f5cac41ec29ace0266bfe8c89c0e83d", "fusion_lon": 0.0}, {"is_reserved": 0, "type": "electric_bike", "bike_id": "8fb6ee229117b2c3da58df38900ec133", "lat": 38.92144966666667, "lon": -77.07974316666666, "rental_uris": {"android": "https://dc.lft.to/lastmile_qr_scan", "ios": "https://dc.lft.to/lastmile_qr_scan"}, "is_disabled": 0, "fusion_lat": 0.0, "name": "8fb6ee229117b2c3da58df38900ec133", "fusion_lon": 0.0}, {"is_reserved": 0, "type": "electric_scooter", "bike_id": "62d51b247fc480e24686cd6c90c397ff", "lat": 38.90198983333333, "lon": -77.02315166666666, "rental_uris": {"android": "https://dc.lft.to/lastmile_qr_scan", "ios": "https://dc.lft.to/lastmile_qr_scan"}, "is_disabled": 0, "fusion_lat": 0.0, "name": "62d51b247fc480e24686cd6c90c397ff", "fusion_lon": 0.0}, {"is_reserved": 0, "type": "electric_scooter", "bike_id": "3ad8f8040ad5c491097f8e8fc06c6d86", "lat": 38.94084766666667, "lon": -77.00325616666667, "rental_uris": {"android": "https://dc.lft.to/lastmile_qr_scan", "ios": "https://dc.lft.to/lastmile_qr_scan"}, "is_disabled": 0, "fusion_lat": 0.0, "name": "3ad8f8040ad5c491097f8e8fc06c6d86", "fusion_lon": 0.0}, {"is_reserved": 0, "type": "electric_scooter", "bike_id": "af3dda1c9b0fbe003d277ed01bfc3fcd", "lat": 38.90401416666667, "lon": -77.067777, "rental_uris": {"android": "https://dc.lft.to/lastmile_qr_scan", "ios": "https://dc.lft.to/lastmile_qr_scan"}, "is_disabled": 0, "fusion_lat": 0.0, "name": "af3dda1c9b0fbe003d277ed01bfc3fcd", "fusion_lon": 0.0}, {"is_reserved": 0, "type": "electric_scooter", "bike_id": "9f0e851bd36950513e98a0c689cff43d", "lat": 38.90588316666667, "lon": -77.01614233333333, "rental_uris": {"android": "https://dc.lft.to/lastmile_qr_scan", "ios": "https://dc.lft.to/lastmile_qr_scan"}, "is_disabled": 0, "fusion_lat": 0.0, "name": "9f0e851bd36950513e98a0c689cff43d", "fusion_lon": 0.0}, {"is_reserved": 0, "type": "electric_scooter", "bike_id": "47331a3b0d83f7963d2a98d9c5c00d8b", "lat": 38.91510683333333, "lon": -77.0218165, "rental_uris": {"android": "https://dc.lft.to/lastmile_qr_scan", "ios": "https://dc.lft.to/lastmile_qr_scan"}, "is_disabled": 0, "fusion_lat": 0.0, "name": "47331a3b0d83f7963d2a98d9c5c00d8b", "fusion_lon": 0.0}, {"is_reserved": 0, "type": "electric_scooter", "bike_id": "3b0b36409ed303a21e1321fdbbe03b51", "lat": 38.918557666666665, "lon": -76.9654195, "rental_uris": {"android": "https://dc.lft.to/lastmile_qr_scan", "ios": "https://dc.lft.to/lastmile_qr_scan"}, "is_disabled": 0, "fusion_lat": 0.0, "name": "3b0b36409ed303a21e1321fdbbe03b51", "fusion_lon": 0.0}, {"is_reserved": 0, "type": "electric_scooter", "bike_id": "2c04aafdffac3ed8a66185da8f7c4199", "lat": 38.911723333333335, "lon": -77.01973, "rental_uris": {"android": "https://dc.lft.to/lastmile_qr_scan", "ios": "https://dc.lft.to/lastmile_qr_scan"}, "is_disabled": 0, "fusion_lat": 0.0, "name": "2c04aafdffac3ed8a66185da8f7c4199", "fusion_lon": 0.0}, {"is_reserved": 0, "type": "electric_scooter", "bike_id": "b2305507f872bdb0de08a4ab3b2108d0", "lat": 38.88489633333333, "lon": -77.03473416666667, "rental_uris": {"android": "https://dc.lft.to/lastmile_qr_scan", "ios": "https://dc.lft.to/lastmile_qr_scan"}, "is_disabled": 0, "fusion_lat": 0.0, "name": "b2305507f872bdb0de08a4ab3b2108d0", "fusion_lon": 0.0}, {"is_reserved": 0, "type": "electric_scooter", "bike_id": "d9c18218fb195681fae32c6d29cc9146", "lat": 38.903311, "lon": -77.02474466666666, "rental_uris": {"android": "https://dc.lft.to/lastmile_qr_scan", "ios": "https://dc.lft.to/lastmile_qr_scan"}, "is_disabled": 0, "fusion_lat": 0.0, "name": "d9c18218fb195681fae32c6d29cc9146", "fusion_lon": 0.0}, {"is_reserved": 0, "type": "electric_scooter", "bike_id": "1925d71b562d23aacaed9eaf0f996deb", "lat": 38.912238, "lon": -77.011236, "rental_uris": {"android": "https://dc.lft.to/lastmile_qr_scan", "ios": "https://dc.lft.to/lastmile_qr_scan"}, "is_disabled": 0, "fusion_lat": 0.0, "name": "1925d71b562d23aacaed9eaf0f996deb", "fusion_lon": 0.0}, {"is_reserved": 0, "type": "electric_scooter", "bike_id": "d4db0049eef5a74c87883e14861dff39", "lat": 38.89228266666667, "lon": -77.0499965, "rental_uris": {"android": "https://dc.lft.to/lastmile_qr_scan", "ios": "https://dc.lft.to/lastmile_qr_scan"}, "is_disabled": 0, "fusion_lat": 0.0, "name": "d4db0049eef5a74c87883e14861dff39", "fusion_lon": 0.0}, {"is_reserved": 0, "type": "electric_scooter", "bike_id": "ff7755133575f4d32611d665c92c6e18", "lat": 38.892133, "lon": -77.01703983333333, "rental_uris": {"android": "https://dc.lft.to/lastmile_qr_scan", "ios": "https://dc.lft.to/lastmile_qr_scan"}, "is_disabled": 0, "fusion_lat": 0.0, "name": "ff7755133575f4d32611d665c92c6e18", "fusion_lon": 0.0}, {"is_reserved": 0, "type": "electric_scooter", "bike_id": "6ae6aac23ab08dae196aaef737435453", "lat": 38.925558333333335, "lon": -76.98145766666667, "rental_uris": {"android": "https://dc.lft.to/lastmile_qr_scan", "ios": "https://dc.lft.to/lastmile_qr_scan"}, "is_disabled": 0, "fusion_lat": 0.0, "name": "6ae6aac23ab08dae196aaef737435453", "fusion_lon": 0.0}, {"is_reserved": 0, "type": "electric_scooter", "bike_id": "80d1e8b7f6de5d4eb7e68f003c717dff", "lat": 38.94323466666667, "lon": -77.065214, "rental_uris": {"android": "https://dc.lft.to/lastmile_qr_scan", "ios": "https://dc.lft.to/lastmile_qr_scan"}, "is_disabled": 0, "fusion_lat": 0.0, "name": "80d1e8b7f6de5d4eb7e68f003c717dff", "fusion_lon": 0.0}, {"is_reserved": 0, "type": "electric_scooter", "bike_id": "142dae4f98ed2843b68976e276ccd7ad", "lat": 38.9043635, "lon": -77.06280216666667, "rental_uris": {"android": "https://dc.lft.to/lastmile_qr_scan", "ios": "https://dc.lft.to/lastmile_qr_scan"}, "is_disabled": 0, "fusion_lat": 0.0, "name": "142dae4f98ed2843b68976e276ccd7ad", "fusion_lon": 0.0}, {"is_reserved": 0, "type": "electric_scooter", "bike_id": "89f22e6703cc1e12f9026ce37dcc1051", "lat": 38.8728845, "lon": -77.009845, "rental_uris": {"android": "https://dc.lft.to/lastmile_qr_scan", "ios": "https://dc.lft.to/lastmile_qr_scan"}, "is_disabled": 0, "fusion_lat": 0.0, "name": "89f22e6703cc1e12f9026ce37dcc1051", "fusion_lon": 0.0}, {"is_reserved": 0, "type": "electric_scooter", "bike_id": "d3b0bdc13d3c7646cb5dfcb6f024a8ec", "lat": 38.933762333333334, "lon": -77.02026916666667, "rental_uris": {"android": "https://dc.lft.to/lastmile_qr_scan", "ios": "https://dc.lft.to/lastmile_qr_scan"}, "is_disabled": 0, "fusion_lat": 0.0, "name": "d3b0bdc13d3c7646cb5dfcb6f024a8ec", "fusion_lon": 0.0}, {"is_reserved": 0, "type": "electric_scooter", "bike_id": "3b77df4be2129aabc92861658e3ce6cf", "lat": 38.92644266666667, "lon": -77.0369075, "rental_uris": {"android": "https://dc.lft.to/lastmile_qr_scan", "ios": "https://dc.lft.to/lastmile_qr_scan"}, "is_disabled": 0, "fusion_lat": 0.0, "name": "3b77df4be2129aabc92861658e3ce6cf", "fusion_lon": 0.0}, {"is_reserved": 0, "type": "electric_scooter", "bike_id": "34ed59c5e4a10bea46cdcdd13441a21a", "lat": 38.91523333333333, "lon": -77.01984416666667, "rental_uris": {"android": "https://dc.lft.to/lastmile_qr_scan", "ios": "https://dc.lft.to/lastmile_qr_scan"}, "is_disabled": 0, "fusion_lat": 0.0, "name": "34ed59c5e4a10bea46cdcdd13441a21a", "fusion_lon": 0.0}, {"is_reserved": 0, "type": "electric_scooter", "bike_id": "a5657b2ce7b8584aad9eaa68e4ff6c78", "lat": 38.897125, "lon": -77.02070983333333, "rental_uris": {"android": "https://dc.lft.to/lastmile_qr_scan", "ios": "https://dc.lft.to/lastmile_qr_scan"}, "is_disabled": 0, "fusion_lat": 0.0, "name": "a5657b2ce7b8584aad9eaa68e4ff6c78", "fusion_lon": 0.0}, {"is_reserved": 0, "type": "electric_scooter", "bike_id": "bca24a26ee0b665c34b7a56078f33f4b", "lat": 38.864865333333334, "lon": -76.97742716666667, "rental_uris": {"android": "https://dc.lft.to/lastmile_qr_scan", "ios": "https://dc.lft.to/lastmile_qr_scan"}, "is_disabled": 0, "fusion_lat": 0.0, "name": "bca24a26ee0b665c34b7a56078f33f4b", "fusion_lon": 0.0}, {"is_reserved": 0, "type": "electric_bike", "bike_id": "ce1c434cafca3b0ff7cf02fd8996073d", "lat": 38.889333666666666, "lon": -76.91322, "rental_uris": {"android": "https://dc.lft.to/lastmile_qr_scan", "ios": "https://dc.lft.to/lastmile_qr_scan"}, "is_disabled": 0, "fusion_lat": 0.0, "name": "ce1c434cafca3b0ff7cf02fd8996073d", "fusion_lon": 0.0}, {"is_reserved": 0, "type": "electric_scooter", "bike_id": "7d5466b389bdf87be8d9e59c1f809d9d", "lat": 38.900232333333335, "lon": -77.012174, "rental_uris": {"android": "https://dc.lft.to/lastmile_qr_scan", "ios": "https://dc.lft.to/lastmile_qr_scan"}, "is_disabled": 0, "fusion_lat": 0.0, "name": "7d5466b389bdf87be8d9e59c1f809d9d", "fusion_lon": 0.0}, {"is_reserved": 0, "type": "electric_scooter", "bike_id": "115653faec011723378fdf60d446d8df", "lat": 38.897379666666666, "lon": -77.03159533333333, "rental_uris": {"android": "https://dc.lft.to/lastmile_qr_scan", "ios": "https://dc.lft.to/lastmile_qr_scan"}, "is_disabled": 0, "fusion_lat": 0.0, "name": "115653faec011723378fdf60d446d8df", "fusion_lon": 0.0}, {"is_reserved": 0, "type": "electric_scooter", "bike_id": "5606959d67e34c8be7cc3ea2a8df75fc", "lat": 38.924837833333335, "lon": -77.02273016666666, "rental_uris": {"android": "https://dc.lft.to/lastmile_qr_scan", "ios": "https://dc.lft.to/lastmile_qr_scan"}, "is_disabled": 0, "fusion_lat": 0.0, "name": "5606959d67e34c8be7cc3ea2a8df75fc", "fusion_lon": 0.0}, {"is_reserved": 0, "type": "electric_scooter", "bike_id": "b118faaafd377f9f3fa4ff5972a9dcf4", "lat": 38.89721933333333, "lon": -77.02274366666667, "rental_uris": {"android": "https://dc.lft.to/lastmile_qr_scan", "ios": "https://dc.lft.to/lastmile_qr_scan"}, "is_disabled": 0, "fusion_lat": 0.0, "name": "b118faaafd377f9f3fa4ff5972a9dcf4", "fusion_lon": 0.0}, {"is_reserved": 0, "type": "electric_scooter", "bike_id": "afb3dde118393f1e226969da2c9e38e6", "lat": 38.895155, "lon": -76.99213333333333, "rental_uris": {"android": "https://dc.lft.to/lastmile_qr_scan", "ios": "https://dc.lft.to/lastmile_qr_scan"}, "is_disabled": 0, "fusion_lat": 0.0, "name": "afb3dde118393f1e226969da2c9e38e6", "fusion_lon": 0.0}, {"is_reserved": 0, "type": "electric_scooter", "bike_id": "2ed56454fa519aba1ffbc4afabca8071", "lat": 38.8998535, "lon": -77.023078, "rental_uris": {"android": "https://dc.lft.to/lastmile_qr_scan", "ios": "https://dc.lft.to/lastmile_qr_scan"}, "is_disabled": 0, "fusion_lat": 0.0, "name": "2ed56454fa519aba1ffbc4afabca8071", "fusion_lon": 0.0}, {"is_reserved": 0, "type": "electric_scooter", "bike_id": "ea4451d6ebe3ffa0557f5a72c498df4e", "lat": 38.88746483333333, "lon": -76.98358783333333, "rental_uris": {"android": "https://dc.lft.to/lastmile_qr_scan", "ios": "https://dc.lft.to/lastmile_qr_scan"}, "is_disabled": 0, "fusion_lat": 0.0, "name": "ea4451d6ebe3ffa0557f5a72c498df4e", "fusion_lon": 0.0}, {"is_reserved": 0, "type": "electric_scooter", "bike_id": "0fd3d91205a502757fdb07e5ecebcfd8", "lat": 38.89864733333334, "lon": -77.02135833333334, "rental_uris": {"android": "https://dc.lft.to/lastmile_qr_scan", "ios": "https://dc.lft.to/lastmile_qr_scan"}, "is_disabled": 0, "fusion_lat": 0.0, "name": "0fd3d91205a502757fdb07e5ecebcfd8", "fusion_lon": 0.0}, {"is_reserved": 0, "type": "electric_scooter", "bike_id": "444b9748e999f95bc1e2ad452b7ff6c9", "lat": 38.892382833333336, "lon": -77.0503375, "rental_uris": {"android": "https://dc.lft.to/lastmile_qr_scan", "ios": "https://dc.lft.to/lastmile_qr_scan"}, "is_disabled": 0, "fusion_lat": 0.0, "name": "444b9748e999f95bc1e2ad452b7ff6c9", "fusion_lon": 0.0}, {"is_reserved": 0, "type": "electric_scooter", "bike_id": "a1cbb9a97f906fbc2139711b29af5f08", "lat": 38.89232483333333, "lon": -77.01767916666667, "rental_uris": {"android": "https://dc.lft.to/lastmile_qr_scan", "ios": "https://dc.lft.to/lastmile_qr_scan"}, "is_disabled": 0, "fusion_lat": 0.0, "name": "a1cbb9a97f906fbc2139711b29af5f08", "fusion_lon": 0.0}, {"is_reserved": 0, "type": "electric_scooter", "bike_id": "2e6e2df527199af0ef0c75a3e46498c7", "lat": 38.90623316666667, "lon": -76.99328283333334, "rental_uris": {"android": "https://dc.lft.to/lastmile_qr_scan", "ios": "https://dc.lft.to/lastmile_qr_scan"}, "is_disabled": 0, "fusion_lat": 0.0, "name": "2e6e2df527199af0ef0c75a3e46498c7", "fusion_lon": 0.0}, {"is_reserved": 0, "type": "electric_scooter", "bike_id": "d1ca807b949a188354a11d871899908a", "lat": 38.93702, "lon": -77.05600483333333, "rental_uris": {"android": "https://dc.lft.to/lastmile_qr_scan", "ios": "https://dc.lft.to/lastmile_qr_scan"}, "is_disabled": 0, "fusion_lat": 0.0, "name": "d1ca807b949a188354a11d871899908a", "fusion_lon": 0.0}, {"is_reserved": 0, "type": "electric_scooter", "bike_id": "3d45ee9ccfc786e8bed9fd2bb46d6f95", "lat": 38.9300475, "lon": -77.0554165, "rental_uris": {"android": "https://dc.lft.to/lastmile_qr_scan", "ios": "https://dc.lft.to/lastmile_qr_scan"}, "is_disabled": 0, "fusion_lat": 0.0, "name": "3d45ee9ccfc786e8bed9fd2bb46d6f95", "fusion_lon": 0.0}, {"is_reserved": 0, "type": "electric_scooter", "bike_id": "c81c99d9e1ad4dbe505a118163f4ff7f", "lat": 38.90544833333333, "lon": -77.05916933333333, "rental_uris": {"android": "https://dc.lft.to/lastmile_qr_scan", "ios": "https://dc.lft.to/lastmile_qr_scan"}, "is_disabled": 0, "fusion_lat": 0.0, "name": "c81c99d9e1ad4dbe505a118163f4ff7f", "fusion_lon": 0.0}, {"is_reserved": 0, "type": "electric_scooter", "bike_id": "18582a036297e2ecd1db71f998a5bd22", "lat": 38.922625, "lon": -77.03661883333334, "rental_uris": {"android": "https://dc.lft.to/lastmile_qr_scan", "ios": "https://dc.lft.to/lastmile_qr_scan"}, "is_disabled": 0, "fusion_lat": 0.0, "name": "18582a036297e2ecd1db71f998a5bd22", "fusion_lon": 0.0}, {"is_reserved": 0, "type": "electric_scooter", "bike_id": "5a7495664f77d3a9b930cb8dd4724c07", "lat": 38.9104065, "lon": -77.03369633333334, "rental_uris": {"android": "https://dc.lft.to/lastmile_qr_scan", "ios": "https://dc.lft.to/lastmile_qr_scan"}, "is_disabled": 0, "fusion_lat": 0.0, "name": "5a7495664f77d3a9b930cb8dd4724c07", "fusion_lon": 0.0}, {"is_reserved": 0, "type": "electric_scooter", "bike_id": "4c2a70068f5a3fd431f1c342a03b00e0", "lat": 38.915931666666665, "lon": -77.02118233333333, "rental_uris": {"android": "https://dc.lft.to/lastmile_qr_scan", "ios": "https://dc.lft.to/lastmile_qr_scan"}, "is_disabled": 0, "fusion_lat": 0.0, "name": "4c2a70068f5a3fd431f1c342a03b00e0", "fusion_lon": 0.0}, {"is_reserved": 0, "type": "electric_scooter", "bike_id": "3c19c945c6fe5a6a9948e3aafb6560cb", "lat": 38.844731833333334, "lon": -76.98780916666666, "rental_uris": {"android": "https://dc.lft.to/lastmile_qr_scan", "ios": "https://dc.lft.to/lastmile_qr_scan"}, "is_disabled": 0, "fusion_lat": 0.0, "name": "3c19c945c6fe5a6a9948e3aafb6560cb", "fusion_lon": 0.0}, {"is_reserved": 0, "type": "electric_bike", "bike_id": "5e1a669ab4c4379e602be831a41f073e", "lat": 38.8814665, "lon": -77.02734183333334, "rental_uris": {"android": "https://dc.lft.to/lastmile_qr_scan", "ios": "https://dc.lft.to/lastmile_qr_scan"}, "is_disabled": 0, "fusion_lat": 0.0, "name": "5e1a669ab4c4379e602be831a41f073e", "fusion_lon": 0.0}, {"is_reserved": 0, "type": "electric_bike", "bike_id": "b6fc051718987f4cd59a9bc08a485b1f", "lat": 38.9278295, "lon": -76.999084, "rental_uris": {"android": "https://dc.lft.to/lastmile_qr_scan", "ios": "https://dc.lft.to/lastmile_qr_scan"}, "is_disabled": 0, "fusion_lat": 0.0, "name": "b6fc051718987f4cd59a9bc08a485b1f", "fusion_lon": 0.0},