{"data": {"bikes": [{"is_disabled": 0, "fusion_lon": 0.0, "fusion_lat": 0.0, "lat": 38.895262, "type": "electric_scooter", "lon": -77.03350583333334, "bike_id": "57b150616cbf00b41915a04531ddb249", "rental_uris": {"android": "https://dc.lft.to/lastmile_qr_scan", "ios": "https://dc.lft.to/lastmile_qr_scan"}, "name": "57b150616cbf00b41915a04531ddb249", "is_reserved": 0}, {"is_disabled": 0, "fusion_lon": 0.0, "fusion_lat": 0.0, "lat": 38.869527, "type": "electric_scooter", "lon": -76.97924816666666, "bike_id": "706b82b9fd9b1f6607928e469897da97", "rental_uris": {"android": "https://dc.lft.to/lastmile_qr_scan", "ios": "https://dc.lft.to/lastmile_qr_scan"}, "name": "706b82b9fd9b1f6607928e469897da97", "is_reserved": 0}, {"is_disabled": 0, "fusion_lon": 0.0, "fusion_lat": 0.0, "lat": 38.8975985, "type": "electric_scooter", "lon": -77.0219195, "bike_id": "b95e75236705940c4603f9f2f03101ac", "rental_uris": {"android": "https://dc.lft.to/lastmile_qr_scan", "ios": "https://dc.lft.to/lastmile_qr_scan"}, "name": "b95e75236705940c4603f9f2f03101ac", "is_reserved": 0}, {"is_disabled": 0, "fusion_lon": 0.0, "fusion_lat": 0.0, "lat": 38.887367833333336, "type": "electric_scooter", "lon": -77.01533366666666, "bike_id": "f2ed1c1951c2e430581279d4ed9e66d4", "rental_uris": {"android": "https://dc.lft.to/lastmile_qr_scan", "ios": "https://dc.lft.to/lastmile_qr_scan"}, "name": "f2ed1c1951c2e430581279d4ed9e66d4", "is_reserved": 0}, {"is_disabled": 0, "fusion_lon": 0.0, "fusion_lat": 0.0, "lat": 38.924193, "type": "electric_scooter", "lon": -77.05627766666667, "bike_id": "76849fb02e00784e2629296d66bfdee7", "rental_uris": {"android": "https://dc.lft.to/lastmile_qr_scan", "ios": "https://dc.lft.to/lastmile_qr_scan"}, "name": "76849fb02e00784e2629296d66bfdee7", "is_reserved": 0}, {"is_disabled": 0, "fusion_lon": 0.0, "fusion_lat": 0.0, "lat": 38.96924283333333, "type": "electric_bike", "lon": -77.02613833333334, "bike_id": "aa5d1b5875869a5ffb45a060d83a07f7", "rental_uris": {"android": "https://dc.lft.to/lastmile_qr_scan", "ios": "https://dc.lft.to/lastmile_qr_scan"}, "name": "aa5d1b5875869a5ffb45a060d83a07f7", "is_reserved": 0}, {"is_disabled": 0, "fusion_lon": 0.0, "fusion_lat": 0.0, "lat": 38.9865145, "type": "electric_scooter", "lon": -77.02642766666666, "bike_id": "b206595e0ad6861134ffa477c8852cac", "rental_uris": {"android": "https://dc.lft.to/lastmile_qr_scan", "ios": "https://dc.lft.to/lastmile_qr_scan"}, "name": "b206595e0ad6861134ffa477c8852cac", "is_reserved": 0}, {"is_disabled": 0, "fusion_lon": 0.0, "fusion_lat": 0.0, "lat": 38.91859066666667, "type": "electric_bike", "lon": -76.961751, "bike_id": "90ad6f58b56d882a067c289ab45a6c41", "rental_uris": {"android": "https://dc.lft.to/lastmile_qr_scan", "ios": "https://dc.lft.to/lastmile_qr_scan"}, "name": "90ad6f58b56d882a067c289ab45a6c41", "is_reserved": 0}, {"is_disabled": 0, "fusion_lon": 0.0, "fusion_lat": 0.0, "lat": 38.9147215, "type": "electric_scooter", "lon": -77.04383216666666, "bike_id": "11c9d00fcc9c00e70360eb4de7d68d41", "rental_uris": {"android": "https://dc.lft.to/lastmile_qr_scan", "ios": "https://dc.lft.to/lastmile_qr_scan"}, "name": "11c9d00fcc9c00e70360eb4de7d68d41", "is_reserved": 0}, {"is_disabled": 0, "fusion_lon": 0.0, "fusion_lat": 0.0, "lat": 38.88037166666667, "type": "electric_scooter", "lon": -77.00539716666667, "bike_id": "9a9c888c8987c0ffe0ed89521146fa73", "rental_uris": {"android": "https://dc.lft.to/lastmile_qr_scan", "ios": "https://dc.lft.to/lastmile_qr_scan"}, "name": "9a9c888c8987c0ffe0ed89521146fa73", "is_reserved": 0}, {"is_disabled": 0, "fusion_lon": 0.0, "fusion_lat": 0.0, "lat": 38.918487999999996, "type": "electric_scooter", "lon": -77.0295665, "bike_id": "df15712dd861c384a2e4c9d961214793", "rental_uris": {"android": "https://dc.lft.to/lastmile_qr_scan", "ios": "https://dc.lft.to/lastmile_qr_scan"}, "name": "df15712dd861c384a2e4c9d961214793", "is_reserved": 0}, {"is_disabled": 0, "fusion_lon": 0.0, "fusion_lat": 0.0, "lat": 38.91496133333333, "type": "electric_scooter", "lon": -77.01981233333333, "bike_id": "a85adc11de3bbb25cbdd5debb06d6876", "rental_uris": {"android": "https://dc.lft.to/lastmile_qr_scan", "ios": "https://dc.lft.to/lastmile_qr_scan"}, "name": "a85adc11de3bbb25cbdd5debb06d6876", "is_reserved": 0}, {"is_disabled": 0, "fusion_lon": 0.0, "fusion_lat": 0.0, "lat": 38.932746333333334, "type": "electric_scooter", "lon": -76.99689033333334, "bike_id": "1c4945ee051e5184e52a36e62ceb3115", "rental_uris": {"android": "https://dc.lft.to/lastmile_qr_scan", "ios": "https://dc.lft.to/lastmile_qr_scan"}, "name": "1c4945ee051e5184e52a36e62ceb3115", "is_reserved": 0}, {"is_disabled": 0, "fusion_lon": 0.0, "fusion_lat": 0.0, "lat": 38.899760666666666, "type": "electric_scooter", "lon": -77.02711483333333, "bike_id": "069f532974ef4fbc52d245d4175b0ccf", "rental_uris": {"android": "https://dc.lft.to/lastmile_qr_scan", "ios": "https://dc.lft.to/lastmile_qr_scan"}, "name": "069f532974ef4fbc52d245d4175b0ccf", "is_reserved": 0}, {"is_disabled": 0, "fusion_lon": 0.0, "fusion_lat": 0.0, "lat": 38.89908333333333, "type": "electric_scooter", "lon": -76.933876, "bike_id": "b9aed66280a8d9dd6277f0d72641a9df", "rental_uris": {"android": "https://dc.lft.to/lastmile_qr_scan", "ios": "https://dc.lft.to/lastmile_qr_scan"}, "name": "b9aed66280a8d9dd6277f0d72641a9df", "is_reserved": 0}, {"is_disabled": 0, "fusion_lon": 0.0, "fusion_lat": 0.0, "lat": 38.887527166666665, "type": "electric_scooter", "lon": -76.99617483333333, "bike_id": "b827965794d38f5a316254eaa4a2cacc", "rental_uris": {"android": "https://dc.lft.to/lastmile_qr_scan", "ios": "https://dc.lft.to/lastmile_qr_scan"}, "name": "b827965794d38f5a316254eaa4a2cacc", "is_reserved": 0}, {"is_disabled": 0, "fusion_lon": 0.0, "fusion_lat": 0.0, "lat": 38.89201933333333, "type": "electric_scooter", "lon": -76.988145, "bike_id": "593852eb3150e715387c44c110c276cb", "rental_uris": {"android": "https://dc.lft.to/lastmile_qr_scan", "ios": "https://dc.lft.to/lastmile_qr_scan"}, "name": "593852eb3150e715387c44c110c276cb", "is_reserved": 0}, {"is_disabled": 0, "fusion_lon": 0.0, "fusion_lat": 0.0, "lat": 38.92261233333333, "type": "electric_scooter", "lon": -77.03399933333333, "bike_id": "151548cc387f793cbcaf3a99231bae23", "rental_uris": {"android": "https://dc.lft.to/lastmile_qr_scan", "ios": "https://dc.lft.to/lastmile_qr_scan"}, "name": "151548cc387f793cbcaf3a99231bae23", "is_reserved": 0}, {"is_disabled": 0, "fusion_lon": 0.0, "fusion_lat": 0.0, "lat": 38.919494, "type": "electric_scooter", "lon": -77.013857, "bike_id": "3e1cb418b900aa3149ac46c7496829ee", "rental_uris": {"android": "https://dc.lft.to/lastmile_qr_scan", "ios": "https://dc.lft.to/lastmile_qr_scan"}, "name": "3e1cb418b900aa3149ac46c7496829ee", "is_reserved": 0}, {"is_disabled": 0, "fusion_lon": 0.0, "fusion_lat": 0.0, "lat": 38.912148, "type": "electric_scooter", "lon": -77.03178783333334, "bike_id": "59fe6fcd668a0efbbf7561e9f57b6c71", "rental_uris": {"android": "https://dc.lft.to/lastmile_qr_scan", "ios": "https://dc.lft.to/lastmile_qr_scan"}, "name": "59fe6fcd668a0efbbf7561e9f57b6c71", "is_reserved": 0}, {"is_disabled": 0, "fusion_lon": 0.0, "fusion_lat": 0.0, "lat": 38.917002833333335, "type": "electric_scooter", "lon": -77.028837, "bike_id": "ecc8fc8251045b9e7ef1716d576bbae9", "rental_uris": {"android": "https://dc.lft.to/lastmile_qr_scan", "ios": "https://dc.lft.to/lastmile_qr_scan"}, "name": "ecc8fc8251045b9e7ef1716d576bbae9", "is_reserved": 0}, {"is_disabled": 0, "fusion_lon": 0.0, "fusion_lat": 0.0, "lat": 38.93602216666667, "type": "electric_scooter", "lon": -77.05594666666667, "bike_id": "74345ef6a5ae714a1552f6c476afcaa2", "rental_uris": {"android": "https://dc.lft.to/lastmile_qr_scan", "ios": "https://dc.lft.to/lastmile_qr_scan"}, "name": "74345ef6a5ae714a1552f6c476afcaa2", "is_reserved": 0}, {"is_disabled": 0, "fusion_lon": 0.0, "fusion_lat": 0.0, "lat": 38.920287333333334, "type": "electric_scooter", "lon": -77.01909216666667, "bike_id": "8c3d0f083aecea61a5fb651d569edef3", "rental_uris": {"android": "https://dc.lft.to/lastmile_qr_scan", "ios": "https://dc.lft.to/lastmile_qr_scan"}, "name": "8c3d0f083aecea61a5fb651d569edef3", "is_reserved": 0}, {"is_disabled": 0, "fusion_lon": 0.0, "fusion_lat": 0.0, "lat": 38.9347825, "type": "electric_scooter", "lon": -77.02401266666666, "bike_id": "eca37d31c1b8acbc99eb6756b65dd54f", "rental_uris": {"android": "https://dc.lft.to/lastmile_qr_scan", "ios": "https://dc.lft.to/lastmile_qr_scan"}, "name": "eca37d31c1b8acbc99eb6756b65dd54f", "is_reserved": 0}, {"is_disabled": 0, "fusion_lon": 0.0, "fusion_lat": 0.0, "lat": 38.88737966666667, "type": "electric_scooter", "lon": -77.015324, "bike_id": "1e3280f6c5a79ab87133b5aa3abace1c", "rental_uris": {"android": "https://dc.lft.to/lastmile_qr_scan", "ios": "https://dc.lft.to/lastmile_qr_scan"}, "name": "1e3280f6c5a79ab87133b5aa3abace1c", "is_reserved": 0}, {"is_disabled": 0, "fusion_lon": 0.0, "fusion_lat": 0.0, "lat": 38.8029795, "type": "electric_bike", "lon": -77.03983166666667, "bike_id": "c95dc784d887ad3b10b30772fcc37c03", "rental_uris": {"android": "https://dc.lft.to/lastmile_qr_scan", "ios": "https://dc.lft.to/lastmile_qr_scan"}, "name": "c95dc784d887ad3b10b30772fcc37c03", "is_reserved": 0}, {"is_disabled": 0, "fusion_lon": 0.0, "fusion_lat": 0.0, "lat": 38.90536916666667, "type": "electric_scooter", "lon": -77.06523066666666, "bike_id": "c4a59e7f39229c1a2b91c5a5338106ac", "rental_uris": {"android": "https://dc.lft.to/lastmile_qr_scan", "ios": "https://dc.lft.to/lastmile_qr_scan"}, "name": "c4a59e7f39229c1a2b91c5a5338106ac", "is_reserved": 0}, {"is_disabled": 0, "fusion_lon": 0.0, "fusion_lat": 0.0, "lat": 38.9559925, "type": "electric_scooter", "lon": -77.009795, "bike_id": "00c3b5647074364bab371ea47944653c", "rental_uris": {"android": "https://dc.lft.to/lastmile_qr_scan", "ios": "https://dc.lft.to/lastmile_qr_scan"}, "name": "00c3b5647074364bab371ea47944653c", "is_reserved": 0}, {"is_disabled": 0, "fusion_lon": 0.0, "fusion_lat": 0.0, "lat": 38.933011666666665, "type": "electric_scooter", "lon": -77.02140283333334, "bike_id": "374adb2920b37be4ac68499308c7bec7", "rental_uris": {"android": "https://dc.lft.to/lastmile_qr_scan", "ios": "https://dc.lft.to/lastmile_qr_scan"}, "name": "374adb2920b37be4ac68499308c7bec7", "is_reserved": 0}, {"is_disabled": 0, "fusion_lon": 0.0, "fusion_lat": 0.0, "lat": 38.874936, "type": "electric_bike", "lon": -77.048993, "bike_id": "157c5bf867d523161f617c217ed5c76e", "rental_uris": {"android": "https://dc.lft.to/lastmile_qr_scan", "ios": "https://dc.lft.to/lastmile_qr_scan"}, "name": "157c5bf867d523161f617c217ed5c76e", "is_reserved": 0}, {"is_disabled": 0, "fusion_lon": 0.0, "fusion_lat": 0.0, "lat": 38.96213933333333, "type": "electric_scooter", "lon": -77.02803583333333, "bike_id": "be2e1d9fb674efb4c2408d49ee777b40", "rental_uris": {"android": "https://dc.lft.to/lastmile_qr_scan", "ios": "https://dc.lft.to/lastmile_qr_scan"}, "name": "be2e1d9fb674efb4c2408d49ee777b40", "is_reserved": 0}, {"is_disabled": 0, "fusion_lon": 0.0, "fusion_lat": 0.0, "lat": 38.927981833333334, "type": "electric_scooter", "lon": -77.01392883333334, "bike_id": "00269ca3d5c8d4fcc6b882bd251a81ac", "rental_uris": {"android": "https://dc.lft.to/lastmile_qr_scan", "ios": "https://dc.lft.to/lastmile_qr_scan"}, "name": "00269ca3d5c8d4fcc6b882bd251a81ac", "is_reserved": 0}, {"is_disabled": 0, "fusion_lon": 0.0, "fusion_lat": 0.0, "lat": 38.863517, "type": "electric_scooter", "lon": -76.9906645, "bike_id": "99869055356f7178e8b19afd2d5989cf", "rental_uris": {"android": "https://dc.lft.to/lastmile_qr_scan", "ios": "https://dc.lft.to/lastmile_qr_scan"}, "name": "99869055356f7178e8b19afd2d5989cf", "is_reserved": 0}, {"is_disabled": 0, "fusion_lon": 0.0, "fusion_lat": 0.0, "lat": 38.896109333333335, "type": "electric_scooter", "lon": -77.0268785, "bike_id": "0608d3c1288defff83871cd2ec5cf393", "rental_uris": {"android": "https://dc.lft.to/lastmile_qr_scan", "ios": "https://dc.lft.to/lastmile_qr_scan"}, "name": "0608d3c1288defff83871cd2ec5cf393", "is_reserved": 0}, {"is_disabled": 0, "fusion_lon": 0.0, "fusion_lat": 0.0, "lat": 38.990613833333335, "type": "electric_bike", "lon": -77.10027233333334, "bike_id": "8a5c75dc7629772b1bc67401b7630284", "rental_uris": {"android": "https://dc.lft.to/lastmile_qr_scan", "ios": "https://dc.lft.to/lastmile_qr_scan"}, "name": "8a5c75dc7629772b1bc67401b7630284", "is_reserved": 0}, {"is_disabled": 0, "fusion_lon": 0.0, "fusion_lat": 0.0, "lat": 38.94571883333333, "type": "electric_bike", "lon": -76.96030883333333, "bike_id": "bb5c22042aff746a13d7c0eac299b677", "rental_uris": {"android": "https://dc.lft.to/lastmile_qr_scan", "ios": "https://dc.lft.to/lastmile_qr_scan"}, "name": "bb5c22042aff746a13d7c0eac299b677", "is_reserved": 0}, {"is_disabled": 0, "fusion_lon": 0.0, "fusion_lat": 0.0, "lat": 38.99088916666667, "type": "electric_bike", "lon": -76.8749495, "bike_id": "5f6462aa2881ae91be7e500b69eb192a", "rental_uris": {"android": "https://dc.lft.to/lastmile_qr_scan", "ios": "https://dc.lft.to/lastmile_qr_scan"}, "name": "5f6462aa2881ae91be7e500b69eb192a", "is_reserved": 0}, {"is_disabled": 0, "fusion_lon": 0.0, "fusion_lat": 0.0, "lat": 38.921800166666664, "type": "electric_scooter", "lon": -77.0241735, "bike_id": "3c1f6506ba5476fbc383f8ac41e15670", "rental_uris": {"android": "https://dc.lft.to/lastmile_qr_scan", "ios": "https://dc.lft.to/lastmile_qr_scan"}, "name": "3c1f6506ba5476fbc383f8ac41e15670", "is_reserved": 0}, {"is_disabled": 0, "fusion_lon": 0.0, "fusion_lat": 0.0, "lat": 38.90706733333333, "type": "electric_scooter", "lon": -77.04077183333334, "bike_id": "478ef858a64893ee036b0bf131e8143d", "rental_uris": {"android": "https://dc.lft.to/lastmile_qr_scan", "ios": "https://dc.lft.to/lastmile_qr_scan"}, "name": "478ef858a64893ee036b0bf131e8143d", "is_reserved": 0}, {"is_disabled": 0, "fusion_lon": 0.0, "fusion_lat": 0.0, "lat": 38.90951666666667, "type": "electric_scooter", "lon": -77.02182166666667, "bike_id": "27cfad3db3336492ec8988604e146ac0", "rental_uris": {"android": "https://dc.lft.to/lastmile_qr_scan", "ios": "https://dc.lft.to/lastmile_qr_scan"}, "name": "27cfad3db3336492ec8988604e146ac0", "is_reserved": 0}, {"is_disabled": 0, "fusion_lon": 0.0, "fusion_lat": 0.0, "lat": 38.9064745, "type": "electric_scooter", "lon": -77.01185316666667, "bike_id": "9b974c77d880e7e06993a27749761632", "rental_uris": {"android": "https://dc.lft.to/lastmile_qr_scan", "ios": "https://dc.lft.to/lastmile_qr_scan"}, "name": "9b974c77d880e7e06993a27749761632", "is_reserved": 0}, {"is_disabled": 0, "fusion_lon": 0.0, "fusion_lat": 0.0, "lat": 38.9046815, "type": "electric_scooter", "lon": -77.04854533333334, "bike_id": "8cf122976ece06c6927ac9e9eda6a156", "rental_uris": {"android": "https://dc.lft.to/lastmile_qr_scan", "ios": "https://dc.lft.to/lastmile_qr_scan"}, "name": "8cf122976ece06c6927ac9e9eda6a156", "is_reserved": 0}, {"is_disabled": 0, "fusion_lon": 0.0, "fusion_lat": 0.0, "lat": 38.84620433333333, "type": "electric_scooter", "lon": -76.99631983333333, "bike_id": "65144af25dd5955ee803d39b24cded26", "rental_uris": {"android": "https://dc.lft.to/lastmile_qr_scan", "ios": "https://dc.lft.to/lastmile_qr_scan"}, "name": "65144af25dd5955ee803d39b24cded26", "is_reserved": 0}, {"is_disabled": 0, "fusion_lon": 0.0, "fusion_lat": 0.0, "lat": 38.96733416666667, "type": "electric_scooter", "lon": -77.02764333333333, "bike_id": "ba0f218ebab9a26d9d7d48b0bf09c637", "rental_uris": {"android": "https://dc.lft.to/lastmile_qr_scan", "ios": "https://dc.lft.to/lastmile_qr_scan"}, "name": "ba0f218ebab9a26d9d7d48b0bf09c637", "is_reserved": 0}, {"is_disabled": 0, "fusion_lon": 0.0, "fusion_lat": 0.0, "lat": 38.9208325, "type": "electric_scooter", "lon": -77.0348225, "bike_id": "7d39f123230f7309c6c884ec69341cab", "rental_uris": {"android": "https://dc.lft.to/lastmile_qr_scan", "ios": "https://dc.lft.to/lastmile_qr_scan"}, "name": "7d39f123230f7309c6c884ec69341cab", "is_reserved": 0}, {"is_disabled": 0, "fusion_lon": 0.0, "fusion_lat": 0.0, "lat": 38.88352316666667, "type": "electric_scooter", "lon": -77.024692, "bike_id": "3252e59c151f7683c51e9d5831b72261", "rental_uris": {"android": "https://dc.lft.to/lastmile_qr_scan", "ios": "https://dc.lft.to/lastmile_qr_scan"}, "name": "3252e59c151f7683c51e9d5831b72261", "is_reserved": 0}, {"is_disabled": 0, "fusion_lon": 0.0, "fusion_lat": 0.0, "lat": 38.91805983333333, "type": "electric_scooter", "lon": -77.03433366666667, "bike_id": "417baceca63bc6a6c8d8ce98d9c01812", "rental_uris": {"android": "https://dc.lft.to/lastmile_qr_scan", "ios": "https://dc.lft.to/lastmile_qr_scan"}, "name": "417baceca63bc6a6c8d8ce98d9c01812", "is_reserved": 0}, {"is_disabled": 0, "fusion_lon": 0.0, "fusion_lat": 0.0, "lat": 38.9243515, "type": "electric_scooter", "lon": -77.02605033333333, "bike_id": "8f9132b7f96e0e9ff1a739ba23d1d608", "rental_uris": {"android": "https://dc.lft.to/lastmile_qr_scan", "ios": "https://dc.lft.to/lastmile_qr_scan"}, "name": "8f9132b7f96e0e9ff1a739ba23d1d608", "is_reserved": 0}, {"is_disabled": 0, "fusion_lon": 0.0, "fusion_lat": 0.0, "lat": 38.912529, "type": "electric_scooter", "lon": -77.00932883333333, "bike_id": "9c43906c2c2fbbe461ab9b60d68cecac", "rental_uris": {"android": "https://dc.lft.to/lastmile_qr_scan", "ios": "https://dc.lft.to/lastmile_qr_scan"}, "name": "9c43906c2c2fbbe461ab9b60d68cecac", "is_reserved": 0}, {"is_disabled": 0, "fusion_lon": 0.0, "fusion_lat": 0.0, "lat": 38.89363266666667, "type": "electric_scooter", "lon": -76.9398685, "bike_id": "c87fc4cc8ccf277889941a59946c64d6", "rental_uris": {"android": "https://dc.lft.to/lastmile_qr_scan", "ios": "https://dc.lft.to/lastmile_qr_scan"}, "name": "c87fc4cc8ccf277889941a59946c64d6", "is_reserved": 0}, {"is_disabled": 0, "fusion_lon": 0.0, "fusion_lat": 0.0, "lat": 38.950851666666665, "type": "electric_bike", "lon": -76.96557183333333, "bike_id": "1aa2267f5e72c03877a83bee98520940", "rental_uris": {"android": "https://dc.lft.to/lastmile_qr_scan", "ios": "https://dc.lft.to/lastmile_qr_scan"}, "name": "1aa2267f5e72c03877a83bee98520940", "is_reserved": 0}, {"is_disabled": 0, "fusion_lon": 0.0, "fusion_lat": 0.0, "lat": 38.903892, "type": "electric_scooter", "lon": -77.03436233333333, "bike_id": "5ad41cf78686aa0d7151b0c105723ae7", "rental_uris": {"android": "https://dc.lft.to/lastmile_qr_scan", "ios": "https://dc.lft.to/lastmile_qr_scan"}, "name": "5ad41cf78686aa0d7151b0c105723ae7", "is_reserved": 0}, {"is_disabled": 0, "fusion_lon": 0.0, "fusion_lat": 0.0, "lat": 38.908074666666664, "type": "electric_scooter", "lon": -77.04099283333333, "bike_id": "122c75eae6541e644fe65015bc2966c9", "rental_uris": {"android": "https://dc.lft.to/lastmile_qr_scan", "ios": "https://dc.lft.to/lastmile_qr_scan"}, "name": "122c75eae6541e644fe65015bc2966c9", "is_reserved": 0}, {"is_disabled": 0, "fusion_lon": 0.0, "fusion_lat": 0.0, "lat": 38.90310266666667, "type": "electric_scooter", "lon": -76.98255533333334, "bike_id": "940cb543c484467d4b5a83dcc2823943", "rental_uris": {"android": "https://dc.lft.to/lastmile_qr_scan", "ios": "https://dc.lft.to/lastmile_qr_scan"}, "name": "940cb543c484467d4b5a83dcc2823943", "is_reserved": 0}, {"is_disabled": 0, "fusion_lon": 0.0, "fusion_lat": 0.0, "lat": 38.9165095, "type": "electric_scooter", "lon": -77.043671, "bike_id": "fee9779d35604535e6fee4647de8de2d", "rental_uris": {"android": "https://dc.lft.to/lastmile_qr_scan", "ios": "https://dc.lft.to/lastmile_qr_scan"}, "name": "fee9779d35604535e6fee4647de8de2d", "is_reserved": 0}, {"is_disabled": 0, "fusion_lon": 0.0, "fusion_lat": 0.0, "lat": 38.933290666666664, "type": "electric_bike", "lon": -77.04210366666666, "bike_id": "0f627481a7eaeeeb0295d6ba1ab8391a", "rental_uris": {"android": "https://dc.lft.to/lastmile_qr_scan", "ios": "https://dc.lft.to/lastmile_qr_scan"}, "name": "0f627481a7eaeeeb0295d6ba1ab8391a", "is_reserved": 0}, {"is_disabled": 0, "fusion_lon": 0.0, "fusion_lat": 0.0, "lat": 38.926901, "type": "electric_scooter", "lon": -77.03772433333333, "bike_id": "df849a0e7d384276513dae1363baefd8", "rental_uris": {"android": "https://dc.lft.to/lastmile_qr_scan", "ios": "https://dc.lft.to/lastmile_qr_scan"}, "name": "df849a0e7d384276513dae1363baefd8", "is_reserved": 0}, {"is_disabled": 0, "fusion_lon": 0.0, "fusion_lat": 0.0, "lat": 38.946170333333335, "type": "electric_scooter", "lon": -77.03620683333334, "bike_id": "7c9e6aa9da95258e68522fd648584eaf", "rental_uris": {"android": "https://dc.lft.to/lastmile_qr_scan", "ios": "https://dc.lft.to/lastmile_qr_scan"}, "name": "7c9e6aa9da95258e68522fd648584eaf", "is_reserved": 0}, {"is_disabled": 0, "fusion_lon": 0.0, "fusion_lat": 0.0, "lat": 38.91264266666667, "type": "electric_scooter", "lon": -77.03376466666667, "bike_id": "78e7986671e65c65381400c5181bc599", "rental_uris": {"android": "https://dc.lft.to/lastmile_qr_scan", "ios": "https://dc.lft.to/lastmile_qr_scan"}, "name": "78e7986671e65c65381400c5181bc599", "is_reserved": 0}, {"is_disabled": 0, "fusion_lon": 0.0, "fusion_lat": 0.0, "lat": 38.9201445, "type": "electric_scooter", "lon": -77.03132566666666, "bike_id": "a37e14b14224875794c4963502255017", "rental_uris": {"android": "https://dc.lft.to/lastmile_qr_scan", "ios": "https://dc.lft.to/lastmile_qr_scan"}, "name": "a37e14b14224875794c4963502255017", "is_reserved": 0}, {"is_disabled": 0, "fusion_lon": 0.0, "fusion_lat": 0.0, "lat": 38.869115666666666, "type": "electric_scooter", "lon": -77.01374466666667, "bike_id": "0e28afd48337089a7919dd6bf612f56d", "rental_uris": {"android": "https://dc.lft.to/lastmile_qr_scan", "ios": "https://dc.lft.to/lastmile_qr_scan"}, "name": "0e28afd48337089a7919dd6bf612f56d", "is_reserved": 0}, {"is_disabled": 0, "fusion_lon": 0.0, "fusion_lat": 0.0, "lat": 38.929646, "type": "electric_scooter", "lon": -77.0420765, "bike_id": "6cf2c78b1850a55573f9fb60145b8226", "rental_uris": {"android": "https://dc.lft.to/lastmile_qr_scan", "ios": "https://dc.lft.to/lastmile_qr_scan"}, "name": "6cf2c78b1850a55573f9fb60145b8226", "is_reserved": 0}, {"is_disabled": 0, "fusion_lon": 0.0, "fusion_lat": 0.0, "lat": 38.9449465, "type": "electric_bike", "lon": -77.00678933333333, "bike_id": "b8a6435ea5e0cd13157afe03b17f240c", "rental_uris": {"android": "https://dc.lft.to/lastmile_qr_scan", "ios": "https://dc.lft.to/lastmile_qr_scan"}, "name": "b8a6435ea5e0cd13157afe03b17f240c", "is_reserved": 0}, {"is_disabled": 0, "fusion_lon": 0.0, "fusion_lat": 0.0, "lat": 38.865958666666664, "type": "electric_bike", "lon": -76.9322695, "bike_id": "61a8464b78ea156b94ea68f23281c358", "rental_uris": {"android": "https://dc.lft.to/lastmile_qr_scan", "ios": "https://dc.lft.to/lastmile_qr_scan"}, "name": "61a8464b78ea156b94ea68f23281c358", "is_reserved": 0}, {"is_disabled": 0, "fusion_lon": 0.0, "fusion_lat": 0.0, "lat": 38.892504, "type": "electric_scooter", "lon": -76.9984965, "bike_id": "765b26c8255ccf318bd23c2b85b8b605", "rental_uris": {"android": "https://dc.lft.to/lastmile_qr_scan", "ios": "https://dc.lft.to/lastmile_qr_scan"}, "name": "765b26c8255ccf318bd23c2b85b8b605", "is_reserved": 0}, {"is_disabled": 0, "fusion_lon": 0.0, "fusion_lat": 0.0, "lat": 38.8520695, "type": "electric_bike", "lon": -77.12751883333334, "bike_id": "8c914b90d1134cb8f649d8852ed82828", "rental_uris": {"android": "https://dc.lft.to/lastmile_qr_scan", "ios": "https://dc.lft.to/lastmile_qr_scan"}, "name": "8c914b90d1134cb8f649d8852ed82828", "is_reserved": 0}, {"is_disabled": 0, "fusion_lon": 0.0, "fusion_lat": 0.0, "lat": 38.899655, "type": "electric_scooter", "lon": -76.98699733333333, "bike_id": "79e9e6e0964b814eab41eab256544a74", "rental_uris": {"android": "https://dc.lft.to/lastmile_qr_scan", "ios": "https://dc.lft.to/lastmile_qr_scan"}, "name": "79e9e6e0964b814eab41eab256544a74", "is_reserved": 0}, {"is_disabled": 0, "fusion_lon": 0.0, "fusion_lat": 0.0, "lat": 38.916421666666665, "type": "electric_scooter", "lon": -76.98225983333333, "bike_id": "7c0b2d354a0de78ad3f7777154de5ac2", "rental_uris": {"android": "https://dc.lft.to/lastmile_qr_scan", "ios": "https://dc.lft.to/lastmile_qr_scan"}, "name": "7c0b2d354a0de78ad3f7777154de5ac2", "is_reserved": 0}, {"is_disabled": 0, "fusion_lon": 0.0, "fusion_lat": 0.0, "lat": 38.897431833333336, "type": "electric_scooter", "lon": -77.05139383333334, "bike_id": "97ee15ec0f5b58c6816f6f475e74db25", "rental_uris": {"android": "https://dc.lft.to/lastmile_qr_scan", "ios": "https://dc.lft.to/lastmile_qr_scan"}, "name": "97ee15ec0f5b58c6816f6f475e74db25", "is_reserved": 0}, {"is_disabled": 0, "fusion_lon": 0.0, "fusion_lat": 0.0, "lat": 38.931403333333336, "type": "electric_scooter", "lon": -77.0388675, "bike_id": "9122c260031bc2be27d2870696244e88", "rental_uris": {"android": "https://dc.lft.to/lastmile_qr_scan", "ios": "https://dc.lft.to/lastmile_qr_scan"}, "name": "9122c260031bc2be27d2870696244e88", "is_reserved": 0}, {"is_disabled": 0, "fusion_lon": 0.0, "fusion_lat": 0.0, "lat": 38.91399333333333, "type": "electric_scooter", "lon": -77.01306966666667, "bike_id": "c6c8e5404b17b4d4b510be9843801fdf", "rental_uris": {"android": "https://dc.lft.to/lastmile_qr_scan", "ios": "https://dc.lft.to/lastmile_qr_scan"}, "name": "c6c8e5404b17b4d4b510be9843801fdf", "is_reserved": 0}, {"is_disabled": 0, "fusion_lon": 0.0, "fusion_lat": 0.0, "lat": 38.905191, "type": "electric_scooter", "lon": -77.050357, "bike_id": "6a354113bf05b04cee15a2db7cff4f06", "rental_uris": {"android": "https://dc.lft.to/lastmile_qr_scan", "ios": "https://dc.lft.to/lastmile_qr_scan"}, "name": "6a354113bf05b04cee15a2db7cff4f06", "is_reserved": 0}, {"is_disabled": 0, "fusion_lon": 0.0, "fusion_lat": 0.0, "lat": 38.90004033333334, "type": "electric_scooter", "lon": -77.05228083333333, "bike_id": "dbd6e393f69a4f0c2191f0cdc6bd186b", "rental_uris": {"android": "https://dc.lft.to/lastmile_qr_scan", "ios": "https://dc.lft.to/lastmile_qr_scan"}, "name": "dbd6e393f69a4f0c2191f0cdc6bd186b", "is_reserved": 0}, {"is_disabled": 0, "fusion_lon": 0.0, "fusion_lat": 0.0, "lat": 38.92811666666667, "type": "electric_scooter", "lon": -77.02350166666666, "bike_id": "822731f8952ff5d018ea26910c30b0fd", "rental_uris": {"android": "https://dc.lft.to/lastmile_qr_scan", "ios": "https://dc.lft.to/lastmile_qr_scan"}, "name": "822731f8952ff5d018ea26910c30b0fd", "is_reserved": 0}, {"is_disabled": 0, "fusion_lon": 0.0, "fusion_lat": 0.0, "lat": 38.90693133333333, "type": "electric_scooter", "lon": -77.0753365, "bike_id": "9d863fb8e066c8f40a302ef690284500", "rental_uris": {"android": "https://dc.lft.to/lastmile_qr_scan", "ios": "https://dc.lft.to/lastmile_qr_scan"}, "name": "9d863fb8e066c8f40a302ef690284500", "is_reserved": 0}, {"is_disabled": 0, "fusion_lon": 0.0, "fusion_lat": 0.0, "lat": 38.9000915, "type": "electric_scooter", "lon": -77.03921833333334, "bike_id": "d0aea44d3b41841f17246bd4c45fb3ae", "rental_uris": {"android": "https://dc.lft.to/lastmile_qr_scan", "ios": "https://dc.lft.to/lastmile_qr_scan"}, "name": "d0aea44d3b41841f17246bd4c45fb3ae", "is_reserved": 0}, {"is_disabled": 0, "fusion_lon": 0.0, "fusion_lat": 0.0, "lat": 38.91586816666667, "type": "electric_scooter", "lon": -77.02126766666666, "bike_id": "b0c215dfb0e013af55886e1c3c44043c", "rental_uris": {"android": "https://dc.lft.to/lastmile_qr_scan", "ios": "https://dc.lft.to/lastmile_qr_scan"}, "name": "b0c215dfb0e013af55886e1c3c44043c", "is_reserved": 0}, {"is_disabled": 0, "fusion_lon": 0.0, "fusion_lat": 0.0, "lat": 38.944714833333336, "type": "electric_bike", "lon": -77.00643016666666, "bike_id": "2ba8f2e03e656e8251ae143620f5a691", "rental_uris": {"android": "https://dc.lft.to/lastmile_qr_scan", "ios": "https://dc.lft.to/lastmile_qr_scan"}, "name": "2ba8f2e03e656e8251ae143620f5a691", "is_reserved": 0}, {"is_disabled": 0, "fusion_lon": 0.0, "fusion_lat": 0.0, "lat": 38.9082325, "type": "electric_scooter", "lon": -77.04327666666667, "bike_id": "1c9abbc5d99f68e83d9a705aa03573c0", "rental_uris": {"android": "https://dc.lft.to/lastmile_qr_scan", "ios": "https://dc.lft.to/lastmile_qr_scan"}, "name": "1c9abbc5d99f68e83d9a705aa03573c0", "is_reserved": 0}, {"is_disabled": 0, "fusion_lon": 0.0, "fusion_lat": 0.0, "lat": 38.924892166666666, "type": "electric_scooter", "lon": -77.03735466666667, "bike_id": "94f95953c3afe3527ccda1f3adc02575", "rental_uris": {"android": "https://dc.lft.to/lastmile_qr_scan", "ios": "https://dc.lft.to/lastmile_qr_scan"}, "name": "94f95953c3afe3527ccda1f3adc02575", "is_reserved": 0}, {"is_disabled": 0, "fusion_lon": 0.0, "fusion_lat": 0.0, "lat": 38.88686933333334, "type": "electric_scooter", "lon": -76.95475433333333, "bike_id": "7d87aa154d9ebd074366da4d24aa8cad", "rental_uris": {"android": "https://dc.lft.to/lastmile_qr_scan", "ios": "https://dc.lft.to/lastmile_qr_scan"}, "name": "7d87aa154d9ebd074366da4d24aa8cad", "is_reserved": 0}, {"is_disabled": 0, "fusion_lon": 0.0, "fusion_lat": 0.0, "lat": 38.92083266666667, "type": "electric_scooter", "lon": -77.03487916666667, "bike_id": "68646a3e23446464b9cef9c3181b2839", "rental_uris": {"android": "https://dc.lft.to/lastmile_qr_scan", "ios": "https://dc.lft.to/lastmile_qr_scan"}, "name": "68646a3e23446464b9cef9c3181b2839", "is_reserved": 0}, {"is_disabled": 0, "fusion_lon": 0.0, "fusion_lat": 0.0, "lat": 38.945558, "type": "electric_bike", "lon": -77.0512665, "bike_id": "f79875a3314013c7d778ed2b7f9c6992", "rental_uris": {"android": "https://dc.lft.to/lastmile_qr_scan", "ios": "https://dc.lft.to/lastmile_qr_scan"}, "name": "f79875a3314013c7d778ed2b7f9c6992", "is_reserved": 0}, {"is_disabled": 0, "fusion_lon": 0.0, "fusion_lat": 0.0, "lat": 38.90148283333333, "type": "electric_scooter", "lon": -77.015042, "bike_id": "488bcd62fb88e2f569a23435ad59bdc3", "rental_uris": {"android": "https://dc.lft.to/lastmile_qr_scan", "ios": "https://dc.lft.to/lastmile_qr_scan"}, "name": "488bcd62fb88e2f569a23435ad59bdc3", "is_reserved": 0}, {"is_disabled": 0, "fusion_lon": 0.0, "fusion_lat": 0.0, "lat": 38.91680433333333, "type": "electric_scooter", "lon": -77.0413945, "bike_id": "fced0f4a227948143b4c1a82b42c22d5", "rental_uris": {"android": "https://dc.lft.to/lastmile_qr_scan", "ios": "https://dc.lft.to/lastmile_qr_scan"}, "name": "fced0f4a227948143b4c1a82b42c22d5", "is_reserved": 0}, {"is_disabled": 0, "fusion_lon": 0.0, "fusion_lat": 0.0, "lat": 38.96560266666667, "type": "electric_bike", "lon": -77.0229935, "bike_id": "e794eff3a7e907c3cebd1df473537d08", "rental_uris": {"android": "https://dc.lft.to/lastmile_qr_scan", "ios": "https://dc.lft.to/lastmile_qr_scan"}, "name": "e794eff3a7e907c3cebd1df473537d08", "is_reserved": 0}, {"is_disabled": 0, "fusion_lon": 0.0, "fusion_lat": 0.0, "lat": 38.8982075, "type": "electric_scooter", "lon": -77.00210933333334, "bike_id": "bf6135647acdb432b81af548a71c758f", "rental_uris": {"android": "https://dc.lft.to/lastmile_qr_scan", "ios": "https://dc.lft.to/lastmile_qr_scan"}, "name": "bf6135647acdb432b81af548a71c758f", "is_reserved": 0}, {"is_disabled": 0, "fusion_lon": 0.0, "fusion_lat": 0.0, "lat": 38.89887083333333, "type": "electric_scooter", "lon": -77.04164616666667, "bike_id": "395551919d7eda418b8bdc2218a6a8c5", "rental_uris": {"android": "https://dc.lft.to/lastmile_qr_scan", "ios": "https://dc.lft.to/lastmile_qr_scan"}, "name": "395551919d7eda418b8bdc2218a6a8c5", "is_reserved": 0}, {"is_disabled": 0, "fusion_lon": 0.0, "fusion_lat": 0.0, "lat": 39.00381266666667, "type": "electric_bike", "lon": -77.01286133333333, "bike_id": "2a2c75b17d53dedfb5ee7d2a86639420", "rental_uris": {"android": "https://dc.lft.to/lastmile_qr_scan", "ios": "https://dc.lft.to/lastmile_qr_scan"}, "name": "2a2c75b17d53dedfb5ee7d2a86639420", "is_reserved": 0}, {"is_disabled": 0, "fusion_lon": 0.0, "fusion_lat": 0.0, "lat": 38.9170525, "type": "electric_scooter", "lon": -77.026199, "bike_id": "ee9aaf454ab940c8feaf8a8b961e2929", "rental_uris": {"android": "https://dc.lft.to/lastmile_qr_scan", "ios": "https://dc.lft.to/lastmile_qr_scan"}, "name": "ee9aaf454ab940c8feaf8a8b961e2929", "is_reserved": 0}, {"is_disabled": 0, "fusion_lon": 0.0, "fusion_lat": 0.0, "lat": 38.90074666666667, "type": "electric_bike", "lon": -77.0245775, "bike_id": "6eaea725d5ba1121a0cc5563ffc17248", "rental_uris": {"android": "https://dc.lft.to/lastmile_qr_scan", "ios": "https://dc.lft.to/lastmile_qr_scan"}, "name": "6eaea725d5ba1121a0cc5563ffc17248", "is_reserved": 0}, {"is_disabled": 0, "fusion_lon": 0.0, "fusion_lat": 0.0, "lat": 38.9023075, "type": "electric_scooter", "lon": -77.031312, "bike_id": "e9ed53cc914cbb031bb87279f44455d5", "rental_uris": {"android": "https://dc.lft.to/lastmile_qr_scan", "ios": "https://dc.lft.to/lastmile_qr_scan"}, "name": "e9ed53cc914cbb031bb87279f44455d5", "is_reserved": 0}, {"is_disabled": 0, "fusion_lon": 0.0, "fusion_lat": 0.0, "lat": 38.93922883333333, "type": "electric_scooter", "lon": -77.02466266666667, "bike_id": "082251c66c2c0e00375eb59ac5aec108", "rental_uris": {"android": "https://dc.lft.to/lastmile_qr_scan", "ios": "https://dc.lft.to/lastmile_qr_scan"}, "name": "082251c66c2c0e00375eb59ac5aec108", "is_reserved": 0}, {"is_disabled": 0, "fusion_lon": 0.0, "fusion_lat": 0.0, "lat": 38.903609833333334, "type": "electric_scooter", "lon": -77.002233, "bike_id": "5609ca2aefc4b57858f0d20727150e76", "rental_uris": {"android": "https://dc.lft.to/lastmile_qr_scan", "ios": "https://dc.lft.to/lastmile_qr_scan"}, "name": "5609ca2aefc4b57858f0d20727150e76", "is_reserved": 0}, {"is_disabled": 0, "fusion_lon": 0.0, "fusion_lat": 0.0, "lat": 38.89490933333333, "type": "electric_scooter", "lon": -77.011029, "bike_id": "9803a8919c2c170965b89c04baed6248", "rental_uris": {"android": "https://dc.lft.to/lastmile_qr_scan", "ios": "https://dc.lft.to/lastmile_qr_scan"}, "name": "9803a8919c2c170965b89c04baed6248", "is_reserved": 0}, {"is_disabled": 0, "fusion_lon": 0.0, "fusion_lat": 0.0, "lat": 38.91917133333333, "type": "electric_scooter", "lon": -77.0302595, "bike_id": "fcb25c757abd38eec4b44158f6f4a010", "rental_uris": {"android": "https://dc.lft.to/lastmile_qr_scan", "ios": "https://dc.lft.to/lastmile_qr_scan"}, "name": "fcb25c757abd38eec4b44158f6f4a010", "is_reserved": 0}, {"is_disabled": 0, "fusion_lon": 0.0, "fusion_lat": 0.0, "lat": 38.909206833333336, "type": "electric_scooter", "lon": -77.03193616666667, "bike_id": "829d265e75b88cd94a704671cb839df9", "rental_uris": {"android": "https://dc.lft.to/lastmile_qr_scan", "ios": "https://dc.lft.to/lastmile_qr_scan"}, "name": "829d265e75b88cd94a704671cb839df9", "is_reserved": 0}, {"is_disabled": 0, "fusion_lon": 0.0, "fusion_lat": 0.0, "lat": 38.949830666666664, "type": "electric_scooter", "lon": -77.02704366666667, "bike_id": "1bcb620f17e89295234218a8b8a13e88", "rental_uris": {"android": "https://dc.lft.to/lastmile_qr_scan", "ios": "https://dc.lft.to/lastmile_qr_scan"}, "name": "1bcb620f17e89295234218a8b8a13e88", "is_reserved": 0}, {"is_disabled": 0, "fusion_lon": 0.0, "fusion_lat": 0.0, "lat": 38.891626, "type": "electric_scooter", "lon": -77.01538533333333, "bike_id": "3b4d498ab2d85942e3e45412dd68fdd5", "rental_uris": {"android": "https://dc.lft.to/lastmile_qr_scan", "ios": "https://dc.lft.to/lastmile_qr_scan"}, "name": "3b4d498ab2d85942e3e45412dd68fdd5", "is_reserved": 0}, {"is_disabled": 0, "fusion_lon": 0.0, "fusion_lat": 0.0, "lat": 38.892167, "type": "electric_scooter", "lon": -77.02263383333333, "bike_id": "dd83dfa0a22257576de4202a04197821", "rental_uris": {"android": "https://dc.lft.to/lastmile_qr_scan", "ios": "https://dc.lft.to/lastmile_qr_scan"}, "name": "dd83dfa0a22257576de4202a04197821", "is_reserved": 0}, {"is_disabled": 0, "fusion_lon": 0.0, "fusion_lat": 0.0, "lat": 38.91033983333333, "type": "electric_scooter", "lon": -77.0137315, "bike_id": "a0a74505eeda91bef1fa0810e57019f7", "rental_uris": {"android": "https://dc.lft.to/lastmile_qr_scan", "ios": "https://dc.lft.to/lastmile_qr_scan"}, "name": "a0a74505eeda91bef1fa0810e57019f7", "is_reserved": 0}, {"is_disabled": 0, "fusion_lon": 0.0, "fusion_lat": 0.0, "lat": 38.9225135, "type": "electric_scooter", "lon": -77.03134266666666, "bike_id": "4da283e95ae13a64b0481567aed8a6e9", "rental_uris": {"android": "https://dc.lft.to/lastmile_qr_scan", "ios": "https://dc.lft.to/lastmile_qr_scan"}, "name": "4da283e95ae13a64b0481567aed8a6e9", "is_reserved": 0}, {"is_disabled": 0, "fusion_lon": 0.0, "fusion_lat": 0.0, "lat": 38.91079116666667, "type": "electric_scooter", "lon": -77.015104, "bike_id": "c9cba30997b049ee55ab46f26e0ed31a", "rental_uris": {"android": "https://dc.lft.to/lastmile_qr_scan", "ios": "https://dc.lft.to/lastmile_qr_scan"}, "name": "c9cba30997b049ee55ab46f26e0ed31a", "is_reserved": 0}, {"is_disabled": 0, "fusion_lon": 0.0, "fusion_lat": 0.0, "lat": 38.89793433333333, "type": "electric_scooter", "lon": -77.03349816666666, "bike_id": "fdf99455343352eaa91d304fe40991ce", "rental_uris": {"android": "https://dc.lft.to/lastmile_qr_scan", "ios": "https://dc.lft.to/lastmile_qr_scan"}, "name": "fdf99455343352eaa91d304fe40991ce", "is_reserved": 0}, {"is_disabled": 0, "fusion_lon": 0.0, "fusion_lat": 0.0, "lat": 38.92233566666667, "type": "electric_scooter", "lon": -76.97534166666667, "bike_id": "af258f9c6dcb5700751bff08f7fd947c", "rental_uris": {"android": "https://dc.lft.to/lastmile_qr_scan", "ios": "https://dc.lft.to/lastmile_qr_scan"}, "name": "af258f9c6dcb5700751bff08f7fd947c", "is_reserved": 0}, {"is_disabled": 0, "fusion_lon": 0.0, "fusion_lat": 0.0, "lat": 38.909698166666665, "type": "electric_scooter", "lon": -77.03729966666667, "bike_id": "7b7b0b73a8c7bdf4190b2687dbc3a115", "rental_uris": {"android": "https://dc.lft.to/lastmile_qr_scan", "ios": "https://dc.lft.to/lastmile_qr_scan"}, "name": "7b7b0b73a8c7bdf4190b2687dbc3a115", "is_reserved": 0}, {"is_disabled": 0, "fusion_lon": 0.0, "fusion_lat": 0.0, "lat": 38.92668883333333, "type": "electric_scooter", "lon": -77.10309183333334, "bike_id": "ce30e1e922357ff25e13b883b40912ba", "rental_uris": {"android": "https://dc.lft.to/lastmile_qr_scan", "ios": "https://dc.lft.to/lastmile_qr_scan"}, "name": "ce30e1e922357ff25e13b883b40912ba", "is_reserved": 0}, {"is_disabled": 0, "fusion_lon": 0.0, "fusion_lat": 0.0, "lat": 38.918118666666665, "type": "electric_scooter", "lon": -77.034506, "bike_id": "390e988627d624e16e82fad5541efde7", "rental_uris": {"android": "https://dc.lft.to/lastmile_qr_scan", "ios": "https://dc.lft.to/lastmile_qr_scan"}, "name": "390e988627d624e16e82fad5541efde7", "is_reserved": 0}, {"is_disabled": 0, "fusion_lon": 0.0, "fusion_lat": 0.0, "lat": 38.9130745, "type": "electric_scooter", "lon": -76.984792, "bike_id": "75ec35dcac013425bca9fc17cd81d199", "rental_uris": {"android": "https://dc.lft.to/lastmile_qr_scan", "ios": "https://dc.lft.to/lastmile_qr_scan"}, "name": "75ec35dcac013425bca9fc17cd81d199", "is_reserved": 0}, {"is_disabled": 0, "fusion_lon": 0.0, "fusion_lat": 0.0, "lat": 38.884691333333336, "type": "electric_scooter", "lon": -76.95225333333333, "bike_id": "f621359d44e87b527b7f983c64037af4", "rental_uris": {"android": "https://dc.lft.to/lastmile_qr_scan", "ios": "https://dc.lft.to/lastmile_qr_scan"}, "name": "f621359d44e87b527b7f983c64037af4", "is_reserved": 0}, {"is_disabled": 0, "fusion_lon": 0.0, "fusion_lat": 0.0, "lat": 38.919624666666664, "type": "electric_scooter", "lon": -77.02715116666667, "bike_id": "c177e32cbec2fea522b5e211f4328b3e", "rental_uris": {"android": "https://dc.lft.to/lastmile_qr_scan", "ios": "https://dc.lft.to/lastmile_qr_scan"}, "name": "c177e32cbec2fea522b5e211f4328b3e", "is_reserved": 0}, {"is_disabled": 0, "fusion_lon": 0.0, "fusion_lat": 0.0, "lat": 38.937105333333335, "type": "electric_scooter", "lon": -77.024344, "bike_id": "0b9fb595dec2c5a512a9bfaaf42ea989", "rental_uris": {"android": "https://dc.lft.to/lastmile_qr_scan", "ios": "https://dc.lft.to/lastmile_qr_scan"}, "name": "0b9fb595dec2c5a512a9bfaaf42ea989", "is_reserved": 0}, {"is_disabled": 0, "fusion_lon": 0.0, "fusion_lat": 0.0, "lat": 38.9352105, "type": "electric_scooter", "lon": -77.0663765, "bike_id": "1711a55dbf1353405fa7329e86636516", "rental_uris": {"android": "https://dc.lft.to/lastmile_qr_scan", "ios": "https://dc.lft.to/lastmile_qr_scan"}, "name": "1711a55dbf1353405fa7329e86636516", "is_reserved": 0}, {"is_disabled": 0, "fusion_lon": 0.0, "fusion_lat": 0.0, "lat": 38.9308045, "type": "electric_scooter", "lon": -77.03629016666666, "bike_id": "a4b42a8ff6079d42ba34179220a2f773", "rental_uris": {"android": "https://dc.lft.to/lastmile_qr_scan", "ios": "https://dc.lft.to/lastmile_qr_scan"}, "name": "a4b42a8ff6079d42ba34179220a2f773", "is_reserved": 0}, {"is_disabled": 0, "fusion_lon": 0.0, "fusion_lat": 0.0, "lat": 38.86604, "type": "electric_scooter", "lon": -77.0107665, "bike_id": "a3ed4220259d7a2f35ef1295f0ee7c10", "rental_uris": {"android": "https://dc.lft.to/lastmile_qr_scan", "ios": "https://dc.lft.to/lastmile_qr_scan"}, "name": "a3ed4220259d7a2f35ef1295f0ee7c10", "is_reserved": 0}, {"is_disabled": 0, "fusion_lon": 0.0, "fusion_lat": 0.0, "lat": 38.908486833333335, "type": "electric_scooter", "lon": -77.0607655, "bike_id": "9b3284b1b95496935a7121844537861e", "rental_uris": {"android": "https://dc.lft.to/lastmile_qr_scan", "ios": "https://dc.lft.to/lastmile_qr_scan"}, "name": "9b3284b1b95496935a7121844537861e", "is_reserved": 0}, {"is_disabled": 0, "fusion_lon": 0.0, "fusion_lat": 0.0, "lat": 38.921623, "type": "electric_bike", "lon": -77.03535766666667, "bike_id": "31ef150c76fbc32281b6d981114e1884", "rental_uris": {"android": "https://dc.lft.to/lastmile_qr_scan", "ios": "https://dc.lft.to/lastmile_qr_scan"}, "name": "31ef150c76fbc32281b6d981114e1884", "is_reserved": 0}, {"is_disabled": 0, "fusion_lon": 0.0, "fusion_lat": 0.0, "lat": 38.9109775, "type": "electric_scooter", "lon": -77.02975033333334, "bike_id": "8eff1569067c5165746b9ba48ace7c21", "rental_uris": {"android": "https://dc.lft.to/lastmile_qr_scan", "ios": "https://dc.lft.to/lastmile_qr_scan"}, "name": "8eff1569067c5165746b9ba48ace7c21", "is_reserved": 0}, {"is_disabled": 0, "fusion_lon": 0.0, "fusion_lat": 0.0, "lat": 38.91693933333333, "type": "electric_scooter", "lon": -77.041128, "bike_id": "51104e982b8c40bfe597ecc7daaf897d", "rental_uris": {"android": "https://dc.lft.to/lastmile_qr_scan", "ios": "https://dc.lft.to/lastmile_qr_scan"}, "name": "51104e982b8c40bfe597ecc7daaf897d", "is_reserved": 0}, {"is_disabled": 0, "fusion_lon": 0.0, "fusion_lat": 0.0, "lat": 38.896462666666665, "type": "electric_scooter", "lon": -77.02697883333333, "bike_id": "db1ddc2975b5111c00f2cd85b0bff7b6", "rental_uris": {"android": "https://dc.lft.to/lastmile_qr_scan", "ios": "https://dc.lft.to/lastmile_qr_scan"}, "name": "db1ddc2975b5111c00f2cd85b0bff7b6", "is_reserved": 0}, {"is_disabled": 0, "fusion_lon": 0.0, "fusion_lat": 0.0, "lat": 38.904758, "type": "electric_scooter", "lon": -77.06217133333334, "bike_id": "6c07c6c6e52658983e6e1b1a84ef6f01", "rental_uris": {"android": "https://dc.lft.to/lastmile_qr_scan", "ios": "https://dc.lft.to/lastmile_qr_scan"}, "name": "6c07c6c6e52658983e6e1b1a84ef6f01", "is_reserved": 0}, {"is_disabled": 0, "fusion_lon": 0.0, "fusion_lat": 0.0, "lat": 38.936307666666664, "type": "electric_scooter", "lon": -77.02694583333333, "bike_id": "19591e9ddb03c98b95f962ea8ab4a758", "rental_uris": {"android": "https://dc.lft.to/lastmile_qr_scan", "ios": "https://dc.lft.to/lastmile_qr_scan"}, "name": "19591e9ddb03c98b95f962ea8ab4a758", "is_reserved": 0}, {"is_disabled": 0, "fusion_lon": 0.0, "fusion_lat": 0.0, "lat": 38.892197333333336, "type": "electric_scooter", "lon": -77.031818, "bike_id": "61c965f01fbdc10db7a30fc4062a6f75", "rental_uris": {"android": "https://dc.lft.to/lastmile_qr_scan", "ios": "https://dc.lft.to/lastmile_qr_scan"}, "name": "61c965f01fbdc10db7a30fc4062a6f75", "is_reserved": 0}, {"is_disabled": 0, "fusion_lon": 0.0, "fusion_lat": 0.0, "lat": 38.90187783333333, "type": "electric_scooter", "lon": -77.0385585, "bike_id": "3c3f83783ffcbd03ca91991c0dd61c67", "rental_uris": {"android": "https://dc.lft.to/lastmile_qr_scan", "ios": "https://dc.lft.to/lastmile_qr_scan"}, "name": "3c3f83783ffcbd03ca91991c0dd61c67", "is_reserved": 0}, {"is_disabled": 0, "fusion_lon": 0.0, "fusion_lat": 0.0, "lat": 38.87999166666667, "type": "electric_scooter", "lon": -77.00568233333334, "bike_id": "dc30d54d07129d3b766e9f2e995f1b01", "rental_uris": {"android": "https://dc.lft.to/lastmile_qr_scan", "ios": "https://dc.lft.to/lastmile_qr_scan"}, "name": "dc30d54d07129d3b766e9f2e995f1b01", "is_reserved": 0}, {"is_disabled": 0, "fusion_lon": 0.0, "fusion_lat": 0.0, "lat": 38.97059933333333, "type": "electric_bike", "lon": -76.96054783333334, "bike_id": "627febb5debca4ff26d7221475dbd01b", "rental_uris": {"android": "https://dc.lft.to/lastmile_qr_scan", "ios": "https://dc.lft.to/lastmile_qr_scan"}, "name": "627febb5debca4ff26d7221475dbd01b", "is_reserved": 0}, {"is_disabled": 0, "fusion_lon": 0.0, "fusion_lat": 0.0, "lat": 38.885655166666666, "type": "electric_scooter", "lon": -77.00062633333333, "bike_id": "ac77b23b8f56069559adeef083bc52ae", "rental_uris": {"android": "https://dc.lft.to/lastmile_qr_scan", "ios": "https://dc.lft.to/lastmile_qr_scan"}, "name": "ac77b23b8f56069559adeef083bc52ae", "is_reserved": 0}, {"is_disabled": 0, "fusion_lon": 0.0, "fusion_lat": 0.0, "lat": 38.90167233333333, "type": "electric_scooter", "lon": -76.99377616666666, "bike_id": "fa9cb8c5ece682a2b0071190a1c6294b", "rental_uris": {"android": "https://dc.lft.to/lastmile_qr_scan", "ios": "https://dc.lft.to/lastmile_qr_scan"}, "name": "fa9cb8c5ece682a2b0071190a1c6294b", "is_reserved": 0}, {"is_disabled": 0, "fusion_lon": 0.0, "fusion_lat": 0.0, "lat": 38.91732416666667, "type": "electric_scooter", "lon": -76.99175316666667, "bike_id": "96ebe6b99c1470db76d1b1eed2e45b66", "rental_uris": {"android": "https://dc.lft.to/lastmile_qr_scan", "ios": "https://dc.lft.to/lastmile_qr_scan"}, "name": "96ebe6b99c1470db76d1b1eed2e45b66", "is_reserved": 0}, {"is_disabled": 0, "fusion_lon": 0.0, "fusion_lat": 0.0, "lat": 38.94802, "type": "electric_bike", "lon": -76.97216166666666, "bike_id": "9d5e1d6ebe8db79c64c0986cbaeb53d5", "rental_uris": {"android": "https://dc.lft.to/lastmile_qr_scan", "ios": "https://dc.lft.to/lastmile_qr_scan"}, "name": "9d5e1d6ebe8db79c64c0986cbaeb53d5", "is_reserved": 0}, {"is_disabled": 0, "fusion_lon": 0.0, "fusion_lat": 0.0, "lat": 38.91205716666666, "type": "electric_scooter", "lon": -76.984929, "bike_id": "8f087555942052dd9abf0a978fb6c89e", "rental_uris": {"android": "https://dc.lft.to/lastmile_qr_scan", "ios": "https://dc.lft.to/lastmile_qr_scan"}, "name": "8f087555942052dd9abf0a978fb6c89e", "is_reserved": 0}, {"is_disabled": 0, "fusion_lon": 0.0, "fusion_lat": 0.0, "lat": 38.88753233333333, "type": "electric_scooter", "lon": -77.00223716666666, "bike_id": "81f486a7420afb86bc8c9509b94415a1", "rental_uris": {"android": "https://dc.lft.to/lastmile_qr_scan", "ios": "https://dc.lft.to/lastmile_qr_scan"}, "name": "81f486a7420afb86bc8c9509b94415a1", "is_reserved": 0}, {"is_disabled": 0, "fusion_lon": 0.0, "fusion_lat": 0.0, "lat": 38.937104166666664, "type": "electric_scooter", "lon": -77.02434383333333, "bike_id": "b4f991aef1a0491ce80db2d4d571dbda", "rental_uris": {"android": "https://dc.lft.to/lastmile_qr_scan", "ios": "https://dc.lft.to/lastmile_qr_scan"}, "name": "b4f991aef1a0491ce80db2d4d571dbda", "is_reserved": 0}, {"is_disabled": 0, "fusion_lon": 0.0, "fusion_lat": 0.0, "lat": 38.81023, "type": "electric_bike", "lon": -77.08435933333334, "bike_id": "0b3f00c4cfede80de5cc9c102ea86536", "rental_uris": {"android": "https://dc.lft.to/lastmile_qr_scan", "ios": "https://dc.lft.to/lastmile_qr_scan"}, "name": "0b3f00c4cfede80de5cc9c102ea86536", "is_reserved": 0}, {"is_disabled": 0, "fusion_lon": 0.0, "fusion_lat": 0.0, "lat": 38.9047515, "type": "electric_scooter", "lon": -77.0321065, "bike_id": "5eec29f42136a443fa9a36e21dd1abd4", "rental_uris": {"android": "https://dc.lft.to/lastmile_qr_scan", "ios": "https://dc.lft.to/lastmile_qr_scan"}, "name": "5eec29f42136a443fa9a36e21dd1abd4", "is_reserved": 0}, {"is_disabled": 0, "fusion_lon": 0.0, "fusion_lat": 0.0, "lat": 38.94296883333333, "type": "electric_scooter", "lon": -77.027725, "bike_id": "056c8f32930e29329f3437570a9f6288", "rental_uris": {"android": "https://dc.lft.to/lastmile_qr_scan", "ios": "https://dc.lft.to/lastmile_qr_scan"}, "name": "056c8f32930e29329f3437570a9f6288", "is_reserved": 0}, {"is_disabled": 0, "fusion_lon": 0.0, "fusion_lat": 0.0, "lat": 38.9001395, "type": "electric_scooter", "lon": -77.03346833333333, "bike_id": "7f2ef92e58d40037ccddf0019fc35fb1", "rental_uris": {"android": "https://dc.lft.to/lastmile_qr_scan", "ios": "https://dc.lft.to/lastmile_qr_scan"}, "name": "7f2ef92e58d40037ccddf0019fc35fb1", "is_reserved": 0}, {"is_disabled": 0, "fusion_lon": 0.0, "fusion_lat": 0.0, "lat": 38.9089175, "type": "electric_scooter", "lon": -77.045784, "bike_id": "d07e40289e8bc23c6b667f96ce538ad1", "rental_uris": {"android": "https://dc.lft.to/lastmile_qr_scan", "ios": "https://dc.lft.to/lastmile_qr_scan"}, "name": "d07e40289e8bc23c6b667f96ce538ad1", "is_reserved": 0}, {"is_disabled": 0, "fusion_lon": 0.0, "fusion_lat": 0.0, "lat": 38.923353666666664, "type": "electric_scooter", "lon": -77.0418805, "bike_id": "002b48483f589eb85a459e538e8dab42", "rental_uris": {"android": "https://dc.lft.to/lastmile_qr_scan", "ios": "https://dc.lft.to/lastmile_qr_scan"}, "name": "002b48483f589eb85a459e538e8dab42", "is_reserved": 0}, {"is_disabled": 0, "fusion_lon": 0.0, "fusion_lat": 0.0, "lat": 38.904885666666665, "type": "electric_scooter", "lon": -77.0512115, "bike_id": "9a014bd0fbe3b2b5df51a596fc891d6c", "rental_uris": {"android": "https://dc.lft.to/lastmile_qr_scan", "ios": "https://dc.lft.to/lastmile_qr_scan"}, "name": "9a014bd0fbe3b2b5df51a596fc891d6c", "is_reserved": 0}, {"is_disabled": 0, "fusion_lon": 0.0, "fusion_lat": 0.0, "lat": 38.91935133333333, "type": "electric_bike", "lon": -76.97504116666667, "bike_id": "7657a9ed827f3525c94afbffcdcd81e4", "rental_uris": {"android": "https://dc.lft.to/lastmile_qr_scan", "ios": "https://dc.lft.to/lastmile_qr_scan"}, "name": "7657a9ed827f3525c94afbffcdcd81e4", "is_reserved": 0}, {"is_disabled": 0, "fusion_lon": 0.0, "fusion_lat": 0.0, "lat": 38.91096366666667, "type": "electric_scooter", "lon": -77.02974233333333, "bike_id": "17b4b75b941d067d94fc95565b80c943", "rental_uris": {"android": "https://dc.lft.to/lastmile_qr_scan", "ios": "https://dc.lft.to/lastmile_qr_scan"}, "name": "17b4b75b941d067d94fc95565b80c943", "is_reserved": 0}, {"is_disabled": 0, "fusion_lon": 0.0, "fusion_lat": 0.0, "lat": 38.9022415, "type": "electric_scooter", "lon": -77.05997883333333, "bike_id": "86952a94b1add00c8546f5cde4c52966", "rental_uris": {"android": "https://dc.lft.to/lastmile_qr_scan", "ios": "https://dc.lft.to/lastmile_qr_scan"}, "name": "86952a94b1add00c8546f5cde4c52966", "is_reserved": 0}, {"is_disabled": 0, "fusion_lon": 0.0, "fusion_lat": 0.0, "lat": 38.903764, "type": "electric_scooter", "lon": -77.0349675, "bike_id": "15260ba6516ee99ab4e31009e65008c6", "rental_uris": {"android": "https://dc.lft.to/lastmile_qr_scan", "ios": "https://dc.lft.to/lastmile_qr_scan"}, "name": "15260ba6516ee99ab4e31009e65008c6", "is_reserved": 0}, {"is_disabled": 0, "fusion_lon": 0.0, "fusion_lat": 0.0, "lat": 38.90944266666666, "type": "electric_scooter", "lon": -77.04653933333333, "bike_id": "f86b3c12d408b60b3872e909c854dba4", "rental_uris": {"android": "https://dc.lft.to/lastmile_qr_scan", "ios": "https://dc.lft.to/lastmile_qr_scan"}, "name": "f86b3c12d408b60b3872e909c854dba4", "is_reserved": 0}, {"is_disabled": 0, "fusion_lon": 0.0, "fusion_lat": 0.0, "lat": 38.913901, "type": "electric_scooter", "lon": -77.03851366666666, "bike_id": "cea6d0479e53144c427d1d344c451302", "rental_uris": {"android": "https://dc.lft.to/lastmile_qr_scan", "ios": "https://dc.lft.to/lastmile_qr_scan"}, "name": "cea6d0479e53144c427d1d344c451302", "is_reserved": 0}, {"is_disabled": 0, "fusion_lon": 0.0, "fusion_lat": 0.0, "lat": 38.95631016666667, "type": "electric_scooter", "lon": -77.02975233333333, "bike_id": "c3659dd82b265b5b06a107e276eac20e", "rental_uris": {"android": "https://dc.lft.to/lastmile_qr_scan", "ios": "https://dc.lft.to/lastmile_qr_scan"}, "name": "c3659dd82b265b5b06a107e276eac20e", "is_reserved": 0}, {"is_disabled": 0, "fusion_lon": 0.0, "fusion_lat": 0.0, "lat": 38.90557166666667, "type": "electric_scooter", "lon": -77.00705216666667, "bike_id": "0849a019ea67a963871815b220445300", "rental_uris": {"android": "https://dc.lft.to/lastmile_qr_scan", "ios": "https://dc.lft.to/lastmile_qr_scan"}, "name": "0849a019ea67a963871815b220445300", "is_reserved": 0}, {"is_disabled": 0, "fusion_lon": 0.0, "fusion_lat": 0.0, "lat": 38.952005, "type": "electric_bike", "lon": -77.02369616666667, "bike_id": "343f2472390494b69f3c16190977c13a", "rental_uris": {"android": "https://dc.lft.to/lastmile_qr_scan", "ios": "https://dc.lft.to/lastmile_qr_scan"}, "name": "343f2472390494b69f3c16190977c13a", "is_reserved": 0}, {"is_disabled": 0, "fusion_lon": 0.0, "fusion_lat": 0.0, "lat": 38.896025, "type": "electric_scooter", "lon": -77.011198, "bike_id": "5bf8bf62095572bc7ee4323309d5c63e", "rental_uris": {"android": "https://dc.lft.to/lastmile_qr_scan", "ios": "https://dc.lft.to/lastmile_qr_scan"}, "name": "5bf8bf62095572bc7ee4323309d5c63e", "is_reserved": 0}, {"is_disabled": 0, "fusion_lon": 0.0, "fusion_lat": 0.0, "lat": 38.8506635, "type": "electric_bike", "lon": -76.9733, "bike_id": "b6b434e2d228487e9b5ad14bda8c91a3", "rental_uris": {"android": "https://dc.lft.to/lastmile_qr_scan", "ios": "https://dc.lft.to/lastmile_qr_scan"}, "name": "b6b434e2d228487e9b5ad14bda8c91a3", "is_reserved": 0}, {"is_disabled": 0, "fusion_lon": 0.0, "fusion_lat": 0.0, "lat": 38.952492, "type": "electric_bike", "lon": -77.0697365, "bike_id": "839a5e6c14b662bc9ee7e6a52529ef2b", "rental_uris": {"android": "https://dc.lft.to/lastmile_qr_scan", "ios": "https://dc.lft.to/lastmile_qr_scan"}, "name": "839a5e6c14b662bc9ee7e6a52529ef2b", "is_reserved": 0}, {"is_disabled": 0, "fusion_lon": 0.0, "fusion_lat": 0.0, "lat": 38.9156235, "type": "electric_scooter", "lon": -77.03270916666666, "bike_id": "18ad1fd878da3cbc7701d9e379f9bec6", "rental_uris": {"android": "https://dc.lft.to/lastmile_qr_scan", "ios": "https://dc.lft.to/lastmile_qr_scan"}, "name": "18ad1fd878da3cbc7701d9e379f9bec6", "is_reserved": 0}, {"is_disabled": 0, "fusion_lon": 0.0, "fusion_lat": 0.0, "lat": 38.85513383333333, "type": "electric_bike", "lon": -76.95830516666666, "bike_id": "8e8ab43d2b6e778f23b3d17e7d47e562", "rental_uris": {"android": "https://dc.lft.to/lastmile_qr_scan", "ios": "https://dc.lft.to/lastmile_qr_scan"}, "name": "8e8ab43d2b6e778f23b3d17e7d47e562", "is_reserved": 0}, {"is_disabled": 0, "fusion_lon": 0.0, "fusion_lat": 0.0, "lat": 38.92752616666667, "type": "electric_scooter", "lon": -77.00583933333333, "bike_id": "a97202b9410b87ad094a392372465763", "rental_uris": {"android": "https://dc.lft.to/lastmile_qr_scan", "ios": "https://dc.lft.to/lastmile_qr_scan"}, "name": "a97202b9410b87ad094a392372465763", "is_reserved": 0}, {"is_disabled": 0, "fusion_lon": 0.0, "fusion_lat": 0.0, "lat": 38.94448716666667, "type": "electric_scooter", "lon": -77.06349316666666, "bike_id": "18fb86d5e240a734f5ba767b214a2d71", "rental_uris": {"android": "https://dc.lft.to/lastmile_qr_scan", "ios": "https://dc.lft.to/lastmile_qr_scan"}, "name": "18fb86d5e240a734f5ba767b214a2d71", "is_reserved": 0}, {"is_disabled": 0, "fusion_lon": 0.0, "fusion_lat": 0.0, "lat": 38.919352833333335, "type": "electric_scooter", "lon": -76.980747, "bike_id": "ee1f5b64407d2441d4719bb411a2c79d", "rental_uris": {"android": "https://dc.lft.to/lastmile_qr_scan", "ios": "https://dc.lft.to/lastmile_qr_scan"}, "name": "ee1f5b64407d2441d4719bb411a2c79d", "is_reserved": 0}, {"is_disabled": 0, "fusion_lon": 0.0, "fusion_lat": 0.0, "lat": 38.90392966666667, "type": "electric_scooter", "lon": -76.99012833333333, "bike_id": "6235a4f4821f6ad1fe55cfb1f0d0a9b5", "rental_uris": {"android": "https://dc.lft.to/lastmile_qr_scan", "ios": "https://dc.lft.to/lastmile_qr_scan"}, "name": "6235a4f4821f6ad1fe55cfb1f0d0a9b5", "is_reserved": 0}, {"is_disabled": 0, "fusion_lon": 0.0, "fusion_lat": 0.0, "lat": 38.909576333333334, "type": "electric_scooter", "lon": -77.01568166666667, "bike_id": "a188bfec6e4bd8e0707d6acb64732cc3", "rental_uris": {"android": "https://dc.lft.to/lastmile_qr_scan", "ios": "https://dc.lft.to/lastmile_qr_scan"}, "name": "a188bfec6e4bd8e0707d6acb64732cc3", "is_reserved": 0}, {"is_disabled": 0, "fusion_lon": 0.0, "fusion_lat": 0.0, "lat": 38.8904205, "type": "electric_scooter", "lon": -77.02574016666667, "bike_id": "497950d4af0a27f458bf44485db99be3", "rental_uris": {"android": "https://dc.lft.to/lastmile_qr_scan", "ios": "https://dc.lft.to/lastmile_qr_scan"}, "name": "497950d4af0a27f458bf44485db99be3", "is_reserved": 0}, {"is_disabled": 0, "fusion_lon": 0.0, "fusion_lat": 0.0, "lat": 38.994505833333335, "type": "electric_bike", "lon": -76.9081635, "bike_id": "58890853b7b2f232a6388abb8bd63617", "rental_uris": {"android": "https://dc.lft.to/lastmile_qr_scan", "ios": "https://dc.lft.to/lastmile_qr_scan"}, "name": "58890853b7b2f232a6388abb8bd63617", "is_reserved": 0}, {"is_disabled": 0, "fusion_lon": 0.0, "fusion_lat": 0.0, "lat": 38.88591533333334, "type": "electric_scooter", "lon": -77.00581433333333, "bike_id": "43ee45ba0d18306d20805ee30077d03a", "rental_uris": {"android": "https://dc.lft.to/lastmile_qr_scan", "ios": "https://dc.lft.to/lastmile_qr_scan"}, "name": "43ee45ba0d18306d20805ee30077d03a", "is_reserved": 0}, {"is_disabled": 0, "fusion_lon": 0.0, "fusion_lat": 0.0, "lat": 38.89033933333333, "type": "electric_scooter", "lon": -76.93754233333334, "bike_id": "29b2fe57908651972d72a754851bc1b4", "rental_uris": {"android": "https://dc.lft.to/lastmile_qr_scan", "ios": "https://dc.lft.to/lastmile_qr_scan"}, "name": "29b2fe57908651972d72a754851bc1b4", "is_reserved": 0}, {"is_disabled": 0, "fusion_lon": 0.0, "fusion_lat": 0.0, "lat": 38.88010583333333, "type": "electric_bike", "lon": -76.9159065, "bike_id": "f222a8b7ded1d8d025638c39b87db0dc", "rental_uris": {"android": "https://dc.lft.to/lastmile_qr_scan", "ios": "https://dc.lft.to/lastmile_qr_scan"}, "name": "f222a8b7ded1d8d025638c39b87db0dc", "is_reserved": 0}, {"is_disabled": 0, "fusion_lon": 0.0, "fusion_lat": 0.0, "lat": 38.914624, "type": "electric_scooter", "lon": -77.0280165, "bike_id": "3159682d7175931d3a91aa5d2ebd0813", "rental_uris": {"android": "https://dc.lft.to/lastmile_qr_scan", "ios": "https://dc.lft.to/lastmile_qr_scan"}, "name": "3159682d7175931d3a91aa5d2ebd0813", "is_reserved": 0}, {"is_disabled": 0, "fusion_lon": 0.0, "fusion_lat": 0.0, "lat": 38.92387566666667, "type": "electric_scooter", "lon": -77.04084483333334, "bike_id": "564d8ecfb75c2f35955b6b719dc1ab75", "rental_uris": {"android": "https://dc.lft.to/lastmile_qr_scan", "ios": "https://dc.lft.to/lastmile_qr_scan"}, "name": "564d8ecfb75c2f35955b6b719dc1ab75", "is_reserved": 0}, {"is_disabled": 0, "fusion_lon": 0.0, "fusion_lat": 0.0, "lat": 38.901925, "type": "electric_scooter", "lon": -77.02415783333333, "bike_id": "2b7f155dd020816cc629eabadb7286a5", "rental_uris": {"android": "https://dc.lft.to/lastmile_qr_scan", "ios": "https://dc.lft.to/lastmile_qr_scan"}, "name": "2b7f155dd020816cc629eabadb7286a5", "is_reserved": 0}, {"is_disabled": 0, "fusion_lon": 0.0, "fusion_lat": 0.0, "lat": 38.86890366666667, "type": "electric_scooter", "lon": -76.98320483333333, "bike_id": "851c677298c3e8424bf48e1f3b6ee542", "rental_uris": {"android": "https://dc.lft.to/lastmile_qr_scan", "ios": "https://dc.lft.to/lastmile_qr_scan"}, "name": "851c677298c3e8424bf48e1f3b6ee542", "is_reserved": 0}, {"is_disabled": 0, "fusion_lon": 0.0, "fusion_lat": 0.0, "lat": 38.8598765, "type": "electric_bike", "lon": -76.97053666666666, "bike_id": "57163d9db4a205f55a308ded7032aeb8", "rental_uris": {"android": "https://dc.lft.to/lastmile_qr_scan", "ios": "https://dc.lft.to/lastmile_qr_scan"}, "name": "57163d9db4a205f55a308ded7032aeb8", "is_reserved": 0}, {"is_disabled": 0, "fusion_lon": 0.0, "fusion_lat": 0.0, "lat": 38.93488216666667, "type": "electric_scooter", "lon": -77.02410133333333, "bike_id": "21904dcb869d3edb639f574df88985b7", "rental_uris": {"android": "https://dc.lft.to/lastmile_qr_scan", "ios": "https://dc.lft.to/lastmile_qr_scan"}, "name": "21904dcb869d3edb639f574df88985b7", "is_reserved": 0}, {"is_disabled": 0, "fusion_lon": 0.0, "fusion_lat": 0.0, "lat": 38.897293833333336, "type": "electric_scooter", "lon": -77.02379466666666, "bike_id": "fc1beba23ef817ca47dd97ad0b160545", "rental_uris": {"android": "https://dc.lft.to/lastmile_qr_scan", "ios": "https://dc.lft.to/lastmile_qr_scan"}, "name": "fc1beba23ef817ca47dd97ad0b160545", "is_reserved": 0}, {"is_disabled": 0, "fusion_lon": 0.0, "fusion_lat": 0.0, "lat": 38.89189, "type": "electric_scooter", "lon": -76.98831, "bike_id": "e9b1e24ac66748aa5a1381debfe2d1ef", "rental_uris": {"android": "https://dc.lft.to/lastmile_qr_scan", "ios": "https://dc.lft.to/lastmile_qr_scan"}, "name": "e9b1e24ac66748aa5a1381debfe2d1ef", "is_reserved": 0}, {"is_disabled": 0, "fusion_lon": 0.0, "fusion_lat": 0.0, "lat": 38.9019455, "type": "electric_scooter", "lon": -77.061215, "bike_id": "075616ce7d97da6a0aad813fe1d450c1", "rental_uris": {"android": "https://dc.lft.to/lastmile_qr_scan", "ios": "https://dc.lft.to/lastmile_qr_scan"}, "name": "075616ce7d97da6a0aad813fe1d450c1", "is_reserved": 0}, {"is_disabled": 0, "fusion_lon": 0.0, "fusion_lat": 0.0, "lat": 38.91335266666667, "type": "electric_scooter", "lon": -77.03237416666667, "bike_id": "b9d9d1cef5259ffb8fb7e69396a2d476", "rental_uris": {"android": "https://dc.lft.to/lastmile_qr_scan", "ios": "https://dc.lft.to/lastmile_qr_scan"}, "name": "b9d9d1cef5259ffb8fb7e69396a2d476", "is_reserved": 0}, {"is_disabled": 0, "fusion_lon": 0.0, "fusion_lat": 0.0, "lat": 38.9327645, "type": "electric_scooter", "lon": -76.974207, "bike_id": "2b6a7ed73ecc3f8d13e143dc8de2b3d5", "rental_uris": {"android": "https://dc.lft.to/lastmile_qr_scan", "ios": "https://dc.lft.to/lastmile_qr_scan"}, "name": "2b6a7ed73ecc3f8d13e143dc8de2b3d5", "is_reserved": 0}, {"is_disabled": 0, "fusion_lon": 0.0, "fusion_lat": 0.0, "lat": 38.9054215, "type": "electric_scooter", "lon": -77.04987616666666, "bike_id": "917be98fd0ef5baef2201268c9b7d91e", "rental_uris": {"android": "https://dc.lft.to/lastmile_qr_scan", "ios": "https://dc.lft.to/lastmile_qr_scan"}, "name": "917be98fd0ef5baef2201268c9b7d91e", "is_reserved": 0}, {"is_disabled": 0, "fusion_lon": 0.0, "fusion_lat": 0.0, "lat": 38.9320065, "type": "electric_scooter", "lon": -77.0235135, "bike_id": "e3e9e4061a387d643bb61cf804886966", "rental_uris": {"android": "https://dc.lft.to/lastmile_qr_scan", "ios": "https://dc.lft.to/lastmile_qr_scan"}, "name": "e3e9e4061a387d643bb61cf804886966", "is_reserved": 0}, {"is_disabled": 0, "fusion_lon": 0.0, "fusion_lat": 0.0, "lat": 38.86975016666667, "type": "electric_scooter", "lon": -77.01229383333333, "bike_id": "5f7470133f8f401ee3dc9ca204431b8d", "rental_uris": {"android": "https://dc.lft.to/lastmile_qr_scan", "ios": "https://dc.lft.to/lastmile_qr_scan"}, "name": "5f7470133f8f401ee3dc9ca204431b8d", "is_reserved": 0}, {"is_disabled": 0, "fusion_lon": 0.0, "fusion_lat": 0.0, "lat": 38.833465333333336, "type": "electric_bike", "lon": -76.965538, "bike_id": "1f65383e17d4d252fdb0bf36342f4222", "rental_uris": {"android": "https://dc.lft.to/lastmile_qr_scan", "ios": "https://dc.lft.to/lastmile_qr_scan"}, "name": "1f65383e17d4d252fdb0bf36342f4222", "is_reserved": 0}, {"is_disabled": 0, "fusion_lon": 0.0, "fusion_lat": 0.0, "lat": 38.90472716666667, "type": "electric_scooter", "lon": -77.0382765, "bike_id": "a929ceb09971642ee5f10a19fa851d41", "rental_uris": {"android": "https://dc.lft.to/lastmile_qr_scan", "ios": "https://dc.lft.to/lastmile_qr_scan"}, "name": "a929ceb09971642ee5f10a19fa851d41", "is_reserved": 0}, {"is_disabled": 0, "fusion_lon": 0.0, "fusion_lat": 0.0, "lat": 38.950581, "type": "electric_bike", "lon": -76.96736033333333, "bike_id": "73136f2d44a50764ac78c5365a3c0dc3", "rental_uris": {"android": "https://dc.lft.to/lastmile_qr_scan", "ios": "https://dc.lft.to/lastmile_qr_scan"}, "name": "73136f2d44a50764ac78c5365a3c0dc3", "is_reserved": 0}, {"is_disabled": 0, "fusion_lon": 0.0, "fusion_lat": 0.0, "lat": 38.918608166666665, "type": "electric_bike", "lon": -76.96090833333334, "bike_id": "675bcf3a60d88baab97140d2fcc54377", "rental_uris": {"android": "https://dc.lft.to/lastmile_qr_scan", "ios": "https://dc.lft.to/lastmile_qr_scan"}, "name": "675bcf3a60d88baab97140d2fcc54377", "is_reserved": 0}, {"is_disabled": 0, "fusion_lon": 0.0, "fusion_lat": 0.0, "lat": 38.86848333333333, "type": "electric_bike", "lon": -77.097245, "bike_id": "8ca2cb6735aeeb03bcab8d9782ac804f", "rental_uris": {"android": "https://dc.lft.to/lastmile_qr_scan", "ios": "https://dc.lft.to/lastmile_qr_scan"}, "name": "8ca2cb6735aeeb03bcab8d9782ac804f", "is_reserved": 0}, {"is_disabled": 0, "fusion_lon": 0.0, "fusion_lat": 0.0, "lat": 38.96304466666667, "type": "electric_bike", "lon": -77.05760016666666, "bike_id": "9a0ea5e709d157321fa2d23204c063e7", "rental_uris": {"android": "https://dc.lft.to/lastmile_qr_scan", "ios": "https://dc.lft.to/lastmile_qr_scan"}, "name": "9a0ea5e709d157321fa2d23204c063e7", "is_reserved": 0}, {"is_disabled": 0, "fusion_lon": 0.0, "fusion_lat": 0.0, "lat": 38.89221166666667, "type": "electric_scooter", "lon": -77.031995, "bike_id": "24f46192b5ac3f60d47127eb17c733b2", "rental_uris": {"android": "https://dc.lft.to/lastmile_qr_scan", "ios": "https://dc.lft.to/lastmile_qr_scan"}, "name": "24f46192b5ac3f60d47127eb17c733b2", "is_reserved": 0}, {"is_disabled": 0, "fusion_lon": 0.0, "fusion_lat": 0.0, "lat": 38.869102166666664, "type": "electric_scooter", "lon": -77.01373666666667, "bike_id": "f342da6b0ea60cbeb410bc14c9a01c30", "rental_uris": {"android": "https://dc.lft.to/lastmile_qr_scan", "ios": "https://dc.lft.to/lastmile_qr_scan"}, "name": "f342da6b0ea60cbeb410bc14c9a01c30", "is_reserved": 0}, {"is_disabled": 0, "fusion_lon": 0.0, "fusion_lat": 0.0, "lat": 38.90122233333334, "type": "electric_scooter", "lon": -77.03046733333333, "bike_id": "0e8c3ad7be6a0ad4831a670a6bcfb2c4", "rental_uris": {"android": "https://dc.lft.to/lastmile_qr_scan", "ios": "https://dc.lft.to/lastmile_qr_scan"}, "name": "0e8c3ad7be6a0ad4831a670a6bcfb2c4", "is_reserved": 0}, {"is_disabled": 0, "fusion_lon": 0.0, "fusion_lat": 0.0, "lat": 38.92249533333333, "type": "electric_scooter", "lon": -77.03074566666666, "bike_id": "7a8b8bc9a2103f459e1270dd7e889206", "rental_uris": {"android": "https://dc.lft.to/lastmile_qr_scan", "ios": "https://dc.lft.to/lastmile_qr_scan"}, "name": "7a8b8bc9a2103f459e1270dd7e889206", "is_reserved": 0}, {"is_disabled": 0, "fusion_lon": 0.0, "fusion_lat": 0.0, "lat": 38.88249316666667, "type": "electric_scooter", "lon": -77.00348333333334, "bike_id": "530a60372edb264adc96021f1eec94e4", "rental_uris": {"android": "https://dc.lft.to/lastmile_qr_scan", "ios": "https://dc.lft.to/lastmile_qr_scan"}, "name": "530a60372edb264adc96021f1eec94e4", "is_reserved": 0}, {"is_disabled": 0, "fusion_lon": 0.0, "fusion_lat": 0.0, "lat": 38.945461, "type": "electric_scooter", "lon": -77.04245016666667, "bike_id": "45eb871bf25df2b0ebae841ed303fd12", "rental_uris": {"android": "https://dc.lft.to/lastmile_qr_scan", "ios": "https://dc.lft.to/lastmile_qr_scan"}, "name": "45eb871bf25df2b0ebae841ed303fd12", "is_reserved": 0}, {"is_disabled": 0, "fusion_lon": 0.0, "fusion_lat": 0.0, "lat": 38.931861833333336, "type": "electric_bike", "lon": -77.229353, "bike_id": "9895dae5fd243e091b1a3ac3317d68ae", "rental_uris": {"android": "https://dc.lft.to/lastmile_qr_scan", "ios": "https://dc.lft.to/lastmile_qr_scan"}, "name": "9895dae5fd243e091b1a3ac3317d68ae", "is_reserved": 0}, {"is_disabled": 0, "fusion_lon": 0.0, "fusion_lat": 0.0, "lat": 38.9205665, "type": "electric_scooter", "lon": -76.99875633333333, "bike_id": "1ad88628a6a7c1c4b0e47b8d00710259", "rental_uris": {"android": "https://dc.lft.to/lastmile_qr_scan", "ios": "https://dc.lft.to/lastmile_qr_scan"}, "name": "1ad88628a6a7c1c4b0e47b8d00710259", "is_reserved": 0}, {"is_disabled": 0, "fusion_lon": 0.0, "fusion_lat": 0.0, "lat": 38.86859966666667, "type": "electric_bike", "lon": -76.91655733333333, "bike_id": "2f802146dd1af132aaa7fcbf749906f5", "rental_uris": {"android": "https://dc.lft.to/lastmile_qr_scan", "ios": "https://dc.lft.to/lastmile_qr_scan"}, "name": "2f802146dd1af132aaa7fcbf749906f5", "is_reserved": 0}, {"is_disabled": 0, "fusion_lon": 0.0, "fusion_lat": 0.0, "lat": 38.9175765, "type": "electric_scooter", "lon": -77.03588233333333, "bike_id": "206eb9933c7df5ffb8225e1454bd6f60", "rental_uris": {"android": "https://dc.lft.to/lastmile_qr_scan", "ios": "https://dc.lft.to/lastmile_qr_scan"}, "name": "206eb9933c7df5ffb8225e1454bd6f60", "is_reserved": 0}, {"is_disabled": 0, "fusion_lon": 0.0, "fusion_lat": 0.0, "lat": 38.950790166666664, "type": "electric_scooter", "lon": -77.028722, "bike_id": "509eeda2806522e0a18b51563af9f131", "rental_uris": {"android": "https://dc.lft.to/lastmile_qr_scan", "ios": "https://dc.lft.to/lastmile_qr_scan"}, "name": "509eeda2806522e0a18b51563af9f131", "is_reserved": 0}, {"is_disabled": 0, "fusion_lon": 0.0, "fusion_lat": 0.0, "lat": 38.992540166666664, "type": "electric_bike", "lon": -77.0499715, "bike_id": "f18218f190850696bd752dcb1db48a32", "rental_uris": {"android": "https://dc.lft.to/lastmile_qr_scan", "ios": "https://dc.lft.to/lastmile_qr_scan"}, "name": "f18218f190850696bd752dcb1db48a32", "is_reserved": 0}, {"is_disabled": 0, "fusion_lon": 0.0, "fusion_lat": 0.0, "lat": 38.92286933333333, "type": "electric_scooter", "lon": -77.029668, "bike_id": "278551888ac9a096797f28a3542adf0f", "rental_uris": {"android": "https://dc.lft.to/lastmile_qr_scan", "ios": "https://dc.lft.to/lastmile_qr_scan"}, "name": "278551888ac9a096797f28a3542adf0f", "is_reserved": 0}, {"is_disabled": 0, "fusion_lon": 0.0, "fusion_lat": 0.0, "lat": 38.91822066666667, "type": "electric_scooter", "lon": -77.03661933333333, "bike_id": "1f4252266235551ee1cb64fe4527f1df", "rental_uris": {"android": "https://dc.lft.to/lastmile_qr_scan", "ios": "https://dc.lft.to/lastmile_qr_scan"}, "name": "1f4252266235551ee1cb64fe4527f1df", "is_reserved": 0}, {"is_disabled": 0, "fusion_lon": 0.0, "fusion_lat": 0.0, "lat": 38.985948666666665, "type": "electric_bike", "lon": -77.0375125, "bike_id": "be375a4562e235258e40447a2e528beb", "rental_uris": {"android": "https://dc.lft.to/lastmile_qr_scan", "ios": "https://dc.lft.to/lastmile_qr_scan"}, "name": "be375a4562e235258e40447a2e528beb", "is_reserved": 0}, {"is_disabled": 0, "fusion_lon": 0.0, "fusion_lat": 0.0, "lat": 38.898328666666664, "type": "electric_scooter", "lon": -76.94631383333333, "bike_id": "26a1b035dde3468fa6f811809eb4f23d", "rental_uris": {"android": "https://dc.lft.to/lastmile_qr_scan", "ios": "https://dc.lft.to/lastmile_qr_scan"}, "name": "26a1b035dde3468fa6f811809eb4f23d", "is_reserved": 0}, {"is_disabled": 0, "fusion_lon": 0.0, "fusion_lat": 0.0, "lat": 38.91075466666667, "type": "electric_scooter", "lon": -77.02088933333333, "bike_id": "2bd0a3cdc8860764c6e669d40ed7f907", "rental_uris": {"android": "https://dc.lft.to/lastmile_qr_scan", "ios": "https://dc.lft.to/lastmile_qr_scan"}, "name": "2bd0a3cdc8860764c6e669d40ed7f907", "is_reserved": 0}, {"is_disabled": 0, "fusion_lon": 0.0, "fusion_lat": 0.0, "lat": 38.931144, "type": "electric_scooter", "lon": -77.03026066666666, "bike_id": "b6662cd157831435b5b41768db4881d0", "rental_uris": {"android": "https://dc.lft.to/lastmile_qr_scan", "ios": "https://dc.lft.to/lastmile_qr_scan"}, "name": "b6662cd157831435b5b41768db4881d0", "is_reserved": 0}, {"is_disabled": 0, "fusion_lon": 0.0, "fusion_lat": 0.0, "lat": 38.9235875, "type": "electric_scooter", "lon": -77.05031116666666, "bike_id": "4732cbda73087dc040a79644f39e68da", "rental_uris": {"android": "https://dc.lft.to/lastmile_qr_scan", "ios": "https://dc.lft.to/lastmile_qr_scan"}, "name": "4732cbda73087dc040a79644f39e68da", "is_reserved": 0}, {"is_disabled": 0, "fusion_lon": 0.0, "fusion_lat": 0.0, "lat": 38.9236825, "type": "electric_scooter", "lon": -77.028162, "bike_id": "03f776d2de123ccc790a6851d05c3ff7", "rental_uris": {"android": "https://dc.lft.to/lastmile_qr_scan", "ios": "https://dc.lft.to/lastmile_qr_scan"}, "name": "03f776d2de123ccc790a6851d05c3ff7", "is_reserved": 0}, {"is_disabled": 0, "fusion_lon": 0.0, "fusion_lat": 0.0, "lat": 38.9349125, "type": "electric_scooter", "lon": -77.02600766666667, "bike_id": "4a3f2943b20df637b68c34b9d8458352", "rental_uris": {"android": "https://dc.lft.to/lastmile_qr_scan", "ios": "https://dc.lft.to/lastmile_qr_scan"}, "name": "4a3f2943b20df637b68c34b9d8458352", "is_reserved": 0}, {"is_disabled": 0, "fusion_lon": 0.0, "fusion_lat": 0.0, "lat": 38.906645166666664, "type": "electric_scooter", "lon": -77.04351466666667, "bike_id": "e734e558c4b086ae38a1e38de25681e1", "rental_uris": {"android": "https://dc.lft.to/lastmile_qr_scan", "ios": "https://dc.lft.to/lastmile_qr_scan"}, "name": "e734e558c4b086ae38a1e38de25681e1", "is_reserved": 0}, {"is_disabled": 0, "fusion_lon": 0.0, "fusion_lat": 0.0, "lat": 38.91277083333333, "type": "electric_scooter", "lon": -77.03852333333333, "bike_id": "8190a8ca297bf155991622d97360f140", "rental_uris": {"android": "https://dc.lft.to/lastmile_qr_scan", "ios": "https://dc.lft.to/lastmile_qr_scan"}, "name": "8190a8ca297bf155991622d97360f140", "is_reserved": 0}, {"is_disabled": 0, "fusion_lon": 0.0, "fusion_lat": 0.0, "lat": 38.887598833333335, "type": "electric_bike", "lon": -76.90086233333334, "bike_id": "d47e1c33058a8f5ae4cbf757dee23fc8", "rental_uris": {"android": "https://dc.lft.to/lastmile_qr_scan", "ios": "https://dc.lft.to/lastmile_qr_scan"}, "name": "d47e1c33058a8f5ae4cbf757dee23fc8", "is_reserved": 0}, {"is_disabled": 0, "fusion_lon": 0.0, "fusion_lat": 0.0, "lat": 38.927064666666666, "type": "electric_scooter", "lon": -77.02327983333333, "bike_id": "8f5ee576433a8de92d89698f882f321d", "rental_uris": {"android": "https://dc.lft.to/lastmile_qr_scan", "ios": "https://dc.lft.to/lastmile_qr_scan"}, "name": "8f5ee576433a8de92d89698f882f321d", "is_reserved": 0}, {"is_disabled": 0, "fusion_lon": 0.0, "fusion_lat": 0.0, "lat": 38.911943, "type": "electric_scooter", "lon": -77.031853, "bike_id": "a264906fa36bcd3178daa1ed02dc477b", "rental_uris": {"android": "https://dc.lft.to/lastmile_qr_scan", "ios": "https://dc.lft.to/lastmile_qr_scan"}, "name": "a264906fa36bcd3178daa1ed02dc477b", "is_reserved": 0}, {"is_disabled": 0, "fusion_lon": 0.0, "fusion_lat": 0.0, "lat": 38.86125766666667, "type": "electric_scooter", "lon": -76.98575216666667, "bike_id": "d0dfb43a7c8be0d48dfaf9d2ccd5bb7b", "rental_uris": {"android": "https://dc.lft.to/lastmile_qr_scan", "ios": "https://dc.lft.to/lastmile_qr_scan"}, "name": "d0dfb43a7c8be0d48dfaf9d2ccd5bb7b", "is_reserved": 0}, {"is_disabled": 0, "fusion_lon": 0.0, "fusion_lat": 0.0, "lat": 38.91189216666667, "type": "electric_scooter", "lon": -77.038364, "bike_id": "39265644230465c8d2d39deab2829b8d", "rental_uris": {"android": "https://dc.lft.to/lastmile_qr_scan", "ios": "https://dc.lft.to/lastmile_qr_scan"}, "name": "39265644230465c8d2d39deab2829b8d", "is_reserved": 0}, {"is_disabled": 0, "fusion_lon": 0.0, "fusion_lat": 0.0, "lat": 38.928372333333336, "type": "electric_scooter", "lon": -77.01406316666667, "bike_id": "5ac536108157760d8cd7602ebd0acef8", "rental_uris": {"android": "https://dc.lft.to/lastmile_qr_scan", "ios": "https://dc.lft.to/lastmile_qr_scan"}, "name": "5ac536108157760d8cd7602ebd0acef8", "is_reserved": 0}, {"is_disabled": 0, "fusion_lon": 0.0, "fusion_lat": 0.0, "lat": 38.927338, "type": "electric_scooter", "lon": -77.0224215, "bike_id": "1a6a36d63668f52af27caaee46b5d546", "rental_uris": {"android": "https://dc.lft.to/lastmile_qr_scan", "ios": "https://dc.lft.to/lastmile_qr_scan"}, "name": "1a6a36d63668f52af27caaee46b5d546", "is_reserved": 0}, {"is_disabled": 0, "fusion_lon": 0.0, "fusion_lat": 0.0, "lat": 38.90044916666667, "type": "electric_scooter", "lon": -76.92272333333334, "bike_id": "539d42246410d050eb441a4fa05bad81", "rental_uris": {"android": "https://dc.lft.to/lastmile_qr_scan", "ios": "https://dc.lft.to/lastmile_qr_scan"}, "name": "539d42246410d050eb441a4fa05bad81", "is_reserved": 0}, {"is_disabled": 0, "fusion_lon": 0.0, "fusion_lat": 0.0, "lat": 38.90012016666667, "type": "electric_scooter", "lon": -77.0120685, "bike_id": "648d86e885a475b6de3a9a448e00eb92", "rental_uris": {"android": "https://dc.lft.to/lastmile_qr_scan", "ios": "https://dc.lft.to/lastmile_qr_scan"}, "name": "648d86e885a475b6de3a9a448e00eb92", "is_reserved": 0}, {"is_disabled": 0, "fusion_lon": 0.0, "fusion_lat": 0.0, "lat": 38.893708333333336, "type": "electric_scooter", "lon": -76.94992683333334, "bike_id": "06b05a46a85b453c3a3dbd3370823553", "rental_uris": {"android": "https://dc.lft.to/lastmile_qr_scan", "ios": "https://dc.lft.to/lastmile_qr_scan"}, "name": "06b05a46a85b453c3a3dbd3370823553", "is_reserved": 0}, {"is_disabled": 0, "fusion_lon": 0.0, "fusion_lat": 0.0, "lat": 38.936289333333335, "type": "electric_scooter", "lon": -77.0246305, "bike_id": "2a9fb231adc2a5b0ec9d741d2c16e066", "rental_uris": {"android": "https://dc.lft.to/lastmile_qr_scan", "ios": "https://dc.lft.to/lastmile_qr_scan"}, "name": "2a9fb231adc2a5b0ec9d741d2c16e066", "is_reserved": 0}, {"is_disabled": 0, "fusion_lon": 0.0, "fusion_lat": 0.0, "lat": 38.91184533333333, "type": "electric_scooter", "lon": -77.03508866666667, "bike_id": "66198393d9d99e7ee89e5755046d1276", "rental_uris": {"android": "https://dc.lft.to/lastmile_qr_scan", "ios": "https://dc.lft.to/lastmile_qr_scan"}, "name": "66198393d9d99e7ee89e5755046d1276", "is_reserved": 0}, {"is_disabled": 0, "fusion_lon": 0.0, "fusion_lat": 0.0, "lat": 38.894803833333334, "type": "electric_scooter", "lon": -76.94871366666666, "bike_id": "129a1e9fc133564e0437cd472f1f1765", "rental_uris": {"android": "https://dc.lft.to/lastmile_qr_scan", "ios": "https://dc.lft.to/lastmile_qr_scan"}, "name": "129a1e9fc133564e0437cd472f1f1765", "is_reserved": 0}, {"is_disabled": 0, "fusion_lon": 0.0, "fusion_lat": 0.0, "lat": 38.89845866666667, "type": "electric_scooter", "lon": -77.02910133333333, "bike_id": "efe4bf4731d82b07427808d23a9dd6e2", "rental_uris": {"android": "https://dc.lft.to/lastmile_qr_scan", "ios": "https://dc.lft.to/lastmile_qr_scan"}, "name": "efe4bf4731d82b07427808d23a9dd6e2", "is_reserved": 0}, {"is_disabled": 0, "fusion_lon": 0.0, "fusion_lat": 0.0, "lat": 38.91112066666667, "type": "electric_scooter", "lon": -77.06521933333333, "bike_id": "6a4bf2980ce7aa9d932aba88f0cf60d7", "rental_uris": {"android": "https://dc.lft.to/lastmile_qr_scan", "ios": "https://dc.lft.to/lastmile_qr_scan"}, "name": "6a4bf2980ce7aa9d932aba88f0cf60d7", "is_reserved": 0}, {"is_disabled": 0, "fusion_lon": 0.0, "fusion_lat": 0.0, "lat": 38.899005, "type": "electric_scooter", "lon": -77.033285, "bike_id": "86da4091e2fa7678cd1a4ef776d6b365", "rental_uris": {"android": "https://dc.lft.to/lastmile_qr_scan", "ios": "https://dc.lft.to/lastmile_qr_scan"}, "name": "86da4091e2fa7678cd1a4ef776d6b365", "is_reserved": 0}, {"is_disabled": 0, "fusion_lon": 0.0, "fusion_lat": 0.0, "lat": 39.024934, "type": "electric_bike", "lon": -77.12567916666667, "bike_id": "459acc5042a9b511762b400185961f51", "rental_uris": {"android": "https://dc.lft.to/lastmile_qr_scan", "ios": "https://dc.lft.to/lastmile_qr_scan"}, "name": "459acc5042a9b511762b400185961f51", "is_reserved": 0}, {"is_disabled": 0, "fusion_lon": 0.0, "fusion_lat": 0.0, "lat": 38.9305635, "type": "electric_scooter", "lon": -77.02967016666666, "bike_id": "30e22bda4ec1ddc94ef79082ee062866", "rental_uris": {"android": "https://dc.lft.to/lastmile_qr_scan", "ios": "https://dc.lft.to/lastmile_qr_scan"}, "name": "30e22bda4ec1ddc94ef79082ee062866", "is_reserved": 0}, {"is_disabled": 0, "fusion_lon": 0.0, "fusion_lat": 0.0, "lat": 38.93076766666667, "type": "electric_scooter", "lon": -77.03629316666667, "bike_id": "f0509a9a605a5079b9c595e5ae6a5f20", "rental_uris": {"android": "https://dc.lft.to/lastmile_qr_scan", "ios": "https://dc.lft.to/lastmile_qr_scan"}, "name": "f0509a9a605a5079b9c595e5ae6a5f20", "is_reserved": 0}, {"is_disabled": 0, "fusion_lon": 0.0, "fusion_lat": 0.0, "lat": 38.94311233333333, "type": "electric_scooter", "lon": -77.061625, "bike_id": "0cba6bc75bee50c9abd17558e1376db3", "rental_uris": {"android": "https://dc.lft.to/lastmile_qr_scan", "ios": "https://dc.lft.to/lastmile_qr_scan"}, "name": "0cba6bc75bee50c9abd17558e1376db3", "is_reserved": 0}, {"is_disabled": 0, "fusion_lon": 0.0, "fusion_lat": 0.0, "lat": 38.926356166666665, "type": "electric_scooter", "lon": -77.03634, "bike_id": "0be012d456376c6d1388c90126cd4b0c", "rental_uris": {"android": "https://dc.lft.to/lastmile_qr_scan", "ios": "https://dc.lft.to/lastmile_qr_scan"}, "name": "0be012d456376c6d1388c90126cd4b0c", "is_reserved": 0}, {"is_disabled": 0, "fusion_lon": 0.0, "fusion_lat": 0.0, "lat": 38.913415, "type": "electric_scooter", "lon": -77.03186116666667, "bike_id": "f46d42fccede5495652968c1327f3aeb", "rental_uris": {"android": "https://dc.lft.to/lastmile_qr_scan", "ios": "https://dc.lft.to/lastmile_qr_scan"}, "name": "f46d42fccede5495652968c1327f3aeb", "is_reserved": 0}, {"is_disabled": 0, "fusion_lon": 0.0, "fusion_lat": 0.0, "lat": 38.91150116666667, "type": "electric_scooter", "lon": -76.98499933333333, "bike_id": "348a30ca8f810252ec531b5b7b66f241", "rental_uris": {"android": "https://dc.lft.to/lastmile_qr_scan", "ios": "https://dc.lft.to/lastmile_qr_scan"}, "name": "348a30ca8f810252ec531b5b7b66f241", "is_reserved": 0}, {"is_disabled": 0, "fusion_lon": 0.0, "fusion_lat": 0.0, "lat": 38.90535, "type": "electric_scooter", "lon": -77.029707, "bike_id": "9bdc81e28d2c1ac5a2ab0d07391779ff", "rental_uris": {"android": "https://dc.lft.to/lastmile_qr_scan", "ios": "https://dc.lft.to/lastmile_qr_scan"}, "name": "9bdc81e28d2c1ac5a2ab0d07391779ff", "is_reserved": 0}, {"is_disabled": 0, "fusion_lon": 0.0, "fusion_lat": 0.0, "lat": 38.894693833333335, "type": "electric_scooter", "lon": -76.97716833333334, "bike_id": "bcb50478e6ba863dec485450c1e0ae26", "rental_uris": {"android": "https://dc.lft.to/lastmile_qr_scan", "ios": "https://dc.lft.to/lastmile_qr_scan"}, "name": "bcb50478e6ba863dec485450c1e0ae26", "is_reserved": 0}, {"is_disabled": 0, "fusion_lon": 0.0, "fusion_lat": 0.0, "lat": 38.89478416666667, "type": "electric_scooter", "lon": -77.022876, "bike_id": "c06a641d701064c0d05a0fc8751b33f9", "rental_uris": {"android": "https://dc.lft.to/lastmile_qr_scan", "ios": "https://dc.lft.to/lastmile_qr_scan"}, "name": "c06a641d701064c0d05a0fc8751b33f9", "is_reserved": 0}, {"is_disabled": 0, "fusion_lon": 0.0, "fusion_lat": 0.0, "lat": 38.91635316666667, "type": "electric_scooter", "lon": -77.05059166666666, "bike_id": "7d334cde76cb70f6dc8541c809963d7d", "rental_uris": {"android": "https://dc.lft.to/lastmile_qr_scan", "ios": "https://dc.lft.to/lastmile_qr_scan"}, "name": "7d334cde76cb70f6dc8541c809963d7d", "is_reserved": 0}, {"is_disabled": 0, "fusion_lon": 0.0, "fusion_lat": 0.0, "lat": 38.9046615, "type": "electric_scooter", "lon": -76.99209566666667, "bike_id": "f8cd87655e0ce5c83e0499571a83dff2", "rental_uris": {"android": "https://dc.lft.to/lastmile_qr_scan", "ios": "https://dc.lft.to/lastmile_qr_scan"}, "name": "f8cd87655e0ce5c83e0499571a83dff2", "is_reserved": 0}, {"is_disabled": 0, "fusion_lon": 0.0, "fusion_lat": 0.0, "lat": 38.886021166666666, "type": "electric_bike", "lon": -77.0007575, "bike_id": "834f88f150c87f1a8e8c338ea2e7f14e", "rental_uris": {"android": "https://dc.lft.to/lastmile_qr_scan", "ios": "https://dc.lft.to/lastmile_qr_scan"}, "name": "834f88f150c87f1a8e8c338ea2e7f14e", "is_reserved": 0}, {"is_disabled": 0, "fusion_lon": 0.0, "fusion_lat": 0.0, "lat": 38.894991833333336, "type": "electric_scooter", "lon": -77.02187833333333, "bike_id": "d083642dc375bd334f99ed86a9468289", "rental_uris": {"android": "https://dc.lft.to/lastmile_qr_scan", "ios": "https://dc.lft.to/lastmile_qr_scan"}, "name": "d083642dc375bd334f99ed86a9468289", "is_reserved": 0}, {"is_disabled": 0, "fusion_lon": 0.0, "fusion_lat": 0.0, "lat": 38.94196816666667, "type": "electric_scooter", "lon": -77.024106, "bike_id": "a18339fc5b60386f4d4288fe960ba20a", "rental_uris": {"android": "https://dc.lft.to/lastmile_qr_scan", "ios": "https://dc.lft.to/lastmile_qr_scan"}, "name": "a18339fc5b60386f4d4288fe960ba20a", "is_reserved": 0}, {"is_disabled": 0, "fusion_lon": 0.0, "fusion_lat": 0.0, "lat": 38.92114616666667, "type": "electric_scooter", "lon": -77.03907633333333, "bike_id": "1e3d3bfc124d50e3fbfe261f6dcd324f", "rental_uris": {"android": "https://dc.lft.to/lastmile_qr_scan", "ios": "https://dc.lft.to/lastmile_qr_scan"}, "name": "1e3d3bfc124d50e3fbfe261f6dcd324f", "is_reserved": 0}, {"is_disabled": 0, "fusion_lon": 0.0, "fusion_lat": 0.0, "lat": 38.9062165, "type": "electric_scooter", "lon": -77.03415633333333, "bike_id": "6fab6fd5dec344ac168d8b0c37024034", "rental_uris": {"android": "https://dc.lft.to/lastmile_qr_scan", "ios": "https://dc.lft.to/lastmile_qr_scan"}, "name": "6fab6fd5dec344ac168d8b0c37024034", "is_reserved": 0}, {"is_disabled": 0, "fusion_lon": 0.0, "fusion_lat": 0.0, "lat": 38.89219383333333, "type": "electric_scooter", "lon": -77.0264495, "bike_id": "3f8afd63fec3ba4359b8615a4760e8fb", "rental_uris": {"android": "https://dc.lft.to/lastmile_qr_scan", "ios": "https://dc.lft.to/lastmile_qr_scan"}, "name": "3f8afd63fec3ba4359b8615a4760e8fb", "is_reserved": 0}, {"is_disabled": 0, "fusion_lon": 0.0, "fusion_lat": 0.0, "lat": 38.915207833333334, "type": "electric_scooter", "lon": -77.019837, "bike_id": "c985f019b5f57974dbd8e8de2851cb73", "rental_uris": {"android": "https://dc.lft.to/lastmile_qr_scan", "ios": "https://dc.lft.to/lastmile_qr_scan"}, "name": "c985f019b5f57974dbd8e8de2851cb73", "is_reserved": 0}, {"is_disabled": 0, "fusion_lon": 0.0, "fusion_lat": 0.0, "lat": 38.9056635, "type": "electric_scooter", "lon": -77.00704666666667, "bike_id": "fad7d03f8fa4c6992481930c4e617136", "rental_uris": {"android": "https://dc.lft.to/lastmile_qr_scan", "ios": "https://dc.lft.to/lastmile_qr_scan"}, "name": "fad7d03f8fa4c6992481930c4e617136", "is_reserved": 0}, {"is_disabled": 0, "fusion_lon": 0.0, "fusion_lat": 0.0, "lat": 38.90700483333333, "type": "electric_scooter", "lon": -77.0629885, "bike_id": "965da8dd3657032b2e7670563c4fcf37", "rental_uris": {"android": "https://dc.lft.to/lastmile_qr_scan", "ios": "https://dc.lft.to/lastmile_qr_scan"}, "name": "965da8dd3657032b2e7670563c4fcf37", "is_reserved": 0}, {"is_disabled": 0, "fusion_lon": 0.0, "fusion_lat": 0.0, "lat": 38.9167995, "type": "electric_scooter", "lon": -77.04140616666666, "bike_id": "dae7e71174f44cd884a3c5e4d33fcc97", "rental_uris": {"android": "https://dc.lft.to/lastmile_qr_scan", "ios": "https://dc.lft.to/lastmile_qr_scan"}, "name": "dae7e71174f44cd884a3c5e4d33fcc97", "is_reserved": 0}, {"is_disabled": 0, "fusion_lon": 0.0, "fusion_lat": 0.0, "lat": 38.91961933333333, "type": "electric_scooter", "lon": -77.0416245, "bike_id": "de819b9c3d442a9a2aceedd029322a76", "rental_uris": {"android": "https://dc.lft.to/lastmile_qr_scan", "ios": "https://dc.lft.to/lastmile_qr_scan"}, "name": "de819b9c3d442a9a2aceedd029322a76", "is_reserved": 0}, {"is_disabled": 0, "fusion_lon": 0.0, "fusion_lat": 0.0, "lat": 38.919660666666665, "type": "electric_scooter", "lon": -77.0416635, "bike_id": "e9b6ae89a9e7a13c37a02f68bb8c609d", "rental_uris": {"android": "https://dc.lft.to/lastmile_qr_scan", "ios": "https://dc.lft.to/lastmile_qr_scan"}, "name": "e9b6ae89a9e7a13c37a02f68bb8c609d", "is_reserved": 0}, {"is_disabled": 0, "fusion_lon": 0.0, "fusion_lat": 0.0, "lat": 38.9561175, "type": "electric_scooter", "lon": -77.0276265, "bike_id": "cd95dc149349d2c09f2a16466ed7afa6", "rental_uris": {"android": "https://dc.lft.to/lastmile_qr_scan", "ios": "https://dc.lft.to/lastmile_qr_scan"}, "name": "cd95dc149349d2c09f2a16466ed7afa6", "is_reserved": 0}, {"is_disabled": 0, "fusion_lon": 0.0, "fusion_lat": 0.0, "lat": 38.88910383333333, "type": "electric_scooter", "lon": -76.98009116666667, "bike_id": "fc24fc002d191209e1856ef50b9f8a5a", "rental_uris": {"android": "https://dc.lft.to/lastmile_qr_scan", "ios": "https://dc.lft.to/lastmile_qr_scan"}, "name": "fc24fc002d191209e1856ef50b9f8a5a", "is_reserved": 0}, {"is_disabled": 0, "fusion_lon": 0.0, "fusion_lat": 0.0, "lat": 38.90594, "type": "electric_scooter", "lon": -77.069171, "bike_id": "15e39bba7cf501c74ce439b3a7e19b21", "rental_uris": {"android": "https://dc.lft.to/lastmile_qr_scan", "ios": "https://dc.lft.to/lastmile_qr_scan"}, "name": "15e39bba7cf501c74ce439b3a7e19b21", "is_reserved": 0}, {"is_disabled": 0, "fusion_lon": 0.0, "fusion_lat": 0.0, "lat": 38.91707433333333, "type": "electric_scooter", "lon": -77.02617016666666, "bike_id": "135ea6ecd38580238a193d438d031c3b", "rental_uris": {"android": "https://dc.lft.to/lastmile_qr_scan", "ios": "https://dc.lft.to/lastmile_qr_scan"}, "name": "135ea6ecd38580238a193d438d031c3b", "is_reserved": 0}, {"is_disabled": 0, "fusion_lon": 0.0, "fusion_lat": 0.0, "lat": 38.924359833333334, "type": "electric_bike", "lon": -76.90756966666666, "bike_id": "1c937438d9c1ed0092f7fd2cfa99e3fc", "rental_uris": {"android": "https://dc.lft.to/lastmile_qr_scan", "ios": "https://dc.lft.to/lastmile_qr_scan"}, "name": "1c937438d9c1ed0092f7fd2cfa99e3fc", "is_reserved": 0}, {"is_disabled": 0, "fusion_lon": 0.0, "fusion_lat": 0.0, "lat": 38.9080775, "type": "electric_scooter", "lon": -77.00147866666667, "bike_id": "9b401fba5fdbea7e80b0eac0e77ec48f", "rental_uris": {"android": "https://dc.lft.to/lastmile_qr_scan", "ios": "https://dc.lft.to/lastmile_qr_scan"}, "name": "9b401fba5fdbea7e80b0eac0e77ec48f", "is_reserved": 0}, {"is_disabled": 0, "fusion_lon": 0.0, "fusion_lat": 0.0, "lat": 38.92295566666667, "type": "electric_scooter", "lon": -77.04022933333333, "bike_id": "5bce33dd00050e48d6b5dd6abb95e366", "rental_uris": {"android": "https://dc.lft.to/lastmile_qr_scan", "ios": "https://dc.lft.to/lastmile_qr_scan"}, "name": "5bce33dd00050e48d6b5dd6abb95e366", "is_reserved": 0}, {"is_disabled": 0, "fusion_lon": 0.0, "fusion_lat": 0.0, "lat": 38.9281205, "type": "electric_scooter", "lon": -77.0234555, "bike_id": "fa59ffe80f20e33ff0b17a313ac8f3b4", "rental_uris": {"android": "https://dc.lft.to/lastmile_qr_scan", "ios": "https://dc.lft.to/lastmile_qr_scan"}, "name": "fa59ffe80f20e33ff0b17a313ac8f3b4", "is_reserved": 0}, {"is_disabled": 0, "fusion_lon": 0.0, "fusion_lat": 0.0, "lat": 38.904725666666664, "type": "electric_scooter", "lon": -77.048593, "bike_id": "071525b5cf62d39d48c61c73d71f8abe", "rental_uris": {"android": "https://dc.lft.to/lastmile_qr_scan", "ios": "https://dc.lft.to/lastmile_qr_scan"}, "name": "071525b5cf62d39d48c61c73d71f8abe", "is_reserved": 0}, {"is_disabled": 0, "fusion_lon": 0.0, "fusion_lat": 0.0, "lat": 38.87672933333333, "type": "electric_bike", "lon": -77.01434066666667, "bike_id": "7dcc406ad359c60106291e0448a9625d", "rental_uris": {"android": "https://dc.lft.to/lastmile_qr_scan", "ios": "https://dc.lft.to/lastmile_qr_scan"}, "name": "7dcc406ad359c60106291e0448a9625d", "is_reserved": 0}, {"is_disabled": 0, "fusion_lon": 0.0, "fusion_lat": 0.0, "lat": 38.903619666666664, "type": "electric_scooter", "lon": -77.00748, "bike_id": "3b697dfdecd975068f0c39a8c39746ca", "rental_uris": {"android": "https://dc.lft.to/lastmile_qr_scan", "ios": "https://dc.lft.to/lastmile_qr_scan"}, "name": "3b697dfdecd975068f0c39a8c39746ca", "is_reserved": 0}, {"is_disabled": 0, "fusion_lon": 0.0, "fusion_lat": 0.0, "lat": 39.058095, "type": "electric_bike", "lon": -77.12627583333334, "bike_id": "2fb0c75f6dc1604a9743d68c067d6120", "rental_uris": {"android": "https://dc.lft.to/lastmile_qr_scan", "ios": "https://dc.lft.to/lastmile_qr_scan"}, "name": "2fb0c75f6dc1604a9743d68c067d6120", "is_reserved": 0}, {"is_disabled": 0, "fusion_lon": 0.0, "fusion_lat": 0.0, "lat": 38.94153716666667, "type": "electric_bike", "lon": -77.00187766666667, "bike_id": "3cef2ce1a1d125ea41579d579965fb86", "rental_uris": {"android": "https://dc.lft.to/lastmile_qr_scan", "ios": "https://dc.lft.to/lastmile_qr_scan"}, "name": "3cef2ce1a1d125ea41579d579965fb86", "is_reserved": 0}, {"is_disabled": 0, "fusion_lon": 0.0, "fusion_lat": 0.0, "lat": 38.89843716666667, "type": "electric_scooter", "lon": -77.02912016666667, "bike_id": "c7e6725cf3c304451b16c892542213ca", "rental_uris": {"android": "https://dc.lft.to/lastmile_qr_scan", "ios": "https://dc.lft.to/lastmile_qr_scan"}, "name": "c7e6725cf3c304451b16c892542213ca", "is_reserved": 0}, {"is_disabled": 0, "fusion_lon": 0.0, "fusion_lat": 0.0, "lat": 38.92964333333333, "type": "electric_scooter", "lon": -77.005394, "bike_id": "07c10b13efc04802c4279eeead8dabe1", "rental_uris": {"android": "https://dc.lft.to/lastmile_qr_scan", "ios": "https://dc.lft.to/lastmile_qr_scan"}, "name": "07c10b13efc04802c4279eeead8dabe1", "is_reserved": 0}, {"is_disabled": 0, "fusion_lon": 0.0, "fusion_lat": 0.0, "lat": 38.903632333333334, "type": "electric_scooter", "lon": -77.002159, "bike_id": "01f007643a5e527a27bb31e69b2362db", "rental_uris": {"android": "https://dc.lft.to/lastmile_qr_scan", "ios": "https://dc.lft.to/lastmile_qr_scan"}, "name": "01f007643a5e527a27bb31e69b2362db", "is_reserved": 0}, {"is_disabled": 0, "fusion_lon": 0.0, "fusion_lat": 0.0, "lat": 38.910974833333334, "type": "electric_scooter", "lon": -77.03181533333333, "bike_id": "cba18dab0ec7557cf3b3d971f7e9eb97", "rental_uris": {"android": "https://dc.lft.to/lastmile_qr_scan", "ios": "https://dc.lft.to/lastmile_qr_scan"}, "name": "cba18dab0ec7557cf3b3d971f7e9eb97", "is_reserved": 0}, {"is_disabled": 0, "fusion_lon": 0.0, "fusion_lat": 0.0, "lat": 38.899344, "type": "electric_scooter", "lon": -77.03898416666667, "bike_id": "a7aaa81f76f809b71e7e8ae06533d273", "rental_uris": {"android": "https://dc.lft.to/lastmile_qr_scan", "ios": "https://dc.lft.to/lastmile_qr_scan"}, "name": "a7aaa81f76f809b71e7e8ae06533d273", "is_reserved": 0}, {"is_disabled": 0, "fusion_lon": 0.0, "fusion_lat": 0.0, "lat": 38.924568, "type": "electric_scooter", "lon": -77.07856016666666, "bike_id": "c6a17203eeca1dc138ec7a89d951cbba", "rental_uris": {"android": "https://dc.lft.to/lastmile_qr_scan", "ios": "https://dc.lft.to/lastmile_qr_scan"}, "name": "c6a17203eeca1dc138ec7a89d951cbba", "is_reserved": 0}, {"is_disabled": 0, "fusion_lon": 0.0, "fusion_lat": 0.0, "lat": 38.914651, "type": "electric_scooter", "lon": -76.98448716666667, "bike_id": "5e8aba965bcbf2b6be9a78d2ed8d45a1", "rental_uris": {"android": "https://dc.lft.to/lastmile_qr_scan", "ios": "https://dc.lft.to/lastmile_qr_scan"}, "name": "5e8aba965bcbf2b6be9a78d2ed8d45a1", "is_reserved": 0}, {"is_disabled": 0, "fusion_lon": 0.0, "fusion_lat": 0.0, "lat": 38.92572533333333, "type": "electric_scooter", "lon": -77.08059816666666, "bike_id": "e7d3069dde5f84a15bcad79addc53630", "rental_uris": {"android": "https://dc.lft.to/lastmile_qr_scan", "ios": "https://dc.lft.to/lastmile_qr_scan"}, "name": "e7d3069dde5f84a15bcad79addc53630", "is_reserved": 0}, {"is_disabled": 0, "fusion_lon": 0.0, "fusion_lat": 0.0, "lat": 38.92113583333333, "type": "electric_scooter", "lon": -77.01752533333334, "bike_id": "af08a7e41f4607cd2b942e86b9a925d4", "rental_uris": {"android": "https://dc.lft.to/lastmile_qr_scan", "ios": "https://dc.lft.to/lastmile_qr_scan"}, "name": "af08a7e41f4607cd2b942e86b9a925d4", "is_reserved": 0}, {"is_disabled": 0, "fusion_lon": 0.0, "fusion_lat": 0.0, "lat": 38.87756016666667, "type": "electric_bike", "lon": -76.97995116666667, "bike_id": "2d59432312756574b997d19123ba2a39", "rental_uris": {"android": "https://dc.lft.to/lastmile_qr_scan", "ios": "https://dc.lft.to/lastmile_qr_scan"}, "name": "2d59432312756574b997d19123ba2a39", "is_reserved": 0}, {"is_disabled": 0, "fusion_lon": 0.0, "fusion_lat": 0.0, "lat": 38.895204666666665, "type": "electric_scooter", "lon": -77.048463, "bike_id": "4bc49c2205e2e3016b0ba133f102c370", "rental_uris": {"android": "https://dc.lft.to/lastmile_qr_scan", "ios": "https://dc.lft.to/lastmile_qr_scan"}, "name": "4bc49c2205e2e3016b0ba133f102c370", "is_reserved": 0}, {"is_disabled": 0, "fusion_lon": 0.0, "fusion_lat": 0.0, "lat": 38.93958966666667, "type": "electric_bike", "lon": -77.36090833333333, "bike_id": "789febbaeca523f21c387ac8a32e6033", "rental_uris": {"android": "https://dc.lft.to/lastmile_qr_scan", "ios": "https://dc.lft.to/lastmile_qr_scan"}, "name": "789febbaeca523f21c387ac8a32e6033", "is_reserved": 0}, {"is_disabled": 0, "fusion_lon": 0.0, "fusion_lat": 0.0, "lat": 38.90577716666667, "type": "electric_scooter", "lon": -77.05589066666667, "bike_id": "29de66c71b0c471c4b039c358cb3ade5", "rental_uris": {"android": "https://dc.lft.to/lastmile_qr_scan", "ios": "https://dc.lft.to/lastmile_qr_scan"}, "name": "29de66c71b0c471c4b039c358cb3ade5", "is_reserved": 0}, {"is_disabled": 0, "fusion_lon": 0.0, "fusion_lat": 0.0, "lat": 38.929752, "type": "electric_scooter", "lon": -77.02798966666667, "bike_id": "3b82caec57211a9460dd3f347c560b0c", "rental_uris": {"android": "https://dc.lft.to/lastmile_qr_scan", "ios": "https://dc.lft.to/lastmile_qr_scan"}, "name": "3b82caec57211a9460dd3f347c560b0c", "is_reserved": 0}, {"is_disabled": 0, "fusion_lon": 0.0, "fusion_lat": 0.0, "lat": 38.90946233333333, "type": "electric_scooter", "lon": -77.04873266666667, "bike_id": "ef0d598c1ed27f0d31653705367d2983", "rental_uris": {"android": "https://dc.lft.to/lastmile_qr_scan", "ios": "https://dc.lft.to/lastmile_qr_scan"}, "name": "ef0d598c1ed27f0d31653705367d2983", "is_reserved": 0}, {"is_disabled": 0, "fusion_lon": 0.0, "fusion_lat": 0.0, "lat": 38.940766333333336, "type": "electric_scooter", "lon": -77.02904283333334, "bike_id": "854d917aa455c9beb83690b8ac8084ea", "rental_uris": {"android": "https://dc.lft.to/lastmile_qr_scan", "ios": "https://dc.lft.to/lastmile_qr_scan"}, "name": "854d917aa455c9beb83690b8ac8084ea", "is_reserved": 0}, {"is_disabled": 0, "fusion_lon": 0.0, "fusion_lat": 0.0, "lat": 39.09944816666667, "type": "electric_bike", "lon": -77.18788716666667, "bike_id": "e8f3d2fb4a4f913162d667077fd6790b", "rental_uris": {"android": "https://dc.lft.to/lastmile_qr_scan", "ios": "https://dc.lft.to/lastmile_qr_scan"}, "name": "e8f3d2fb4a4f913162d667077fd6790b", "is_reserved": 0}, {"is_disabled": 0, "fusion_lon": 0.0, "fusion_lat": 0.0, "lat": 38.908192166666666, "type": "electric_scooter", "lon": -77.03335266666667, "bike_id": "f3e2eed5f2c1409fba0d3600917a2f8a", "rental_uris": {"android": "https://dc.lft.to/lastmile_qr_scan", "ios": "https://dc.lft.to/lastmile_qr_scan"}, "name": "f3e2eed5f2c1409fba0d3600917a2f8a", "is_reserved": 0}, {"is_disabled": 0, "fusion_lon": 0.0, "fusion_lat": 0.0, "lat": 38.88609183333333, "type": "electric_scooter", "lon": -76.99506266666667, "bike_id": "9f502703c07f24f6e25aa4f9e61dc7fb", "rental_uris": {"android": "https://dc.lft.to/lastmile_qr_scan", "ios": "https://dc.lft.to/lastmile_qr_scan"}, "name": "9f502703c07f24f6e25aa4f9e61dc7fb", "is_reserved": 0}, {"is_disabled": 0, "fusion_lon": 0.0, "fusion_lat": 0.0, "lat": 38.838084333333335, "type": "electric_scooter", "lon": -77.004336, "bike_id": "f32670a92f3411fc661370e60bb57462", "rental_uris": {"android": "https://dc.lft.to/lastmile_qr_scan", "ios": "https://dc.lft.to/lastmile_qr_scan"}, "name": "f32670a92f3411fc661370e60bb57462", "is_reserved": 0}, {"is_disabled": 0, "fusion_lon": 0.0, "fusion_lat": 0.0, "lat": 38.89763716666667, "type": "electric_scooter", "lon": -77.02848033333333, "bike_id": "cd78ca660650f5cf654e570b4250686b", "rental_uris": {"android": "https://dc.lft.to/lastmile_qr_scan", "ios": "https://dc.lft.to/lastmile_qr_scan"}, "name": "cd78ca660650f5cf654e570b4250686b", "is_reserved": 0}, {"is_disabled": 0, "fusion_lon": 0.0, "fusion_lat": 0.0, "lat": 38.93498916666667, "type": "electric_bike", "lon": -76.94954666666666, "bike_id": "655aba3b828ad338a1b5358121e0dbd2", "rental_uris": {"android": "https://dc.lft.to/lastmile_qr_scan", "ios": "https://dc.lft.to/lastmile_qr_scan"}, "name": "655aba3b828ad338a1b5358121e0dbd2", "is_reserved": 0},