{"data": {"bikes": [{"lat": 38.9195165, "is_disabled": 0, "type": "electric_scooter", "lon": -76.9807715, "bike_id": "dae557dacb6ff07d139691dcc462ce97", "fusion_lat": 0.0, "name": "dae557dacb6ff07d139691dcc462ce97", "is_reserved": 0, "rental_uris": {"android": "https://dc.lft.to/lastmile_qr_scan", "ios": "https://dc.lft.to/lastmile_qr_scan"}, "fusion_lon": 0.0}, {"lat": 38.902721666666665, "is_disabled": 0, "type": "electric_scooter", "lon": -77.02820016666666, "bike_id": "2ea74a87ba024dd1a22638f2e5a468bb", "fusion_lat": 0.0, "name": "2ea74a87ba024dd1a22638f2e5a468bb", "is_reserved": 0, "rental_uris": {"android": "https://dc.lft.to/lastmile_qr_scan", "ios": "https://dc.lft.to/lastmile_qr_scan"}, "fusion_lon": 0.0}, {"lat": 38.9332755, "is_disabled": 0, "type": "electric_scooter", "lon": -77.04370233333333, "bike_id": "d503ffbcc146ef38b5650ec25531727b", "fusion_lat": 0.0, "name": "d503ffbcc146ef38b5650ec25531727b", "is_reserved": 0, "rental_uris": {"android": "https://dc.lft.to/lastmile_qr_scan", "ios": "https://dc.lft.to/lastmile_qr_scan"}, "fusion_lon": 0.0}, {"lat": 38.898299333333334, "is_disabled": 0, "type": "electric_scooter", "lon": -77.0304165, "bike_id": "c58f1c7880736dae4ebe6661cfc23d6c", "fusion_lat": 0.0, "name": "c58f1c7880736dae4ebe6661cfc23d6c", "is_reserved": 0, "rental_uris": {"android": "https://dc.lft.to/lastmile_qr_scan", "ios": "https://dc.lft.to/lastmile_qr_scan"}, "fusion_lon": 0.0}, {"lat": 38.9171835, "is_disabled": 0, "type": "electric_scooter", "lon": -77.04594166666666, "bike_id": "c4a3e6d7e8cbbfd54ff8d0af1f73b78d", "fusion_lat": 0.0, "name": "c4a3e6d7e8cbbfd54ff8d0af1f73b78d", "is_reserved": 0, "rental_uris": {"android": "https://dc.lft.to/lastmile_qr_scan", "ios": "https://dc.lft.to/lastmile_qr_scan"}, "fusion_lon": 0.0}, {"lat": 38.855745166666665, "is_disabled": 0, "type": "electric_bike", "lon": -77.11140066666667, "bike_id": "d45b3cdfc6d5da1a30c5373cbc648cf2", "fusion_lat": 0.0, "name": "d45b3cdfc6d5da1a30c5373cbc648cf2", "is_reserved": 0, "rental_uris": {"android": "https://dc.lft.to/lastmile_qr_scan", "ios": "https://dc.lft.to/lastmile_qr_scan"}, "fusion_lon": 0.0}, {"lat": 38.93304, "is_disabled": 0, "type": "electric_scooter", "lon": -77.0284625, "bike_id": "27134995a232205814c5cb686ae48b6d", "fusion_lat": 0.0, "name": "27134995a232205814c5cb686ae48b6d", "is_reserved": 0, "rental_uris": {"android": "https://dc.lft.to/lastmile_qr_scan", "ios": "https://dc.lft.to/lastmile_qr_scan"}, "fusion_lon": 0.0}, {"lat": 38.927919, "is_disabled": 0, "type": "electric_scooter", "lon": -77.05533033333333, "bike_id": "220dab932de16055fba45b6fd72bd13c", "fusion_lat": 0.0, "name": "220dab932de16055fba45b6fd72bd13c", "is_reserved": 0, "rental_uris": {"android": "https://dc.lft.to/lastmile_qr_scan", "ios": "https://dc.lft.to/lastmile_qr_scan"}, "fusion_lon": 0.0}, {"lat": 38.953343333333336, "is_disabled": 0, "type": "electric_bike", "lon": -76.97364033333334, "bike_id": "d13c6c9d92c454816bb64c1dd7af8c83", "fusion_lat": 0.0, "name": "d13c6c9d92c454816bb64c1dd7af8c83", "is_reserved": 0, "rental_uris": {"android": "https://dc.lft.to/lastmile_qr_scan", "ios": "https://dc.lft.to/lastmile_qr_scan"}, "fusion_lon": 0.0}, {"lat": 38.938803166666666, "is_disabled": 0, "type": "electric_scooter", "lon": -77.02010033333333, "bike_id": "384df5678941eb79723f58d19c1b8a70", "fusion_lat": 0.0, "name": "384df5678941eb79723f58d19c1b8a70", "is_reserved": 0, "rental_uris": {"android": "https://dc.lft.to/lastmile_qr_scan", "ios": "https://dc.lft.to/lastmile_qr_scan"}, "fusion_lon": 0.0}, {"lat": 38.90298, "is_disabled": 0, "type": "electric_scooter", "lon": -77.0335775, "bike_id": "fb3a4ea2058b169feda99fad0dd469d1", "fusion_lat": 0.0, "name": "fb3a4ea2058b169feda99fad0dd469d1", "is_reserved": 0, "rental_uris": {"android": "https://dc.lft.to/lastmile_qr_scan", "ios": "https://dc.lft.to/lastmile_qr_scan"}, "fusion_lon": 0.0}, {"lat": 38.93367966666667, "is_disabled": 0, "type": "electric_scooter", "lon": -77.02377066666666, "bike_id": "5e8cbd25a345ab9c49859cbc65504bd8", "fusion_lat": 0.0, "name": "5e8cbd25a345ab9c49859cbc65504bd8", "is_reserved": 0, "rental_uris": {"android": "https://dc.lft.to/lastmile_qr_scan", "ios": "https://dc.lft.to/lastmile_qr_scan"}, "fusion_lon": 0.0}, {"lat": 38.9257975, "is_disabled": 0, "type": "electric_scooter", "lon": -77.028337, "bike_id": "d90a15dc88de39b90395a082d1ba52ac", "fusion_lat": 0.0, "name": "d90a15dc88de39b90395a082d1ba52ac", "is_reserved": 0, "rental_uris": {"android": "https://dc.lft.to/lastmile_qr_scan", "ios": "https://dc.lft.to/lastmile_qr_scan"}, "fusion_lon": 0.0}, {"lat": 39.0003225, "is_disabled": 0, "type": "electric_bike", "lon": -76.91085033333333, "bike_id": "d00a3931cdd983252cad8116402e9d96", "fusion_lat": 0.0, "name": "d00a3931cdd983252cad8116402e9d96", "is_reserved": 0, "rental_uris": {"android": "https://dc.lft.to/lastmile_qr_scan", "ios": "https://dc.lft.to/lastmile_qr_scan"}, "fusion_lon": 0.0}, {"lat": 38.8655875, "is_disabled": 0, "type": "electric_scooter", "lon": -76.97424433333333, "bike_id": "ca2c5c3820783403367010246439ba49", "fusion_lat": 0.0, "name": "ca2c5c3820783403367010246439ba49", "is_reserved": 0, "rental_uris": {"android": "https://dc.lft.to/lastmile_qr_scan", "ios": "https://dc.lft.to/lastmile_qr_scan"}, "fusion_lon": 0.0}, {"lat": 38.86392383333333, "is_disabled": 0, "type": "electric_bike", "lon": -76.98990833333333, "bike_id": "fa6f67f3a41cf46c79367d748d34e774", "fusion_lat": 0.0, "name": "fa6f67f3a41cf46c79367d748d34e774", "is_reserved": 0, "rental_uris": {"android": "https://dc.lft.to/lastmile_qr_scan", "ios": "https://dc.lft.to/lastmile_qr_scan"}, "fusion_lon": 0.0}, {"lat": 38.8532615, "is_disabled": 0, "type": "electric_bike", "lon": -76.98006566666666, "bike_id": "903859111e40f2418d0a53dab18cf99a", "fusion_lat": 0.0, "name": "903859111e40f2418d0a53dab18cf99a", "is_reserved": 0, "rental_uris": {"android": "https://dc.lft.to/lastmile_qr_scan", "ios": "https://dc.lft.to/lastmile_qr_scan"}, "fusion_lon": 0.0}, {"lat": 38.900837, "is_disabled": 0, "type": "electric_scooter", "lon": -77.04904083333334, "bike_id": "212c127d49c26f86401467661c763d7e", "fusion_lat": 0.0, "name": "212c127d49c26f86401467661c763d7e", "is_reserved": 0, "rental_uris": {"android": "https://dc.lft.to/lastmile_qr_scan", "ios": "https://dc.lft.to/lastmile_qr_scan"}, "fusion_lon": 0.0}, {"lat": 38.89231566666667, "is_disabled": 0, "type": "electric_scooter", "lon": -77.050045, "bike_id": "5049c2c55da4af83ddfaa50955c73461", "fusion_lat": 0.0, "name": "5049c2c55da4af83ddfaa50955c73461", "is_reserved": 0, "rental_uris": {"android": "https://dc.lft.to/lastmile_qr_scan", "ios": "https://dc.lft.to/lastmile_qr_scan"}, "fusion_lon": 0.0}, {"lat": 38.9171095, "is_disabled": 0, "type": "electric_scooter", "lon": -77.03863033333333, "bike_id": "6ed3784fdb1461fa30376a48c83a3472", "fusion_lat": 0.0, "name": "6ed3784fdb1461fa30376a48c83a3472", "is_reserved": 0, "rental_uris": {"android": "https://dc.lft.to/lastmile_qr_scan", "ios": "https://dc.lft.to/lastmile_qr_scan"}, "fusion_lon": 0.0}, {"lat": 38.923298333333335, "is_disabled": 0, "type": "electric_scooter", "lon": -77.02699816666667, "bike_id": "050efe40e06ad5354725052ed1e44142", "fusion_lat": 0.0, "name": "050efe40e06ad5354725052ed1e44142", "is_reserved": 0, "rental_uris": {"android": "https://dc.lft.to/lastmile_qr_scan", "ios": "https://dc.lft.to/lastmile_qr_scan"}, "fusion_lon": 0.0}, {"lat": 38.9021535, "is_disabled": 0, "type": "electric_scooter", "lon": -77.023804, "bike_id": "7e300d711a882a31845ddbe9a900b183", "fusion_lat": 0.0, "name": "7e300d711a882a31845ddbe9a900b183", "is_reserved": 0, "rental_uris": {"android": "https://dc.lft.to/lastmile_qr_scan", "ios": "https://dc.lft.to/lastmile_qr_scan"}, "fusion_lon": 0.0}, {"lat": 38.899695333333334, "is_disabled": 0, "type": "electric_scooter", "lon": -76.9265915, "bike_id": "bdf421068e60affae142feccec9bab2f", "fusion_lat": 0.0, "name": "bdf421068e60affae142feccec9bab2f", "is_reserved": 0, "rental_uris": {"android": "https://dc.lft.to/lastmile_qr_scan", "ios": "https://dc.lft.to/lastmile_qr_scan"}, "fusion_lon": 0.0}, {"lat": 38.9231675, "is_disabled": 0, "type": "electric_scooter", "lon": -77.038612, "bike_id": "f25b0c316cc899abe34ab2c5f0e879bf", "fusion_lat": 0.0, "name": "f25b0c316cc899abe34ab2c5f0e879bf", "is_reserved": 0, "rental_uris": {"android": "https://dc.lft.to/lastmile_qr_scan", "ios": "https://dc.lft.to/lastmile_qr_scan"}, "fusion_lon": 0.0}, {"lat": 38.9049505, "is_disabled": 0, "type": "electric_scooter", "lon": -77.02966283333333, "bike_id": "5fa73b042dc3b5ec7f9748e93b4fb745", "fusion_lat": 0.0, "name": "5fa73b042dc3b5ec7f9748e93b4fb745", "is_reserved": 0, "rental_uris": {"android": "https://dc.lft.to/lastmile_qr_scan", "ios": "https://dc.lft.to/lastmile_qr_scan"}, "fusion_lon": 0.0}, {"lat": 38.90724083333333, "is_disabled": 0, "type": "electric_scooter", "lon": -77.048249, "bike_id": "350b1f29eedfc3f283b4ef5740e18ec4", "fusion_lat": 0.0, "name": "350b1f29eedfc3f283b4ef5740e18ec4", "is_reserved": 0, "rental_uris": {"android": "https://dc.lft.to/lastmile_qr_scan", "ios": "https://dc.lft.to/lastmile_qr_scan"}, "fusion_lon": 0.0}, {"lat": 39.052132, "is_disabled": 0, "type": "electric_bike", "lon": -77.10908316666666, "bike_id": "21db24ff0761d5da276b5256cfc7061b", "fusion_lat": 0.0, "name": "21db24ff0761d5da276b5256cfc7061b", "is_reserved": 0, "rental_uris": {"android": "https://dc.lft.to/lastmile_qr_scan", "ios": "https://dc.lft.to/lastmile_qr_scan"}, "fusion_lon": 0.0}, {"lat": 38.900580833333336, "is_disabled": 0, "type": "electric_scooter", "lon": -77.00198483333334, "bike_id": "e1cfafecb238a2a48fec0b4bba33f5c6", "fusion_lat": 0.0, "name": "e1cfafecb238a2a48fec0b4bba33f5c6", "is_reserved": 0, "rental_uris": {"android": "https://dc.lft.to/lastmile_qr_scan", "ios": "https://dc.lft.to/lastmile_qr_scan"}, "fusion_lon": 0.0}, {"lat": 38.92025733333333, "is_disabled": 0, "type": "electric_scooter", "lon": -77.0132755, "bike_id": "4a7144535a1f46b8093d9ffab6dc0231", "fusion_lat": 0.0, "name": "4a7144535a1f46b8093d9ffab6dc0231", "is_reserved": 0, "rental_uris": {"android": "https://dc.lft.to/lastmile_qr_scan", "ios": "https://dc.lft.to/lastmile_qr_scan"}, "fusion_lon": 0.0}, {"lat": 38.90841366666667, "is_disabled": 0, "type": "electric_scooter", "lon": -77.03462483333334, "bike_id": "8cf02457d6a9aa5951819707bcfdb8aa", "fusion_lat": 0.0, "name": "8cf02457d6a9aa5951819707bcfdb8aa", "is_reserved": 0, "rental_uris": {"android": "https://dc.lft.to/lastmile_qr_scan", "ios": "https://dc.lft.to/lastmile_qr_scan"}, "fusion_lon": 0.0}, {"lat": 38.90686733333333, "is_disabled": 0, "type": "electric_scooter", "lon": -77.02930666666667, "bike_id": "3ae910ae3f14188e05a31d735589d922", "fusion_lat": 0.0, "name": "3ae910ae3f14188e05a31d735589d922", "is_reserved": 0, "rental_uris": {"android": "https://dc.lft.to/lastmile_qr_scan", "ios": "https://dc.lft.to/lastmile_qr_scan"}, "fusion_lon": 0.0}, {"lat": 38.909571166666666, "is_disabled": 0, "type": "electric_scooter", "lon": -77.02378966666667, "bike_id": "6fdd50d79ee8192b82400b1ca13c32fa", "fusion_lat": 0.0, "name": "6fdd50d79ee8192b82400b1ca13c32fa", "is_reserved": 0, "rental_uris": {"android": "https://dc.lft.to/lastmile_qr_scan", "ios": "https://dc.lft.to/lastmile_qr_scan"}, "fusion_lon": 0.0}, {"lat": 38.912042166666666, "is_disabled": 0, "type": "electric_scooter", "lon": -77.02344183333334, "bike_id": "9390096876464dbf043db7a1d12152b7", "fusion_lat": 0.0, "name": "9390096876464dbf043db7a1d12152b7", "is_reserved": 0, "rental_uris": {"android": "https://dc.lft.to/lastmile_qr_scan", "ios": "https://dc.lft.to/lastmile_qr_scan"}, "fusion_lon": 0.0}, {"lat": 38.907405833333335, "is_disabled": 0, "type": "electric_scooter", "lon": -77.0093145, "bike_id": "84a4ed95e6cb24ddc009955341c3af51", "fusion_lat": 0.0, "name": "84a4ed95e6cb24ddc009955341c3af51", "is_reserved": 0, "rental_uris": {"android": "https://dc.lft.to/lastmile_qr_scan", "ios": "https://dc.lft.to/lastmile_qr_scan"}, "fusion_lon": 0.0}, {"lat": 38.90172233333333, "is_disabled": 0, "type": "electric_scooter", "lon": -77.025008, "bike_id": "3bb4d08918dc5aca8e63aa4eb3c37a3b", "fusion_lat": 0.0, "name": "3bb4d08918dc5aca8e63aa4eb3c37a3b", "is_reserved": 0, "rental_uris": {"android": "https://dc.lft.to/lastmile_qr_scan", "ios": "https://dc.lft.to/lastmile_qr_scan"}, "fusion_lon": 0.0}, {"lat": 38.894991, "is_disabled": 0, "type": "electric_scooter", "lon": -77.0021365, "bike_id": "dafa120fc0eb1f5a30c3ac064e814d2f", "fusion_lat": 0.0, "name": "dafa120fc0eb1f5a30c3ac064e814d2f", "is_reserved": 0, "rental_uris": {"android": "https://dc.lft.to/lastmile_qr_scan", "ios": "https://dc.lft.to/lastmile_qr_scan"}, "fusion_lon": 0.0}, {"lat": 38.91255533333333, "is_disabled": 0, "type": "electric_scooter", "lon": -77.071033, "bike_id": "e606e9cd437a69e1c1710ee8c92d3e07", "fusion_lat": 0.0, "name": "e606e9cd437a69e1c1710ee8c92d3e07", "is_reserved": 0, "rental_uris": {"android": "https://dc.lft.to/lastmile_qr_scan", "ios": "https://dc.lft.to/lastmile_qr_scan"}, "fusion_lon": 0.0}, {"lat": 38.92624583333333, "is_disabled": 0, "type": "electric_scooter", "lon": -77.0418465, "bike_id": "daa7d04e80c4294ecf084518988379fa", "fusion_lat": 0.0, "name": "daa7d04e80c4294ecf084518988379fa", "is_reserved": 0, "rental_uris": {"android": "https://dc.lft.to/lastmile_qr_scan", "ios": "https://dc.lft.to/lastmile_qr_scan"}, "fusion_lon": 0.0}, {"lat": 38.93475733333333, "is_disabled": 0, "type": "electric_scooter", "lon": -77.03577466666667, "bike_id": "1742a4c8097df06fccd5a39dae533a8f", "fusion_lat": 0.0, "name": "1742a4c8097df06fccd5a39dae533a8f", "is_reserved": 0, "rental_uris": {"android": "https://dc.lft.to/lastmile_qr_scan", "ios": "https://dc.lft.to/lastmile_qr_scan"}, "fusion_lon": 0.0}, {"lat": 38.842696833333335, "is_disabled": 0, "type": "electric_bike", "lon": -76.98846333333333, "bike_id": "1b69d019eac3b3d5d4181273f91ec193", "fusion_lat": 0.0, "name": "1b69d019eac3b3d5d4181273f91ec193", "is_reserved": 0, "rental_uris": {"android": "https://dc.lft.to/lastmile_qr_scan", "ios": "https://dc.lft.to/lastmile_qr_scan"}, "fusion_lon": 0.0}, {"lat": 38.842941, "is_disabled": 0, "type": "electric_scooter", "lon": -76.99939433333333, "bike_id": "ffec2f75a561ba23222f3cf05d5270a6", "fusion_lat": 0.0, "name": "ffec2f75a561ba23222f3cf05d5270a6", "is_reserved": 0, "rental_uris": {"android": "https://dc.lft.to/lastmile_qr_scan", "ios": "https://dc.lft.to/lastmile_qr_scan"}, "fusion_lon": 0.0}, {"lat": 38.87580966666667, "is_disabled": 0, "type": "electric_bike", "lon": -77.10563483333334, "bike_id": "59b8ce07cbcc336f92f586881c096808", "fusion_lat": 0.0, "name": "59b8ce07cbcc336f92f586881c096808", "is_reserved": 0, "rental_uris": {"android": "https://dc.lft.to/lastmile_qr_scan", "ios": "https://dc.lft.to/lastmile_qr_scan"}, "fusion_lon": 0.0}, {"lat": 38.932324, "is_disabled": 0, "type": "electric_scooter", "lon": -76.99605533333333, "bike_id": "b33f8fd7e3a513ab37a65a801bea28d7", "fusion_lat": 0.0, "name": "b33f8fd7e3a513ab37a65a801bea28d7", "is_reserved": 0, "rental_uris": {"android": "https://dc.lft.to/lastmile_qr_scan", "ios": "https://dc.lft.to/lastmile_qr_scan"}, "fusion_lon": 0.0}, {"lat": 38.94292216666667, "is_disabled": 0, "type": "electric_scooter", "lon": -77.02173483333333, "bike_id": "4e4c27eb88a6d96502450b73a233f3f0", "fusion_lat": 0.0, "name": "4e4c27eb88a6d96502450b73a233f3f0", "is_reserved": 0, "rental_uris": {"android": "https://dc.lft.to/lastmile_qr_scan", "ios": "https://dc.lft.to/lastmile_qr_scan"}, "fusion_lon": 0.0}, {"lat": 38.91413433333334, "is_disabled": 0, "type": "electric_scooter", "lon": -77.03998166666666, "bike_id": "5c2e5ac5153cba9771a8c5f9c4ab0f1d", "fusion_lat": 0.0, "name": "5c2e5ac5153cba9771a8c5f9c4ab0f1d", "is_reserved": 0, "rental_uris": {"android": "https://dc.lft.to/lastmile_qr_scan", "ios": "https://dc.lft.to/lastmile_qr_scan"}, "fusion_lon": 0.0}, {"lat": 38.911918166666666, "is_disabled": 0, "type": "electric_scooter", "lon": -77.00213266666667, "bike_id": "b4dd1fd27af03a96c32cbe23974f3792", "fusion_lat": 0.0, "name": "b4dd1fd27af03a96c32cbe23974f3792", "is_reserved": 0, "rental_uris": {"android": "https://dc.lft.to/lastmile_qr_scan", "ios": "https://dc.lft.to/lastmile_qr_scan"}, "fusion_lon": 0.0}, {"lat": 38.887649, "is_disabled": 0, "type": "electric_scooter", "lon": -76.95601116666667, "bike_id": "4a2445f9e4515971d173ca0767121305", "fusion_lat": 0.0, "name": "4a2445f9e4515971d173ca0767121305", "is_reserved": 0, "rental_uris": {"android": "https://dc.lft.to/lastmile_qr_scan", "ios": "https://dc.lft.to/lastmile_qr_scan"}, "fusion_lon": 0.0}, {"lat": 38.866211, "is_disabled": 0, "type": "electric_scooter", "lon": -76.9870375, "bike_id": "cb630f70102f79e5766b860e2556a16b", "fusion_lat": 0.0, "name": "cb630f70102f79e5766b860e2556a16b", "is_reserved": 0, "rental_uris": {"android": "https://dc.lft.to/lastmile_qr_scan", "ios": "https://dc.lft.to/lastmile_qr_scan"}, "fusion_lon": 0.0}, {"lat": 38.884904, "is_disabled": 0, "type": "electric_scooter", "lon": -77.00708716666666, "bike_id": "06e25b863260c984adb7e3636f568f78", "fusion_lat": 0.0, "name": "06e25b863260c984adb7e3636f568f78", "is_reserved": 0, "rental_uris": {"android": "https://dc.lft.to/lastmile_qr_scan", "ios": "https://dc.lft.to/lastmile_qr_scan"}, "fusion_lon": 0.0}, {"lat": 38.892827833333335, "is_disabled": 0, "type": "electric_scooter", "lon": -76.95852416666666, "bike_id": "d99ec668eee77e573c3a1cefe9e7a328", "fusion_lat": 0.0, "name": "d99ec668eee77e573c3a1cefe9e7a328", "is_reserved": 0, "rental_uris": {"android": "https://dc.lft.to/lastmile_qr_scan", "ios": "https://dc.lft.to/lastmile_qr_scan"}, "fusion_lon": 0.0}, {"lat": 38.89997133333333, "is_disabled": 0, "type": "electric_scooter", "lon": -76.99954866666667, "bike_id": "5f8016e6b04b324a8f1a91a5c93842bb", "fusion_lat": 0.0, "name": "5f8016e6b04b324a8f1a91a5c93842bb", "is_reserved": 0, "rental_uris": {"android": "https://dc.lft.to/lastmile_qr_scan", "ios": "https://dc.lft.to/lastmile_qr_scan"}, "fusion_lon": 0.0}, {"lat": 38.87944266666667, "is_disabled": 0, "type": "electric_scooter", "lon": -77.00407366666667, "bike_id": "4bfd734c8474306b4702d88d2419818b", "fusion_lat": 0.0, "name": "4bfd734c8474306b4702d88d2419818b", "is_reserved": 0, "rental_uris": {"android": "https://dc.lft.to/lastmile_qr_scan", "ios": "https://dc.lft.to/lastmile_qr_scan"}, "fusion_lon": 0.0}, {"lat": 38.89262566666667, "is_disabled": 0, "type": "electric_scooter", "lon": -77.0202345, "bike_id": "0d944c4b3dc5ff65f8f04d8d46984e17", "fusion_lat": 0.0, "name": "0d944c4b3dc5ff65f8f04d8d46984e17", "is_reserved": 0, "rental_uris": {"android": "https://dc.lft.to/lastmile_qr_scan", "ios": "https://dc.lft.to/lastmile_qr_scan"}, "fusion_lon": 0.0}, {"lat": 38.924649, "is_disabled": 0, "type": "electric_scooter", "lon": -77.08034333333333, "bike_id": "07d0d8aab70e5c43602a96acd8aec4aa", "fusion_lat": 0.0, "name": "07d0d8aab70e5c43602a96acd8aec4aa", "is_reserved": 0, "rental_uris": {"android": "https://dc.lft.to/lastmile_qr_scan", "ios": "https://dc.lft.to/lastmile_qr_scan"}, "fusion_lon": 0.0}, {"lat": 38.92957416666667, "is_disabled": 0, "type": "electric_scooter", "lon": -76.99087183333333, "bike_id": "5044210acea223e160b2668efe1612c5", "fusion_lat": 0.0, "name": "5044210acea223e160b2668efe1612c5", "is_reserved": 0, "rental_uris": {"android": "https://dc.lft.to/lastmile_qr_scan", "ios": "https://dc.lft.to/lastmile_qr_scan"}, "fusion_lon": 0.0}, {"lat": 38.9151855, "is_disabled": 0, "type": "electric_scooter", "lon": -77.03842933333334, "bike_id": "65eafabbe2118f78b1540aeadb801370", "fusion_lat": 0.0, "name": "65eafabbe2118f78b1540aeadb801370", "is_reserved": 0, "rental_uris": {"android": "https://dc.lft.to/lastmile_qr_scan", "ios": "https://dc.lft.to/lastmile_qr_scan"}, "fusion_lon": 0.0}, {"lat": 38.99007266666667, "is_disabled": 0, "type": "electric_bike", "lon": -77.004391, "bike_id": "b10b3884bfb496f950968cdf9c691faf", "fusion_lat": 0.0, "name": "b10b3884bfb496f950968cdf9c691faf", "is_reserved": 0, "rental_uris": {"android": "https://dc.lft.to/lastmile_qr_scan", "ios": "https://dc.lft.to/lastmile_qr_scan"}, "fusion_lon": 0.0}, {"lat": 38.855113833333334, "is_disabled": 0, "type": "electric_bike", "lon": -77.12017283333333, "bike_id": "5b4d186965e0bc1a3a7d90a0f5b3b583", "fusion_lat": 0.0, "name": "5b4d186965e0bc1a3a7d90a0f5b3b583", "is_reserved": 0, "rental_uris": {"android": "https://dc.lft.to/lastmile_qr_scan", "ios": "https://dc.lft.to/lastmile_qr_scan"}, "fusion_lon": 0.0}, {"lat": 38.91882483333333, "is_disabled": 0, "type": "electric_scooter", "lon": -77.03496583333333, "bike_id": "2e39eb3289175082b2d84f57cd890265", "fusion_lat": 0.0, "name": "2e39eb3289175082b2d84f57cd890265", "is_reserved": 0, "rental_uris": {"android": "https://dc.lft.to/lastmile_qr_scan", "ios": "https://dc.lft.to/lastmile_qr_scan"}, "fusion_lon": 0.0}, {"lat": 38.923472833333335, "is_disabled": 0, "type": "electric_scooter", "lon": -77.03394233333333, "bike_id": "8c8c74b26b80015c6bd9fa08b1851daf", "fusion_lat": 0.0, "name": "8c8c74b26b80015c6bd9fa08b1851daf", "is_reserved": 0, "rental_uris": {"android": "https://dc.lft.to/lastmile_qr_scan", "ios": "https://dc.lft.to/lastmile_qr_scan"}, "fusion_lon": 0.0}, {"lat": 38.944385, "is_disabled": 0, "type": "electric_scooter", "lon": -77.01506983333333, "bike_id": "d61863f20281d8358527fc98ba1ef0eb", "fusion_lat": 0.0, "name": "d61863f20281d8358527fc98ba1ef0eb", "is_reserved": 0, "rental_uris": {"android": "https://dc.lft.to/lastmile_qr_scan", "ios": "https://dc.lft.to/lastmile_qr_scan"}, "fusion_lon": 0.0}, {"lat": 38.851967333333334, "is_disabled": 0, "type": "electric_bike", "lon": -76.96109916666667, "bike_id": "b269cb9a432ace96df461a5f097be1ff", "fusion_lat": 0.0, "name": "b269cb9a432ace96df461a5f097be1ff", "is_reserved": 0, "rental_uris": {"android": "https://dc.lft.to/lastmile_qr_scan", "ios": "https://dc.lft.to/lastmile_qr_scan"}, "fusion_lon": 0.0}, {"lat": 38.911130166666666, "is_disabled": 0, "type": "electric_scooter", "lon": -77.03834166666667, "bike_id": "9877a4dcbadded60dd4230962824fa1e", "fusion_lat": 0.0, "name": "9877a4dcbadded60dd4230962824fa1e", "is_reserved": 0, "rental_uris": {"android": "https://dc.lft.to/lastmile_qr_scan", "ios": "https://dc.lft.to/lastmile_qr_scan"}, "fusion_lon": 0.0}, {"lat": 38.90112583333333, "is_disabled": 0, "type": "electric_scooter", "lon": -77.02536966666666, "bike_id": "715a8fa8bb9d7a00fe134d2730377ec1", "fusion_lat": 0.0, "name": "715a8fa8bb9d7a00fe134d2730377ec1", "is_reserved": 0, "rental_uris": {"android": "https://dc.lft.to/lastmile_qr_scan", "ios": "https://dc.lft.to/lastmile_qr_scan"}, "fusion_lon": 0.0}, {"lat": 38.94390333333333, "is_disabled": 0, "type": "electric_scooter", "lon": -77.01982683333334, "bike_id": "9e40c40f7d660a3777ffe3fde77e8755", "fusion_lat": 0.0, "name": "9e40c40f7d660a3777ffe3fde77e8755", "is_reserved": 0, "rental_uris": {"android": "https://dc.lft.to/lastmile_qr_scan", "ios": "https://dc.lft.to/lastmile_qr_scan"}, "fusion_lon": 0.0}, {"lat": 38.9062565, "is_disabled": 0, "type": "electric_scooter", "lon": -76.9898745, "bike_id": "f15c8ceb4b7fe2ac0003284e802ae9c2", "fusion_lat": 0.0, "name": "f15c8ceb4b7fe2ac0003284e802ae9c2", "is_reserved": 0, "rental_uris": {"android": "https://dc.lft.to/lastmile_qr_scan", "ios": "https://dc.lft.to/lastmile_qr_scan"}, "fusion_lon": 0.0}, {"lat": 38.92752516666667, "is_disabled": 0, "type": "electric_scooter", "lon": -77.025326, "bike_id": "a81fa3f6f41025a3e7a6b8f99ca72512", "fusion_lat": 0.0, "name": "a81fa3f6f41025a3e7a6b8f99ca72512", "is_reserved": 0, "rental_uris": {"android": "https://dc.lft.to/lastmile_qr_scan", "ios": "https://dc.lft.to/lastmile_qr_scan"}, "fusion_lon": 0.0}, {"lat": 38.8913695, "is_disabled": 0, "type": "electric_scooter", "lon": -76.94385666666666, "bike_id": "ce791574c61b0fe3113bf5244b5d3e68", "fusion_lat": 0.0, "name": "ce791574c61b0fe3113bf5244b5d3e68", "is_reserved": 0, "rental_uris": {"android": "https://dc.lft.to/lastmile_qr_scan", "ios": "https://dc.lft.to/lastmile_qr_scan"}, "fusion_lon": 0.0}, {"lat": 38.895328666666664, "is_disabled": 0, "type": "electric_scooter", "lon": -77.02822016666667, "bike_id": "b040e7e5f7711b0b226cb97111b5ba8a", "fusion_lat": 0.0, "name": "b040e7e5f7711b0b226cb97111b5ba8a", "is_reserved": 0, "rental_uris": {"android": "https://dc.lft.to/lastmile_qr_scan", "ios": "https://dc.lft.to/lastmile_qr_scan"}, "fusion_lon": 0.0}, {"lat": 38.859056833333334, "is_disabled": 0, "type": "electric_scooter", "lon": -76.9915045, "bike_id": "0bc7e7c2cd8015dd2df9e82c0960aab9", "fusion_lat": 0.0, "name": "0bc7e7c2cd8015dd2df9e82c0960aab9", "is_reserved": 0, "rental_uris": {"android": "https://dc.lft.to/lastmile_qr_scan", "ios": "https://dc.lft.to/lastmile_qr_scan"}, "fusion_lon": 0.0}, {"lat": 38.91103783333333, "is_disabled": 0, "type": "electric_scooter", "lon": -77.04227216666666, "bike_id": "65f475c24537c55cfa2cc9217fc048d7", "fusion_lat": 0.0, "name": "65f475c24537c55cfa2cc9217fc048d7", "is_reserved": 0, "rental_uris": {"android": "https://dc.lft.to/lastmile_qr_scan", "ios": "https://dc.lft.to/lastmile_qr_scan"}, "fusion_lon": 0.0}, {"lat": 38.90972633333333, "is_disabled": 0, "type": "electric_scooter", "lon": -77.03871616666666, "bike_id": "1793f283bfec97980a24121d48de2a8d", "fusion_lat": 0.0, "name": "1793f283bfec97980a24121d48de2a8d", "is_reserved": 0, "rental_uris": {"android": "https://dc.lft.to/lastmile_qr_scan", "ios": "https://dc.lft.to/lastmile_qr_scan"}, "fusion_lon": 0.0}, {"lat": 38.94739116666667, "is_disabled": 0, "type": "electric_scooter", "lon": -77.06527483333333, "bike_id": "b1f9be1101865c2083ca8ffcc28749fe", "fusion_lat": 0.0, "name": "b1f9be1101865c2083ca8ffcc28749fe", "is_reserved": 0, "rental_uris": {"android": "https://dc.lft.to/lastmile_qr_scan", "ios": "https://dc.lft.to/lastmile_qr_scan"}, "fusion_lon": 0.0}, {"lat": 38.86651716666667, "is_disabled": 0, "type": "electric_scooter", "lon": -76.988879, "bike_id": "bccbe4c1d20da0dadfd98032d8e13c8f", "fusion_lat": 0.0, "name": "bccbe4c1d20da0dadfd98032d8e13c8f", "is_reserved": 0, "rental_uris": {"android": "https://dc.lft.to/lastmile_qr_scan", "ios": "https://dc.lft.to/lastmile_qr_scan"}, "fusion_lon": 0.0}, {"lat": 38.900462833333336, "is_disabled": 0, "type": "electric_scooter", "lon": -76.99748366666667, "bike_id": "cc51167eee22ca46d552eea6a10596e7", "fusion_lat": 0.0, "name": "cc51167eee22ca46d552eea6a10596e7", "is_reserved": 0, "rental_uris": {"android": "https://dc.lft.to/lastmile_qr_scan", "ios": "https://dc.lft.to/lastmile_qr_scan"}, "fusion_lon": 0.0}, {"lat": 38.89906033333333, "is_disabled": 0, "type": "electric_scooter", "lon": -76.933673, "bike_id": "b33141760896f7477794e588d747d285", "fusion_lat": 0.0, "name": "b33141760896f7477794e588d747d285", "is_reserved": 0, "rental_uris": {"android": "https://dc.lft.to/lastmile_qr_scan", "ios": "https://dc.lft.to/lastmile_qr_scan"}, "fusion_lon": 0.0}, {"lat": 38.9306305, "is_disabled": 0, "type": "electric_scooter", "lon": -77.04176833333334, "bike_id": "9c2928fa29c616cedf18445199b848ac", "fusion_lat": 0.0, "name": "9c2928fa29c616cedf18445199b848ac", "is_reserved": 0, "rental_uris": {"android": "https://dc.lft.to/lastmile_qr_scan", "ios": "https://dc.lft.to/lastmile_qr_scan"}, "fusion_lon": 0.0}, {"lat": 38.919764666666666, "is_disabled": 0, "type": "electric_scooter", "lon": -77.04292516666666, "bike_id": "757c81c8312d96c61294e05a14374f89", "fusion_lat": 0.0, "name": "757c81c8312d96c61294e05a14374f89", "is_reserved": 0, "rental_uris": {"android": "https://dc.lft.to/lastmile_qr_scan", "ios": "https://dc.lft.to/lastmile_qr_scan"}, "fusion_lon": 0.0}, {"lat": 38.9085985, "is_disabled": 0, "type": "electric_scooter", "lon": -76.991665, "bike_id": "5731c8f191a0ba97c3c9f12c02ed3760", "fusion_lat": 0.0, "name": "5731c8f191a0ba97c3c9f12c02ed3760", "is_reserved": 0, "rental_uris": {"android": "https://dc.lft.to/lastmile_qr_scan", "ios": "https://dc.lft.to/lastmile_qr_scan"}, "fusion_lon": 0.0}, {"lat": 38.90042616666667, "is_disabled": 0, "type": "electric_scooter", "lon": -76.99381733333334, "bike_id": "574b6a07a02e056f0a4f988bccd1f1c6", "fusion_lat": 0.0, "name": "574b6a07a02e056f0a4f988bccd1f1c6", "is_reserved": 0, "rental_uris": {"android": "https://dc.lft.to/lastmile_qr_scan", "ios": "https://dc.lft.to/lastmile_qr_scan"}, "fusion_lon": 0.0}, {"lat": 38.93957833333333, "is_disabled": 0, "type": "electric_bike", "lon": -77.36096733333333, "bike_id": "604ee5da56f1e08569a9a8832f465dcd", "fusion_lat": 0.0, "name": "604ee5da56f1e08569a9a8832f465dcd", "is_reserved": 0, "rental_uris": {"android": "https://dc.lft.to/lastmile_qr_scan", "ios": "https://dc.lft.to/lastmile_qr_scan"}, "fusion_lon": 0.0}, {"lat": 38.8849495, "is_disabled": 0, "type": "electric_scooter", "lon": -77.00727183333333, "bike_id": "64c37bb8b19a465bb991c8a2019c7c05", "fusion_lat": 0.0, "name": "64c37bb8b19a465bb991c8a2019c7c05", "is_reserved": 0, "rental_uris": {"android": "https://dc.lft.to/lastmile_qr_scan", "ios": "https://dc.lft.to/lastmile_qr_scan"}, "fusion_lon": 0.0}, {"lat": 38.95288083333333, "is_disabled": 0, "type": "electric_bike", "lon": -76.94597316666666, "bike_id": "f9dad659e2b40c05f5aebc212971cc94", "fusion_lat": 0.0, "name": "f9dad659e2b40c05f5aebc212971cc94", "is_reserved": 0, "rental_uris": {"android": "https://dc.lft.to/lastmile_qr_scan", "ios": "https://dc.lft.to/lastmile_qr_scan"}, "fusion_lon": 0.0}, {"lat": 38.922697166666666, "is_disabled": 0, "type": "electric_scooter", "lon": -77.04145466666667, "bike_id": "80ed6fb74f7fc5f2262e5632661e6de3", "fusion_lat": 0.0, "name": "80ed6fb74f7fc5f2262e5632661e6de3", "is_reserved": 0, "rental_uris": {"android": "https://dc.lft.to/lastmile_qr_scan", "ios": "https://dc.lft.to/lastmile_qr_scan"}, "fusion_lon": 0.0}, {"lat": 38.91702316666667, "is_disabled": 0, "type": "electric_scooter", "lon": -77.0011755, "bike_id": "b96aef16cf62f982b408463766303054", "fusion_lat": 0.0, "name": "b96aef16cf62f982b408463766303054", "is_reserved": 0, "rental_uris": {"android": "https://dc.lft.to/lastmile_qr_scan", "ios": "https://dc.lft.to/lastmile_qr_scan"}, "fusion_lon": 0.0}, {"lat": 38.89558683333333, "is_disabled": 0, "type": "electric_scooter", "lon": -76.93081666666667, "bike_id": "dc3da51b50392c6ede47a2df96a08827", "fusion_lat": 0.0, "name": "dc3da51b50392c6ede47a2df96a08827", "is_reserved": 0, "rental_uris": {"android": "https://dc.lft.to/lastmile_qr_scan", "ios": "https://dc.lft.to/lastmile_qr_scan"}, "fusion_lon": 0.0}, {"lat": 38.90265866666667, "is_disabled": 0, "type": "electric_scooter", "lon": -77.00327433333334, "bike_id": "d76793eec10c40bf3ba2b8d0b5a57657", "fusion_lat": 0.0, "name": "d76793eec10c40bf3ba2b8d0b5a57657", "is_reserved": 0, "rental_uris": {"android": "https://dc.lft.to/lastmile_qr_scan", "ios": "https://dc.lft.to/lastmile_qr_scan"}, "fusion_lon": 0.0}, {"lat": 38.9565075, "is_disabled": 0, "type": "electric_bike", "lon": -77.02257733333333, "bike_id": "6a946fa0911a3481a49bc2a59715c80d", "fusion_lat": 0.0, "name": "6a946fa0911a3481a49bc2a59715c80d", "is_reserved": 0, "rental_uris": {"android": "https://dc.lft.to/lastmile_qr_scan", "ios": "https://dc.lft.to/lastmile_qr_scan"}, "fusion_lon": 0.0}, {"lat": 38.92822533333333, "is_disabled": 0, "type": "electric_scooter", "lon": -77.02630483333333, "bike_id": "9f299d57cabdb4e2a4ccc559f98a6c46", "fusion_lat": 0.0, "name": "9f299d57cabdb4e2a4ccc559f98a6c46", "is_reserved": 0, "rental_uris": {"android": "https://dc.lft.to/lastmile_qr_scan", "ios": "https://dc.lft.to/lastmile_qr_scan"}, "fusion_lon": 0.0}, {"lat": 38.919298833333336, "is_disabled": 0, "type": "electric_scooter", "lon": -77.03179933333334, "bike_id": "e084eee39473e6d25f843f11618cdb3d", "fusion_lat": 0.0, "name": "e084eee39473e6d25f843f11618cdb3d", "is_reserved": 0, "rental_uris": {"android": "https://dc.lft.to/lastmile_qr_scan", "ios": "https://dc.lft.to/lastmile_qr_scan"}, "fusion_lon": 0.0}, {"lat": 38.902836666666666, "is_disabled": 0, "type": "electric_scooter", "lon": -77.03856683333333, "bike_id": "d1a94848f231069380926c3efbe5568e", "fusion_lat": 0.0, "name": "d1a94848f231069380926c3efbe5568e", "is_reserved": 0, "rental_uris": {"android": "https://dc.lft.to/lastmile_qr_scan", "ios": "https://dc.lft.to/lastmile_qr_scan"}, "fusion_lon": 0.0}, {"lat": 38.90815716666667, "is_disabled": 0, "type": "electric_scooter", "lon": -77.04346233333334, "bike_id": "ad9ac7c6080112a49cb9391085bbdbac", "fusion_lat": 0.0, "name": "ad9ac7c6080112a49cb9391085bbdbac", "is_reserved": 0, "rental_uris": {"android": "https://dc.lft.to/lastmile_qr_scan", "ios": "https://dc.lft.to/lastmile_qr_scan"}, "fusion_lon": 0.0}, {"lat": 38.90137516666667, "is_disabled": 0, "type": "electric_scooter", "lon": -77.0333825, "bike_id": "ccabe7ea3ed2ac17c3bb005fd0237b52", "fusion_lat": 0.0, "name": "ccabe7ea3ed2ac17c3bb005fd0237b52", "is_reserved": 0, "rental_uris": {"android": "https://dc.lft.to/lastmile_qr_scan", "ios": "https://dc.lft.to/lastmile_qr_scan"}, "fusion_lon": 0.0}, {"lat": 38.91692833333333, "is_disabled": 0, "type": "electric_scooter", "lon": -77.0459605, "bike_id": "afceb267e7ff37a1289364c5d7f97584", "fusion_lat": 0.0, "name": "afceb267e7ff37a1289364c5d7f97584", "is_reserved": 0, "rental_uris": {"android": "https://dc.lft.to/lastmile_qr_scan", "ios": "https://dc.lft.to/lastmile_qr_scan"}, "fusion_lon": 0.0}, {"lat": 38.923014, "is_disabled": 0, "type": "electric_scooter", "lon": -77.0233115, "bike_id": "d89a072389e4a0ef3b752ceb5f524e88", "fusion_lat": 0.0, "name": "d89a072389e4a0ef3b752ceb5f524e88", "is_reserved": 0, "rental_uris": {"android": "https://dc.lft.to/lastmile_qr_scan", "ios": "https://dc.lft.to/lastmile_qr_scan"}, "fusion_lon": 0.0}, {"lat": 38.90110416666667, "is_disabled": 0, "type": "electric_scooter", "lon": -77.05900716666666, "bike_id": "08b41760fd4c5134ae0560907cabdeb9", "fusion_lat": 0.0, "name": "08b41760fd4c5134ae0560907cabdeb9", "is_reserved": 0, "rental_uris": {"android": "https://dc.lft.to/lastmile_qr_scan", "ios": "https://dc.lft.to/lastmile_qr_scan"}, "fusion_lon": 0.0}, {"lat": 38.939788, "is_disabled": 0, "type": "electric_scooter", "lon": -77.02630616666667, "bike_id": "f9b00f973562e3df674936207c15f4d5", "fusion_lat": 0.0, "name": "f9b00f973562e3df674936207c15f4d5", "is_reserved": 0, "rental_uris": {"android": "https://dc.lft.to/lastmile_qr_scan", "ios": "https://dc.lft.to/lastmile_qr_scan"}, "fusion_lon": 0.0}, {"lat": 38.90739833333333, "is_disabled": 0, "type": "electric_scooter", "lon": -77.02949816666667, "bike_id": "a9ab59bb03a54f0576ea112706d14a68", "fusion_lat": 0.0, "name": "a9ab59bb03a54f0576ea112706d14a68", "is_reserved": 0, "rental_uris": {"android": "https://dc.lft.to/lastmile_qr_scan", "ios": "https://dc.lft.to/lastmile_qr_scan"}, "fusion_lon": 0.0}, {"lat": 38.899314, "is_disabled": 0, "type": "electric_scooter", "lon": -77.07230383333334, "bike_id": "79d2d133ef8aa303a544b8a67d4ec0e5", "fusion_lat": 0.0, "name": "79d2d133ef8aa303a544b8a67d4ec0e5", "is_reserved": 0, "rental_uris": {"android": "https://dc.lft.to/lastmile_qr_scan", "ios": "https://dc.lft.to/lastmile_qr_scan"}, "fusion_lon": 0.0}, {"lat": 38.93294483333333, "is_disabled": 0, "type": "electric_scooter", "lon": -77.02194066666667, "bike_id": "e0a1ab5819cb28b054e95d46e34875c4", "fusion_lat": 0.0, "name": "e0a1ab5819cb28b054e95d46e34875c4", "is_reserved": 0, "rental_uris": {"android": "https://dc.lft.to/lastmile_qr_scan", "ios": "https://dc.lft.to/lastmile_qr_scan"}, "fusion_lon": 0.0}, {"lat": 38.872913833333335, "is_disabled": 0, "type": "electric_scooter", "lon": -77.00929333333333, "bike_id": "20893e82eac242ce1ae1d483e5497dff", "fusion_lat": 0.0, "name": "20893e82eac242ce1ae1d483e5497dff", "is_reserved": 0, "rental_uris": {"android": "https://dc.lft.to/lastmile_qr_scan", "ios": "https://dc.lft.to/lastmile_qr_scan"}, "fusion_lon": 0.0}, {"lat": 38.91250566666667, "is_disabled": 0, "type": "electric_scooter", "lon": -77.04665683333333, "bike_id": "0122c58c9dd65b31d31aea2e49f08837", "fusion_lat": 0.0, "name": "0122c58c9dd65b31d31aea2e49f08837", "is_reserved": 0, "rental_uris": {"android": "https://dc.lft.to/lastmile_qr_scan", "ios": "https://dc.lft.to/lastmile_qr_scan"}, "fusion_lon": 0.0}, {"lat": 38.90340466666667, "is_disabled": 0, "type": "electric_scooter", "lon": -77.04476033333333, "bike_id": "69a33f9d4ac6be744cec2ab30c412d7b", "fusion_lat": 0.0, "name": "69a33f9d4ac6be744cec2ab30c412d7b", "is_reserved": 0, "rental_uris": {"android": "https://dc.lft.to/lastmile_qr_scan", "ios": "https://dc.lft.to/lastmile_qr_scan"}, "fusion_lon": 0.0}, {"lat": 38.914791666666666, "is_disabled": 0, "type": "electric_scooter", "lon": -77.01377666666667, "bike_id": "deb2ee887a4c86188072cae155d4beb5", "fusion_lat": 0.0, "name": "deb2ee887a4c86188072cae155d4beb5", "is_reserved": 0, "rental_uris": {"android": "https://dc.lft.to/lastmile_qr_scan", "ios": "https://dc.lft.to/lastmile_qr_scan"}, "fusion_lon": 0.0}, {"lat": 38.911029, "is_disabled": 0, "type": "electric_scooter", "lon": -77.04820616666667, "bike_id": "99684c251984322d3d4741f67e009553", "fusion_lat": 0.0, "name": "99684c251984322d3d4741f67e009553", "is_reserved": 0, "rental_uris": {"android": "https://dc.lft.to/lastmile_qr_scan", "ios": "https://dc.lft.to/lastmile_qr_scan"}, "fusion_lon": 0.0}, {"lat": 38.81352966666667, "is_disabled": 0, "type": "electric_bike", "lon": -77.04931883333333, "bike_id": "e71554bb115b7ef640b3a23f5545c3c0", "fusion_lat": 0.0, "name": "e71554bb115b7ef640b3a23f5545c3c0", "is_reserved": 0, "rental_uris": {"android": "https://dc.lft.to/lastmile_qr_scan", "ios": "https://dc.lft.to/lastmile_qr_scan"}, "fusion_lon": 0.0}, {"lat": 38.9203105, "is_disabled": 0, "type": "electric_scooter", "lon": -77.04188116666667, "bike_id": "fba2dddbbc8f5f31d4906fedd1896dee", "fusion_lat": 0.0, "name": "fba2dddbbc8f5f31d4906fedd1896dee", "is_reserved": 0, "rental_uris": {"android": "https://dc.lft.to/lastmile_qr_scan", "ios": "https://dc.lft.to/lastmile_qr_scan"}, "fusion_lon": 0.0}, {"lat": 38.8901335, "is_disabled": 0, "type": "electric_scooter", "lon": -77.00046783333333, "bike_id": "b275e55b22a9a13594d4ff09775cbcf3", "fusion_lat": 0.0, "name": "b275e55b22a9a13594d4ff09775cbcf3", "is_reserved": 0, "rental_uris": {"android": "https://dc.lft.to/lastmile_qr_scan", "ios": "https://dc.lft.to/lastmile_qr_scan"}, "fusion_lon": 0.0}, {"lat": 38.902814166666666, "is_disabled": 0, "type": "electric_scooter", "lon": -77.036426, "bike_id": "ea45880633cd6ec4fe4b3813742eab5c", "fusion_lat": 0.0, "name": "ea45880633cd6ec4fe4b3813742eab5c", "is_reserved": 0, "rental_uris": {"android": "https://dc.lft.to/lastmile_qr_scan", "ios": "https://dc.lft.to/lastmile_qr_scan"}, "fusion_lon": 0.0}, {"lat": 38.93697016666667, "is_disabled": 0, "type": "electric_scooter", "lon": -77.0326605, "bike_id": "43b67498ebbb7b88cd869e4a636562df", "fusion_lat": 0.0, "name": "43b67498ebbb7b88cd869e4a636562df", "is_reserved": 0, "rental_uris": {"android": "https://dc.lft.to/lastmile_qr_scan", "ios": "https://dc.lft.to/lastmile_qr_scan"}, "fusion_lon": 0.0}, {"lat": 38.89760483333333, "is_disabled": 0, "type": "electric_scooter", "lon": -76.94183616666666, "bike_id": "4bbe23650199aa1f71d6751a93194a15", "fusion_lat": 0.0, "name": "4bbe23650199aa1f71d6751a93194a15", "is_reserved": 0, "rental_uris": {"android": "https://dc.lft.to/lastmile_qr_scan", "ios": "https://dc.lft.to/lastmile_qr_scan"}, "fusion_lon": 0.0}, {"lat": 38.90537366666667, "is_disabled": 0, "type": "electric_scooter", "lon": -77.05683483333334, "bike_id": "ec100c56b63a20790456f5718512f858", "fusion_lat": 0.0, "name": "ec100c56b63a20790456f5718512f858", "is_reserved": 0, "rental_uris": {"android": "https://dc.lft.to/lastmile_qr_scan", "ios": "https://dc.lft.to/lastmile_qr_scan"}, "fusion_lon": 0.0}, {"lat": 38.855117666666665, "is_disabled": 0, "type": "electric_bike", "lon": -76.98410183333333, "bike_id": "e498e48108e8fc6d9a02b432e0b032af", "fusion_lat": 0.0, "name": "e498e48108e8fc6d9a02b432e0b032af", "is_reserved": 0, "rental_uris": {"android": "https://dc.lft.to/lastmile_qr_scan", "ios": "https://dc.lft.to/lastmile_qr_scan"}, "fusion_lon": 0.0}, {"lat": 38.90189566666667, "is_disabled": 0, "type": "electric_scooter", "lon": -77.01899433333334, "bike_id": "1dfdcf766c9b33fff3e1faad0da81eed", "fusion_lat": 0.0, "name": "1dfdcf766c9b33fff3e1faad0da81eed", "is_reserved": 0, "rental_uris": {"android": "https://dc.lft.to/lastmile_qr_scan", "ios": "https://dc.lft.to/lastmile_qr_scan"}, "fusion_lon": 0.0}, {"lat": 38.92386716666667, "is_disabled": 0, "type": "electric_scooter", "lon": -77.03052066666666, "bike_id": "b793d66618224767eb5df5519f894b05", "fusion_lat": 0.0, "name": "b793d66618224767eb5df5519f894b05", "is_reserved": 0, "rental_uris": {"android": "https://dc.lft.to/lastmile_qr_scan", "ios": "https://dc.lft.to/lastmile_qr_scan"}, "fusion_lon": 0.0}, {"lat": 38.93342116666667, "is_disabled": 0, "type": "electric_scooter", "lon": -76.99311083333333, "bike_id": "7340fd891b5ca653e2556a561c2ee7af", "fusion_lat": 0.0, "name": "7340fd891b5ca653e2556a561c2ee7af", "is_reserved": 0, "rental_uris": {"android": "https://dc.lft.to/lastmile_qr_scan", "ios": "https://dc.lft.to/lastmile_qr_scan"}, "fusion_lon": 0.0}, {"lat": 38.931425, "is_disabled": 0, "type": "electric_scooter", "lon": -77.02140533333333, "bike_id": "73535fd6ba38cd7b6822936b4960b843", "fusion_lat": 0.0, "name": "73535fd6ba38cd7b6822936b4960b843", "is_reserved": 0, "rental_uris": {"android": "https://dc.lft.to/lastmile_qr_scan", "ios": "https://dc.lft.to/lastmile_qr_scan"}, "fusion_lon": 0.0}, {"lat": 38.900134333333334, "is_disabled": 0, "type": "electric_scooter", "lon": -76.92238683333333, "bike_id": "2575c8f80308df277d12b0ecb8868bf8", "fusion_lat": 0.0, "name": "2575c8f80308df277d12b0ecb8868bf8", "is_reserved": 0, "rental_uris": {"android": "https://dc.lft.to/lastmile_qr_scan", "ios": "https://dc.lft.to/lastmile_qr_scan"}, "fusion_lon": 0.0}, {"lat": 38.9004645, "is_disabled": 0, "type": "electric_scooter", "lon": -77.0258355, "bike_id": "b38b88d1a67fabb77db2330893272ccc", "fusion_lat": 0.0, "name": "b38b88d1a67fabb77db2330893272ccc", "is_reserved": 0, "rental_uris": {"android": "https://dc.lft.to/lastmile_qr_scan", "ios": "https://dc.lft.to/lastmile_qr_scan"}, "fusion_lon": 0.0}, {"lat": 38.927546666666665, "is_disabled": 0, "type": "electric_scooter", "lon": -77.0296485, "bike_id": "7d36878badabfa865161368225523d45", "fusion_lat": 0.0, "name": "7d36878badabfa865161368225523d45", "is_reserved": 0, "rental_uris": {"android": "https://dc.lft.to/lastmile_qr_scan", "ios": "https://dc.lft.to/lastmile_qr_scan"}, "fusion_lon": 0.0}, {"lat": 38.915575833333335, "is_disabled": 0, "type": "electric_scooter", "lon": -77.02425133333334, "bike_id": "354e46534e1a10e8b60441ed439a03fa", "fusion_lat": 0.0, "name": "354e46534e1a10e8b60441ed439a03fa", "is_reserved": 0, "rental_uris": {"android": "https://dc.lft.to/lastmile_qr_scan", "ios": "https://dc.lft.to/lastmile_qr_scan"}, "fusion_lon": 0.0}, {"lat": 38.914463166666664, "is_disabled": 0, "type": "electric_scooter", "lon": -77.0297345, "bike_id": "51229312dc0eab979d2a90c7b334f7e6", "fusion_lat": 0.0, "name": "51229312dc0eab979d2a90c7b334f7e6", "is_reserved": 0, "rental_uris": {"android": "https://dc.lft.to/lastmile_qr_scan", "ios": "https://dc.lft.to/lastmile_qr_scan"}, "fusion_lon": 0.0}, {"lat": 38.88494883333333, "is_disabled": 0, "type": "electric_scooter", "lon": -77.0072765, "bike_id": "aef16e324c770348fded02a858d4812d", "fusion_lat": 0.0, "name": "aef16e324c770348fded02a858d4812d", "is_reserved": 0, "rental_uris": {"android": "https://dc.lft.to/lastmile_qr_scan", "ios": "https://dc.lft.to/lastmile_qr_scan"}, "fusion_lon": 0.0}, {"lat": 38.93962883333333, "is_disabled": 0, "type": "electric_scooter", "lon": -77.0275355, "bike_id": "23629cad626f0bcbce17e2398be373ff", "fusion_lat": 0.0, "name": "23629cad626f0bcbce17e2398be373ff", "is_reserved": 0, "rental_uris": {"android": "https://dc.lft.to/lastmile_qr_scan", "ios": "https://dc.lft.to/lastmile_qr_scan"}, "fusion_lon": 0.0}, {"lat": 38.901093, "is_disabled": 0, "type": "electric_scooter", "lon": -76.98639466666667, "bike_id": "bbe33b327f78a003877e07198fcfa5dc", "fusion_lat": 0.0, "name": "bbe33b327f78a003877e07198fcfa5dc", "is_reserved": 0, "rental_uris": {"android": "https://dc.lft.to/lastmile_qr_scan", "ios": "https://dc.lft.to/lastmile_qr_scan"}, "fusion_lon": 0.0}, {"lat": 38.9223575, "is_disabled": 0, "type": "electric_scooter", "lon": -77.045686, "bike_id": "ac9db2b01672a17bb170cd6c76f04bd2", "fusion_lat": 0.0, "name": "ac9db2b01672a17bb170cd6c76f04bd2", "is_reserved": 0, "rental_uris": {"android": "https://dc.lft.to/lastmile_qr_scan", "ios": "https://dc.lft.to/lastmile_qr_scan"}, "fusion_lon": 0.0}, {"lat": 38.903306666666666, "is_disabled": 0, "type": "electric_scooter", "lon": -77.03758516666667, "bike_id": "db875f48edf9262f2961b9a8b6846cc0", "fusion_lat": 0.0, "name": "db875f48edf9262f2961b9a8b6846cc0", "is_reserved": 0, "rental_uris": {"android": "https://dc.lft.to/lastmile_qr_scan", "ios": "https://dc.lft.to/lastmile_qr_scan"}, "fusion_lon": 0.0}, {"lat": 38.9722525, "is_disabled": 0, "type": "electric_bike", "lon": -76.99347516666667, "bike_id": "bb2ad901d1575f59ccc561d807a1e02c", "fusion_lat": 0.0, "name": "bb2ad901d1575f59ccc561d807a1e02c", "is_reserved": 0, "rental_uris": {"android": "https://dc.lft.to/lastmile_qr_scan", "ios": "https://dc.lft.to/lastmile_qr_scan"}, "fusion_lon": 0.0}, {"lat": 38.949, "is_disabled": 0, "type": "electric_scooter", "lon": -77.03044733333333, "bike_id": "b1fe95848702e408b9e802a9a81992b6", "fusion_lat": 0.0, "name": "b1fe95848702e408b9e802a9a81992b6", "is_reserved": 0, "rental_uris": {"android": "https://dc.lft.to/lastmile_qr_scan", "ios": "https://dc.lft.to/lastmile_qr_scan"}, "fusion_lon": 0.0}, {"lat": 38.933210333333335, "is_disabled": 0, "type": "electric_scooter", "lon": -77.04527216666666, "bike_id": "d9de4a6a130fa29a3d35671ac83b219e", "fusion_lat": 0.0, "name": "d9de4a6a130fa29a3d35671ac83b219e", "is_reserved": 0, "rental_uris": {"android": "https://dc.lft.to/lastmile_qr_scan", "ios": "https://dc.lft.to/lastmile_qr_scan"}, "fusion_lon": 0.0}, {"lat": 38.89227983333333, "is_disabled": 0, "type": "electric_scooter", "lon": -77.0209855, "bike_id": "1a2afe7e055d9c3c642039de270434f2", "fusion_lat": 0.0, "name": "1a2afe7e055d9c3c642039de270434f2", "is_reserved": 0, "rental_uris": {"android": "https://dc.lft.to/lastmile_qr_scan", "ios": "https://dc.lft.to/lastmile_qr_scan"}, "fusion_lon": 0.0}, {"lat": 38.91057583333333, "is_disabled": 0, "type": "electric_scooter", "lon": -77.05241816666667, "bike_id": "4f54883fb024a0d6e788426088200e77", "fusion_lat": 0.0, "name": "4f54883fb024a0d6e788426088200e77", "is_reserved": 0, "rental_uris": {"android": "https://dc.lft.to/lastmile_qr_scan", "ios": "https://dc.lft.to/lastmile_qr_scan"}, "fusion_lon": 0.0}, {"lat": 38.885959666666665, "is_disabled": 0, "type": "electric_scooter", "lon": -77.02192766666667, "bike_id": "d13a9b247a5e4b96c684adf51364c659", "fusion_lat": 0.0, "name": "d13a9b247a5e4b96c684adf51364c659", "is_reserved": 0, "rental_uris": {"android": "https://dc.lft.to/lastmile_qr_scan", "ios": "https://dc.lft.to/lastmile_qr_scan"}, "fusion_lon": 0.0}, {"lat": 38.911228333333334, "is_disabled": 0, "type": "electric_scooter", "lon": -77.0301615, "bike_id": "c59d79632100050232a697b3d9a8a4ea", "fusion_lat": 0.0, "name": "c59d79632100050232a697b3d9a8a4ea", "is_reserved": 0, "rental_uris": {"android": "https://dc.lft.to/lastmile_qr_scan", "ios": "https://dc.lft.to/lastmile_qr_scan"}, "fusion_lon": 0.0}, {"lat": 38.921579333333334, "is_disabled": 0, "type": "electric_scooter", "lon": -77.03369733333334, "bike_id": "50b415e3a3d136dba4963ee10d4ded86", "fusion_lat": 0.0, "name": "50b415e3a3d136dba4963ee10d4ded86", "is_reserved": 0, "rental_uris": {"android": "https://dc.lft.to/lastmile_qr_scan", "ios": "https://dc.lft.to/lastmile_qr_scan"}, "fusion_lon": 0.0}, {"lat": 38.9306345, "is_disabled": 0, "type": "electric_scooter", "lon": -77.028191, "bike_id": "a94f80a95fbf12b1d408cb87adb09acd", "fusion_lat": 0.0, "name": "a94f80a95fbf12b1d408cb87adb09acd", "is_reserved": 0, "rental_uris": {"android": "https://dc.lft.to/lastmile_qr_scan", "ios": "https://dc.lft.to/lastmile_qr_scan"}, "fusion_lon": 0.0}, {"lat": 38.92769716666667, "is_disabled": 0, "type": "electric_scooter", "lon": -77.0277955, "bike_id": "5192d0fa1cae4290f0ce1fdd1d4548ff", "fusion_lat": 0.0, "name": "5192d0fa1cae4290f0ce1fdd1d4548ff", "is_reserved": 0, "rental_uris": {"android": "https://dc.lft.to/lastmile_qr_scan", "ios": "https://dc.lft.to/lastmile_qr_scan"}, "fusion_lon": 0.0}, {"lat": 38.920551333333336, "is_disabled": 0, "type": "electric_scooter", "lon": -77.02879483333334, "bike_id": "686210531a64dcb6e129f6f14a0dec74", "fusion_lat": 0.0, "name": "686210531a64dcb6e129f6f14a0dec74", "is_reserved": 0, "rental_uris": {"android": "https://dc.lft.to/lastmile_qr_scan", "ios": "https://dc.lft.to/lastmile_qr_scan"}, "fusion_lon": 0.0}, {"lat": 38.9322985, "is_disabled": 0, "type": "electric_scooter", "lon": -76.99604983333333, "bike_id": "cec1a2030911e26180346a7890a17842", "fusion_lat": 0.0, "name": "cec1a2030911e26180346a7890a17842", "is_reserved": 0, "rental_uris": {"android": "https://dc.lft.to/lastmile_qr_scan", "ios": "https://dc.lft.to/lastmile_qr_scan"}, "fusion_lon": 0.0}, {"lat": 38.92733916666667, "is_disabled": 0, "type": "electric_scooter", "lon": -77.02245633333334, "bike_id": "eacb1ed515e70c4a42992908098934b1", "fusion_lat": 0.0, "name": "eacb1ed515e70c4a42992908098934b1", "is_reserved": 0, "rental_uris": {"android": "https://dc.lft.to/lastmile_qr_scan", "ios": "https://dc.lft.to/lastmile_qr_scan"}, "fusion_lon": 0.0}, {"lat": 38.91618066666667, "is_disabled": 0, "type": "electric_scooter", "lon": -76.9795465, "bike_id": "890d27f094dc71ca36a7d83764994914", "fusion_lat": 0.0, "name": "890d27f094dc71ca36a7d83764994914", "is_reserved": 0, "rental_uris": {"android": "https://dc.lft.to/lastmile_qr_scan", "ios": "https://dc.lft.to/lastmile_qr_scan"}, "fusion_lon": 0.0}, {"lat": 38.91828616666667, "is_disabled": 0, "type": "electric_scooter", "lon": -77.03939683333333, "bike_id": "8dc570cbd8fa93b2d67b11ccde29cd8c", "fusion_lat": 0.0, "name": "8dc570cbd8fa93b2d67b11ccde29cd8c", "is_reserved": 0, "rental_uris": {"android": "https://dc.lft.to/lastmile_qr_scan", "ios": "https://dc.lft.to/lastmile_qr_scan"}, "fusion_lon": 0.0}, {"lat": 38.90553116666667, "is_disabled": 0, "type": "electric_scooter", "lon": -77.04332233333334, "bike_id": "c8b74c5bac46e81ba60b8f68d62d580b", "fusion_lat": 0.0, "name": "c8b74c5bac46e81ba60b8f68d62d580b", "is_reserved": 0, "rental_uris": {"android": "https://dc.lft.to/lastmile_qr_scan", "ios": "https://dc.lft.to/lastmile_qr_scan"}, "fusion_lon": 0.0}, {"lat": 38.93524816666667, "is_disabled": 0, "type": "electric_scooter", "lon": -77.03695916666666, "bike_id": "4d26301b7b54a83e4dec2525397f9c6a", "fusion_lat": 0.0, "name": "4d26301b7b54a83e4dec2525397f9c6a", "is_reserved": 0, "rental_uris": {"android": "https://dc.lft.to/lastmile_qr_scan", "ios": "https://dc.lft.to/lastmile_qr_scan"}, "fusion_lon": 0.0}, {"lat": 38.912583166666664, "is_disabled": 0, "type": "electric_scooter", "lon": -77.03862216666667, "bike_id": "82ae68adfe42e44a33dc80a88e1005c8", "fusion_lat": 0.0, "name": "82ae68adfe42e44a33dc80a88e1005c8", "is_reserved": 0, "rental_uris": {"android": "https://dc.lft.to/lastmile_qr_scan", "ios": "https://dc.lft.to/lastmile_qr_scan"}, "fusion_lon": 0.0}, {"lat": 38.8975095, "is_disabled": 0, "type": "electric_scooter", "lon": -77.02244033333334, "bike_id": "fd5307ef6713c406778fbb86cf3f6bb5", "fusion_lat": 0.0, "name": "fd5307ef6713c406778fbb86cf3f6bb5", "is_reserved": 0, "rental_uris": {"android": "https://dc.lft.to/lastmile_qr_scan", "ios": "https://dc.lft.to/lastmile_qr_scan"}, "fusion_lon": 0.0}, {"lat": 38.93288866666666, "is_disabled": 0, "type": "electric_scooter", "lon": -77.026589, "bike_id": "bb9493f1c4200a11fab20716eb279247", "fusion_lat": 0.0, "name": "bb9493f1c4200a11fab20716eb279247", "is_reserved": 0, "rental_uris": {"android": "https://dc.lft.to/lastmile_qr_scan", "ios": "https://dc.lft.to/lastmile_qr_scan"}, "fusion_lon": 0.0}, {"lat": 38.899531833333334, "is_disabled": 0, "type": "electric_scooter", "lon": -77.05203783333333, "bike_id": "b19e4274dc52f133849b5070d242c859", "fusion_lat": 0.0, "name": "b19e4274dc52f133849b5070d242c859", "is_reserved": 0, "rental_uris": {"android": "https://dc.lft.to/lastmile_qr_scan", "ios": "https://dc.lft.to/lastmile_qr_scan"}, "fusion_lon": 0.0}, {"lat": 38.92104416666667, "is_disabled": 0, "type": "electric_scooter", "lon": -77.04684416666667, "bike_id": "a6c688fefc9d65e958becd959e482593", "fusion_lat": 0.0, "name": "a6c688fefc9d65e958becd959e482593", "is_reserved": 0, "rental_uris": {"android": "https://dc.lft.to/lastmile_qr_scan", "ios": "https://dc.lft.to/lastmile_qr_scan"}, "fusion_lon": 0.0}, {"lat": 38.919699333333334, "is_disabled": 0, "type": "electric_scooter", "lon": -77.033385, "bike_id": "2bc0f852bcb2923d1ba9b9d913c000e5", "fusion_lat": 0.0, "name": "2bc0f852bcb2923d1ba9b9d913c000e5", "is_reserved": 0, "rental_uris": {"android": "https://dc.lft.to/lastmile_qr_scan", "ios": "https://dc.lft.to/lastmile_qr_scan"}, "fusion_lon": 0.0}, {"lat": 38.8636655, "is_disabled": 0, "type": "electric_scooter", "lon": -76.99031633333334, "bike_id": "cbdef55d16bf814fe033cd8973b308f8", "fusion_lat": 0.0, "name": "cbdef55d16bf814fe033cd8973b308f8", "is_reserved": 0, "rental_uris": {"android": "https://dc.lft.to/lastmile_qr_scan", "ios": "https://dc.lft.to/lastmile_qr_scan"}, "fusion_lon": 0.0}, {"lat": 38.933823333333336, "is_disabled": 0, "type": "electric_scooter", "lon": -76.99513933333333, "bike_id": "c02912fa4b409b105bb37bd2b1f6574c", "fusion_lat": 0.0, "name": "c02912fa4b409b105bb37bd2b1f6574c", "is_reserved": 0, "rental_uris": {"android": "https://dc.lft.to/lastmile_qr_scan", "ios": "https://dc.lft.to/lastmile_qr_scan"}, "fusion_lon": 0.0}, {"lat": 38.885319833333334, "is_disabled": 0, "type": "electric_scooter", "lon": -76.98271733333333, "bike_id": "7eacf877c73c54f979cf1037640eed2a", "fusion_lat": 0.0, "name": "7eacf877c73c54f979cf1037640eed2a", "is_reserved": 0, "rental_uris": {"android": "https://dc.lft.to/lastmile_qr_scan", "ios": "https://dc.lft.to/lastmile_qr_scan"}, "fusion_lon": 0.0}, {"lat": 38.91913433333333, "is_disabled": 0, "type": "electric_scooter", "lon": -77.044684, "bike_id": "65768fa40fc144918b67c2a2c837c6d9", "fusion_lat": 0.0, "name": "65768fa40fc144918b67c2a2c837c6d9", "is_reserved": 0, "rental_uris": {"android": "https://dc.lft.to/lastmile_qr_scan", "ios": "https://dc.lft.to/lastmile_qr_scan"}, "fusion_lon": 0.0}, {"lat": 38.80229333333333, "is_disabled": 0, "type": "electric_bike", "lon": -77.07920016666667, "bike_id": "7effdf25d984d99d9add661c22bdf8fd", "fusion_lat": 0.0, "name": "7effdf25d984d99d9add661c22bdf8fd", "is_reserved": 0, "rental_uris": {"android": "https://dc.lft.to/lastmile_qr_scan", "ios": "https://dc.lft.to/lastmile_qr_scan"}, "fusion_lon": 0.0}, {"lat": 38.927969166666664, "is_disabled": 0, "type": "electric_scooter", "lon": -77.025995, "bike_id": "d5c8ed5fa9738d9c622428a6fdb835bf", "fusion_lat": 0.0, "name": "d5c8ed5fa9738d9c622428a6fdb835bf", "is_reserved": 0, "rental_uris": {"android": "https://dc.lft.to/lastmile_qr_scan", "ios": "https://dc.lft.to/lastmile_qr_scan"}, "fusion_lon": 0.0}, {"lat": 39.07502483333333, "is_disabled": 0, "type": "electric_bike", "lon": -77.11900666666666, "bike_id": "4411a69cdb1a7a95a874642e2724de53", "fusion_lat": 0.0, "name": "4411a69cdb1a7a95a874642e2724de53", "is_reserved": 0, "rental_uris": {"android": "https://dc.lft.to/lastmile_qr_scan", "ios": "https://dc.lft.to/lastmile_qr_scan"}, "fusion_lon": 0.0}, {"lat": 38.92809783333333, "is_disabled": 0, "type": "electric_scooter", "lon": -77.05428616666667, "bike_id": "a89b4d4fafb70a4e49c7ffcc621e573a", "fusion_lat": 0.0, "name": "a89b4d4fafb70a4e49c7ffcc621e573a", "is_reserved": 0, "rental_uris": {"android": "https://dc.lft.to/lastmile_qr_scan", "ios": "https://dc.lft.to/lastmile_qr_scan"}, "fusion_lon": 0.0}, {"lat": 38.86296883333333, "is_disabled": 0, "type": "electric_scooter", "lon": -76.99236316666666, "bike_id": "2de9678f90a9bd0aae8b36c568e771f1", "fusion_lat": 0.0, "name": "2de9678f90a9bd0aae8b36c568e771f1", "is_reserved": 0, "rental_uris": {"android": "https://dc.lft.to/lastmile_qr_scan", "ios": "https://dc.lft.to/lastmile_qr_scan"}, "fusion_lon": 0.0}, {"lat": 38.92106583333333, "is_disabled": 0, "type": "electric_scooter", "lon": -77.045674, "bike_id": "8ea7c329a751a3ea52d61805870bdec4", "fusion_lat": 0.0, "name": "8ea7c329a751a3ea52d61805870bdec4", "is_reserved": 0, "rental_uris": {"android": "https://dc.lft.to/lastmile_qr_scan", "ios": "https://dc.lft.to/lastmile_qr_scan"}, "fusion_lon": 0.0}, {"lat": 38.92590766666667, "is_disabled": 0, "type": "electric_scooter", "lon": -77.05302266666666, "bike_id": "7b881bb2c7cb41cb27b5096c59caab98", "fusion_lat": 0.0, "name": "7b881bb2c7cb41cb27b5096c59caab98", "is_reserved": 0, "rental_uris": {"android": "https://dc.lft.to/lastmile_qr_scan", "ios": "https://dc.lft.to/lastmile_qr_scan"}, "fusion_lon": 0.0}, {"lat": 38.89835016666667, "is_disabled": 0, "type": "electric_scooter", "lon": -76.9447035, "bike_id": "b366f133664c65a97a960a4f10f137d3", "fusion_lat": 0.0, "name": "b366f133664c65a97a960a4f10f137d3", "is_reserved": 0, "rental_uris": {"android": "https://dc.lft.to/lastmile_qr_scan", "ios": "https://dc.lft.to/lastmile_qr_scan"}, "fusion_lon": 0.0}, {"lat": 38.91464033333333, "is_disabled": 0, "type": "electric_scooter", "lon": -77.00222016666666, "bike_id": "77edbb14dc73fead9e8ccae365997402", "fusion_lat": 0.0, "name": "77edbb14dc73fead9e8ccae365997402", "is_reserved": 0, "rental_uris": {"android": "https://dc.lft.to/lastmile_qr_scan", "ios": "https://dc.lft.to/lastmile_qr_scan"}, "fusion_lon": 0.0}, {"lat": 38.80753683333333, "is_disabled": 0, "type": "electric_bike", "lon": -77.09478, "bike_id": "3b65abb83249e8eab290e35beaa34720", "fusion_lat": 0.0, "name": "3b65abb83249e8eab290e35beaa34720", "is_reserved": 0, "rental_uris": {"android": "https://dc.lft.to/lastmile_qr_scan", "ios": "https://dc.lft.to/lastmile_qr_scan"}, "fusion_lon": 0.0}, {"lat": 38.934320666666665, "is_disabled": 0, "type": "electric_scooter", "lon": -77.03447866666667, "bike_id": "d3ea6ddfd7d7b894c232046b61450bff", "fusion_lat": 0.0, "name": "d3ea6ddfd7d7b894c232046b61450bff", "is_reserved": 0, "rental_uris": {"android": "https://dc.lft.to/lastmile_qr_scan", "ios": "https://dc.lft.to/lastmile_qr_scan"}, "fusion_lon": 0.0}, {"lat": 38.960278333333335, "is_disabled": 0, "type": "electric_bike", "lon": -77.01729866666666, "bike_id": "a31f23259a6fc63e371b9b2be9fd7fcd", "fusion_lat": 0.0, "name": "a31f23259a6fc63e371b9b2be9fd7fcd", "is_reserved": 0, "rental_uris": {"android": "https://dc.lft.to/lastmile_qr_scan", "ios": "https://dc.lft.to/lastmile_qr_scan"}, "fusion_lon": 0.0}, {"lat": 38.884729166666666, "is_disabled": 0, "type": "electric_scooter", "lon": -76.9926495, "bike_id": "fc0089ed83323db62705dc6bef530177", "fusion_lat": 0.0, "name": "fc0089ed83323db62705dc6bef530177", "is_reserved": 0, "rental_uris": {"android": "https://dc.lft.to/lastmile_qr_scan", "ios": "https://dc.lft.to/lastmile_qr_scan"}, "fusion_lon": 0.0}, {"lat": 38.903129166666666, "is_disabled": 0, "type": "electric_scooter", "lon": -76.993631, "bike_id": "51e614f0e63fa987dd047a898e0e549c", "fusion_lat": 0.0, "name": "51e614f0e63fa987dd047a898e0e549c", "is_reserved": 0, "rental_uris": {"android": "https://dc.lft.to/lastmile_qr_scan", "ios": "https://dc.lft.to/lastmile_qr_scan"}, "fusion_lon": 0.0}, {"lat": 39.02931516666666, "is_disabled": 0, "type": "electric_bike", "lon": -77.0492575, "bike_id": "e025d45f2b51bbb45b6382012c6ae018", "fusion_lat": 0.0, "name": "e025d45f2b51bbb45b6382012c6ae018", "is_reserved": 0, "rental_uris": {"android": "https://dc.lft.to/lastmile_qr_scan", "ios": "https://dc.lft.to/lastmile_qr_scan"}, "fusion_lon": 0.0}, {"lat": 38.935284833333334, "is_disabled": 0, "type": "electric_bike", "lon": -77.056896, "bike_id": "f2e9be887f802be52f2bac85e1da777b", "fusion_lat": 0.0, "name": "f2e9be887f802be52f2bac85e1da777b", "is_reserved": 0, "rental_uris": {"android": "https://dc.lft.to/lastmile_qr_scan", "ios": "https://dc.lft.to/lastmile_qr_scan"}, "fusion_lon": 0.0}, {"lat": 38.88488533333334, "is_disabled": 0, "type": "electric_scooter", "lon": -77.00716816666667, "bike_id": "2cf53eeb08f2486530ff756c994ca320", "fusion_lat": 0.0, "name": "2cf53eeb08f2486530ff756c994ca320", "is_reserved": 0, "rental_uris": {"android": "https://dc.lft.to/lastmile_qr_scan", "ios": "https://dc.lft.to/lastmile_qr_scan"}, "fusion_lon": 0.0}, {"lat": 38.92157916666667, "is_disabled": 0, "type": "electric_scooter", "lon": -77.03508233333334, "bike_id": "9eaaad57a40ba263e56b9cff61b54acb", "fusion_lat": 0.0, "name": "9eaaad57a40ba263e56b9cff61b54acb", "is_reserved": 0, "rental_uris": {"android": "https://dc.lft.to/lastmile_qr_scan", "ios": "https://dc.lft.to/lastmile_qr_scan"}, "fusion_lon": 0.0}, {"lat": 38.8730215, "is_disabled": 0, "type": "electric_scooter", "lon": -77.00934366666667, "bike_id": "df7e943eefafc5bbb5f369ba20ba347c", "fusion_lat": 0.0, "name": "df7e943eefafc5bbb5f369ba20ba347c", "is_reserved": 0, "rental_uris": {"android": "https://dc.lft.to/lastmile_qr_scan", "ios": "https://dc.lft.to/lastmile_qr_scan"}, "fusion_lon": 0.0}, {"lat": 38.95331316666667, "is_disabled": 0, "type": "electric_scooter", "lon": -77.0275855, "bike_id": "f456e84f206408f38158d7db5ebd059a", "fusion_lat": 0.0, "name": "f456e84f206408f38158d7db5ebd059a", "is_reserved": 0, "rental_uris": {"android": "https://dc.lft.to/lastmile_qr_scan", "ios": "https://dc.lft.to/lastmile_qr_scan"}, "fusion_lon": 0.0}, {"lat": 38.9057225, "is_disabled": 0, "type": "electric_scooter", "lon": -77.02985983333333, "bike_id": "a7d2df805ce47cfa69e5c7b5041b02df", "fusion_lat": 0.0, "name": "a7d2df805ce47cfa69e5c7b5041b02df", "is_reserved": 0, "rental_uris": {"android": "https://dc.lft.to/lastmile_qr_scan", "ios": "https://dc.lft.to/lastmile_qr_scan"}, "fusion_lon": 0.0}, {"lat": 38.9240885, "is_disabled": 0, "type": "electric_scooter", "lon": -77.0342345, "bike_id": "3a2a9b739f38583f9013f4b05f2304d0", "fusion_lat": 0.0, "name": "3a2a9b739f38583f9013f4b05f2304d0", "is_reserved": 0, "rental_uris": {"android": "https://dc.lft.to/lastmile_qr_scan", "ios": "https://dc.lft.to/lastmile_qr_scan"}, "fusion_lon": 0.0}, {"lat": 38.93022883333333, "is_disabled": 0, "type": "electric_scooter", "lon": -77.0204745, "bike_id": "1d54874a6b02a43c5fbd089380fc6e69", "fusion_lat": 0.0, "name": "1d54874a6b02a43c5fbd089380fc6e69", "is_reserved": 0, "rental_uris": {"android": "https://dc.lft.to/lastmile_qr_scan", "ios": "https://dc.lft.to/lastmile_qr_scan"}, "fusion_lon": 0.0}, {"lat": 38.9297075, "is_disabled": 0, "type": "electric_scooter", "lon": -77.0320805, "bike_id": "909d62c56e252da8d0a01fb8cbde06f8", "fusion_lat": 0.0, "name": "909d62c56e252da8d0a01fb8cbde06f8", "is_reserved": 0, "rental_uris": {"android": "https://dc.lft.to/lastmile_qr_scan", "ios": "https://dc.lft.to/lastmile_qr_scan"}, "fusion_lon": 0.0}, {"lat": 38.86662416666667, "is_disabled": 0, "type": "electric_scooter", "lon": -76.989038, "bike_id": "5b5e4aaa0096265db3edc79e181bcedd", "fusion_lat": 0.0, "name": "5b5e4aaa0096265db3edc79e181bcedd", "is_reserved": 0, "rental_uris": {"android": "https://dc.lft.to/lastmile_qr_scan", "ios": "https://dc.lft.to/lastmile_qr_scan"}, "fusion_lon": 0.0}, {"lat": 38.924454, "is_disabled": 0, "type": "electric_scooter", "lon": -77.033582, "bike_id": "c52e0934f57b802ec4d6ba05325d301b", "fusion_lat": 0.0, "name": "c52e0934f57b802ec4d6ba05325d301b", "is_reserved": 0, "rental_uris": {"android": "https://dc.lft.to/lastmile_qr_scan", "ios": "https://dc.lft.to/lastmile_qr_scan"}, "fusion_lon": 0.0}, {"lat": 38.924298, "is_disabled": 0, "type": "electric_scooter", "lon": -77.034257, "bike_id": "99479c3bd944f68406b261229bf5ed3c", "fusion_lat": 0.0, "name": "99479c3bd944f68406b261229bf5ed3c", "is_reserved": 0, "rental_uris": {"android": "https://dc.lft.to/lastmile_qr_scan", "ios": "https://dc.lft.to/lastmile_qr_scan"}, "fusion_lon": 0.0}, {"lat": 38.91470666666667, "is_disabled": 0, "type": "electric_scooter", "lon": -77.06691366666666, "bike_id": "31d684761607934e39c7a61e090d127e", "fusion_lat": 0.0, "name": "31d684761607934e39c7a61e090d127e", "is_reserved": 0, "rental_uris": {"android": "https://dc.lft.to/lastmile_qr_scan", "ios": "https://dc.lft.to/lastmile_qr_scan"}, "fusion_lon": 0.0}, {"lat": 38.9099155, "is_disabled": 0, "type": "electric_scooter", "lon": -76.99737233333333, "bike_id": "ce22a7023c79c74aee9bb2a9fbf23ebb", "fusion_lat": 0.0, "name": "ce22a7023c79c74aee9bb2a9fbf23ebb", "is_reserved": 0, "rental_uris": {"android": "https://dc.lft.to/lastmile_qr_scan", "ios": "https://dc.lft.to/lastmile_qr_scan"}, "fusion_lon": 0.0}, {"lat": 38.918404, "is_disabled": 0, "type": "electric_scooter", "lon": -77.03538316666666, "bike_id": "4788eb991dbab24346ba571abdcb0e77", "fusion_lat": 0.0, "name": "4788eb991dbab24346ba571abdcb0e77", "is_reserved": 0, "rental_uris": {"android": "https://dc.lft.to/lastmile_qr_scan", "ios": "https://dc.lft.to/lastmile_qr_scan"}, "fusion_lon": 0.0}, {"lat": 38.95218766666667, "is_disabled": 0, "type": "electric_scooter", "lon": -77.08602616666667, "bike_id": "e9f0898a0c0996f1ec0041c93bf7c41d", "fusion_lat": 0.0, "name": "e9f0898a0c0996f1ec0041c93bf7c41d", "is_reserved": 0, "rental_uris": {"android": "https://dc.lft.to/lastmile_qr_scan", "ios": "https://dc.lft.to/lastmile_qr_scan"}, "fusion_lon": 0.0}, {"lat": 38.919298166666664, "is_disabled": 0, "type": "electric_scooter", "lon": -77.03185183333333, "bike_id": "f1422822037f3e2d7d9981746397a16b", "fusion_lat": 0.0, "name": "f1422822037f3e2d7d9981746397a16b", "is_reserved": 0, "rental_uris": {"android": "https://dc.lft.to/lastmile_qr_scan", "ios": "https://dc.lft.to/lastmile_qr_scan"}, "fusion_lon": 0.0}, {"lat": 38.99998983333333, "is_disabled": 0, "type": "electric_bike", "lon": -76.92498966666666, "bike_id": "2156778f46b5c185a4a1bcce02e47ee0", "fusion_lat": 0.0, "name": "2156778f46b5c185a4a1bcce02e47ee0", "is_reserved": 0, "rental_uris": {"android": "https://dc.lft.to/lastmile_qr_scan", "ios": "https://dc.lft.to/lastmile_qr_scan"}, "fusion_lon": 0.0}, {"lat": 38.904876, "is_disabled": 0, "type": "electric_scooter", "lon": -77.029712, "bike_id": "e83e28091f6f74b33ca9b3e0a5da4a2c", "fusion_lat": 0.0, "name": "e83e28091f6f74b33ca9b3e0a5da4a2c", "is_reserved": 0, "rental_uris": {"android": "https://dc.lft.to/lastmile_qr_scan", "ios": "https://dc.lft.to/lastmile_qr_scan"}, "fusion_lon": 0.0}, {"lat": 38.8909475, "is_disabled": 0, "type": "electric_scooter", "lon": -76.9527615, "bike_id": "88ad62a7a0a4f4c2584c49ceed3a6945", "fusion_lat": 0.0, "name": "88ad62a7a0a4f4c2584c49ceed3a6945", "is_reserved": 0, "rental_uris": {"android": "https://dc.lft.to/lastmile_qr_scan", "ios": "https://dc.lft.to/lastmile_qr_scan"}, "fusion_lon": 0.0}, {"lat": 38.905240166666665, "is_disabled": 0, "type": "electric_scooter", "lon": -77.00595566666667, "bike_id": "8ae8bb7713ee5fec58c4a7cfe489222a", "fusion_lat": 0.0, "name": "8ae8bb7713ee5fec58c4a7cfe489222a", "is_reserved": 0, "rental_uris": {"android": "https://dc.lft.to/lastmile_qr_scan", "ios": "https://dc.lft.to/lastmile_qr_scan"}, "fusion_lon": 0.0}, {"lat": 38.907381, "is_disabled": 0, "type": "electric_scooter", "lon": -77.02946916666667, "bike_id": "0ff1d4d544dec3ace7ef2bb4558c3a54", "fusion_lat": 0.0, "name": "0ff1d4d544dec3ace7ef2bb4558c3a54", "is_reserved": 0, "rental_uris": {"android": "https://dc.lft.to/lastmile_qr_scan", "ios": "https://dc.lft.to/lastmile_qr_scan"}, "fusion_lon": 0.0}, {"lat": 38.91893066666667, "is_disabled": 0, "type": "electric_scooter", "lon": -77.0444075, "bike_id": "8da76e4f962b61de9c53e08bc0c47467", "fusion_lat": 0.0, "name": "8da76e4f962b61de9c53e08bc0c47467", "is_reserved": 0, "rental_uris": {"android": "https://dc.lft.to/lastmile_qr_scan", "ios": "https://dc.lft.to/lastmile_qr_scan"}, "fusion_lon": 0.0}, {"lat": 38.9178385, "is_disabled": 0, "type": "electric_scooter", "lon": -77.0235215, "bike_id": "f96b3b8d00c8d2ee70004872e45836b4", "fusion_lat": 0.0, "name": "f96b3b8d00c8d2ee70004872e45836b4", "is_reserved": 0, "rental_uris": {"android": "https://dc.lft.to/lastmile_qr_scan", "ios": "https://dc.lft.to/lastmile_qr_scan"}, "fusion_lon": 0.0}, {"lat": 38.93252116666667, "is_disabled": 0, "type": "electric_scooter", "lon": -77.03275583333334, "bike_id": "522e874c4c437a2d8ebac8f33435f74a", "fusion_lat": 0.0, "name": "522e874c4c437a2d8ebac8f33435f74a", "is_reserved": 0, "rental_uris": {"android": "https://dc.lft.to/lastmile_qr_scan", "ios": "https://dc.lft.to/lastmile_qr_scan"}, "fusion_lon": 0.0}, {"lat": 38.916868, "is_disabled": 0, "type": "electric_scooter", "lon": -77.001938, "bike_id": "022e10b29b308c5fc2847b67c4847990", "fusion_lat": 0.0, "name": "022e10b29b308c5fc2847b67c4847990", "is_reserved": 0, "rental_uris": {"android": "https://dc.lft.to/lastmile_qr_scan", "ios": "https://dc.lft.to/lastmile_qr_scan"}, "fusion_lon": 0.0}, {"lat": 38.883638166666664, "is_disabled": 0, "type": "electric_scooter", "lon": -76.94155416666666, "bike_id": "133b7bc533e4002da5c99cf4ba0c366f", "fusion_lat": 0.0, "name": "133b7bc533e4002da5c99cf4ba0c366f", "is_reserved": 0, "rental_uris": {"android": "https://dc.lft.to/lastmile_qr_scan", "ios": "https://dc.lft.to/lastmile_qr_scan"}, "fusion_lon": 0.0}, {"lat": 38.988247, "is_disabled": 0, "type": "electric_bike", "lon": -76.996563, "bike_id": "2290de60820a88e02301586907909d40", "fusion_lat": 0.0, "name": "2290de60820a88e02301586907909d40", "is_reserved": 0, "rental_uris": {"android": "https://dc.lft.to/lastmile_qr_scan", "ios": "https://dc.lft.to/lastmile_qr_scan"}, "fusion_lon": 0.0}, {"lat": 38.917644333333335, "is_disabled": 0, "type": "electric_scooter", "lon": -76.97629883333333, "bike_id": "e006e6bcede044967195b91cb96d8861", "fusion_lat": 0.0, "name": "e006e6bcede044967195b91cb96d8861", "is_reserved": 0, "rental_uris": {"android": "https://dc.lft.to/lastmile_qr_scan", "ios": "https://dc.lft.to/lastmile_qr_scan"}, "fusion_lon": 0.0}, {"lat": 38.94125183333333, "is_disabled": 0, "type": "electric_scooter", "lon": -77.00069566666667, "bike_id": "6cc2acd6af51ba1a39246da412043750", "fusion_lat": 0.0, "name": "6cc2acd6af51ba1a39246da412043750", "is_reserved": 0, "rental_uris": {"android": "https://dc.lft.to/lastmile_qr_scan", "ios": "https://dc.lft.to/lastmile_qr_scan"}, "fusion_lon": 0.0}, {"lat": 38.907532833333335, "is_disabled": 0, "type": "electric_scooter", "lon": -77.0010955, "bike_id": "48f20fbbe829a2ebc6f9724e5e7f2ccc", "fusion_lat": 0.0, "name": "48f20fbbe829a2ebc6f9724e5e7f2ccc", "is_reserved": 0, "rental_uris": {"android": "https://dc.lft.to/lastmile_qr_scan", "ios": "https://dc.lft.to/lastmile_qr_scan"}, "fusion_lon": 0.0}, {"lat": 38.95892383333333, "is_disabled": 0, "type": "electric_bike", "lon": -76.92493666666667, "bike_id": "b332712ef2b15ac240001c6b3598a4ea", "fusion_lat": 0.0, "name": "b332712ef2b15ac240001c6b3598a4ea", "is_reserved": 0, "rental_uris": {"android": "https://dc.lft.to/lastmile_qr_scan", "ios": "https://dc.lft.to/lastmile_qr_scan"}, "fusion_lon": 0.0}, {"lat": 38.906179333333334, "is_disabled": 0, "type": "electric_scooter", "lon": -77.06278616666667, "bike_id": "f3fa42ccf0038d2f0cf2c4b2d7c8d946", "fusion_lat": 0.0, "name": "f3fa42ccf0038d2f0cf2c4b2d7c8d946", "is_reserved": 0, "rental_uris": {"android": "https://dc.lft.to/lastmile_qr_scan", "ios": "https://dc.lft.to/lastmile_qr_scan"}, "fusion_lon": 0.0}, {"lat": 38.90689366666667, "is_disabled": 0, "type": "electric_scooter", "lon": -77.06071516666667, "bike_id": "a88963dcc520201192d0cb3eb48762dd", "fusion_lat": 0.0, "name": "a88963dcc520201192d0cb3eb48762dd", "is_reserved": 0, "rental_uris": {"android": "https://dc.lft.to/lastmile_qr_scan", "ios": "https://dc.lft.to/lastmile_qr_scan"}, "fusion_lon": 0.0}, {"lat": 38.925731166666665, "is_disabled": 0, "type": "electric_scooter", "lon": -77.05758633333333, "bike_id": "258c588dc0822e20a2b1a2bceea6c074", "fusion_lat": 0.0, "name": "258c588dc0822e20a2b1a2bceea6c074", "is_reserved": 0, "rental_uris": {"android": "https://dc.lft.to/lastmile_qr_scan", "ios": "https://dc.lft.to/lastmile_qr_scan"}, "fusion_lon": 0.0}, {"lat": 38.921168, "is_disabled": 0, "type": "electric_scooter", "lon": -77.0180565, "bike_id": "cf3e50b00d48943d18de9fa08cee3350", "fusion_lat": 0.0, "name": "cf3e50b00d48943d18de9fa08cee3350", "is_reserved": 0, "rental_uris": {"android": "https://dc.lft.to/lastmile_qr_scan", "ios": "https://dc.lft.to/lastmile_qr_scan"}, "fusion_lon": 0.0}, {"lat": 38.902789166666665, "is_disabled": 0, "type": "electric_scooter", "lon": -77.01788783333333, "bike_id": "f0f43c270eda015528e606818d135be4", "fusion_lat": 0.0, "name": "f0f43c270eda015528e606818d135be4", "is_reserved": 0, "rental_uris": {"android": "https://dc.lft.to/lastmile_qr_scan", "ios": "https://dc.lft.to/lastmile_qr_scan"}, "fusion_lon": 0.0}, {"lat": 38.961140666666665, "is_disabled": 0, "type": "electric_scooter", "lon": -77.0281215, "bike_id": "5d1e6b4819518e9e8927607ef89957d7", "fusion_lat": 0.0, "name": "5d1e6b4819518e9e8927607ef89957d7", "is_reserved": 0, "rental_uris": {"android": "https://dc.lft.to/lastmile_qr_scan", "ios": "https://dc.lft.to/lastmile_qr_scan"}, "fusion_lon": 0.0}, {"lat": 38.905710666666664, "is_disabled": 0, "type": "electric_scooter", "lon": -77.0179575, "bike_id": "372f2c2ed3d69fb33842085677ef9781", "fusion_lat": 0.0, "name": "372f2c2ed3d69fb33842085677ef9781", "is_reserved": 0, "rental_uris": {"android": "https://dc.lft.to/lastmile_qr_scan", "ios": "https://dc.lft.to/lastmile_qr_scan"}, "fusion_lon": 0.0}, {"lat": 38.929125, "is_disabled": 0, "type": "electric_scooter", "lon": -77.02195216666667, "bike_id": "7b8445826999059461fa35cf891f3d1d", "fusion_lat": 0.0, "name": "7b8445826999059461fa35cf891f3d1d", "is_reserved": 0, "rental_uris": {"android": "https://dc.lft.to/lastmile_qr_scan", "ios": "https://dc.lft.to/lastmile_qr_scan"}, "fusion_lon": 0.0}, {"lat": 38.892216, "is_disabled": 0, "type": "electric_scooter", "lon": -77.02123716666667, "bike_id": "d1b502270fa16a72f047dd33aa422ec5", "fusion_lat": 0.0, "name": "d1b502270fa16a72f047dd33aa422ec5", "is_reserved": 0, "rental_uris": {"android": "https://dc.lft.to/lastmile_qr_scan", "ios": "https://dc.lft.to/lastmile_qr_scan"}, "fusion_lon": 0.0}, {"lat": 38.91801316666667, "is_disabled": 0, "type": "electric_scooter", "lon": -77.03441883333333, "bike_id": "1910ce1617af8df35fd334ada4151fa1", "fusion_lat": 0.0, "name": "1910ce1617af8df35fd334ada4151fa1", "is_reserved": 0, "rental_uris": {"android": "https://dc.lft.to/lastmile_qr_scan", "ios": "https://dc.lft.to/lastmile_qr_scan"}, "fusion_lon": 0.0}, {"lat": 38.85802783333333, "is_disabled": 0, "type": "electric_scooter", "lon": -76.98732, "bike_id": "f567a27575d99a870d89cc56733f5dbf", "fusion_lat": 0.0, "name": "f567a27575d99a870d89cc56733f5dbf", "is_reserved": 0, "rental_uris": {"android": "https://dc.lft.to/lastmile_qr_scan", "ios": "https://dc.lft.to/lastmile_qr_scan"}, "fusion_lon": 0.0}, {"lat": 38.88334966666667, "is_disabled": 0, "type": "electric_scooter", "lon": -77.0314915, "bike_id": "ba2e83cf9a30f2a6d28ef144a8129709", "fusion_lat": 0.0, "name": "ba2e83cf9a30f2a6d28ef144a8129709", "is_reserved": 0, "rental_uris": {"android": "https://dc.lft.to/lastmile_qr_scan", "ios": "https://dc.lft.to/lastmile_qr_scan"}, "fusion_lon": 0.0}, {"lat": 38.9239115, "is_disabled": 0, "type": "electric_scooter", "lon": -77.00067083333333, "bike_id": "5affd8cf7d4c78a62c79844c1033ba92", "fusion_lat": 0.0, "name": "5affd8cf7d4c78a62c79844c1033ba92", "is_reserved": 0, "rental_uris": {"android": "https://dc.lft.to/lastmile_qr_scan", "ios": "https://dc.lft.to/lastmile_qr_scan"}, "fusion_lon": 0.0}, {"lat": 38.86111316666667, "is_disabled": 0, "type": "electric_scooter", "lon": -76.9677295, "bike_id": "f912c04033c0c971a1d5dd0629361ff4", "fusion_lat": 0.0, "name": "f912c04033c0c971a1d5dd0629361ff4", "is_reserved": 0, "rental_uris": {"android": "https://dc.lft.to/lastmile_qr_scan", "ios": "https://dc.lft.to/lastmile_qr_scan"}, "fusion_lon": 0.0}, {"lat": 38.89884883333333, "is_disabled": 0, "type": "electric_scooter", "lon": -77.02191033333334, "bike_id": "00703e09344e9330fe486b30212c2e3b", "fusion_lat": 0.0, "name": "00703e09344e9330fe486b30212c2e3b", "is_reserved": 0, "rental_uris": {"android": "https://dc.lft.to/lastmile_qr_scan", "ios": "https://dc.lft.to/lastmile_qr_scan"}, "fusion_lon": 0.0}, {"lat": 38.92412733333333, "is_disabled": 0, "type": "electric_scooter", "lon": -77.03547633333334, "bike_id": "a0cab2eee1e6b4e7f61653e9987e97ee", "fusion_lat": 0.0, "name": "a0cab2eee1e6b4e7f61653e9987e97ee", "is_reserved": 0, "rental_uris": {"android": "https://dc.lft.to/lastmile_qr_scan", "ios": "https://dc.lft.to/lastmile_qr_scan"}, "fusion_lon": 0.0}, {"lat": 38.917102, "is_disabled": 0, "type": "electric_scooter", "lon": -77.03223466666667, "bike_id": "a60f5804fc99c022fcf0ae05c3d95274", "fusion_lat": 0.0, "name": "a60f5804fc99c022fcf0ae05c3d95274", "is_reserved": 0, "rental_uris": {"android": "https://dc.lft.to/lastmile_qr_scan", "ios": "https://dc.lft.to/lastmile_qr_scan"}, "fusion_lon": 0.0}, {"lat": 38.91341416666667, "is_disabled": 0, "type": "electric_scooter", "lon": -77.00226316666667, "bike_id": "4e41ccdd7e15e3e099955c2e22221fe6", "fusion_lat": 0.0, "name": "4e41ccdd7e15e3e099955c2e22221fe6", "is_reserved": 0, "rental_uris": {"android": "https://dc.lft.to/lastmile_qr_scan", "ios": "https://dc.lft.to/lastmile_qr_scan"}, "fusion_lon": 0.0}, {"lat": 38.923422, "is_disabled": 0, "type": "electric_scooter", "lon": -77.01912516666667, "bike_id": "fe37f42937ef5723beb1de8b537ca43a", "fusion_lat": 0.0, "name": "fe37f42937ef5723beb1de8b537ca43a", "is_reserved": 0, "rental_uris": {"android": "https://dc.lft.to/lastmile_qr_scan", "ios": "https://dc.lft.to/lastmile_qr_scan"}, "fusion_lon": 0.0}, {"lat": 38.9173805, "is_disabled": 0, "type": "electric_scooter", "lon": -77.06893966666667, "bike_id": "56f6f3d859015d01024048e0ab4273b8", "fusion_lat": 0.0, "name": "56f6f3d859015d01024048e0ab4273b8", "is_reserved": 0, "rental_uris": {"android": "https://dc.lft.to/lastmile_qr_scan", "ios": "https://dc.lft.to/lastmile_qr_scan"}, "fusion_lon": 0.0}, {"lat": 38.879292666666665, "is_disabled": 0, "type": "electric_scooter", "lon": -77.00723683333334, "bike_id": "fb32f414ca4be08c206553fc07ed51ac", "fusion_lat": 0.0, "name": "fb32f414ca4be08c206553fc07ed51ac", "is_reserved": 0, "rental_uris": {"android": "https://dc.lft.to/lastmile_qr_scan", "ios": "https://dc.lft.to/lastmile_qr_scan"}, "fusion_lon": 0.0}, {"lat": 38.92250633333333, "is_disabled": 0, "type": "electric_scooter", "lon": -77.04244466666667, "bike_id": "2b22be0196cb6710f69551339921562d", "fusion_lat": 0.0, "name": "2b22be0196cb6710f69551339921562d", "is_reserved": 0, "rental_uris": {"android": "https://dc.lft.to/lastmile_qr_scan", "ios": "https://dc.lft.to/lastmile_qr_scan"}, "fusion_lon": 0.0}, {"lat": 38.912251833333336, "is_disabled": 0, "type": "electric_scooter", "lon": -77.04497716666667, "bike_id": "f785a6f49aec51dcdc6e145cac77b530", "fusion_lat": 0.0, "name": "f785a6f49aec51dcdc6e145cac77b530", "is_reserved": 0, "rental_uris": {"android": "https://dc.lft.to/lastmile_qr_scan", "ios": "https://dc.lft.to/lastmile_qr_scan"}, "fusion_lon": 0.0}, {"lat": 38.9026815, "is_disabled": 0, "type": "electric_scooter", "lon": -77.02003416666666, "bike_id": "e8a8d67ccd620ab416450c5c4b56caac", "fusion_lat": 0.0, "name": "e8a8d67ccd620ab416450c5c4b56caac", "is_reserved": 0, "rental_uris": {"android": "https://dc.lft.to/lastmile_qr_scan", "ios": "https://dc.lft.to/lastmile_qr_scan"}, "fusion_lon": 0.0}, {"lat": 38.8976405, "is_disabled": 0, "type": "electric_scooter", "lon": -77.04997233333333, "bike_id": "096742f0e5dc6508ee5c922f0484681f", "fusion_lat": 0.0, "name": "096742f0e5dc6508ee5c922f0484681f", "is_reserved": 0, "rental_uris": {"android": "https://dc.lft.to/lastmile_qr_scan", "ios": "https://dc.lft.to/lastmile_qr_scan"}, "fusion_lon": 0.0}, {"lat": 38.88478883333333, "is_disabled": 0, "type": "electric_scooter", "lon": -76.94524566666666, "bike_id": "457e0fc843c2072eb4c01e6f3c352a1a", "fusion_lat": 0.0, "name": "457e0fc843c2072eb4c01e6f3c352a1a", "is_reserved": 0, "rental_uris": {"android": "https://dc.lft.to/lastmile_qr_scan", "ios": "https://dc.lft.to/lastmile_qr_scan"}, "fusion_lon": 0.0}, {"lat": 38.930791, "is_disabled": 0, "type": "electric_scooter", "lon": -77.0776085, "bike_id": "cad4e777957c5543252de0b09cbec68b", "fusion_lat": 0.0, "name": "cad4e777957c5543252de0b09cbec68b", "is_reserved": 0, "rental_uris": {"android": "https://dc.lft.to/lastmile_qr_scan", "ios": "https://dc.lft.to/lastmile_qr_scan"}, "fusion_lon": 0.0}, {"lat": 38.917810333333335, "is_disabled": 0, "type": "electric_scooter", "lon": -77.02237966666667, "bike_id": "24ab559f6b2f63ad2055652183ed7542", "fusion_lat": 0.0, "name": "24ab559f6b2f63ad2055652183ed7542", "is_reserved": 0, "rental_uris": {"android": "https://dc.lft.to/lastmile_qr_scan", "ios": "https://dc.lft.to/lastmile_qr_scan"}, "fusion_lon": 0.0}, {"lat": 38.900309, "is_disabled": 0, "type": "electric_scooter", "lon": -76.98372816666667, "bike_id": "8756a1315e5a88938fdf25c6001d5dec", "fusion_lat": 0.0, "name": "8756a1315e5a88938fdf25c6001d5dec", "is_reserved": 0, "rental_uris": {"android": "https://dc.lft.to/lastmile_qr_scan", "ios": "https://dc.lft.to/lastmile_qr_scan"}, "fusion_lon": 0.0}, {"lat": 38.90182316666667, "is_disabled": 0, "type": "electric_scooter", "lon": -77.02380133333334, "bike_id": "d5959ef3d1e2d02e9e3872a9e79492c5", "fusion_lat": 0.0, "name": "d5959ef3d1e2d02e9e3872a9e79492c5", "is_reserved": 0, "rental_uris": {"android": "https://dc.lft.to/lastmile_qr_scan", "ios": "https://dc.lft.to/lastmile_qr_scan"}, "fusion_lon": 0.0}, {"lat": 38.94068016666667, "is_disabled": 0, "type": "electric_scooter", "lon": -76.99463466666667, "bike_id": "ca68c46ab9c714bc5efb7c3707a30f9b", "fusion_lat": 0.0, "name": "ca68c46ab9c714bc5efb7c3707a30f9b", "is_reserved": 0, "rental_uris": {"android": "https://dc.lft.to/lastmile_qr_scan", "ios": "https://dc.lft.to/lastmile_qr_scan"}, "fusion_lon": 0.0}, {"lat": 38.8502865, "is_disabled": 0, "type": "electric_bike", "lon": -77.09802533333334, "bike_id": "eb54101bf5cf938e002b488e9075712b", "fusion_lat": 0.0, "name": "eb54101bf5cf938e002b488e9075712b", "is_reserved": 0, "rental_uris": {"android": "https://dc.lft.to/lastmile_qr_scan", "ios": "https://dc.lft.to/lastmile_qr_scan"}, "fusion_lon": 0.0}, {"lat": 38.93129233333333, "is_disabled": 0, "type": "electric_scooter", "lon": -77.021605, "bike_id": "2e64d5cea6673ea3a6fb77a377018e46", "fusion_lat": 0.0, "name": "2e64d5cea6673ea3a6fb77a377018e46", "is_reserved": 0, "rental_uris": {"android": "https://dc.lft.to/lastmile_qr_scan", "ios": "https://dc.lft.to/lastmile_qr_scan"}, "fusion_lon": 0.0}, {"lat": 38.9018075, "is_disabled": 0, "type": "electric_scooter", "lon": -77.02480766666666, "bike_id": "7edf66644353e15e09d4383138d504c1", "fusion_lat": 0.0, "name": "7edf66644353e15e09d4383138d504c1", "is_reserved": 0, "rental_uris": {"android": "https://dc.lft.to/lastmile_qr_scan", "ios": "https://dc.lft.to/lastmile_qr_scan"}, "fusion_lon": 0.0}, {"lat": 38.908083166666664, "is_disabled": 0, "type": "electric_scooter", "lon": -76.982784, "bike_id": "31d99103ae67394319bb5ac360bf3b1a", "fusion_lat": 0.0, "name": "31d99103ae67394319bb5ac360bf3b1a", "is_reserved": 0, "rental_uris": {"android": "https://dc.lft.to/lastmile_qr_scan", "ios": "https://dc.lft.to/lastmile_qr_scan"}, "fusion_lon": 0.0}, {"lat": 38.95568016666667, "is_disabled": 0, "type": "electric_scooter", "lon": -77.02237266666667, "bike_id": "35f00e10d263fb54ef031c53ac9f6f05", "fusion_lat": 0.0, "name": "35f00e10d263fb54ef031c53ac9f6f05", "is_reserved": 0, "rental_uris": {"android": "https://dc.lft.to/lastmile_qr_scan", "ios": "https://dc.lft.to/lastmile_qr_scan"}, "fusion_lon": 0.0}, {"lat": 38.86562583333333, "is_disabled": 0, "type": "electric_scooter", "lon": -76.989518, "bike_id": "231b2a31a6764a4fb9e8e757f1e3198c", "fusion_lat": 0.0, "name": "231b2a31a6764a4fb9e8e757f1e3198c", "is_reserved": 0, "rental_uris": {"android": "https://dc.lft.to/lastmile_qr_scan", "ios": "https://dc.lft.to/lastmile_qr_scan"}, "fusion_lon": 0.0}, {"lat": 38.90915616666667, "is_disabled": 0, "type": "electric_scooter", "lon": -77.03645616666667, "bike_id": "7d4651f9d2faf13019650f3b21f3a136", "fusion_lat": 0.0, "name": "7d4651f9d2faf13019650f3b21f3a136", "is_reserved": 0, "rental_uris": {"android": "https://dc.lft.to/lastmile_qr_scan", "ios": "https://dc.lft.to/lastmile_qr_scan"}, "fusion_lon": 0.0}, {"lat": 38.94821666666667, "is_disabled": 0, "type": "electric_scooter", "lon": -76.9990945, "bike_id": "7011dae41f4166231f3a0c1d56f4c59f", "fusion_lat": 0.0, "name": "7011dae41f4166231f3a0c1d56f4c59f", "is_reserved": 0, "rental_uris": {"android": "https://dc.lft.to/lastmile_qr_scan", "ios": "https://dc.lft.to/lastmile_qr_scan"}, "fusion_lon": 0.0}, {"lat": 38.911948833333334, "is_disabled": 0, "type": "electric_scooter", "lon": -77.00443916666667, "bike_id": "3acc010e13afc6522928d5382ead10b8", "fusion_lat": 0.0, "name": "3acc010e13afc6522928d5382ead10b8", "is_reserved": 0, "rental_uris": {"android": "https://dc.lft.to/lastmile_qr_scan", "ios": "https://dc.lft.to/lastmile_qr_scan"}, "fusion_lon": 0.0}, {"lat": 38.878581833333335, "is_disabled": 0, "type": "electric_bike", "lon": -77.01762366666667, "bike_id": "b16714bd752c4260e2ed7ceafa3d73d7", "fusion_lat": 0.0, "name": "b16714bd752c4260e2ed7ceafa3d73d7", "is_reserved": 0, "rental_uris": {"android": "https://dc.lft.to/lastmile_qr_scan", "ios": "https://dc.lft.to/lastmile_qr_scan"}, "fusion_lon": 0.0}, {"lat": 38.9168825, "is_disabled": 0, "type": "electric_scooter", "lon": -77.03228033333333, "bike_id": "5a02e0c4b98aedcef1119d4235bdabc6", "fusion_lat": 0.0, "name": "5a02e0c4b98aedcef1119d4235bdabc6", "is_reserved": 0, "rental_uris": {"android": "https://dc.lft.to/lastmile_qr_scan", "ios": "https://dc.lft.to/lastmile_qr_scan"}, "fusion_lon": 0.0}, {"lat": 38.876270166666664, "is_disabled": 0, "type": "electric_scooter", "lon": -77.00565183333333, "bike_id": "3c36ab9b6cd4132c4f86efd489218497", "fusion_lat": 0.0, "name": "3c36ab9b6cd4132c4f86efd489218497", "is_reserved": 0, "rental_uris": {"android": "https://dc.lft.to/lastmile_qr_scan", "ios": "https://dc.lft.to/lastmile_qr_scan"}, "fusion_lon": 0.0}, {"lat": 38.89676166666667, "is_disabled": 0, "type": "electric_scooter", "lon": -77.00517533333333, "bike_id": "c7afd3917e5c84e44e8676129c955c08", "fusion_lat": 0.0, "name": "c7afd3917e5c84e44e8676129c955c08", "is_reserved": 0, "rental_uris": {"android": "https://dc.lft.to/lastmile_qr_scan", "ios": "https://dc.lft.to/lastmile_qr_scan"}, "fusion_lon": 0.0}, {"lat": 38.932367, "is_disabled": 0, "type": "electric_bike", "lon": -76.97424716666667, "bike_id": "1fec45f347a3c57ff1df9c1e375ccdef", "fusion_lat": 0.0, "name": "1fec45f347a3c57ff1df9c1e375ccdef", "is_reserved": 0, "rental_uris": {"android": "https://dc.lft.to/lastmile_qr_scan", "ios": "https://dc.lft.to/lastmile_qr_scan"}, "fusion_lon": 0.0}, {"lat": 38.916229, "is_disabled": 0, "type": "electric_scooter", "lon": -77.03735066666667, "bike_id": "807af867caea63d16a679d5abae7848e", "fusion_lat": 0.0, "name": "807af867caea63d16a679d5abae7848e", "is_reserved": 0, "rental_uris": {"android": "https://dc.lft.to/lastmile_qr_scan", "ios": "https://dc.lft.to/lastmile_qr_scan"}, "fusion_lon": 0.0}, {"lat": 38.96224266666667, "is_disabled": 0, "type": "electric_bike", "lon": -77.02629133333333, "bike_id": "2862d6cb7e89f822d670e91c63776535", "fusion_lat": 0.0, "name": "2862d6cb7e89f822d670e91c63776535", "is_reserved": 0, "rental_uris": {"android": "https://dc.lft.to/lastmile_qr_scan", "ios": "https://dc.lft.to/lastmile_qr_scan"}, "fusion_lon": 0.0}, {"lat": 38.9209555, "is_disabled": 0, "type": "electric_scooter", "lon": -77.02513866666666, "bike_id": "3c80545c25c86615538b69765633e6d2", "fusion_lat": 0.0, "name": "3c80545c25c86615538b69765633e6d2", "is_reserved": 0, "rental_uris": {"android": "https://dc.lft.to/lastmile_qr_scan", "ios": "https://dc.lft.to/lastmile_qr_scan"}, "fusion_lon": 0.0}, {"lat": 38.8708195, "is_disabled": 0, "type": "electric_scooter", "lon": -77.01117716666667, "bike_id": "fc0066cc3c9c70654be44aea7cb8f5d4", "fusion_lat": 0.0, "name": "fc0066cc3c9c70654be44aea7cb8f5d4", "is_reserved": 0, "rental_uris": {"android": "https://dc.lft.to/lastmile_qr_scan", "ios": "https://dc.lft.to/lastmile_qr_scan"}, "fusion_lon": 0.0}, {"lat": 38.900578833333334, "is_disabled": 0, "type": "electric_scooter", "lon": -77.00190283333333, "bike_id": "bf983f1214185d43faae877d9c011f8b", "fusion_lat": 0.0, "name": "bf983f1214185d43faae877d9c011f8b", "is_reserved": 0, "rental_uris": {"android": "https://dc.lft.to/lastmile_qr_scan", "ios": "https://dc.lft.to/lastmile_qr_scan"}, "fusion_lon": 0.0}, {"lat": 38.8700975, "is_disabled": 0, "type": "electric_bike", "lon": -76.96024583333333, "bike_id": "f4ea85c30cbf35fbc9859d41e6dbb952", "fusion_lat": 0.0, "name": "f4ea85c30cbf35fbc9859d41e6dbb952", "is_reserved": 0, "rental_uris": {"android": "https://dc.lft.to/lastmile_qr_scan", "ios": "https://dc.lft.to/lastmile_qr_scan"}, "fusion_lon": 0.0}, {"lat": 38.90852233333333, "is_disabled": 0, "type": "electric_scooter", "lon": -77.04768816666666, "bike_id": "b3817e1248e661931220c713bc3a3937", "fusion_lat": 0.0, "name": "b3817e1248e661931220c713bc3a3937", "is_reserved": 0, "rental_uris": {"android": "https://dc.lft.to/lastmile_qr_scan", "ios": "https://dc.lft.to/lastmile_qr_scan"}, "fusion_lon": 0.0}, {"lat": 38.907634333333334, "is_disabled": 0, "type": "electric_scooter", "lon": -77.00224033333333, "bike_id": "6740aee3f3c81d9719106b42edfc6da5", "fusion_lat": 0.0, "name": "6740aee3f3c81d9719106b42edfc6da5", "is_reserved": 0, "rental_uris": {"android": "https://dc.lft.to/lastmile_qr_scan", "ios": "https://dc.lft.to/lastmile_qr_scan"}, "fusion_lon": 0.0}, {"lat": 38.9044415, "is_disabled": 0, "type": "electric_scooter", "lon": -77.02874416666667, "bike_id": "4d85e5bb413abf48ee000a81fc2f044a", "fusion_lat": 0.0, "name": "4d85e5bb413abf48ee000a81fc2f044a", "is_reserved": 0, "rental_uris": {"android": "https://dc.lft.to/lastmile_qr_scan", "ios": "https://dc.lft.to/lastmile_qr_scan"}, "fusion_lon": 0.0}, {"lat": 38.9086535, "is_disabled": 0, "type": "electric_scooter", "lon": -77.04590966666666, "bike_id": "688de25c4eabb2c3295852fee9e718a4", "fusion_lat": 0.0, "name": "688de25c4eabb2c3295852fee9e718a4", "is_reserved": 0, "rental_uris": {"android": "https://dc.lft.to/lastmile_qr_scan", "ios": "https://dc.lft.to/lastmile_qr_scan"}, "fusion_lon": 0.0}, {"lat": 38.836765666666665, "is_disabled": 0, "type": "electric_scooter", "lon": -77.00569733333333, "bike_id": "e974958461ee197c01ea682e2d392733", "fusion_lat": 0.0, "name": "e974958461ee197c01ea682e2d392733", "is_reserved": 0, "rental_uris": {"android": "https://dc.lft.to/lastmile_qr_scan", "ios": "https://dc.lft.to/lastmile_qr_scan"}, "fusion_lon": 0.0}, {"lat": 38.953759, "is_disabled": 0, "type": "electric_bike", "lon": -76.97974883333333, "bike_id": "c96b36e45ea18b17827aede2b06c3bb4", "fusion_lat": 0.0, "name": "c96b36e45ea18b17827aede2b06c3bb4", "is_reserved": 0, "rental_uris": {"android": "https://dc.lft.to/lastmile_qr_scan", "ios": "https://dc.lft.to/lastmile_qr_scan"}, "fusion_lon": 0.0}, {"lat": 38.9216245, "is_disabled": 0, "type": "electric_scooter", "lon": -77.03396233333333, "bike_id": "e7fd031e05a023fb73bae4db2df08f13", "fusion_lat": 0.0, "name": "e7fd031e05a023fb73bae4db2df08f13", "is_reserved": 0, "rental_uris": {"android": "https://dc.lft.to/lastmile_qr_scan", "ios": "https://dc.lft.to/lastmile_qr_scan"}, "fusion_lon": 0.0}, {"lat": 38.9072545, "is_disabled": 0, "type": "electric_scooter", "lon": -76.9981965, "bike_id": "55871c4adbe802b5dddb9e5ebc2a7b6d", "fusion_lat": 0.0, "name": "55871c4adbe802b5dddb9e5ebc2a7b6d", "is_reserved": 0, "rental_uris": {"android": "https://dc.lft.to/lastmile_qr_scan", "ios": "https://dc.lft.to/lastmile_qr_scan"}, "fusion_lon": 0.0}, {"lat": 38.867027666666665, "is_disabled": 0, "type": "electric_scooter", "lon": -76.98710383333334, "bike_id": "93a30b96ea78fdd4d26dac07252b202f", "fusion_lat": 0.0, "name": "93a30b96ea78fdd4d26dac07252b202f", "is_reserved": 0, "rental_uris": {"android": "https://dc.lft.to/lastmile_qr_scan", "ios": "https://dc.lft.to/lastmile_qr_scan"}, "fusion_lon": 0.0}, {"lat": 38.917896, "is_disabled": 0, "type": "electric_bike", "lon": -76.97189983333334, "bike_id": "3d2a90a4dc997ac0e6ad3d92a4f7e3bf", "fusion_lat": 0.0, "name": "3d2a90a4dc997ac0e6ad3d92a4f7e3bf", "is_reserved": 0, "rental_uris": {"android": "https://dc.lft.to/lastmile_qr_scan", "ios": "https://dc.lft.to/lastmile_qr_scan"}, "fusion_lon": 0.0}, {"lat": 38.917108166666665, "is_disabled": 0, "type": "electric_scooter", "lon": -77.0322475, "bike_id": "67f6a7410cd1f54802e3cd6c484831ae", "fusion_lat": 0.0, "name": "67f6a7410cd1f54802e3cd6c484831ae", "is_reserved": 0, "rental_uris": {"android": "https://dc.lft.to/lastmile_qr_scan", "ios": "https://dc.lft.to/lastmile_qr_scan"}, "fusion_lon": 0.0}, {"lat": 38.92419816666666, "is_disabled": 0, "type": "electric_bike", "lon": -77.05050166666666, "bike_id": "f5e1cf842aab0c603c2823ecc1147f9d", "fusion_lat": 0.0, "name": "f5e1cf842aab0c603c2823ecc1147f9d", "is_reserved": 0, "rental_uris": {"android": "https://dc.lft.to/lastmile_qr_scan", "ios": "https://dc.lft.to/lastmile_qr_scan"}, "fusion_lon": 0.0}, {"lat": 38.9057745, "is_disabled": 0, "type": "electric_scooter", "lon": -77.04865633333333, "bike_id": "988b135dafabc482df3dee4a4fda834f", "fusion_lat": 0.0, "name": "988b135dafabc482df3dee4a4fda834f", "is_reserved": 0, "rental_uris": {"android": "https://dc.lft.to/lastmile_qr_scan", "ios": "https://dc.lft.to/lastmile_qr_scan"}, "fusion_lon": 0.0}, {"lat": 38.861727333333334, "is_disabled": 0, "type": "electric_bike", "lon": -77.13146416666666, "bike_id": "afff6f22db840b379cfb563c12cf6f5c", "fusion_lat": 0.0, "name": "afff6f22db840b379cfb563c12cf6f5c", "is_reserved": 0, "rental_uris": {"android": "https://dc.lft.to/lastmile_qr_scan", "ios": "https://dc.lft.to/lastmile_qr_scan"}, "fusion_lon": 0.0}, {"lat": 38.92863033333333, "is_disabled": 0, "type": "electric_bike", "lon": -76.98936466666666, "bike_id": "73555bf04dbe93a5b64af0868832bdc7", "fusion_lat": 0.0, "name": "73555bf04dbe93a5b64af0868832bdc7", "is_reserved": 0, "rental_uris": {"android": "https://dc.lft.to/lastmile_qr_scan", "ios": "https://dc.lft.to/lastmile_qr_scan"}, "fusion_lon": 0.0}, {"lat": 38.9177745, "is_disabled": 0, "type": "electric_scooter", "lon": -77.02309883333334, "bike_id": "a7d5e89efd061fc06a975b863dc4698e", "fusion_lat": 0.0, "name": "a7d5e89efd061fc06a975b863dc4698e", "is_reserved": 0, "rental_uris": {"android": "https://dc.lft.to/lastmile_qr_scan", "ios": "https://dc.lft.to/lastmile_qr_scan"}, "fusion_lon": 0.0}, {"lat": 38.9009725, "is_disabled": 0, "type": "electric_scooter", "lon": -77.00329066666667, "bike_id": "6f2314dd27e2c727b41a6fd3d2bd395e", "fusion_lat": 0.0, "name": "6f2314dd27e2c727b41a6fd3d2bd395e", "is_reserved": 0, "rental_uris": {"android": "https://dc.lft.to/lastmile_qr_scan", "ios": "https://dc.lft.to/lastmile_qr_scan"}, "fusion_lon": 0.0}, {"lat": 38.9077565, "is_disabled": 0, "type": "electric_scooter", "lon": -77.03864433333334, "bike_id": "5c3a1715b97d7ef5fca70fc047d147c6", "fusion_lat": 0.0, "name": "5c3a1715b97d7ef5fca70fc047d147c6", "is_reserved": 0, "rental_uris": {"android": "https://dc.lft.to/lastmile_qr_scan", "ios": "https://dc.lft.to/lastmile_qr_scan"}, "fusion_lon": 0.0}, {"lat": 38.86887083333333, "is_disabled": 0, "type": "electric_scooter", "lon": -76.983107, "bike_id": "292706e29a84bae6a790503e21162438", "fusion_lat": 0.0, "name": "292706e29a84bae6a790503e21162438", "is_reserved": 0, "rental_uris": {"android": "https://dc.lft.to/lastmile_qr_scan", "ios": "https://dc.lft.to/lastmile_qr_scan"}, "fusion_lon": 0.0}, {"lat": 38.882623333333335, "is_disabled": 0, "type": "electric_scooter", "lon": -77.0043735, "bike_id": "ac25424ea7c367412e702cf69f313311", "fusion_lat": 0.0, "name": "ac25424ea7c367412e702cf69f313311", "is_reserved": 0, "rental_uris": {"android": "https://dc.lft.to/lastmile_qr_scan", "ios": "https://dc.lft.to/lastmile_qr_scan"}, "fusion_lon": 0.0}, {"lat": 38.90013616666667, "is_disabled": 0, "type": "electric_scooter", "lon": -77.04036083333334, "bike_id": "d34c569cc798934d42d58f62524dc0a9", "fusion_lat": 0.0, "name": "d34c569cc798934d42d58f62524dc0a9", "is_reserved": 0, "rental_uris": {"android": "https://dc.lft.to/lastmile_qr_scan", "ios": "https://dc.lft.to/lastmile_qr_scan"}, "fusion_lon": 0.0}, {"lat": 38.905871833333336, "is_disabled": 0, "type": "electric_scooter", "lon": -77.00847183333333, "bike_id": "e26c142fed6c416a9bb7285098bf7a50", "fusion_lat": 0.0, "name": "e26c142fed6c416a9bb7285098bf7a50", "is_reserved": 0, "rental_uris": {"android": "https://dc.lft.to/lastmile_qr_scan", "ios": "https://dc.lft.to/lastmile_qr_scan"}, "fusion_lon": 0.0}, {"lat": 38.89894616666667, "is_disabled": 0, "type": "electric_scooter", "lon": -76.99727483333334, "bike_id": "56c480306e3aea15cd2dd4f295e62b99", "fusion_lat": 0.0, "name": "56c480306e3aea15cd2dd4f295e62b99", "is_reserved": 0, "rental_uris": {"android": "https://dc.lft.to/lastmile_qr_scan", "ios": "https://dc.lft.to/lastmile_qr_scan"}, "fusion_lon": 0.0}, {"lat": 38.90374633333333, "is_disabled": 0, "type": "electric_scooter", "lon": -77.01659583333333, "bike_id": "efb335142b71b6f7fc2485a7d56bf85e", "fusion_lat": 0.0, "name": "efb335142b71b6f7fc2485a7d56bf85e", "is_reserved": 0, "rental_uris": {"android": "https://dc.lft.to/lastmile_qr_scan", "ios": "https://dc.lft.to/lastmile_qr_scan"}, "fusion_lon": 0.0}, {"lat": 38.900478166666666, "is_disabled": 0, "type": "electric_scooter", "lon": -77.01302466666667, "bike_id": "7c5d52d84dd9945fe65501d39481a6b3", "fusion_lat": 0.0, "name": "7c5d52d84dd9945fe65501d39481a6b3", "is_reserved": 0, "rental_uris": {"android": "https://dc.lft.to/lastmile_qr_scan", "ios": "https://dc.lft.to/lastmile_qr_scan"}, "fusion_lon": 0.0}, {"lat": 38.911855, "is_disabled": 0, "type": "electric_scooter", "lon": -77.00246566666667, "bike_id": "e6b24430fa0aa022815e1973056a9b76", "fusion_lat": 0.0, "name": "e6b24430fa0aa022815e1973056a9b76", "is_reserved": 0, "rental_uris": {"android": "https://dc.lft.to/lastmile_qr_scan", "ios": "https://dc.lft.to/lastmile_qr_scan"}, "fusion_lon": 0.0}, {"lat": 38.902939333333336, "is_disabled": 0, "type": "electric_scooter", "lon": -77.00209333333333, "bike_id": "3fc1b911b4ea1ae5a9f6638e6ecf1b92", "fusion_lat": 0.0, "name": "3fc1b911b4ea1ae5a9f6638e6ecf1b92", "is_reserved": 0, "rental_uris": {"android": "https://dc.lft.to/lastmile_qr_scan", "ios": "https://dc.lft.to/lastmile_qr_scan"}, "fusion_lon": 0.0}, {"lat": 38.909759666666666, "is_disabled": 0, "type": "electric_scooter", "lon": -77.03202766666666, "bike_id": "5dfb83fec870aaa32f4cc173df5146cd", "fusion_lat": 0.0, "name": "5dfb83fec870aaa32f4cc173df5146cd", "is_reserved": 0, "rental_uris": {"android": "https://dc.lft.to/lastmile_qr_scan", "ios": "https://dc.lft.to/lastmile_qr_scan"}, "fusion_lon": 0.0}, {"lat": 38.9135935, "is_disabled": 0, "type": "electric_scooter", "lon": -77.069236, "bike_id": "a4cddc72ed4305ba822693c3cf45cc77", "fusion_lat": 0.0, "name": "a4cddc72ed4305ba822693c3cf45cc77", "is_reserved": 0, "rental_uris": {"android": "https://dc.lft.to/lastmile_qr_scan", "ios": "https://dc.lft.to/lastmile_qr_scan"}, "fusion_lon": 0.0}, {"lat": 38.93145, "is_disabled": 0, "type": "electric_scooter", "lon": -77.04147016666667, "bike_id": "6b6d944fd5f1171d5df74039a9b16f35", "fusion_lat": 0.0, "name": "6b6d944fd5f1171d5df74039a9b16f35", "is_reserved": 0, "rental_uris": {"android": "https://dc.lft.to/lastmile_qr_scan", "ios": "https://dc.lft.to/lastmile_qr_scan"}, "fusion_lon": 0.0},