{"data": {"bikes": [{"fusion_lat": 0.0, "name": "4bc31e3d27f5fe19a7149a942eff9689", "is_disabled": 0, "rental_uris": {"android": "https://dc.lft.to/lastmile_qr_scan", "ios": "https://dc.lft.to/lastmile_qr_scan"}, "fusion_lon": 0.0, "lat": 38.89525283333333, "bike_id": "4bc31e3d27f5fe19a7149a942eff9689", "type": "electric_scooter", "is_reserved": 0, "lon": -76.93409983333333}, {"fusion_lat": 0.0, "name": "5925c2ea7a074c8d73dc426c9bfb2241", "is_disabled": 0, "rental_uris": {"android": "https://dc.lft.to/lastmile_qr_scan", "ios": "https://dc.lft.to/lastmile_qr_scan"}, "fusion_lon": 0.0, "lat": 38.899004166666664, "bike_id": "5925c2ea7a074c8d73dc426c9bfb2241", "type": "electric_scooter", "is_reserved": 0, "lon": -76.99386966666667}, {"fusion_lat": 0.0, "name": "40be992829cd0ff0f77cfa8a6d817a37", "is_disabled": 0, "rental_uris": {"android": "https://dc.lft.to/lastmile_qr_scan", "ios": "https://dc.lft.to/lastmile_qr_scan"}, "fusion_lon": 0.0, "lat": 38.895036833333336, "bike_id": "40be992829cd0ff0f77cfa8a6d817a37", "type": "electric_scooter", "is_reserved": 0, "lon": -77.039568}, {"fusion_lat": 0.0, "name": "f9e4a1de7fd41683a4c8f8cace2f15ae", "is_disabled": 0, "rental_uris": {"android": "https://dc.lft.to/lastmile_qr_scan", "ios": "https://dc.lft.to/lastmile_qr_scan"}, "fusion_lon": 0.0, "lat": 38.91673816666667, "bike_id": "f9e4a1de7fd41683a4c8f8cace2f15ae", "type": "electric_scooter", "is_reserved": 0, "lon": -77.01572633333333}, {"fusion_lat": 0.0, "name": "ab5098e29f126e7967ff6d2732101d01", "is_disabled": 0, "rental_uris": {"android": "https://dc.lft.to/lastmile_qr_scan", "ios": "https://dc.lft.to/lastmile_qr_scan"}, "fusion_lon": 0.0, "lat": 38.877146, "bike_id": "ab5098e29f126e7967ff6d2732101d01", "type": "electric_scooter", "is_reserved": 0, "lon": -77.017725}, {"fusion_lat": 0.0, "name": "e1dba5426306fca7a73b7a96aa3231ba", "is_disabled": 0, "rental_uris": {"android": "https://dc.lft.to/lastmile_qr_scan", "ios": "https://dc.lft.to/lastmile_qr_scan"}, "fusion_lon": 0.0, "lat": 38.905154, "bike_id": "e1dba5426306fca7a73b7a96aa3231ba", "type": "electric_scooter", "is_reserved": 0, "lon": -77.06459316666667}, {"fusion_lat": 0.0, "name": "5b23a9e95a07fbae922bfdd9dc172e6f", "is_disabled": 0, "rental_uris": {"android": "https://dc.lft.to/lastmile_qr_scan", "ios": "https://dc.lft.to/lastmile_qr_scan"}, "fusion_lon": 0.0, "lat": 38.91120466666667, "bike_id": "5b23a9e95a07fbae922bfdd9dc172e6f", "type": "electric_scooter", "is_reserved": 0, "lon": -76.9976565}, {"fusion_lat": 0.0, "name": "dcd449607220f12c03836f0083a07af1", "is_disabled": 0, "rental_uris": {"android": "https://dc.lft.to/lastmile_qr_scan", "ios": "https://dc.lft.to/lastmile_qr_scan"}, "fusion_lon": 0.0, "lat": 38.93950733333333, "bike_id": "dcd449607220f12c03836f0083a07af1", "type": "electric_scooter", "is_reserved": 0, "lon": -77.02181383333334}, {"fusion_lat": 0.0, "name": "48685f52f149797ce9030eaf5d8084e4", "is_disabled": 0, "rental_uris": {"android": "https://dc.lft.to/lastmile_qr_scan", "ios": "https://dc.lft.to/lastmile_qr_scan"}, "fusion_lon": 0.0, "lat": 38.89828833333333, "bike_id": "48685f52f149797ce9030eaf5d8084e4", "type": "electric_scooter", "is_reserved": 0, "lon": -77.02578983333333}, {"fusion_lat": 0.0, "name": "08b06ecf30c9e90b820022d31a9c2b0a", "is_disabled": 0, "rental_uris": {"android": "https://dc.lft.to/lastmile_qr_scan", "ios": "https://dc.lft.to/lastmile_qr_scan"}, "fusion_lon": 0.0, "lat": 38.900865833333334, "bike_id": "08b06ecf30c9e90b820022d31a9c2b0a", "type": "electric_scooter", "is_reserved": 0, "lon": -76.983395}, {"fusion_lat": 0.0, "name": "329e514004bfe772c5a4e93191b7aba5", "is_disabled": 0, "rental_uris": {"android": "https://dc.lft.to/lastmile_qr_scan", "ios": "https://dc.lft.to/lastmile_qr_scan"}, "fusion_lon": 0.0, "lat": 38.911271, "bike_id": "329e514004bfe772c5a4e93191b7aba5", "type": "electric_scooter", "is_reserved": 0, "lon": -76.99751583333334}, {"fusion_lat": 0.0, "name": "b9a540522956ed3ca733ec3052789480", "is_disabled": 0, "rental_uris": {"android": "https://dc.lft.to/lastmile_qr_scan", "ios": "https://dc.lft.to/lastmile_qr_scan"}, "fusion_lon": 0.0, "lat": 38.8718035, "bike_id": "b9a540522956ed3ca733ec3052789480", "type": "electric_scooter", "is_reserved": 0, "lon": -77.005727}, {"fusion_lat": 0.0, "name": "c41147ecc10342c5657d8dcfde6e25a4", "is_disabled": 0, "rental_uris": {"android": "https://dc.lft.to/lastmile_qr_scan", "ios": "https://dc.lft.to/lastmile_qr_scan"}, "fusion_lon": 0.0, "lat": 38.931309666666664, "bike_id": "c41147ecc10342c5657d8dcfde6e25a4", "type": "electric_scooter", "is_reserved": 0, "lon": -77.03854533333333}, {"fusion_lat": 0.0, "name": "63f6ce9808c8f565cb837438ab769f77", "is_disabled": 0, "rental_uris": {"android": "https://dc.lft.to/lastmile_qr_scan", "ios": "https://dc.lft.to/lastmile_qr_scan"}, "fusion_lon": 0.0, "lat": 38.95624816666667, "bike_id": "63f6ce9808c8f565cb837438ab769f77", "type": "electric_bike", "is_reserved": 0, "lon": -76.93896433333333}, {"fusion_lat": 0.0, "name": "34a083a35999cdfa0481a453a465ff15", "is_disabled": 0, "rental_uris": {"android": "https://dc.lft.to/lastmile_qr_scan", "ios": "https://dc.lft.to/lastmile_qr_scan"}, "fusion_lon": 0.0, "lat": 38.91484833333333, "bike_id": "34a083a35999cdfa0481a453a465ff15", "type": "electric_scooter", "is_reserved": 0, "lon": -77.04606933333334}, {"fusion_lat": 0.0, "name": "d7625822f28e136cb87ec72aa8a14371", "is_disabled": 0, "rental_uris": {"android": "https://dc.lft.to/lastmile_qr_scan", "ios": "https://dc.lft.to/lastmile_qr_scan"}, "fusion_lon": 0.0, "lat": 38.91972483333333, "bike_id": "d7625822f28e136cb87ec72aa8a14371", "type": "electric_scooter", "is_reserved": 0, "lon": -77.02598316666666}, {"fusion_lat": 0.0, "name": "261c4a649859e121d235da7d8c5ed5b4", "is_disabled": 0, "rental_uris": {"android": "https://dc.lft.to/lastmile_qr_scan", "ios": "https://dc.lft.to/lastmile_qr_scan"}, "fusion_lon": 0.0, "lat": 38.925700666666664, "bike_id": "261c4a649859e121d235da7d8c5ed5b4", "type": "electric_scooter", "is_reserved": 0, "lon": -77.0377575}, {"fusion_lat": 0.0, "name": "84d57bd0572b828d9e62c3b889bdb2c5", "is_disabled": 0, "rental_uris": {"android": "https://dc.lft.to/lastmile_qr_scan", "ios": "https://dc.lft.to/lastmile_qr_scan"}, "fusion_lon": 0.0, "lat": 38.90970166666666, "bike_id": "84d57bd0572b828d9e62c3b889bdb2c5", "type": "electric_scooter", "is_reserved": 0, "lon": -77.04799966666667}, {"fusion_lat": 0.0, "name": "a4a61ff296e36b6c6595da12fbdb16dd", "is_disabled": 0, "rental_uris": {"android": "https://dc.lft.to/lastmile_qr_scan", "ios": "https://dc.lft.to/lastmile_qr_scan"}, "fusion_lon": 0.0, "lat": 38.904803666666666, "bike_id": "a4a61ff296e36b6c6595da12fbdb16dd", "type": "electric_scooter", "is_reserved": 0, "lon": -76.996193}, {"fusion_lat": 0.0, "name": "c101c3cadcadc7dd4e3c3d2518c38025", "is_disabled": 0, "rental_uris": {"android": "https://dc.lft.to/lastmile_qr_scan", "ios": "https://dc.lft.to/lastmile_qr_scan"}, "fusion_lon": 0.0, "lat": 38.883009, "bike_id": "c101c3cadcadc7dd4e3c3d2518c38025", "type": "electric_scooter", "is_reserved": 0, "lon": -76.94857383333333}, {"fusion_lat": 0.0, "name": "580185bd252e62e08483f0582f44dca5", "is_disabled": 0, "rental_uris": {"android": "https://dc.lft.to/lastmile_qr_scan", "ios": "https://dc.lft.to/lastmile_qr_scan"}, "fusion_lon": 0.0, "lat": 38.87715266666667, "bike_id": "580185bd252e62e08483f0582f44dca5", "type": "electric_scooter", "is_reserved": 0, "lon": -77.0177935}, {"fusion_lat": 0.0, "name": "fc2a9e93a145fdb3f138d7a2f732ec59", "is_disabled": 0, "rental_uris": {"android": "https://dc.lft.to/lastmile_qr_scan", "ios": "https://dc.lft.to/lastmile_qr_scan"}, "fusion_lon": 0.0, "lat": 38.93178833333333, "bike_id": "fc2a9e93a145fdb3f138d7a2f732ec59", "type": "electric_bike", "is_reserved": 0, "lon": -77.03536633333333}, {"fusion_lat": 0.0, "name": "d4e22075b8107251e38a50369711046c", "is_disabled": 0, "rental_uris": {"android": "https://dc.lft.to/lastmile_qr_scan", "ios": "https://dc.lft.to/lastmile_qr_scan"}, "fusion_lon": 0.0, "lat": 38.863325, "bike_id": "d4e22075b8107251e38a50369711046c", "type": "electric_bike", "is_reserved": 0, "lon": -76.98723533333333}, {"fusion_lat": 0.0, "name": "94117c219eafb5d132c7bc48227d3055", "is_disabled": 0, "rental_uris": {"android": "https://dc.lft.to/lastmile_qr_scan", "ios": "https://dc.lft.to/lastmile_qr_scan"}, "fusion_lon": 0.0, "lat": 38.80755633333333, "bike_id": "94117c219eafb5d132c7bc48227d3055", "type": "electric_bike", "is_reserved": 0, "lon": -77.09452266666666}, {"fusion_lat": 0.0, "name": "95ec33d365d0b9ee391c9d6cf8b8e3d7", "is_disabled": 0, "rental_uris": {"android": "https://dc.lft.to/lastmile_qr_scan", "ios": "https://dc.lft.to/lastmile_qr_scan"}, "fusion_lon": 0.0, "lat": 38.886524, "bike_id": "95ec33d365d0b9ee391c9d6cf8b8e3d7", "type": "electric_scooter", "is_reserved": 0, "lon": -77.01984983333334}, {"fusion_lat": 0.0, "name": "63224ec7b14de0382dba48d489159259", "is_disabled": 0, "rental_uris": {"android": "https://dc.lft.to/lastmile_qr_scan", "ios": "https://dc.lft.to/lastmile_qr_scan"}, "fusion_lon": 0.0, "lat": 38.898571, "bike_id": "63224ec7b14de0382dba48d489159259", "type": "electric_scooter", "is_reserved": 0, "lon": -77.0298505}, {"fusion_lat": 0.0, "name": "6130b30a71bb08d71bb3296f335dd447", "is_disabled": 0, "rental_uris": {"android": "https://dc.lft.to/lastmile_qr_scan", "ios": "https://dc.lft.to/lastmile_qr_scan"}, "fusion_lon": 0.0, "lat": 38.9274735, "bike_id": "6130b30a71bb08d71bb3296f335dd447", "type": "electric_scooter", "is_reserved": 0, "lon": -77.03278833333333}, {"fusion_lat": 0.0, "name": "b1c8b866fb33826f60210deeaebf829d", "is_disabled": 0, "rental_uris": {"android": "https://dc.lft.to/lastmile_qr_scan", "ios": "https://dc.lft.to/lastmile_qr_scan"}, "fusion_lon": 0.0, "lat": 38.910034, "bike_id": "b1c8b866fb33826f60210deeaebf829d", "type": "electric_scooter", "is_reserved": 0, "lon": -77.0400565}, {"fusion_lat": 0.0, "name": "5b823ee6daf4af4f4b917f5b37e4368c", "is_disabled": 0, "rental_uris": {"android": "https://dc.lft.to/lastmile_qr_scan", "ios": "https://dc.lft.to/lastmile_qr_scan"}, "fusion_lon": 0.0, "lat": 38.926814, "bike_id": "5b823ee6daf4af4f4b917f5b37e4368c", "type": "electric_scooter", "is_reserved": 0, "lon": -77.0257675}, {"fusion_lat": 0.0, "name": "b1d4fb4b470d3d6fa75755e9d8a83efa", "is_disabled": 0, "rental_uris": {"android": "https://dc.lft.to/lastmile_qr_scan", "ios": "https://dc.lft.to/lastmile_qr_scan"}, "fusion_lon": 0.0, "lat": 38.932652166666664, "bike_id": "b1d4fb4b470d3d6fa75755e9d8a83efa", "type": "electric_scooter", "is_reserved": 0, "lon": -76.98900066666667}, {"fusion_lat": 0.0, "name": "05b25b7cbea87ad57da28cd92936193f", "is_disabled": 0, "rental_uris": {"android": "https://dc.lft.to/lastmile_qr_scan", "ios": "https://dc.lft.to/lastmile_qr_scan"}, "fusion_lon": 0.0, "lat": 38.953446166666666, "bike_id": "05b25b7cbea87ad57da28cd92936193f", "type": "electric_scooter", "is_reserved": 0, "lon": -77.02555733333334}, {"fusion_lat": 0.0, "name": "b1ccadbb1ee39a30fcff1118b4573117", "is_disabled": 0, "rental_uris": {"android": "https://dc.lft.to/lastmile_qr_scan", "ios": "https://dc.lft.to/lastmile_qr_scan"}, "fusion_lon": 0.0, "lat": 38.90924, "bike_id": "b1ccadbb1ee39a30fcff1118b4573117", "type": "electric_scooter", "is_reserved": 0, "lon": -77.0641925}, {"fusion_lat": 0.0, "name": "8899b752b2ffd23cc673babb671ed45b", "is_disabled": 0, "rental_uris": {"android": "https://dc.lft.to/lastmile_qr_scan", "ios": "https://dc.lft.to/lastmile_qr_scan"}, "fusion_lon": 0.0, "lat": 38.90773316666667, "bike_id": "8899b752b2ffd23cc673babb671ed45b", "type": "electric_scooter", "is_reserved": 0, "lon": -77.038548}, {"fusion_lat": 0.0, "name": "9ada63e5031e2bc773e861a8d1a98e2a", "is_disabled": 0, "rental_uris": {"android": "https://dc.lft.to/lastmile_qr_scan", "ios": "https://dc.lft.to/lastmile_qr_scan"}, "fusion_lon": 0.0, "lat": 38.925339, "bike_id": "9ada63e5031e2bc773e861a8d1a98e2a", "type": "electric_scooter", "is_reserved": 0, "lon": -77.03484266666666}, {"fusion_lat": 0.0, "name": "99f22564e682709e1fb7ada33a1ab429", "is_disabled": 0, "rental_uris": {"android": "https://dc.lft.to/lastmile_qr_scan", "ios": "https://dc.lft.to/lastmile_qr_scan"}, "fusion_lon": 0.0, "lat": 38.93006366666667, "bike_id": "99f22564e682709e1fb7ada33a1ab429", "type": "electric_scooter", "is_reserved": 0, "lon": -77.05546316666667}, {"fusion_lat": 0.0, "name": "7571f4877e8205aafa66be2b75dbb9db", "is_disabled": 0, "rental_uris": {"android": "https://dc.lft.to/lastmile_qr_scan", "ios": "https://dc.lft.to/lastmile_qr_scan"}, "fusion_lon": 0.0, "lat": 38.9192035, "bike_id": "7571f4877e8205aafa66be2b75dbb9db", "type": "electric_scooter", "is_reserved": 0, "lon": -77.03216966666666}, {"fusion_lat": 0.0, "name": "aad4ed99e817a40c09c936e0ce412fe9", "is_disabled": 0, "rental_uris": {"android": "https://dc.lft.to/lastmile_qr_scan", "ios": "https://dc.lft.to/lastmile_qr_scan"}, "fusion_lon": 0.0, "lat": 38.929257, "bike_id": "aad4ed99e817a40c09c936e0ce412fe9", "type": "electric_scooter", "is_reserved": 0, "lon": -77.03273466666667}, {"fusion_lat": 0.0, "name": "1ffe5015653e6280f961b4b3e0cb4ad3", "is_disabled": 0, "rental_uris": {"android": "https://dc.lft.to/lastmile_qr_scan", "ios": "https://dc.lft.to/lastmile_qr_scan"}, "fusion_lon": 0.0, "lat": 38.9160085, "bike_id": "1ffe5015653e6280f961b4b3e0cb4ad3", "type": "electric_scooter", "is_reserved": 0, "lon": -77.03200033333333}, {"fusion_lat": 0.0, "name": "1d7cc3e502392a450dd6a49ed55b17f2", "is_disabled": 0, "rental_uris": {"android": "https://dc.lft.to/lastmile_qr_scan", "ios": "https://dc.lft.to/lastmile_qr_scan"}, "fusion_lon": 0.0, "lat": 38.90054666666666, "bike_id": "1d7cc3e502392a450dd6a49ed55b17f2", "type": "electric_scooter", "is_reserved": 0, "lon": -77.00065716666667}, {"fusion_lat": 0.0, "name": "225a8782fac10c13e68784d3b31cf3bb", "is_disabled": 0, "rental_uris": {"android": "https://dc.lft.to/lastmile_qr_scan", "ios": "https://dc.lft.to/lastmile_qr_scan"}, "fusion_lon": 0.0, "lat": 38.9089395, "bike_id": "225a8782fac10c13e68784d3b31cf3bb", "type": "electric_scooter", "is_reserved": 0, "lon": -77.03222983333333}, {"fusion_lat": 0.0, "name": "b3e7dcd4892966d517d7086dafb5ffb2", "is_disabled": 0, "rental_uris": {"android": "https://dc.lft.to/lastmile_qr_scan", "ios": "https://dc.lft.to/lastmile_qr_scan"}, "fusion_lon": 0.0, "lat": 38.917136666666664, "bike_id": "b3e7dcd4892966d517d7086dafb5ffb2", "type": "electric_scooter", "is_reserved": 0, "lon": -77.03038716666667}, {"fusion_lat": 0.0, "name": "b0798923ddca50275da6520bb87c754c", "is_disabled": 0, "rental_uris": {"android": "https://dc.lft.to/lastmile_qr_scan", "ios": "https://dc.lft.to/lastmile_qr_scan"}, "fusion_lon": 0.0, "lat": 38.879557166666665, "bike_id": "b0798923ddca50275da6520bb87c754c", "type": "electric_scooter", "is_reserved": 0, "lon": -77.00642066666667}, {"fusion_lat": 0.0, "name": "b912d734035aac604caa046d87af869f", "is_disabled": 0, "rental_uris": {"android": "https://dc.lft.to/lastmile_qr_scan", "ios": "https://dc.lft.to/lastmile_qr_scan"}, "fusion_lon": 0.0, "lat": 38.94836, "bike_id": "b912d734035aac604caa046d87af869f", "type": "electric_scooter", "is_reserved": 0, "lon": -77.06534133333334}, {"fusion_lat": 0.0, "name": "08ef66c0caeaaa7a40a2640dc6a66942", "is_disabled": 0, "rental_uris": {"android": "https://dc.lft.to/lastmile_qr_scan", "ios": "https://dc.lft.to/lastmile_qr_scan"}, "fusion_lon": 0.0, "lat": 38.9118005, "bike_id": "08ef66c0caeaaa7a40a2640dc6a66942", "type": "electric_scooter", "is_reserved": 0, "lon": -77.02184916666667}, {"fusion_lat": 0.0, "name": "89374c6693131ca55921dd3a622594eb", "is_disabled": 0, "rental_uris": {"android": "https://dc.lft.to/lastmile_qr_scan", "ios": "https://dc.lft.to/lastmile_qr_scan"}, "fusion_lon": 0.0, "lat": 38.903077333333336, "bike_id": "89374c6693131ca55921dd3a622594eb", "type": "electric_scooter", "is_reserved": 0, "lon": -77.06111}, {"fusion_lat": 0.0, "name": "17127ed3132152fe1e4b927ad0181c06", "is_disabled": 0, "rental_uris": {"android": "https://dc.lft.to/lastmile_qr_scan", "ios": "https://dc.lft.to/lastmile_qr_scan"}, "fusion_lon": 0.0, "lat": 38.903605166666665, "bike_id": "17127ed3132152fe1e4b927ad0181c06", "type": "electric_scooter", "is_reserved": 0, "lon": -77.01991566666666}, {"fusion_lat": 0.0, "name": "008ce335ed169d2b7ed912ac5cfae660", "is_disabled": 0, "rental_uris": {"android": "https://dc.lft.to/lastmile_qr_scan", "ios": "https://dc.lft.to/lastmile_qr_scan"}, "fusion_lon": 0.0, "lat": 38.93784016666667, "bike_id": "008ce335ed169d2b7ed912ac5cfae660", "type": "electric_scooter", "is_reserved": 0, "lon": -77.0246425}, {"fusion_lat": 0.0, "name": "cd3dcf44b317c1d3f8d2779ef146ea4c", "is_disabled": 0, "rental_uris": {"android": "https://dc.lft.to/lastmile_qr_scan", "ios": "https://dc.lft.to/lastmile_qr_scan"}, "fusion_lon": 0.0, "lat": 38.924860833333334, "bike_id": "cd3dcf44b317c1d3f8d2779ef146ea4c", "type": "electric_scooter", "is_reserved": 0, "lon": -77.0254485}, {"fusion_lat": 0.0, "name": "3cf6ccee2a8aff84f50ef12c8e6e1143", "is_disabled": 0, "rental_uris": {"android": "https://dc.lft.to/lastmile_qr_scan", "ios": "https://dc.lft.to/lastmile_qr_scan"}, "fusion_lon": 0.0, "lat": 38.917758166666665, "bike_id": "3cf6ccee2a8aff84f50ef12c8e6e1143", "type": "electric_scooter", "is_reserved": 0, "lon": -77.0318095}, {"fusion_lat": 0.0, "name": "770d9396e2ff7975d1f75ac6e310859a", "is_disabled": 0, "rental_uris": {"android": "https://dc.lft.to/lastmile_qr_scan", "ios": "https://dc.lft.to/lastmile_qr_scan"}, "fusion_lon": 0.0, "lat": 38.94186116666667, "bike_id": "770d9396e2ff7975d1f75ac6e310859a", "type": "electric_scooter", "is_reserved": 0, "lon": -77.0249085}, {"fusion_lat": 0.0, "name": "1696272672e2fe1d4d0047cfdfbe83c2", "is_disabled": 0, "rental_uris": {"android": "https://dc.lft.to/lastmile_qr_scan", "ios": "https://dc.lft.to/lastmile_qr_scan"}, "fusion_lon": 0.0, "lat": 38.91665233333333, "bike_id": "1696272672e2fe1d4d0047cfdfbe83c2", "type": "electric_scooter", "is_reserved": 0, "lon": -77.037027}, {"fusion_lat": 0.0, "name": "49ad50fe4c08aa276bec00b9b9194697", "is_disabled": 0, "rental_uris": {"android": "https://dc.lft.to/lastmile_qr_scan", "ios": "https://dc.lft.to/lastmile_qr_scan"}, "fusion_lon": 0.0, "lat": 38.90354166666667, "bike_id": "49ad50fe4c08aa276bec00b9b9194697", "type": "electric_scooter", "is_reserved": 0, "lon": -77.01627566666667}, {"fusion_lat": 0.0, "name": "22d29ac3138ef34d738e97bbcc6f61c0", "is_disabled": 0, "rental_uris": {"android": "https://dc.lft.to/lastmile_qr_scan", "ios": "https://dc.lft.to/lastmile_qr_scan"}, "fusion_lon": 0.0, "lat": 38.92098333333333, "bike_id": "22d29ac3138ef34d738e97bbcc6f61c0", "type": "electric_scooter", "is_reserved": 0, "lon": -77.02517983333334}, {"fusion_lat": 0.0, "name": "0bdf9268c10a28e0ee0f7f0f01e5432a", "is_disabled": 0, "rental_uris": {"android": "https://dc.lft.to/lastmile_qr_scan", "ios": "https://dc.lft.to/lastmile_qr_scan"}, "fusion_lon": 0.0, "lat": 38.9944965, "bike_id": "0bdf9268c10a28e0ee0f7f0f01e5432a", "type": "electric_bike", "is_reserved": 0, "lon": -76.99591733333334}, {"fusion_lat": 0.0, "name": "3704622fd16a633ae30b7c41ad0a16d9", "is_disabled": 0, "rental_uris": {"android": "https://dc.lft.to/lastmile_qr_scan", "ios": "https://dc.lft.to/lastmile_qr_scan"}, "fusion_lon": 0.0, "lat": 38.912586, "bike_id": "3704622fd16a633ae30b7c41ad0a16d9", "type": "electric_scooter", "is_reserved": 0, "lon": -77.0387145}, {"fusion_lat": 0.0, "name": "0a469d82decf1598ccfe7ec0da3b783f", "is_disabled": 0, "rental_uris": {"android": "https://dc.lft.to/lastmile_qr_scan", "ios": "https://dc.lft.to/lastmile_qr_scan"}, "fusion_lon": 0.0, "lat": 38.89850766666667, "bike_id": "0a469d82decf1598ccfe7ec0da3b783f", "type": "electric_scooter", "is_reserved": 0, "lon": -76.99027966666667}, {"fusion_lat": 0.0, "name": "8aa9b3c316b47838a537781b14daf46a", "is_disabled": 0, "rental_uris": {"android": "https://dc.lft.to/lastmile_qr_scan", "ios": "https://dc.lft.to/lastmile_qr_scan"}, "fusion_lon": 0.0, "lat": 38.90144516666667, "bike_id": "8aa9b3c316b47838a537781b14daf46a", "type": "electric_scooter", "is_reserved": 0, "lon": -77.03873166666666}, {"fusion_lat": 0.0, "name": "39cde7753c1b4820bc5228f764f33207", "is_disabled": 0, "rental_uris": {"android": "https://dc.lft.to/lastmile_qr_scan", "ios": "https://dc.lft.to/lastmile_qr_scan"}, "fusion_lon": 0.0, "lat": 38.887409166666664, "bike_id": "39cde7753c1b4820bc5228f764f33207", "type": "electric_scooter", "is_reserved": 0, "lon": -77.02568216666667}, {"fusion_lat": 0.0, "name": "99b3965deba2fe2cf40aecbc5cca28a1", "is_disabled": 0, "rental_uris": {"android": "https://dc.lft.to/lastmile_qr_scan", "ios": "https://dc.lft.to/lastmile_qr_scan"}, "fusion_lon": 0.0, "lat": 38.9176235, "bike_id": "99b3965deba2fe2cf40aecbc5cca28a1", "type": "electric_scooter", "is_reserved": 0, "lon": -77.06950216666667}, {"fusion_lat": 0.0, "name": "0e973c37a746c8c65fba9b95ae46b7c4", "is_disabled": 0, "rental_uris": {"android": "https://dc.lft.to/lastmile_qr_scan", "ios": "https://dc.lft.to/lastmile_qr_scan"}, "fusion_lon": 0.0, "lat": 38.926503, "bike_id": "0e973c37a746c8c65fba9b95ae46b7c4", "type": "electric_scooter", "is_reserved": 0, "lon": -77.04133466666667}, {"fusion_lat": 0.0, "name": "a3b03d4d8f1977df77a559f66f6dbcd1", "is_disabled": 0, "rental_uris": {"android": "https://dc.lft.to/lastmile_qr_scan", "ios": "https://dc.lft.to/lastmile_qr_scan"}, "fusion_lon": 0.0, "lat": 38.87469766666667, "bike_id": "a3b03d4d8f1977df77a559f66f6dbcd1", "type": "electric_scooter", "is_reserved": 0, "lon": -77.00464966666667}, {"fusion_lat": 0.0, "name": "23059b12e7e2dc09c7f0d1fd29ff3eff", "is_disabled": 0, "rental_uris": {"android": "https://dc.lft.to/lastmile_qr_scan", "ios": "https://dc.lft.to/lastmile_qr_scan"}, "fusion_lon": 0.0, "lat": 38.873874666666666, "bike_id": "23059b12e7e2dc09c7f0d1fd29ff3eff", "type": "electric_scooter", "is_reserved": 0, "lon": -77.0005205}, {"fusion_lat": 0.0, "name": "96c6b2d8bbc7fb58f28b566ad6faf086", "is_disabled": 0, "rental_uris": {"android": "https://dc.lft.to/lastmile_qr_scan", "ios": "https://dc.lft.to/lastmile_qr_scan"}, "fusion_lon": 0.0, "lat": 38.93120116666667, "bike_id": "96c6b2d8bbc7fb58f28b566ad6faf086", "type": "electric_scooter", "is_reserved": 0, "lon": -77.02094883333334}, {"fusion_lat": 0.0, "name": "2a727fda41f7bcfd68b3e3175e9763f3", "is_disabled": 0, "rental_uris": {"android": "https://dc.lft.to/lastmile_qr_scan", "ios": "https://dc.lft.to/lastmile_qr_scan"}, "fusion_lon": 0.0, "lat": 38.894723666666664, "bike_id": "2a727fda41f7bcfd68b3e3175e9763f3", "type": "electric_scooter", "is_reserved": 0, "lon": -77.0176485}, {"fusion_lat": 0.0, "name": "6ae845e34ded33cad176da25a5ac102b", "is_disabled": 0, "rental_uris": {"android": "https://dc.lft.to/lastmile_qr_scan", "ios": "https://dc.lft.to/lastmile_qr_scan"}, "fusion_lon": 0.0, "lat": 38.91023333333333, "bike_id": "6ae845e34ded33cad176da25a5ac102b", "type": "electric_scooter", "is_reserved": 0, "lon": -77.0425075}, {"fusion_lat": 0.0, "name": "924f3fc73e95b980ead67193b1a2e469", "is_disabled": 0, "rental_uris": {"android": "https://dc.lft.to/lastmile_qr_scan", "ios": "https://dc.lft.to/lastmile_qr_scan"}, "fusion_lon": 0.0, "lat": 38.923505166666665, "bike_id": "924f3fc73e95b980ead67193b1a2e469", "type": "electric_scooter", "is_reserved": 0, "lon": -77.033135}, {"fusion_lat": 0.0, "name": "ebf3f7c0bf5f5f60c4f13f24a5815d3f", "is_disabled": 0, "rental_uris": {"android": "https://dc.lft.to/lastmile_qr_scan", "ios": "https://dc.lft.to/lastmile_qr_scan"}, "fusion_lon": 0.0, "lat": 38.915513, "bike_id": "ebf3f7c0bf5f5f60c4f13f24a5815d3f", "type": "electric_scooter", "is_reserved": 0, "lon": -77.03851666666667}, {"fusion_lat": 0.0, "name": "33184a03615304d36b37c5ef4f019454", "is_disabled": 0, "rental_uris": {"android": "https://dc.lft.to/lastmile_qr_scan", "ios": "https://dc.lft.to/lastmile_qr_scan"}, "fusion_lon": 0.0, "lat": 38.902399333333335, "bike_id": "33184a03615304d36b37c5ef4f019454", "type": "electric_scooter", "is_reserved": 0, "lon": -77.00198233333333}, {"fusion_lat": 0.0, "name": "8a0308106bc04437ef196b6aec428c6c", "is_disabled": 0, "rental_uris": {"android": "https://dc.lft.to/lastmile_qr_scan", "ios": "https://dc.lft.to/lastmile_qr_scan"}, "fusion_lon": 0.0, "lat": 38.9078635, "bike_id": "8a0308106bc04437ef196b6aec428c6c", "type": "electric_scooter", "is_reserved": 0, "lon": -76.99377983333333}, {"fusion_lat": 0.0, "name": "d05cd989a6385dcc1490333cbfb89544", "is_disabled": 0, "rental_uris": {"android": "https://dc.lft.to/lastmile_qr_scan", "ios": "https://dc.lft.to/lastmile_qr_scan"}, "fusion_lon": 0.0, "lat": 38.9275915, "bike_id": "d05cd989a6385dcc1490333cbfb89544", "type": "electric_scooter", "is_reserved": 0, "lon": -77.02963033333333}, {"fusion_lat": 0.0, "name": "d7890d03d86a7ced67d6b0bd8f426a82", "is_disabled": 0, "rental_uris": {"android": "https://dc.lft.to/lastmile_qr_scan", "ios": "https://dc.lft.to/lastmile_qr_scan"}, "fusion_lon": 0.0, "lat": 38.912652666666666, "bike_id": "d7890d03d86a7ced67d6b0bd8f426a82", "type": "electric_scooter", "is_reserved": 0, "lon": -77.03872933333334}, {"fusion_lat": 0.0, "name": "ffcbc4b1fbe8d3038e4e205b92c0e05c", "is_disabled": 0, "rental_uris": {"android": "https://dc.lft.to/lastmile_qr_scan", "ios": "https://dc.lft.to/lastmile_qr_scan"}, "fusion_lon": 0.0, "lat": 38.914984833333335, "bike_id": "ffcbc4b1fbe8d3038e4e205b92c0e05c", "type": "electric_scooter", "is_reserved": 0, "lon": -77.012173}, {"fusion_lat": 0.0, "name": "7145a29ae51401031ce76fe86cbccd25", "is_disabled": 0, "rental_uris": {"android": "https://dc.lft.to/lastmile_qr_scan", "ios": "https://dc.lft.to/lastmile_qr_scan"}, "fusion_lon": 0.0, "lat": 38.8931155, "bike_id": "7145a29ae51401031ce76fe86cbccd25", "type": "electric_scooter", "is_reserved": 0, "lon": -77.031922}, {"fusion_lat": 0.0, "name": "8367df27f72b5c49807457361a6c3096", "is_disabled": 0, "rental_uris": {"android": "https://dc.lft.to/lastmile_qr_scan", "ios": "https://dc.lft.to/lastmile_qr_scan"}, "fusion_lon": 0.0, "lat": 38.9509345, "bike_id": "8367df27f72b5c49807457361a6c3096", "type": "electric_scooter", "is_reserved": 0, "lon": -77.02960133333333}, {"fusion_lat": 0.0, "name": "fcd5d5380aa2c8a433a02e2f7ed62ba7", "is_disabled": 0, "rental_uris": {"android": "https://dc.lft.to/lastmile_qr_scan", "ios": "https://dc.lft.to/lastmile_qr_scan"}, "fusion_lon": 0.0, "lat": 38.9190475, "bike_id": "fcd5d5380aa2c8a433a02e2f7ed62ba7", "type": "electric_scooter", "is_reserved": 0, "lon": -77.0239065}, {"fusion_lat": 0.0, "name": "757eee0bac85369b024274e425ed274c", "is_disabled": 0, "rental_uris": {"android": "https://dc.lft.to/lastmile_qr_scan", "ios": "https://dc.lft.to/lastmile_qr_scan"}, "fusion_lon": 0.0, "lat": 38.91198833333333, "bike_id": "757eee0bac85369b024274e425ed274c", "type": "electric_scooter", "is_reserved": 0, "lon": -77.03756983333334}, {"fusion_lat": 0.0, "name": "105eceacb496d0d2c3942c7cba0e8395", "is_disabled": 0, "rental_uris": {"android": "https://dc.lft.to/lastmile_qr_scan", "ios": "https://dc.lft.to/lastmile_qr_scan"}, "fusion_lon": 0.0, "lat": 38.931053, "bike_id": "105eceacb496d0d2c3942c7cba0e8395", "type": "electric_scooter", "is_reserved": 0, "lon": -77.02373433333334}, {"fusion_lat": 0.0, "name": "e1ebe2a05070a7fd7ed872d2d4cf9598", "is_disabled": 0, "rental_uris": {"android": "https://dc.lft.to/lastmile_qr_scan", "ios": "https://dc.lft.to/lastmile_qr_scan"}, "fusion_lon": 0.0, "lat": 38.89215333333333, "bike_id": "e1ebe2a05070a7fd7ed872d2d4cf9598", "type": "electric_scooter", "is_reserved": 0, "lon": -76.9956055}, {"fusion_lat": 0.0, "name": "0c587d199a2c649b34e19f6dd4568f7c", "is_disabled": 0, "rental_uris": {"android": "https://dc.lft.to/lastmile_qr_scan", "ios": "https://dc.lft.to/lastmile_qr_scan"}, "fusion_lon": 0.0, "lat": 38.918166166666666, "bike_id": "0c587d199a2c649b34e19f6dd4568f7c", "type": "electric_scooter", "is_reserved": 0, "lon": -77.04006783333334}, {"fusion_lat": 0.0, "name": "7b8e2371999798a9beca771057216512", "is_disabled": 0, "rental_uris": {"android": "https://dc.lft.to/lastmile_qr_scan", "ios": "https://dc.lft.to/lastmile_qr_scan"}, "fusion_lon": 0.0, "lat": 38.9056475, "bike_id": "7b8e2371999798a9beca771057216512", "type": "electric_scooter", "is_reserved": 0, "lon": -77.04463133333333}, {"fusion_lat": 0.0, "name": "bfdd2b19299f2123e84000a310654bc4", "is_disabled": 0, "rental_uris": {"android": "https://dc.lft.to/lastmile_qr_scan", "ios": "https://dc.lft.to/lastmile_qr_scan"}, "fusion_lon": 0.0, "lat": 38.91264316666667, "bike_id": "bfdd2b19299f2123e84000a310654bc4", "type": "electric_scooter", "is_reserved": 0, "lon": -77.02825516666667}, {"fusion_lat": 0.0, "name": "c11d422c6861150a960f832d528fb47a", "is_disabled": 0, "rental_uris": {"android": "https://dc.lft.to/lastmile_qr_scan", "ios": "https://dc.lft.to/lastmile_qr_scan"}, "fusion_lon": 0.0, "lat": 38.95605033333333, "bike_id": "c11d422c6861150a960f832d528fb47a", "type": "electric_scooter", "is_reserved": 0, "lon": -77.0335515}, {"fusion_lat": 0.0, "name": "fc2f92889ec6e083d74cb0d365b3c15b", "is_disabled": 0, "rental_uris": {"android": "https://dc.lft.to/lastmile_qr_scan", "ios": "https://dc.lft.to/lastmile_qr_scan"}, "fusion_lon": 0.0, "lat": 38.937811833333335, "bike_id": "fc2f92889ec6e083d74cb0d365b3c15b", "type": "electric_scooter", "is_reserved": 0, "lon": -77.03269833333333}, {"fusion_lat": 0.0, "name": "379abb084cd6beae31cd07fba2bb9e61", "is_disabled": 0, "rental_uris": {"android": "https://dc.lft.to/lastmile_qr_scan", "ios": "https://dc.lft.to/lastmile_qr_scan"}, "fusion_lon": 0.0, "lat": 38.89851933333333, "bike_id": "379abb084cd6beae31cd07fba2bb9e61", "type": "electric_scooter", "is_reserved": 0, "lon": -77.02991916666667}, {"fusion_lat": 0.0, "name": "b42fe94d91fb2cffea65825f060e7586", "is_disabled": 0, "rental_uris": {"android": "https://dc.lft.to/lastmile_qr_scan", "ios": "https://dc.lft.to/lastmile_qr_scan"}, "fusion_lon": 0.0, "lat": 38.90968933333333, "bike_id": "b42fe94d91fb2cffea65825f060e7586", "type": "electric_scooter", "is_reserved": 0, "lon": -77.034256}, {"fusion_lat": 0.0, "name": "978360e1076f9c1602682e96699b9f1a", "is_disabled": 0, "rental_uris": {"android": "https://dc.lft.to/lastmile_qr_scan", "ios": "https://dc.lft.to/lastmile_qr_scan"}, "fusion_lon": 0.0, "lat": 38.9070825, "bike_id": "978360e1076f9c1602682e96699b9f1a", "type": "electric_scooter", "is_reserved": 0, "lon": -77.03592516666667}, {"fusion_lat": 0.0, "name": "21059effe9d34f38ac68fc6f6245c8f9", "is_disabled": 0, "rental_uris": {"android": "https://dc.lft.to/lastmile_qr_scan", "ios": "https://dc.lft.to/lastmile_qr_scan"}, "fusion_lon": 0.0, "lat": 38.892210166666665, "bike_id": "21059effe9d34f38ac68fc6f6245c8f9", "type": "electric_scooter", "is_reserved": 0, "lon": -77.04640716666667}, {"fusion_lat": 0.0, "name": "d3f24d850d9c20fc82cc07c5d1ff144e", "is_disabled": 0, "rental_uris": {"android": "https://dc.lft.to/lastmile_qr_scan", "ios": "https://dc.lft.to/lastmile_qr_scan"}, "fusion_lon": 0.0, "lat": 38.9127055, "bike_id": "d3f24d850d9c20fc82cc07c5d1ff144e", "type": "electric_scooter", "is_reserved": 0, "lon": -77.01769016666667}, {"fusion_lat": 0.0, "name": "6504f49bd0efdeaf383e7fbdd6410ae2", "is_disabled": 0, "rental_uris": {"android": "https://dc.lft.to/lastmile_qr_scan", "ios": "https://dc.lft.to/lastmile_qr_scan"}, "fusion_lon": 0.0, "lat": 38.90883066666667, "bike_id": "6504f49bd0efdeaf383e7fbdd6410ae2", "type": "electric_scooter", "is_reserved": 0, "lon": -76.99813983333334}, {"fusion_lat": 0.0, "name": "8ac761988fd735950736619270072f52", "is_disabled": 0, "rental_uris": {"android": "https://dc.lft.to/lastmile_qr_scan", "ios": "https://dc.lft.to/lastmile_qr_scan"}, "fusion_lon": 0.0, "lat": 38.898909333333336, "bike_id": "8ac761988fd735950736619270072f52", "type": "electric_scooter", "is_reserved": 0, "lon": -76.99360366666667}, {"fusion_lat": 0.0, "name": "55c5c44e98fce6f35e2548a196000c1b", "is_disabled": 0, "rental_uris": {"android": "https://dc.lft.to/lastmile_qr_scan", "ios": "https://dc.lft.to/lastmile_qr_scan"}, "fusion_lon": 0.0, "lat": 38.91715683333334, "bike_id": "55c5c44e98fce6f35e2548a196000c1b", "type": "electric_scooter", "is_reserved": 0, "lon": -77.03126816666666}, {"fusion_lat": 0.0, "name": "40290c9b6ce70e188531daa71c21653c", "is_disabled": 0, "rental_uris": {"android": "https://dc.lft.to/lastmile_qr_scan", "ios": "https://dc.lft.to/lastmile_qr_scan"}, "fusion_lon": 0.0, "lat": 38.91325716666667, "bike_id": "40290c9b6ce70e188531daa71c21653c", "type": "electric_scooter", "is_reserved": 0, "lon": -77.03649566666667}, {"fusion_lat": 0.0, "name": "8e73eb7df4a88198f902bdd3c4545f75", "is_disabled": 0, "rental_uris": {"android": "https://dc.lft.to/lastmile_qr_scan", "ios": "https://dc.lft.to/lastmile_qr_scan"}, "fusion_lon": 0.0, "lat": 38.911529, "bike_id": "8e73eb7df4a88198f902bdd3c4545f75", "type": "electric_scooter", "is_reserved": 0, "lon": -77.08757533333333}, {"fusion_lat": 0.0, "name": "731b5704bf4f97fce6649470b7b58265", "is_disabled": 0, "rental_uris": {"android": "https://dc.lft.to/lastmile_qr_scan", "ios": "https://dc.lft.to/lastmile_qr_scan"}, "fusion_lon": 0.0, "lat": 38.8851075, "bike_id": "731b5704bf4f97fce6649470b7b58265", "type": "electric_scooter", "is_reserved": 0, "lon": -77.01474383333333}, {"fusion_lat": 0.0, "name": "d60350cdc07c82cc6ba03f6b8596dc49", "is_disabled": 0, "rental_uris": {"android": "https://dc.lft.to/lastmile_qr_scan", "ios": "https://dc.lft.to/lastmile_qr_scan"}, "fusion_lon": 0.0, "lat": 38.952812, "bike_id": "d60350cdc07c82cc6ba03f6b8596dc49", "type": "electric_scooter", "is_reserved": 0, "lon": -77.06885783333334}, {"fusion_lat": 0.0, "name": "76f534333bc1d0c9fb09cbcb15de6974", "is_disabled": 0, "rental_uris": {"android": "https://dc.lft.to/lastmile_qr_scan", "ios": "https://dc.lft.to/lastmile_qr_scan"}, "fusion_lon": 0.0, "lat": 38.945193833333335, "bike_id": "76f534333bc1d0c9fb09cbcb15de6974", "type": "electric_bike", "is_reserved": 0, "lon": -77.006767}, {"fusion_lat": 0.0, "name": "ec9c76ad17af28e62864427494fc6e9f", "is_disabled": 0, "rental_uris": {"android": "https://dc.lft.to/lastmile_qr_scan", "ios": "https://dc.lft.to/lastmile_qr_scan"}, "fusion_lon": 0.0, "lat": 38.915547, "bike_id": "ec9c76ad17af28e62864427494fc6e9f", "type": "electric_scooter", "is_reserved": 0, "lon": -77.03195016666666}, {"fusion_lat": 0.0, "name": "0b7a478a013e0f9e490ad3c8fb9d2a06", "is_disabled": 0, "rental_uris": {"android": "https://dc.lft.to/lastmile_qr_scan", "ios": "https://dc.lft.to/lastmile_qr_scan"}, "fusion_lon": 0.0, "lat": 38.895442, "bike_id": "0b7a478a013e0f9e490ad3c8fb9d2a06", "type": "electric_scooter", "is_reserved": 0, "lon": -76.983379}, {"fusion_lat": 0.0, "name": "b0a60ea0d96b8e470a6359b15702280a", "is_disabled": 0, "rental_uris": {"android": "https://dc.lft.to/lastmile_qr_scan", "ios": "https://dc.lft.to/lastmile_qr_scan"}, "fusion_lon": 0.0, "lat": 38.940949333333336, "bike_id": "b0a60ea0d96b8e470a6359b15702280a", "type": "electric_bike", "is_reserved": 0, "lon": -77.03275316666667}, {"fusion_lat": 0.0, "name": "7e64d99c717d5dfc99941b06e47ee9e5", "is_disabled": 0, "rental_uris": {"android": "https://dc.lft.to/lastmile_qr_scan", "ios": "https://dc.lft.to/lastmile_qr_scan"}, "fusion_lon": 0.0, "lat": 38.9181635, "bike_id": "7e64d99c717d5dfc99941b06e47ee9e5", "type": "electric_scooter", "is_reserved": 0, "lon": -77.04507683333334}, {"fusion_lat": 0.0, "name": "66a2a638aab6c87959bd0847eb750fa0", "is_disabled": 0, "rental_uris": {"android": "https://dc.lft.to/lastmile_qr_scan", "ios": "https://dc.lft.to/lastmile_qr_scan"}, "fusion_lon": 0.0, "lat": 38.88825883333333, "bike_id": "66a2a638aab6c87959bd0847eb750fa0", "type": "electric_scooter", "is_reserved": 0, "lon": -76.97719933333333}, {"fusion_lat": 0.0, "name": "6f6a2b79d46b6ca67b85d19d691a47b1", "is_disabled": 0, "rental_uris": {"android": "https://dc.lft.to/lastmile_qr_scan", "ios": "https://dc.lft.to/lastmile_qr_scan"}, "fusion_lon": 0.0, "lat": 38.91250216666667, "bike_id": "6f6a2b79d46b6ca67b85d19d691a47b1", "type": "electric_scooter", "is_reserved": 0, "lon": -77.03159866666667}, {"fusion_lat": 0.0, "name": "1e50c1583acf2b1bb690c46a5103e055", "is_disabled": 0, "rental_uris": {"android": "https://dc.lft.to/lastmile_qr_scan", "ios": "https://dc.lft.to/lastmile_qr_scan"}, "fusion_lon": 0.0, "lat": 38.92518666666667, "bike_id": "1e50c1583acf2b1bb690c46a5103e055", "type": "electric_scooter", "is_reserved": 0, "lon": -77.077048}, {"fusion_lat": 0.0, "name": "2ef0766ae15ff338f39cf3acff9bc8a6", "is_disabled": 0, "rental_uris": {"android": "https://dc.lft.to/lastmile_qr_scan", "ios": "https://dc.lft.to/lastmile_qr_scan"}, "fusion_lon": 0.0, "lat": 38.9008105, "bike_id": "2ef0766ae15ff338f39cf3acff9bc8a6", "type": "electric_scooter", "is_reserved": 0, "lon": -77.01365616666666}, {"fusion_lat": 0.0, "name": "61de2d475f973524f281adf35cd1b0df", "is_disabled": 0, "rental_uris": {"android": "https://dc.lft.to/lastmile_qr_scan", "ios": "https://dc.lft.to/lastmile_qr_scan"}, "fusion_lon": 0.0, "lat": 38.88823466666667, "bike_id": "61de2d475f973524f281adf35cd1b0df", "type": "electric_scooter", "is_reserved": 0, "lon": -76.977179}, {"fusion_lat": 0.0, "name": "4835a43723f6057f503d48dbc0091c4b", "is_disabled": 0, "rental_uris": {"android": "https://dc.lft.to/lastmile_qr_scan", "ios": "https://dc.lft.to/lastmile_qr_scan"}, "fusion_lon": 0.0, "lat": 38.900088, "bike_id": "4835a43723f6057f503d48dbc0091c4b", "type": "electric_scooter", "is_reserved": 0, "lon": -76.9880705}, {"fusion_lat": 0.0, "name": "4708e7c7c7ef0f772198698cc278eec1", "is_disabled": 0, "rental_uris": {"android": "https://dc.lft.to/lastmile_qr_scan", "ios": "https://dc.lft.to/lastmile_qr_scan"}, "fusion_lon": 0.0, "lat": 38.917949, "bike_id": "4708e7c7c7ef0f772198698cc278eec1", "type": "electric_scooter", "is_reserved": 0, "lon": -77.0344825}, {"fusion_lat": 0.0, "name": "86dae851a12a1f26f2eff3218bbb6839", "is_disabled": 0, "rental_uris": {"android": "https://dc.lft.to/lastmile_qr_scan", "ios": "https://dc.lft.to/lastmile_qr_scan"}, "fusion_lon": 0.0, "lat": 38.89803166666667, "bike_id": "86dae851a12a1f26f2eff3218bbb6839", "type": "electric_scooter", "is_reserved": 0, "lon": -77.0305155}, {"fusion_lat": 0.0, "name": "13fd950347f2218f033726938c0ab265", "is_disabled": 0, "rental_uris": {"android": "https://dc.lft.to/lastmile_qr_scan", "ios": "https://dc.lft.to/lastmile_qr_scan"}, "fusion_lon": 0.0, "lat": 38.90228416666667, "bike_id": "13fd950347f2218f033726938c0ab265", "type": "electric_scooter", "is_reserved": 0, "lon": -77.05322783333334}, {"fusion_lat": 0.0, "name": "a01572c43d8235aa64286e11dcf3d0d3", "is_disabled": 0, "rental_uris": {"android": "https://dc.lft.to/lastmile_qr_scan", "ios": "https://dc.lft.to/lastmile_qr_scan"}, "fusion_lon": 0.0, "lat": 38.8928905, "bike_id": "a01572c43d8235aa64286e11dcf3d0d3", "type": "electric_scooter", "is_reserved": 0, "lon": -77.01237816666666}, {"fusion_lat": 0.0, "name": "65fafc228aa3fff59a5acd7738e18444", "is_disabled": 0, "rental_uris": {"android": "https://dc.lft.to/lastmile_qr_scan", "ios": "https://dc.lft.to/lastmile_qr_scan"}, "fusion_lon": 0.0, "lat": 38.90406, "bike_id": "65fafc228aa3fff59a5acd7738e18444", "type": "electric_scooter", "is_reserved": 0, "lon": -77.02584566666667}, {"fusion_lat": 0.0, "name": "b48f94773f3156427760e5ee9eeace70", "is_disabled": 0, "rental_uris": {"android": "https://dc.lft.to/lastmile_qr_scan", "ios": "https://dc.lft.to/lastmile_qr_scan"}, "fusion_lon": 0.0, "lat": 38.89307866666667, "bike_id": "b48f94773f3156427760e5ee9eeace70", "type": "electric_scooter", "is_reserved": 0, "lon": -77.03189666666667}, {"fusion_lat": 0.0, "name": "d1bdb935be2e75563fdec8ed46c1b261", "is_disabled": 0, "rental_uris": {"android": "https://dc.lft.to/lastmile_qr_scan", "ios": "https://dc.lft.to/lastmile_qr_scan"}, "fusion_lon": 0.0, "lat": 38.87165566666667, "bike_id": "d1bdb935be2e75563fdec8ed46c1b261", "type": "electric_scooter", "is_reserved": 0, "lon": -77.00567933333333}, {"fusion_lat": 0.0, "name": "7557d5097ba37d9018a79d32bb602de4", "is_disabled": 0, "rental_uris": {"android": "https://dc.lft.to/lastmile_qr_scan", "ios": "https://dc.lft.to/lastmile_qr_scan"}, "fusion_lon": 0.0, "lat": 38.8621755, "bike_id": "7557d5097ba37d9018a79d32bb602de4", "type": "electric_bike", "is_reserved": 0, "lon": -77.059828}, {"fusion_lat": 0.0, "name": "a4b1ea53db21d4eb06cb24a6dc5fd619", "is_disabled": 0, "rental_uris": {"android": "https://dc.lft.to/lastmile_qr_scan", "ios": "https://dc.lft.to/lastmile_qr_scan"}, "fusion_lon": 0.0, "lat": 38.8666485, "bike_id": "a4b1ea53db21d4eb06cb24a6dc5fd619", "type": "electric_scooter", "is_reserved": 0, "lon": -76.9890165}, {"fusion_lat": 0.0, "name": "0ed13dfde839803b63b81cf1704daf49", "is_disabled": 0, "rental_uris": {"android": "https://dc.lft.to/lastmile_qr_scan", "ios": "https://dc.lft.to/lastmile_qr_scan"}, "fusion_lon": 0.0, "lat": 38.928454, "bike_id": "0ed13dfde839803b63b81cf1704daf49", "type": "electric_scooter", "is_reserved": 0, "lon": -77.02955616666667}, {"fusion_lat": 0.0, "name": "6b4b356f97bf7da7887e1474e01d6023", "is_disabled": 0, "rental_uris": {"android": "https://dc.lft.to/lastmile_qr_scan", "ios": "https://dc.lft.to/lastmile_qr_scan"}, "fusion_lon": 0.0, "lat": 38.917635, "bike_id": "6b4b356f97bf7da7887e1474e01d6023", "type": "electric_scooter", "is_reserved": 0, "lon": -77.0321505}, {"fusion_lat": 0.0, "name": "42b2e0179287d87af73023d26075fc00", "is_disabled": 0, "rental_uris": {"android": "https://dc.lft.to/lastmile_qr_scan", "ios": "https://dc.lft.to/lastmile_qr_scan"}, "fusion_lon": 0.0, "lat": 38.929863833333336, "bike_id": "42b2e0179287d87af73023d26075fc00", "type": "electric_scooter", "is_reserved": 0, "lon": -77.03239083333334}, {"fusion_lat": 0.0, "name": "e7809167cbe29eb0b0f86982792ed07d", "is_disabled": 0, "rental_uris": {"android": "https://dc.lft.to/lastmile_qr_scan", "ios": "https://dc.lft.to/lastmile_qr_scan"}, "fusion_lon": 0.0, "lat": 38.90301766666666, "bike_id": "e7809167cbe29eb0b0f86982792ed07d", "type": "electric_scooter", "is_reserved": 0, "lon": -77.04952633333333}, {"fusion_lat": 0.0, "name": "9e800e27ee4bce6521a16263c0c1484b", "is_disabled": 0, "rental_uris": {"android": "https://dc.lft.to/lastmile_qr_scan", "ios": "https://dc.lft.to/lastmile_qr_scan"}, "fusion_lon": 0.0, "lat": 38.89806333333333, "bike_id": "9e800e27ee4bce6521a16263c0c1484b", "type": "electric_scooter", "is_reserved": 0, "lon": -76.9846655}, {"fusion_lat": 0.0, "name": "c15221615f4c5df58f15b902c142f660", "is_disabled": 0, "rental_uris": {"android": "https://dc.lft.to/lastmile_qr_scan", "ios": "https://dc.lft.to/lastmile_qr_scan"}, "fusion_lon": 0.0, "lat": 38.85873466666666, "bike_id": "c15221615f4c5df58f15b902c142f660", "type": "electric_bike", "is_reserved": 0, "lon": -77.09557216666667}, {"fusion_lat": 0.0, "name": "340b796adea1f045d95ace1932f5b3ae", "is_disabled": 0, "rental_uris": {"android": "https://dc.lft.to/lastmile_qr_scan", "ios": "https://dc.lft.to/lastmile_qr_scan"}, "fusion_lon": 0.0, "lat": 38.91695983333334, "bike_id": "340b796adea1f045d95ace1932f5b3ae", "type": "electric_scooter", "is_reserved": 0, "lon": -77.03843766666667}, {"fusion_lat": 0.0, "name": "dcddbe5774c54fb01a20515f819f8766", "is_disabled": 0, "rental_uris": {"android": "https://dc.lft.to/lastmile_qr_scan", "ios": "https://dc.lft.to/lastmile_qr_scan"}, "fusion_lon": 0.0, "lat": 38.91840966666667, "bike_id": "dcddbe5774c54fb01a20515f819f8766", "type": "electric_scooter", "is_reserved": 0, "lon": -77.016124}, {"fusion_lat": 0.0, "name": "c6baf73e256b410c926787653ae7675d", "is_disabled": 0, "rental_uris": {"android": "https://dc.lft.to/lastmile_qr_scan", "ios": "https://dc.lft.to/lastmile_qr_scan"}, "fusion_lon": 0.0, "lat": 38.84923583333333, "bike_id": "c6baf73e256b410c926787653ae7675d", "type": "electric_bike", "is_reserved": 0, "lon": -77.07773916666666}, {"fusion_lat": 0.0, "name": "46923968105438dc51da58c6692c4897", "is_disabled": 0, "rental_uris": {"android": "https://dc.lft.to/lastmile_qr_scan", "ios": "https://dc.lft.to/lastmile_qr_scan"}, "fusion_lon": 0.0, "lat": 38.920154, "bike_id": "46923968105438dc51da58c6692c4897", "type": "electric_scooter", "is_reserved": 0, "lon": -77.08183533333333}, {"fusion_lat": 0.0, "name": "c96ef26e1699c9ff09189ff3e401b6eb", "is_disabled": 0, "rental_uris": {"android": "https://dc.lft.to/lastmile_qr_scan", "ios": "https://dc.lft.to/lastmile_qr_scan"}, "fusion_lon": 0.0, "lat": 38.9206305, "bike_id": "c96ef26e1699c9ff09189ff3e401b6eb", "type": "electric_scooter", "is_reserved": 0, "lon": -77.03197333333334}, {"fusion_lat": 0.0, "name": "efaa28a3e36fe9109e1a9df52551fa48", "is_disabled": 0, "rental_uris": {"android": "https://dc.lft.to/lastmile_qr_scan", "ios": "https://dc.lft.to/lastmile_qr_scan"}, "fusion_lon": 0.0, "lat": 38.91689383333333, "bike_id": "efaa28a3e36fe9109e1a9df52551fa48", "type": "electric_scooter", "is_reserved": 0, "lon": -77.02440433333334}, {"fusion_lat": 0.0, "name": "5d3d36df33eb3536c658ed37b2b013d8", "is_disabled": 0, "rental_uris": {"android": "https://dc.lft.to/lastmile_qr_scan", "ios": "https://dc.lft.to/lastmile_qr_scan"}, "fusion_lon": 0.0, "lat": 38.964445833333336, "bike_id": "5d3d36df33eb3536c658ed37b2b013d8", "type": "electric_bike", "is_reserved": 0, "lon": -77.0206495}, {"fusion_lat": 0.0, "name": "e8df5b12addf44cdbc72606568c3537a", "is_disabled": 0, "rental_uris": {"android": "https://dc.lft.to/lastmile_qr_scan", "ios": "https://dc.lft.to/lastmile_qr_scan"}, "fusion_lon": 0.0, "lat": 38.9180895, "bike_id": "e8df5b12addf44cdbc72606568c3537a", "type": "electric_scooter", "is_reserved": 0, "lon": -77.02686466666667}, {"fusion_lat": 0.0, "name": "4db6ecc2597960ba8528dc7d9f3fb0d0", "is_disabled": 0, "rental_uris": {"android": "https://dc.lft.to/lastmile_qr_scan", "ios": "https://dc.lft.to/lastmile_qr_scan"}, "fusion_lon": 0.0, "lat": 38.920049166666665, "bike_id": "4db6ecc2597960ba8528dc7d9f3fb0d0", "type": "electric_scooter", "is_reserved": 0, "lon": -77.03195516666666}, {"fusion_lat": 0.0, "name": "ab23b49f4ae5bccd1801c4bb5f288e11", "is_disabled": 0, "rental_uris": {"android": "https://dc.lft.to/lastmile_qr_scan", "ios": "https://dc.lft.to/lastmile_qr_scan"}, "fusion_lon": 0.0, "lat": 38.93356383333333, "bike_id": "ab23b49f4ae5bccd1801c4bb5f288e11", "type": "electric_scooter", "is_reserved": 0, "lon": -77.07358833333333}, {"fusion_lat": 0.0, "name": "b1d4e124f63261734ad912415e994df3", "is_disabled": 0, "rental_uris": {"android": "https://dc.lft.to/lastmile_qr_scan", "ios": "https://dc.lft.to/lastmile_qr_scan"}, "fusion_lon": 0.0, "lat": 38.915488333333336, "bike_id": "b1d4e124f63261734ad912415e994df3", "type": "electric_scooter", "is_reserved": 0, "lon": -77.041566}, {"fusion_lat": 0.0, "name": "9cbf0dfeb05811b66bac2117fedf8c5a", "is_disabled": 0, "rental_uris": {"android": "https://dc.lft.to/lastmile_qr_scan", "ios": "https://dc.lft.to/lastmile_qr_scan"}, "fusion_lon": 0.0, "lat": 38.91708933333334, "bike_id": "9cbf0dfeb05811b66bac2117fedf8c5a", "type": "electric_scooter", "is_reserved": 0, "lon": -77.026169}, {"fusion_lat": 0.0, "name": "93a37d1d49b7780420857f55f4d317b5", "is_disabled": 0, "rental_uris": {"android": "https://dc.lft.to/lastmile_qr_scan", "ios": "https://dc.lft.to/lastmile_qr_scan"}, "fusion_lon": 0.0, "lat": 38.91551333333334, "bike_id": "93a37d1d49b7780420857f55f4d317b5", "type": "electric_scooter", "is_reserved": 0, "lon": -77.04155766666666}, {"fusion_lat": 0.0, "name": "6bff97284351017bc915a5a0c13dc52b", "is_disabled": 0, "rental_uris": {"android": "https://dc.lft.to/lastmile_qr_scan", "ios": "https://dc.lft.to/lastmile_qr_scan"}, "fusion_lon": 0.0, "lat": 38.907242333333336, "bike_id": "6bff97284351017bc915a5a0c13dc52b", "type": "electric_scooter", "is_reserved": 0, "lon": -77.03302866666667}, {"fusion_lat": 0.0, "name": "7d354471471e70d9ecdc8977de336995", "is_disabled": 0, "rental_uris": {"android": "https://dc.lft.to/lastmile_qr_scan", "ios": "https://dc.lft.to/lastmile_qr_scan"}, "fusion_lon": 0.0, "lat": 38.92657533333333, "bike_id": "7d354471471e70d9ecdc8977de336995", "type": "electric_scooter", "is_reserved": 0, "lon": -77.0431155}, {"fusion_lat": 0.0, "name": "4d22e18309023d73bc30bef0050de956", "is_disabled": 0, "rental_uris": {"android": "https://dc.lft.to/lastmile_qr_scan", "ios": "https://dc.lft.to/lastmile_qr_scan"}, "fusion_lon": 0.0, "lat": 38.954233, "bike_id": "4d22e18309023d73bc30bef0050de956", "type": "electric_scooter", "is_reserved": 0, "lon": -77.027643}, {"fusion_lat": 0.0, "name": "216a3e7d379ef4288bf9d5f417ac5c76", "is_disabled": 0, "rental_uris": {"android": "https://dc.lft.to/lastmile_qr_scan", "ios": "https://dc.lft.to/lastmile_qr_scan"}, "fusion_lon": 0.0, "lat": 38.92119533333333, "bike_id": "216a3e7d379ef4288bf9d5f417ac5c76", "type": "electric_scooter", "is_reserved": 0, "lon": -77.01202683333334}, {"fusion_lat": 0.0, "name": "63f8e45c9fec61ab5e759d480b57fa5e", "is_disabled": 0, "rental_uris": {"android": "https://dc.lft.to/lastmile_qr_scan", "ios": "https://dc.lft.to/lastmile_qr_scan"}, "fusion_lon": 0.0, "lat": 38.869919333333335, "bike_id": "63f8e45c9fec61ab5e759d480b57fa5e", "type": "electric_scooter", "is_reserved": 0, "lon": -76.9773685}, {"fusion_lat": 0.0, "name": "d56ebcd53d36489a19b7af95a39b8d50", "is_disabled": 0, "rental_uris": {"android": "https://dc.lft.to/lastmile_qr_scan", "ios": "https://dc.lft.to/lastmile_qr_scan"}, "fusion_lon": 0.0, "lat": 38.916815166666666, "bike_id": "d56ebcd53d36489a19b7af95a39b8d50", "type": "electric_scooter", "is_reserved": 0, "lon": -77.02969766666666}, {"fusion_lat": 0.0, "name": "004c92a902af05f06de9aa90ea1b8f37", "is_disabled": 0, "rental_uris": {"android": "https://dc.lft.to/lastmile_qr_scan", "ios": "https://dc.lft.to/lastmile_qr_scan"}, "fusion_lon": 0.0, "lat": 38.8973455, "bike_id": "004c92a902af05f06de9aa90ea1b8f37", "type": "electric_scooter", "is_reserved": 0, "lon": -77.05523266666667}, {"fusion_lat": 0.0, "name": "b300d68f37811a6910e625fd27f79f47", "is_disabled": 0, "rental_uris": {"android": "https://dc.lft.to/lastmile_qr_scan", "ios": "https://dc.lft.to/lastmile_qr_scan"}, "fusion_lon": 0.0, "lat": 38.91601716666667, "bike_id": "b300d68f37811a6910e625fd27f79f47", "type": "electric_scooter", "is_reserved": 0, "lon": -76.99361916666666}, {"fusion_lat": 0.0, "name": "1dc7fc9127f74ca678d3facad7788427", "is_disabled": 0, "rental_uris": {"android": "https://dc.lft.to/lastmile_qr_scan", "ios": "https://dc.lft.to/lastmile_qr_scan"}, "fusion_lon": 0.0, "lat": 38.9067525, "bike_id": "1dc7fc9127f74ca678d3facad7788427", "type": "electric_scooter", "is_reserved": 0, "lon": -77.03640116666666}, {"fusion_lat": 0.0, "name": "6d93c61b881c1f71e93abd1d93a32da7", "is_disabled": 0, "rental_uris": {"android": "https://dc.lft.to/lastmile_qr_scan", "ios": "https://dc.lft.to/lastmile_qr_scan"}, "fusion_lon": 0.0, "lat": 38.847592, "bike_id": "6d93c61b881c1f71e93abd1d93a32da7", "type": "electric_scooter", "is_reserved": 0, "lon": -76.99504666666667}, {"fusion_lat": 0.0, "name": "97a25396c2e3f95ca22ab0dd674158ee", "is_disabled": 0, "rental_uris": {"android": "https://dc.lft.to/lastmile_qr_scan", "ios": "https://dc.lft.to/lastmile_qr_scan"}, "fusion_lon": 0.0, "lat": 38.917129833333334, "bike_id": "97a25396c2e3f95ca22ab0dd674158ee", "type": "electric_scooter", "is_reserved": 0, "lon": -77.02812116666666}, {"fusion_lat": 0.0, "name": "dc4485a0edf1c96e938b4a19e9d87f4a", "is_disabled": 0, "rental_uris": {"android": "https://dc.lft.to/lastmile_qr_scan", "ios": "https://dc.lft.to/lastmile_qr_scan"}, "fusion_lon": 0.0, "lat": 38.912868833333334, "bike_id": "dc4485a0edf1c96e938b4a19e9d87f4a", "type": "electric_scooter", "is_reserved": 0, "lon": -77.02384316666667}, {"fusion_lat": 0.0, "name": "6576eecb071a3a9caa00eefa2477b052", "is_disabled": 0, "rental_uris": {"android": "https://dc.lft.to/lastmile_qr_scan", "ios": "https://dc.lft.to/lastmile_qr_scan"}, "fusion_lon": 0.0, "lat": 38.8535975, "bike_id": "6576eecb071a3a9caa00eefa2477b052", "type": "electric_bike", "is_reserved": 0, "lon": -77.1346005}, {"fusion_lat": 0.0, "name": "dd5a3701cf450b2bb9798a0587929b57", "is_disabled": 0, "rental_uris": {"android": "https://dc.lft.to/lastmile_qr_scan", "ios": "https://dc.lft.to/lastmile_qr_scan"}, "fusion_lon": 0.0, "lat": 38.866665, "bike_id": "dd5a3701cf450b2bb9798a0587929b57", "type": "electric_scooter", "is_reserved": 0, "lon": -77.01030066666667}, {"fusion_lat": 0.0, "name": "9715f10e95078923759f1f7b279ce71e", "is_disabled": 0, "rental_uris": {"android": "https://dc.lft.to/lastmile_qr_scan", "ios": "https://dc.lft.to/lastmile_qr_scan"}, "fusion_lon": 0.0, "lat": 38.88731333333333, "bike_id": "9715f10e95078923759f1f7b279ce71e", "type": "electric_scooter", "is_reserved": 0, "lon": -76.983556}, {"fusion_lat": 0.0, "name": "73aaa226bb62e7116d5ecd2358e39e6d", "is_disabled": 0, "rental_uris": {"android": "https://dc.lft.to/lastmile_qr_scan", "ios": "https://dc.lft.to/lastmile_qr_scan"}, "fusion_lon": 0.0, "lat": 38.903222166666666, "bike_id": "73aaa226bb62e7116d5ecd2358e39e6d", "type": "electric_scooter", "is_reserved": 0, "lon": -77.01178266666666}, {"fusion_lat": 0.0, "name": "35a1f2bf5acfe34dde23d97a7206b5f3", "is_disabled": 0, "rental_uris": {"android": "https://dc.lft.to/lastmile_qr_scan", "ios": "https://dc.lft.to/lastmile_qr_scan"}, "fusion_lon": 0.0, "lat": 38.899940666666666, "bike_id": "35a1f2bf5acfe34dde23d97a7206b5f3", "type": "electric_scooter", "is_reserved": 0, "lon": -77.02394433333333}, {"fusion_lat": 0.0, "name": "0828eb92a28a5b84e08b0fee070b258b", "is_disabled": 0, "rental_uris": {"android": "https://dc.lft.to/lastmile_qr_scan", "ios": "https://dc.lft.to/lastmile_qr_scan"}, "fusion_lon": 0.0, "lat": 38.907186833333334, "bike_id": "0828eb92a28a5b84e08b0fee070b258b", "type": "electric_scooter", "is_reserved": 0, "lon": -77.0481035}, {"fusion_lat": 0.0, "name": "557d8cf3d5a481968e1bf6bf4998b538", "is_disabled": 0, "rental_uris": {"android": "https://dc.lft.to/lastmile_qr_scan", "ios": "https://dc.lft.to/lastmile_qr_scan"}, "fusion_lon": 0.0, "lat": 38.885366833333336, "bike_id": "557d8cf3d5a481968e1bf6bf4998b538", "type": "electric_scooter", "is_reserved": 0, "lon": -77.01985433333333}, {"fusion_lat": 0.0, "name": "8ac5ecfabdb785f22a7ecc8383fde4e7", "is_disabled": 0, "rental_uris": {"android": "https://dc.lft.to/lastmile_qr_scan", "ios": "https://dc.lft.to/lastmile_qr_scan"}, "fusion_lon": 0.0, "lat": 38.935967166666664, "bike_id": "8ac5ecfabdb785f22a7ecc8383fde4e7", "type": "electric_scooter", "is_reserved": 0, "lon": -77.03772816666667}, {"fusion_lat": 0.0, "name": "80e6f176621813814759ef47bec0f1ed", "is_disabled": 0, "rental_uris": {"android": "https://dc.lft.to/lastmile_qr_scan", "ios": "https://dc.lft.to/lastmile_qr_scan"}, "fusion_lon": 0.0, "lat": 38.905458, "bike_id": "80e6f176621813814759ef47bec0f1ed", "type": "electric_scooter", "is_reserved": 0, "lon": -77.062821}, {"fusion_lat": 0.0, "name": "77dd2dec7e09bea68a346ff3ae6d147e", "is_disabled": 0, "rental_uris": {"android": "https://dc.lft.to/lastmile_qr_scan", "ios": "https://dc.lft.to/lastmile_qr_scan"}, "fusion_lon": 0.0, "lat": 38.887377666666666, "bike_id": "77dd2dec7e09bea68a346ff3ae6d147e", "type": "electric_scooter", "is_reserved": 0, "lon": -77.00345833333333}, {"fusion_lat": 0.0, "name": "b3c8a9048551b98cb263579453907c3e", "is_disabled": 0, "rental_uris": {"android": "https://dc.lft.to/lastmile_qr_scan", "ios": "https://dc.lft.to/lastmile_qr_scan"}, "fusion_lon": 0.0, "lat": 38.90028016666667, "bike_id": "b3c8a9048551b98cb263579453907c3e", "type": "electric_scooter", "is_reserved": 0, "lon": -77.012215}, {"fusion_lat": 0.0, "name": "17b5826e6abe74dc3bd9c694656d2901", "is_disabled": 0, "rental_uris": {"android": "https://dc.lft.to/lastmile_qr_scan", "ios": "https://dc.lft.to/lastmile_qr_scan"}, "fusion_lon": 0.0, "lat": 38.937771833333336, "bike_id": "17b5826e6abe74dc3bd9c694656d2901", "type": "electric_bike", "is_reserved": 0, "lon": -77.01875816666667}, {"fusion_lat": 0.0, "name": "51d49047eb141bc2069bc4cc220ecf02", "is_disabled": 0, "rental_uris": {"android": "https://dc.lft.to/lastmile_qr_scan", "ios": "https://dc.lft.to/lastmile_qr_scan"}, "fusion_lon": 0.0, "lat": 38.934887, "bike_id": "51d49047eb141bc2069bc4cc220ecf02", "type": "electric_scooter", "is_reserved": 0, "lon": -77.07275866666667}, {"fusion_lat": 0.0, "name": "02699acd20f9ad81ee702d673dd1d97b", "is_disabled": 0, "rental_uris": {"android": "https://dc.lft.to/lastmile_qr_scan", "ios": "https://dc.lft.to/lastmile_qr_scan"}, "fusion_lon": 0.0, "lat": 38.90567883333333, "bike_id": "02699acd20f9ad81ee702d673dd1d97b", "type": "electric_scooter", "is_reserved": 0, "lon": -77.02101383333333}, {"fusion_lat": 0.0, "name": "e3b02aef0db3483bbee73ab73afaaca9", "is_disabled": 0, "rental_uris": {"android": "https://dc.lft.to/lastmile_qr_scan", "ios": "https://dc.lft.to/lastmile_qr_scan"}, "fusion_lon": 0.0, "lat": 38.92131533333333, "bike_id": "e3b02aef0db3483bbee73ab73afaaca9", "type": "electric_scooter", "is_reserved": 0, "lon": -77.0422275}, {"fusion_lat": 0.0, "name": "7694cae265ba658a99f46a3ba661d694", "is_disabled": 0, "rental_uris": {"android": "https://dc.lft.to/lastmile_qr_scan", "ios": "https://dc.lft.to/lastmile_qr_scan"}, "fusion_lon": 0.0, "lat": 38.836312166666666, "bike_id": "7694cae265ba658a99f46a3ba661d694", "type": "electric_bike", "is_reserved": 0, "lon": -77.06949333333333}, {"fusion_lat": 0.0, "name": "c4bd1d6c0b1f92f013da5ab744b0d536", "is_disabled": 0, "rental_uris": {"android": "https://dc.lft.to/lastmile_qr_scan", "ios": "https://dc.lft.to/lastmile_qr_scan"}, "fusion_lon": 0.0, "lat": 38.871821, "bike_id": "c4bd1d6c0b1f92f013da5ab744b0d536", "type": "electric_scooter", "is_reserved": 0, "lon": -77.00572433333333}, {"fusion_lat": 0.0, "name": "00048d3c86bd4b3e6bdc6bea4d3c7bd8", "is_disabled": 0, "rental_uris": {"android": "https://dc.lft.to/lastmile_qr_scan", "ios": "https://dc.lft.to/lastmile_qr_scan"}, "fusion_lon": 0.0, "lat": 38.906886, "bike_id": "00048d3c86bd4b3e6bdc6bea4d3c7bd8", "type": "electric_scooter", "is_reserved": 0, "lon": -76.95192633333333}, {"fusion_lat": 0.0, "name": "12cc14cf692a08738e3a7b75b4768ff9", "is_disabled": 0, "rental_uris": {"android": "https://dc.lft.to/lastmile_qr_scan", "ios": "https://dc.lft.to/lastmile_qr_scan"}, "fusion_lon": 0.0, "lat": 38.907145666666665, "bike_id": "12cc14cf692a08738e3a7b75b4768ff9", "type": "electric_scooter", "is_reserved": 0, "lon": -77.027164}, {"fusion_lat": 0.0, "name": "f38a4fe7248da187348b74c3f2c98538", "is_disabled": 0, "rental_uris": {"android": "https://dc.lft.to/lastmile_qr_scan", "ios": "https://dc.lft.to/lastmile_qr_scan"}, "fusion_lon": 0.0, "lat": 38.9185795, "bike_id": "f38a4fe7248da187348b74c3f2c98538", "type": "electric_bike", "is_reserved": 0, "lon": -76.96087266666666}, {"fusion_lat": 0.0, "name": "6fb430941820892bc7131a96874a18f5", "is_disabled": 0, "rental_uris": {"android": "https://dc.lft.to/lastmile_qr_scan", "ios": "https://dc.lft.to/lastmile_qr_scan"}, "fusion_lon": 0.0, "lat": 38.89725166666667, "bike_id": "6fb430941820892bc7131a96874a18f5", "type": "electric_scooter", "is_reserved": 0, "lon": -77.047351}, {"fusion_lat": 0.0, "name": "91812a8c03a5246a91a0531972c78686", "is_disabled": 0, "rental_uris": {"android": "https://dc.lft.to/lastmile_qr_scan", "ios": "https://dc.lft.to/lastmile_qr_scan"}, "fusion_lon": 0.0, "lat": 38.90681, "bike_id": "91812a8c03a5246a91a0531972c78686", "type": "electric_scooter", "is_reserved": 0, "lon": -77.00943716666667}, {"fusion_lat": 0.0, "name": "dff9b0c4e172e918dbda94ed6877ae28", "is_disabled": 0, "rental_uris": {"android": "https://dc.lft.to/lastmile_qr_scan", "ios": "https://dc.lft.to/lastmile_qr_scan"}, "fusion_lon": 0.0, "lat": 38.907124, "bike_id": "dff9b0c4e172e918dbda94ed6877ae28", "type": "electric_scooter", "is_reserved": 0, "lon": -77.023838}, {"fusion_lat": 0.0, "name": "23e83166c9aae608ffe5613a5ca7f4bb", "is_disabled": 0, "rental_uris": {"android": "https://dc.lft.to/lastmile_qr_scan", "ios": "https://dc.lft.to/lastmile_qr_scan"}, "fusion_lon": 0.0, "lat": 38.872235, "bike_id": "23e83166c9aae608ffe5613a5ca7f4bb", "type": "electric_scooter", "is_reserved": 0, "lon": -77.01777516666667}, {"fusion_lat": 0.0, "name": "d1851186e318dce01dbc50a4971aa661", "is_disabled": 0, "rental_uris": {"android": "https://dc.lft.to/lastmile_qr_scan", "ios": "https://dc.lft.to/lastmile_qr_scan"}, "fusion_lon": 0.0, "lat": 38.92016266666667, "bike_id": "d1851186e318dce01dbc50a4971aa661", "type": "electric_scooter", "is_reserved": 0, "lon": -77.04399466666666}, {"fusion_lat": 0.0, "name": "1ca54f69376012c0a8c7a0e958e58e24", "is_disabled": 0, "rental_uris": {"android": "https://dc.lft.to/lastmile_qr_scan", "ios": "https://dc.lft.to/lastmile_qr_scan"}, "fusion_lon": 0.0, "lat": 38.887451, "bike_id": "1ca54f69376012c0a8c7a0e958e58e24", "type": "electric_scooter", "is_reserved": 0, "lon": -77.02567766666667}, {"fusion_lat": 0.0, "name": "c5e2ce91fd5d93ef598ae50582da7d9a", "is_disabled": 0, "rental_uris": {"android": "https://dc.lft.to/lastmile_qr_scan", "ios": "https://dc.lft.to/lastmile_qr_scan"}, "fusion_lon": 0.0, "lat": 38.9248775, "bike_id": "c5e2ce91fd5d93ef598ae50582da7d9a", "type": "electric_scooter", "is_reserved": 0, "lon": -77.02136233333333}, {"fusion_lat": 0.0, "name": "be480117c4c2b40af661631484dd0ac0", "is_disabled": 0, "rental_uris": {"android": "https://dc.lft.to/lastmile_qr_scan", "ios": "https://dc.lft.to/lastmile_qr_scan"}, "fusion_lon": 0.0, "lat": 38.892337, "bike_id": "be480117c4c2b40af661631484dd0ac0", "type": "electric_scooter", "is_reserved": 0, "lon": -77.02380883333333}, {"fusion_lat": 0.0, "name": "f91c3239a693c338fd81a452d4687060", "is_disabled": 0, "rental_uris": {"android": "https://dc.lft.to/lastmile_qr_scan", "ios": "https://dc.lft.to/lastmile_qr_scan"}, "fusion_lon": 0.0, "lat": 38.901846666666664, "bike_id": "f91c3239a693c338fd81a452d4687060", "type": "electric_scooter", "is_reserved": 0, "lon": -77.02744966666667}, {"fusion_lat": 0.0, "name": "34f4b28295e7d218a4f6038d1543d9b7", "is_disabled": 0, "rental_uris": {"android": "https://dc.lft.to/lastmile_qr_scan", "ios": "https://dc.lft.to/lastmile_qr_scan"}, "fusion_lon": 0.0, "lat": 38.87388133333333, "bike_id": "34f4b28295e7d218a4f6038d1543d9b7", "type": "electric_scooter", "is_reserved": 0, "lon": -77.00139766666666}, {"fusion_lat": 0.0, "name": "85c3b708f3d0beda00e4ae6b89a65519", "is_disabled": 0, "rental_uris": {"android": "https://dc.lft.to/lastmile_qr_scan", "ios": "https://dc.lft.to/lastmile_qr_scan"}, "fusion_lon": 0.0, "lat": 38.961855166666666, "bike_id": "85c3b708f3d0beda00e4ae6b89a65519", "type": "electric_bike", "is_reserved": 0, "lon": -77.052655}, {"fusion_lat": 0.0, "name": "95646f65be460b63a5f3d0cffc3f24d4", "is_disabled": 0, "rental_uris": {"android": "https://dc.lft.to/lastmile_qr_scan", "ios": "https://dc.lft.to/lastmile_qr_scan"}, "fusion_lon": 0.0, "lat": 38.9203045, "bike_id": "95646f65be460b63a5f3d0cffc3f24d4", "type": "electric_scooter", "is_reserved": 0, "lon": -77.01024516666666}, {"fusion_lat": 0.0, "name": "ed800f904b129f3c7b08058b38b88e36", "is_disabled": 0, "rental_uris": {"android": "https://dc.lft.to/lastmile_qr_scan", "ios": "https://dc.lft.to/lastmile_qr_scan"}, "fusion_lon": 0.0, "lat": 38.91184633333334, "bike_id": "ed800f904b129f3c7b08058b38b88e36", "type": "electric_scooter", "is_reserved": 0, "lon": -77.030423}, {"fusion_lat": 0.0, "name": "d73a30291354fe0bdfc579554ff2dfaf", "is_disabled": 0, "rental_uris": {"android": "https://dc.lft.to/lastmile_qr_scan", "ios": "https://dc.lft.to/lastmile_qr_scan"}, "fusion_lon": 0.0, "lat": 38.92684533333333, "bike_id": "d73a30291354fe0bdfc579554ff2dfaf", "type": "electric_scooter", "is_reserved": 0, "lon": -77.027936}, {"fusion_lat": 0.0, "name": "d180484891fffdef9eb2d37dffb950ac", "is_disabled": 0, "rental_uris": {"android": "https://dc.lft.to/lastmile_qr_scan", "ios": "https://dc.lft.to/lastmile_qr_scan"}, "fusion_lon": 0.0, "lat": 38.91724266666667, "bike_id": "d180484891fffdef9eb2d37dffb950ac", "type": "electric_scooter", "is_reserved": 0, "lon": -77.02697066666667}, {"fusion_lat": 0.0, "name": "44cb7256e109d6fe0c27a0d3d2c396a7", "is_disabled": 0, "rental_uris": {"android": "https://dc.lft.to/lastmile_qr_scan", "ios": "https://dc.lft.to/lastmile_qr_scan"}, "fusion_lon": 0.0, "lat": 38.89841216666667, "bike_id": "44cb7256e109d6fe0c27a0d3d2c396a7", "type": "electric_scooter", "is_reserved": 0, "lon": -77.0305785}, {"fusion_lat": 0.0, "name": "4c93b925020282356b6926d5472c5a75", "is_disabled": 0, "rental_uris": {"android": "https://dc.lft.to/lastmile_qr_scan", "ios": "https://dc.lft.to/lastmile_qr_scan"}, "fusion_lon": 0.0, "lat": 38.90028066666667, "bike_id": "4c93b925020282356b6926d5472c5a75", "type": "electric_scooter", "is_reserved": 0, "lon": -77.0118525}, {"fusion_lat": 0.0, "name": "8549af3b064d2b20000dec66852bf8f0", "is_disabled": 0, "rental_uris": {"android": "https://dc.lft.to/lastmile_qr_scan", "ios": "https://dc.lft.to/lastmile_qr_scan"}, "fusion_lon": 0.0, "lat": 38.886053833333335, "bike_id": "8549af3b064d2b20000dec66852bf8f0", "type": "electric_scooter", "is_reserved": 0, "lon": -76.99539516666667}, {"fusion_lat": 0.0, "name": "1cbabf90cf5914c79607dd82264aef32", "is_disabled": 0, "rental_uris": {"android": "https://dc.lft.to/lastmile_qr_scan", "ios": "https://dc.lft.to/lastmile_qr_scan"}, "fusion_lon": 0.0, "lat": 38.92422366666667, "bike_id": "1cbabf90cf5914c79607dd82264aef32", "type": "electric_scooter", "is_reserved": 0, "lon": -77.05746366666666}, {"fusion_lat": 0.0, "name": "45d2a7684f987d678d514f586cda91c2", "is_disabled": 0, "rental_uris": {"android": "https://dc.lft.to/lastmile_qr_scan", "ios": "https://dc.lft.to/lastmile_qr_scan"}, "fusion_lon": 0.0, "lat": 38.8836955, "bike_id": "45d2a7684f987d678d514f586cda91c2", "type": "electric_scooter", "is_reserved": 0, "lon": -76.99516766666666}, {"fusion_lat": 0.0, "name": "52bb3de72f191781515f6e3b23dd2c96", "is_disabled": 0, "rental_uris": {"android": "https://dc.lft.to/lastmile_qr_scan", "ios": "https://dc.lft.to/lastmile_qr_scan"}, "fusion_lon": 0.0, "lat": 38.91958316666667, "bike_id": "52bb3de72f191781515f6e3b23dd2c96", "type": "electric_scooter", "is_reserved": 0, "lon": -77.01775966666666}, {"fusion_lat": 0.0, "name": "de595df4570a4ff6c74cad5dc1338175", "is_disabled": 0, "rental_uris": {"android": "https://dc.lft.to/lastmile_qr_scan", "ios": "https://dc.lft.to/lastmile_qr_scan"}, "fusion_lon": 0.0, "lat": 38.965765, "bike_id": "de595df4570a4ff6c74cad5dc1338175", "type": "electric_scooter", "is_reserved": 0, "lon": -77.002648}, {"fusion_lat": 0.0, "name": "5b75ab7635095b5f09dafc9f7ca54f15", "is_disabled": 0, "rental_uris": {"android": "https://dc.lft.to/lastmile_qr_scan", "ios": "https://dc.lft.to/lastmile_qr_scan"}, "fusion_lon": 0.0, "lat": 38.9371635, "bike_id": "5b75ab7635095b5f09dafc9f7ca54f15", "type": "electric_scooter", "is_reserved": 0, "lon": -77.02381766666667}, {"fusion_lat": 0.0, "name": "d87ef542a22a0b42f72a7f1562a83392", "is_disabled": 0, "rental_uris": {"android": "https://dc.lft.to/lastmile_qr_scan", "ios": "https://dc.lft.to/lastmile_qr_scan"}, "fusion_lon": 0.0, "lat": 38.867243333333334, "bike_id": "d87ef542a22a0b42f72a7f1562a83392", "type": "electric_scooter", "is_reserved": 0, "lon": -76.98782066666666}, {"fusion_lat": 0.0, "name": "42d5b7d3fdf2d57547643b131cdac183", "is_disabled": 0, "rental_uris": {"android": "https://dc.lft.to/lastmile_qr_scan", "ios": "https://dc.lft.to/lastmile_qr_scan"}, "fusion_lon": 0.0, "lat": 38.897089, "bike_id": "42d5b7d3fdf2d57547643b131cdac183", "type": "electric_scooter", "is_reserved": 0, "lon": -77.012994}, {"fusion_lat": 0.0, "name": "0a073ae6c67e36d6a5a9cecbaa78bbae", "is_disabled": 0, "rental_uris": {"android": "https://dc.lft.to/lastmile_qr_scan", "ios": "https://dc.lft.to/lastmile_qr_scan"}, "fusion_lon": 0.0, "lat": 38.90053966666667, "bike_id": "0a073ae6c67e36d6a5a9cecbaa78bbae", "type": "electric_scooter", "is_reserved": 0, "lon": -77.02187566666667}, {"fusion_lat": 0.0, "name": "310172a8bf8036ec0f9dddd485bc36e5", "is_disabled": 0, "rental_uris": {"android": "https://dc.lft.to/lastmile_qr_scan", "ios": "https://dc.lft.to/lastmile_qr_scan"}, "fusion_lon": 0.0, "lat": 38.87744166666667, "bike_id": "310172a8bf8036ec0f9dddd485bc36e5", "type": "electric_scooter", "is_reserved": 0, "lon": -77.002619}, {"fusion_lat": 0.0, "name": "6e5bd0fc94fd6b262ecbec91e869ddd4", "is_disabled": 0, "rental_uris": {"android": "https://dc.lft.to/lastmile_qr_scan", "ios": "https://dc.lft.to/lastmile_qr_scan"}, "fusion_lon": 0.0, "lat": 38.900308333333335, "bike_id": "6e5bd0fc94fd6b262ecbec91e869ddd4", "type": "electric_scooter", "is_reserved": 0, "lon": -77.002112}, {"fusion_lat": 0.0, "name": "6a4ae5c21ef1f492efffea7f8af4b14d", "is_disabled": 0, "rental_uris": {"android": "https://dc.lft.to/lastmile_qr_scan", "ios": "https://dc.lft.to/lastmile_qr_scan"}, "fusion_lon": 0.0, "lat": 38.916677666666665, "bike_id": "6a4ae5c21ef1f492efffea7f8af4b14d", "type": "electric_bike", "is_reserved": 0, "lon": -77.03846666666666}, {"fusion_lat": 0.0, "name": "dcb4dce7eafdec66af64e0235e62257e", "is_disabled": 0, "rental_uris": {"android": "https://dc.lft.to/lastmile_qr_scan", "ios": "https://dc.lft.to/lastmile_qr_scan"}, "fusion_lon": 0.0, "lat": 38.9063935, "bike_id": "dcb4dce7eafdec66af64e0235e62257e", "type": "electric_scooter", "is_reserved": 0, "lon": -77.05014016666667}, {"fusion_lat": 0.0, "name": "ef8a4cd3b82dacc4982c86edfb2c79af", "is_disabled": 0, "rental_uris": {"android": "https://dc.lft.to/lastmile_qr_scan", "ios": "https://dc.lft.to/lastmile_qr_scan"}, "fusion_lon": 0.0, "lat": 38.9167955, "bike_id": "ef8a4cd3b82dacc4982c86edfb2c79af", "type": "electric_scooter", "is_reserved": 0, "lon": -77.01581383333334}, {"fusion_lat": 0.0, "name": "5f4f591d47265078c8586c8d48d077a9", "is_disabled": 0, "rental_uris": {"android": "https://dc.lft.to/lastmile_qr_scan", "ios": "https://dc.lft.to/lastmile_qr_scan"}, "fusion_lon": 0.0, "lat": 38.89213083333333, "bike_id": "5f4f591d47265078c8586c8d48d077a9", "type": "electric_scooter", "is_reserved": 0, "lon": -77.026471}, {"fusion_lat": 0.0, "name": "5db152803051b8c33b981191d6aa3247", "is_disabled": 0, "rental_uris": {"android": "https://dc.lft.to/lastmile_qr_scan", "ios": "https://dc.lft.to/lastmile_qr_scan"}, "fusion_lon": 0.0, "lat": 38.94183483333333, "bike_id": "5db152803051b8c33b981191d6aa3247", "type": "electric_scooter", "is_reserved": 0, "lon": -77.02491333333333}, {"fusion_lat": 0.0, "name": "f15bc0d8ac679947f1bb898ad5b34451", "is_disabled": 0, "rental_uris": {"android": "https://dc.lft.to/lastmile_qr_scan", "ios": "https://dc.lft.to/lastmile_qr_scan"}, "fusion_lon": 0.0, "lat": 38.887291833333336, "bike_id": "f15bc0d8ac679947f1bb898ad5b34451", "type": "electric_scooter", "is_reserved": 0, "lon": -77.01338483333333}, {"fusion_lat": 0.0, "name": "f5d09b773bf77c7be9e550c2a4a6d3f4", "is_disabled": 0, "rental_uris": {"android": "https://dc.lft.to/lastmile_qr_scan", "ios": "https://dc.lft.to/lastmile_qr_scan"}, "fusion_lon": 0.0, "lat": 38.92488066666667, "bike_id": "f5d09b773bf77c7be9e550c2a4a6d3f4", "type": "electric_scooter", "is_reserved": 0, "lon": -77.0304875}, {"fusion_lat": 0.0, "name": "4549bc6bb1d7a2b73907e3329f2fd0ed", "is_disabled": 0, "rental_uris": {"android": "https://dc.lft.to/lastmile_qr_scan", "ios": "https://dc.lft.to/lastmile_qr_scan"}, "fusion_lon": 0.0, "lat": 38.92488816666667, "bike_id": "4549bc6bb1d7a2b73907e3329f2fd0ed", "type": "electric_scooter", "is_reserved": 0, "lon": -77.0271485}, {"fusion_lat": 0.0, "name": "7d4f1518a5b7220fc23c719187526465", "is_disabled": 0, "rental_uris": {"android": "https://dc.lft.to/lastmile_qr_scan", "ios": "https://dc.lft.to/lastmile_qr_scan"}, "fusion_lon": 0.0, "lat": 38.91786366666667, "bike_id": "7d4f1518a5b7220fc23c719187526465", "type": "electric_scooter", "is_reserved": 0, "lon": -77.03178566666666}, {"fusion_lat": 0.0, "name": "6d2105c3b762043d3b8a52f72901057f", "is_disabled": 0, "rental_uris": {"android": "https://dc.lft.to/lastmile_qr_scan", "ios": "https://dc.lft.to/lastmile_qr_scan"}, "fusion_lon": 0.0, "lat": 38.87313016666667, "bike_id": "6d2105c3b762043d3b8a52f72901057f", "type": "electric_scooter", "is_reserved": 0, "lon": -77.0013445}, {"fusion_lat": 0.0, "name": "43cebf5df154942e7a566463c12bcb20", "is_disabled": 0, "rental_uris": {"android": "https://dc.lft.to/lastmile_qr_scan", "ios": "https://dc.lft.to/lastmile_qr_scan"}, "fusion_lon": 0.0, "lat": 38.93349966666667, "bike_id": "43cebf5df154942e7a566463c12bcb20", "type": "electric_scooter", "is_reserved": 0, "lon": -77.061972}, {"fusion_lat": 0.0, "name": "8418f0e2cd7e9b816a19819efcf4d5e7", "is_disabled": 0, "rental_uris": {"android": "https://dc.lft.to/lastmile_qr_scan", "ios": "https://dc.lft.to/lastmile_qr_scan"}, "fusion_lon": 0.0, "lat": 38.89673783333333, "bike_id": "8418f0e2cd7e9b816a19819efcf4d5e7", "type": "electric_scooter", "is_reserved": 0, "lon": -77.050509}, {"fusion_lat": 0.0, "name": "040b65058298c378e7a0bca56fb5f1ca", "is_disabled": 0, "rental_uris": {"android": "https://dc.lft.to/lastmile_qr_scan", "ios": "https://dc.lft.to/lastmile_qr_scan"}, "fusion_lon": 0.0, "lat": 38.916737166666664, "bike_id": "040b65058298c378e7a0bca56fb5f1ca", "type": "electric_scooter", "is_reserved": 0, "lon": -77.02380566666666}, {"fusion_lat": 0.0, "name": "0c3b289c24fe69c06795b899665f7783", "is_disabled": 0, "rental_uris": {"android": "https://dc.lft.to/lastmile_qr_scan", "ios": "https://dc.lft.to/lastmile_qr_scan"}, "fusion_lon": 0.0, "lat": 38.914826166666664, "bike_id": "0c3b289c24fe69c06795b899665f7783", "type": "electric_scooter", "is_reserved": 0, "lon": -77.046102}, {"fusion_lat": 0.0, "name": "d331baa06f4d2f44e86a99e0626e76be", "is_disabled": 0, "rental_uris": {"android": "https://dc.lft.to/lastmile_qr_scan", "ios": "https://dc.lft.to/lastmile_qr_scan"}, "fusion_lon": 0.0, "lat": 38.969919, "bike_id": "d331baa06f4d2f44e86a99e0626e76be", "type": "electric_scooter", "is_reserved": 0, "lon": -77.011613}, {"fusion_lat": 0.0, "name": "7bdeb6cf5060f226348ff1feafbe256b", "is_disabled": 0, "rental_uris": {"android": "https://dc.lft.to/lastmile_qr_scan", "ios": "https://dc.lft.to/lastmile_qr_scan"}, "fusion_lon": 0.0, "lat": 38.8746585, "bike_id": "7bdeb6cf5060f226348ff1feafbe256b", "type": "electric_scooter", "is_reserved": 0, "lon": -77.00466833333333}, {"fusion_lat": 0.0, "name": "99ec3cb910a69d06cdb5687b990116ad", "is_disabled": 0, "rental_uris": {"android": "https://dc.lft.to/lastmile_qr_scan", "ios": "https://dc.lft.to/lastmile_qr_scan"}, "fusion_lon": 0.0, "lat": 38.92477233333334, "bike_id": "99ec3cb910a69d06cdb5687b990116ad", "type": "electric_scooter", "is_reserved": 0, "lon": -77.0355685}, {"fusion_lat": 0.0, "name": "247c194c5e9745a3db9f4825c5d0c05d", "is_disabled": 0, "rental_uris": {"android": "https://dc.lft.to/lastmile_qr_scan", "ios": "https://dc.lft.to/lastmile_qr_scan"}, "fusion_lon": 0.0, "lat": 38.89740116666667, "bike_id": "247c194c5e9745a3db9f4825c5d0c05d", "type": "electric_scooter", "is_reserved": 0, "lon": -76.94721416666667}, {"fusion_lat": 0.0, "name": "10415e8304aed7f1c8a1ebaeee2b86a9", "is_disabled": 0, "rental_uris": {"android": "https://dc.lft.to/lastmile_qr_scan", "ios": "https://dc.lft.to/lastmile_qr_scan"}, "fusion_lon": 0.0, "lat": 38.91558333333333, "bike_id": "10415e8304aed7f1c8a1ebaeee2b86a9", "type": "electric_scooter", "is_reserved": 0, "lon": -77.03864416666667}, {"fusion_lat": 0.0, "name": "aa627274088adbb73d2504ce349eeecf", "is_disabled": 0, "rental_uris": {"android": "https://dc.lft.to/lastmile_qr_scan", "ios": "https://dc.lft.to/lastmile_qr_scan"}, "fusion_lon": 0.0, "lat": 38.90362983333333, "bike_id": "aa627274088adbb73d2504ce349eeecf", "type": "electric_scooter", "is_reserved": 0, "lon": -77.03988266666667}, {"fusion_lat": 0.0, "name": "c63bb883ca70113ebff1293600a68e0a", "is_disabled": 0, "rental_uris": {"android": "https://dc.lft.to/lastmile_qr_scan", "ios": "https://dc.lft.to/lastmile_qr_scan"}, "fusion_lon": 0.0, "lat": 38.91304816666667, "bike_id": "c63bb883ca70113ebff1293600a68e0a", "type": "electric_scooter", "is_reserved": 0, "lon": -77.041693}, {"fusion_lat": 0.0, "name": "1a1d05fc8bce5c779c6f50fea0d10edc", "is_disabled": 0, "rental_uris": {"android": "https://dc.lft.to/lastmile_qr_scan", "ios": "https://dc.lft.to/lastmile_qr_scan"}, "fusion_lon": 0.0, "lat": 38.902772666666664, "bike_id": "1a1d05fc8bce5c779c6f50fea0d10edc", "type": "electric_scooter", "is_reserved": 0, "lon": -77.0053685}, {"fusion_lat": 0.0, "name": "c6da71229a1bd080c144408755902a31", "is_disabled": 0, "rental_uris": {"android": "https://dc.lft.to/lastmile_qr_scan", "ios": "https://dc.lft.to/lastmile_qr_scan"}, "fusion_lon": 0.0, "lat": 38.91189983333334, "bike_id": "c6da71229a1bd080c144408755902a31", "type": "electric_scooter", "is_reserved": 0, "lon": -77.00209633333333}, {"fusion_lat": 0.0, "name": "b7b5b6d939a6e107dc6fec9e1dbcb8ff", "is_disabled": 0, "rental_uris": {"android": "https://dc.lft.to/lastmile_qr_scan", "ios": "https://dc.lft.to/lastmile_qr_scan"}, "fusion_lon": 0.0, "lat": 38.92722716666667, "bike_id": "b7b5b6d939a6e107dc6fec9e1dbcb8ff", "type": "electric_scooter", "is_reserved": 0, "lon": -77.023125}, {"fusion_lat": 0.0, "name": "9ad85abfbfeee73b7d84cb90c554bac1", "is_disabled": 0, "rental_uris": {"android": "https://dc.lft.to/lastmile_qr_scan", "ios": "https://dc.lft.to/lastmile_qr_scan"}, "fusion_lon": 0.0, "lat": 38.8783975, "bike_id": "9ad85abfbfeee73b7d84cb90c554bac1", "type": "electric_scooter", "is_reserved": 0, "lon": -77.00118616666667}, {"fusion_lat": 0.0, "name": "f7d3d1f72edd625349477dd43111d40b", "is_disabled": 0, "rental_uris": {"android": "https://dc.lft.to/lastmile_qr_scan", "ios": "https://dc.lft.to/lastmile_qr_scan"}, "fusion_lon": 0.0, "lat": 38.90756566666667, "bike_id": "f7d3d1f72edd625349477dd43111d40b", "type": "electric_scooter", "is_reserved": 0, "lon": -77.04162316666667}, {"fusion_lat": 0.0, "name": "90f98ce388fa93d78b4b9e593e0b8fbe", "is_disabled": 0, "rental_uris": {"android": "https://dc.lft.to/lastmile_qr_scan", "ios": "https://dc.lft.to/lastmile_qr_scan"}, "fusion_lon": 0.0, "lat": 38.874690333333334, "bike_id": "90f98ce388fa93d78b4b9e593e0b8fbe", "type": "electric_scooter", "is_reserved": 0, "lon": -77.00466283333333}, {"fusion_lat": 0.0, "name": "e3542ad16f3bcda6eb6b7b09dd016cc2", "is_disabled": 0, "rental_uris": {"android": "https://dc.lft.to/lastmile_qr_scan", "ios": "https://dc.lft.to/lastmile_qr_scan"}, "fusion_lon": 0.0, "lat": 38.90397466666667, "bike_id": "e3542ad16f3bcda6eb6b7b09dd016cc2", "type": "electric_scooter", "is_reserved": 0, "lon": -77.03445533333333}, {"fusion_lat": 0.0, "name": "8d986f0200c099eb4118674d0691ecaf", "is_disabled": 0, "rental_uris": {"android": "https://dc.lft.to/lastmile_qr_scan", "ios": "https://dc.lft.to/lastmile_qr_scan"}, "fusion_lon": 0.0, "lat": 38.920958166666665, "bike_id": "8d986f0200c099eb4118674d0691ecaf", "type": "electric_scooter", "is_reserved": 0, "lon": -77.0242485}, {"fusion_lat": 0.0, "name": "f869f36130b17a5f078ec64ff3d905ef", "is_disabled": 0, "rental_uris": {"android": "https://dc.lft.to/lastmile_qr_scan", "ios": "https://dc.lft.to/lastmile_qr_scan"}, "fusion_lon": 0.0, "lat": 38.90712833333333, "bike_id": "f869f36130b17a5f078ec64ff3d905ef", "type": "electric_scooter", "is_reserved": 0, "lon": -77.032556}, {"fusion_lat": 0.0, "name": "c5cb68cb465478d327933cbcbcacc669", "is_disabled": 0, "rental_uris": {"android": "https://dc.lft.to/lastmile_qr_scan", "ios": "https://dc.lft.to/lastmile_qr_scan"}, "fusion_lon": 0.0, "lat": 38.908517333333336, "bike_id": "c5cb68cb465478d327933cbcbcacc669", "type": "electric_scooter", "is_reserved": 0, "lon": -77.03825766666667}, {"fusion_lat": 0.0, "name": "d547d71aab1f85c33fda9573def8d2ff", "is_disabled": 0, "rental_uris": {"android": "https://dc.lft.to/lastmile_qr_scan", "ios": "https://dc.lft.to/lastmile_qr_scan"}, "fusion_lon": 0.0, "lat": 38.9213255, "bike_id": "d547d71aab1f85c33fda9573def8d2ff", "type": "electric_scooter", "is_reserved": 0, "lon": -77.025192}, {"fusion_lat": 0.0, "name": "542614cbac9ff9fe957645a8e3ae078b", "is_disabled": 0, "rental_uris": {"android": "https://dc.lft.to/lastmile_qr_scan", "ios": "https://dc.lft.to/lastmile_qr_scan"}, "fusion_lon": 0.0, "lat": 38.923035666666664, "bike_id": "542614cbac9ff9fe957645a8e3ae078b", "type": "electric_bike", "is_reserved": 0, "lon": -76.99379866666666}, {"fusion_lat": 0.0, "name": "06be1d5f163cf5815f765bbe5a8b0c9d", "is_disabled": 0, "rental_uris": {"android": "https://dc.lft.to/lastmile_qr_scan", "ios": "https://dc.lft.to/lastmile_qr_scan"}, "fusion_lon": 0.0, "lat": 38.9126345, "bike_id": "06be1d5f163cf5815f765bbe5a8b0c9d", "type": "electric_scooter", "is_reserved": 0, "lon": -77.03497616666667}, {"fusion_lat": 0.0, "name": "29e43f6944bff6420df344fc0341f207", "is_disabled": 0, "rental_uris": {"android": "https://dc.lft.to/lastmile_qr_scan", "ios": "https://dc.lft.to/lastmile_qr_scan"}, "fusion_lon": 0.0, "lat": 38.937021666666666, "bike_id": "29e43f6944bff6420df344fc0341f207", "type": "electric_scooter", "is_reserved": 0, "lon": -77.02436666666667}, {"fusion_lat": 0.0, "name": "a34e3d5163bae6835b61085540721239", "is_disabled": 0, "rental_uris": {"android": "https://dc.lft.to/lastmile_qr_scan", "ios": "https://dc.lft.to/lastmile_qr_scan"}, "fusion_lon": 0.0, "lat": 38.928678166666664, "bike_id": "a34e3d5163bae6835b61085540721239", "type": "electric_scooter", "is_reserved": 0, "lon": -77.013477}, {"fusion_lat": 0.0, "name": "9a86e8b4e168bab588041f43d38e2dc4", "is_disabled": 0, "rental_uris": {"android": "https://dc.lft.to/lastmile_qr_scan", "ios": "https://dc.lft.to/lastmile_qr_scan"}, "fusion_lon": 0.0, "lat": 38.8992725, "bike_id": "9a86e8b4e168bab588041f43d38e2dc4", "type": "electric_scooter", "is_reserved": 0, "lon": -77.03912283333334}, {"fusion_lat": 0.0, "name": "31ec1b0c55d74043acce9835df325514", "is_disabled": 0, "rental_uris": {"android": "https://dc.lft.to/lastmile_qr_scan", "ios": "https://dc.lft.to/lastmile_qr_scan"}, "fusion_lon": 0.0, "lat": 38.88997716666667, "bike_id": "31ec1b0c55d74043acce9835df325514", "type": "electric_scooter", "is_reserved": 0, "lon": -76.98369883333334}, {"fusion_lat": 0.0, "name": "b153aa8438e4a6977f0a4bd1de6e3b6b", "is_disabled": 0, "rental_uris": {"android": "https://dc.lft.to/lastmile_qr_scan", "ios": "https://dc.lft.to/lastmile_qr_scan"}, "fusion_lon": 0.0, "lat": 38.908999, "bike_id": "b153aa8438e4a6977f0a4bd1de6e3b6b", "type": "electric_scooter", "is_reserved": 0, "lon": -77.04400083333333}, {"fusion_lat": 0.0, "name": "989c99f3328e3e6bacfdad97f056d00f", "is_disabled": 0, "rental_uris": {"android": "https://dc.lft.to/lastmile_qr_scan", "ios": "https://dc.lft.to/lastmile_qr_scan"}, "fusion_lon": 0.0, "lat": 38.90009283333333, "bike_id": "989c99f3328e3e6bacfdad97f056d00f", "type": "electric_scooter", "is_reserved": 0, "lon": -76.99331216666667}, {"fusion_lat": 0.0, "name": "dfee20582660678176a11c4d46d2de20", "is_disabled": 0, "rental_uris": {"android": "https://dc.lft.to/lastmile_qr_scan", "ios": "https://dc.lft.to/lastmile_qr_scan"}, "fusion_lon": 0.0, "lat": 38.954219, "bike_id": "dfee20582660678176a11c4d46d2de20", "type": "electric_scooter", "is_reserved": 0, "lon": -77.02763783333333}, {"fusion_lat": 0.0, "name": "023c15a86b7372255059c18d237e2130", "is_disabled": 0, "rental_uris": {"android": "https://dc.lft.to/lastmile_qr_scan", "ios": "https://dc.lft.to/lastmile_qr_scan"}, "fusion_lon": 0.0, "lat": 38.8977615, "bike_id": "023c15a86b7372255059c18d237e2130", "type": "electric_scooter", "is_reserved": 0, "lon": -77.027201}, {"fusion_lat": 0.0, "name": "05b06beeafac0ad90b7d56c50ac0ba0b", "is_disabled": 0, "rental_uris": {"android": "https://dc.lft.to/lastmile_qr_scan", "ios": "https://dc.lft.to/lastmile_qr_scan"}, "fusion_lon": 0.0, "lat": 38.916326166666664, "bike_id": "05b06beeafac0ad90b7d56c50ac0ba0b", "type": "electric_scooter", "is_reserved": 0, "lon": -77.05073616666667}, {"fusion_lat": 0.0, "name": "b3fa5a3356dd9c3074f71375015299d7", "is_disabled": 0, "rental_uris": {"android": "https://dc.lft.to/lastmile_qr_scan", "ios": "https://dc.lft.to/lastmile_qr_scan"}, "fusion_lon": 0.0, "lat": 38.893528, "bike_id": "b3fa5a3356dd9c3074f71375015299d7", "type": "electric_scooter", "is_reserved": 0, "lon": -76.98656433333333}, {"fusion_lat": 0.0, "name": "db27122b7d59d06bc29f804a209470e8", "is_disabled": 0, "rental_uris": {"android": "https://dc.lft.to/lastmile_qr_scan", "ios": "https://dc.lft.to/lastmile_qr_scan"}, "fusion_lon": 0.0, "lat": 38.900046, "bike_id": "db27122b7d59d06bc29f804a209470e8", "type": "electric_scooter", "is_reserved": 0, "lon": -76.9984065}, {"fusion_lat": 0.0, "name": "b4637747351b33a5b9454756a9ca7d10", "is_disabled": 0, "rental_uris": {"android": "https://dc.lft.to/lastmile_qr_scan", "ios": "https://dc.lft.to/lastmile_qr_scan"}, "fusion_lon": 0.0, "lat": 38.89843416666667, "bike_id": "b4637747351b33a5b9454756a9ca7d10", "type": "electric_scooter", "is_reserved": 0, "lon": -76.942523}, {"fusion_lat": 0.0, "name": "0685f10476923fc03a1640407c73cb31", "is_disabled": 0, "rental_uris": {"android": "https://dc.lft.to/lastmile_qr_scan", "ios": "https://dc.lft.to/lastmile_qr_scan"}, "fusion_lon": 0.0, "lat": 38.931867833333335, "bike_id": "0685f10476923fc03a1640407c73cb31", "type": "electric_scooter", "is_reserved": 0, "lon": -77.0330175}, {"fusion_lat": 0.0, "name": "1712d61a093a7fa1b098d36925369591", "is_disabled": 0, "rental_uris": {"android": "https://dc.lft.to/lastmile_qr_scan", "ios": "https://dc.lft.to/lastmile_qr_scan"}, "fusion_lon": 0.0, "lat": 38.9186065, "bike_id": "1712d61a093a7fa1b098d36925369591", "type": "electric_scooter", "is_reserved": 0, "lon": -77.02322616666666}, {"fusion_lat": 0.0, "name": "9841fc8c5f6560fdfa851c8dc3e1aeea", "is_disabled": 0, "rental_uris": {"android": "https://dc.lft.to/lastmile_qr_scan", "ios": "https://dc.lft.to/lastmile_qr_scan"}, "fusion_lon": 0.0, "lat": 38.92284466666667, "bike_id": "9841fc8c5f6560fdfa851c8dc3e1aeea", "type": "electric_scooter", "is_reserved": 0, "lon": -77.02962933333333}, {"fusion_lat": 0.0, "name": "06e5dd93ebf9e6db9e1b3d0b5882ce38", "is_disabled": 0, "rental_uris": {"android": "https://dc.lft.to/lastmile_qr_scan", "ios": "https://dc.lft.to/lastmile_qr_scan"}, "fusion_lon": 0.0, "lat": 38.89717483333333, "bike_id": "06e5dd93ebf9e6db9e1b3d0b5882ce38", "type": "electric_scooter", "is_reserved": 0, "lon": -77.00795733333334}, {"fusion_lat": 0.0, "name": "0cb01502f05a93ab289864d074af5a8e", "is_disabled": 0, "rental_uris": {"android": "https://dc.lft.to/lastmile_qr_scan", "ios": "https://dc.lft.to/lastmile_qr_scan"}, "fusion_lon": 0.0, "lat": 38.901701833333334, "bike_id": "0cb01502f05a93ab289864d074af5a8e", "type": "electric_scooter", "is_reserved": 0, "lon": -77.02606416666667}, {"fusion_lat": 0.0, "name": "224a312044425304a4a2b44a0fb4a966", "is_disabled": 0, "rental_uris": {"android": "https://dc.lft.to/lastmile_qr_scan", "ios": "https://dc.lft.to/lastmile_qr_scan"}, "fusion_lon": 0.0, "lat": 38.89220316666667, "bike_id": "224a312044425304a4a2b44a0fb4a966", "type": "electric_scooter", "is_reserved": 0, "lon": -77.02308716666667}, {"fusion_lat": 0.0, "name": "f068308a2f91d3605bd9806c898cc04e", "is_disabled": 0, "rental_uris": {"android": "https://dc.lft.to/lastmile_qr_scan", "ios": "https://dc.lft.to/lastmile_qr_scan"}, "fusion_lon": 0.0, "lat": 38.922716, "bike_id": "f068308a2f91d3605bd9806c898cc04e", "type": "electric_bike", "is_reserved": 0, "lon": -76.98657233333333}, {"fusion_lat": 0.0, "name": "afae75aa3fd79937bed1c546c9ce9416", "is_disabled": 0, "rental_uris": {"android": "https://dc.lft.to/lastmile_qr_scan", "ios": "https://dc.lft.to/lastmile_qr_scan"}, "fusion_lon": 0.0, "lat": 38.93416916666666, "bike_id": "afae75aa3fd79937bed1c546c9ce9416", "type": "electric_scooter", "is_reserved": 0, "lon": -77.02207566666667}, {"fusion_lat": 0.0, "name": "195728cdf28dae17aacefc1a3ae3483d", "is_disabled": 0, "rental_uris": {"android": "https://dc.lft.to/lastmile_qr_scan", "ios": "https://dc.lft.to/lastmile_qr_scan"}, "fusion_lon": 0.0, "lat": 38.9022285, "bike_id": "195728cdf28dae17aacefc1a3ae3483d", "type": "electric_scooter", "is_reserved": 0, "lon": -77.0325135}, {"fusion_lat": 0.0, "name": "53b794a819fbc9e2ccd283e387ed2e2a", "is_disabled": 0, "rental_uris": {"android": "https://dc.lft.to/lastmile_qr_scan", "ios": "https://dc.lft.to/lastmile_qr_scan"}, "fusion_lon": 0.0, "lat": 38.905557333333334, "bike_id": "53b794a819fbc9e2ccd283e387ed2e2a", "type": "electric_scooter", "is_reserved": 0, "lon": -77.04658166666667}, {"fusion_lat": 0.0, "name": "0906cf1aabab006958834d936e450ea3", "is_disabled": 0, "rental_uris": {"android": "https://dc.lft.to/lastmile_qr_scan", "ios": "https://dc.lft.to/lastmile_qr_scan"}, "fusion_lon": 0.0, "lat": 38.90109133333333, "bike_id": "0906cf1aabab006958834d936e450ea3", "type": "electric_scooter", "is_reserved": 0, "lon": -77.03357}, {"fusion_lat": 0.0, "name": "6326af46d7e3e7827e630ffbea63f5e5", "is_disabled": 0, "rental_uris": {"android": "https://dc.lft.to/lastmile_qr_scan", "ios": "https://dc.lft.to/lastmile_qr_scan"}, "fusion_lon": 0.0, "lat": 38.916742, "bike_id": "6326af46d7e3e7827e630ffbea63f5e5", "type": "electric_scooter", "is_reserved": 0, "lon": -77.02719983333333}, {"fusion_lat": 0.0, "name": "74520014495662d070d7eeb2753c77ea", "is_disabled": 0, "rental_uris": {"android": "https://dc.lft.to/lastmile_qr_scan", "ios": "https://dc.lft.to/lastmile_qr_scan"}, "fusion_lon": 0.0, "lat": 38.905415833333336, "bike_id": "74520014495662d070d7eeb2753c77ea", "type": "electric_scooter", "is_reserved": 0, "lon": -77.02965033333334}, {"fusion_lat": 0.0, "name": "f4837011ccd0252779ce111bdb65f74b", "is_disabled": 0, "rental_uris": {"android": "https://dc.lft.to/lastmile_qr_scan", "ios": "https://dc.lft.to/lastmile_qr_scan"}, "fusion_lon": 0.0, "lat": 38.906023833333336, "bike_id": "f4837011ccd0252779ce111bdb65f74b", "type": "electric_scooter", "is_reserved": 0, "lon": -77.06293033333333}, {"fusion_lat": 0.0, "name": "0430642edcd0ac018816eb8f1556dd4f", "is_disabled": 0, "rental_uris": {"android": "https://dc.lft.to/lastmile_qr_scan", "ios": "https://dc.lft.to/lastmile_qr_scan"}, "fusion_lon": 0.0, "lat": 38.90760366666667, "bike_id": "0430642edcd0ac018816eb8f1556dd4f", "type": "electric_scooter", "is_reserved": 0, "lon": -77.0355225}, {"fusion_lat": 0.0, "name": "795f5a91de423adddae99b05bec628d2", "is_disabled": 0, "rental_uris": {"android": "https://dc.lft.to/lastmile_qr_scan", "ios": "https://dc.lft.to/lastmile_qr_scan"}, "fusion_lon": 0.0, "lat": 38.899612833333336, "bike_id": "795f5a91de423adddae99b05bec628d2", "type": "electric_scooter", "is_reserved": 0, "lon": -77.05089583333333}, {"fusion_lat": 0.0, "name": "c04156c89e91769a436141e0018f2a20", "is_disabled": 0, "rental_uris": {"android": "https://dc.lft.to/lastmile_qr_scan", "ios": "https://dc.lft.to/lastmile_qr_scan"}, "fusion_lon": 0.0, "lat": 38.883788333333335, "bike_id": "c04156c89e91769a436141e0018f2a20", "type": "electric_scooter", "is_reserved": 0, "lon": -77.0052535}, {"fusion_lat": 0.0, "name": "7abbc2268ad09a58646ca97728105e31", "is_disabled": 0, "rental_uris": {"android": "https://dc.lft.to/lastmile_qr_scan", "ios": "https://dc.lft.to/lastmile_qr_scan"}, "fusion_lon": 0.0, "lat": 38.844309833333334, "bike_id": "7abbc2268ad09a58646ca97728105e31", "type": "electric_scooter", "is_reserved": 0, "lon": -76.99784866666667}, {"fusion_lat": 0.0, "name": "799fa5d483a5c5ea3c8d28a433e69f42", "is_disabled": 0, "rental_uris": {"android": "https://dc.lft.to/lastmile_qr_scan", "ios": "https://dc.lft.to/lastmile_qr_scan"}, "fusion_lon": 0.0, "lat": 38.9169605, "bike_id": "799fa5d483a5c5ea3c8d28a433e69f42", "type": "electric_scooter", "is_reserved": 0, "lon": -77.02894833333333}, {"fusion_lat": 0.0, "name": "1d4f154879a2c88a027f38918718f6f8", "is_disabled": 0, "rental_uris": {"android": "https://dc.lft.to/lastmile_qr_scan", "ios": "https://dc.lft.to/lastmile_qr_scan"}, "fusion_lon": 0.0, "lat": 38.9248765, "bike_id": "1d4f154879a2c88a027f38918718f6f8", "type": "electric_scooter", "is_reserved": 0, "lon": -77.05216366666667}, {"fusion_lat": 0.0, "name": "d1c91567fa0d0dce11c122b05bc9db05", "is_disabled": 0, "rental_uris": {"android": "https://dc.lft.to/lastmile_qr_scan", "ios": "https://dc.lft.to/lastmile_qr_scan"}, "fusion_lon": 0.0, "lat": 38.852054333333335, "bike_id": "d1c91567fa0d0dce11c122b05bc9db05", "type": "electric_bike", "is_reserved": 0, "lon": -76.9628065}, {"fusion_lat": 0.0, "name": "26d2eda947397528b452f84237340a94", "is_disabled": 0, "rental_uris": {"android": "https://dc.lft.to/lastmile_qr_scan", "ios": "https://dc.lft.to/lastmile_qr_scan"}, "fusion_lon": 0.0, "lat": 38.8868225, "bike_id": "26d2eda947397528b452f84237340a94", "type": "electric_scooter", "is_reserved": 0, "lon": -77.00196516666666}, {"fusion_lat": 0.0, "name": "913b3a087caf2e745c8058bc2ec097fa", "is_disabled": 0, "rental_uris": {"android": "https://dc.lft.to/lastmile_qr_scan", "ios": "https://dc.lft.to/lastmile_qr_scan"}, "fusion_lon": 0.0, "lat": 38.924457333333336, "bike_id": "913b3a087caf2e745c8058bc2ec097fa", "type": "electric_scooter", "is_reserved": 0, "lon": -77.01870716666667}, {"fusion_lat": 0.0, "name": "7065315dc5a24e81f45d6ee8bfcb9016", "is_disabled": 0, "rental_uris": {"android": "https://dc.lft.to/lastmile_qr_scan", "ios": "https://dc.lft.to/lastmile_qr_scan"}, "fusion_lon": 0.0, "lat": 38.907864000000004, "bike_id": "7065315dc5a24e81f45d6ee8bfcb9016", "type": "electric_scooter", "is_reserved": 0, "lon": -77.07240816666666}, {"fusion_lat": 0.0, "name": "a2d2aef9a7ee6c3acd5f92f04d6c72c8", "is_disabled": 0, "rental_uris": {"android": "https://dc.lft.to/lastmile_qr_scan", "ios": "https://dc.lft.to/lastmile_qr_scan"}, "fusion_lon": 0.0, "lat": 38.847731333333336, "bike_id": "a2d2aef9a7ee6c3acd5f92f04d6c72c8", "type": "electric_bike", "is_reserved": 0, "lon": -76.9664325}, {"fusion_lat": 0.0, "name": "bbe90b575c82a016bf0d8379349ac722", "is_disabled": 0, "rental_uris": {"android": "https://dc.lft.to/lastmile_qr_scan", "ios": "https://dc.lft.to/lastmile_qr_scan"}, "fusion_lon": 0.0, "lat": 38.927107666666664, "bike_id": "bbe90b575c82a016bf0d8379349ac722", "type": "electric_scooter", "is_reserved": 0, "lon": -77.02093983333333}, {"fusion_lat": 0.0, "name": "1c2b27550c87e639ac32f0db01327b7c", "is_disabled": 0, "rental_uris": {"android": "https://dc.lft.to/lastmile_qr_scan", "ios": "https://dc.lft.to/lastmile_qr_scan"}, "fusion_lon": 0.0, "lat": 38.88747683333333, "bike_id": "1c2b27550c87e639ac32f0db01327b7c", "type": "electric_scooter", "is_reserved": 0, "lon": -77.0212865}, {"fusion_lat": 0.0, "name": "84f4ec16a6f6f8fe1d849c7fe566d590", "is_disabled": 0, "rental_uris": {"android": "https://dc.lft.to/lastmile_qr_scan", "ios": "https://dc.lft.to/lastmile_qr_scan"}, "fusion_lon": 0.0, "lat": 38.90254816666667, "bike_id": "84f4ec16a6f6f8fe1d849c7fe566d590", "type": "electric_scooter", "is_reserved": 0, "lon": -77.00568233333334}, {"fusion_lat": 0.0, "name": "d28ad246748b5e643892063924fb36d0", "is_disabled": 0, "rental_uris": {"android": "https://dc.lft.to/lastmile_qr_scan", "ios": "https://dc.lft.to/lastmile_qr_scan"}, "fusion_lon": 0.0, "lat": 38.913879333333334, "bike_id": "d28ad246748b5e643892063924fb36d0", "type": "electric_scooter", "is_reserved": 0, "lon": -76.98415783333333}, {"fusion_lat": 0.0, "name": "5038064f2ea54dbbfee16d755cfac22d", "is_disabled": 0, "rental_uris": {"android": "https://dc.lft.to/lastmile_qr_scan", "ios": "https://dc.lft.to/lastmile_qr_scan"}, "fusion_lon": 0.0, "lat": 38.89743416666666, "bike_id": "5038064f2ea54dbbfee16d755cfac22d", "type": "electric_scooter", "is_reserved": 0, "lon": -77.02760816666667}, {"fusion_lat": 0.0, "name": "1e74d6068a4ee9a9a8be4aeb8f995a4e", "is_disabled": 0, "rental_uris": {"android": "https://dc.lft.to/lastmile_qr_scan", "ios": "https://dc.lft.to/lastmile_qr_scan"}, "fusion_lon": 0.0, "lat": 38.8718505, "bike_id": "1e74d6068a4ee9a9a8be4aeb8f995a4e", "type": "electric_scooter", "is_reserved": 0, "lon": -77.0065375}, {"fusion_lat": 0.0, "name": "a2b7ada746bf55c999157b049c6cf173", "is_disabled": 0, "rental_uris": {"android": "https://dc.lft.to/lastmile_qr_scan", "ios": "https://dc.lft.to/lastmile_qr_scan"}, "fusion_lon": 0.0, "lat": 38.91164216666667, "bike_id": "a2b7ada746bf55c999157b049c6cf173", "type": "electric_scooter", "is_reserved": 0, "lon": -77.02009033333333}, {"fusion_lat": 0.0, "name": "e5bc299012a09730b0a0b9722231b35b", "is_disabled": 0, "rental_uris": {"android": "https://dc.lft.to/lastmile_qr_scan", "ios": "https://dc.lft.to/lastmile_qr_scan"}, "fusion_lon": 0.0, "lat": 38.85767883333333, "bike_id": "e5bc299012a09730b0a0b9722231b35b", "type": "electric_bike", "is_reserved": 0, "lon": -76.98760433333334}, {"fusion_lat": 0.0, "name": "c862a58c90347d45d93654973a20db6d", "is_disabled": 0, "rental_uris": {"android": "https://dc.lft.to/lastmile_qr_scan", "ios": "https://dc.lft.to/lastmile_qr_scan"}, "fusion_lon": 0.0, "lat": 38.9172555, "bike_id": "c862a58c90347d45d93654973a20db6d", "type": "electric_scooter", "is_reserved": 0, "lon": -77.026939}, {"fusion_lat": 0.0, "name": "28d2c5fe57e345f92e7da73c3cf7bd54", "is_disabled": 0, "rental_uris": {"android": "https://dc.lft.to/lastmile_qr_scan", "ios": "https://dc.lft.to/lastmile_qr_scan"}, "fusion_lon": 0.0, "lat": 38.90021766666667, "bike_id": "28d2c5fe57e345f92e7da73c3cf7bd54", "type": "electric_scooter", "is_reserved": 0, "lon": -76.99856133333333}, {"fusion_lat": 0.0, "name": "5425c1834fab0099b81bef98eb111657", "is_disabled": 0, "rental_uris": {"android": "https://dc.lft.to/lastmile_qr_scan", "ios": "https://dc.lft.to/lastmile_qr_scan"}, "fusion_lon": 0.0, "lat": 38.911661333333335, "bike_id": "5425c1834fab0099b81bef98eb111657", "type": "electric_scooter", "is_reserved": 0, "lon": -77.01125433333333}, {"fusion_lat": 0.0, "name": "3a179122d0480cadc5aa263850574f00", "is_disabled": 0, "rental_uris": {"android": "https://dc.lft.to/lastmile_qr_scan", "ios": "https://dc.lft.to/lastmile_qr_scan"}, "fusion_lon": 0.0, "lat": 38.89724566666666, "bike_id": "3a179122d0480cadc5aa263850574f00", "type": "electric_scooter", "is_reserved": 0, "lon": -77.05519583333333}, {"fusion_lat": 0.0, "name": "9eecd9f4334063e2b3e245dd254493f2", "is_disabled": 0, "rental_uris": {"android": "https://dc.lft.to/lastmile_qr_scan", "ios": "https://dc.lft.to/lastmile_qr_scan"}, "fusion_lon": 0.0, "lat": 38.91690333333333, "bike_id": "9eecd9f4334063e2b3e245dd254493f2", "type": "electric_scooter", "is_reserved": 0, "lon": -77.038458}, {"fusion_lat": 0.0, "name": "cbab27f16ed46b1d4cef1d06c404c724", "is_disabled": 0, "rental_uris": {"android": "https://dc.lft.to/lastmile_qr_scan", "ios": "https://dc.lft.to/lastmile_qr_scan"}, "fusion_lon": 0.0, "lat": 38.89852533333333, "bike_id": "cbab27f16ed46b1d4cef1d06c404c724", "type": "electric_bike", "is_reserved": 0, "lon": -76.93187566666667}, {"fusion_lat": 0.0, "name": "dfe1c0b5e10549cf4b715eeb6f924f56", "is_disabled": 0, "rental_uris": {"android": "https://dc.lft.to/lastmile_qr_scan", "ios": "https://dc.lft.to/lastmile_qr_scan"}, "fusion_lon": 0.0, "lat": 38.932823, "bike_id": "dfe1c0b5e10549cf4b715eeb6f924f56", "type": "electric_scooter", "is_reserved": 0, "lon": -77.04084966666667}, {"fusion_lat": 0.0, "name": "6b6adb20faada1e625348c56c2a4fb38", "is_disabled": 0, "rental_uris": {"android": "https://dc.lft.to/lastmile_qr_scan", "ios": "https://dc.lft.to/lastmile_qr_scan"}, "fusion_lon": 0.0, "lat": 38.83499, "bike_id": "6b6adb20faada1e625348c56c2a4fb38", "type": "electric_bike", "is_reserved": 0, "lon": -77.09016683333333}, {"fusion_lat": 0.0, "name": "9302e54b04acf6fe7ce9dff210b93635", "is_disabled": 0, "rental_uris": {"android": "https://dc.lft.to/lastmile_qr_scan", "ios": "https://dc.lft.to/lastmile_qr_scan"}, "fusion_lon": 0.0, "lat": 38.9055555, "bike_id": "9302e54b04acf6fe7ce9dff210b93635", "type": "electric_scooter", "is_reserved": 0, "lon": -77.00591716666666}, {"fusion_lat": 0.0, "name": "23367301f178d8c75c840890c590c410", "is_disabled": 0, "rental_uris": {"android": "https://dc.lft.to/lastmile_qr_scan", "ios": "https://dc.lft.to/lastmile_qr_scan"},