{"data": {"bikes": [{"lon": -77.02205616666667, "name": "1e297dd59b10258e0366c08e0f90c092", "is_disabled": 0, "type": "electric_scooter", "is_reserved": 0, "fusion_lon": 0.0, "lat": 38.924773333333334, "rental_uris": {"ios": "https://dc.lft.to/lastmile_qr_scan", "android": "https://dc.lft.to/lastmile_qr_scan"}, "bike_id": "1e297dd59b10258e0366c08e0f90c092", "fusion_lat": 0.0}, {"lon": -76.99783733333334, "name": "2f98e540d5cbc24615d45be102ecb377", "is_disabled": 0, "type": "electric_bike", "is_reserved": 0, "fusion_lon": 0.0, "lat": 38.9981715, "rental_uris": {"ios": "https://dc.lft.to/lastmile_qr_scan", "android": "https://dc.lft.to/lastmile_qr_scan"}, "bike_id": "2f98e540d5cbc24615d45be102ecb377", "fusion_lat": 0.0}, {"lon": -77.02111616666667, "name": "333a11e3e36f8c6f91f1daaaea7bf232", "is_disabled": 0, "type": "electric_scooter", "is_reserved": 0, "fusion_lon": 0.0, "lat": 38.927836166666665, "rental_uris": {"ios": "https://dc.lft.to/lastmile_qr_scan", "android": "https://dc.lft.to/lastmile_qr_scan"}, "bike_id": "333a11e3e36f8c6f91f1daaaea7bf232", "fusion_lat": 0.0}, {"lon": -77.03198266666666, "name": "39f32c0fbdbbdf27f0db4c1d05251d98", "is_disabled": 0, "type": "electric_scooter", "is_reserved": 0, "fusion_lon": 0.0, "lat": 38.91623533333333, "rental_uris": {"ios": "https://dc.lft.to/lastmile_qr_scan", "android": "https://dc.lft.to/lastmile_qr_scan"}, "bike_id": "39f32c0fbdbbdf27f0db4c1d05251d98", "fusion_lat": 0.0}, {"lon": -77.02424666666667, "name": "19c8a185f38e8a4be30bedf78025f4e8", "is_disabled": 0, "type": "electric_scooter", "is_reserved": 0, "fusion_lon": 0.0, "lat": 38.926542166666664, "rental_uris": {"ios": "https://dc.lft.to/lastmile_qr_scan", "android": "https://dc.lft.to/lastmile_qr_scan"}, "bike_id": "19c8a185f38e8a4be30bedf78025f4e8", "fusion_lat": 0.0}, {"lon": -77.02548683333333, "name": "bcccba1014b3c72aff4570bec9c11c98", "is_disabled": 0, "type": "electric_scooter", "is_reserved": 0, "fusion_lon": 0.0, "lat": 38.92246166666666, "rental_uris": {"ios": "https://dc.lft.to/lastmile_qr_scan", "android": "https://dc.lft.to/lastmile_qr_scan"}, "bike_id": "bcccba1014b3c72aff4570bec9c11c98", "fusion_lat": 0.0}, {"lon": -76.98375483333334, "name": "50173be2dbdc33deecf004ebba22e0dc", "is_disabled": 0, "type": "electric_scooter", "is_reserved": 0, "fusion_lon": 0.0, "lat": 38.90648316666667, "rental_uris": {"ios": "https://dc.lft.to/lastmile_qr_scan", "android": "https://dc.lft.to/lastmile_qr_scan"}, "bike_id": "50173be2dbdc33deecf004ebba22e0dc", "fusion_lat": 0.0}, {"lon": -77.03336183333333, "name": "0c0132b99e39cbfaaab7e47d60b78fee", "is_disabled": 0, "type": "electric_scooter", "is_reserved": 0, "fusion_lon": 0.0, "lat": 38.918067666666666, "rental_uris": {"ios": "https://dc.lft.to/lastmile_qr_scan", "android": "https://dc.lft.to/lastmile_qr_scan"}, "bike_id": "0c0132b99e39cbfaaab7e47d60b78fee", "fusion_lat": 0.0}, {"lon": -77.0281145, "name": "1ff4a29a4e88642820d14f49030cf802", "is_disabled": 0, "type": "electric_scooter", "is_reserved": 0, "fusion_lon": 0.0, "lat": 38.906977, "rental_uris": {"ios": "https://dc.lft.to/lastmile_qr_scan", "android": "https://dc.lft.to/lastmile_qr_scan"}, "bike_id": "1ff4a29a4e88642820d14f49030cf802", "fusion_lat": 0.0}, {"lon": -76.98601166666667, "name": "98f5b0d0db442ac524e4e31097caae2c", "is_disabled": 0, "type": "electric_scooter", "is_reserved": 0, "fusion_lon": 0.0, "lat": 38.9065125, "rental_uris": {"ios": "https://dc.lft.to/lastmile_qr_scan", "android": "https://dc.lft.to/lastmile_qr_scan"}, "bike_id": "98f5b0d0db442ac524e4e31097caae2c", "fusion_lat": 0.0}, {"lon": -77.03296933333333, "name": "cea4d4353dfb8348d6cd13f93f964975", "is_disabled": 0, "type": "electric_scooter", "is_reserved": 0, "fusion_lon": 0.0, "lat": 38.89920983333333, "rental_uris": {"ios": "https://dc.lft.to/lastmile_qr_scan", "android": "https://dc.lft.to/lastmile_qr_scan"}, "bike_id": "cea4d4353dfb8348d6cd13f93f964975", "fusion_lat": 0.0}, {"lon": -76.96098816666667, "name": "c8dc8a4889ae4361f55f35061808fdf6", "is_disabled": 0, "type": "electric_scooter", "is_reserved": 0, "fusion_lon": 0.0, "lat": 38.892061166666664, "rental_uris": {"ios": "https://dc.lft.to/lastmile_qr_scan", "android": "https://dc.lft.to/lastmile_qr_scan"}, "bike_id": "c8dc8a4889ae4361f55f35061808fdf6", "fusion_lat": 0.0}, {"lon": -76.99067433333333, "name": "37aa2a43b24b631e4628063dd9b6f646", "is_disabled": 0, "type": "electric_scooter", "is_reserved": 0, "fusion_lon": 0.0, "lat": 38.856287333333334, "rental_uris": {"ios": "https://dc.lft.to/lastmile_qr_scan", "android": "https://dc.lft.to/lastmile_qr_scan"}, "bike_id": "37aa2a43b24b631e4628063dd9b6f646", "fusion_lat": 0.0}, {"lon": -77.03170716666666, "name": "a3b8eb79238051e2992a10d7c1e84781", "is_disabled": 0, "type": "electric_scooter", "is_reserved": 0, "fusion_lon": 0.0, "lat": 38.89229183333333, "rental_uris": {"ios": "https://dc.lft.to/lastmile_qr_scan", "android": "https://dc.lft.to/lastmile_qr_scan"}, "bike_id": "a3b8eb79238051e2992a10d7c1e84781", "fusion_lat": 0.0}, {"lon": -77.00706316666667, "name": "603bc857e43d0329844a4d6b507a55cc", "is_disabled": 0, "type": "electric_scooter", "is_reserved": 0, "fusion_lon": 0.0, "lat": 38.9073145, "rental_uris": {"ios": "https://dc.lft.to/lastmile_qr_scan", "android": "https://dc.lft.to/lastmile_qr_scan"}, "bike_id": "603bc857e43d0329844a4d6b507a55cc", "fusion_lat": 0.0}, {"lon": -76.9576925, "name": "3b28dc9fa1c619aa92d120a74a819245", "is_disabled": 0, "type": "electric_scooter", "is_reserved": 0, "fusion_lon": 0.0, "lat": 38.88355466666667, "rental_uris": {"ios": "https://dc.lft.to/lastmile_qr_scan", "android": "https://dc.lft.to/lastmile_qr_scan"}, "bike_id": "3b28dc9fa1c619aa92d120a74a819245", "fusion_lat": 0.0}, {"lon": -77.02309633333333, "name": "655c370c8e5ca2b8290af9eb7cb91adc", "is_disabled": 0, "type": "electric_scooter", "is_reserved": 0, "fusion_lon": 0.0, "lat": 38.917742833333335, "rental_uris": {"ios": "https://dc.lft.to/lastmile_qr_scan", "android": "https://dc.lft.to/lastmile_qr_scan"}, "bike_id": "655c370c8e5ca2b8290af9eb7cb91adc", "fusion_lat": 0.0}, {"lon": -77.02224116666666, "name": "4064d4e3edb70bf562e318501c6571fc", "is_disabled": 0, "type": "electric_scooter", "is_reserved": 0, "fusion_lon": 0.0, "lat": 38.9248305, "rental_uris": {"ios": "https://dc.lft.to/lastmile_qr_scan", "android": "https://dc.lft.to/lastmile_qr_scan"}, "bike_id": "4064d4e3edb70bf562e318501c6571fc", "fusion_lat": 0.0}, {"lon": -77.02793083333333, "name": "7879596d3930d01f4f0b23565d5da3fa", "is_disabled": 0, "type": "electric_scooter", "is_reserved": 0, "fusion_lon": 0.0, "lat": 38.941778666666664, "rental_uris": {"ios": "https://dc.lft.to/lastmile_qr_scan", "android": "https://dc.lft.to/lastmile_qr_scan"}, "bike_id": "7879596d3930d01f4f0b23565d5da3fa", "fusion_lat": 0.0}, {"lon": -77.02259116666667, "name": "7a3132af067d37192b077b74e354a5e1", "is_disabled": 0, "type": "electric_scooter", "is_reserved": 0, "fusion_lon": 0.0, "lat": 38.92823416666667, "rental_uris": {"ios": "https://dc.lft.to/lastmile_qr_scan", "android": "https://dc.lft.to/lastmile_qr_scan"}, "bike_id": "7a3132af067d37192b077b74e354a5e1", "fusion_lat": 0.0}, {"lon": -77.03656683333334, "name": "0c251070b5aacd1ba93aa6dfd7ca6366", "is_disabled": 0, "type": "electric_scooter", "is_reserved": 0, "fusion_lon": 0.0, "lat": 38.915744333333336, "rental_uris": {"ios": "https://dc.lft.to/lastmile_qr_scan", "android": "https://dc.lft.to/lastmile_qr_scan"}, "bike_id": "0c251070b5aacd1ba93aa6dfd7ca6366", "fusion_lat": 0.0}, {"lon": -77.01915383333333, "name": "f1e667b0f9f87014ab563d2c135e76d3", "is_disabled": 0, "type": "electric_scooter", "is_reserved": 0, "fusion_lon": 0.0, "lat": 38.89730466666666, "rental_uris": {"ios": "https://dc.lft.to/lastmile_qr_scan", "android": "https://dc.lft.to/lastmile_qr_scan"}, "bike_id": "f1e667b0f9f87014ab563d2c135e76d3", "fusion_lat": 0.0}, {"lon": -77.0325555, "name": "d58e76c890ecdf97717351411be1f833", "is_disabled": 0, "type": "electric_scooter", "is_reserved": 0, "fusion_lon": 0.0, "lat": 38.93969416666667, "rental_uris": {"ios": "https://dc.lft.to/lastmile_qr_scan", "android": "https://dc.lft.to/lastmile_qr_scan"}, "bike_id": "d58e76c890ecdf97717351411be1f833", "fusion_lat": 0.0}, {"lon": -76.995111, "name": "d6c60fb41725afe6e21ef6d8ff7613d9", "is_disabled": 0, "type": "electric_scooter", "is_reserved": 0, "fusion_lon": 0.0, "lat": 38.89078, "rental_uris": {"ios": "https://dc.lft.to/lastmile_qr_scan", "android": "https://dc.lft.to/lastmile_qr_scan"}, "bike_id": "d6c60fb41725afe6e21ef6d8ff7613d9", "fusion_lat": 0.0}, {"lon": -77.0386795, "name": "d08a0d738971f068b5993a8f93af75f2", "is_disabled": 0, "type": "electric_scooter", "is_reserved": 0, "fusion_lon": 0.0, "lat": 38.917119166666666, "rental_uris": {"ios": "https://dc.lft.to/lastmile_qr_scan", "android": "https://dc.lft.to/lastmile_qr_scan"}, "bike_id": "d08a0d738971f068b5993a8f93af75f2", "fusion_lat": 0.0}, {"lon": -77.02998183333334, "name": "6113e1cd7d6ee7edb8f5e679d694f785", "is_disabled": 0, "type": "electric_scooter", "is_reserved": 0, "fusion_lon": 0.0, "lat": 38.89563016666666, "rental_uris": {"ios": "https://dc.lft.to/lastmile_qr_scan", "android": "https://dc.lft.to/lastmile_qr_scan"}, "bike_id": "6113e1cd7d6ee7edb8f5e679d694f785", "fusion_lat": 0.0}, {"lon": -77.032662, "name": "b897c16854b94353467581fc67607575", "is_disabled": 0, "type": "electric_scooter", "is_reserved": 0, "fusion_lon": 0.0, "lat": 38.92555616666667, "rental_uris": {"ios": "https://dc.lft.to/lastmile_qr_scan", "android": "https://dc.lft.to/lastmile_qr_scan"}, "bike_id": "b897c16854b94353467581fc67607575", "fusion_lat": 0.0}, {"lon": -77.01489833333333, "name": "df0a52e5d088439905da457063d41e61", "is_disabled": 0, "type": "electric_scooter", "is_reserved": 0, "fusion_lon": 0.0, "lat": 38.89675066666667, "rental_uris": {"ios": "https://dc.lft.to/lastmile_qr_scan", "android": "https://dc.lft.to/lastmile_qr_scan"}, "bike_id": "df0a52e5d088439905da457063d41e61", "fusion_lat": 0.0}, {"lon": -76.99653133333334, "name": "29f1cb372b62a997181f7560cb047dfe", "is_disabled": 0, "type": "electric_bike", "is_reserved": 0, "fusion_lon": 0.0, "lat": 38.967766, "rental_uris": {"ios": "https://dc.lft.to/lastmile_qr_scan", "android": "https://dc.lft.to/lastmile_qr_scan"}, "bike_id": "29f1cb372b62a997181f7560cb047dfe", "fusion_lat": 0.0}, {"lon": -76.97680216666667, "name": "525b9e9d961e902691c3961567ea4117", "is_disabled": 0, "type": "electric_scooter", "is_reserved": 0, "fusion_lon": 0.0, "lat": 38.8919405, "rental_uris": {"ios": "https://dc.lft.to/lastmile_qr_scan", "android": "https://dc.lft.to/lastmile_qr_scan"}, "bike_id": "525b9e9d961e902691c3961567ea4117", "fusion_lat": 0.0}, {"lon": -76.93183966666666, "name": "0b6e699799f6100c13c3436abcc3d29c", "is_disabled": 0, "type": "electric_scooter", "is_reserved": 0, "fusion_lon": 0.0, "lat": 38.89874783333333, "rental_uris": {"ios": "https://dc.lft.to/lastmile_qr_scan", "android": "https://dc.lft.to/lastmile_qr_scan"}, "bike_id": "0b6e699799f6100c13c3436abcc3d29c", "fusion_lat": 0.0}, {"lon": -77.03199366666666, "name": "5a1604cb56703e7442b2e65690993fe7", "is_disabled": 0, "type": "electric_scooter", "is_reserved": 0, "fusion_lon": 0.0, "lat": 38.91612133333334, "rental_uris": {"ios": "https://dc.lft.to/lastmile_qr_scan", "android": "https://dc.lft.to/lastmile_qr_scan"}, "bike_id": "5a1604cb56703e7442b2e65690993fe7", "fusion_lat": 0.0}, {"lon": -77.0724435, "name": "81e2ab9f31951dae9a2d569a89025a9d", "is_disabled": 0, "type": "electric_scooter", "is_reserved": 0, "fusion_lon": 0.0, "lat": 38.921559333333335, "rental_uris": {"ios": "https://dc.lft.to/lastmile_qr_scan", "android": "https://dc.lft.to/lastmile_qr_scan"}, "bike_id": "81e2ab9f31951dae9a2d569a89025a9d", "fusion_lat": 0.0}, {"lon": -77.02113183333333, "name": "69c197e65d3f2a6c2c813be10f4f5556", "is_disabled": 0, "type": "electric_scooter", "is_reserved": 0, "fusion_lon": 0.0, "lat": 38.92230966666666, "rental_uris": {"ios": "https://dc.lft.to/lastmile_qr_scan", "android": "https://dc.lft.to/lastmile_qr_scan"}, "bike_id": "69c197e65d3f2a6c2c813be10f4f5556", "fusion_lat": 0.0}, {"lon": -77.04241816666666, "name": "9d27099788d2540078cf5294f12e3fcf", "is_disabled": 0, "type": "electric_scooter", "is_reserved": 0, "fusion_lon": 0.0, "lat": 38.921595333333336, "rental_uris": {"ios": "https://dc.lft.to/lastmile_qr_scan", "android": "https://dc.lft.to/lastmile_qr_scan"}, "bike_id": "9d27099788d2540078cf5294f12e3fcf", "fusion_lat": 0.0}, {"lon": -77.0092105, "name": "5fc6d522b8b6cab05cfd9b702d0b5d5b", "is_disabled": 0, "type": "electric_scooter", "is_reserved": 0, "fusion_lon": 0.0, "lat": 38.89609633333333, "rental_uris": {"ios": "https://dc.lft.to/lastmile_qr_scan", "android": "https://dc.lft.to/lastmile_qr_scan"}, "bike_id": "5fc6d522b8b6cab05cfd9b702d0b5d5b", "fusion_lat": 0.0}, {"lon": -77.01705416666667, "name": "37867313d183aa2d93b62aba953cb795", "is_disabled": 0, "type": "electric_scooter", "is_reserved": 0, "fusion_lon": 0.0, "lat": 38.887446, "rental_uris": {"ios": "https://dc.lft.to/lastmile_qr_scan", "android": "https://dc.lft.to/lastmile_qr_scan"}, "bike_id": "37867313d183aa2d93b62aba953cb795", "fusion_lat": 0.0}, {"lon": -77.10320833333333, "name": "b1fb81bf7e4f6dd096b9e9cd0738c748", "is_disabled": 0, "type": "electric_bike", "is_reserved": 0, "fusion_lon": 0.0, "lat": 38.8370375, "rental_uris": {"ios": "https://dc.lft.to/lastmile_qr_scan", "android": "https://dc.lft.to/lastmile_qr_scan"}, "bike_id": "b1fb81bf7e4f6dd096b9e9cd0738c748", "fusion_lat": 0.0}, {"lon": -77.02218833333333, "name": "6b6ecc28d8d2b0de08ca762b2c2c3d56", "is_disabled": 0, "type": "electric_scooter", "is_reserved": 0, "fusion_lon": 0.0, "lat": 38.92471166666667, "rental_uris": {"ios": "https://dc.lft.to/lastmile_qr_scan", "android": "https://dc.lft.to/lastmile_qr_scan"}, "bike_id": "6b6ecc28d8d2b0de08ca762b2c2c3d56", "fusion_lat": 0.0}, {"lon": -76.98495616666666, "name": "0eb7773088b6cfbd9338cab8a0452799", "is_disabled": 0, "type": "electric_scooter", "is_reserved": 0, "fusion_lon": 0.0, "lat": 38.90369166666667, "rental_uris": {"ios": "https://dc.lft.to/lastmile_qr_scan", "android": "https://dc.lft.to/lastmile_qr_scan"}, "bike_id": "0eb7773088b6cfbd9338cab8a0452799", "fusion_lat": 0.0}, {"lon": -77.00322416666667, "name": "cf25909fa8a98ce49a789bff2b3fab06", "is_disabled": 0, "type": "electric_scooter", "is_reserved": 0, "fusion_lon": 0.0, "lat": 38.861247, "rental_uris": {"ios": "https://dc.lft.to/lastmile_qr_scan", "android": "https://dc.lft.to/lastmile_qr_scan"}, "bike_id": "cf25909fa8a98ce49a789bff2b3fab06", "fusion_lat": 0.0}, {"lon": -76.99749966666667, "name": "9921f5116071f41023eec26a0315028c", "is_disabled": 0, "type": "electric_scooter", "is_reserved": 0, "fusion_lon": 0.0, "lat": 38.90052466666667, "rental_uris": {"ios": "https://dc.lft.to/lastmile_qr_scan", "android": "https://dc.lft.to/lastmile_qr_scan"}, "bike_id": "9921f5116071f41023eec26a0315028c", "fusion_lat": 0.0}, {"lon": -77.0199415, "name": "6651fa0d86a6f657ab53f50f24663f1f", "is_disabled": 0, "type": "electric_scooter", "is_reserved": 0, "fusion_lon": 0.0, "lat": 38.91180966666667, "rental_uris": {"ios": "https://dc.lft.to/lastmile_qr_scan", "android": "https://dc.lft.to/lastmile_qr_scan"}, "bike_id": "6651fa0d86a6f657ab53f50f24663f1f", "fusion_lat": 0.0}, {"lon": -76.98541466666667, "name": "061cd052b25f7a85b25ad06cc64a7761", "is_disabled": 0, "type": "electric_scooter", "is_reserved": 0, "fusion_lon": 0.0, "lat": 38.886017, "rental_uris": {"ios": "https://dc.lft.to/lastmile_qr_scan", "android": "https://dc.lft.to/lastmile_qr_scan"}, "bike_id": "061cd052b25f7a85b25ad06cc64a7761", "fusion_lat": 0.0}, {"lon": -76.96259683333334, "name": "382aebe26d7d0071599742997500fdce", "is_disabled": 0, "type": "electric_bike", "is_reserved": 0, "fusion_lon": 0.0, "lat": 38.882454, "rental_uris": {"ios": "https://dc.lft.to/lastmile_qr_scan", "android": "https://dc.lft.to/lastmile_qr_scan"}, "bike_id": "382aebe26d7d0071599742997500fdce", "fusion_lat": 0.0}, {"lon": -77.02573583333333, "name": "aa2d77108ebda357a3b522fb25c8807b", "is_disabled": 0, "type": "electric_scooter", "is_reserved": 0, "fusion_lon": 0.0, "lat": 38.904359666666664, "rental_uris": {"ios": "https://dc.lft.to/lastmile_qr_scan", "android": "https://dc.lft.to/lastmile_qr_scan"}, "bike_id": "aa2d77108ebda357a3b522fb25c8807b", "fusion_lat": 0.0}, {"lon": -76.98937983333333, "name": "972628ca75bce0866afc0cb350030233", "is_disabled": 0, "type": "electric_scooter", "is_reserved": 0, "fusion_lon": 0.0, "lat": 38.90011616666666, "rental_uris": {"ios": "https://dc.lft.to/lastmile_qr_scan", "android": "https://dc.lft.to/lastmile_qr_scan"}, "bike_id": "972628ca75bce0866afc0cb350030233", "fusion_lat": 0.0}, {"lon": -77.017353, "name": "85a6685f354717af361e8209632fb7c2", "is_disabled": 0, "type": "electric_scooter", "is_reserved": 0, "fusion_lon": 0.0, "lat": 38.8770285, "rental_uris": {"ios": "https://dc.lft.to/lastmile_qr_scan", "android": "https://dc.lft.to/lastmile_qr_scan"}, "bike_id": "85a6685f354717af361e8209632fb7c2", "fusion_lat": 0.0}, {"lon": -77.005382, "name": "ba237c668ed69ba8e9a878478d6ff240", "is_disabled": 0, "type": "electric_scooter", "is_reserved": 0, "fusion_lon": 0.0, "lat": 38.875467666666665, "rental_uris": {"ios": "https://dc.lft.to/lastmile_qr_scan", "android": "https://dc.lft.to/lastmile_qr_scan"}, "bike_id": "ba237c668ed69ba8e9a878478d6ff240", "fusion_lat": 0.0}, {"lon": -76.94849316666667, "name": "66df65a89835411e3628c78165d7f11a", "is_disabled": 0, "type": "electric_scooter", "is_reserved": 0, "fusion_lon": 0.0, "lat": 38.89605316666667, "rental_uris": {"ios": "https://dc.lft.to/lastmile_qr_scan", "android": "https://dc.lft.to/lastmile_qr_scan"}, "bike_id": "66df65a89835411e3628c78165d7f11a", "fusion_lat": 0.0}, {"lon": -77.03140966666666, "name": "5a1e87835ae468819a85fe27e7bfc115", "is_disabled": 0, "type": "electric_scooter", "is_reserved": 0, "fusion_lon": 0.0, "lat": 38.9419775, "rental_uris": {"ios": "https://dc.lft.to/lastmile_qr_scan", "android": "https://dc.lft.to/lastmile_qr_scan"}, "bike_id": "5a1e87835ae468819a85fe27e7bfc115", "fusion_lat": 0.0}, {"lon": -77.00134516666667, "name": "a63c8b0fe7bec5ead60d58c598c41c0c", "is_disabled": 0, "type": "electric_bike", "is_reserved": 0, "fusion_lon": 0.0, "lat": 38.99496033333333, "rental_uris": {"ios": "https://dc.lft.to/lastmile_qr_scan", "android": "https://dc.lft.to/lastmile_qr_scan"}, "bike_id": "a63c8b0fe7bec5ead60d58c598c41c0c", "fusion_lat": 0.0}, {"lon": -77.02002516666667, "name": "77c6fb31b37b72afda85cf68083d0539", "is_disabled": 0, "type": "electric_bike", "is_reserved": 0, "fusion_lon": 0.0, "lat": 38.96023483333333, "rental_uris": {"ios": "https://dc.lft.to/lastmile_qr_scan", "android": "https://dc.lft.to/lastmile_qr_scan"}, "bike_id": "77c6fb31b37b72afda85cf68083d0539", "fusion_lat": 0.0}, {"lon": -77.055179, "name": "f999758d89aac6921de6475f85bde835", "is_disabled": 0, "type": "electric_scooter", "is_reserved": 0, "fusion_lon": 0.0, "lat": 38.91059583333333, "rental_uris": {"ios": "https://dc.lft.to/lastmile_qr_scan", "android": "https://dc.lft.to/lastmile_qr_scan"}, "bike_id": "f999758d89aac6921de6475f85bde835", "fusion_lat": 0.0}, {"lon": -77.0209995, "name": "57624add4fef2b4ae894aa32972d814d", "is_disabled": 0, "type": "electric_scooter", "is_reserved": 0, "fusion_lon": 0.0, "lat": 38.92169916666667, "rental_uris": {"ios": "https://dc.lft.to/lastmile_qr_scan", "android": "https://dc.lft.to/lastmile_qr_scan"}, "bike_id": "57624add4fef2b4ae894aa32972d814d", "fusion_lat": 0.0}, {"lon": -77.06657566666667, "name": "e3fe105163634e83e40b33885bface9e", "is_disabled": 0, "type": "electric_scooter", "is_reserved": 0, "fusion_lon": 0.0, "lat": 38.906866666666666, "rental_uris": {"ios": "https://dc.lft.to/lastmile_qr_scan", "android": "https://dc.lft.to/lastmile_qr_scan"}, "bike_id": "e3fe105163634e83e40b33885bface9e", "fusion_lat": 0.0}, {"lon": -76.98378233333334, "name": "f1a9d8218e674816039ca92ac9ede2a2", "is_disabled": 0, "type": "electric_scooter", "is_reserved": 0, "fusion_lon": 0.0, "lat": 38.887279666666664, "rental_uris": {"ios": "https://dc.lft.to/lastmile_qr_scan", "android": "https://dc.lft.to/lastmile_qr_scan"}, "bike_id": "f1a9d8218e674816039ca92ac9ede2a2", "fusion_lat": 0.0}, {"lon": -77.04079933333334, "name": "f318a372b6470274815880976f4a168d", "is_disabled": 0, "type": "electric_scooter", "is_reserved": 0, "fusion_lon": 0.0, "lat": 38.923871166666665, "rental_uris": {"ios": "https://dc.lft.to/lastmile_qr_scan", "android": "https://dc.lft.to/lastmile_qr_scan"}, "bike_id": "f318a372b6470274815880976f4a168d", "fusion_lat": 0.0}, {"lon": -77.057451, "name": "9256acdba71bb6ddea04175a3d9ed61c", "is_disabled": 0, "type": "electric_scooter", "is_reserved": 0, "fusion_lon": 0.0, "lat": 38.9287165, "rental_uris": {"ios": "https://dc.lft.to/lastmile_qr_scan", "android": "https://dc.lft.to/lastmile_qr_scan"}, "bike_id": "9256acdba71bb6ddea04175a3d9ed61c", "fusion_lat": 0.0}, {"lon": -77.01806633333334, "name": "ada9ad4168be132a0783f4ac67454900", "is_disabled": 0, "type": "electric_scooter", "is_reserved": 0, "fusion_lon": 0.0, "lat": 38.92144716666667, "rental_uris": {"ios": "https://dc.lft.to/lastmile_qr_scan", "android": "https://dc.lft.to/lastmile_qr_scan"}, "bike_id": "ada9ad4168be132a0783f4ac67454900", "fusion_lat": 0.0}, {"lon": -76.98614733333334, "name": "5d26e0160aae37f3798ba68aa86d77d5", "is_disabled": 0, "type": "electric_scooter", "is_reserved": 0, "fusion_lon": 0.0, "lat": 38.90580833333333, "rental_uris": {"ios": "https://dc.lft.to/lastmile_qr_scan", "android": "https://dc.lft.to/lastmile_qr_scan"}, "bike_id": "5d26e0160aae37f3798ba68aa86d77d5", "fusion_lat": 0.0}, {"lon": -77.04231733333333, "name": "1aca19f3421945d127c90e6769a160cc", "is_disabled": 0, "type": "electric_scooter", "is_reserved": 0, "fusion_lon": 0.0, "lat": 38.92180783333333, "rental_uris": {"ios": "https://dc.lft.to/lastmile_qr_scan", "android": "https://dc.lft.to/lastmile_qr_scan"}, "bike_id": "1aca19f3421945d127c90e6769a160cc", "fusion_lat": 0.0}, {"lon": -77.00955933333333, "name": "e620ea87a78a4cd1b7a33f96620aa7c1", "is_disabled": 0, "type": "electric_scooter", "is_reserved": 0, "fusion_lon": 0.0, "lat": 38.907305666666666, "rental_uris": {"ios": "https://dc.lft.to/lastmile_qr_scan", "android": "https://dc.lft.to/lastmile_qr_scan"}, "bike_id": "e620ea87a78a4cd1b7a33f96620aa7c1", "fusion_lat": 0.0}, {"lon": -77.12740233333334, "name": "5069ad4f0d4aef98bc6c7b3d42a1a4af", "is_disabled": 0, "type": "electric_bike", "is_reserved": 0, "fusion_lon": 0.0, "lat": 38.895684, "rental_uris": {"ios": "https://dc.lft.to/lastmile_qr_scan", "android": "https://dc.lft.to/lastmile_qr_scan"}, "bike_id": "5069ad4f0d4aef98bc6c7b3d42a1a4af", "fusion_lat": 0.0}, {"lon": -77.00217216666667, "name": "91c135e7cc0c5ed61de8ba0718aa877a", "is_disabled": 0, "type": "electric_scooter", "is_reserved": 0, "fusion_lon": 0.0, "lat": 38.9003745, "rental_uris": {"ios": "https://dc.lft.to/lastmile_qr_scan", "android": "https://dc.lft.to/lastmile_qr_scan"}, "bike_id": "91c135e7cc0c5ed61de8ba0718aa877a", "fusion_lat": 0.0}, {"lon": -77.03877216666666, "name": "0e69af3c0a74c9526015d62fcd5b457c", "is_disabled": 0, "type": "electric_bike", "is_reserved": 0, "fusion_lon": 0.0, "lat": 39.026247, "rental_uris": {"ios": "https://dc.lft.to/lastmile_qr_scan", "android": "https://dc.lft.to/lastmile_qr_scan"}, "bike_id": "0e69af3c0a74c9526015d62fcd5b457c", "fusion_lat": 0.0}, {"lon": -77.033698, "name": "ce2ecb4c9f66b5ebdbbb95e653233c54", "is_disabled": 0, "type": "electric_scooter", "is_reserved": 0, "fusion_lon": 0.0, "lat": 38.90111433333333, "rental_uris": {"ios": "https://dc.lft.to/lastmile_qr_scan", "android": "https://dc.lft.to/lastmile_qr_scan"}, "bike_id": "ce2ecb4c9f66b5ebdbbb95e653233c54", "fusion_lat": 0.0}, {"lon": -76.94580216666667, "name": "cc8526efe30192e698d982d3f82c658c", "is_disabled": 0, "type": "electric_scooter", "is_reserved": 0, "fusion_lon": 0.0, "lat": 38.89927516666667, "rental_uris": {"ios": "https://dc.lft.to/lastmile_qr_scan", "android": "https://dc.lft.to/lastmile_qr_scan"}, "bike_id": "cc8526efe30192e698d982d3f82c658c", "fusion_lat": 0.0}, {"lon": -77.03453216666666, "name": "7d6bc43ee2bc093ffa1d41dd14269d37", "is_disabled": 0, "type": "electric_scooter", "is_reserved": 0, "fusion_lon": 0.0, "lat": 38.937478666666664, "rental_uris": {"ios": "https://dc.lft.to/lastmile_qr_scan", "android": "https://dc.lft.to/lastmile_qr_scan"}, "bike_id": "7d6bc43ee2bc093ffa1d41dd14269d37", "fusion_lat": 0.0}, {"lon": -77.044719, "name": "58b372c601dd9097094dea2280d01070", "is_disabled": 0, "type": "electric_scooter", "is_reserved": 0, "fusion_lon": 0.0, "lat": 38.91535866666667, "rental_uris": {"ios": "https://dc.lft.to/lastmile_qr_scan", "android": "https://dc.lft.to/lastmile_qr_scan"}, "bike_id": "58b372c601dd9097094dea2280d01070", "fusion_lat": 0.0}, {"lon": -77.05091816666666, "name": "a68d2e38ab744c61c2af95526440dbfa", "is_disabled": 0, "type": "electric_bike", "is_reserved": 0, "fusion_lon": 0.0, "lat": 38.8132935, "rental_uris": {"ios": "https://dc.lft.to/lastmile_qr_scan", "android": "https://dc.lft.to/lastmile_qr_scan"}, "bike_id": "a68d2e38ab744c61c2af95526440dbfa", "fusion_lat": 0.0}, {"lon": -77.03075033333333, "name": "735005e4a78be07a40ee078ec30bc18b", "is_disabled": 0, "type": "electric_scooter", "is_reserved": 0, "fusion_lon": 0.0, "lat": 38.905639666666666, "rental_uris": {"ios": "https://dc.lft.to/lastmile_qr_scan", "android": "https://dc.lft.to/lastmile_qr_scan"}, "bike_id": "735005e4a78be07a40ee078ec30bc18b", "fusion_lat": 0.0}, {"lon": -77.013007, "name": "2d934ce9696c19f6f773284f9619a28e", "is_disabled": 0, "type": "electric_scooter", "is_reserved": 0, "fusion_lon": 0.0, "lat": 38.90080416666667, "rental_uris": {"ios": "https://dc.lft.to/lastmile_qr_scan", "android": "https://dc.lft.to/lastmile_qr_scan"}, "bike_id": "2d934ce9696c19f6f773284f9619a28e", "fusion_lat": 0.0}, {"lon": -77.05379983333333, "name": "6eaf194b79a998dcad73c1b8f118f2e0", "is_disabled": 0, "type": "electric_scooter", "is_reserved": 0, "fusion_lon": 0.0, "lat": 38.902670666666666, "rental_uris": {"ios": "https://dc.lft.to/lastmile_qr_scan", "android": "https://dc.lft.to/lastmile_qr_scan"}, "bike_id": "6eaf194b79a998dcad73c1b8f118f2e0", "fusion_lat": 0.0}, {"lon": -76.97327366666667, "name": "4c9b61761cc16117570004017eba5135", "is_disabled": 0, "type": "electric_scooter", "is_reserved": 0, "fusion_lon": 0.0, "lat": 38.904100666666665, "rental_uris": {"ios": "https://dc.lft.to/lastmile_qr_scan", "android": "https://dc.lft.to/lastmile_qr_scan"}, "bike_id": "4c9b61761cc16117570004017eba5135", "fusion_lat": 0.0}, {"lon": -77.0028465, "name": "5614331c6f74b3cfceda9f9c26fa965f", "is_disabled": 0, "type": "electric_scooter", "is_reserved": 0, "fusion_lon": 0.0, "lat": 38.91104266666667, "rental_uris": {"ios": "https://dc.lft.to/lastmile_qr_scan", "android": "https://dc.lft.to/lastmile_qr_scan"}, "bike_id": "5614331c6f74b3cfceda9f9c26fa965f", "fusion_lat": 0.0}, {"lon": -77.0393725, "name": "18e0a73f031d8b1dd6f05e3afcf89785", "is_disabled": 0, "type": "electric_scooter", "is_reserved": 0, "fusion_lon": 0.0, "lat": 38.92467833333333, "rental_uris": {"ios": "https://dc.lft.to/lastmile_qr_scan", "android": "https://dc.lft.to/lastmile_qr_scan"}, "bike_id": "18e0a73f031d8b1dd6f05e3afcf89785", "fusion_lat": 0.0}, {"lon": -77.01770683333334, "name": "d13f10984e2db4fbd57cd3e5db64dc72", "is_disabled": 0, "type": "electric_scooter", "is_reserved": 0, "fusion_lon": 0.0, "lat": 38.9210095, "rental_uris": {"ios": "https://dc.lft.to/lastmile_qr_scan", "android": "https://dc.lft.to/lastmile_qr_scan"}, "bike_id": "d13f10984e2db4fbd57cd3e5db64dc72", "fusion_lat": 0.0}, {"lon": -77.03192683333333, "name": "0c9aa69d35e3c6663e9469dd6b45370f", "is_disabled": 0, "type": "electric_scooter", "is_reserved": 0, "fusion_lon": 0.0, "lat": 38.9161435, "rental_uris": {"ios": "https://dc.lft.to/lastmile_qr_scan", "android": "https://dc.lft.to/lastmile_qr_scan"}, "bike_id": "0c9aa69d35e3c6663e9469dd6b45370f", "fusion_lat": 0.0}, {"lon": -76.99560316666667, "name": "c3a22537062bda621f15ce9ceff180b3", "is_disabled": 0, "type": "electric_scooter", "is_reserved": 0, "fusion_lon": 0.0, "lat": 38.900114333333335, "rental_uris": {"ios": "https://dc.lft.to/lastmile_qr_scan", "android": "https://dc.lft.to/lastmile_qr_scan"}, "bike_id": "c3a22537062bda621f15ce9ceff180b3", "fusion_lat": 0.0}, {"lon": -77.02795783333333, "name": "c14c49eaac7675e73c2c8c4d079ccfaf", "is_disabled": 0, "type": "electric_scooter", "is_reserved": 0, "fusion_lon": 0.0, "lat": 38.93454933333334, "rental_uris": {"ios": "https://dc.lft.to/lastmile_qr_scan", "android": "https://dc.lft.to/lastmile_qr_scan"}, "bike_id": "c14c49eaac7675e73c2c8c4d079ccfaf", "fusion_lat": 0.0}, {"lon": -77.0150985, "name": "30d109021095991d9b12bb1f9025a30c", "is_disabled": 0, "type": "electric_scooter", "is_reserved": 0, "fusion_lon": 0.0, "lat": 38.9132205, "rental_uris": {"ios": "https://dc.lft.to/lastmile_qr_scan", "android": "https://dc.lft.to/lastmile_qr_scan"}, "bike_id": "30d109021095991d9b12bb1f9025a30c", "fusion_lat": 0.0}, {"lon": -77.06983966666667, "name": "7fa4972ff1e314c0e61de71f19f53c95", "is_disabled": 0, "type": "electric_scooter", "is_reserved": 0, "fusion_lon": 0.0, "lat": 38.95297516666667, "rental_uris": {"ios": "https://dc.lft.to/lastmile_qr_scan", "android": "https://dc.lft.to/lastmile_qr_scan"}, "bike_id": "7fa4972ff1e314c0e61de71f19f53c95", "fusion_lat": 0.0}, {"lon": -77.00506883333334, "name": "c371556188575a671a12d45950176d17", "is_disabled": 0, "type": "electric_scooter", "is_reserved": 0, "fusion_lon": 0.0, "lat": 38.87533783333333, "rental_uris": {"ios": "https://dc.lft.to/lastmile_qr_scan", "android": "https://dc.lft.to/lastmile_qr_scan"}, "bike_id": "c371556188575a671a12d45950176d17", "fusion_lat": 0.0}, {"lon": -77.02064316666667, "name": "edfe07d5527847dc98b7214b4b625f1d", "is_disabled": 0, "type": "electric_scooter", "is_reserved": 0, "fusion_lon": 0.0, "lat": 38.932597666666666, "rental_uris": {"ios": "https://dc.lft.to/lastmile_qr_scan", "android": "https://dc.lft.to/lastmile_qr_scan"}, "bike_id": "edfe07d5527847dc98b7214b4b625f1d", "fusion_lat": 0.0}, {"lon": -76.9978775, "name": "4e6eefbb541e34f836020a1f4dd3fbac", "is_disabled": 0, "type": "electric_scooter", "is_reserved": 0, "fusion_lon": 0.0, "lat": 38.932237666666666, "rental_uris": {"ios": "https://dc.lft.to/lastmile_qr_scan", "android": "https://dc.lft.to/lastmile_qr_scan"}, "bike_id": "4e6eefbb541e34f836020a1f4dd3fbac", "fusion_lat": 0.0}, {"lon": -77.04696966666667, "name": "4578f19e88f6836c2dda2bba747d3816", "is_disabled": 0, "type": "electric_scooter", "is_reserved": 0, "fusion_lon": 0.0, "lat": 38.89732683333333, "rental_uris": {"ios": "https://dc.lft.to/lastmile_qr_scan", "android": "https://dc.lft.to/lastmile_qr_scan"}, "bike_id": "4578f19e88f6836c2dda2bba747d3816", "fusion_lat": 0.0}, {"lon": -77.040352, "name": "ebe7237b2e1b5837c2ef05fea95ece5b", "is_disabled": 0, "type": "electric_scooter", "is_reserved": 0, "fusion_lon": 0.0, "lat": 38.90491, "rental_uris": {"ios": "https://dc.lft.to/lastmile_qr_scan", "android": "https://dc.lft.to/lastmile_qr_scan"}, "bike_id": "ebe7237b2e1b5837c2ef05fea95ece5b", "fusion_lat": 0.0}, {"lon": -76.93393116666667, "name": "225775042d93372d26b4612bd2acbff8", "is_disabled": 0, "type": "electric_scooter", "is_reserved": 0, "fusion_lon": 0.0, "lat": 38.899107, "rental_uris": {"ios": "https://dc.lft.to/lastmile_qr_scan", "android": "https://dc.lft.to/lastmile_qr_scan"}, "bike_id": "225775042d93372d26b4612bd2acbff8", "fusion_lat": 0.0}, {"lon": -77.021666, "name": "9ef10647cd62f221da3eef097a32d3cc", "is_disabled": 0, "type": "electric_scooter", "is_reserved": 0, "fusion_lon": 0.0, "lat": 38.914055, "rental_uris": {"ios": "https://dc.lft.to/lastmile_qr_scan", "android": "https://dc.lft.to/lastmile_qr_scan"}, "bike_id": "9ef10647cd62f221da3eef097a32d3cc", "fusion_lat": 0.0}, {"lon": -77.0423675, "name": "049a89145c26ad80f350fa28b140ede6", "is_disabled": 0, "type": "electric_scooter", "is_reserved": 0, "fusion_lon": 0.0, "lat": 38.921518, "rental_uris": {"ios": "https://dc.lft.to/lastmile_qr_scan", "android": "https://dc.lft.to/lastmile_qr_scan"}, "bike_id": "049a89145c26ad80f350fa28b140ede6", "fusion_lat": 0.0}, {"lon": -77.00680066666666, "name": "dfdd11e9b2c99b5a2e148732db9317b7", "is_disabled": 0, "type": "electric_bike", "is_reserved": 0, "fusion_lon": 0.0, "lat": 38.9450805, "rental_uris": {"ios": "https://dc.lft.to/lastmile_qr_scan", "android": "https://dc.lft.to/lastmile_qr_scan"}, "bike_id": "dfdd11e9b2c99b5a2e148732db9317b7", "fusion_lat": 0.0}, {"lon": -77.07903583333334, "name": "fab89d3b00b9434d43cbfca85540b06b", "is_disabled": 0, "type": "electric_bike", "is_reserved": 0, "fusion_lon": 0.0, "lat": 38.83933733333333, "rental_uris": {"ios": "https://dc.lft.to/lastmile_qr_scan", "android": "https://dc.lft.to/lastmile_qr_scan"}, "bike_id": "fab89d3b00b9434d43cbfca85540b06b", "fusion_lat": 0.0}, {"lon": -77.06783166666666, "name": "c5ac807993695b0202468e58c3080d1d", "is_disabled": 0, "type": "electric_scooter", "is_reserved": 0, "fusion_lon": 0.0, "lat": 38.952147333333336, "rental_uris": {"ios": "https://dc.lft.to/lastmile_qr_scan", "android": "https://dc.lft.to/lastmile_qr_scan"}, "bike_id": "c5ac807993695b0202468e58c3080d1d", "fusion_lat": 0.0}, {"lon": -76.984749, "name": "70ced2a043a6d2715d84ed960c03f967", "is_disabled": 0, "type": "electric_bike", "is_reserved": 0, "fusion_lon": 0.0, "lat": 38.91270933333333, "rental_uris": {"ios": "https://dc.lft.to/lastmile_qr_scan", "android": "https://dc.lft.to/lastmile_qr_scan"}, "bike_id": "70ced2a043a6d2715d84ed960c03f967", "fusion_lat": 0.0}, {"lon": -77.04877783333333, "name": "b27089125f8ab8a08199ac905c291a4a", "is_disabled": 0, "type": "electric_scooter", "is_reserved": 0, "fusion_lon": 0.0, "lat": 38.906347833333335, "rental_uris": {"ios": "https://dc.lft.to/lastmile_qr_scan", "android": "https://dc.lft.to/lastmile_qr_scan"}, "bike_id": "b27089125f8ab8a08199ac905c291a4a", "fusion_lat": 0.0}, {"lon": -77.0335905, "name": "df7b65a3279a4d41172c9a7da0a49052", "is_disabled": 0, "type": "electric_scooter", "is_reserved": 0, "fusion_lon": 0.0, "lat": 38.92755866666667, "rental_uris": {"ios": "https://dc.lft.to/lastmile_qr_scan", "android": "https://dc.lft.to/lastmile_qr_scan"}, "bike_id": "df7b65a3279a4d41172c9a7da0a49052", "fusion_lat": 0.0}, {"lon": -76.99299083333334, "name": "67d381f6da60bf8852de2091286bb10d", "is_disabled": 0, "type": "electric_scooter", "is_reserved": 0, "fusion_lon": 0.0, "lat": 38.937747333333334, "rental_uris": {"ios": "https://dc.lft.to/lastmile_qr_scan", "android": "https://dc.lft.to/lastmile_qr_scan"}, "bike_id": "67d381f6da60bf8852de2091286bb10d", "fusion_lat": 0.0}, {"lon": -77.02207233333333, "name": "69ca0372d6e5de5e262ab3bcbb32c3db", "is_disabled": 0, "type": "electric_scooter", "is_reserved": 0, "fusion_lon": 0.0, "lat": 38.89647516666667, "rental_uris": {"ios": "https://dc.lft.to/lastmile_qr_scan", "android": "https://dc.lft.to/lastmile_qr_scan"}, "bike_id": "69ca0372d6e5de5e262ab3bcbb32c3db", "fusion_lat": 0.0}, {"lon": -77.02661033333334, "name": "b6f890e47997d970c8e0846bda208585", "is_disabled": 0, "type": "electric_scooter", "is_reserved": 0, "fusion_lon": 0.0, "lat": 38.923834166666666, "rental_uris": {"ios": "https://dc.lft.to/lastmile_qr_scan", "android": "https://dc.lft.to/lastmile_qr_scan"}, "bike_id": "b6f890e47997d970c8e0846bda208585", "fusion_lat": 0.0}, {"lon": -76.97341383333334, "name": "8c9c535ce8693558a067e20432afa0b5", "is_disabled": 0, "type": "electric_scooter", "is_reserved": 0, "fusion_lon": 0.0, "lat": 38.86504383333333, "rental_uris": {"ios": "https://dc.lft.to/lastmile_qr_scan", "android": "https://dc.lft.to/lastmile_qr_scan"}, "bike_id": "8c9c535ce8693558a067e20432afa0b5", "fusion_lat": 0.0}, {"lon": -77.00746433333333, "name": "03c073184773a9794e2df02a0e488fbc", "is_disabled": 0, "type": "electric_scooter", "is_reserved": 0, "fusion_lon": 0.0, "lat": 38.903635333333334, "rental_uris": {"ios": "https://dc.lft.to/lastmile_qr_scan", "android": "https://dc.lft.to/lastmile_qr_scan"}, "bike_id": "03c073184773a9794e2df02a0e488fbc", "fusion_lat": 0.0}, {"lon": -77.031132, "name": "2a5d43612ce3574462b0c3f11f2cbf29", "is_disabled": 0, "type": "electric_scooter", "is_reserved": 0, "fusion_lon": 0.0, "lat": 38.8860325, "rental_uris": {"ios": "https://dc.lft.to/lastmile_qr_scan", "android": "https://dc.lft.to/lastmile_qr_scan"}, "bike_id": "2a5d43612ce3574462b0c3f11f2cbf29", "fusion_lat": 0.0}, {"lon": -77.02438066666667, "name": "648190fcc0d6e48d470425b725a7c566", "is_disabled": 0, "type": "electric_scooter", "is_reserved": 0, "fusion_lon": 0.0, "lat": 38.93099016666667, "rental_uris": {"ios": "https://dc.lft.to/lastmile_qr_scan", "android": "https://dc.lft.to/lastmile_qr_scan"}, "bike_id": "648190fcc0d6e48d470425b725a7c566", "fusion_lat": 0.0}, {"lon": -77.00120133333333, "name": "24acc31129414f91cf2993166f7527d4", "is_disabled": 0, "type": "electric_scooter", "is_reserved": 0, "fusion_lon": 0.0, "lat": 38.88652233333333, "rental_uris": {"ios": "https://dc.lft.to/lastmile_qr_scan", "android": "https://dc.lft.to/lastmile_qr_scan"}, "bike_id": "24acc31129414f91cf2993166f7527d4", "fusion_lat": 0.0}, {"lon": -77.02825916666667, "name": "6be0cd19620b6b20c43ef1b88c47eb87", "is_disabled": 0, "type": "electric_scooter", "is_reserved": 0, "fusion_lon": 0.0, "lat": 38.88737283333333, "rental_uris": {"ios": "https://dc.lft.to/lastmile_qr_scan", "android": "https://dc.lft.to/lastmile_qr_scan"}, "bike_id": "6be0cd19620b6b20c43ef1b88c47eb87", "fusion_lat": 0.0}, {"lon": -77.03752933333334, "name": "1e3dbc9b6d238eeec4b7a2d220bcd585", "is_disabled": 0, "type": "electric_scooter", "is_reserved": 0, "fusion_lon": 0.0, "lat": 38.88707516666667, "rental_uris": {"ios": "https://dc.lft.to/lastmile_qr_scan", "android": "https://dc.lft.to/lastmile_qr_scan"}, "bike_id": "1e3dbc9b6d238eeec4b7a2d220bcd585", "fusion_lat": 0.0}, {"lon": -77.0325165, "name": "7942972e532f6170c67076fe594619cd", "is_disabled": 0, "type": "electric_scooter", "is_reserved": 0, "fusion_lon": 0.0, "lat": 38.939696833333336, "rental_uris": {"ios": "https://dc.lft.to/lastmile_qr_scan", "android": "https://dc.lft.to/lastmile_qr_scan"}, "bike_id": "7942972e532f6170c67076fe594619cd", "fusion_lat": 0.0}, {"lon": -77.03185066666667, "name": "80b514135149e8301cc8238e0e86b71a", "is_disabled": 0, "type": "electric_scooter", "is_reserved": 0, "fusion_lon": 0.0, "lat": 38.892396, "rental_uris": {"ios": "https://dc.lft.to/lastmile_qr_scan", "android": "https://dc.lft.to/lastmile_qr_scan"}, "bike_id": "80b514135149e8301cc8238e0e86b71a", "fusion_lat": 0.0}, {"lon": -76.99963016666666, "name": "71668e1b62e2c26f99f8c2fb2e23ad47", "is_disabled": 0, "type": "electric_scooter", "is_reserved": 0, "fusion_lon": 0.0, "lat": 38.9180955, "rental_uris": {"ios": "https://dc.lft.to/lastmile_qr_scan", "android": "https://dc.lft.to/lastmile_qr_scan"}, "bike_id": "71668e1b62e2c26f99f8c2fb2e23ad47", "fusion_lat": 0.0}, {"lon": -76.99769483333333, "name": "d3df4258c59212ac3d7cf751e821a2b4", "is_disabled": 0, "type": "electric_scooter", "is_reserved": 0, "fusion_lon": 0.0, "lat": 38.910523, "rental_uris": {"ios": "https://dc.lft.to/lastmile_qr_scan", "android": "https://dc.lft.to/lastmile_qr_scan"}, "bike_id": "d3df4258c59212ac3d7cf751e821a2b4", "fusion_lat": 0.0}, {"lon": -77.02152533333333, "name": "f72bb6e29605a5663f363d24df9ed4b2", "is_disabled": 0, "type": "electric_scooter", "is_reserved": 0, "fusion_lon": 0.0, "lat": 38.9244725, "rental_uris": {"ios": "https://dc.lft.to/lastmile_qr_scan", "android": "https://dc.lft.to/lastmile_qr_scan"}, "bike_id": "f72bb6e29605a5663f363d24df9ed4b2", "fusion_lat": 0.0}, {"lon": -77.058751, "name": "1ecfedcabbf609f9e5c88f96ff29d009", "is_disabled": 0, "type": "electric_bike", "is_reserved": 0, "fusion_lon": 0.0, "lat": 38.82709083333334, "rental_uris": {"ios": "https://dc.lft.to/lastmile_qr_scan", "android": "https://dc.lft.to/lastmile_qr_scan"}, "bike_id": "1ecfedcabbf609f9e5c88f96ff29d009", "fusion_lat": 0.0}, {"lon": -77.02208166666667, "name": "9ebf32a9e80cc389d85817f7ee18ce67", "is_disabled": 0, "type": "electric_scooter", "is_reserved": 0, "fusion_lon": 0.0, "lat": 38.90573533333333, "rental_uris": {"ios": "https://dc.lft.to/lastmile_qr_scan", "android": "https://dc.lft.to/lastmile_qr_scan"}, "bike_id": "9ebf32a9e80cc389d85817f7ee18ce67", "fusion_lat": 0.0}, {"lon": -77.00147366666667, "name": "377822705eb4da378ff942d5e8412c9c", "is_disabled": 0, "type": "electric_scooter", "is_reserved": 0, "fusion_lon": 0.0, "lat": 38.89476166666667, "rental_uris": {"ios": "https://dc.lft.to/lastmile_qr_scan", "android": "https://dc.lft.to/lastmile_qr_scan"}, "bike_id": "377822705eb4da378ff942d5e8412c9c", "fusion_lat": 0.0}, {"lon": -76.9922265, "name": "8b4e35c3d72ccde9f13fea1e1a747e16", "is_disabled": 0, "type": "electric_scooter", "is_reserved": 0, "fusion_lon": 0.0, "lat": 38.897423, "rental_uris": {"ios": "https://dc.lft.to/lastmile_qr_scan", "android": "https://dc.lft.to/lastmile_qr_scan"}, "bike_id": "8b4e35c3d72ccde9f13fea1e1a747e16", "fusion_lat": 0.0}, {"lon": -77.02264033333333, "name": "3b1f5ef91f665327097deab068094f3d", "is_disabled": 0, "type": "electric_scooter", "is_reserved": 0, "fusion_lon": 0.0, "lat": 38.927409833333336, "rental_uris": {"ios": "https://dc.lft.to/lastmile_qr_scan", "android": "https://dc.lft.to/lastmile_qr_scan"}, "bike_id": "3b1f5ef91f665327097deab068094f3d", "fusion_lat": 0.0}, {"lon": -77.0323175, "name": "551e0f35e9adf7b86a091d7dc0827ad0", "is_disabled": 0, "type": "electric_scooter", "is_reserved": 0, "fusion_lon": 0.0, "lat": 38.89930116666667, "rental_uris": {"ios": "https://dc.lft.to/lastmile_qr_scan", "android": "https://dc.lft.to/lastmile_qr_scan"}, "bike_id": "551e0f35e9adf7b86a091d7dc0827ad0", "fusion_lat": 0.0}, {"lon": -77.0373905, "name": "b894bfbbe928142db4d01782e6bfda68", "is_disabled": 0, "type": "electric_scooter", "is_reserved": 0, "fusion_lon": 0.0, "lat": 38.92857816666667, "rental_uris": {"ios": "https://dc.lft.to/lastmile_qr_scan", "android": "https://dc.lft.to/lastmile_qr_scan"}, "bike_id": "b894bfbbe928142db4d01782e6bfda68", "fusion_lat": 0.0}, {"lon": -77.0415595, "name": "d3fcf66ea5c4bd444435b96bc387d145", "is_disabled": 0, "type": "electric_scooter", "is_reserved": 0, "fusion_lon": 0.0, "lat": 38.91593116666667, "rental_uris": {"ios": "https://dc.lft.to/lastmile_qr_scan", "android": "https://dc.lft.to/lastmile_qr_scan"}, "bike_id": "d3fcf66ea5c4bd444435b96bc387d145", "fusion_lat": 0.0}, {"lon": -77.0547875, "name": "5d6fe7f9ec09d70f19fd7e4c41106cb9", "is_disabled": 0, "type": "electric_scooter", "is_reserved": 0, "fusion_lon": 0.0, "lat": 38.9095875, "rental_uris": {"ios": "https://dc.lft.to/lastmile_qr_scan", "android": "https://dc.lft.to/lastmile_qr_scan"}, "bike_id": "5d6fe7f9ec09d70f19fd7e4c41106cb9", "fusion_lat": 0.0}, {"lon": -77.0262475, "name": "5a536b8c94060d79e8a99f1457821f02", "is_disabled": 0, "type": "electric_scooter", "is_reserved": 0, "fusion_lon": 0.0, "lat": 38.88370783333333, "rental_uris": {"ios": "https://dc.lft.to/lastmile_qr_scan", "android": "https://dc.lft.to/lastmile_qr_scan"}, "bike_id": "5a536b8c94060d79e8a99f1457821f02", "fusion_lat": 0.0}, {"lon": -77.0437825, "name": "0c9fe2fda7bbdcb6b71f77c1cbfa311a", "is_disabled": 0, "type": "electric_scooter", "is_reserved": 0, "fusion_lon": 0.0, "lat": 38.920687, "rental_uris": {"ios": "https://dc.lft.to/lastmile_qr_scan", "android": "https://dc.lft.to/lastmile_qr_scan"}, "bike_id": "0c9fe2fda7bbdcb6b71f77c1cbfa311a", "fusion_lat": 0.0}, {"lon": -77.02793, "name": "f7b25459d2013686711f309723cb359a", "is_disabled": 0, "type": "electric_scooter", "is_reserved": 0, "fusion_lon": 0.0, "lat": 38.927748, "rental_uris": {"ios": "https://dc.lft.to/lastmile_qr_scan", "android": "https://dc.lft.to/lastmile_qr_scan"}, "bike_id": "f7b25459d2013686711f309723cb359a", "fusion_lat": 0.0}, {"lon": -77.03393016666666, "name": "3c4cf97c4d2c3839b28823276decf081", "is_disabled": 0, "type": "electric_scooter", "is_reserved": 0, "fusion_lon": 0.0, "lat": 38.92153366666667, "rental_uris": {"ios": "https://dc.lft.to/lastmile_qr_scan", "android": "https://dc.lft.to/lastmile_qr_scan"}, "bike_id": "3c4cf97c4d2c3839b28823276decf081", "fusion_lat": 0.0}, {"lon": -77.006049, "name": "af7fcd411a27b12108b5146bdea396c7", "is_disabled": 0, "type": "electric_scooter", "is_reserved": 0, "fusion_lon": 0.0, "lat": 38.905696166666665, "rental_uris": {"ios": "https://dc.lft.to/lastmile_qr_scan", "android": "https://dc.lft.to/lastmile_qr_scan"}, "bike_id": "af7fcd411a27b12108b5146bdea396c7", "fusion_lat": 0.0}, {"lon": -77.01687683333333, "name": "b239a1adfa5b1b222aa23d27133cd14d", "is_disabled": 0, "type": "electric_scooter", "is_reserved": 0, "fusion_lon": 0.0, "lat": 38.902494, "rental_uris": {"ios": "https://dc.lft.to/lastmile_qr_scan", "android": "https://dc.lft.to/lastmile_qr_scan"}, "bike_id": "b239a1adfa5b1b222aa23d27133cd14d", "fusion_lat": 0.0}, {"lon": -77.0241185, "name": "68ea1300d07aaddbf3f63e10e6960e75", "is_disabled": 0, "type": "electric_scooter", "is_reserved": 0, "fusion_lon": 0.0, "lat": 38.927096666666664, "rental_uris": {"ios": "https://dc.lft.to/lastmile_qr_scan", "android": "https://dc.lft.to/lastmile_qr_scan"}, "bike_id": "68ea1300d07aaddbf3f63e10e6960e75", "fusion_lat": 0.0}, {"lon": -77.03143516666667, "name": "a2f3155b3c898c526437189ef9a4bd88", "is_disabled": 0, "type": "electric_scooter", "is_reserved": 0, "fusion_lon": 0.0, "lat": 38.9281145, "rental_uris": {"ios": "https://dc.lft.to/lastmile_qr_scan", "android": "https://dc.lft.to/lastmile_qr_scan"}, "bike_id": "a2f3155b3c898c526437189ef9a4bd88", "fusion_lat": 0.0}, {"lon": -77.0281385, "name": "93a986313cd495235000752ed0ecc371", "is_disabled": 0, "type": "electric_scooter", "is_reserved": 0, "fusion_lon": 0.0, "lat": 38.907031833333335, "rental_uris": {"ios": "https://dc.lft.to/lastmile_qr_scan", "android": "https://dc.lft.to/lastmile_qr_scan"}, "bike_id": "93a986313cd495235000752ed0ecc371", "fusion_lat": 0.0}, {"lon": -77.01586783333333, "name": "060cd53ec748ca52fd6e229844adcdf5", "is_disabled": 0, "type": "electric_scooter", "is_reserved": 0, "fusion_lon": 0.0, "lat": 38.876486, "rental_uris": {"ios": "https://dc.lft.to/lastmile_qr_scan", "android": "https://dc.lft.to/lastmile_qr_scan"}, "bike_id": "060cd53ec748ca52fd6e229844adcdf5", "fusion_lat": 0.0}, {"lon": -77.05756783333334, "name": "bbf17469c7b749f46c04e5cef93fef97", "is_disabled": 0, "type": "electric_scooter", "is_reserved": 0, "fusion_lon": 0.0, "lat": 38.924647, "rental_uris": {"ios": "https://dc.lft.to/lastmile_qr_scan", "android": "https://dc.lft.to/lastmile_qr_scan"}, "bike_id": "bbf17469c7b749f46c04e5cef93fef97", "fusion_lat": 0.0}, {"lon": -77.0234275, "name": "7e522fc36d83b763adf917b86510bc0f", "is_disabled": 0, "type": "electric_scooter", "is_reserved": 0, "fusion_lon": 0.0, "lat": 38.929687666666666, "rental_uris": {"ios": "https://dc.lft.to/lastmile_qr_scan", "android": "https://dc.lft.to/lastmile_qr_scan"}, "bike_id": "7e522fc36d83b763adf917b86510bc0f", "fusion_lat": 0.0}, {"lon": -77.01596, "name": "2b076bdd53c08dda93c3bee0d3fd849d", "is_disabled": 0, "type": "electric_scooter", "is_reserved": 0, "fusion_lon": 0.0, "lat": 38.874687, "rental_uris": {"ios": "https://dc.lft.to/lastmile_qr_scan", "android": "https://dc.lft.to/lastmile_qr_scan"}, "bike_id": "2b076bdd53c08dda93c3bee0d3fd849d", "fusion_lat": 0.0}, {"lon": -77.08337333333333, "name": "ba71573980e2993944c31b3ee710f5ca", "is_disabled": 0, "type": "electric_scooter", "is_reserved": 0, "fusion_lon": 0.0, "lat": 38.9297535, "rental_uris": {"ios": "https://dc.lft.to/lastmile_qr_scan", "android": "https://dc.lft.to/lastmile_qr_scan"}, "bike_id": "ba71573980e2993944c31b3ee710f5ca", "fusion_lat": 0.0}, {"lon": -76.95563316666667, "name": "bb39db3f535f9937edfc808e4df2a34e", "is_disabled": 0, "type": "electric_bike", "is_reserved": 0, "fusion_lon": 0.0, "lat": 38.98502933333333, "rental_uris": {"ios": "https://dc.lft.to/lastmile_qr_scan", "android": "https://dc.lft.to/lastmile_qr_scan"}, "bike_id": "bb39db3f535f9937edfc808e4df2a34e", "fusion_lat": 0.0}, {"lon": -77.01753866666667, "name": "3de9928a8990fd9aeb5532436ff0b8f7", "is_disabled": 0, "type": "electric_scooter", "is_reserved": 0, "fusion_lon": 0.0, "lat": 38.88207166666667, "rental_uris": {"ios": "https://dc.lft.to/lastmile_qr_scan", "android": "https://dc.lft.to/lastmile_qr_scan"}, "bike_id": "3de9928a8990fd9aeb5532436ff0b8f7", "fusion_lat": 0.0}, {"lon": -77.02985116666666, "name": "3b0f9e33be747e330caf28aed6020ffc", "is_disabled": 0, "type": "electric_scooter", "is_reserved": 0, "fusion_lon": 0.0, "lat": 38.9426335, "rental_uris": {"ios": "https://dc.lft.to/lastmile_qr_scan", "android": "https://dc.lft.to/lastmile_qr_scan"}, "bike_id": "3b0f9e33be747e330caf28aed6020ffc", "fusion_lat": 0.0}, {"lon": -77.03864133333333, "name": "4585106672f4c3d27f9118215070425e", "is_disabled": 0, "type": "electric_scooter", "is_reserved": 0, "fusion_lon": 0.0, "lat": 38.917061833333335, "rental_uris": {"ios": "https://dc.lft.to/lastmile_qr_scan", "android": "https://dc.lft.to/lastmile_qr_scan"}, "bike_id": "4585106672f4c3d27f9118215070425e", "fusion_lat": 0.0}, {"lon": -77.02609816666667, "name": "2bc22b68ac73736b5299eb05c365322f", "is_disabled": 0, "type": "electric_scooter", "is_reserved": 0, "fusion_lon": 0.0, "lat": 38.896248, "rental_uris": {"ios": "https://dc.lft.to/lastmile_qr_scan", "android": "https://dc.lft.to/lastmile_qr_scan"}, "bike_id": "2bc22b68ac73736b5299eb05c365322f", "fusion_lat": 0.0}, {"lon": -77.049979, "name": "5fe8fd4d9119802df07e2a3daf60adc1", "is_disabled": 0, "type": "electric_scooter", "is_reserved": 0, "fusion_lon": 0.0, "lat": 38.892304833333334, "rental_uris": {"ios": "https://dc.lft.to/lastmile_qr_scan", "android": "https://dc.lft.to/lastmile_qr_scan"}, "bike_id": "5fe8fd4d9119802df07e2a3daf60adc1", "fusion_lat": 0.0}, {"lon": -77.02228266666667, "name": "73125b2a8ea4d42d92d1b1aca6df86f2", "is_disabled": 0, "type": "electric_scooter", "is_reserved": 0, "fusion_lon": 0.0, "lat": 38.9209075, "rental_uris": {"ios": "https://dc.lft.to/lastmile_qr_scan", "android": "https://dc.lft.to/lastmile_qr_scan"}, "bike_id": "73125b2a8ea4d42d92d1b1aca6df86f2", "fusion_lat": 0.0}, {"lon": -77.03445583333334, "name": "1d578c34e75ac00f67128b4b071cb1a6", "is_disabled": 0, "type": "electric_scooter", "is_reserved": 0, "fusion_lon": 0.0, "lat": 38.91779583333334, "rental_uris": {"ios": "https://dc.lft.to/lastmile_qr_scan", "android": "https://dc.lft.to/lastmile_qr_scan"}, "bike_id": "1d578c34e75ac00f67128b4b071cb1a6", "fusion_lat": 0.0}, {"lon": -77.02211133333333, "name": "0c8f1e9c9f4eac019d8f87cc6a9e8b83", "is_disabled": 0, "type": "electric_scooter", "is_reserved": 0, "fusion_lon": 0.0, "lat": 38.91269366666667, "rental_uris": {"ios": "https://dc.lft.to/lastmile_qr_scan", "android": "https://dc.lft.to/lastmile_qr_scan"}, "bike_id": "0c8f1e9c9f4eac019d8f87cc6a9e8b83", "fusion_lat": 0.0}, {"lon": -76.939265, "name": "9d295ebe784966bf69a6c1db73f08aac", "is_disabled": 0, "type": "electric_scooter", "is_reserved": 0, "fusion_lon": 0.0, "lat": 38.8933025, "rental_uris": {"ios": "https://dc.lft.to/lastmile_qr_scan", "android": "https://dc.lft.to/lastmile_qr_scan"}, "bike_id": "9d295ebe784966bf69a6c1db73f08aac", "fusion_lat": 0.0}, {"lon": -77.0057005, "name": "8dc65424672802e26aff54bb6e3de64f", "is_disabled": 0, "type": "electric_scooter", "is_reserved": 0, "fusion_lon": 0.0, "lat": 38.88503266666667, "rental_uris": {"ios": "https://dc.lft.to/lastmile_qr_scan", "android": "https://dc.lft.to/lastmile_qr_scan"}, "bike_id": "8dc65424672802e26aff54bb6e3de64f", "fusion_lat": 0.0}, {"lon": -77.019671, "name": "4ff1958d66eb31df4bbdcf0815a53ab8", "is_disabled": 0, "type": "electric_scooter", "is_reserved": 0, "fusion_lon": 0.0, "lat": 38.878350833333336, "rental_uris": {"ios": "https://dc.lft.to/lastmile_qr_scan", "android": "https://dc.lft.to/lastmile_qr_scan"}, "bike_id": "4ff1958d66eb31df4bbdcf0815a53ab8", "fusion_lat": 0.0}, {"lon": -77.00347166666667, "name": "23283fe3496036c4e9d0347f83ad1a06", "is_disabled": 0, "type": "electric_scooter", "is_reserved": 0, "fusion_lon": 0.0, "lat": 38.903638666666666, "rental_uris": {"ios": "https://dc.lft.to/lastmile_qr_scan", "android": "https://dc.lft.to/lastmile_qr_scan"}, "bike_id": "23283fe3496036c4e9d0347f83ad1a06", "fusion_lat": 0.0}, {"lon": -77.04301266666667, "name": "6f4a11330a733ea95bffd2855d882101", "is_disabled": 0, "type": "electric_scooter", "is_reserved": 0, "fusion_lon": 0.0, "lat": 38.92391216666667, "rental_uris": {"ios": "https://dc.lft.to/lastmile_qr_scan", "android": "https://dc.lft.to/lastmile_qr_scan"}, "bike_id": "6f4a11330a733ea95bffd2855d882101", "fusion_lat": 0.0}, {"lon": -76.979051, "name": "df9b41dceb161ef0214e4ba0f32469d6", "is_disabled": 0, "type": "electric_scooter", "is_reserved": 0, "fusion_lon": 0.0, "lat": 38.888627666666665, "rental_uris": {"ios": "https://dc.lft.to/lastmile_qr_scan", "android": "https://dc.lft.to/lastmile_qr_scan"}, "bike_id": "df9b41dceb161ef0214e4ba0f32469d6", "fusion_lat": 0.0}, {"lon": -77.0218235, "name": "28ff128ebfff7a545c7c954b39c50ccd", "is_disabled": 0, "type": "electric_scooter", "is_reserved": 0, "fusion_lon": 0.0, "lat": 38.9154285, "rental_uris": {"ios": "https://dc.lft.to/lastmile_qr_scan", "android": "https://dc.lft.to/lastmile_qr_scan"}, "bike_id": "28ff128ebfff7a545c7c954b39c50ccd", "fusion_lat": 0.0}, {"lon": -77.00335983333333, "name": "d79af28a173e6b737215d1d25fc7882b", "is_disabled": 0, "type": "electric_scooter", "is_reserved": 0, "fusion_lon": 0.0, "lat": 38.893544166666665, "rental_uris": {"ios": "https://dc.lft.to/lastmile_qr_scan", "android": "https://dc.lft.to/lastmile_qr_scan"}, "bike_id": "d79af28a173e6b737215d1d25fc7882b", "fusion_lat": 0.0}, {"lon": -77.2340885, "name": "a946e431b9f6fa59a6a258c3983a79f2", "is_disabled": 0, "type": "electric_bike", "is_reserved": 0, "fusion_lon": 0.0, "lat": 38.87578533333333, "rental_uris": {"ios": "https://dc.lft.to/lastmile_qr_scan", "android": "https://dc.lft.to/lastmile_qr_scan"}, "bike_id": "a946e431b9f6fa59a6a258c3983a79f2", "fusion_lat": 0.0}, {"lon": -77.02358016666666, "name": "19d1f59dc8d8a93643b9fad7ded08b40", "is_disabled": 0, "type": "electric_scooter", "is_reserved": 0, "fusion_lon": 0.0, "lat": 38.908493, "rental_uris": {"ios": "https://dc.lft.to/lastmile_qr_scan", "android": "https://dc.lft.to/lastmile_qr_scan"}, "bike_id": "19d1f59dc8d8a93643b9fad7ded08b40", "fusion_lat": 0.0}, {"lon": -77.0770035, "name": "9d7da0046a6e4aa9fae016e07972421f", "is_disabled": 0, "type": "electric_scooter", "is_reserved": 0, "fusion_lon": 0.0, "lat": 38.922495, "rental_uris": {"ios": "https://dc.lft.to/lastmile_qr_scan", "android": "https://dc.lft.to/lastmile_qr_scan"}, "bike_id": "9d7da0046a6e4aa9fae016e07972421f", "fusion_lat": 0.0}, {"lon": -77.03908083333333, "name": "56bf5e012f6dc377fdb2f5dd1ee12507", "is_disabled": 0, "type": "electric_scooter", "is_reserved": 0, "fusion_lon": 0.0, "lat": 38.92244816666667, "rental_uris": {"ios": "https://dc.lft.to/lastmile_qr_scan", "android": "https://dc.lft.to/lastmile_qr_scan"}, "bike_id": "56bf5e012f6dc377fdb2f5dd1ee12507", "fusion_lat": 0.0}, {"lon": -77.03226583333333, "name": "4bd34f4fd3bc32de7a50c6f45ae9b9af", "is_disabled": 0, "type": "electric_scooter", "is_reserved": 0, "fusion_lon": 0.0, "lat": 38.9171415, "rental_uris": {"ios": "https://dc.lft.to/lastmile_qr_scan", "android": "https://dc.lft.to/lastmile_qr_scan"}, "bike_id": "4bd34f4fd3bc32de7a50c6f45ae9b9af", "fusion_lat": 0.0}, {"lon": -76.92935583333333, "name": "d1c0b861148003f82b50e369f9c902ae", "is_disabled": 0, "type": "electric_scooter", "is_reserved": 0, "fusion_lon": 0.0, "lat": 38.900996166666665, "rental_uris": {"ios": "https://dc.lft.to/lastmile_qr_scan", "android": "https://dc.lft.to/lastmile_qr_scan"}, "bike_id": "d1c0b861148003f82b50e369f9c902ae", "fusion_lat": 0.0}, {"lon": -77.0021855, "name": "232e47bafabe626afbaf0e06e332fbe3", "is_disabled": 0, "type": "electric_scooter", "is_reserved": 0, "fusion_lon": 0.0, "lat": 38.90187316666667, "rental_uris": {"ios": "https://dc.lft.to/lastmile_qr_scan", "android": "https://dc.lft.to/lastmile_qr_scan"}, "bike_id": "232e47bafabe626afbaf0e06e332fbe3", "fusion_lat": 0.0}, {"lon": -77.03183566666667, "name": "7bc8c36c44cf20082ffabd8513f886de", "is_disabled": 0, "type": "electric_scooter", "is_reserved": 0, "fusion_lon": 0.0, "lat": 38.9119475, "rental_uris": {"ios": "https://dc.lft.to/lastmile_qr_scan", "android": "https://dc.lft.to/lastmile_qr_scan"}, "bike_id": "7bc8c36c44cf20082ffabd8513f886de", "fusion_lat": 0.0}, {"lon": -77.03517066666667, "name": "ad598d9c789129abf89f167919d5ece4", "is_disabled": 0, "type": "electric_scooter", "is_reserved": 0, "fusion_lon": 0.0, "lat": 38.9223455, "rental_uris": {"ios": "https://dc.lft.to/lastmile_qr_scan", "android": "https://dc.lft.to/lastmile_qr_scan"}, "bike_id": "ad598d9c789129abf89f167919d5ece4", "fusion_lat": 0.0}, {"lon": -77.0274325, "name": "77a19a4aed9f0037088f51c30c0d571b", "is_disabled": 0, "type": "electric_scooter", "is_reserved": 0, "fusion_lon": 0.0, "lat": 38.9240525, "rental_uris": {"ios": "https://dc.lft.to/lastmile_qr_scan", "android": "https://dc.lft.to/lastmile_qr_scan"}, "bike_id": "77a19a4aed9f0037088f51c30c0d571b", "fusion_lat": 0.0}, {"lon": -77.06942133333334, "name": "c356f19c905b2708e02eacc4d1f3d3cc", "is_disabled": 0, "type": "electric_bike", "is_reserved": 0, "fusion_lon": 0.0, "lat": 38.847632, "rental_uris": {"ios": "https://dc.lft.to/lastmile_qr_scan", "android": "https://dc.lft.to/lastmile_qr_scan"}, "bike_id": "c356f19c905b2708e02eacc4d1f3d3cc", "fusion_lat": 0.0}, {"lon": -76.97354416666667, "name": "bee0d176ac324bc5f9bad06f607eb065", "is_disabled": 0, "type": "electric_bike", "is_reserved": 0, "fusion_lon": 0.0, "lat": 38.86545616666667, "rental_uris": {"ios": "https://dc.lft.to/lastmile_qr_scan", "android": "https://dc.lft.to/lastmile_qr_scan"}, "bike_id": "bee0d176ac324bc5f9bad06f607eb065", "fusion_lat": 0.0}, {"lon": -77.0202395, "name": "4bcac258a0be05a4c7417eeec8e5f116", "is_disabled": 0, "type": "electric_scooter", "is_reserved": 0, "fusion_lon": 0.0, "lat": 38.924154333333334, "rental_uris": {"ios": "https://dc.lft.to/lastmile_qr_scan", "android": "https://dc.lft.to/lastmile_qr_scan"}, "bike_id": "4bcac258a0be05a4c7417eeec8e5f116", "fusion_lat": 0.0}, {"lon": -76.98785333333333, "name": "f18a13ed9af0952297f0a20e8fc13a21", "is_disabled": 0, "type": "electric_scooter", "is_reserved": 0, "fusion_lon": 0.0, "lat": 38.8784, "rental_uris": {"ios": "https://dc.lft.to/lastmile_qr_scan", "android": "https://dc.lft.to/lastmile_qr_scan"}, "bike_id": "f18a13ed9af0952297f0a20e8fc13a21", "fusion_lat": 0.0}, {"lon": -77.02128916666666, "name": "16c4f982cbb81e31c7e5edf5666bbb4c", "is_disabled": 0, "type": "electric_scooter", "is_reserved": 0, "fusion_lon": 0.0, "lat": 38.92788266666667, "rental_uris": {"ios": "https://dc.lft.to/lastmile_qr_scan", "android": "https://dc.lft.to/lastmile_qr_scan"}, "bike_id": "16c4f982cbb81e31c7e5edf5666bbb4c", "fusion_lat": 0.0}, {"lon": -77.00450216666667, "name": "ab5dca29e084d2b54216fad3fe247fe4", "is_disabled": 0, "type": "electric_scooter", "is_reserved": 0, "fusion_lon": 0.0, "lat": 38.87750466666667, "rental_uris": {"ios": "https://dc.lft.to/lastmile_qr_scan", "android": "https://dc.lft.to/lastmile_qr_scan"}, "bike_id": "ab5dca29e084d2b54216fad3fe247fe4", "fusion_lat": 0.0}, {"lon": -77.00211683333333, "name": "367e4da7a0f7124c4bd7ede92b914821", "is_disabled": 0, "type": "electric_scooter", "is_reserved": 0, "fusion_lon": 0.0, "lat": 38.900273166666665, "rental_uris": {"ios": "https://dc.lft.to/lastmile_qr_scan", "android": "https://dc.lft.to/lastmile_qr_scan"}, "bike_id": "367e4da7a0f7124c4bd7ede92b914821", "fusion_lat": 0.0}, {"lon": -77.01228133333333, "name": "2111989d94e6a2275089ba2d85716348", "is_disabled": 0, "type": "electric_scooter", "is_reserved": 0, "fusion_lon": 0.0, "lat": 38.915989333333336, "rental_uris": {"ios": "https://dc.lft.to/lastmile_qr_scan", "android": "https://dc.lft.to/lastmile_qr_scan"}, "bike_id": "2111989d94e6a2275089ba2d85716348", "fusion_lat": 0.0}, {"lon": -77.042182, "name": "c344a1db32b50023d3a5288caf3b175b", "is_disabled": 0, "type": "electric_scooter", "is_reserved": 0, "fusion_lon": 0.0, "lat": 38.922858833333336, "rental_uris": {"ios": "https://dc.lft.to/lastmile_qr_scan", "android": "https://dc.lft.to/lastmile_qr_scan"}, "bike_id": "c344a1db32b50023d3a5288caf3b175b", "fusion_lat": 0.0}, {"lon": -77.04380966666666, "name": "963bab5082a2169425f5c97e116bddd9", "is_disabled": 0, "type": "electric_scooter", "is_reserved": 0, "fusion_lon": 0.0, "lat": 38.920678333333335, "rental_uris": {"ios": "https://dc.lft.to/lastmile_qr_scan", "android": "https://dc.lft.to/lastmile_qr_scan"}, "bike_id": "963bab5082a2169425f5c97e116bddd9", "fusion_lat": 0.0}, {"lon": -76.99699066666666, "name": "23b48b0eedb173d1adf0a3398bfd3f61", "is_disabled": 0, "type": "electric_scooter", "is_reserved": 0, "fusion_lon": 0.0, "lat": 38.90825483333333, "rental_uris": {"ios": "https://dc.lft.to/lastmile_qr_scan", "android": "https://dc.lft.to/lastmile_qr_scan"}, "bike_id": "23b48b0eedb173d1adf0a3398bfd3f61", "fusion_lat": 0.0}, {"lon": -77.04001733333334, "name": "329bbe4d9a94b74883a5a065b19550d4", "is_disabled": 0, "type": "electric_scooter", "is_reserved": 0, "fusion_lon": 0.0, "lat": 38.93426483333333, "rental_uris": {"ios": "https://dc.lft.to/lastmile_qr_scan", "android": "https://dc.lft.to/lastmile_qr_scan"}, "bike_id": "329bbe4d9a94b74883a5a065b19550d4", "fusion_lat": 0.0}, {"lon": -76.99282383333333, "name": "32438da03252fdd96a958d94fc0dfcb6", "is_disabled": 0, "type": "electric_scooter", "is_reserved": 0, "fusion_lon": 0.0, "lat": 38.904151, "rental_uris": {"ios": "https://dc.lft.to/lastmile_qr_scan", "android": "https://dc.lft.to/lastmile_qr_scan"}, "bike_id": "32438da03252fdd96a958d94fc0dfcb6", "fusion_lat": 0.0}, {"lon": -77.018588, "name": "300d9700aadadd8ce44548eed8315b14", "is_disabled": 0, "type": "electric_scooter", "is_reserved": 0, "fusion_lon": 0.0, "lat": 38.941885166666665, "rental_uris": {"ios": "https://dc.lft.to/lastmile_qr_scan", "android": "https://dc.lft.to/lastmile_qr_scan"}, "bike_id": "300d9700aadadd8ce44548eed8315b14", "fusion_lat": 0.0}, {"lon": -77.03414466666666, "name": "d71b1b48034b8ac86d2b53e55ec50f96", "is_disabled": 0, "type": "electric_scooter", "is_reserved": 0, "fusion_lon": 0.0, "lat": 38.91926933333333, "rental_uris": {"ios": "https://dc.lft.to/lastmile_qr_scan", "android": "https://dc.lft.to/lastmile_qr_scan"}, "bike_id": "d71b1b48034b8ac86d2b53e55ec50f96", "fusion_lat": 0.0}, {"lon": -77.065204, "name": "1d72681382834fc317aa1661d767328d", "is_disabled": 0, "type": "electric_scooter", "is_reserved": 0, "fusion_lon": 0.0, "lat": 38.9039825, "rental_uris": {"ios": "https://dc.lft.to/lastmile_qr_scan", "android": "https://dc.lft.to/lastmile_qr_scan"}, "bike_id": "1d72681382834fc317aa1661d767328d", "fusion_lat": 0.0}, {"lon": -77.01885583333333, "name": "94a08b77d217a494a0609bb128bb6cd0", "is_disabled": 0, "type": "electric_scooter", "is_reserved": 0, "fusion_lon": 0.0, "lat": 38.914866833333335, "rental_uris": {"ios": "https://dc.lft.to/lastmile_qr_scan", "android": "https://dc.lft.to/lastmile_qr_scan"}, "bike_id": "94a08b77d217a494a0609bb128bb6cd0", "fusion_lat": 0.0}, {"lon": -77.03366916666667, "name": "22210daaeeadaa77551c604d7924be50", "is_disabled": 0, "type": "electric_scooter", "is_reserved": 0, "fusion_lon": 0.0, "lat": 38.937703166666665, "rental_uris": {"ios": "https://dc.lft.to/lastmile_qr_scan", "android": "https://dc.lft.to/lastmile_qr_scan"}, "bike_id": "22210daaeeadaa77551c604d7924be50", "fusion_lat": 0.0}, {"lon": -77.00950733333333, "name": "69c885e6b95da1925e08c7e1d283ed60", "is_disabled": 0, "type": "electric_scooter", "is_reserved": 0, "fusion_lon": 0.0, "lat": 38.91567383333334, "rental_uris": {"ios": "https://dc.lft.to/lastmile_qr_scan", "android": "https://dc.lft.to/lastmile_qr_scan"}, "bike_id": "69c885e6b95da1925e08c7e1d283ed60", "fusion_lat": 0.0}, {"lon": -77.0337835, "name": "ce373851b964d23cdca4e2fd29111cbd", "is_disabled": 0, "type": "electric_scooter", "is_reserved": 0, "fusion_lon": 0.0, "lat": 38.921583, "rental_uris": {"ios": "https://dc.lft.to/lastmile_qr_scan", "android": "https://dc.lft.to/lastmile_qr_scan"}, "bike_id": "ce373851b964d23cdca4e2fd29111cbd", "fusion_lat": 0.0}, {"lon": -77.01306866666667, "name": "2ce531a4a1cab682b2047e85804b20b4", "is_disabled": 0, "type": "electric_scooter", "is_reserved": 0, "fusion_lon": 0.0, "lat": 38.901857, "rental_uris": {"ios": "https://dc.lft.to/lastmile_qr_scan", "android": "https://dc.lft.to/lastmile_qr_scan"}, "bike_id": "2ce531a4a1cab682b2047e85804b20b4", "fusion_lat": 0.0}, {"lon": -77.03184916666666, "name": "e9d6534990dbd4d627184ed515b1b582", "is_disabled": 0, "type": "electric_scooter", "is_reserved": 0, "fusion_lon": 0.0, "lat": 38.9099875, "rental_uris": {"ios": "https://dc.lft.to/lastmile_qr_scan", "android": "https://dc.lft.to/lastmile_qr_scan"}, "bike_id": "e9d6534990dbd4d627184ed515b1b582", "fusion_lat": 0.0}, {"lon": -77.01270183333334, "name": "4e7ec19082d703b4d24872442cee34d5", "is_disabled": 0, "type": "electric_scooter", "is_reserved": 0, "fusion_lon": 0.0, "lat": 38.915432, "rental_uris": {"ios": "https://dc.lft.to/lastmile_qr_scan", "android": "https://dc.lft.to/lastmile_qr_scan"}, "bike_id": "4e7ec19082d703b4d24872442cee34d5", "fusion_lat": 0.0}, {"lon": -77.04756583333334, "name": "83f548c0ea5e341450835f26a38a8da8", "is_disabled": 0, "type": "electric_scooter", "is_reserved": 0, "fusion_lon": 0.0, "lat": 38.90047833333333, "rental_uris": {"ios": "https://dc.lft.to/lastmile_qr_scan", "android": "https://dc.lft.to/lastmile_qr_scan"}, "bike_id": "83f548c0ea5e341450835f26a38a8da8", "fusion_lat": 0.0}, {"lon": -77.00215916666667, "name": "22128dfb749c692ce4ca5c214a95a6b4", "is_disabled": 0, "type": "electric_scooter", "is_reserved": 0, "fusion_lon": 0.0, "lat": 38.901877999999996, "rental_uris": {"ios": "https://dc.lft.to/lastmile_qr_scan", "android": "https://dc.lft.to/lastmile_qr_scan"}, "bike_id": "22128dfb749c692ce4ca5c214a95a6b4", "fusion_lat": 0.0}, {"lon": -77.02857666666667, "name": "cbce84a02f546ed42a9d41eb297b808c", "is_disabled": 0, "type": "electric_scooter", "is_reserved": 0, "fusion_lon": 0.0, "lat": 38.888735, "rental_uris": {"ios": "https://dc.lft.to/lastmile_qr_scan", "android": "https://dc.lft.to/lastmile_qr_scan"}, "bike_id": "cbce84a02f546ed42a9d41eb297b808c", "fusion_lat": 0.0}, {"lon": -77.0334195, "name": "3f7b4981ee8ee924eb74b1dcaa4727ae", "is_disabled": 0, "type": "electric_scooter", "is_reserved": 0, "fusion_lon": 0.0, "lat": 38.88486066666667, "rental_uris": {"ios": "https://dc.lft.to/lastmile_qr_scan", "android": "https://dc.lft.to/lastmile_qr_scan"}, "bike_id": "3f7b4981ee8ee924eb74b1dcaa4727ae", "fusion_lat": 0.0}, {"lon": -77.0317745, "name": "cbdd1545bb6ad9e1de0915145bc22317", "is_disabled": 0, "type": "electric_scooter", "is_reserved": 0, "fusion_lon": 0.0, "lat": 38.91626766666667, "rental_uris": {"ios": "https://dc.lft.to/lastmile_qr_scan", "android": "https://dc.lft.to/lastmile_qr_scan"}, "bike_id": "cbdd1545bb6ad9e1de0915145bc22317", "fusion_lat": 0.0}, {"lon": -77.02024116666666, "name": "2db55a8d19ea5da353980d92dae251ed", "is_disabled": 0, "type": "electric_scooter", "is_reserved": 0, "fusion_lon": 0.0, "lat": 38.9016945, "rental_uris": {"ios": "https://dc.lft.to/lastmile_qr_scan", "android": "https://dc.lft.to/lastmile_qr_scan"}, "bike_id": "2db55a8d19ea5da353980d92dae251ed", "fusion_lat": 0.0}, {"lon": -76.99279816666666, "name": "1bfbefd10ce7b178e1df535c4208e98d", "is_disabled": 0, "type": "electric_scooter", "is_reserved": 0, "fusion_lon": 0.0, "lat": 38.903109, "rental_uris": {"ios": "https://dc.lft.to/lastmile_qr_scan", "android": "https://dc.lft.to/lastmile_qr_scan"}, "bike_id": "1bfbefd10ce7b178e1df535c4208e98d", "fusion_lat": 0.0}, {"lon": -76.9991475, "name": "35318e779c33c40333933f41f622b632", "is_disabled": 0, "type": "electric_scooter", "is_reserved": 0, "fusion_lon": 0.0, "lat": 38.92458633333333, "rental_uris": {"ios": "https://dc.lft.to/lastmile_qr_scan", "android": "https://dc.lft.to/lastmile_qr_scan"}, "bike_id": "35318e779c33c40333933f41f622b632", "fusion_lat": 0.0}, {"lon": -77.00865983333334, "name": "8cfa0c8427d7ee773cb7f6b2d58f3879", "is_disabled": 0, "type": "electric_scooter", "is_reserved": 0, "fusion_lon": 0.0, "lat": 38.897444666666665, "rental_uris": {"ios": "https://dc.lft.to/lastmile_qr_scan", "android": "https://dc.lft.to/lastmile_qr_scan"}, "bike_id": "8cfa0c8427d7ee773cb7f6b2d58f3879", "fusion_lat": 0.0}, {"lon": -77.09403366666666, "name": "7752a2e2720dee2990a36c976ba65691", "is_disabled": 0, "type": "electric_bike", "is_reserved": 0, "fusion_lon": 0.0, "lat": 38.9781205, "rental_uris": {"ios": "https://dc.lft.to/lastmile_qr_scan", "android": "https://dc.lft.to/lastmile_qr_scan"}, "bike_id": "7752a2e2720dee2990a36c976ba65691", "fusion_lat": 0.0}, {"lon": -77.01517933333334, "name": "d2059c0a1cb10577ee41a4e7b3f94de5", "is_disabled": 0, "type": "electric_scooter", "is_reserved": 0, "fusion_lon": 0.0, "lat": 38.872819666666665, "rental_uris": {"ios": "https://dc.lft.to/lastmile_qr_scan", "android": "https://dc.lft.to/lastmile_qr_scan"}, "bike_id": "d2059c0a1cb10577ee41a4e7b3f94de5", "fusion_lat": 0.0}, {"lon": -77.01136166666667, "name": "fde63068b83841636765a30db750d73a", "is_disabled": 0, "type": "electric_scooter", "is_reserved": 0, "fusion_lon": 0.0, "lat": 38.90727016666666, "rental_uris": {"ios": "https://dc.lft.to/lastmile_qr_scan", "android": "https://dc.lft.to/lastmile_qr_scan"}, "bike_id": "fde63068b83841636765a30db750d73a", "fusion_lat": 0.0}, {"lon": -77.0212745, "name": "efd8f190199f3f9b72b61a9b9fc9a309", "is_disabled": 0, "type": "electric_scooter", "is_reserved": 0, "fusion_lon": 0.0, "lat": 38.92116516666667, "rental_uris": {"ios": "https://dc.lft.to/lastmile_qr_scan", "android": "https://dc.lft.to/lastmile_qr_scan"}, "bike_id": "efd8f190199f3f9b72b61a9b9fc9a309", "fusion_lat": 0.0}, {"lon": -77.018982, "name": "5f05053633e12116cd82abe60d539093", "is_disabled": 0, "type": "electric_scooter", "is_reserved": 0, "fusion_lon": 0.0, "lat": 38.913859, "rental_uris": {"ios": "https://dc.lft.to/lastmile_qr_scan", "android": "https://dc.lft.to/lastmile_qr_scan"}, "bike_id": "5f05053633e12116cd82abe60d539093", "fusion_lat": 0.0}, {"lon": -76.99239733333333, "name": "4796ddaa2eed7c8e46dad13d994d164a", "is_disabled": 0, "type": "electric_scooter", "is_reserved": 0, "fusion_lon": 0.0, "lat": 38.902081, "rental_uris": {"ios": "https://dc.lft.to/lastmile_qr_scan", "android": "https://dc.lft.to/lastmile_qr_scan"}, "bike_id": "4796ddaa2eed7c8e46dad13d994d164a", "fusion_lat": 0.0}, {"lon": -77.02518633333334, "name": "40377bea0b966ccf9728fe2df5b7e569", "is_disabled": 0, "type": "electric_scooter", "is_reserved": 0, "fusion_lon": 0.0, "lat": 38.945648166666665, "rental_uris": {"ios": "https://dc.lft.to/lastmile_qr_scan", "android": "https://dc.lft.to/lastmile_qr_scan"}, "bike_id": "40377bea0b966ccf9728fe2df5b7e569", "fusion_lat": 0.0}, {"lon": -77.0968545, "name": "e605105ae59fd06cb9eae935b5366fa0", "is_disabled": 0, "type": "electric_bike", "is_reserved": 0, "fusion_lon": 0.0, "lat": 38.80741483333333, "rental_uris": {"ios": "https://dc.lft.to/lastmile_qr_scan", "android": "https://dc.lft.to/lastmile_qr_scan"}, "bike_id": "e605105ae59fd06cb9eae935b5366fa0", "fusion_lat": 0.0}, {"lon": -76.94888533333334, "name": "513b5825b5d316c0e99c1c1e9144236e", "is_disabled": 0, "type": "electric_scooter", "is_reserved": 0, "fusion_lon": 0.0, "lat": 38.89508983333333, "rental_uris": {"ios": "https://dc.lft.to/lastmile_qr_scan", "android": "https://dc.lft.to/lastmile_qr_scan"}, "bike_id": "513b5825b5d316c0e99c1c1e9144236e", "fusion_lat": 0.0}, {"lon": -77.025899, "name": "06ed694183b1102dcf4908ef1aeb32e2", "is_disabled": 0, "type": "electric_scooter", "is_reserved": 0, "fusion_lon": 0.0, "lat": 38.963911333333336, "rental_uris": {"ios": "https://dc.lft.to/lastmile_qr_scan", "android": "https://dc.lft.to/lastmile_qr_scan"}, "bike_id": "06ed694183b1102dcf4908ef1aeb32e2", "fusion_lat": 0.0}, {"lon": -77.03664616666667, "name": "adc9f4440b0e169a5af5b3b450921504", "is_disabled": 0, "type": "electric_scooter", "is_reserved": 0, "fusion_lon": 0.0, "lat": 38.936340333333334, "rental_uris": {"ios": "https://dc.lft.to/lastmile_qr_scan", "android": "https://dc.lft.to/lastmile_qr_scan"}, "bike_id": "adc9f4440b0e169a5af5b3b450921504", "fusion_lat": 0.0}, {"lon": -77.07155816666666, "name": "54252e1c5cf151fcbada599e560f97f3", "is_disabled": 0, "type": "electric_scooter", "is_reserved": 0, "fusion_lon": 0.0, "lat": 38.908714333333336, "rental_uris": {"ios": "https://dc.lft.to/lastmile_qr_scan", "android": "https://dc.lft.to/lastmile_qr_scan"}, "bike_id": "54252e1c5cf151fcbada599e560f97f3", "fusion_lat": 0.0}, {"lon": -77.233933, "name": "7f8075d029216e11b9864067d55305ea", "is_disabled": 0, "type": "electric_bike", "is_reserved": 0, "fusion_lon": 0.0, "lat": 38.871741666666665, "rental_uris": {"ios": "https://dc.lft.to/lastmile_qr_scan", "android": "https://dc.lft.to/lastmile_qr_scan"}, "bike_id": "7f8075d029216e11b9864067d55305ea", "fusion_lat": 0.0}, {"lon": -77.04172283333334, "name": "431d36c39b4079f71eb5c8881aacd100", "is_disabled": 0, "type": "electric_scooter", "is_reserved": 0, "fusion_lon": 0.0, "lat": 38.918227333333334, "rental_uris": {"ios": "https://dc.lft.to/lastmile_qr_scan", "android": "https://dc.lft.to/lastmile_qr_scan"}, "bike_id": "431d36c39b4079f71eb5c8881aacd100", "fusion_lat": 0.0}, {"lon": -77.03107116666666, "name": "2561eb81067e7dc4592ab1be58b848aa", "is_disabled": 0, "type": "electric_scooter", "is_reserved": 0, "fusion_lon": 0.0, "lat": 38.926679166666666, "rental_uris": {"ios": "https://dc.lft.to/lastmile_qr_scan", "android": "https://dc.lft.to/lastmile_qr_scan"}, "bike_id": "2561eb81067e7dc4592ab1be58b848aa", "fusion_lat": 0.0}, {"lon": -77.04190266666667, "name": "cf605e7cdf42846c6f73d549f48ae670", "is_disabled": 0, "type": "electric_scooter", "is_reserved": 0, "fusion_lon": 0.0, "lat": 38.92062166666667, "rental_uris": {"ios": "https://dc.lft.to/lastmile_qr_scan", "android": "https://dc.lft.to/lastmile_qr_scan"}, "bike_id": "cf605e7cdf42846c6f73d549f48ae670", "fusion_lat": 0.0}, {"lon": -76.907523, "name": "3d186db98a0fd64099a973486d9082a8", "is_disabled": 0, "type": "electric_bike", "is_reserved": 0, "fusion_lon": 0.0, "lat": 38.89613416666667, "rental_uris": {"ios": "https://dc.lft.to/lastmile_qr_scan", "android": "https://dc.lft.to/lastmile_qr_scan"}, "bike_id": "3d186db98a0fd64099a973486d9082a8", "fusion_lat": 0.0}, {"lon": -77.046384, "name": "fbd629a0f9db356c696cc321c7362aa3", "is_disabled": 0, "type": "electric_scooter", "is_reserved": 0, "fusion_lon": 0.0, "lat": 38.92223033333333, "rental_uris": {"ios": "https://dc.lft.to/lastmile_qr_scan", "android": "https://dc.lft.to/lastmile_qr_scan"}, "bike_id": "fbd629a0f9db356c696cc321c7362aa3", "fusion_lat": 0.0}, {"lon": -77.01790066666666, "name": "c2513e1cc5e543892535861ce800e17c", "is_disabled": 0, "type": "electric_scooter", "is_reserved": 0, "fusion_lon": 0.0, "lat": 38.919859833333334, "rental_uris": {"ios": "https://dc.lft.to/lastmile_qr_scan", "android": "https://dc.lft.to/lastmile_qr_scan"}, "bike_id": "c2513e1cc5e543892535861ce800e17c", "fusion_lat": 0.0}, {"lon": -77.03966633333333, "name": "ce61441794296c3254d22f657fc2dcc5", "is_disabled": 0, "type": "electric_scooter", "is_reserved": 0, "fusion_lon": 0.0, "lat": 38.920243, "rental_uris": {"ios": "https://dc.lft.to/lastmile_qr_scan", "android": "https://dc.lft.to/lastmile_qr_scan"}, "bike_id": "ce61441794296c3254d22f657fc2dcc5", "fusion_lat": 0.0}, {"lon": -77.0053515, "name": "71ee34ccee0e165a86eb9cae7bcdbdb0", "is_disabled": 0, "type": "electric_scooter", "is_reserved": 0, "fusion_lon": 0.0, "lat": 38.875461, "rental_uris": {"ios": "https://dc.lft.to/lastmile_qr_scan", "android": "https://dc.lft.to/lastmile_qr_scan"}, "bike_id": "71ee34ccee0e165a86eb9cae7bcdbdb0", "fusion_lat": 0.0}, {"lon": -77.03810066666667, "name": "23b8127e1e8779a267256e448876c2bb", "is_disabled": 0, "type": "electric_scooter", "is_reserved": 0, "fusion_lon": 0.0, "lat": 38.914185833333335, "rental_uris": {"ios": "https://dc.lft.to/lastmile_qr_scan", "android": "https://dc.lft.to/lastmile_qr_scan"}, "bike_id": "23b8127e1e8779a267256e448876c2bb", "fusion_lat": 0.0}, {"lon": -77.01929683333333, "name": "5c835742b739d9234a0c2bde0dbe4142", "is_disabled": 0, "type": "electric_scooter", "is_reserved": 0, "fusion_lon": 0.0, "lat": 38.92255133333333, "rental_uris": {"ios": "https://dc.lft.to/lastmile_qr_scan", "android": "https://dc.lft.to/lastmile_qr_scan"}, "bike_id": "5c835742b739d9234a0c2bde0dbe4142", "fusion_lat": 0.0}, {"lon": -77.0352135, "name": "0d8195e908630d90723c232bb3ed064b", "is_disabled": 0, "type": "electric_scooter", "is_reserved": 0, "fusion_lon": 0.0, "lat": 38.9067595, "rental_uris": {"ios": "https://dc.lft.to/lastmile_qr_scan", "android": "https://dc.lft.to/lastmile_qr_scan"}, "bike_id": "0d8195e908630d90723c232bb3ed064b", "fusion_lat": 0.0}, {"lon": -77.02353133333334, "name": "8b23c576fe281b3180588965fa1f04ca", "is_disabled": 0, "type": "electric_scooter", "is_reserved": 0, "fusion_lon": 0.0, "lat": 38.919365, "rental_uris": {"ios": "https://dc.lft.to/lastmile_qr_scan", "android": "https://dc.lft.to/lastmile_qr_scan"}, "bike_id": "8b23c576fe281b3180588965fa1f04ca", "fusion_lat": 0.0}, {"lon": -76.97138616666666, "name": "62c26fe439a6221a13fd29bb3b5aef03", "is_disabled": 0, "type": "electric_scooter", "is_reserved": 0, "fusion_lon": 0.0, "lat": 38.9135175, "rental_uris": {"ios": "https://dc.lft.to/lastmile_qr_scan", "android": "https://dc.lft.to/lastmile_qr_scan"}, "bike_id": "62c26fe439a6221a13fd29bb3b5aef03", "fusion_lat": 0.0}, {"lon": -77.026945, "name": "8d75e1a2f8962827d3d5631e680686d5", "is_disabled": 0, "type": "electric_scooter", "is_reserved": 0, "fusion_lon": 0.0, "lat": 38.897399166666666, "rental_uris": {"ios": "https://dc.lft.to/lastmile_qr_scan", "android": "https://dc.lft.to/lastmile_qr_scan"}, "bike_id": "8d75e1a2f8962827d3d5631e680686d5", "fusion_lat": 0.0}, {"lon": -77.0338135, "name": "418d8844c1052630d8d42f9e630fb172", "is_disabled": 0, "type": "electric_scooter", "is_reserved": 0, "fusion_lon": 0.0, "lat": 38.921581333333336, "rental_uris": {"ios": "https://dc.lft.to/lastmile_qr_scan", "android": "https://dc.lft.to/lastmile_qr_scan"}, "bike_id": "418d8844c1052630d8d42f9e630fb172", "fusion_lat": 0.0}, {"lon": -77.01924966666667, "name": "3862dcc63e8034ae440905c75c612d60", "is_disabled": 0, "type": "electric_scooter", "is_reserved": 0, "fusion_lon": 0.0, "lat": 38.932646, "rental_uris": {"ios": "https://dc.lft.to/lastmile_qr_scan", "android": "https://dc.lft.to/lastmile_qr_scan"}, "bike_id": "3862dcc63e8034ae440905c75c612d60", "fusion_lat": 0.0}, {"lon": -76.97338716666667, "name": "7aa9b0cedf74552bf5cfe9d1698e7af5", "is_disabled": 0, "type": "electric_scooter", "is_reserved": 0, "fusion_lon": 0.0, "lat": 38.90411783333333, "rental_uris": {"ios": "https://dc.lft.to/lastmile_qr_scan", "android": "https://dc.lft.to/lastmile_qr_scan"}, "bike_id": "7aa9b0cedf74552bf5cfe9d1698e7af5", "fusion_lat": 0.0}, {"lon": -77.0460125, "name": "c2d03761ddcd2f4f765caa2a72ffbba0", "is_disabled": 0, "type": "electric_scooter", "is_reserved": 0, "fusion_lon": 0.0, "lat": 38.89622766666667, "rental_uris": {"ios": "https://dc.lft.to/lastmile_qr_scan", "android": "https://dc.lft.to/lastmile_qr_scan"}, "bike_id": "c2d03761ddcd2f4f765caa2a72ffbba0", "fusion_lat": 0.0}, {"lon": -77.01878516666666, "name": "36f5fbd3747f06c36199bb33ea8befcc", "is_disabled": 0, "type": "electric_scooter", "is_reserved": 0, "fusion_lon": 0.0, "lat": 38.911086166666664, "rental_uris": {"ios": "https://dc.lft.to/lastmile_qr_scan", "android": "https://dc.lft.to/lastmile_qr_scan"}, "bike_id": "36f5fbd3747f06c36199bb33ea8befcc", "fusion_lat": 0.0}, {"lon": -77.01808116666666, "name": "2b97a9caf59ab8f34ce5723f4a68d0e0", "is_disabled": 0, "type": "electric_scooter", "is_reserved": 0, "fusion_lon": 0.0, "lat": 38.9221785, "rental_uris": {"ios": "https://dc.lft.to/lastmile_qr_scan", "android": "https://dc.lft.to/lastmile_qr_scan"}, "bike_id": "2b97a9caf59ab8f34ce5723f4a68d0e0", "fusion_lat": 0.0}, {"lon": -77.07470766666667, "name": "a6bbbb0b48b98c18a7624850cb227820", "is_disabled": 0, "type": "electric_scooter", "is_reserved": 0, "fusion_lon": 0.0, "lat": 38.92239883333333, "rental_uris": {"ios": "https://dc.lft.to/lastmile_qr_scan", "android": "https://dc.lft.to/lastmile_qr_scan"}, "bike_id": "a6bbbb0b48b98c18a7624850cb227820", "fusion_lat": 0.0}, {"lon": -77.04074933333334, "name": "62a794370b479edd38b52b61cbe607ae", "is_disabled": 0, "type": "electric_scooter", "is_reserved": 0, "fusion_lon": 0.0, "lat": 38.928844833333336, "rental_uris": {"ios": "https://dc.lft.to/lastmile_qr_scan", "android": "https://dc.lft.to/lastmile_qr_scan"}, "bike_id": "62a794370b479edd38b52b61cbe607ae", "fusion_lat": 0.0}, {"lon": -77.025216, "name": "fe8aa22f9a46938ae728d6e1d761e926", "is_disabled": 0, "type": "electric_scooter", "is_reserved": 0, "fusion_lon": 0.0, "lat": 38.92082633333333, "rental_uris": {"ios": "https://dc.lft.to/lastmile_qr_scan", "android": "https://dc.lft.to/lastmile_qr_scan"}, "bike_id": "fe8aa22f9a46938ae728d6e1d761e926", "fusion_lat": 0.0}, {"lon": -77.01767433333333, "name": "9cfc9626a031d0ca39e6d183ce41c7c8", "is_disabled": 0, "type": "electric_bike", "is_reserved": 0, "fusion_lon": 0.0, "lat": 38.878665833333336, "rental_uris": {"ios": "https://dc.lft.to/lastmile_qr_scan", "android": "https://dc.lft.to/lastmile_qr_scan"}, "bike_id": "9cfc9626a031d0ca39e6d183ce41c7c8", "fusion_lat": 0.0}, {"lon": -76.99003816666666, "name": "98ca695ce80c06ffb609a0ad4c06ebdc", "is_disabled": 0, "type": "electric_scooter", "is_reserved": 0, "fusion_lon": 0.0, "lat": 38.903960166666664, "rental_uris": {"ios": "https://dc.lft.to/lastmile_qr_scan", "android": "https://dc.lft.to/lastmile_qr_scan"}, "bike_id": "98ca695ce80c06ffb609a0ad4c06ebdc", "fusion_lat": 0.0}, {"lon": -76.998891, "name": "297a74b64de5249be6c97a2c6f53365f", "is_disabled": 0, "type": "electric_scooter", "is_reserved": 0, "fusion_lon": 0.0, "lat": 38.909046833333335, "rental_uris": {"ios": "https://dc.lft.to/lastmile_qr_scan", "android": "https://dc.lft.to/lastmile_qr_scan"}, "bike_id": "297a74b64de5249be6c97a2c6f53365f", "fusion_lat": 0.0}, {"lon": -77.04714766666666, "name": "6700be222d20c1b8e1366488f1083ebc", "is_disabled": 0, "type": "electric_scooter", "is_reserved": 0, "fusion_lon": 0.0, "lat": 38.899742333333336, "rental_uris": {"ios": "https://dc.lft.to/lastmile_qr_scan", "android": "https://dc.lft.to/lastmile_qr_scan"}, "bike_id": "6700be222d20c1b8e1366488f1083ebc", "fusion_lat": 0.0}, {"lon": -77.02366183333334, "name": "4d3af6b954d8c1d477dcccb2c2a0d20d", "is_disabled": 0, "type": "electric_scooter", "is_reserved": 0, "fusion_lon": 0.0, "lat": 38.9473785, "rental_uris": {"ios": "https://dc.lft.to/lastmile_qr_scan", "android": "https://dc.lft.to/lastmile_qr_scan"}, "bike_id": "4d3af6b954d8c1d477dcccb2c2a0d20d", "fusion_lat": 0.0}, {"lon": -77.02792983333333, "name": "b399c30c0ff8352ae5b2460729877ee0", "is_disabled": 0, "type": "electric_scooter", "is_reserved": 0, "fusion_lon": 0.0, "lat": 38.930847666666665, "rental_uris": {"ios": "https://dc.lft.to/lastmile_qr_scan", "android": "https://dc.lft.to/lastmile_qr_scan"}, "bike_id": "b399c30c0ff8352ae5b2460729877ee0", "fusion_lat": 0.0}, {"lon": -77.040233, "name": "aab130b59d964e2ec7d3dd87e5bacb88", "is_disabled": 0, "type": "electric_scooter", "is_reserved": 0, "fusion_lon": 0.0, "lat": 38.921704166666665, "rental_uris": {"ios": "https://dc.lft.to/lastmile_qr_scan", "android": "https://dc.lft.to/lastmile_qr_scan"}, "bike_id": "aab130b59d964e2ec7d3dd87e5bacb88", "fusion_lat": 0.0}, {"lon": -77.00895516666667, "name": "6ce8a65b055ef160b3b62b2da78b430a", "is_disabled": 0, "type": "electric_scooter", "is_reserved": 0, "fusion_lon": 0.0, "lat": 38.90954283333333, "rental_uris": {"ios": "https://dc.lft.to/lastmile_qr_scan", "android": "https://dc.lft.to/lastmile_qr_scan"}, "bike_id": "6ce8a65b055ef160b3b62b2da78b430a", "fusion_lat": 0.0}, {"lon": -76.99018366666667, "name": "0fd2d01d5bf42999490a8c0ba51e58b5", "is_disabled": 0, "type": "electric_scooter", "is_reserved": 0, "fusion_lon": 0.0, "lat": 38.86516133333333, "rental_uris": {"ios": "https://dc.lft.to/lastmile_qr_scan", "android": "https://dc.lft.to/lastmile_qr_scan"}, "bike_id": "0fd2d01d5bf42999490a8c0ba51e58b5", "fusion_lat": 0.0}, {"lon": -77.027465, "name": "ec4e5d02492cc5d5be17f8a07991e528", "is_disabled": 0, "type": "electric_scooter", "is_reserved": 0, "fusion_lon": 0.0, "lat": 38.966494833333336, "rental_uris": {"ios": "https://dc.lft.to/lastmile_qr_scan", "android": "https://dc.lft.to/lastmile_qr_scan"}, "bike_id": "ec4e5d02492cc5d5be17f8a07991e528", "fusion_lat": 0.0}, {"lon": -77.03584133333334, "name": "f6480131ae08c8f80659595a01455ec1", "is_disabled": 0, "type": "electric_bike", "is_reserved": 0, "fusion_lon": 0.0, "lat": 38.992255, "rental_uris": {"ios": "https://dc.lft.to/lastmile_qr_scan", "android": "https://dc.lft.to/lastmile_qr_scan"}, "bike_id": "f6480131ae08c8f80659595a01455ec1", "fusion_lat": 0.0}, {"lon": -77.03285916666667, "name": "63e92639d43402058de64b69edc12cfb", "is_disabled": 0, "type": "electric_scooter", "is_reserved": 0, "fusion_lon": 0.0, "lat": 38.92063916666667, "rental_uris": {"ios": "https://dc.lft.to/lastmile_qr_scan", "android": "https://dc.lft.to/lastmile_qr_scan"}, "bike_id": "63e92639d43402058de64b69edc12cfb", "fusion_lat": 0.0}, {"lon": -77.04158733333334, "name": "517b17b933f6b94715cdc1f3664a7bd8", "is_disabled": 0, "type": "electric_scooter", "is_reserved": 0, "fusion_lon": 0.0, "lat": 38.900393333333334, "rental_uris": {"ios": "https://dc.lft.to/lastmile_qr_scan", "android": "https://dc.lft.to/lastmile_qr_scan"}, "bike_id": "517b17b933f6b94715cdc1f3664a7bd8", "fusion_lat": 0.0}, {"lon": -77.02365566666667, "name": "901be20fc9fa66eb527fe83a886a1884", "is_disabled": 0, "type": "electric_scooter", "is_reserved": 0, "fusion_lon": 0.0, "lat": 38.9087375, "rental_uris": {"ios": "https://dc.lft.to/lastmile_qr_scan", "android": "https://dc.lft.to/lastmile_qr_scan"}, "bike_id": "901be20fc9fa66eb527fe83a886a1884", "fusion_lat": 0.0}, {"lon": -77.003724, "name": "44c294648d0d46ea6fd993cc261538d7", "is_disabled": 0, "type": "electric_bike", "is_reserved": 0, "fusion_lon": 0.0, "lat": 38.83599616666667, "rental_uris": {"ios": "https://dc.lft.to/lastmile_qr_scan", "android": "https://dc.lft.to/lastmile_qr_scan"}, "bike_id": "44c294648d0d46ea6fd993cc261538d7", "fusion_lat": 0.0}, {"lon": -77.01377116666667, "name": "8ec6b5948ea7fdb6082e0402851614bf", "is_disabled": 0, "type": "electric_scooter", "is_reserved": 0, "fusion_lon": 0.0, "lat": 38.9103775, "rental_uris": {"ios": "https://dc.lft.to/lastmile_qr_scan", "android": "https://dc.lft.to/lastmile_qr_scan"}, "bike_id": "8ec6b5948ea7fdb6082e0402851614bf", "fusion_lat": 0.0}, {"lon": -77.03518183333334, "name": "95c6527cf8bcfe85cbe45a25857ad353", "is_disabled": 0, "type": "electric_scooter", "is_reserved": 0, "fusion_lon": 0.0, "lat": 38.922425833333335, "rental_uris": {"ios": "https://dc.lft.to/lastmile_qr_scan", "android": "https://dc.lft.to/lastmile_qr_scan"}, "bike_id": "95c6527cf8bcfe85cbe45a25857ad353", "fusion_lat": 0.0}, {"lon": -76.98421883333333, "name": "ac683c22507e4817fb5e806f98533fc8", "is_disabled": 0, "type": "electric_bike", "is_reserved": 0, "fusion_lon": 0.0, "lat": 38.9100235, "rental_uris": {"ios": "https://dc.lft.to/lastmile_qr_scan", "android": "https://dc.lft.to/lastmile_qr_scan"}, "bike_id": "ac683c22507e4817fb5e806f98533fc8", "fusion_lat": 0.0}, {"lon": -77.00067516666667, "name": "546a9f1d3ca078e03319b2f10edc2c5c", "is_disabled": 0, "type": "electric_scooter", "is_reserved": 0, "fusion_lon": 0.0, "lat": 38.887732666666665, "rental_uris": {"ios": "https://dc.lft.to/lastmile_qr_scan", "android": "https://dc.lft.to/lastmile_qr_scan"}, "bike_id": "546a9f1d3ca078e03319b2f10edc2c5c", "fusion_lat": 0.0}, {"lon": -77.02263033333334, "name": "bfb27bdee8032d2ace67d6a7356bcdf7", "is_disabled": 0, "type": "electric_scooter", "is_reserved": 0, "fusion_lon": 0.0, "lat": 38.91640916666667, "rental_uris": {"ios": "https://dc.lft.to/lastmile_qr_scan", "android": "https://dc.lft.to/lastmile_qr_scan"}, "bike_id": "bfb27bdee8032d2ace67d6a7356bcdf7", "fusion_lat": 0.0}, {"lon": -76.98194433333333, "name": "0849da21c28dbf16f94a392f51864294", "is_disabled": 0, "type": "electric_bike", "is_reserved": 0, "fusion_lon": 0.0, "lat": 38.985006166666665, "rental_uris": {"ios": "https://dc.lft.to/lastmile_qr_scan", "android": "https://dc.lft.to/lastmile_qr_scan"}, "bike_id": "0849da21c28dbf16f94a392f51864294", "fusion_lat": 0.0}, {"lon": -76.998597, "name": "decc83848696811738fe1530555e4ff5", "is_disabled": 0, "type": "electric_scooter", "is_reserved": 0, "fusion_lon": 0.0, "lat": 38.90258016666667, "rental_uris": {"ios": "https://dc.lft.to/lastmile_qr_scan", "android": "https://dc.lft.to/lastmile_qr_scan"}, "bike_id": "decc83848696811738fe1530555e4ff5", "fusion_lat": 0.0}, {"lon": -77.0180195, "name": "17e938aa4891df73d56814db47400a74", "is_disabled": 0, "type": "electric_scooter", "is_reserved": 0, "fusion_lon": 0.0, "lat": 38.921389833333336, "rental_uris": {"ios": "https://dc.lft.to/lastmile_qr_scan", "android": "https://dc.lft.to/lastmile_qr_scan"}, "bike_id": "17e938aa4891df73d56814db47400a74", "fusion_lat": 0.0}, {"lon": -77.00175883333333, "name": "04e40e50ba3766eb5d7cbf7610a0dd5c", "is_disabled": 0, "type": "electric_scooter", "is_reserved": 0, "fusion_lon": 0.0, "lat": 38.940737166666665, "rental_uris": {"ios": "https://dc.lft.to/lastmile_qr_scan", "android": "https://dc.lft.to/lastmile_qr_scan"}, "bike_id": "04e40e50ba3766eb5d7cbf7610a0dd5c", "fusion_lat": 0.0}, {"lon": -77.02126366666667, "name": "25432496fc869170eecdcaf89da27bfa", "is_disabled": 0, "type": "electric_scooter", "is_reserved": 0, "fusion_lon": 0.0, "lat": 38.923969166666666, "rental_uris": {"ios": "https://dc.lft.to/lastmile_qr_scan", "android": "https://dc.lft.to/lastmile_qr_scan"}, "bike_id": "25432496fc869170eecdcaf89da27bfa", "fusion_lat": 0.0}, {"lon": -77.03050833333333, "name": "556ba3be0838635a2b64b7cd0d6d766a", "is_disabled": 0, "type": "electric_scooter", "is_reserved": 0, "fusion_lon": 0.0, "lat": 38.884277833333336, "rental_uris": {"ios": "https://dc.lft.to/lastmile_qr_scan", "android": "https://dc.lft.to/lastmile_qr_scan"}, "bike_id": "556ba3be0838635a2b64b7cd0d6d766a", "fusion_lat": 0.0}, {"lon": -77.01224616666667, "name": "ef5652ad2b5d1ef7d0aa9801bfd480f1", "is_disabled": 0, "type": "electric_scooter", "is_reserved": 0, "fusion_lon": 0.0, "lat": 38.9000105, "rental_uris": {"ios": "https://dc.lft.to/lastmile_qr_scan", "android": "https://dc.lft.to/lastmile_qr_scan"}, "bike_id": "ef5652ad2b5d1ef7d0aa9801bfd480f1", "fusion_lat": 0.0}, {"lon": -77.02158983333334, "name": "34d7280b03bd7e7bb3efc106545f05c9", "is_disabled": 0, "type": "electric_scooter", "is_reserved": 0, "fusion_lon": 0.0, "lat": 38.926116, "rental_uris": {"ios": "https://dc.lft.to/lastmile_qr_scan", "android": "https://dc.lft.to/lastmile_qr_scan"}, "bike_id": "34d7280b03bd7e7bb3efc106545f05c9", "fusion_lat": 0.0}, {"lon": -77.0398, "name": "cc6f0168a3ae948dd90afff4fe383a24", "is_disabled": 0, "type": "electric_scooter", "is_reserved": 0, "fusion_lon": 0.0, "lat": 38.902651, "rental_uris": {"ios": "https://dc.lft.to/lastmile_qr_scan", "android": "https://dc.lft.to/lastmile_qr_scan"}, "bike_id": "cc6f0168a3ae948dd90afff4fe383a24", "fusion_lat": 0.0}, {"lon": -77.02033216666666, "name": "3ce23e130565cc804f9933d6a062798f", "is_disabled": 0, "type": "electric_scooter", "is_reserved": 0, "fusion_lon": 0.0, "lat": 38.924392833333336, "rental_uris": {"ios": "https://dc.lft.to/lastmile_qr_scan", "android": "https://dc.lft.to/lastmile_qr_scan"}, "bike_id": "3ce23e130565cc804f9933d6a062798f", "fusion_lat": 0.0}, {"lon": -77.03604033333333, "name": "5d318fb71c4d22adc12c35b12a4e1718", "is_disabled": 0, "type": "electric_scooter", "is_reserved": 0, "fusion_lon": 0.0, "lat": 38.90233666666666, "rental_uris": {"ios": "https://dc.lft.to/lastmile_qr_scan", "android": "https://dc.lft.to/lastmile_qr_scan"}, "bike_id": "5d318fb71c4d22adc12c35b12a4e1718", "fusion_lat": 0.0}, {"lon": -77.0366325, "name": "c528178fd48c83fc1e35e2f702cb80a1", "is_disabled": 0, "type": "electric_scooter", "is_reserved": 0, "fusion_lon": 0.0, "lat": 38.933555166666665, "rental_uris": {"ios": "https://dc.lft.to/lastmile_qr_scan", "android": "https://dc.lft.to/lastmile_qr_scan"}, "bike_id": "c528178fd48c83fc1e35e2f702cb80a1", "fusion_lat": 0.0}, {"lon": -77.03932716666667, "name": "ed15baf58f80d984d906b28314301060", "is_disabled": 0, "type": "electric_scooter", "is_reserved": 0, "fusion_lon": 0.0, "lat": 38.91626216666667, "rental_uris": {"ios": "https://dc.lft.to/lastmile_qr_scan", "android": "https://dc.lft.to/lastmile_qr_scan"}, "bike_id": "ed15baf58f80d984d906b28314301060", "fusion_lat": 0.0}, {"lon": -76.9374435, "name": "c9df2614b756477e47063cf868f2b493", "is_disabled": 0, "type": "electric_scooter", "is_reserved": 0, "fusion_lon": 0.0, "lat": 38.890152666666665, "rental_uris": {"ios": "https://dc.lft.to/lastmile_qr_scan", "android": "https://dc.lft.to/lastmile_qr_scan"}, "bike_id": "c9df2614b756477e47063cf868f2b493", "fusion_lat": 0.0}, {"lon": -77.0219255, "name": "3aba948acce2a551e346777cb61b9e06", "is_disabled": 0, "type": "electric_scooter", "is_reserved": 0, "fusion_lon": 0.0, "lat": 38.899793833333334, "rental_uris": {"ios": "https://dc.lft.to/lastmile_qr_scan", "android": "https://dc.lft.to/lastmile_qr_scan"}, "bike_id": "3aba948acce2a551e346777cb61b9e06", "fusion_lat": 0.0}, {"lon": -76.983771, "name": "41fd3da5ee1219b05b5a13a16e743c17", "is_disabled": 0, "type": "electric_scooter", "is_reserved": 0, "fusion_lon": 0.0, "lat": 38.860829333333335, "rental_uris": {"ios": "https://dc.lft.to/lastmile_qr_scan", "android": "https://dc.lft.to/lastmile_qr_scan"}, "bike_id": "41fd3da5ee1219b05b5a13a16e743c17", "fusion_lat": 0.0}, {"lon": -77.03445533333333, "name": "210e787f1ec8c061c37946b358ee50da", "is_disabled": 0, "type": "electric_scooter", "is_reserved": 0, "fusion_lon": 0.0, "lat": 38.902494, "rental_uris": {"ios": "https://dc.lft.to/lastmile_qr_scan", "android": "https://dc.lft.to/lastmile_qr_scan"}, "bike_id": "210e787f1ec8c061c37946b358ee50da", "fusion_lat": 0.0}, {"lon": -77.02340916666667, "name": "36d64997385193e2f39c46c16074b5c7", "is_disabled": 0, "type": "electric_scooter", "is_reserved": 0, "fusion_lon": 0.0, "lat": 38.91788016666667, "rental_uris": {"ios": "https://dc.lft.to/lastmile_qr_scan", "android": "https://dc.lft.to/lastmile_qr_scan"}, "bike_id": "36d64997385193e2f39c46c16074b5c7", "fusion_lat": 0.0}, {"lon": -77.04242316666667, "name": "5b8ae214ca8dce0c91c8c358c027ef55", "is_disabled": 0, "type": "electric_scooter", "is_reserved": 0, "fusion_lon": 0.0, "lat": 38.920624833333335, "rental_uris": {"ios": "https://dc.lft.to/lastmile_qr_scan", "android": "https://dc.lft.to/lastmile_qr_scan"}, "bike_id": "5b8ae214ca8dce0c91c8c358c027ef55", "fusion_lat": 0.0}, {"lon": -77.02205316666667, "name": "d04e3cc5366e2dd17b3deb3e3a9833a4", "is_disabled": 0, "type": "electric_scooter", "is_reserved": 0, "fusion_lon": 0.0, "lat": 38.90567383333333, "rental_uris": {"ios": "https://dc.lft.to/lastmile_qr_scan", "android": "https://dc.lft.to/lastmile_qr_scan"}, "bike_id": "d04e3cc5366e2dd17b3deb3e3a9833a4", "fusion_lat": 0.0}, {"lon": -77.01787233333333, "name": "f00fa65d3377196c2b3afd339522f098", "is_disabled": 0, "type": "electric_scooter", "is_reserved": 0, "fusion_lon": 0.0, "lat": 38.919883, "rental_uris": {"ios": "https://dc.lft.to/lastmile_qr_scan", "android": "https://dc.lft.to/lastmile_qr_scan"}, "bike_id": "f00fa65d3377196c2b3afd339522f098", "fusion_lat": 0.0}, {"lon": -77.05324316666666, "name": "39d81d02f9fde044b02d1874ac102988", "is_disabled": 0, "type": "electric_scooter", "is_reserved": 0, "fusion_lon": 0.0, "lat": 38.904373, "rental_uris": {"ios": "https://dc.lft.to/lastmile_qr_scan", "android": "https://dc.lft.to/lastmile_qr_scan"}, "bike_id": "39d81d02f9fde044b02d1874ac102988", "fusion_lat": 0.0}, {"lon": -77.01427366666667, "name": "5e739ed3b947845dcfd74d34d0d00470", "is_disabled": 0, "type": "electric_scooter", "is_reserved": 0, "fusion_lon": 0.0, "lat": 38.91944, "rental_uris": {"ios": "https://dc.lft.to/lastmile_qr_scan", "android": "https://dc.lft.to/lastmile_qr_scan"}, "bike_id": "5e739ed3b947845dcfd74d34d0d00470", "fusion_lat": 0.0}, {"lon": -76.95831516666667, "name": "dd951c94ff1226a17972bac6d659e32d", "is_disabled": 0, "type": "electric_bike", "is_reserved": 0, "fusion_lon": 0.0, "lat": 38.85063366666667, "rental_uris": {"ios": "https://dc.lft.to/lastmile_qr_scan", "android": "https://dc.lft.to/lastmile_qr_scan"}, "bike_id": "dd951c94ff1226a17972bac6d659e32d", "fusion_lat": 0.0}, {"lon": -77.0032435, "name": "97f9221f1f22e49d94426b3b7f5d223c", "is_disabled": 0, "type": "electric_scooter", "is_reserved": 0, "fusion_lon": 0.0, "lat": 38.901316333333334, "rental_uris": {"ios": "https://dc.lft.to/lastmile_qr_scan", "android": "https://dc.lft.to/lastmile_qr_scan"}, "bike_id": "97f9221f1f22e49d94426b3b7f5d223c", "fusion_lat": 0.0}, {"lon": -77.0013705, "name": "0d6eb172ed77915bc288f88e5fcdce00", "is_disabled": 0, "type": "electric_scooter", "is_reserved": 0, "fusion_lon": 0.0, "lat": 38.87371533333334, "rental_uris": {"ios": "https://dc.lft.to/lastmile_qr_scan", "android": "https://dc.lft.to/lastmile_qr_scan"}, "bike_id": "0d6eb172ed77915bc288f88e5fcdce00", "fusion_lat": 0.0}, {"lon": -77.03952, "name": "ba62ba95738b8b414002e33f19173e56", "is_disabled": 0, "type": "electric_scooter", "is_reserved": 0, "fusion_lon": 0.0, "lat": 38.89870616666666, "rental_uris": {"ios": "https://dc.lft.to/lastmile_qr_scan", "android": "https://dc.lft.to/lastmile_qr_scan"}, "bike_id": "ba62ba95738b8b414002e33f19173e56", "fusion_lat": 0.0}, {"lon": -76.946637, "name": "d0782795566233c593dafa62eaf2b851", "is_disabled": 0, "type": "electric_scooter", "is_reserved": 0, "fusion_lon": 0.0, "lat": 38.898697, "rental_uris": {"ios": "https://dc.lft.to/lastmile_qr_scan", "android": "https://dc.lft.to/lastmile_qr_scan"}, "bike_id": "d0782795566233c593dafa62eaf2b851", "fusion_lat": 0.0}, {"lon": -77.0214065, "name": "b09b6209dc29c41d427219b01b7e4dd5", "is_disabled": 0, "type": "electric_scooter", "is_reserved": 0, "fusion_lon": 0.0, "lat": 38.9237285, "rental_uris": {"ios": "https://dc.lft.to/lastmile_qr_scan", "android": "https://dc.lft.to/lastmile_qr_scan"}, "bike_id": "b09b6209dc29c41d427219b01b7e4dd5", "fusion_lat": 0.0}, {"lon": -77.02815083333333, "name": "45ed78860f491b208c6cdb52a766b1ed", "is_disabled": 0, "type": "electric_scooter", "is_reserved": 0, "fusion_lon": 0.0, "lat": 38.907058666666664, "rental_uris": {"ios": "https://dc.lft.to/lastmile_qr_scan", "android": "https://dc.lft.to/lastmile_qr_scan"}, "bike_id": "45ed78860f491b208c6cdb52a766b1ed", "fusion_lat": 0.0}, {"lon": -77.04305416666666, "name": "f029fcf8b07216ecef3bd7d83c68f3eb", "is_disabled": 0, "type": "electric_bike", "is_reserved": 0, "fusion_lon": 0.0, "lat": 39.034166, "rental_uris": {"ios": "https://dc.lft.to/lastmile_qr_scan", "android": "https://dc.lft.to/lastmile_qr_scan"}, "bike_id": "f029fcf8b07216ecef3bd7d83c68f3eb", "fusion_lat": 0.0}, {"lon": -77.01770516666667, "name": "af5dd76c6cc4845b2c23fa7fa4d373e6", "is_disabled": 0, "type": "electric_scooter", "is_reserved": 0, "fusion_lon": 0.0, "lat": 38.88336116666667, "rental_uris": {"ios": "https://dc.lft.to/lastmile_qr_scan", "android": "https://dc.lft.to/lastmile_qr_scan"}, "bike_id": "af5dd76c6cc4845b2c23fa7fa4d373e6", "fusion_lat": 0.0},