{"data": {"bikes": [{"fusion_lon": 0.0, "bike_id": "0d1b116c35596c2eff5e551c99b48cb1", "is_disabled": 0, "is_reserved": 0, "lat": 38.952021333333334, "name": "0d1b116c35596c2eff5e551c99b48cb1", "rental_uris": {"ios": "https://dc.lft.to/lastmile_qr_scan", "android": "https://dc.lft.to/lastmile_qr_scan"}, "type": "electric_bike", "fusion_lat": 0.0, "lon": -77.06796816666666}, {"fusion_lon": 0.0, "bike_id": "c8af59251f61df7bb7ac29f6aad21bc8", "is_disabled": 0, "is_reserved": 0, "lat": 38.9221185, "name": "c8af59251f61df7bb7ac29f6aad21bc8", "rental_uris": {"ios": "https://dc.lft.to/lastmile_qr_scan", "android": "https://dc.lft.to/lastmile_qr_scan"}, "type": "electric_scooter", "fusion_lat": 0.0, "lon": -77.01821516666666}, {"fusion_lon": 0.0, "bike_id": "752cf33fb85f0a22a8431379d3262537", "is_disabled": 0, "is_reserved": 0, "lat": 38.9206355, "name": "752cf33fb85f0a22a8431379d3262537", "rental_uris": {"ios": "https://dc.lft.to/lastmile_qr_scan", "android": "https://dc.lft.to/lastmile_qr_scan"}, "type": "electric_scooter", "fusion_lat": 0.0, "lon": -77.041936}, {"fusion_lon": 0.0, "bike_id": "9a8617226119cca247c7fb6214465ec7", "is_disabled": 0, "is_reserved": 0, "lat": 38.994944333333336, "name": "9a8617226119cca247c7fb6214465ec7", "rental_uris": {"ios": "https://dc.lft.to/lastmile_qr_scan", "android": "https://dc.lft.to/lastmile_qr_scan"}, "type": "electric_bike", "fusion_lat": 0.0, "lon": -77.0013305}, {"fusion_lon": 0.0, "bike_id": "b5c6cfe2fd190b06a855eacfd6b32edc", "is_disabled": 0, "is_reserved": 0, "lat": 38.895104333333336, "name": "b5c6cfe2fd190b06a855eacfd6b32edc", "rental_uris": {"ios": "https://dc.lft.to/lastmile_qr_scan", "android": "https://dc.lft.to/lastmile_qr_scan"}, "type": "electric_scooter", "fusion_lat": 0.0, "lon": -76.94892533333334}, {"fusion_lon": 0.0, "bike_id": "403f77c25be2a9b100e3c851b7185596", "is_disabled": 0, "is_reserved": 0, "lat": 38.915657, "name": "403f77c25be2a9b100e3c851b7185596", "rental_uris": {"ios": "https://dc.lft.to/lastmile_qr_scan", "android": "https://dc.lft.to/lastmile_qr_scan"}, "type": "electric_scooter", "fusion_lat": 0.0, "lon": -77.03187516666667}, {"fusion_lon": 0.0, "bike_id": "f449349c996b3099c0546cfd6d4caaf9", "is_disabled": 0, "is_reserved": 0, "lat": 38.87546583333334, "name": "f449349c996b3099c0546cfd6d4caaf9", "rental_uris": {"ios": "https://dc.lft.to/lastmile_qr_scan", "android": "https://dc.lft.to/lastmile_qr_scan"}, "type": "electric_scooter", "fusion_lat": 0.0, "lon": -77.00533866666666}, {"fusion_lon": 0.0, "bike_id": "6f3cc13589c81769ebef4f50a3c6348d", "is_disabled": 0, "is_reserved": 0, "lat": 38.89826083333333, "name": "6f3cc13589c81769ebef4f50a3c6348d", "rental_uris": {"ios": "https://dc.lft.to/lastmile_qr_scan", "android": "https://dc.lft.to/lastmile_qr_scan"}, "type": "electric_scooter", "fusion_lat": 0.0, "lon": -77.04615266666667}, {"fusion_lon": 0.0, "bike_id": "1b93b20e41c41610684eb4cb84c0fb7b", "is_disabled": 0, "is_reserved": 0, "lat": 38.9192465, "name": "1b93b20e41c41610684eb4cb84c0fb7b", "rental_uris": {"ios": "https://dc.lft.to/lastmile_qr_scan", "android": "https://dc.lft.to/lastmile_qr_scan"}, "type": "electric_scooter", "fusion_lat": 0.0, "lon": -77.04629533333333}, {"fusion_lon": 0.0, "bike_id": "883bc58343c54d0de1f6c5ab1cae90da", "is_disabled": 0, "is_reserved": 0, "lat": 38.88523816666667, "name": "883bc58343c54d0de1f6c5ab1cae90da", "rental_uris": {"ios": "https://dc.lft.to/lastmile_qr_scan", "android": "https://dc.lft.to/lastmile_qr_scan"}, "type": "electric_scooter", "fusion_lat": 0.0, "lon": -76.9771015}, {"fusion_lon": 0.0, "bike_id": "943ba4e79b089dfa8dada39eac7cfb8d", "is_disabled": 0, "is_reserved": 0, "lat": 38.922458, "name": "943ba4e79b089dfa8dada39eac7cfb8d", "rental_uris": {"ios": "https://dc.lft.to/lastmile_qr_scan", "android": "https://dc.lft.to/lastmile_qr_scan"}, "type": "electric_scooter", "fusion_lat": 0.0, "lon": -77.0338675}, {"fusion_lon": 0.0, "bike_id": "20b02632f303613e572e0b64235adf27", "is_disabled": 0, "is_reserved": 0, "lat": 38.92334983333333, "name": "20b02632f303613e572e0b64235adf27", "rental_uris": {"ios": "https://dc.lft.to/lastmile_qr_scan", "android": "https://dc.lft.to/lastmile_qr_scan"}, "type": "electric_scooter", "fusion_lat": 0.0, "lon": -77.008924}, {"fusion_lon": 0.0, "bike_id": "5a9b7f80fd3624702b3eb3320dd9c018", "is_disabled": 0, "is_reserved": 0, "lat": 38.87944066666667, "name": "5a9b7f80fd3624702b3eb3320dd9c018", "rental_uris": {"ios": "https://dc.lft.to/lastmile_qr_scan", "android": "https://dc.lft.to/lastmile_qr_scan"}, "type": "electric_scooter", "fusion_lat": 0.0, "lon": -77.01002733333333}, {"fusion_lon": 0.0, "bike_id": "05ebf64cd39b56452af865fec0255dee", "is_disabled": 0, "is_reserved": 0, "lat": 38.907374, "name": "05ebf64cd39b56452af865fec0255dee", "rental_uris": {"ios": "https://dc.lft.to/lastmile_qr_scan", "android": "https://dc.lft.to/lastmile_qr_scan"}, "type": "electric_scooter", "fusion_lat": 0.0, "lon": -76.998381}, {"fusion_lon": 0.0, "bike_id": "d645029670a5b7402db9107780d66a6d", "is_disabled": 0, "is_reserved": 0, "lat": 38.940786333333335, "name": "d645029670a5b7402db9107780d66a6d", "rental_uris": {"ios": "https://dc.lft.to/lastmile_qr_scan", "android": "https://dc.lft.to/lastmile_qr_scan"}, "type": "electric_scooter", "fusion_lat": 0.0, "lon": -77.021136}, {"fusion_lon": 0.0, "bike_id": "813e251a7b9dae0b0239244e0c4a205b", "is_disabled": 0, "is_reserved": 0, "lat": 38.89951333333333, "name": "813e251a7b9dae0b0239244e0c4a205b", "rental_uris": {"ios": "https://dc.lft.to/lastmile_qr_scan", "android": "https://dc.lft.to/lastmile_qr_scan"}, "type": "electric_scooter", "fusion_lat": 0.0, "lon": -77.04506666666667}, {"fusion_lon": 0.0, "bike_id": "8dc7b17e2c2ba5db1d38b7ff0a539ed3", "is_disabled": 0, "is_reserved": 0, "lat": 38.911494833333336, "name": "8dc7b17e2c2ba5db1d38b7ff0a539ed3", "rental_uris": {"ios": "https://dc.lft.to/lastmile_qr_scan", "android": "https://dc.lft.to/lastmile_qr_scan"}, "type": "electric_scooter", "fusion_lat": 0.0, "lon": -77.02373366666667}, {"fusion_lon": 0.0, "bike_id": "fc6ec0e67d8a416430337627d3737fa8", "is_disabled": 0, "is_reserved": 0, "lat": 38.878884166666666, "name": "fc6ec0e67d8a416430337627d3737fa8", "rental_uris": {"ios": "https://dc.lft.to/lastmile_qr_scan", "android": "https://dc.lft.to/lastmile_qr_scan"}, "type": "electric_scooter", "fusion_lat": 0.0, "lon": -76.96541566666667}, {"fusion_lon": 0.0, "bike_id": "4b3720e788f06e29f3aa113cac87838c", "is_disabled": 0, "is_reserved": 0, "lat": 38.91852516666667, "name": "4b3720e788f06e29f3aa113cac87838c", "rental_uris": {"ios": "https://dc.lft.to/lastmile_qr_scan", "android": "https://dc.lft.to/lastmile_qr_scan"}, "type": "electric_scooter", "fusion_lat": 0.0, "lon": -77.02546466666666}, {"fusion_lon": 0.0, "bike_id": "6fe74564882565d20deb86bdca850a20", "is_disabled": 0, "is_reserved": 0, "lat": 38.87694366666667, "name": "6fe74564882565d20deb86bdca850a20", "rental_uris": {"ios": "https://dc.lft.to/lastmile_qr_scan", "android": "https://dc.lft.to/lastmile_qr_scan"}, "type": "electric_scooter", "fusion_lat": 0.0, "lon": -77.00737716666667}, {"fusion_lon": 0.0, "bike_id": "e23723346b3fc147fe37624c26bbff46", "is_disabled": 0, "is_reserved": 0, "lat": 38.9201425, "name": "e23723346b3fc147fe37624c26bbff46", "rental_uris": {"ios": "https://dc.lft.to/lastmile_qr_scan", "android": "https://dc.lft.to/lastmile_qr_scan"}, "type": "electric_scooter", "fusion_lat": 0.0, "lon": -76.97299766666667}, {"fusion_lon": 0.0, "bike_id": "6d98f269bb06f5025f81781b563da1a3", "is_disabled": 0, "is_reserved": 0, "lat": 38.892319, "name": "6d98f269bb06f5025f81781b563da1a3", "rental_uris": {"ios": "https://dc.lft.to/lastmile_qr_scan", "android": "https://dc.lft.to/lastmile_qr_scan"}, "type": "electric_scooter", "fusion_lat": 0.0, "lon": -77.04992933333334}, {"fusion_lon": 0.0, "bike_id": "404408db0cb0cc0385f6e63332aa74f1", "is_disabled": 0, "is_reserved": 0, "lat": 38.99096566666667, "name": "404408db0cb0cc0385f6e63332aa74f1", "rental_uris": {"ios": "https://dc.lft.to/lastmile_qr_scan", "android": "https://dc.lft.to/lastmile_qr_scan"}, "type": "electric_bike", "fusion_lat": 0.0, "lon": -76.99376233333334}, {"fusion_lon": 0.0, "bike_id": "64a568a813138f013d802056b0457f4c", "is_disabled": 0, "is_reserved": 0, "lat": 38.93701083333333, "name": "64a568a813138f013d802056b0457f4c", "rental_uris": {"ios": "https://dc.lft.to/lastmile_qr_scan", "android": "https://dc.lft.to/lastmile_qr_scan"}, "type": "electric_scooter", "fusion_lat": 0.0, "lon": -77.05604233333334}, {"fusion_lon": 0.0, "bike_id": "135231915e882ce52a9c851f551e7366", "is_disabled": 0, "is_reserved": 0, "lat": 38.90262833333333, "name": "135231915e882ce52a9c851f551e7366", "rental_uris": {"ios": "https://dc.lft.to/lastmile_qr_scan", "android": "https://dc.lft.to/lastmile_qr_scan"}, "type": "electric_scooter", "fusion_lat": 0.0, "lon": -77.02774883333333}, {"fusion_lon": 0.0, "bike_id": "cfa7dc8e23de32af652284087f9025a2", "is_disabled": 0, "is_reserved": 0, "lat": 38.91601983333334, "name": "cfa7dc8e23de32af652284087f9025a2", "rental_uris": {"ios": "https://dc.lft.to/lastmile_qr_scan", "android": "https://dc.lft.to/lastmile_qr_scan"}, "type": "electric_scooter", "fusion_lat": 0.0, "lon": -77.02954116666666}, {"fusion_lon": 0.0, "bike_id": "0040d14714524b6b00d794268ef01af5", "is_disabled": 0, "is_reserved": 0, "lat": 38.86628616666667, "name": "0040d14714524b6b00d794268ef01af5", "rental_uris": {"ios": "https://dc.lft.to/lastmile_qr_scan", "android": "https://dc.lft.to/lastmile_qr_scan"}, "type": "electric_bike", "fusion_lat": 0.0, "lon": -76.99001916666667}, {"fusion_lon": 0.0, "bike_id": "18d323e2f9a9b9b89439ae1518cfcc51", "is_disabled": 0, "is_reserved": 0, "lat": 38.886715333333335, "name": "18d323e2f9a9b9b89439ae1518cfcc51", "rental_uris": {"ios": "https://dc.lft.to/lastmile_qr_scan", "android": "https://dc.lft.to/lastmile_qr_scan"}, "type": "electric_scooter", "fusion_lat": 0.0, "lon": -76.99143833333333}, {"fusion_lon": 0.0, "bike_id": "5cf98a7cbc037f2b23236b3295e3f6e8", "is_disabled": 0, "is_reserved": 0, "lat": 38.89874833333333, "name": "5cf98a7cbc037f2b23236b3295e3f6e8", "rental_uris": {"ios": "https://dc.lft.to/lastmile_qr_scan", "android": "https://dc.lft.to/lastmile_qr_scan"}, "type": "electric_scooter", "fusion_lat": 0.0, "lon": -77.03273516666667}, {"fusion_lon": 0.0, "bike_id": "45549d8dbc36ada6dadcef946da18854", "is_disabled": 0, "is_reserved": 0, "lat": 38.91275233333333, "name": "45549d8dbc36ada6dadcef946da18854", "rental_uris": {"ios": "https://dc.lft.to/lastmile_qr_scan", "android": "https://dc.lft.to/lastmile_qr_scan"}, "type": "electric_scooter", "fusion_lat": 0.0, "lon": -77.045023}, {"fusion_lon": 0.0, "bike_id": "f4538c18d91bb6503a86c2468d9c284a", "is_disabled": 0, "is_reserved": 0, "lat": 38.88347366666667, "name": "f4538c18d91bb6503a86c2468d9c284a", "rental_uris": {"ios": "https://dc.lft.to/lastmile_qr_scan", "android": "https://dc.lft.to/lastmile_qr_scan"}, "type": "electric_scooter", "fusion_lat": 0.0, "lon": -76.93626316666666}, {"fusion_lon": 0.0, "bike_id": "21df15334b47f5f66500fe54c38b4f0a", "is_disabled": 0, "is_reserved": 0, "lat": 38.902438, "name": "21df15334b47f5f66500fe54c38b4f0a", "rental_uris": {"ios": "https://dc.lft.to/lastmile_qr_scan", "android": "https://dc.lft.to/lastmile_qr_scan"}, "type": "electric_scooter", "fusion_lat": 0.0, "lon": -77.028248}, {"fusion_lon": 0.0, "bike_id": "c30f55eda8f8d9a2e480844b4b461909", "is_disabled": 0, "is_reserved": 0, "lat": 38.9180975, "name": "c30f55eda8f8d9a2e480844b4b461909", "rental_uris": {"ios": "https://dc.lft.to/lastmile_qr_scan", "android": "https://dc.lft.to/lastmile_qr_scan"}, "type": "electric_scooter", "fusion_lat": 0.0, "lon": -77.034351}, {"fusion_lon": 0.0, "bike_id": "6f1e423aa440baa151c99560fc2cf414", "is_disabled": 0, "is_reserved": 0, "lat": 38.928588166666664, "name": "6f1e423aa440baa151c99560fc2cf414", "rental_uris": {"ios": "https://dc.lft.to/lastmile_qr_scan", "android": "https://dc.lft.to/lastmile_qr_scan"}, "type": "electric_scooter", "fusion_lat": 0.0, "lon": -77.03097116666666}, {"fusion_lon": 0.0, "bike_id": "3838c3f108ed03aa77d7830a696210b6", "is_disabled": 0, "is_reserved": 0, "lat": 38.894378, "name": "3838c3f108ed03aa77d7830a696210b6", "rental_uris": {"ios": "https://dc.lft.to/lastmile_qr_scan", "android": "https://dc.lft.to/lastmile_qr_scan"}, "type": "electric_scooter", "fusion_lat": 0.0, "lon": -76.94786633333334}, {"fusion_lon": 0.0, "bike_id": "cb88b86d1e6cb55affcbf5279e9754d0", "is_disabled": 0, "is_reserved": 0, "lat": 38.944952, "name": "cb88b86d1e6cb55affcbf5279e9754d0", "rental_uris": {"ios": "https://dc.lft.to/lastmile_qr_scan", "android": "https://dc.lft.to/lastmile_qr_scan"}, "type": "electric_scooter", "fusion_lat": 0.0, "lon": -77.02853383333333}, {"fusion_lon": 0.0, "bike_id": "81c3155164643e3c8defa6eb2fe4976c", "is_disabled": 0, "is_reserved": 0, "lat": 38.922593666666664, "name": "81c3155164643e3c8defa6eb2fe4976c", "rental_uris": {"ios": "https://dc.lft.to/lastmile_qr_scan", "android": "https://dc.lft.to/lastmile_qr_scan"}, "type": "electric_scooter", "fusion_lat": 0.0, "lon": -77.019479}, {"fusion_lon": 0.0, "bike_id": "d53469ca563c4477a5d629a74a36f808", "is_disabled": 0, "is_reserved": 0, "lat": 38.923232166666665, "name": "d53469ca563c4477a5d629a74a36f808", "rental_uris": {"ios": "https://dc.lft.to/lastmile_qr_scan", "android": "https://dc.lft.to/lastmile_qr_scan"}, "type": "electric_scooter", "fusion_lat": 0.0, "lon": -77.05617516666666}, {"fusion_lon": 0.0, "bike_id": "b203cce46dc4a6559fc80a48ff15b2f7", "is_disabled": 0, "is_reserved": 0, "lat": 38.8977415, "name": "b203cce46dc4a6559fc80a48ff15b2f7", "rental_uris": {"ios": "https://dc.lft.to/lastmile_qr_scan", "android": "https://dc.lft.to/lastmile_qr_scan"}, "type": "electric_scooter", "fusion_lat": 0.0, "lon": -77.01195333333334}, {"fusion_lon": 0.0, "bike_id": "85165d805c267e60181852d2778b606c", "is_disabled": 0, "is_reserved": 0, "lat": 38.91720266666667, "name": "85165d805c267e60181852d2778b606c", "rental_uris": {"ios": "https://dc.lft.to/lastmile_qr_scan", "android": "https://dc.lft.to/lastmile_qr_scan"}, "type": "electric_scooter", "fusion_lat": 0.0, "lon": -77.040754}, {"fusion_lon": 0.0, "bike_id": "212f7d002bff132c04790ff854627624", "is_disabled": 0, "is_reserved": 0, "lat": 38.9053285, "name": "212f7d002bff132c04790ff854627624", "rental_uris": {"ios": "https://dc.lft.to/lastmile_qr_scan", "android": "https://dc.lft.to/lastmile_qr_scan"}, "type": "electric_scooter", "fusion_lat": 0.0, "lon": -77.03016316666667}, {"fusion_lon": 0.0, "bike_id": "842526396a7bcff25f36e3deb9841e9f", "is_disabled": 0, "is_reserved": 0, "lat": 38.94571116666667, "name": "842526396a7bcff25f36e3deb9841e9f", "rental_uris": {"ios": "https://dc.lft.to/lastmile_qr_scan", "android": "https://dc.lft.to/lastmile_qr_scan"}, "type": "electric_bike", "fusion_lat": 0.0, "lon": -76.98113216666667}, {"fusion_lon": 0.0, "bike_id": "b60072db434b9c66714967f691eb3c32", "is_disabled": 0, "is_reserved": 0, "lat": 38.935751, "name": "b60072db434b9c66714967f691eb3c32", "rental_uris": {"ios": "https://dc.lft.to/lastmile_qr_scan", "android": "https://dc.lft.to/lastmile_qr_scan"}, "type": "electric_bike", "fusion_lat": 0.0, "lon": -77.021245}, {"fusion_lon": 0.0, "bike_id": "e3aec6693a6da9e8f3ca7a205f6f69fb", "is_disabled": 0, "is_reserved": 0, "lat": 38.89557966666667, "name": "e3aec6693a6da9e8f3ca7a205f6f69fb", "rental_uris": {"ios": "https://dc.lft.to/lastmile_qr_scan", "android": "https://dc.lft.to/lastmile_qr_scan"}, "type": "electric_scooter", "fusion_lat": 0.0, "lon": -77.00918733333333}, {"fusion_lon": 0.0, "bike_id": "fb72b39a1e58fcde67b028ef9dae9c91", "is_disabled": 0, "is_reserved": 0, "lat": 38.907324333333335, "name": "fb72b39a1e58fcde67b028ef9dae9c91", "rental_uris": {"ios": "https://dc.lft.to/lastmile_qr_scan", "android": "https://dc.lft.to/lastmile_qr_scan"}, "type": "electric_scooter", "fusion_lat": 0.0, "lon": -77.00804366666667}, {"fusion_lon": 0.0, "bike_id": "32a68ee4c44f063542269b0d3f8de0d5", "is_disabled": 0, "is_reserved": 0, "lat": 38.9216055, "name": "32a68ee4c44f063542269b0d3f8de0d5", "rental_uris": {"ios": "https://dc.lft.to/lastmile_qr_scan", "android": "https://dc.lft.to/lastmile_qr_scan"}, "type": "electric_scooter", "fusion_lat": 0.0, "lon": -77.0403465}, {"fusion_lon": 0.0, "bike_id": "a1bc90968d7e2a87e4610923e2a1602c", "is_disabled": 0, "is_reserved": 0, "lat": 38.96795083333333, "name": "a1bc90968d7e2a87e4610923e2a1602c", "rental_uris": {"ios": "https://dc.lft.to/lastmile_qr_scan", "android": "https://dc.lft.to/lastmile_qr_scan"}, "type": "electric_scooter", "fusion_lat": 0.0, "lon": -77.02430466666667}, {"fusion_lon": 0.0, "bike_id": "aa1058e86901c380d387a5cf602d87a8", "is_disabled": 0, "is_reserved": 0, "lat": 38.913297, "name": "aa1058e86901c380d387a5cf602d87a8", "rental_uris": {"ios": "https://dc.lft.to/lastmile_qr_scan", "android": "https://dc.lft.to/lastmile_qr_scan"}, "type": "electric_scooter", "fusion_lat": 0.0, "lon": -77.043399}, {"fusion_lon": 0.0, "bike_id": "7d8e7cdc71053e9a26df2611328b53b2", "is_disabled": 0, "is_reserved": 0, "lat": 38.887750833333335, "name": "7d8e7cdc71053e9a26df2611328b53b2", "rental_uris": {"ios": "https://dc.lft.to/lastmile_qr_scan", "android": "https://dc.lft.to/lastmile_qr_scan"}, "type": "electric_scooter", "fusion_lat": 0.0, "lon": -76.93262116666666}, {"fusion_lon": 0.0, "bike_id": "3aba1bcc3d21c82c44a40bf493d2f2d3", "is_disabled": 0, "is_reserved": 0, "lat": 38.988863333333335, "name": "3aba1bcc3d21c82c44a40bf493d2f2d3", "rental_uris": {"ios": "https://dc.lft.to/lastmile_qr_scan", "android": "https://dc.lft.to/lastmile_qr_scan"}, "type": "electric_bike", "fusion_lat": 0.0, "lon": -76.988043}, {"fusion_lon": 0.0, "bike_id": "db25eb7089e11e148d5e5001988b4de3", "is_disabled": 0, "is_reserved": 0, "lat": 38.92072233333333, "name": "db25eb7089e11e148d5e5001988b4de3", "rental_uris": {"ios": "https://dc.lft.to/lastmile_qr_scan", "android": "https://dc.lft.to/lastmile_qr_scan"}, "type": "electric_scooter", "fusion_lat": 0.0, "lon": -77.00454033333334}, {"fusion_lon": 0.0, "bike_id": "ec818a1f4f3f6f46cc08b85df3ffaef0", "is_disabled": 0, "is_reserved": 0, "lat": 38.90025816666667, "name": "ec818a1f4f3f6f46cc08b85df3ffaef0", "rental_uris": {"ios": "https://dc.lft.to/lastmile_qr_scan", "android": "https://dc.lft.to/lastmile_qr_scan"}, "type": "electric_scooter", "fusion_lat": 0.0, "lon": -77.0200255}, {"fusion_lon": 0.0, "bike_id": "00567d18eb6e27e4739308bb2fb336f1", "is_disabled": 0, "is_reserved": 0, "lat": 38.931911, "name": "00567d18eb6e27e4739308bb2fb336f1", "rental_uris": {"ios": "https://dc.lft.to/lastmile_qr_scan", "android": "https://dc.lft.to/lastmile_qr_scan"}, "type": "electric_scooter", "fusion_lat": 0.0, "lon": -77.02567066666667}, {"fusion_lon": 0.0, "bike_id": "4d2002fc0cb4090dc24e6be8d1d46e64", "is_disabled": 0, "is_reserved": 0, "lat": 38.901643666666665, "name": "4d2002fc0cb4090dc24e6be8d1d46e64", "rental_uris": {"ios": "https://dc.lft.to/lastmile_qr_scan", "android": "https://dc.lft.to/lastmile_qr_scan"}, "type": "electric_scooter", "fusion_lat": 0.0, "lon": -77.03432366666667}, {"fusion_lon": 0.0, "bike_id": "04a9489fa775d207864bc6ed08890334", "is_disabled": 0, "is_reserved": 0, "lat": 38.846147333333334, "name": "04a9489fa775d207864bc6ed08890334", "rental_uris": {"ios": "https://dc.lft.to/lastmile_qr_scan", "android": "https://dc.lft.to/lastmile_qr_scan"}, "type": "electric_bike", "fusion_lat": 0.0, "lon": -76.97820183333333}, {"fusion_lon": 0.0, "bike_id": "a4a9fef0aabe4c0d7ce850de6737051d", "is_disabled": 0, "is_reserved": 0, "lat": 38.90688266666667, "name": "a4a9fef0aabe4c0d7ce850de6737051d", "rental_uris": {"ios": "https://dc.lft.to/lastmile_qr_scan", "android": "https://dc.lft.to/lastmile_qr_scan"}, "type": "electric_scooter", "fusion_lat": 0.0, "lon": -77.0626925}, {"fusion_lon": 0.0, "bike_id": "aedcf837a677361f7dd1d55423e10245", "is_disabled": 0, "is_reserved": 0, "lat": 38.88122233333333, "name": "aedcf837a677361f7dd1d55423e10245", "rental_uris": {"ios": "https://dc.lft.to/lastmile_qr_scan", "android": "https://dc.lft.to/lastmile_qr_scan"}, "type": "electric_scooter", "fusion_lat": 0.0, "lon": -77.0166115}, {"fusion_lon": 0.0, "bike_id": "4c3f267766d7b90461fc4d6c0fafaa68", "is_disabled": 0, "is_reserved": 0, "lat": 38.9129625, "name": "4c3f267766d7b90461fc4d6c0fafaa68", "rental_uris": {"ios": "https://dc.lft.to/lastmile_qr_scan", "android": "https://dc.lft.to/lastmile_qr_scan"}, "type": "electric_scooter", "fusion_lat": 0.0, "lon": -76.98689933333333}, {"fusion_lon": 0.0, "bike_id": "38323bcd73db0ca1874a31b146abdd59", "is_disabled": 0, "is_reserved": 0, "lat": 38.90905566666667, "name": "38323bcd73db0ca1874a31b146abdd59", "rental_uris": {"ios": "https://dc.lft.to/lastmile_qr_scan", "android": "https://dc.lft.to/lastmile_qr_scan"}, "type": "electric_scooter", "fusion_lat": 0.0, "lon": -76.997698}, {"fusion_lon": 0.0, "bike_id": "9a8c745846fb9bc78cc8f9b0f45a2a0d", "is_disabled": 0, "is_reserved": 0, "lat": 38.9102945, "name": "9a8c745846fb9bc78cc8f9b0f45a2a0d", "rental_uris": {"ios": "https://dc.lft.to/lastmile_qr_scan", "android": "https://dc.lft.to/lastmile_qr_scan"}, "type": "electric_scooter", "fusion_lat": 0.0, "lon": -77.02944033333333}, {"fusion_lon": 0.0, "bike_id": "d2868f5637909d70b4a16896c905f214", "is_disabled": 0, "is_reserved": 0, "lat": 38.9359005, "name": "d2868f5637909d70b4a16896c905f214", "rental_uris": {"ios": "https://dc.lft.to/lastmile_qr_scan", "android": "https://dc.lft.to/lastmile_qr_scan"}, "type": "electric_scooter", "fusion_lat": 0.0, "lon": -77.07343066666667}, {"fusion_lon": 0.0, "bike_id": "e84cdd0d2c5c9f8c0ed4013603a49863", "is_disabled": 0, "is_reserved": 0, "lat": 38.906795, "name": "e84cdd0d2c5c9f8c0ed4013603a49863", "rental_uris": {"ios": "https://dc.lft.to/lastmile_qr_scan", "android": "https://dc.lft.to/lastmile_qr_scan"}, "type": "electric_scooter", "fusion_lat": 0.0, "lon": -77.07178016666667}, {"fusion_lon": 0.0, "bike_id": "e8579df1cbed558cd30a839db1bff49c", "is_disabled": 0, "is_reserved": 0, "lat": 38.914145833333336, "name": "e8579df1cbed558cd30a839db1bff49c", "rental_uris": {"ios": "https://dc.lft.to/lastmile_qr_scan", "android": "https://dc.lft.to/lastmile_qr_scan"}, "type": "electric_scooter", "fusion_lat": 0.0, "lon": -77.01067216666667}, {"fusion_lon": 0.0, "bike_id": "b54ad927d3421104f5ecca5b48933716", "is_disabled": 0, "is_reserved": 0, "lat": 38.89221216666667, "name": "b54ad927d3421104f5ecca5b48933716", "rental_uris": {"ios": "https://dc.lft.to/lastmile_qr_scan", "android": "https://dc.lft.to/lastmile_qr_scan"}, "type": "electric_scooter", "fusion_lat": 0.0, "lon": -77.048741}, {"fusion_lon": 0.0, "bike_id": "d12fb13f14d2c9a0456f4700843d22ed", "is_disabled": 0, "is_reserved": 0, "lat": 38.96735133333333, "name": "d12fb13f14d2c9a0456f4700843d22ed", "rental_uris": {"ios": "https://dc.lft.to/lastmile_qr_scan", "android": "https://dc.lft.to/lastmile_qr_scan"}, "type": "electric_bike", "fusion_lat": 0.0, "lon": -76.96043966666667}, {"fusion_lon": 0.0, "bike_id": "8567b1c320e136969c25a1a11e132564", "is_disabled": 0, "is_reserved": 0, "lat": 38.918802, "name": "8567b1c320e136969c25a1a11e132564", "rental_uris": {"ios": "https://dc.lft.to/lastmile_qr_scan", "android": "https://dc.lft.to/lastmile_qr_scan"}, "type": "electric_scooter", "fusion_lat": 0.0, "lon": -77.0350275}, {"fusion_lon": 0.0, "bike_id": "913cada54ac6aa03f8584766cdf40ef0", "is_disabled": 0, "is_reserved": 0, "lat": 38.935265333333334, "name": "913cada54ac6aa03f8584766cdf40ef0", "rental_uris": {"ios": "https://dc.lft.to/lastmile_qr_scan", "android": "https://dc.lft.to/lastmile_qr_scan"}, "type": "electric_scooter", "fusion_lat": 0.0, "lon": -77.03368533333334}, {"fusion_lon": 0.0, "bike_id": "0457b3ec76ab427619ed5259805b6074", "is_disabled": 0, "is_reserved": 0, "lat": 38.924034, "name": "0457b3ec76ab427619ed5259805b6074", "rental_uris": {"ios": "https://dc.lft.to/lastmile_qr_scan", "android": "https://dc.lft.to/lastmile_qr_scan"}, "type": "electric_scooter", "fusion_lat": 0.0, "lon": -77.02701883333333}, {"fusion_lon": 0.0, "bike_id": "222a6d7bd3e369750742d2e9058efe93", "is_disabled": 0, "is_reserved": 0, "lat": 38.8754675, "name": "222a6d7bd3e369750742d2e9058efe93", "rental_uris": {"ios": "https://dc.lft.to/lastmile_qr_scan", "android": "https://dc.lft.to/lastmile_qr_scan"}, "type": "electric_scooter", "fusion_lat": 0.0, "lon": -77.0053625}, {"fusion_lon": 0.0, "bike_id": "bb6cdbeb2e47289c2405d0dc77e38eb0", "is_disabled": 0, "is_reserved": 0, "lat": 38.914722, "name": "bb6cdbeb2e47289c2405d0dc77e38eb0", "rental_uris": {"ios": "https://dc.lft.to/lastmile_qr_scan", "android": "https://dc.lft.to/lastmile_qr_scan"}, "type": "electric_scooter", "fusion_lat": 0.0, "lon": -77.00209883333333}, {"fusion_lon": 0.0, "bike_id": "9519997e37890c7b0299ca2fda81e769", "is_disabled": 0, "is_reserved": 0, "lat": 38.97366266666667, "name": "9519997e37890c7b0299ca2fda81e769", "rental_uris": {"ios": "https://dc.lft.to/lastmile_qr_scan", "android": "https://dc.lft.to/lastmile_qr_scan"}, "type": "electric_scooter", "fusion_lat": 0.0, "lon": -77.01863916666667}, {"fusion_lon": 0.0, "bike_id": "55f655fc262e932c69d7871f234464d9", "is_disabled": 0, "is_reserved": 0, "lat": 38.933167166666664, "name": "55f655fc262e932c69d7871f234464d9", "rental_uris": {"ios": "https://dc.lft.to/lastmile_qr_scan", "android": "https://dc.lft.to/lastmile_qr_scan"}, "type": "electric_scooter", "fusion_lat": 0.0, "lon": -77.03431966666666}, {"fusion_lon": 0.0, "bike_id": "17ce6bc7a1cef7387ad85b4e50415158", "is_disabled": 0, "is_reserved": 0, "lat": 38.9527145, "name": "17ce6bc7a1cef7387ad85b4e50415158", "rental_uris": {"ios": "https://dc.lft.to/lastmile_qr_scan", "android": "https://dc.lft.to/lastmile_qr_scan"}, "type": "electric_scooter", "fusion_lat": 0.0, "lon": -77.0176745}, {"fusion_lon": 0.0, "bike_id": "a9b936fb6b0f30cf9f552e9d84daa568", "is_disabled": 0, "is_reserved": 0, "lat": 38.9073815, "name": "a9b936fb6b0f30cf9f552e9d84daa568", "rental_uris": {"ios": "https://dc.lft.to/lastmile_qr_scan", "android": "https://dc.lft.to/lastmile_qr_scan"}, "type": "electric_scooter", "fusion_lat": 0.0, "lon": -77.02185433333334}, {"fusion_lon": 0.0, "bike_id": "681c1b09c7d6eb05e69c109dba040e71", "is_disabled": 0, "is_reserved": 0, "lat": 38.95606083333333, "name": "681c1b09c7d6eb05e69c109dba040e71", "rental_uris": {"ios": "https://dc.lft.to/lastmile_qr_scan", "android": "https://dc.lft.to/lastmile_qr_scan"}, "type": "electric_scooter", "fusion_lat": 0.0, "lon": -77.08034866666667}, {"fusion_lon": 0.0, "bike_id": "c7597360bd560f78a9b19707df053fdd", "is_disabled": 0, "is_reserved": 0, "lat": 38.925973166666665, "name": "c7597360bd560f78a9b19707df053fdd", "rental_uris": {"ios": "https://dc.lft.to/lastmile_qr_scan", "android": "https://dc.lft.to/lastmile_qr_scan"}, "type": "electric_bike", "fusion_lat": 0.0, "lon": -77.0332625}, {"fusion_lon": 0.0, "bike_id": "336fa71fa969a55c0bd42a9e5f973fb0", "is_disabled": 0, "is_reserved": 0, "lat": 38.9312675, "name": "336fa71fa969a55c0bd42a9e5f973fb0", "rental_uris": {"ios": "https://dc.lft.to/lastmile_qr_scan", "android": "https://dc.lft.to/lastmile_qr_scan"}, "type": "electric_scooter", "fusion_lat": 0.0, "lon": -77.07851433333333}, {"fusion_lon": 0.0, "bike_id": "9cf04b0e31fe16c6d7c0b7760e7f490d", "is_disabled": 0, "is_reserved": 0, "lat": 38.917675833333334, "name": "9cf04b0e31fe16c6d7c0b7760e7f490d", "rental_uris": {"ios": "https://dc.lft.to/lastmile_qr_scan", "android": "https://dc.lft.to/lastmile_qr_scan"}, "type": "electric_scooter", "fusion_lat": 0.0, "lon": -77.00341933333333}, {"fusion_lon": 0.0, "bike_id": "2de01d4e1ad8e9f25d351210b16f83e5", "is_disabled": 0, "is_reserved": 0, "lat": 38.9007215, "name": "2de01d4e1ad8e9f25d351210b16f83e5", "rental_uris": {"ios": "https://dc.lft.to/lastmile_qr_scan", "android": "https://dc.lft.to/lastmile_qr_scan"}, "type": "electric_scooter", "fusion_lat": 0.0, "lon": -77.05050066666666}, {"fusion_lon": 0.0, "bike_id": "d25135cda5a01ed8ac0e1ef63285ef14", "is_disabled": 0, "is_reserved": 0, "lat": 38.911847333333334, "name": "d25135cda5a01ed8ac0e1ef63285ef14", "rental_uris": {"ios": "https://dc.lft.to/lastmile_qr_scan", "android": "https://dc.lft.to/lastmile_qr_scan"}, "type": "electric_scooter", "fusion_lat": 0.0, "lon": -77.03214166666666}, {"fusion_lon": 0.0, "bike_id": "2b16add5471a841ad5d9f0a9682bb9f1", "is_disabled": 0, "is_reserved": 0, "lat": 38.892463666666664, "name": "2b16add5471a841ad5d9f0a9682bb9f1", "rental_uris": {"ios": "https://dc.lft.to/lastmile_qr_scan", "android": "https://dc.lft.to/lastmile_qr_scan"}, "type": "electric_scooter", "fusion_lat": 0.0, "lon": -76.95214483333334}, {"fusion_lon": 0.0, "bike_id": "07b4a8225de0a8b75af87bb9722ca291", "is_disabled": 0, "is_reserved": 0, "lat": 38.91476983333333, "name": "07b4a8225de0a8b75af87bb9722ca291", "rental_uris": {"ios": "https://dc.lft.to/lastmile_qr_scan", "android": "https://dc.lft.to/lastmile_qr_scan"}, "type": "electric_scooter", "fusion_lat": 0.0, "lon": -77.0219105}, {"fusion_lon": 0.0, "bike_id": "35e0aafaad7d90acba2fc822a33f2f8c", "is_disabled": 0, "is_reserved": 0, "lat": 38.93734466666667, "name": "35e0aafaad7d90acba2fc822a33f2f8c", "rental_uris": {"ios": "https://dc.lft.to/lastmile_qr_scan", "android": "https://dc.lft.to/lastmile_qr_scan"}, "type": "electric_scooter", "fusion_lat": 0.0, "lon": -77.07360366666667}, {"fusion_lon": 0.0, "bike_id": "17b78e3e392a015729829318416eb69e", "is_disabled": 0, "is_reserved": 0, "lat": 38.8887205, "name": "17b78e3e392a015729829318416eb69e", "rental_uris": {"ios": "https://dc.lft.to/lastmile_qr_scan", "android": "https://dc.lft.to/lastmile_qr_scan"}, "type": "electric_scooter", "fusion_lat": 0.0, "lon": -76.99035583333334}, {"fusion_lon": 0.0, "bike_id": "093f56a73ddbe7e201574e7063b9c5be", "is_disabled": 0, "is_reserved": 0, "lat": 38.92472466666667, "name": "093f56a73ddbe7e201574e7063b9c5be", "rental_uris": {"ios": "https://dc.lft.to/lastmile_qr_scan", "android": "https://dc.lft.to/lastmile_qr_scan"}, "type": "electric_scooter", "fusion_lat": 0.0, "lon": -77.02211166666666}, {"fusion_lon": 0.0, "bike_id": "aa9dd706fb48bcd4d99694f2539249f3", "is_disabled": 0, "is_reserved": 0, "lat": 38.902065666666665, "name": "aa9dd706fb48bcd4d99694f2539249f3", "rental_uris": {"ios": "https://dc.lft.to/lastmile_qr_scan", "android": "https://dc.lft.to/lastmile_qr_scan"}, "type": "electric_scooter", "fusion_lat": 0.0, "lon": -77.02197616666666}, {"fusion_lon": 0.0, "bike_id": "3d3b1aa270ab091c351cc4ca8cb716da", "is_disabled": 0, "is_reserved": 0, "lat": 38.900087666666664, "name": "3d3b1aa270ab091c351cc4ca8cb716da", "rental_uris": {"ios": "https://dc.lft.to/lastmile_qr_scan", "android": "https://dc.lft.to/lastmile_qr_scan"}, "type": "electric_scooter", "fusion_lat": 0.0, "lon": -76.99348183333333}, {"fusion_lon": 0.0, "bike_id": "e4ac681ad5a1212952e3e534305530a4", "is_disabled": 0, "is_reserved": 0, "lat": 38.89532233333333, "name": "e4ac681ad5a1212952e3e534305530a4", "rental_uris": {"ios": "https://dc.lft.to/lastmile_qr_scan", "android": "https://dc.lft.to/lastmile_qr_scan"}, "type": "electric_scooter", "fusion_lat": 0.0, "lon": -77.03182583333333}, {"fusion_lon": 0.0, "bike_id": "74d304d4c3748eced16b8a567bed1dff", "is_disabled": 0, "is_reserved": 0, "lat": 38.90644733333333, "name": "74d304d4c3748eced16b8a567bed1dff", "rental_uris": {"ios": "https://dc.lft.to/lastmile_qr_scan", "android": "https://dc.lft.to/lastmile_qr_scan"}, "type": "electric_scooter", "fusion_lat": 0.0, "lon": -77.05302333333333}, {"fusion_lon": 0.0, "bike_id": "d1a4bedf06a2ae4ed84e9e9a522d3bf2", "is_disabled": 0, "is_reserved": 0, "lat": 38.898603, "name": "d1a4bedf06a2ae4ed84e9e9a522d3bf2", "rental_uris": {"ios": "https://dc.lft.to/lastmile_qr_scan", "android": "https://dc.lft.to/lastmile_qr_scan"}, "type": "electric_scooter", "fusion_lat": 0.0, "lon": -77.0203505}, {"fusion_lon": 0.0, "bike_id": "784be82f206ffc2c353c981cc726f221", "is_disabled": 0, "is_reserved": 0, "lat": 38.919486, "name": "784be82f206ffc2c353c981cc726f221", "rental_uris": {"ios": "https://dc.lft.to/lastmile_qr_scan", "android": "https://dc.lft.to/lastmile_qr_scan"}, "type": "electric_scooter", "fusion_lat": 0.0, "lon": -77.025996}, {"fusion_lon": 0.0, "bike_id": "4be75e3eea036584039a96501c04e842", "is_disabled": 0, "is_reserved": 0, "lat": 38.91684816666667, "name": "4be75e3eea036584039a96501c04e842", "rental_uris": {"ios": "https://dc.lft.to/lastmile_qr_scan", "android": "https://dc.lft.to/lastmile_qr_scan"}, "type": "electric_scooter", "fusion_lat": 0.0, "lon": -77.01212466666667}, {"fusion_lon": 0.0, "bike_id": "fb54a84e3257ed772a22936c574ac08e", "is_disabled": 0, "is_reserved": 0, "lat": 38.9021125, "name": "fb54a84e3257ed772a22936c574ac08e", "rental_uris": {"ios": "https://dc.lft.to/lastmile_qr_scan", "android": "https://dc.lft.to/lastmile_qr_scan"}, "type": "electric_scooter", "fusion_lat": 0.0, "lon": -77.0512185}, {"fusion_lon": 0.0, "bike_id": "30672bbad99b48a3216ce765a35bf63e", "is_disabled": 0, "is_reserved": 0, "lat": 38.928120666666665, "name": "30672bbad99b48a3216ce765a35bf63e", "rental_uris": {"ios": "https://dc.lft.to/lastmile_qr_scan", "android": "https://dc.lft.to/lastmile_qr_scan"}, "type": "electric_scooter", "fusion_lat": 0.0, "lon": -77.03636966666667}, {"fusion_lon": 0.0, "bike_id": "ca5f349cf82ada47a655d22ec6b6362c", "is_disabled": 0, "is_reserved": 0, "lat": 38.95191466666667, "name": "ca5f349cf82ada47a655d22ec6b6362c", "rental_uris": {"ios": "https://dc.lft.to/lastmile_qr_scan", "android": "https://dc.lft.to/lastmile_qr_scan"}, "type": "electric_scooter", "fusion_lat": 0.0, "lon": -77.02611583333334}, {"fusion_lon": 0.0, "bike_id": "b4d73c7264d93f2622f27fb7ee1830bf", "is_disabled": 0, "is_reserved": 0, "lat": 38.90027033333333, "name": "b4d73c7264d93f2622f27fb7ee1830bf", "rental_uris": {"ios": "https://dc.lft.to/lastmile_qr_scan", "android": "https://dc.lft.to/lastmile_qr_scan"}, "type": "electric_scooter", "fusion_lat": 0.0, "lon": -77.03915383333333}, {"fusion_lon": 0.0, "bike_id": "05b257630ab5ccea1ed83ecea5eaa52b", "is_disabled": 0, "is_reserved": 0, "lat": 38.90050216666667, "name": "05b257630ab5ccea1ed83ecea5eaa52b", "rental_uris": {"ios": "https://dc.lft.to/lastmile_qr_scan", "android": "https://dc.lft.to/lastmile_qr_scan"}, "type": "electric_scooter", "fusion_lat": 0.0, "lon": -76.9884075}, {"fusion_lon": 0.0, "bike_id": "d6c82f07a7ce964eeed21d146076e164", "is_disabled": 0, "is_reserved": 0, "lat": 38.951516, "name": "d6c82f07a7ce964eeed21d146076e164", "rental_uris": {"ios": "https://dc.lft.to/lastmile_qr_scan", "android": "https://dc.lft.to/lastmile_qr_scan"}, "type": "electric_scooter", "fusion_lat": 0.0, "lon": -77.01866833333334}, {"fusion_lon": 0.0, "bike_id": "7d63755cb491026e5dd088658dbd3212", "is_disabled": 0, "is_reserved": 0, "lat": 38.926124333333334, "name": "7d63755cb491026e5dd088658dbd3212", "rental_uris": {"ios": "https://dc.lft.to/lastmile_qr_scan", "android": "https://dc.lft.to/lastmile_qr_scan"}, "type": "electric_scooter", "fusion_lat": 0.0, "lon": -77.05707966666667}, {"fusion_lon": 0.0, "bike_id": "bfc69d3827de7e94efdaf92fd92c7dff", "is_disabled": 0, "is_reserved": 0, "lat": 38.916705666666665, "name": "bfc69d3827de7e94efdaf92fd92c7dff", "rental_uris": {"ios": "https://dc.lft.to/lastmile_qr_scan", "android": "https://dc.lft.to/lastmile_qr_scan"}, "type": "electric_scooter", "fusion_lat": 0.0, "lon": -77.0280175}, {"fusion_lon": 0.0, "bike_id": "017c1111bc2af10ad4f5a0ed705e9282", "is_disabled": 0, "is_reserved": 0, "lat": 38.91569533333333, "name": "017c1111bc2af10ad4f5a0ed705e9282", "rental_uris": {"ios": "https://dc.lft.to/lastmile_qr_scan", "android": "https://dc.lft.to/lastmile_qr_scan"}, "type": "electric_scooter", "fusion_lat": 0.0, "lon": -77.03269}, {"fusion_lon": 0.0, "bike_id": "63e2b1aee6797b2d5acc9bb9fd59651a", "is_disabled": 0, "is_reserved": 0, "lat": 38.92056633333333, "name": "63e2b1aee6797b2d5acc9bb9fd59651a", "rental_uris": {"ios": "https://dc.lft.to/lastmile_qr_scan", "android": "https://dc.lft.to/lastmile_qr_scan"}, "type": "electric_scooter", "fusion_lat": 0.0, "lon": -77.017154}, {"fusion_lon": 0.0, "bike_id": "136464e54272f4fd114757c6f59e1017", "is_disabled": 0, "is_reserved": 0, "lat": 38.923300166666664, "name": "136464e54272f4fd114757c6f59e1017", "rental_uris": {"ios": "https://dc.lft.to/lastmile_qr_scan", "android": "https://dc.lft.to/lastmile_qr_scan"}, "type": "electric_scooter", "fusion_lat": 0.0, "lon": -77.0366795}, {"fusion_lon": 0.0, "bike_id": "07e028cda7d2c23f6a3de6bcd1705a8f", "is_disabled": 0, "is_reserved": 0, "lat": 38.862136, "name": "07e028cda7d2c23f6a3de6bcd1705a8f", "rental_uris": {"ios": "https://dc.lft.to/lastmile_qr_scan", "android": "https://dc.lft.to/lastmile_qr_scan"}, "type": "electric_scooter", "fusion_lat": 0.0, "lon": -76.994459}, {"fusion_lon": 0.0, "bike_id": "934c581007db99f1acf38c421ad05e4d", "is_disabled": 0, "is_reserved": 0, "lat": 38.924913, "name": "934c581007db99f1acf38c421ad05e4d", "rental_uris": {"ios": "https://dc.lft.to/lastmile_qr_scan", "android": "https://dc.lft.to/lastmile_qr_scan"}, "type": "electric_scooter", "fusion_lat": 0.0, "lon": -77.05760916666667}, {"fusion_lon": 0.0, "bike_id": "9544693b4f096a1bd307db281c49f8c1", "is_disabled": 0, "is_reserved": 0, "lat": 38.92049083333333, "name": "9544693b4f096a1bd307db281c49f8c1", "rental_uris": {"ios": "https://dc.lft.to/lastmile_qr_scan", "android": "https://dc.lft.to/lastmile_qr_scan"}, "type": "electric_scooter", "fusion_lat": 0.0, "lon": -77.04189866666667}, {"fusion_lon": 0.0, "bike_id": "b5e27f4f37a69f3869e6ac4fcbe0cd79", "is_disabled": 0, "is_reserved": 0, "lat": 38.91552816666667, "name": "b5e27f4f37a69f3869e6ac4fcbe0cd79", "rental_uris": {"ios": "https://dc.lft.to/lastmile_qr_scan", "android": "https://dc.lft.to/lastmile_qr_scan"}, "type": "electric_scooter", "fusion_lat": 0.0, "lon": -77.03218416666667}, {"fusion_lon": 0.0, "bike_id": "bef0ba03e008299660fd99cf73267c67", "is_disabled": 0, "is_reserved": 0, "lat": 38.900294, "name": "bef0ba03e008299660fd99cf73267c67", "rental_uris": {"ios": "https://dc.lft.to/lastmile_qr_scan", "android": "https://dc.lft.to/lastmile_qr_scan"}, "type": "electric_scooter", "fusion_lat": 0.0, "lon": -76.9983905}, {"fusion_lon": 0.0, "bike_id": "e7b1ce8b6833c63251a46a583bc39dd7", "is_disabled": 0, "is_reserved": 0, "lat": 38.90790166666667, "name": "e7b1ce8b6833c63251a46a583bc39dd7", "rental_uris": {"ios": "https://dc.lft.to/lastmile_qr_scan", "android": "https://dc.lft.to/lastmile_qr_scan"}, "type": "electric_scooter", "fusion_lat": 0.0, "lon": -77.009628}, {"fusion_lon": 0.0, "bike_id": "7d675a75bd189405125948c9f0854265", "is_disabled": 0, "is_reserved": 0, "lat": 38.90562633333333, "name": "7d675a75bd189405125948c9f0854265", "rental_uris": {"ios": "https://dc.lft.to/lastmile_qr_scan", "android": "https://dc.lft.to/lastmile_qr_scan"}, "type": "electric_scooter", "fusion_lat": 0.0, "lon": -76.997915}, {"fusion_lon": 0.0, "bike_id": "48813d6911a1219f5573c9f08a57ad51", "is_disabled": 0, "is_reserved": 0, "lat": 38.922345166666666, "name": "48813d6911a1219f5573c9f08a57ad51", "rental_uris": {"ios": "https://dc.lft.to/lastmile_qr_scan", "android": "https://dc.lft.to/lastmile_qr_scan"}, "type": "electric_scooter", "fusion_lat": 0.0, "lon": -77.04308083333333}, {"fusion_lon": 0.0, "bike_id": "44020ab001ec5d9d82f1337e84432595", "is_disabled": 0, "is_reserved": 0, "lat": 38.9192195, "name": "44020ab001ec5d9d82f1337e84432595", "rental_uris": {"ios": "https://dc.lft.to/lastmile_qr_scan", "android": "https://dc.lft.to/lastmile_qr_scan"}, "type": "electric_scooter", "fusion_lat": 0.0, "lon": -77.03423866666667}, {"fusion_lon": 0.0, "bike_id": "8f5e0026a99f2e7cffb6bed01aa8c804", "is_disabled": 0, "is_reserved": 0, "lat": 38.928690833333334, "name": "8f5e0026a99f2e7cffb6bed01aa8c804", "rental_uris": {"ios": "https://dc.lft.to/lastmile_qr_scan", "android": "https://dc.lft.to/lastmile_qr_scan"}, "type": "electric_scooter", "fusion_lat": 0.0, "lon": -77.02728733333333}, {"fusion_lon": 0.0, "bike_id": "6cc0f1c48882618a1c6fc2fa1e49568c", "is_disabled": 0, "is_reserved": 0, "lat": 38.97440616666667, "name": "6cc0f1c48882618a1c6fc2fa1e49568c", "rental_uris": {"ios": "https://dc.lft.to/lastmile_qr_scan", "android": "https://dc.lft.to/lastmile_qr_scan"}, "type": "electric_bike", "fusion_lat": 0.0, "lon": -77.09617}, {"fusion_lon": 0.0, "bike_id": "5dfd7815305bf6ca6748e377c447afcf", "is_disabled": 0, "is_reserved": 0, "lat": 38.85443766666667, "name": "5dfd7815305bf6ca6748e377c447afcf", "rental_uris": {"ios": "https://dc.lft.to/lastmile_qr_scan", "android": "https://dc.lft.to/lastmile_qr_scan"}, "type": "electric_scooter", "fusion_lat": 0.0, "lon": -76.98609566666667}, {"fusion_lon": 0.0, "bike_id": "a36223168e568c74ac6dc5a4e12db7ee", "is_disabled": 0, "is_reserved": 0, "lat": 38.924184833333335, "name": "a36223168e568c74ac6dc5a4e12db7ee", "rental_uris": {"ios": "https://dc.lft.to/lastmile_qr_scan", "android": "https://dc.lft.to/lastmile_qr_scan"}, "type": "electric_scooter", "fusion_lat": 0.0, "lon": -77.02012216666667}, {"fusion_lon": 0.0, "bike_id": "b8bf245bfba74af663e7f66b10d89d78", "is_disabled": 0, "is_reserved": 0, "lat": 38.91710116666667, "name": "b8bf245bfba74af663e7f66b10d89d78", "rental_uris": {"ios": "https://dc.lft.to/lastmile_qr_scan", "android": "https://dc.lft.to/lastmile_qr_scan"}, "type": "electric_scooter", "fusion_lat": 0.0, "lon": -77.038647}, {"fusion_lon": 0.0, "bike_id": "216c18008d2e952171c92eca02c21dfa", "is_disabled": 0, "is_reserved": 0, "lat": 38.91143016666667, "name": "216c18008d2e952171c92eca02c21dfa", "rental_uris": {"ios": "https://dc.lft.to/lastmile_qr_scan", "android": "https://dc.lft.to/lastmile_qr_scan"}, "type": "electric_scooter", "fusion_lat": 0.0, "lon": -77.01076616666667}, {"fusion_lon": 0.0, "bike_id": "ea521a91fa73749a1a1d24aecbdf9d39", "is_disabled": 0, "is_reserved": 0, "lat": 38.98511233333333, "name": "ea521a91fa73749a1a1d24aecbdf9d39", "rental_uris": {"ios": "https://dc.lft.to/lastmile_qr_scan", "android": "https://dc.lft.to/lastmile_qr_scan"}, "type": "electric_bike", "fusion_lat": 0.0, "lon": -76.9823235}, {"fusion_lon": 0.0, "bike_id": "e1c3a1fca49a4b5355f7b6ccdecb99ed", "is_disabled": 0, "is_reserved": 0, "lat": 38.9205575, "name": "e1c3a1fca49a4b5355f7b6ccdecb99ed", "rental_uris": {"ios": "https://dc.lft.to/lastmile_qr_scan", "android": "https://dc.lft.to/lastmile_qr_scan"}, "type": "electric_scooter", "fusion_lat": 0.0, "lon": -77.02381683333333}, {"fusion_lon": 0.0, "bike_id": "20ed47415223dd1ec2c02cb9dcdfb2cd", "is_disabled": 0, "is_reserved": 0, "lat": 38.91651266666667, "name": "20ed47415223dd1ec2c02cb9dcdfb2cd", "rental_uris": {"ios": "https://dc.lft.to/lastmile_qr_scan", "android": "https://dc.lft.to/lastmile_qr_scan"}, "type": "electric_scooter", "fusion_lat": 0.0, "lon": -77.02183083333334}, {"fusion_lon": 0.0, "bike_id": "579b965177ed2e86b89c2db93386476f", "is_disabled": 0, "is_reserved": 0, "lat": 38.90855216666667, "name": "579b965177ed2e86b89c2db93386476f", "rental_uris": {"ios": "https://dc.lft.to/lastmile_qr_scan", "android": "https://dc.lft.to/lastmile_qr_scan"}, "type": "electric_scooter", "fusion_lat": 0.0, "lon": -77.00084233333334}, {"fusion_lon": 0.0, "bike_id": "2d465da1e7bf354c19b3d0386ccbc7e8", "is_disabled": 0, "is_reserved": 0, "lat": 38.92057616666666, "name": "2d465da1e7bf354c19b3d0386ccbc7e8", "rental_uris": {"ios": "https://dc.lft.to/lastmile_qr_scan", "android": "https://dc.lft.to/lastmile_qr_scan"}, "type": "electric_scooter", "fusion_lat": 0.0, "lon": -77.01719216666666}, {"fusion_lon": 0.0, "bike_id": "c16e13b3cb73eb90a9c18868ae592b77", "is_disabled": 0, "is_reserved": 0, "lat": 38.87734783333333, "name": "c16e13b3cb73eb90a9c18868ae592b77", "rental_uris": {"ios": "https://dc.lft.to/lastmile_qr_scan", "android": "https://dc.lft.to/lastmile_qr_scan"}, "type": "electric_bike", "fusion_lat": 0.0, "lon": -77.11849566666666}, {"fusion_lon": 0.0, "bike_id": "79aeba44809f223389ad5a80cc7bcfc6", "is_disabled": 0, "is_reserved": 0, "lat": 38.913856833333334, "name": "79aeba44809f223389ad5a80cc7bcfc6", "rental_uris": {"ios": "https://dc.lft.to/lastmile_qr_scan", "android": "https://dc.lft.to/lastmile_qr_scan"}, "type": "electric_scooter", "fusion_lat": 0.0, "lon": -77.016997}, {"fusion_lon": 0.0, "bike_id": "4f6028df2f6ccaeee19b0bfad7a9f34c", "is_disabled": 0, "is_reserved": 0, "lat": 38.91003883333333, "name": "4f6028df2f6ccaeee19b0bfad7a9f34c", "rental_uris": {"ios": "https://dc.lft.to/lastmile_qr_scan", "android": "https://dc.lft.to/lastmile_qr_scan"}, "type": "electric_bike", "fusion_lat": 0.0, "lon": -76.98424233333333}, {"fusion_lon": 0.0, "bike_id": "a9ac057d5cd7cf9d2212b06286d0a88c", "is_disabled": 0, "is_reserved": 0, "lat": 38.915398833333334, "name": "a9ac057d5cd7cf9d2212b06286d0a88c", "rental_uris": {"ios": "https://dc.lft.to/lastmile_qr_scan", "android": "https://dc.lft.to/lastmile_qr_scan"}, "type": "electric_scooter", "fusion_lat": 0.0, "lon": -77.04419533333333}, {"fusion_lon": 0.0, "bike_id": "fc01c1edbfb7d252b64d6005ecd37c0c", "is_disabled": 0, "is_reserved": 0, "lat": 38.93202466666666, "name": "fc01c1edbfb7d252b64d6005ecd37c0c", "rental_uris": {"ios": "https://dc.lft.to/lastmile_qr_scan", "android": "https://dc.lft.to/lastmile_qr_scan"}, "type": "electric_scooter", "fusion_lat": 0.0, "lon": -77.01872033333333}, {"fusion_lon": 0.0, "bike_id": "32bbef134fce9b8e6e0db2b1ea939495", "is_disabled": 0, "is_reserved": 0, "lat": 38.890306833333334, "name": "32bbef134fce9b8e6e0db2b1ea939495", "rental_uris": {"ios": "https://dc.lft.to/lastmile_qr_scan", "android": "https://dc.lft.to/lastmile_qr_scan"}, "type": "electric_scooter", "fusion_lat": 0.0, "lon": -76.94465983333333}, {"fusion_lon": 0.0, "bike_id": "f4f5a2f1207c712757605e7ceece26ad", "is_disabled": 0, "is_reserved": 0, "lat": 38.92613766666667, "name": "f4f5a2f1207c712757605e7ceece26ad", "rental_uris": {"ios": "https://dc.lft.to/lastmile_qr_scan", "android": "https://dc.lft.to/lastmile_qr_scan"}, "type": "electric_scooter", "fusion_lat": 0.0, "lon": -77.02161916666667}, {"fusion_lon": 0.0, "bike_id": "81629ec3183182f2296927c5096380fb", "is_disabled": 0, "is_reserved": 0, "lat": 38.81943666666667, "name": "81629ec3183182f2296927c5096380fb", "rental_uris": {"ios": "https://dc.lft.to/lastmile_qr_scan", "android": "https://dc.lft.to/lastmile_qr_scan"}, "type": "electric_bike", "fusion_lat": 0.0, "lon": -77.00205483333333}, {"fusion_lon": 0.0, "bike_id": "a17187729cfc3936c83b78646b1bc19a", "is_disabled": 0, "is_reserved": 0, "lat": 38.902117, "name": "a17187729cfc3936c83b78646b1bc19a", "rental_uris": {"ios": "https://dc.lft.to/lastmile_qr_scan", "android": "https://dc.lft.to/lastmile_qr_scan"}, "type": "electric_scooter", "fusion_lat": 0.0, "lon": -77.048456}, {"fusion_lon": 0.0, "bike_id": "5df29baa4edf27ceda8265e71986f981", "is_disabled": 0, "is_reserved": 0, "lat": 38.91677116666666, "name": "5df29baa4edf27ceda8265e71986f981", "rental_uris": {"ios": "https://dc.lft.to/lastmile_qr_scan", "android": "https://dc.lft.to/lastmile_qr_scan"}, "type": "electric_scooter", "fusion_lat": 0.0, "lon": -77.026158}, {"fusion_lon": 0.0, "bike_id": "cf372df72d47877a11f6c28cf7fd709f", "is_disabled": 0, "is_reserved": 0, "lat": 38.906728333333334, "name": "cf372df72d47877a11f6c28cf7fd709f", "rental_uris": {"ios": "https://dc.lft.to/lastmile_qr_scan", "android": "https://dc.lft.to/lastmile_qr_scan"}, "type": "electric_scooter", "fusion_lat": 0.0, "lon": -77.0448685}, {"fusion_lon": 0.0, "bike_id": "5ea6e5df565522b857281f4364ed7c32", "is_disabled": 0, "is_reserved": 0, "lat": 38.914658333333335, "name": "5ea6e5df565522b857281f4364ed7c32", "rental_uris": {"ios": "https://dc.lft.to/lastmile_qr_scan", "android": "https://dc.lft.to/lastmile_qr_scan"}, "type": "electric_scooter", "fusion_lat": 0.0, "lon": -77.00203566666667}, {"fusion_lon": 0.0, "bike_id": "57f43b3ecdd0e03f2ec9435530cf690d", "is_disabled": 0, "is_reserved": 0, "lat": 38.913393666666664, "name": "57f43b3ecdd0e03f2ec9435530cf690d", "rental_uris": {"ios": "https://dc.lft.to/lastmile_qr_scan", "android": "https://dc.lft.to/lastmile_qr_scan"}, "type": "electric_scooter", "fusion_lat": 0.0, "lon": -77.00338133333334}, {"fusion_lon": 0.0, "bike_id": "01ace98990e18f0eee90c418d6bf8689", "is_disabled": 0, "is_reserved": 0, "lat": 38.8998335, "name": "01ace98990e18f0eee90c418d6bf8689", "rental_uris": {"ios": "https://dc.lft.to/lastmile_qr_scan", "android": "https://dc.lft.to/lastmile_qr_scan"}, "type": "electric_scooter", "fusion_lat": 0.0, "lon": -77.02612766666667}, {"fusion_lon": 0.0, "bike_id": "79edac502923aac640d99cf43cd8d42f", "is_disabled": 0, "is_reserved": 0, "lat": 38.916907333333334, "name": "79edac502923aac640d99cf43cd8d42f", "rental_uris": {"ios": "https://dc.lft.to/lastmile_qr_scan", "android": "https://dc.lft.to/lastmile_qr_scan"}, "type": "electric_scooter", "fusion_lat": 0.0, "lon": -77.017595}, {"fusion_lon": 0.0, "bike_id": "d6b4e2e7a6c9eada287efdbbf5908b46", "is_disabled": 0, "is_reserved": 0, "lat": 38.93076166666667, "name": "d6b4e2e7a6c9eada287efdbbf5908b46", "rental_uris": {"ios": "https://dc.lft.to/lastmile_qr_scan", "android": "https://dc.lft.to/lastmile_qr_scan"}, "type": "electric_scooter", "fusion_lat": 0.0, "lon": -77.02174483333333}, {"fusion_lon": 0.0, "bike_id": "baf7fd1a67726f957542f9ea11f8cee6", "is_disabled": 0, "is_reserved": 0, "lat": 38.922366, "name": "baf7fd1a67726f957542f9ea11f8cee6", "rental_uris": {"ios": "https://dc.lft.to/lastmile_qr_scan", "android": "https://dc.lft.to/lastmile_qr_scan"}, "type": "electric_scooter", "fusion_lat": 0.0, "lon": -77.02816616666667}, {"fusion_lon": 0.0, "bike_id": "f5acfde1d17b99a3ef3ddf927e51cd21", "is_disabled": 0, "is_reserved": 0, "lat": 38.920948333333335, "name": "f5acfde1d17b99a3ef3ddf927e51cd21", "rental_uris": {"ios": "https://dc.lft.to/lastmile_qr_scan", "android": "https://dc.lft.to/lastmile_qr_scan"}, "type": "electric_scooter", "fusion_lat": 0.0, "lon": -77.08202616666667}, {"fusion_lon": 0.0, "bike_id": "dcc872ec0fbc10f62f1601888a20864c", "is_disabled": 0, "is_reserved": 0, "lat": 38.89597533333333, "name": "dcc872ec0fbc10f62f1601888a20864c", "rental_uris": {"ios": "https://dc.lft.to/lastmile_qr_scan", "android": "https://dc.lft.to/lastmile_qr_scan"}, "type": "electric_scooter", "fusion_lat": 0.0, "lon": -77.02225416666667}, {"fusion_lon": 0.0, "bike_id": "959fd4e08323fcfa51b383bcd1e10d6e", "is_disabled": 0, "is_reserved": 0, "lat": 38.90169616666667, "name": "959fd4e08323fcfa51b383bcd1e10d6e", "rental_uris": {"ios": "https://dc.lft.to/lastmile_qr_scan", "android": "https://dc.lft.to/lastmile_qr_scan"}, "type": "electric_scooter", "fusion_lat": 0.0, "lon": -77.02868366666667}, {"fusion_lon": 0.0, "bike_id": "f2ca31ed9947c79b01d1ed4b5f964fa7", "is_disabled": 0, "is_reserved": 0, "lat": 38.90560416666667, "name": "f2ca31ed9947c79b01d1ed4b5f964fa7", "rental_uris": {"ios": "https://dc.lft.to/lastmile_qr_scan", "android": "https://dc.lft.to/lastmile_qr_scan"}, "type": "electric_scooter", "fusion_lat": 0.0, "lon": -77.00606}, {"fusion_lon": 0.0, "bike_id": "18ba44fedd4db73db5e1d6108db135a3", "is_disabled": 0, "is_reserved": 0, "lat": 38.91328383333333, "name": "18ba44fedd4db73db5e1d6108db135a3", "rental_uris": {"ios": "https://dc.lft.to/lastmile_qr_scan", "android": "https://dc.lft.to/lastmile_qr_scan"}, "type": "electric_scooter", "fusion_lat": 0.0, "lon": -77.01471616666667}, {"fusion_lon": 0.0, "bike_id": "8e283b2063c4f18833fd88641b99bc76", "is_disabled": 0, "is_reserved": 0, "lat": 38.91009066666667, "name": "8e283b2063c4f18833fd88641b99bc76", "rental_uris": {"ios": "https://dc.lft.to/lastmile_qr_scan", "android": "https://dc.lft.to/lastmile_qr_scan"}, "type": "electric_scooter", "fusion_lat": 0.0, "lon": -77.0528155}, {"fusion_lon": 0.0, "bike_id": "7dece49b9258fbe3b4ed7b78cc10533c", "is_disabled": 0, "is_reserved": 0, "lat": 38.905030833333335, "name": "7dece49b9258fbe3b4ed7b78cc10533c", "rental_uris": {"ios": "https://dc.lft.to/lastmile_qr_scan", "android": "https://dc.lft.to/lastmile_qr_scan"}, "type": "electric_scooter", "fusion_lat": 0.0, "lon": -77.02001083333333}, {"fusion_lon": 0.0, "bike_id": "dee32705dc37abf96a5a99e1f6c7d57c", "is_disabled": 0, "is_reserved": 0, "lat": 38.9181845, "name": "dee32705dc37abf96a5a99e1f6c7d57c", "rental_uris": {"ios": "https://dc.lft.to/lastmile_qr_scan", "android": "https://dc.lft.to/lastmile_qr_scan"}, "type": "electric_scooter", "fusion_lat": 0.0, "lon": -77.03998033333333}, {"fusion_lon": 0.0, "bike_id": "0e8e848da48e8f95caad489641da18ae", "is_disabled": 0, "is_reserved": 0, "lat": 38.923756, "name": "0e8e848da48e8f95caad489641da18ae", "rental_uris": {"ios": "https://dc.lft.to/lastmile_qr_scan", "android": "https://dc.lft.to/lastmile_qr_scan"}, "type": "electric_scooter", "fusion_lat": 0.0, "lon": -77.0805175}, {"fusion_lon": 0.0, "bike_id": "98967ded27a7e830745dba3d46f9e692", "is_disabled": 0, "is_reserved": 0, "lat": 38.89223916666667, "name": "98967ded27a7e830745dba3d46f9e692", "rental_uris": {"ios": "https://dc.lft.to/lastmile_qr_scan", "android": "https://dc.lft.to/lastmile_qr_scan"}, "type": "electric_scooter", "fusion_lat": 0.0, "lon": -77.03987033333334}, {"fusion_lon": 0.0, "bike_id": "4863e939339df74057b02b2572b3a426", "is_disabled": 0, "is_reserved": 0, "lat": 38.951842, "name": "4863e939339df74057b02b2572b3a426", "rental_uris": {"ios": "https://dc.lft.to/lastmile_qr_scan", "android": "https://dc.lft.to/lastmile_qr_scan"}, "type": "electric_bike", "fusion_lat": 0.0, "lon": -76.93545133333333}, {"fusion_lon": 0.0, "bike_id": "f1aaa2fb128fd056b24a07208ffd33ac", "is_disabled": 0, "is_reserved": 0, "lat": 38.923396333333336, "name": "f1aaa2fb128fd056b24a07208ffd33ac", "rental_uris": {"ios": "https://dc.lft.to/lastmile_qr_scan", "android": "https://dc.lft.to/lastmile_qr_scan"}, "type": "electric_scooter", "fusion_lat": 0.0, "lon": -77.03778166666666}, {"fusion_lon": 0.0, "bike_id": "baa64ebeaa5de7534f42988b048cb2f9", "is_disabled": 0, "is_reserved": 0, "lat": 38.9282395, "name": "baa64ebeaa5de7534f42988b048cb2f9", "rental_uris": {"ios": "https://dc.lft.to/lastmile_qr_scan", "android": "https://dc.lft.to/lastmile_qr_scan"}, "type": "electric_scooter", "fusion_lat": 0.0, "lon": -77.014115}, {"fusion_lon": 0.0, "bike_id": "e576ff0ba1bcdea9b3fc8575225c0b4d", "is_disabled": 0, "is_reserved": 0, "lat": 38.91111333333333, "name": "e576ff0ba1bcdea9b3fc8575225c0b4d", "rental_uris": {"ios": "https://dc.lft.to/lastmile_qr_scan", "android": "https://dc.lft.to/lastmile_qr_scan"}, "type": "electric_scooter", "fusion_lat": 0.0, "lon": -77.032591}, {"fusion_lon": 0.0, "bike_id": "ee6ce17db723131a572f5fee4a0e9044", "is_disabled": 0, "is_reserved": 0, "lat": 38.949786, "name": "ee6ce17db723131a572f5fee4a0e9044", "rental_uris": {"ios": "https://dc.lft.to/lastmile_qr_scan", "android": "https://dc.lft.to/lastmile_qr_scan"}, "type": "electric_scooter", "fusion_lat": 0.0, "lon": -77.02443566666666}, {"fusion_lon": 0.0, "bike_id": "22521bb3b06b54112ff15eb965550e33", "is_disabled": 0, "is_reserved": 0, "lat": 38.8973125, "name": "22521bb3b06b54112ff15eb965550e33", "rental_uris": {"ios": "https://dc.lft.to/lastmile_qr_scan", "android": "https://dc.lft.to/lastmile_qr_scan"}, "type": "electric_scooter", "fusion_lat": 0.0, "lon": -76.92590016666666}, {"fusion_lon": 0.0, "bike_id": "81ec57ee0a204813f71c67c91219ddad", "is_disabled": 0, "is_reserved": 0, "lat": 38.936419666666666, "name": "81ec57ee0a204813f71c67c91219ddad", "rental_uris": {"ios": "https://dc.lft.to/lastmile_qr_scan", "android": "https://dc.lft.to/lastmile_qr_scan"}, "type": "electric_scooter", "fusion_lat": 0.0, "lon": -77.03677233333333}, {"fusion_lon": 0.0, "bike_id": "42dc2c0eebc3486326fdaadb9cb71291", "is_disabled": 0, "is_reserved": 0, "lat": 38.914053333333335, "name": "42dc2c0eebc3486326fdaadb9cb71291", "rental_uris": {"ios": "https://dc.lft.to/lastmile_qr_scan", "android": "https://dc.lft.to/lastmile_qr_scan"}, "type": "electric_scooter", "fusion_lat": 0.0, "lon": -77.03246183333333}, {"fusion_lon": 0.0, "bike_id": "dc0eb188299229865c3d7cc2336c5e3c", "is_disabled": 0, "is_reserved": 0, "lat": 38.903806333333335, "name": "dc0eb188299229865c3d7cc2336c5e3c", "rental_uris": {"ios": "https://dc.lft.to/lastmile_qr_scan", "android": "https://dc.lft.to/lastmile_qr_scan"}, "type": "electric_scooter", "fusion_lat": 0.0, "lon": -77.042506}, {"fusion_lon": 0.0, "bike_id": "6f1c90cec9b29633b53479bedacbd33e", "is_disabled": 0, "is_reserved": 0, "lat": 38.91820116666667, "name": "6f1c90cec9b29633b53479bedacbd33e", "rental_uris": {"ios": "https://dc.lft.to/lastmile_qr_scan", "android": "https://dc.lft.to/lastmile_qr_scan"}, "type": "electric_scooter", "fusion_lat": 0.0, "lon": -77.0252765}, {"fusion_lon": 0.0, "bike_id": "21d8d92e2c4c8a11c8bb0069d9a543e2", "is_disabled": 0, "is_reserved": 0, "lat": 38.914328, "name": "21d8d92e2c4c8a11c8bb0069d9a543e2", "rental_uris": {"ios": "https://dc.lft.to/lastmile_qr_scan", "android": "https://dc.lft.to/lastmile_qr_scan"}, "type": "electric_scooter", "fusion_lat": 0.0, "lon": -77.06692366666667}, {"fusion_lon": 0.0, "bike_id": "2646a20af50c715cdbb7cdf48b106aaa", "is_disabled": 0, "is_reserved": 0, "lat": 38.914655, "name": "2646a20af50c715cdbb7cdf48b106aaa", "rental_uris": {"ios": "https://dc.lft.to/lastmile_qr_scan", "android": "https://dc.lft.to/lastmile_qr_scan"}, "type": "electric_scooter", "fusion_lat": 0.0, "lon": -77.00207233333333}, {"fusion_lon": 0.0, "bike_id": "5ae17436d56c0855e14b707df5b9e3d0", "is_disabled": 0, "is_reserved": 0, "lat": 38.9170855, "name": "5ae17436d56c0855e14b707df5b9e3d0", "rental_uris": {"ios": "https://dc.lft.to/lastmile_qr_scan", "android": "https://dc.lft.to/lastmile_qr_scan"}, "type": "electric_scooter", "fusion_lat": 0.0, "lon": -77.01107183333333}, {"fusion_lon": 0.0, "bike_id": "ca4f52aff775e992ee695d7028f0686e", "is_disabled": 0, "is_reserved": 0, "lat": 38.922475, "name": "ca4f52aff775e992ee695d7028f0686e", "rental_uris": {"ios": "https://dc.lft.to/lastmile_qr_scan", "android": "https://dc.lft.to/lastmile_qr_scan"}, "type": "electric_scooter", "fusion_lat": 0.0, "lon": -77.030832}, {"fusion_lon": 0.0, "bike_id": "eeff577f5a6a8fcc0a954fa12d5319e5", "is_disabled": 0, "is_reserved": 0, "lat": 38.921639, "name": "eeff577f5a6a8fcc0a954fa12d5319e5", "rental_uris": {"ios": "https://dc.lft.to/lastmile_qr_scan", "android": "https://dc.lft.to/lastmile_qr_scan"}, "type": "electric_scooter", "fusion_lat": 0.0, "lon": -77.0421915}, {"fusion_lon": 0.0, "bike_id": "ddc7b5c07155ecde04926752094cd803", "is_disabled": 0, "is_reserved": 0, "lat": 38.92741983333333, "name": "ddc7b5c07155ecde04926752094cd803", "rental_uris": {"ios": "https://dc.lft.to/lastmile_qr_scan", "android": "https://dc.lft.to/lastmile_qr_scan"}, "type": "electric_scooter", "fusion_lat": 0.0, "lon": -77.035581}, {"fusion_lon": 0.0, "bike_id": "583fe2ae920133789a77ae7109fbd81d", "is_disabled": 0, "is_reserved": 0, "lat": 38.926314833333336, "name": "583fe2ae920133789a77ae7109fbd81d", "rental_uris": {"ios": "https://dc.lft.to/lastmile_qr_scan", "android": "https://dc.lft.to/lastmile_qr_scan"}, "type": "electric_scooter", "fusion_lat": 0.0, "lon": -77.027159}, {"fusion_lon": 0.0, "bike_id": "766546371ef2767da215ba1d5d63d32c", "is_disabled": 0, "is_reserved": 0, "lat": 38.98011133333333, "name": "766546371ef2767da215ba1d5d63d32c", "rental_uris": {"ios": "https://dc.lft.to/lastmile_qr_scan", "android": "https://dc.lft.to/lastmile_qr_scan"}, "type": "electric_bike", "fusion_lat": 0.0, "lon": -77.064101}, {"fusion_lon": 0.0, "bike_id": "e3e4636f0e233e2805fc46ef02a5e497", "is_disabled": 0, "is_reserved": 0, "lat": 38.889892333333336, "name": "e3e4636f0e233e2805fc46ef02a5e497", "rental_uris": {"ios": "https://dc.lft.to/lastmile_qr_scan", "android": "https://dc.lft.to/lastmile_qr_scan"}, "type": "electric_scooter", "fusion_lat": 0.0, "lon": -76.988124}, {"fusion_lon": 0.0, "bike_id": "f4eb57dfd995f3fc1978cc190af0261a", "is_disabled": 0, "is_reserved": 0, "lat": 38.857867666666664, "name": "f4eb57dfd995f3fc1978cc190af0261a", "rental_uris": {"ios": "https://dc.lft.to/lastmile_qr_scan", "android": "https://dc.lft.to/lastmile_qr_scan"}, "type": "electric_bike", "fusion_lat": 0.0, "lon": -76.9875575}, {"fusion_lon": 0.0, "bike_id": "a0e0532a762755f3461391b69b5c0239", "is_disabled": 0, "is_reserved": 0, "lat": 38.94717816666667, "name": "a0e0532a762755f3461391b69b5c0239", "rental_uris": {"ios": "https://dc.lft.to/lastmile_qr_scan", "android": "https://dc.lft.to/lastmile_qr_scan"}, "type": "electric_bike", "fusion_lat": 0.0, "lon": -77.098754}, {"fusion_lon": 0.0, "bike_id": "0bcae56e515cf0743c4ee49916b04613", "is_disabled": 0, "is_reserved": 0, "lat": 38.83691866666667, "name": "0bcae56e515cf0743c4ee49916b04613", "rental_uris": {"ios": "https://dc.lft.to/lastmile_qr_scan", "android": "https://dc.lft.to/lastmile_qr_scan"}, "type": "electric_bike", "fusion_lat": 0.0, "lon": -77.103358}, {"fusion_lon": 0.0, "bike_id": "609cd141c537265377f5a7234e82c9a7", "is_disabled": 0, "is_reserved": 0, "lat": 38.9198635, "name": "609cd141c537265377f5a7234e82c9a7", "rental_uris": {"ios": "https://dc.lft.to/lastmile_qr_scan", "android": "https://dc.lft.to/lastmile_qr_scan"}, "type": "electric_scooter", "fusion_lat": 0.0, "lon": -77.03275783333333}, {"fusion_lon": 0.0, "bike_id": "06eaab579b2b3ef2eedf7e2f6a4ed4e4", "is_disabled": 0, "is_reserved": 0, "lat": 38.9275, "name": "06eaab579b2b3ef2eedf7e2f6a4ed4e4", "rental_uris": {"ios": "https://dc.lft.to/lastmile_qr_scan", "android": "https://dc.lft.to/lastmile_qr_scan"}, "type": "electric_scooter", "fusion_lat": 0.0, "lon": -77.033637}, {"fusion_lon": 0.0, "bike_id": "6397f2073e053530b25d9292e1b08149", "is_disabled": 0, "is_reserved": 0, "lat": 38.90379166666666, "name": "6397f2073e053530b25d9292e1b08149", "rental_uris": {"ios": "https://dc.lft.to/lastmile_qr_scan", "android": "https://dc.lft.to/lastmile_qr_scan"}, "type": "electric_scooter", "fusion_lat": 0.0, "lon": -77.0072295}, {"fusion_lon": 0.0, "bike_id": "a208859d99f2927b140d2df4cf366dad", "is_disabled": 0, "is_reserved": 0, "lat": 38.922597333333336, "name": "a208859d99f2927b140d2df4cf366dad", "rental_uris": {"ios": "https://dc.lft.to/lastmile_qr_scan", "android": "https://dc.lft.to/lastmile_qr_scan"}, "type": "electric_scooter", "fusion_lat": 0.0, "lon": -77.01953633333333}, {"fusion_lon": 0.0, "bike_id": "44d6ed6ed6dff987ffca768244e2886d", "is_disabled": 0, "is_reserved": 0, "lat": 38.96729216666667, "name": "44d6ed6ed6dff987ffca768244e2886d", "rental_uris": {"ios": "https://dc.lft.to/lastmile_qr_scan", "android": "https://dc.lft.to/lastmile_qr_scan"}, "type": "electric_bike", "fusion_lat": 0.0, "lon": -77.08907883333333}, {"fusion_lon": 0.0, "bike_id": "001cff19ab7e294e03f215afe4d261eb", "is_disabled": 0, "is_reserved": 0, "lat": 38.9369065, "name": "001cff19ab7e294e03f215afe4d261eb", "rental_uris": {"ios": "https://dc.lft.to/lastmile_qr_scan", "android": "https://dc.lft.to/lastmile_qr_scan"}, "type": "electric_scooter", "fusion_lat": 0.0, "lon": -77.0661845}, {"fusion_lon": 0.0, "bike_id": "f0eda93621aeb003a090ba0934290e99", "is_disabled": 0, "is_reserved": 0, "lat": 38.83585766666667, "name": "f0eda93621aeb003a090ba0934290e99", "rental_uris": {"ios": "https://dc.lft.to/lastmile_qr_scan", "android": "https://dc.lft.to/lastmile_qr_scan"}, "type": "electric_bike", "fusion_lat": 0.0, "lon": -76.99017333333333}, {"fusion_lon": 0.0, "bike_id": "3145202484ce3f1fd6f17e82244202dd", "is_disabled": 0, "is_reserved": 0, "lat": 38.882463, "name": "3145202484ce3f1fd6f17e82244202dd", "rental_uris": {"ios": "https://dc.lft.to/lastmile_qr_scan", "android": "https://dc.lft.to/lastmile_qr_scan"}, "type": "electric_bike", "fusion_lat": 0.0, "lon": -76.9626175}, {"fusion_lon": 0.0, "bike_id": "85f7d3156d92cfe799ba9d069258d95c", "is_disabled": 0, "is_reserved": 0, "lat": 38.9203165, "name": "85f7d3156d92cfe799ba9d069258d95c", "rental_uris": {"ios": "https://dc.lft.to/lastmile_qr_scan", "android": "https://dc.lft.to/lastmile_qr_scan"}, "type": "electric_scooter", "fusion_lat": 0.0, "lon": -77.04196933333333}, {"fusion_lon": 0.0, "bike_id": "26e70880d308f268c653e49d09b0e35a", "is_disabled": 0, "is_reserved": 0, "lat": 38.88723933333333, "name": "26e70880d308f268c653e49d09b0e35a", "rental_uris": {"ios": "https://dc.lft.to/lastmile_qr_scan", "android": "https://dc.lft.to/lastmile_qr_scan"}, "type": "electric_scooter", "fusion_lat": 0.0, "lon": -77.00186716666667}, {"fusion_lon": 0.0, "bike_id": "b4709b4cb1001c63866f5de777304d9b", "is_disabled": 0, "is_reserved": 0, "lat": 38.895796833333335, "name": "b4709b4cb1001c63866f5de777304d9b", "rental_uris": {"ios": "https://dc.lft.to/lastmile_qr_scan", "android": "https://dc.lft.to/lastmile_qr_scan"}, "type": "electric_scooter", "fusion_lat": 0.0, "lon": -77.02965166666667}, {"fusion_lon": 0.0, "bike_id": "7d878cf27f817bece01a9c8c10e50763", "is_disabled": 0, "is_reserved": 0, "lat": 38.88764283333333, "name": "7d878cf27f817bece01a9c8c10e50763", "rental_uris": {"ios": "https://dc.lft.to/lastmile_qr_scan", "android": "https://dc.lft.to/lastmile_qr_scan"}, "type": "electric_scooter", "fusion_lat": 0.0, "lon": -77.000398}, {"fusion_lon": 0.0, "bike_id": "aea2156d85b1a216f795ee5ba8d1542c", "is_disabled": 0, "is_reserved": 0, "lat": 38.9223555, "name": "aea2156d85b1a216f795ee5ba8d1542c", "rental_uris": {"ios": "https://dc.lft.to/lastmile_qr_scan", "android": "https://dc.lft.to/lastmile_qr_scan"}, "type": "electric_scooter", "fusion_lat": 0.0, "lon": -77.02826233333333}, {"fusion_lon": 0.0, "bike_id": "e244fb2907b5a2b0cfaa41acf9b1d133", "is_disabled": 0, "is_reserved": 0, "lat": 38.91453166666667, "name": "e244fb2907b5a2b0cfaa41acf9b1d133", "rental_uris": {"ios": "https://dc.lft.to/lastmile_qr_scan", "android": "https://dc.lft.to/lastmile_qr_scan"}, "type": "electric_bike", "fusion_lat": 0.0, "lon": -76.97233366666667}, {"fusion_lon": 0.0, "bike_id": "6b89a7416b40a47e38d94acd61e00305", "is_disabled": 0, "is_reserved": 0, "lat": 38.93260883333333, "name": "6b89a7416b40a47e38d94acd61e00305", "rental_uris": {"ios": "https://dc.lft.to/lastmile_qr_scan", "android": "https://dc.lft.to/lastmile_qr_scan"}, "type": "electric_scooter", "fusion_lat": 0.0, "lon": -76.98876866666667}, {"fusion_lon": 0.0, "bike_id": "e38e7da2e2c64fab9cd42e94b146786c", "is_disabled": 0, "is_reserved": 0, "lat": 38.9175045, "name": "e38e7da2e2c64fab9cd42e94b146786c", "rental_uris": {"ios": "https://dc.lft.to/lastmile_qr_scan", "android": "https://dc.lft.to/lastmile_qr_scan"}, "type": "electric_scooter", "fusion_lat": 0.0, "lon": -77.028154}, {"fusion_lon": 0.0, "bike_id": "ddbd417bd6fd1cc0aa1d14e6ffa648b4", "is_disabled": 0, "is_reserved": 0, "lat": 38.8877085, "name": "ddbd417bd6fd1cc0aa1d14e6ffa648b4", "rental_uris": {"ios": "https://dc.lft.to/lastmile_qr_scan", "android": "https://dc.lft.to/lastmile_qr_scan"}, "type": "electric_scooter", "fusion_lat": 0.0, "lon": -76.97733166666667}, {"fusion_lon": 0.0, "bike_id": "98b80d13c7efdc30449b6b63387f2840", "is_disabled": 0, "is_reserved": 0, "lat": 38.921158166666665, "name": "98b80d13c7efdc30449b6b63387f2840", "rental_uris": {"ios": "https://dc.lft.to/lastmile_qr_scan", "android": "https://dc.lft.to/lastmile_qr_scan"}, "type": "electric_scooter", "fusion_lat": 0.0, "lon": -77.044329}, {"fusion_lon": 0.0, "bike_id": "878b1870f020bca7807a70ee00178a0c", "is_disabled": 0, "is_reserved": 0, "lat": 38.92351683333333, "name": "878b1870f020bca7807a70ee00178a0c", "rental_uris": {"ios": "https://dc.lft.to/lastmile_qr_scan", "android": "https://dc.lft.to/lastmile_qr_scan"}, "type": "electric_scooter", "fusion_lat": 0.0, "lon": -77.035349}, {"fusion_lon": 0.0, "bike_id": "e121a55c185bcbd1dc5a66195701ff26", "is_disabled": 0, "is_reserved": 0, "lat": 38.90030633333333, "name": "e121a55c185bcbd1dc5a66195701ff26", "rental_uris": {"ios": "https://dc.lft.to/lastmile_qr_scan", "android": "https://dc.lft.to/lastmile_qr_scan"}, "type": "electric_scooter", "fusion_lat": 0.0, "lon": -77.011809}, {"fusion_lon": 0.0, "bike_id": "1cb6efcaa1617cf3b8c759b64e200fa6", "is_disabled": 0, "is_reserved": 0, "lat": 38.9574375, "name": "1cb6efcaa1617cf3b8c759b64e200fa6", "rental_uris": {"ios": "https://dc.lft.to/lastmile_qr_scan", "android": "https://dc.lft.to/lastmile_qr_scan"}, "type": "electric_scooter", "fusion_lat": 0.0, "lon": -77.002216}, {"fusion_lon": 0.0, "bike_id": "f770f84891be7d116e0f141be8da2472", "is_disabled": 0, "is_reserved": 0, "lat": 38.883545166666664, "name": "f770f84891be7d116e0f141be8da2472", "rental_uris": {"ios": "https://dc.lft.to/lastmile_qr_scan", "android": "https://dc.lft.to/lastmile_qr_scan"}, "type": "electric_scooter", "fusion_lat": 0.0, "lon": -76.957663}, {"fusion_lon": 0.0, "bike_id": "b7abba699c593048931c774721e7b295", "is_disabled": 0, "is_reserved": 0, "lat": 38.8997005, "name": "b7abba699c593048931c774721e7b295", "rental_uris": {"ios": "https://dc.lft.to/lastmile_qr_scan", "android": "https://dc.lft.to/lastmile_qr_scan"}, "type": "electric_scooter", "fusion_lat": 0.0, "lon": -77.05563383333333}, {"fusion_lon": 0.0, "bike_id": "beb2024ca8c5287f342c86128d3710f1", "is_disabled": 0, "is_reserved": 0, "lat": 38.924606833333335, "name": "beb2024ca8c5287f342c86128d3710f1", "rental_uris": {"ios": "https://dc.lft.to/lastmile_qr_scan", "android": "https://dc.lft.to/lastmile_qr_scan"}, "type": "electric_scooter", "fusion_lat": 0.0, "lon": -76.99912}, {"fusion_lon": 0.0, "bike_id": "6ee89458adadf8a7470657b24c563751", "is_disabled": 0, "is_reserved": 0, "lat": 38.922563333333336, "name": "6ee89458adadf8a7470657b24c563751", "rental_uris": {"ios": "https://dc.lft.to/lastmile_qr_scan", "android": "https://dc.lft.to/lastmile_qr_scan"}, "type": "electric_scooter", "fusion_lat": 0.0, "lon": -77.01952233333333}, {"fusion_lon": 0.0, "bike_id": "82de7267a09ed7354cae5fbeb4f48324", "is_disabled": 0, "is_reserved": 0, "lat": 38.89930666666667, "name": "82de7267a09ed7354cae5fbeb4f48324", "rental_uris": {"ios": "https://dc.lft.to/lastmile_qr_scan", "android": "https://dc.lft.to/lastmile_qr_scan"}, "type": "electric_bike", "fusion_lat": 0.0, "lon": -77.00157}, {"fusion_lon": 0.0, "bike_id": "00d8193d48cc1b4cb0360dda1cea9ac5", "is_disabled": 0, "is_reserved": 0, "lat": 38.918092, "name": "00d8193d48cc1b4cb0360dda1cea9ac5", "rental_uris": {"ios": "https://dc.lft.to/lastmile_qr_scan", "android": "https://dc.lft.to/lastmile_qr_scan"}, "type": "electric_scooter", "fusion_lat": 0.0, "lon": -77.01158433333333}, {"fusion_lon": 0.0, "bike_id": "f61747e0ca742cc246ba3da9f5ad8a46", "is_disabled": 0, "is_reserved": 0, "lat": 38.913158, "name": "f61747e0ca742cc246ba3da9f5ad8a46", "rental_uris": {"ios": "https://dc.lft.to/lastmile_qr_scan", "android": "https://dc.lft.to/lastmile_qr_scan"}, "type": "electric_scooter", "fusion_lat": 0.0, "lon": -77.03636416666667}, {"fusion_lon": 0.0, "bike_id": "2c21489d472e51a7edf7f9764688d03f", "is_disabled": 0, "is_reserved": 0, "lat": 38.907833, "name": "2c21489d472e51a7edf7f9764688d03f", "rental_uris": {"ios": "https://dc.lft.to/lastmile_qr_scan", "android": "https://dc.lft.to/lastmile_qr_scan"}, "type": "electric_scooter", "fusion_lat": 0.0, "lon": -77.045001}, {"fusion_lon": 0.0, "bike_id": "06d95d05cfe4fcaa365a054ead68d0ee", "is_disabled": 0, "is_reserved": 0, "lat": 38.91927716666667, "name": "06d95d05cfe4fcaa365a054ead68d0ee", "rental_uris": {"ios": "https://dc.lft.to/lastmile_qr_scan", "android": "https://dc.lft.to/lastmile_qr_scan"}, "type": "electric_scooter", "fusion_lat": 0.0, "lon": -77.01785416666667}, {"fusion_lon": 0.0, "bike_id": "f4b03d8cf4d2f54d36248cc8431e42c9", "is_disabled": 0, "is_reserved": 0, "lat": 38.900955, "name": "f4b03d8cf4d2f54d36248cc8431e42c9", "rental_uris": {"ios": "https://dc.lft.to/lastmile_qr_scan", "android": "https://dc.lft.to/lastmile_qr_scan"}, "type": "electric_scooter", "fusion_lat": 0.0, "lon": -77.02712816666667}, {"fusion_lon": 0.0, "bike_id": "694ab35f89ab7b9ac516a1f9032b52ad", "is_disabled": 0, "is_reserved": 0, "lat": 38.919099833333334, "name": "694ab35f89ab7b9ac516a1f9032b52ad", "rental_uris": {"ios": "https://dc.lft.to/lastmile_qr_scan", "android": "https://dc.lft.to/lastmile_qr_scan"}, "type": "electric_scooter", "fusion_lat": 0.0, "lon": -77.04472883333334}, {"fusion_lon": 0.0, "bike_id": "94ff30fea9e67841a48c2ddbfa2c43aa", "is_disabled": 0, "is_reserved": 0, "lat": 38.91814133333333, "name": "94ff30fea9e67841a48c2ddbfa2c43aa", "rental_uris": {"ios": "https://dc.lft.to/lastmile_qr_scan", "android": "https://dc.lft.to/lastmile_qr_scan"}, "type": "electric_scooter", "fusion_lat": 0.0, "lon": -77.029342}, {"fusion_lon": 0.0, "bike_id": "46924a9efdd9e51024b7fd197dbf6a20", "is_disabled": 0, "is_reserved": 0, "lat": 38.9169995, "name": "46924a9efdd9e51024b7fd197dbf6a20", "rental_uris": {"ios": "https://dc.lft.to/lastmile_qr_scan", "android": "https://dc.lft.to/lastmile_qr_scan"}, "type": "electric_scooter", "fusion_lat": 0.0, "lon": -77.010339}, {"fusion_lon": 0.0, "bike_id": "00904524a87b52e35c7dc3b355c0799b", "is_disabled": 0, "is_reserved": 0, "lat": 38.9135405, "name": "00904524a87b52e35c7dc3b355c0799b", "rental_uris": {"ios": "https://dc.lft.to/lastmile_qr_scan", "android": "https://dc.lft.to/lastmile_qr_scan"}, "type": "electric_scooter", "fusion_lat": 0.0, "lon": -76.97137683333334}, {"fusion_lon": 0.0, "bike_id": "00f0592f46040c99e190e0bf1153318f", "is_disabled": 0, "is_reserved": 0, "lat": 38.920571, "name": "00f0592f46040c99e190e0bf1153318f", "rental_uris": {"ios": "https://dc.lft.to/lastmile_qr_scan", "android": "https://dc.lft.to/lastmile_qr_scan"}, "type": "electric_scooter", "fusion_lat": 0.0, "lon": -77.0418655}, {"fusion_lon": 0.0, "bike_id": "fb015769aeafba691f6dd0d3467592d9", "is_disabled": 0, "is_reserved": 0, "lat": 38.877931, "name": "fb015769aeafba691f6dd0d3467592d9", "rental_uris": {"ios": "https://dc.lft.to/lastmile_qr_scan", "android": "https://dc.lft.to/lastmile_qr_scan"}, "type": "electric_scooter", "fusion_lat": 0.0, "lon": -77.0012065}, {"fusion_lon": 0.0, "bike_id": "52607e3639e97298a443d909e9928066", "is_disabled": 0, "is_reserved": 0, "lat": 38.90614933333333, "name": "52607e3639e97298a443d909e9928066", "rental_uris": {"ios": "https://dc.lft.to/lastmile_qr_scan", "android": "https://dc.lft.to/lastmile_qr_scan"}, "type": "electric_scooter", "fusion_lat": 0.0, "lon": -77.05645533333333}, {"fusion_lon": 0.0, "bike_id": "871dd8022da6c066fec8351bb67a2695", "is_disabled": 0, "is_reserved": 0, "lat": 38.92456933333333, "name": "871dd8022da6c066fec8351bb67a2695", "rental_uris": {"ios": "https://dc.lft.to/lastmile_qr_scan", "android": "https://dc.lft.to/lastmile_qr_scan"}, "type": "electric_scooter", "fusion_lat": 0.0, "lon": -77.03283383333333}, {"fusion_lon": 0.0, "bike_id": "88675b9a43124102c8e795e0f62fcf2e", "is_disabled": 0, "is_reserved": 0, "lat": 38.914807, "name": "88675b9a43124102c8e795e0f62fcf2e", "rental_uris": {"ios": "https://dc.lft.to/lastmile_qr_scan", "android": "https://dc.lft.to/lastmile_qr_scan"}, "type": "electric_scooter", "fusion_lat": 0.0, "lon": -77.03659066666667}, {"fusion_lon": 0.0, "bike_id": "c78f20287c1039e47bab745e052ad4e1", "is_disabled": 0, "is_reserved": 0, "lat": 38.924119166666664, "name": "c78f20287c1039e47bab745e052ad4e1", "rental_uris": {"ios": "https://dc.lft.to/lastmile_qr_scan", "android": "https://dc.lft.to/lastmile_qr_scan"}, "type": "electric_scooter", "fusion_lat": 0.0, "lon": -77.02009133333334}, {"fusion_lon": 0.0, "bike_id": "196034fe9880a8a1aa7140ee6eac19e5", "is_disabled": 0, "is_reserved": 0, "lat": 38.912008666666665, "name": "196034fe9880a8a1aa7140ee6eac19e5", "rental_uris": {"ios": "https://dc.lft.to/lastmile_qr_scan", "android": "https://dc.lft.to/lastmile_qr_scan"}, "type": "electric_scooter", "fusion_lat": 0.0, "lon": -77.04031616666667}, {"fusion_lon": 0.0, "bike_id": "e12392903e8130c846a12b686f49227e", "is_disabled": 0, "is_reserved": 0, "lat": 38.89622416666667, "name": "e12392903e8130c846a12b686f49227e", "rental_uris": {"ios": "https://dc.lft.to/lastmile_qr_scan", "android": "https://dc.lft.to/lastmile_qr_scan"}, "type": "electric_bike", "fusion_lat": 0.0, "lon": -76.9075255}, {"fusion_lon": 0.0, "bike_id": "824dad1ea33028664c4a81250b3cd91e", "is_disabled": 0, "is_reserved": 0, "lat": 38.897508333333334, "name": "824dad1ea33028664c4a81250b3cd91e", "rental_uris": {"ios": "https://dc.lft.to/lastmile_qr_scan", "android": "https://dc.lft.to/lastmile_qr_scan"}, "type": "electric_scooter", "fusion_lat": 0.0, "lon": -77.02694133333334}, {"fusion_lon": 0.0, "bike_id": "5cb6ba973cb367d90decf1d34182cff2", "is_disabled": 0, "is_reserved": 0, "lat": 38.934032333333334, "name": "5cb6ba973cb367d90decf1d34182cff2", "rental_uris": {"ios": "https://dc.lft.to/lastmile_qr_scan", "android": "https://dc.lft.to/lastmile_qr_scan"}, "type": "electric_scooter", "fusion_lat": 0.0, "lon": -77.04547983333333}, {"fusion_lon": 0.0, "bike_id": "f3a7a0e168e6a8b3182b8e07ba19fa61", "is_disabled": 0, "is_reserved": 0, "lat": 38.86937433333333, "name": "f3a7a0e168e6a8b3182b8e07ba19fa61", "rental_uris": {"ios": "https://dc.lft.to/lastmile_qr_scan", "android": "https://dc.lft.to/lastmile_qr_scan"}, "type": "electric_scooter", "fusion_lat": 0.0, "lon": -76.9773965}, {"fusion_lon": 0.0, "bike_id": "662d0246c14dc14301533d16317f7295", "is_disabled": 0, "is_reserved": 0, "lat": 38.907821166666665, "name": "662d0246c14dc14301533d16317f7295", "rental_uris": {"ios": "https://dc.lft.to/lastmile_qr_scan", "android": "https://dc.lft.to/lastmile_qr_scan"}, "type": "electric_scooter", "fusion_lat": 0.0, "lon": -76.9986395}, {"fusion_lon": 0.0, "bike_id": "624a9cfae101a3c5aac7cbcfa7316545", "is_disabled": 0, "is_reserved": 0, "lat": 38.92157916666667, "name": "624a9cfae101a3c5aac7cbcfa7316545", "rental_uris": {"ios": "https://dc.lft.to/lastmile_qr_scan", "android": "https://dc.lft.to/lastmile_qr_scan"}, "type": "electric_scooter", "fusion_lat": 0.0, "lon": -77.043382}, {"fusion_lon": 0.0, "bike_id": "5b010bf3b92e097faa29d11903044ccb", "is_disabled": 0, "is_reserved": 0, "lat": 38.89590233333333, "name": "5b010bf3b92e097faa29d11903044ccb", "rental_uris": {"ios": "https://dc.lft.to/lastmile_qr_scan", "android": "https://dc.lft.to/lastmile_qr_scan"}, "type": "electric_scooter", "fusion_lat": 0.0, "lon": -77.02620966666667}, {"fusion_lon": 0.0, "bike_id": "a61c3d0b3154c4a8fa85e13da674b0f2", "is_disabled": 0, "is_reserved": 0, "lat": 38.9062095, "name": "a61c3d0b3154c4a8fa85e13da674b0f2", "rental_uris": {"ios": "https://dc.lft.to/lastmile_qr_scan", "android": "https://dc.lft.to/lastmile_qr_scan"}, "type": "electric_scooter", "fusion_lat": 0.0, "lon": -77.02709583333333}, {"fusion_lon": 0.0, "bike_id": "23bac0b1658ca09f86a6bb63f75037e9", "is_disabled": 0, "is_reserved": 0, "lat": 38.923907, "name": "23bac0b1658ca09f86a6bb63f75037e9", "rental_uris": {"ios": "https://dc.lft.to/lastmile_qr_scan", "android": "https://dc.lft.to/lastmile_qr_scan"}, "type": "electric_scooter", "fusion_lat": 0.0, "lon": -77.04303166666666}, {"fusion_lon": 0.0, "bike_id": "4b8faf4abd173788d58f4d80c450d81e", "is_disabled": 0, "is_reserved": 0, "lat": 38.9175195, "name": "4b8faf4abd173788d58f4d80c450d81e", "rental_uris": {"ios": "https://dc.lft.to/lastmile_qr_scan", "android": "https://dc.lft.to/lastmile_qr_scan"}, "type": "electric_scooter", "fusion_lat": 0.0, "lon": -77.04163416666667}, {"fusion_lon": 0.0, "bike_id": "c41494c745ed66a200554bbf48153fc9", "is_disabled": 0, "is_reserved": 0, "lat": 38.89329633333333, "name": "c41494c745ed66a200554bbf48153fc9", "rental_uris": {"ios": "https://dc.lft.to/lastmile_qr_scan", "android": "https://dc.lft.to/lastmile_qr_scan"}, "type": "electric_scooter", "fusion_lat": 0.0, "lon": -76.939318}, {"fusion_lon": 0.0, "bike_id": "a107d06978710420cace292659d57f76", "is_disabled": 0, "is_reserved": 0, "lat": 38.92249066666667, "name": "a107d06978710420cace292659d57f76", "rental_uris": {"ios": "https://dc.lft.to/lastmile_qr_scan", "android": "https://dc.lft.to/lastmile_qr_scan"}, "type": "electric_scooter", "fusion_lat": 0.0, "lon": -77.07700366666667}, {"fusion_lon": 0.0, "bike_id": "4231024b2193e67ad040c0e7f6792597", "is_disabled": 0, "is_reserved": 0, "lat": 38.875785, "name": "4231024b2193e67ad040c0e7f6792597", "rental_uris": {"ios": "https://dc.lft.to/lastmile_qr_scan", "android": "https://dc.lft.to/lastmile_qr_scan"}, "type": "electric_bike", "fusion_lat": 0.0, "lon": -77.234096}, {"fusion_lon": 0.0, "bike_id": "b1b2fc6827714dcd4aa14e87100a6b37", "is_disabled": 0, "is_reserved": 0, "lat": 38.9081225, "name": "b1b2fc6827714dcd4aa14e87100a6b37", "rental_uris": {"ios": "https://dc.lft.to/lastmile_qr_scan", "android": "https://dc.lft.to/lastmile_qr_scan"}, "type": "electric_scooter", "fusion_lat": 0.0, "lon": -77.029781}, {"fusion_lon": 0.0, "bike_id": "b8752eb2847529ede9a76092e4e9c159", "is_disabled": 0, "is_reserved": 0, "lat": 38.8662455, "name": "b8752eb2847529ede9a76092e4e9c159", "rental_uris": {"ios": "https://dc.lft.to/lastmile_qr_scan", "android": "https://dc.lft.to/lastmile_qr_scan"}, "type": "electric_bike", "fusion_lat": 0.0, "lon": -76.94570016666667}, {"fusion_lon": 0.0, "bike_id": "099d8b0e2be9a21c9649718cead07c98", "is_disabled": 0, "is_reserved": 0, "lat": 38.908283833333336, "name": "099d8b0e2be9a21c9649718cead07c98", "rental_uris": {"ios": "https://dc.lft.to/lastmile_qr_scan", "android": "https://dc.lft.to/lastmile_qr_scan"}, "type": "electric_scooter", "fusion_lat": 0.0, "lon": -76.99184383333333}, {"fusion_lon": 0.0, "bike_id": "470591d224d2362a609a0a01ca04dc5d", "is_disabled": 0, "is_reserved": 0, "lat": 38.90511633333333, "name": "470591d224d2362a609a0a01ca04dc5d", "rental_uris": {"ios": "https://dc.lft.to/lastmile_qr_scan", "android": "https://dc.lft.to/lastmile_qr_scan"}, "type": "electric_scooter", "fusion_lat": 0.0, "lon": -77.05133816666667}, {"fusion_lon": 0.0, "bike_id": "a975db797be9a1851dedcf0c17d0a5a6", "is_disabled": 0, "is_reserved": 0, "lat": 38.921081666666666, "name": "a975db797be9a1851dedcf0c17d0a5a6", "rental_uris": {"ios": "https://dc.lft.to/lastmile_qr_scan", "android": "https://dc.lft.to/lastmile_qr_scan"}, "type": "electric_scooter", "fusion_lat": 0.0, "lon": -77.01761983333333}, {"fusion_lon": 0.0, "bike_id": "5b7e66595524a1e9ed7ab221f3d90ef6", "is_disabled": 0, "is_reserved": 0, "lat": 38.92411766666667, "name": "5b7e66595524a1e9ed7ab221f3d90ef6", "rental_uris": {"ios": "https://dc.lft.to/lastmile_qr_scan", "android": "https://dc.lft.to/lastmile_qr_scan"}, "type": "electric_scooter", "fusion_lat": 0.0, "lon": -77.021314}, {"fusion_lon": 0.0, "bike_id": "3621c712b3f17bcedb29354e8e42b4b4", "is_disabled": 0, "is_reserved": 0, "lat": 38.915408166666666, "name": "3621c712b3f17bcedb29354e8e42b4b4", "rental_uris": {"ios": "https://dc.lft.to/lastmile_qr_scan", "android": "https://dc.lft.to/lastmile_qr_scan"}, "type": "electric_scooter", "fusion_lat": 0.0, "lon": -77.07547283333334}, {"fusion_lon": 0.0, "bike_id": "1d00db7ab4a5f98ff7b4206ff7e4b619", "is_disabled": 0, "is_reserved": 0, "lat": 38.94154916666667, "name": "1d00db7ab4a5f98ff7b4206ff7e4b619", "rental_uris": {"ios": "https://dc.lft.to/lastmile_qr_scan", "android": "https://dc.lft.to/lastmile_qr_scan"}, "type": "electric_bike", "fusion_lat": 0.0, "lon": -77.00199633333334}, {"fusion_lon": 0.0, "bike_id": "70314492a0d477ed75da0b61b76c7ae6", "is_disabled": 0, "is_reserved": 0, "lat": 38.88553233333333, "name": "70314492a0d477ed75da0b61b76c7ae6", "rental_uris": {"ios": "https://dc.lft.to/lastmile_qr_scan", "android": "https://dc.lft.to/lastmile_qr_scan"}, "type": "electric_scooter", "fusion_lat": 0.0, "lon": -77.01991566666666}, {"fusion_lon": 0.0, "bike_id": "44014056339657bbf580ba3cba70157e", "is_disabled": 0, "is_reserved": 0, "lat": 38.91150616666667, "name": "44014056339657bbf580ba3cba70157e", "rental_uris": {"ios": "https://dc.lft.to/lastmile_qr_scan", "android": "https://dc.lft.to/lastmile_qr_scan"}, "type": "electric_scooter", "fusion_lat": 0.0, "lon": -76.98728966666667}, {"fusion_lon": 0.0, "bike_id": "d6dc8fd2c6fae7c2c5538cc51da3b63e", "is_disabled": 0, "is_reserved": 0, "lat": 38.91190533333334, "name": "d6dc8fd2c6fae7c2c5538cc51da3b63e", "rental_uris": {"ios": "https://dc.lft.to/lastmile_qr_scan", "android": "https://dc.lft.to/lastmile_qr_scan"}, "type": "electric_scooter", "fusion_lat": 0.0, "lon": -77.06617633333333}, {"fusion_lon": 0.0, "bike_id": "5b5973dca68c25a461ac01425ed4828d", "is_disabled": 0, "is_reserved": 0, "lat": 38.9142545, "name": "5b5973dca68c25a461ac01425ed4828d", "rental_uris": {"ios": "https://dc.lft.to/lastmile_qr_scan", "android": "https://dc.lft.to/lastmile_qr_scan"}, "type": "electric_scooter", "fusion_lat": 0.0, "lon": -77.06690783333333}, {"fusion_lon": 0.0, "bike_id": "8b4f41becdd9aa3cfcb78d2e95e83dee", "is_disabled": 0, "is_reserved": 0, "lat": 38.91472183333333, "name": "8b4f41becdd9aa3cfcb78d2e95e83dee", "rental_uris": {"ios": "https://dc.lft.to/lastmile_qr_scan", "android": "https://dc.lft.to/lastmile_qr_scan"}, "type": "electric_scooter", "fusion_lat": 0.0, "lon": -77.03883833333333}, {"fusion_lon": 0.0, "bike_id": "2b465e09da04900e41679bf49367cd63", "is_disabled": 0, "is_reserved": 0, "lat": 38.921082, "name": "2b465e09da04900e41679bf49367cd63", "rental_uris": {"ios": "https://dc.lft.to/lastmile_qr_scan", "android": "https://dc.lft.to/lastmile_qr_scan"}, "type": "electric_scooter", "fusion_lat": 0.0, "lon": -77.04672366666667}, {"fusion_lon": 0.0, "bike_id": "b29259246001b873c0583261d0f24901", "is_disabled": 0, "is_reserved": 0, "lat": 38.998903, "name": "b29259246001b873c0583261d0f24901", "rental_uris": {"ios": "https://dc.lft.to/lastmile_qr_scan", "android": "https://dc.lft.to/lastmile_qr_scan"}, "type": "electric_bike", "fusion_lat": 0.0, "lon": -76.91078233333333}, {"fusion_lon": 0.0, "bike_id": "3873e203c424cdcf238405256b1f81eb", "is_disabled": 0, "is_reserved": 0, "lat": 38.88189583333333, "name": "3873e203c424cdcf238405256b1f81eb", "rental_uris": {"ios": "https://dc.lft.to/lastmile_qr_scan", "android": "https://dc.lft.to/lastmile_qr_scan"}, "type": "electric_scooter", "fusion_lat": 0.0, "lon": -77.02093433333333}, {"fusion_lon": 0.0, "bike_id": "f82d2bba6de44e0afc9598c89edce898", "is_disabled": 0, "is_reserved": 0, "lat": 38.921214, "name": "f82d2bba6de44e0afc9598c89edce898", "rental_uris": {"ios": "https://dc.lft.to/lastmile_qr_scan", "android": "https://dc.lft.to/lastmile_qr_scan"}, "type": "electric_scooter", "fusion_lat": 0.0, "lon": -77.03664683333334}, {"fusion_lon": 0.0, "bike_id": "7bb65926a620c98e7f740039a2b6d00c", "is_disabled": 0, "is_reserved": 0, "lat": 38.894909166666665, "name": "7bb65926a620c98e7f740039a2b6d00c", "rental_uris": {"ios": "https://dc.lft.to/lastmile_qr_scan", "android": "https://dc.lft.to/lastmile_qr_scan"}, "type": "electric_scooter", "fusion_lat": 0.0, "lon": -77.0550915}, {"fusion_lon": 0.0, "bike_id": "3fec058c2d30da7d68481ccbd179975a", "is_disabled": 0, "is_reserved": 0, "lat": 38.9170815, "name": "3fec058c2d30da7d68481ccbd179975a", "rental_uris": {"ios": "https://dc.lft.to/lastmile_qr_scan", "android": "https://dc.lft.to/lastmile_qr_scan"}, "type": "electric_scooter", "fusion_lat": 0.0, "lon": -77.0920025}, {"fusion_lon": 0.0, "bike_id": "5273739b4294af6f3d9043d5915b8d66", "is_disabled": 0, "is_reserved": 0, "lat": 38.908618833333335, "name": "5273739b4294af6f3d9043d5915b8d66", "rental_uris": {"ios": "https://dc.lft.to/lastmile_qr_scan", "android": "https://dc.lft.to/lastmile_qr_scan"}, "type": "electric_scooter", "fusion_lat": 0.0, "lon": -77.01835383333334}, {"fusion_lon": 0.0, "bike_id": "81c04e6e4118204c8ba35957db185247", "is_disabled": 0, "is_reserved": 0, "lat": 38.89242483333334, "name": "81c04e6e4118204c8ba35957db185247", "rental_uris": {"ios": "https://dc.lft.to/lastmile_qr_scan", "android": "https://dc.lft.to/lastmile_qr_scan"}, "type": "electric_scooter", "fusion_lat": 0.0, "lon": -77.03184566666667}, {"fusion_lon": 0.0, "bike_id": "9ff245e8c32a4d01516e19ed385bae97", "is_disabled": 0, "is_reserved": 0, "lat": 38.918696833333335, "name": "9ff245e8c32a4d01516e19ed385bae97", "rental_uris": {"ios": "https://dc.lft.to/lastmile_qr_scan", "android": "https://dc.lft.to/lastmile_qr_scan"}, "type": "electric_bike", "fusion_lat": 0.0, "lon": -77.01630233333333}, {"fusion_lon": 0.0, "bike_id": "5dcd98067e91678d8b90d4e3e8705701", "is_disabled": 0, "is_reserved": 0, "lat": 38.9200755, "name": "5dcd98067e91678d8b90d4e3e8705701", "rental_uris": {"ios": "https://dc.lft.to/lastmile_qr_scan", "android": "https://dc.lft.to/lastmile_qr_scan"}, "type": "electric_scooter", "fusion_lat": 0.0, "lon": -77.02168566666667}, {"fusion_lon": 0.0, "bike_id": "f4482ba824133c8b32d9dc800b0e28d6", "is_disabled": 0, "is_reserved": 0, "lat": 38.891600833333335, "name": "f4482ba824133c8b32d9dc800b0e28d6", "rental_uris": {"ios": "https://dc.lft.to/lastmile_qr_scan", "android": "https://dc.lft.to/lastmile_qr_scan"}, "type": "electric_scooter", "fusion_lat": 0.0, "lon": -76.99148866666667}, {"fusion_lon": 0.0, "bike_id": "107c643fbaf3558f3ae66a2fc0b6c2b8", "is_disabled": 0, "is_reserved": 0, "lat": 38.881523, "name": "107c643fbaf3558f3ae66a2fc0b6c2b8", "rental_uris": {"ios": "https://dc.lft.to/lastmile_qr_scan", "android": "https://dc.lft.to/lastmile_qr_scan"}, "type": "electric_bike", "fusion_lat": 0.0, "lon": -77.01304283333333}, {"fusion_lon": 0.0, "bike_id": "d673376e53ca3a23dc8e72024cd83606", "is_disabled": 0, "is_reserved": 0, "lat": 38.9535395, "name": "d673376e53ca3a23dc8e72024cd83606", "rental_uris": {"ios": "https://dc.lft.to/lastmile_qr_scan", "android": "https://dc.lft.to/lastmile_qr_scan"}, "type": "electric_bike", "fusion_lat": 0.0, "lon": -76.98090266666667}, {"fusion_lon": 0.0, "bike_id": "b901c2eee3a2f0ff41c3c345ecbe7cd3", "is_disabled": 0, "is_reserved": 0, "lat": 38.900727333333336, "name": "b901c2eee3a2f0ff41c3c345ecbe7cd3", "rental_uris": {"ios": "https://dc.lft.to/lastmile_qr_scan", "android": "https://dc.lft.to/lastmile_qr_scan"}, "type": "electric_scooter", "fusion_lat": 0.0, "lon": -77.04597933333334}, {"fusion_lon": 0.0, "bike_id": "15d8470d05b8e6d6902b42d28f9500cb", "is_disabled": 0, "is_reserved": 0, "lat": 38.922473333333336, "name": "15d8470d05b8e6d6902b42d28f9500cb", "rental_uris": {"ios": "https://dc.lft.to/lastmile_qr_scan", "android": "https://dc.lft.to/lastmile_qr_scan"}, "type": "electric_scooter", "fusion_lat": 0.0, "lon": -77.00834183333333}, {"fusion_lon": 0.0, "bike_id": "10651e224a4ed04d61e0ce30f57af12a", "is_disabled": 0, "is_reserved": 0, "lat": 38.902977, "name": "10651e224a4ed04d61e0ce30f57af12a", "rental_uris": {"ios": "https://dc.lft.to/lastmile_qr_scan", "android": "https://dc.lft.to/lastmile_qr_scan"}, "type": "electric_scooter", "fusion_lat": 0.0, "lon": -77.04671683333333}, {"fusion_lon": 0.0, "bike_id": "4f914ca7fd0ce6ad2da36654cc3b9b24", "is_disabled": 0, "is_reserved": 0, "lat": 38.902533166666664, "name": "4f914ca7fd0ce6ad2da36654cc3b9b24", "rental_uris": {"ios": "https://dc.lft.to/lastmile_qr_scan", "android": "https://dc.lft.to/lastmile_qr_scan"}, "type": "electric_scooter", "fusion_lat": 0.0, "lon": -77.0391535}, {"fusion_lon": 0.0, "bike_id": "d4d46afc6a0fecc6f25f6842927b0311", "is_disabled": 0, "is_reserved": 0, "lat": 38.91185016666667, "name": "d4d46afc6a0fecc6f25f6842927b0311", "rental_uris": {"ios": "https://dc.lft.to/lastmile_qr_scan", "android": "https://dc.lft.to/lastmile_qr_scan"}, "type": "electric_scooter", "fusion_lat": 0.0, "lon": -77.03213266666667}, {"fusion_lon": 0.0, "bike_id": "f791049555912eb6a02d6f035d347d62", "is_disabled": 0, "is_reserved": 0, "lat": 38.923257, "name": "f791049555912eb6a02d6f035d347d62", "rental_uris": {"ios": "https://dc.lft.to/lastmile_qr_scan", "android": "https://dc.lft.to/lastmile_qr_scan"}, "type": "electric_scooter", "fusion_lat": 0.0, "lon": -77.04027483333333}, {"fusion_lon": 0.0, "bike_id": "b819e1285ad15b39245e58cc941b1648", "is_disabled": 0, "is_reserved": 0, "lat": 38.91816433333334, "name": "b819e1285ad15b39245e58cc941b1648", "rental_uris": {"ios": "https://dc.lft.to/lastmile_qr_scan", "android": "https://dc.lft.to/lastmile_qr_scan"}, "type": "electric_scooter", "fusion_lat": 0.0, "lon": -77.04976033333334}, {"fusion_lon": 0.0, "bike_id": "b9ef7bd14e16d810c3bffd722ba4eb03", "is_disabled": 0, "is_reserved": 0, "lat": 38.899854, "name": "b9ef7bd14e16d810c3bffd722ba4eb03", "rental_uris": {"ios": "https://dc.lft.to/lastmile_qr_scan", "android": "https://dc.lft.to/lastmile_qr_scan"}, "type": "electric_scooter", "fusion_lat": 0.0, "lon": -77.01934983333334}, {"fusion_lon": 0.0, "bike_id": "18a153821597942411958d36a78e2367", "is_disabled": 0, "is_reserved": 0, "lat": 38.912356, "name": "18a153821597942411958d36a78e2367", "rental_uris": {"ios": "https://dc.lft.to/lastmile_qr_scan", "android": "https://dc.lft.to/lastmile_qr_scan"}, "type": "electric_scooter", "fusion_lat": 0.0, "lon": -77.03831416666667}, {"fusion_lon": 0.0, "bike_id": "0825ffa78de15994e72bc3be48b9e0eb", "is_disabled": 0, "is_reserved": 0, "lat": 38.86708266666667, "name": "0825ffa78de15994e72bc3be48b9e0eb", "rental_uris": {"ios": "https://dc.lft.to/lastmile_qr_scan", "android": "https://dc.lft.to/lastmile_qr_scan"}, "type": "electric_bike", "fusion_lat": 0.0, "lon": -76.98948783333333}, {"fusion_lon": 0.0, "bike_id": "db90c9a41d0df18e62a1204914baf389", "is_disabled": 0, "is_reserved": 0, "lat": 38.89135866666667, "name": "db90c9a41d0df18e62a1204914baf389", "rental_uris": {"ios": "https://dc.lft.to/lastmile_qr_scan", "android": "https://dc.lft.to/lastmile_qr_scan"}, "type": "electric_scooter", "fusion_lat": 0.0, "lon": -76.99948816666667}, {"fusion_lon": 0.0, "bike_id": "52ea138fcc5797a1dbfa87dc065dcf79", "is_disabled": 0, "is_reserved": 0, "lat": 38.89955333333333, "name": "52ea138fcc5797a1dbfa87dc065dcf79", "rental_uris": {"ios": "https://dc.lft.to/lastmile_qr_scan", "android": "https://dc.lft.to/lastmile_qr_scan"}, "type": "electric_scooter", "fusion_lat": 0.0, "lon": -77.02583016666667}, {"fusion_lon": 0.0, "bike_id": "180af2ab26cfb357e3059847afaa9fd1", "is_disabled": 0, "is_reserved": 0, "lat": 38.9209675, "name": "180af2ab26cfb357e3059847afaa9fd1", "rental_uris": {"ios": "https://dc.lft.to/lastmile_qr_scan", "android": "https://dc.lft.to/lastmile_qr_scan"}, "type": "electric_scooter", "fusion_lat": 0.0, "lon": -76.99908566666667}, {"fusion_lon": 0.0, "bike_id": "531d4825ca8fe302eef7fcf4869e0b38", "is_disabled": 0, "is_reserved": 0, "lat": 38.901321, "name": "531d4825ca8fe302eef7fcf4869e0b38", "rental_uris": {"ios": "https://dc.lft.to/lastmile_qr_scan", "android": "https://dc.lft.to/lastmile_qr_scan"}, "type": "electric_scooter", "fusion_lat": 0.0, "lon": -76.99105466666667}, {"fusion_lon": 0.0, "bike_id": "f72786a4740951ceadc931ef8f079cc2", "is_disabled": 0, "is_reserved": 0, "lat": 38.902715, "name": "f72786a4740951ceadc931ef8f079cc2", "rental_uris": {"ios": "https://dc.lft.to/lastmile_qr_scan", "android": "https://dc.lft.to/lastmile_qr_scan"}, "type": "electric_scooter", "fusion_lat": 0.0, "lon": -77.0176455}, {"fusion_lon": 0.0, "bike_id": "52b9434d476cc0aa55f7f02edbce8001", "is_disabled": 0, "is_reserved": 0, "lat": 38.9395445, "name": "52b9434d476cc0aa55f7f02edbce8001", "rental_uris": {"ios": "https://dc.lft.to/lastmile_qr_scan", "android": "https://dc.lft.to/lastmile_qr_scan"}, "type": "electric_scooter", "fusion_lat": 0.0, "lon": -77.07247083333333}, {"fusion_lon": 0.0, "bike_id": "8e86f6e6abb5bb04a46b6ad9eb32b963", "is_disabled": 0, "is_reserved": 0, "lat": 38.92121216666666, "name": "8e86f6e6abb5bb04a46b6ad9eb32b963", "rental_uris": {"ios": "https://dc.lft.to/lastmile_qr_scan", "android": "https://dc.lft.to/lastmile_qr_scan"}, "type": "electric_scooter", "fusion_lat": 0.0, "lon": -77.01208583333333}, {"fusion_lon": 0.0, "bike_id": "25644dd6100f536324cfb767a7457f97", "is_disabled": 0, "is_reserved": 0, "lat": 38.924778833333335, "name": "25644dd6100f536324cfb767a7457f97", "rental_uris": {"ios": "https://dc.lft.to/lastmile_qr_scan", "android": "https://dc.lft.to/lastmile_qr_scan"}, "type": "electric_scooter", "fusion_lat": 0.0, "lon": -77.008884}, {"fusion_lon": 0.0, "bike_id": "3e03fe7ba7cbae835c891d7b09f87633", "is_disabled": 0, "is_reserved": 0, "lat": 38.91044333333333, "name": "3e03fe7ba7cbae835c891d7b09f87633", "rental_uris": {"ios": "https://dc.lft.to/lastmile_qr_scan", "android": "https://dc.lft.to/lastmile_qr_scan"}, "type": "electric_scooter", "fusion_lat": 0.0, "lon": -77.02759833333333}, {"fusion_lon": 0.0, "bike_id": "e6ab4b854c3a481598c6390207bf9fc4", "is_disabled": 0, "is_reserved": 0, "lat": 38.9290945, "name": "e6ab4b854c3a481598c6390207bf9fc4", "rental_uris": {"ios": "https://dc.lft.to/lastmile_qr_scan", "android": "https://dc.lft.to/lastmile_qr_scan"}, "type": "electric_scooter", "fusion_lat": 0.0, "lon": -77.02344283333333}, {"fusion_lon": 0.0, "bike_id": "9061ff0f3dfb45f846afab3dffb108bc", "is_disabled": 0, "is_reserved": 0, "lat": 38.9214575, "name": "9061ff0f3dfb45f846afab3dffb108bc", "rental_uris": {"ios": "https://dc.lft.to/lastmile_qr_scan", "android": "https://dc.lft.to/lastmile_qr_scan"}, "type": "electric_scooter", "fusion_lat": 0.0, "lon": -77.0178385}, {"fusion_lon": 0.0, "bike_id": "b7251ec17a999076b54c5fa1f55f7081", "is_disabled": 0, "is_reserved": 0, "lat": 38.93084116666667, "name": "b7251ec17a999076b54c5fa1f55f7081", "rental_uris": {"ios": "https://dc.lft.to/lastmile_qr_scan", "android": "https://dc.lft.to/lastmile_qr_scan"}, "type": "electric_scooter", "fusion_lat": 0.0, "lon": -77.0279205}, {"fusion_lon": 0.0, "bike_id": "7c0f9b52580513b079e4f523a7a12bcf", "is_disabled": 0, "is_reserved": 0, "lat": 38.92092316666667, "name": "7c0f9b52580513b079e4f523a7a12bcf", "rental_uris": {"ios": "https://dc.lft.to/lastmile_qr_scan", "android": "https://dc.lft.to/lastmile_qr_scan"}, "type": "electric_scooter", "fusion_lat": 0.0, "lon": -77.06266466666666}, {"fusion_lon": 0.0, "bike_id": "df010ae06b6f8f20659f7beca8d6b9cd", "is_disabled": 0, "is_reserved": 0, "lat": 38.9040005, "name": "df010ae06b6f8f20659f7beca8d6b9cd", "rental_uris": {"ios": "https://dc.lft.to/lastmile_qr_scan", "android": "https://dc.lft.to/lastmile_qr_scan"}, "type": "electric_scooter", "fusion_lat": 0.0, "lon": -77.0377285}, {"fusion_lon": 0.0, "bike_id": "3da453832601a04ceef92b37ce44d5ed", "is_disabled": 0, "is_reserved": 0, "lat": 38.935344666666666, "name": "3da453832601a04ceef92b37ce44d5ed", "rental_uris": {"ios": "https://dc.lft.to/lastmile_qr_scan", "android": "https://dc.lft.to/lastmile_qr_scan"}, "type": "electric_scooter", "fusion_lat": 0.0, "lon": -77.0348495}, {"fusion_lon": 0.0, "bike_id": "d157582c0e5f9f7be3e3be00c7cda5ce", "is_disabled": 0, "is_reserved": 0, "lat": 38.92411, "name": "d157582c0e5f9f7be3e3be00c7cda5ce", "rental_uris": {"ios": "https://dc.lft.to/lastmile_qr_scan", "android": "https://dc.lft.to/lastmile_qr_scan"}, "type": "electric_scooter", "fusion_lat": 0.0, "lon": -77.02004666666667}, {"fusion_lon": 0.0, "bike_id": "ea02d617afc3bd6294f6de6e104c9519", "is_disabled": 0, "is_reserved": 0, "lat": 38.88517016666667, "name": "ea02d617afc3bd6294f6de6e104c9519", "rental_uris": {"ios": "https://dc.lft.to/lastmile_qr_scan", "android": "https://dc.lft.to/lastmile_qr_scan"}, "type": "electric_scooter", "fusion_lat": 0.0, "lon": -76.92442083333333}, {"fusion_lon": 0.0, "bike_id": "c58162e802102b24786d3dd8690cba9d", "is_disabled": 0, "is_reserved": 0, "lat": 38.902621, "name": "c58162e802102b24786d3dd8690cba9d", "rental_uris": {"ios": "https://dc.lft.to/lastmile_qr_scan", "android": "https://dc.lft.to/lastmile_qr_scan"}, "type": "electric_scooter", "fusion_lat": 0.0, "lon": -76.97707233333334}, {"fusion_lon": 0.0, "bike_id": "330b9548efbbd25756c3a2237dbacb66", "is_disabled": 0, "is_reserved": 0, "lat": 38.91405316666667, "name": "330b9548efbbd25756c3a2237dbacb66", "rental_uris": {"ios": "https://dc.lft.to/lastmile_qr_scan", "android": "https://dc.lft.to/lastmile_qr_scan"}, "type": "electric_scooter", "fusion_lat": 0.0, "lon": -77.01805483333334},