{"data": {"bikes": [{"lon": -76.99472716666666, "bike_id": "eed91c003cb8e32a492bb9cb93fafaae", "lat": 38.8621705, "fusion_lon": 0.0, "fusion_lat": 0.0, "type": "electric_scooter", "name": "eed91c003cb8e32a492bb9cb93fafaae", "is_disabled": 0, "rental_uris": {"ios": "https://dc.lft.to/lastmile_qr_scan", "android": "https://dc.lft.to/lastmile_qr_scan"}, "is_reserved": 0}, {"lon": -77.04702933333333, "bike_id": "429f9eaf2dc7b830199d2cf2b2bc7e7d", "lat": 38.92231316666667, "fusion_lon": 0.0, "fusion_lat": 0.0, "type": "electric_scooter", "name": "429f9eaf2dc7b830199d2cf2b2bc7e7d", "is_disabled": 0, "rental_uris": {"ios": "https://dc.lft.to/lastmile_qr_scan", "android": "https://dc.lft.to/lastmile_qr_scan"}, "is_reserved": 0}, {"lon": -77.03326666666666, "bike_id": "743b74b3f020d26536b2b934d1cbf5fc", "lat": 38.9471545, "fusion_lon": 0.0, "fusion_lat": 0.0, "type": "electric_scooter", "name": "743b74b3f020d26536b2b934d1cbf5fc", "is_disabled": 0, "rental_uris": {"ios": "https://dc.lft.to/lastmile_qr_scan", "android": "https://dc.lft.to/lastmile_qr_scan"}, "is_reserved": 0}, {"lon": -77.00523883333334, "bike_id": "be88e413319815fc75e7fb5c65cd7383", "lat": 38.879329, "fusion_lon": 0.0, "fusion_lat": 0.0, "type": "electric_scooter", "name": "be88e413319815fc75e7fb5c65cd7383", "is_disabled": 0, "rental_uris": {"ios": "https://dc.lft.to/lastmile_qr_scan", "android": "https://dc.lft.to/lastmile_qr_scan"}, "is_reserved": 0}, {"lon": -76.98090966666666, "bike_id": "f296ba23b5baed58bd3fe6fc97dad834", "lat": 38.88132733333333, "fusion_lon": 0.0, "fusion_lat": 0.0, "type": "electric_bike", "name": "f296ba23b5baed58bd3fe6fc97dad834", "is_disabled": 0, "rental_uris": {"ios": "https://dc.lft.to/lastmile_qr_scan", "android": "https://dc.lft.to/lastmile_qr_scan"}, "is_reserved": 0}, {"lon": -77.01136833333334, "bike_id": "ca350808a5c5552f71201152fd8410ac", "lat": 38.91259566666667, "fusion_lon": 0.0, "fusion_lat": 0.0, "type": "electric_scooter", "name": "ca350808a5c5552f71201152fd8410ac", "is_disabled": 0, "rental_uris": {"ios": "https://dc.lft.to/lastmile_qr_scan", "android": "https://dc.lft.to/lastmile_qr_scan"}, "is_reserved": 0}, {"lon": -77.04189166666667, "bike_id": "0b00052539bad7db57c3e78bbefb7dca", "lat": 38.92630283333333, "fusion_lon": 0.0, "fusion_lat": 0.0, "type": "electric_scooter", "name": "0b00052539bad7db57c3e78bbefb7dca", "is_disabled": 0, "rental_uris": {"ios": "https://dc.lft.to/lastmile_qr_scan", "android": "https://dc.lft.to/lastmile_qr_scan"}, "is_reserved": 0}, {"lon": -76.93366283333333, "bike_id": "181b4a4e873fad4a8c94cec62a2a5aa5", "lat": 38.89910316666667, "fusion_lon": 0.0, "fusion_lat": 0.0, "type": "electric_scooter", "name": "181b4a4e873fad4a8c94cec62a2a5aa5", "is_disabled": 0, "rental_uris": {"ios": "https://dc.lft.to/lastmile_qr_scan", "android": "https://dc.lft.to/lastmile_qr_scan"}, "is_reserved": 0}, {"lon": -77.04139283333333, "bike_id": "6765c1d344355f3721f199582500a289", "lat": 38.925302333333335, "fusion_lon": 0.0, "fusion_lat": 0.0, "type": "electric_scooter", "name": "6765c1d344355f3721f199582500a289", "is_disabled": 0, "rental_uris": {"ios": "https://dc.lft.to/lastmile_qr_scan", "android": "https://dc.lft.to/lastmile_qr_scan"}, "is_reserved": 0}, {"lon": -77.04834466666667, "bike_id": "894b5b8b237ebb663fbe63846579a53f", "lat": 38.918855, "fusion_lon": 0.0, "fusion_lat": 0.0, "type": "electric_scooter", "name": "894b5b8b237ebb663fbe63846579a53f", "is_disabled": 0, "rental_uris": {"ios": "https://dc.lft.to/lastmile_qr_scan", "android": "https://dc.lft.to/lastmile_qr_scan"}, "is_reserved": 0}, {"lon": -76.95191266666667, "bike_id": "76d4d35579fca92f92ccfd77211cf790", "lat": 38.900000666666664, "fusion_lon": 0.0, "fusion_lat": 0.0, "type": "electric_scooter", "name": "76d4d35579fca92f92ccfd77211cf790", "is_disabled": 0, "rental_uris": {"ios": "https://dc.lft.to/lastmile_qr_scan", "android": "https://dc.lft.to/lastmile_qr_scan"}, "is_reserved": 0}, {"lon": -77.0410385, "bike_id": "807ff510e2f3a47d415294dd91049673", "lat": 38.9185335, "fusion_lon": 0.0, "fusion_lat": 0.0, "type": "electric_scooter", "name": "807ff510e2f3a47d415294dd91049673", "is_disabled": 0, "rental_uris": {"ios": "https://dc.lft.to/lastmile_qr_scan", "android": "https://dc.lft.to/lastmile_qr_scan"}, "is_reserved": 0}, {"lon": -77.023743, "bike_id": "a9b53aefe3da11f367f9bb8f397996d9", "lat": 38.9183045, "fusion_lon": 0.0, "fusion_lat": 0.0, "type": "electric_scooter", "name": "a9b53aefe3da11f367f9bb8f397996d9", "is_disabled": 0, "rental_uris": {"ios": "https://dc.lft.to/lastmile_qr_scan", "android": "https://dc.lft.to/lastmile_qr_scan"}, "is_reserved": 0}, {"lon": -77.02961383333333, "bike_id": "7a7b23d97672047862a6026a217cbcdb", "lat": 38.925664166666664, "fusion_lon": 0.0, "fusion_lat": 0.0, "type": "electric_scooter", "name": "7a7b23d97672047862a6026a217cbcdb", "is_disabled": 0, "rental_uris": {"ios": "https://dc.lft.to/lastmile_qr_scan", "android": "https://dc.lft.to/lastmile_qr_scan"}, "is_reserved": 0}, {"lon": -76.99838833333334, "bike_id": "84b90fa0caf3cbf7d93c54584768fbbb", "lat": 38.90237233333333, "fusion_lon": 0.0, "fusion_lat": 0.0, "type": "electric_scooter", "name": "84b90fa0caf3cbf7d93c54584768fbbb", "is_disabled": 0, "rental_uris": {"ios": "https://dc.lft.to/lastmile_qr_scan", "android": "https://dc.lft.to/lastmile_qr_scan"}, "is_reserved": 0}, {"lon": -77.00558566666666, "bike_id": "fb1039858d599d78c12a0c24518721fb", "lat": 38.8784705, "fusion_lon": 0.0, "fusion_lat": 0.0, "type": "electric_scooter", "name": "fb1039858d599d78c12a0c24518721fb", "is_disabled": 0, "rental_uris": {"ios": "https://dc.lft.to/lastmile_qr_scan", "android": "https://dc.lft.to/lastmile_qr_scan"}, "is_reserved": 0}, {"lon": -77.0385785, "bike_id": "402e6a1df13039ef0dd79c82e3be29ba", "lat": 38.907739, "fusion_lon": 0.0, "fusion_lat": 0.0, "type": "electric_scooter", "name": "402e6a1df13039ef0dd79c82e3be29ba", "is_disabled": 0, "rental_uris": {"ios": "https://dc.lft.to/lastmile_qr_scan", "android": "https://dc.lft.to/lastmile_qr_scan"}, "is_reserved": 0}, {"lon": -77.00065083333334, "bike_id": "b0887cf8f12305749d2c260870eed2b9", "lat": 38.9071235, "fusion_lon": 0.0, "fusion_lat": 0.0, "type": "electric_scooter", "name": "b0887cf8f12305749d2c260870eed2b9", "is_disabled": 0, "rental_uris": {"ios": "https://dc.lft.to/lastmile_qr_scan", "android": "https://dc.lft.to/lastmile_qr_scan"}, "is_reserved": 0}, {"lon": -77.03474733333333, "bike_id": "92ff5b2de2c096ee14f93990bfd46570", "lat": 38.928710333333335, "fusion_lon": 0.0, "fusion_lat": 0.0, "type": "electric_scooter", "name": "92ff5b2de2c096ee14f93990bfd46570", "is_disabled": 0, "rental_uris": {"ios": "https://dc.lft.to/lastmile_qr_scan", "android": "https://dc.lft.to/lastmile_qr_scan"}, "is_reserved": 0}, {"lon": -76.93177166666666, "bike_id": "433b32e031eadcc5a15befa025db8875", "lat": 38.898808333333335, "fusion_lon": 0.0, "fusion_lat": 0.0, "type": "electric_scooter", "name": "433b32e031eadcc5a15befa025db8875", "is_disabled": 0, "rental_uris": {"ios": "https://dc.lft.to/lastmile_qr_scan", "android": "https://dc.lft.to/lastmile_qr_scan"}, "is_reserved": 0}, {"lon": -76.94959066666667, "bike_id": "96ed6cd043fc493e67f448d4e119400d", "lat": 38.8944035, "fusion_lon": 0.0, "fusion_lat": 0.0, "type": "electric_scooter", "name": "96ed6cd043fc493e67f448d4e119400d", "is_disabled": 0, "rental_uris": {"ios": "https://dc.lft.to/lastmile_qr_scan", "android": "https://dc.lft.to/lastmile_qr_scan"}, "is_reserved": 0}, {"lon": -77.038063, "bike_id": "5f9263b32af76b96df25d11777c799fc", "lat": 38.920654666666664, "fusion_lon": 0.0, "fusion_lat": 0.0, "type": "electric_scooter", "name": "5f9263b32af76b96df25d11777c799fc", "is_disabled": 0, "rental_uris": {"ios": "https://dc.lft.to/lastmile_qr_scan", "android": "https://dc.lft.to/lastmile_qr_scan"}, "is_reserved": 0}, {"lon": -76.935454, "bike_id": "bb0d3e39572c1d1bf593c748c606d2e2", "lat": 38.95545666666666, "fusion_lon": 0.0, "fusion_lat": 0.0, "type": "electric_bike", "name": "bb0d3e39572c1d1bf593c748c606d2e2", "is_disabled": 0, "rental_uris": {"ios": "https://dc.lft.to/lastmile_qr_scan", "android": "https://dc.lft.to/lastmile_qr_scan"}, "is_reserved": 0}, {"lon": -76.92526016666666, "bike_id": "b3d8bda15da0362d384f6921bacc6c67", "lat": 38.8834415, "fusion_lon": 0.0, "fusion_lat": 0.0, "type": "electric_bike", "name": "b3d8bda15da0362d384f6921bacc6c67", "is_disabled": 0, "rental_uris": {"ios": "https://dc.lft.to/lastmile_qr_scan", "android": "https://dc.lft.to/lastmile_qr_scan"}, "is_reserved": 0}, {"lon": -77.05037433333334, "bike_id": "32400215e16541dc2a9032b5b0c7f71d", "lat": 38.92383983333333, "fusion_lon": 0.0, "fusion_lat": 0.0, "type": "electric_scooter", "name": "32400215e16541dc2a9032b5b0c7f71d", "is_disabled": 0, "rental_uris": {"ios": "https://dc.lft.to/lastmile_qr_scan", "android": "https://dc.lft.to/lastmile_qr_scan"}, "is_reserved": 0}, {"lon": -77.04465683333333, "bike_id": "ddf8489443deb59c256115bf34f33a2c", "lat": 38.91462, "fusion_lon": 0.0, "fusion_lat": 0.0, "type": "electric_scooter", "name": "ddf8489443deb59c256115bf34f33a2c", "is_disabled": 0, "rental_uris": {"ios": "https://dc.lft.to/lastmile_qr_scan", "android": "https://dc.lft.to/lastmile_qr_scan"}, "is_reserved": 0}, {"lon": -77.0277755, "bike_id": "3f9f485e44745c87402e8011369ad7ef", "lat": 38.927761333333336, "fusion_lon": 0.0, "fusion_lat": 0.0, "type": "electric_scooter", "name": "3f9f485e44745c87402e8011369ad7ef", "is_disabled": 0, "rental_uris": {"ios": "https://dc.lft.to/lastmile_qr_scan", "android": "https://dc.lft.to/lastmile_qr_scan"}, "is_reserved": 0}, {"lon": -77.041158, "bike_id": "f93e92c2769882217077efd41054314b", "lat": 38.944126, "fusion_lon": 0.0, "fusion_lat": 0.0, "type": "electric_bike", "name": "f93e92c2769882217077efd41054314b", "is_disabled": 0, "rental_uris": {"ios": "https://dc.lft.to/lastmile_qr_scan", "android": "https://dc.lft.to/lastmile_qr_scan"}, "is_reserved": 0}, {"lon": -77.05205233333334, "bike_id": "d14f6303d55a311b4af1bd7109c9f188", "lat": 38.924794166666665, "fusion_lon": 0.0, "fusion_lat": 0.0, "type": "electric_scooter", "name": "d14f6303d55a311b4af1bd7109c9f188", "is_disabled": 0, "rental_uris": {"ios": "https://dc.lft.to/lastmile_qr_scan", "android": "https://dc.lft.to/lastmile_qr_scan"}, "is_reserved": 0}, {"lon": -77.08053416666667, "bike_id": "d55e849c2dc7caf3b71ac727cf20678e", "lat": 38.920616833333334, "fusion_lon": 0.0, "fusion_lat": 0.0, "type": "electric_bike", "name": "d55e849c2dc7caf3b71ac727cf20678e", "is_disabled": 0, "rental_uris": {"ios": "https://dc.lft.to/lastmile_qr_scan", "android": "https://dc.lft.to/lastmile_qr_scan"}, "is_reserved": 0}, {"lon": -77.0250895, "bike_id": "4e59e417d6bc464ce4673a2b18a0a03f", "lat": 38.93410733333333, "fusion_lon": 0.0, "fusion_lat": 0.0, "type": "electric_bike", "name": "4e59e417d6bc464ce4673a2b18a0a03f", "is_disabled": 0, "rental_uris": {"ios": "https://dc.lft.to/lastmile_qr_scan", "android": "https://dc.lft.to/lastmile_qr_scan"}, "is_reserved": 0}, {"lon": -76.995804, "bike_id": "baa142f54c367f1f6dfbcd0686e2b48f", "lat": 38.85293516666667, "fusion_lon": 0.0, "fusion_lat": 0.0, "type": "electric_scooter", "name": "baa142f54c367f1f6dfbcd0686e2b48f", "is_disabled": 0, "rental_uris": {"ios": "https://dc.lft.to/lastmile_qr_scan", "android": "https://dc.lft.to/lastmile_qr_scan"}, "is_reserved": 0}, {"lon": -76.98558416666667, "bike_id": "b60713660eca6cbf9a0115446257888f", "lat": 38.9103245, "fusion_lon": 0.0, "fusion_lat": 0.0, "type": "electric_scooter", "name": "b60713660eca6cbf9a0115446257888f", "is_disabled": 0, "rental_uris": {"ios": "https://dc.lft.to/lastmile_qr_scan", "android": "https://dc.lft.to/lastmile_qr_scan"}, "is_reserved": 0}, {"lon": -77.05403983333333, "bike_id": "b3f864303271fb638ac532674b711506", "lat": 38.901526, "fusion_lon": 0.0, "fusion_lat": 0.0, "type": "electric_scooter", "name": "b3f864303271fb638ac532674b711506", "is_disabled": 0, "rental_uris": {"ios": "https://dc.lft.to/lastmile_qr_scan", "android": "https://dc.lft.to/lastmile_qr_scan"}, "is_reserved": 0}, {"lon": -77.0298935, "bike_id": "5c32c2f612bd1b38a71b4d4ee9dffc4e", "lat": 38.90711433333333, "fusion_lon": 0.0, "fusion_lat": 0.0, "type": "electric_scooter", "name": "5c32c2f612bd1b38a71b4d4ee9dffc4e", "is_disabled": 0, "rental_uris": {"ios": "https://dc.lft.to/lastmile_qr_scan", "android": "https://dc.lft.to/lastmile_qr_scan"}, "is_reserved": 0}, {"lon": -76.98891733333333, "bike_id": "c010ea63c42eb8ac8cf429d61b95a0c6", "lat": 38.86656816666667, "fusion_lon": 0.0, "fusion_lat": 0.0, "type": "electric_scooter", "name": "c010ea63c42eb8ac8cf429d61b95a0c6", "is_disabled": 0, "rental_uris": {"ios": "https://dc.lft.to/lastmile_qr_scan", "android": "https://dc.lft.to/lastmile_qr_scan"}, "is_reserved": 0}, {"lon": -77.02086716666666, "bike_id": "c3027de2968273d6a5ad920386e82130", "lat": 38.936350833333336, "fusion_lon": 0.0, "fusion_lat": 0.0, "type": "electric_scooter", "name": "c3027de2968273d6a5ad920386e82130", "is_disabled": 0, "rental_uris": {"ios": "https://dc.lft.to/lastmile_qr_scan", "android": "https://dc.lft.to/lastmile_qr_scan"}, "is_reserved": 0}, {"lon": -77.03824766666666, "bike_id": "6f2b46e029407d33610ff9f1138062ec", "lat": 38.916950666666665, "fusion_lon": 0.0, "fusion_lat": 0.0, "type": "electric_scooter", "name": "6f2b46e029407d33610ff9f1138062ec", "is_disabled": 0, "rental_uris": {"ios": "https://dc.lft.to/lastmile_qr_scan", "android": "https://dc.lft.to/lastmile_qr_scan"}, "is_reserved": 0}, {"lon": -77.024009, "bike_id": "b86bd104522002a5fcbeff2d54e944bf", "lat": 38.909500666666666, "fusion_lon": 0.0, "fusion_lat": 0.0, "type": "electric_scooter", "name": "b86bd104522002a5fcbeff2d54e944bf", "is_disabled": 0, "rental_uris": {"ios": "https://dc.lft.to/lastmile_qr_scan", "android": "https://dc.lft.to/lastmile_qr_scan"}, "is_reserved": 0}, {"lon": -77.0267515, "bike_id": "14857598b64e3d5cf3fffdb885312a34", "lat": 38.90217083333334, "fusion_lon": 0.0, "fusion_lat": 0.0, "type": "electric_scooter", "name": "14857598b64e3d5cf3fffdb885312a34", "is_disabled": 0, "rental_uris": {"ios": "https://dc.lft.to/lastmile_qr_scan", "android": "https://dc.lft.to/lastmile_qr_scan"}, "is_reserved": 0}, {"lon": -77.03476083333334, "bike_id": "7411698dcb3ceb65063115db10aa7c25", "lat": 38.884896, "fusion_lon": 0.0, "fusion_lat": 0.0, "type": "electric_scooter", "name": "7411698dcb3ceb65063115db10aa7c25", "is_disabled": 0, "rental_uris": {"ios": "https://dc.lft.to/lastmile_qr_scan", "android": "https://dc.lft.to/lastmile_qr_scan"}, "is_reserved": 0}, {"lon": -77.04166216666667, "bike_id": "8df2dcfc698033f58f619125ea6f78c3", "lat": 38.90323333333333, "fusion_lon": 0.0, "fusion_lat": 0.0, "type": "electric_scooter", "name": "8df2dcfc698033f58f619125ea6f78c3", "is_disabled": 0, "rental_uris": {"ios": "https://dc.lft.to/lastmile_qr_scan", "android": "https://dc.lft.to/lastmile_qr_scan"}, "is_reserved": 0}, {"lon": -76.97681, "bike_id": "f40593e370f5fe662dd52509089124e4", "lat": 38.896189, "fusion_lon": 0.0, "fusion_lat": 0.0, "type": "electric_scooter", "name": "f40593e370f5fe662dd52509089124e4", "is_disabled": 0, "rental_uris": {"ios": "https://dc.lft.to/lastmile_qr_scan", "android": "https://dc.lft.to/lastmile_qr_scan"}, "is_reserved": 0}, {"lon": -77.03367233333333, "bike_id": "58f9658272d3898715cff268699c21a5", "lat": 38.90269416666667, "fusion_lon": 0.0, "fusion_lat": 0.0, "type": "electric_scooter", "name": "58f9658272d3898715cff268699c21a5", "is_disabled": 0, "rental_uris": {"ios": "https://dc.lft.to/lastmile_qr_scan", "android": "https://dc.lft.to/lastmile_qr_scan"}, "is_reserved": 0}, {"lon": -77.02169716666667, "bike_id": "1e63f46e73999f3233fd1c177eca9170", "lat": 38.94290183333333, "fusion_lon": 0.0, "fusion_lat": 0.0, "type": "electric_scooter", "name": "1e63f46e73999f3233fd1c177eca9170", "is_disabled": 0, "rental_uris": {"ios": "https://dc.lft.to/lastmile_qr_scan", "android": "https://dc.lft.to/lastmile_qr_scan"}, "is_reserved": 0}, {"lon": -77.029798, "bike_id": "1ec23f5b448d22c0bfa6676ff5ebb5c9", "lat": 38.93062483333333, "fusion_lon": 0.0, "fusion_lat": 0.0, "type": "electric_scooter", "name": "1ec23f5b448d22c0bfa6676ff5ebb5c9", "is_disabled": 0, "rental_uris": {"ios": "https://dc.lft.to/lastmile_qr_scan", "android": "https://dc.lft.to/lastmile_qr_scan"}, "is_reserved": 0}, {"lon": -77.02654716666666, "bike_id": "d531e321d3ecb7b6802f19c07228e669", "lat": 38.929761666666664, "fusion_lon": 0.0, "fusion_lat": 0.0, "type": "electric_scooter", "name": "d531e321d3ecb7b6802f19c07228e669", "is_disabled": 0, "rental_uris": {"ios": "https://dc.lft.to/lastmile_qr_scan", "android": "https://dc.lft.to/lastmile_qr_scan"}, "is_reserved": 0}, {"lon": -76.931748, "bike_id": "2fa7be46912b2c42e8691d518d830480", "lat": 38.898816833333335, "fusion_lon": 0.0, "fusion_lat": 0.0, "type": "electric_scooter", "name": "2fa7be46912b2c42e8691d518d830480", "is_disabled": 0, "rental_uris": {"ios": "https://dc.lft.to/lastmile_qr_scan", "android": "https://dc.lft.to/lastmile_qr_scan"}, "is_reserved": 0}, {"lon": -77.03238333333333, "bike_id": "308e27e19536f0e72e6e204553712d66", "lat": 38.8974825, "fusion_lon": 0.0, "fusion_lat": 0.0, "type": "electric_bike", "name": "308e27e19536f0e72e6e204553712d66", "is_disabled": 0, "rental_uris": {"ios": "https://dc.lft.to/lastmile_qr_scan", "android": "https://dc.lft.to/lastmile_qr_scan"}, "is_reserved": 0}, {"lon": -76.95014016666667, "bike_id": "1449ca096afb6205bfa38aa056646bf4", "lat": 38.89398333333333, "fusion_lon": 0.0, "fusion_lat": 0.0, "type": "electric_scooter", "name": "1449ca096afb6205bfa38aa056646bf4", "is_disabled": 0, "rental_uris": {"ios": "https://dc.lft.to/lastmile_qr_scan", "android": "https://dc.lft.to/lastmile_qr_scan"}, "is_reserved": 0}, {"lon": -77.043202, "bike_id": "325e5cbf41dc88cba58f1077e35401ec", "lat": 38.918766, "fusion_lon": 0.0, "fusion_lat": 0.0, "type": "electric_scooter", "name": "325e5cbf41dc88cba58f1077e35401ec", "is_disabled": 0, "rental_uris": {"ios": "https://dc.lft.to/lastmile_qr_scan", "android": "https://dc.lft.to/lastmile_qr_scan"}, "is_reserved": 0}, {"lon": -76.98536716666666, "bike_id": "04e7c1dcc2fbe32b586f674e160d1b67", "lat": 38.91022866666667, "fusion_lon": 0.0, "fusion_lat": 0.0, "type": "electric_scooter", "name": "04e7c1dcc2fbe32b586f674e160d1b67", "is_disabled": 0, "rental_uris": {"ios": "https://dc.lft.to/lastmile_qr_scan", "android": "https://dc.lft.to/lastmile_qr_scan"}, "is_reserved": 0}, {"lon": -77.02693433333333, "bike_id": "d751941171adf9f0b0a57826bab218f5", "lat": 38.948892666666666, "fusion_lon": 0.0, "fusion_lat": 0.0, "type": "electric_scooter", "name": "d751941171adf9f0b0a57826bab218f5", "is_disabled": 0, "rental_uris": {"ios": "https://dc.lft.to/lastmile_qr_scan", "android": "https://dc.lft.to/lastmile_qr_scan"}, "is_reserved": 0}, {"lon": -77.0366735, "bike_id": "d39794f1093e271b6ef32e5ed9aecda0", "lat": 38.92109166666667, "fusion_lon": 0.0, "fusion_lat": 0.0, "type": "electric_scooter", "name": "d39794f1093e271b6ef32e5ed9aecda0", "is_disabled": 0, "rental_uris": {"ios": "https://dc.lft.to/lastmile_qr_scan", "android": "https://dc.lft.to/lastmile_qr_scan"}, "is_reserved": 0}, {"lon": -77.02682166666666, "bike_id": "f7335f8c9aee44292b346c817c3cbb39", "lat": 38.984896666666664, "fusion_lon": 0.0, "fusion_lat": 0.0, "type": "electric_scooter", "name": "f7335f8c9aee44292b346c817c3cbb39", "is_disabled": 0, "rental_uris": {"ios": "https://dc.lft.to/lastmile_qr_scan", "android": "https://dc.lft.to/lastmile_qr_scan"}, "is_reserved": 0}, {"lon": -77.04259266666666, "bike_id": "43008b6b37a60814445f4b5854a3d40a", "lat": 38.91698566666667, "fusion_lon": 0.0, "fusion_lat": 0.0, "type": "electric_scooter", "name": "43008b6b37a60814445f4b5854a3d40a", "is_disabled": 0, "rental_uris": {"ios": "https://dc.lft.to/lastmile_qr_scan", "android": "https://dc.lft.to/lastmile_qr_scan"}, "is_reserved": 0}, {"lon": -77.015514, "bike_id": "3bb76cb074ca6b556d5b8c570ba55539", "lat": 38.8833625, "fusion_lon": 0.0, "fusion_lat": 0.0, "type": "electric_scooter", "name": "3bb76cb074ca6b556d5b8c570ba55539", "is_disabled": 0, "rental_uris": {"ios": "https://dc.lft.to/lastmile_qr_scan", "android": "https://dc.lft.to/lastmile_qr_scan"}, "is_reserved": 0}, {"lon": -77.04492833333333, "bike_id": "9a21c511bd6d84212c0ae52e4db375eb", "lat": 38.907302666666666, "fusion_lon": 0.0, "fusion_lat": 0.0, "type": "electric_scooter", "name": "9a21c511bd6d84212c0ae52e4db375eb", "is_disabled": 0, "rental_uris": {"ios": "https://dc.lft.to/lastmile_qr_scan", "android": "https://dc.lft.to/lastmile_qr_scan"}, "is_reserved": 0}, {"lon": -77.0022265, "bike_id": "248876f8ab505980ad56daccfd634b60", "lat": 38.89206733333333, "fusion_lon": 0.0, "fusion_lat": 0.0, "type": "electric_scooter", "name": "248876f8ab505980ad56daccfd634b60", "is_disabled": 0, "rental_uris": {"ios": "https://dc.lft.to/lastmile_qr_scan", "android": "https://dc.lft.to/lastmile_qr_scan"}, "is_reserved": 0}, {"lon": -77.02710233333333, "bike_id": "0245b7bcd67e1c5e85ee97d022a21f08", "lat": 38.90670016666667, "fusion_lon": 0.0, "fusion_lat": 0.0, "type": "electric_scooter", "name": "0245b7bcd67e1c5e85ee97d022a21f08", "is_disabled": 0, "rental_uris": {"ios": "https://dc.lft.to/lastmile_qr_scan", "android": "https://dc.lft.to/lastmile_qr_scan"}, "is_reserved": 0}, {"lon": -77.021583, "bike_id": "e7f160566840c4972032883affb89cf6", "lat": 38.92602466666666, "fusion_lon": 0.0, "fusion_lat": 0.0, "type": "electric_scooter", "name": "e7f160566840c4972032883affb89cf6", "is_disabled": 0, "rental_uris": {"ios": "https://dc.lft.to/lastmile_qr_scan", "android": "https://dc.lft.to/lastmile_qr_scan"}, "is_reserved": 0}, {"lon": -77.06357166666666, "bike_id": "8c5255044a58f697876c26355fc3f141", "lat": 38.944428333333335, "fusion_lon": 0.0, "fusion_lat": 0.0, "type": "electric_scooter", "name": "8c5255044a58f697876c26355fc3f141", "is_disabled": 0, "rental_uris": {"ios": "https://dc.lft.to/lastmile_qr_scan", "android": "https://dc.lft.to/lastmile_qr_scan"}, "is_reserved": 0}, {"lon": -77.04467533333333, "bike_id": "110f890a166414bc3bffa1542f7de20e", "lat": 38.900437, "fusion_lon": 0.0, "fusion_lat": 0.0, "type": "electric_scooter", "name": "110f890a166414bc3bffa1542f7de20e", "is_disabled": 0, "rental_uris": {"ios": "https://dc.lft.to/lastmile_qr_scan", "android": "https://dc.lft.to/lastmile_qr_scan"}, "is_reserved": 0}, {"lon": -77.0318245, "bike_id": "a493b929d37e906220c107e2b6d5c5b3", "lat": 38.884085, "fusion_lon": 0.0, "fusion_lat": 0.0, "type": "electric_scooter", "name": "a493b929d37e906220c107e2b6d5c5b3", "is_disabled": 0, "rental_uris": {"ios": "https://dc.lft.to/lastmile_qr_scan", "android": "https://dc.lft.to/lastmile_qr_scan"}, "is_reserved": 0}, {"lon": -77.02172183333333, "bike_id": "32665ff50fc0eb75e89fd88b3a78e9e6", "lat": 38.942912166666666, "fusion_lon": 0.0, "fusion_lat": 0.0, "type": "electric_scooter", "name": "32665ff50fc0eb75e89fd88b3a78e9e6", "is_disabled": 0, "rental_uris": {"ios": "https://dc.lft.to/lastmile_qr_scan", "android": "https://dc.lft.to/lastmile_qr_scan"}, "is_reserved": 0}, {"lon": -77.001373, "bike_id": "e160030465f5aa553c597f252a7f2607", "lat": 38.84281, "fusion_lon": 0.0, "fusion_lat": 0.0, "type": "electric_scooter", "name": "e160030465f5aa553c597f252a7f2607", "is_disabled": 0, "rental_uris": {"ios": "https://dc.lft.to/lastmile_qr_scan", "android": "https://dc.lft.to/lastmile_qr_scan"}, "is_reserved": 0}, {"lon": -76.986135, "bike_id": "d9db81c918aca35145c323ef1e7d7f95", "lat": 38.905888833333336, "fusion_lon": 0.0, "fusion_lat": 0.0, "type": "electric_scooter", "name": "d9db81c918aca35145c323ef1e7d7f95", "is_disabled": 0, "rental_uris": {"ios": "https://dc.lft.to/lastmile_qr_scan", "android": "https://dc.lft.to/lastmile_qr_scan"}, "is_reserved": 0}, {"lon": -77.04495716666666, "bike_id": "4b411857b703e5fa0b7060f2be274b17", "lat": 38.90718966666667, "fusion_lon": 0.0, "fusion_lat": 0.0, "type": "electric_scooter", "name": "4b411857b703e5fa0b7060f2be274b17", "is_disabled": 0, "rental_uris": {"ios": "https://dc.lft.to/lastmile_qr_scan", "android": "https://dc.lft.to/lastmile_qr_scan"}, "is_reserved": 0}, {"lon": -77.0402085, "bike_id": "d3f27d9bc857fc72ed0c42073a7e1156", "lat": 38.91603383333333, "fusion_lon": 0.0, "fusion_lat": 0.0, "type": "electric_scooter", "name": "d3f27d9bc857fc72ed0c42073a7e1156", "is_disabled": 0, "rental_uris": {"ios": "https://dc.lft.to/lastmile_qr_scan", "android": "https://dc.lft.to/lastmile_qr_scan"}, "is_reserved": 0}, {"lon": -77.02173133333334, "bike_id": "33bc38cc8c4a3c64f3d175dfdc1bd2bf", "lat": 38.90196233333333, "fusion_lon": 0.0, "fusion_lat": 0.0, "type": "electric_scooter", "name": "33bc38cc8c4a3c64f3d175dfdc1bd2bf", "is_disabled": 0, "rental_uris": {"ios": "https://dc.lft.to/lastmile_qr_scan", "android": "https://dc.lft.to/lastmile_qr_scan"}, "is_reserved": 0}, {"lon": -77.03780933333333, "bike_id": "1a75e234a24636a3c5791da90c1a02cf", "lat": 38.925821, "fusion_lon": 0.0, "fusion_lat": 0.0, "type": "electric_scooter", "name": "1a75e234a24636a3c5791da90c1a02cf", "is_disabled": 0, "rental_uris": {"ios": "https://dc.lft.to/lastmile_qr_scan", "android": "https://dc.lft.to/lastmile_qr_scan"}, "is_reserved": 0}, {"lon": -77.0516035, "bike_id": "a9571edab880846070df475e932c84aa", "lat": 38.903144, "fusion_lon": 0.0, "fusion_lat": 0.0, "type": "electric_scooter", "name": "a9571edab880846070df475e932c84aa", "is_disabled": 0, "rental_uris": {"ios": "https://dc.lft.to/lastmile_qr_scan", "android": "https://dc.lft.to/lastmile_qr_scan"}, "is_reserved": 0}, {"lon": -76.98832583333333, "bike_id": "e7933bb26bda77a65c4e504cec2b79f6", "lat": 38.90069416666667, "fusion_lon": 0.0, "fusion_lat": 0.0, "type": "electric_scooter", "name": "e7933bb26bda77a65c4e504cec2b79f6", "is_disabled": 0, "rental_uris": {"ios": "https://dc.lft.to/lastmile_qr_scan", "android": "https://dc.lft.to/lastmile_qr_scan"}, "is_reserved": 0}, {"lon": -77.02468583333334, "bike_id": "ce4c206a4306adb7275ea285df5eee7c", "lat": 38.9169355, "fusion_lon": 0.0, "fusion_lat": 0.0, "type": "electric_scooter", "name": "ce4c206a4306adb7275ea285df5eee7c", "is_disabled": 0, "rental_uris": {"ios": "https://dc.lft.to/lastmile_qr_scan", "android": "https://dc.lft.to/lastmile_qr_scan"}, "is_reserved": 0}, {"lon": -77.03862483333333, "bike_id": "7dff2fbb743ed3d979d391042dcdb4ba", "lat": 38.917077166666665, "fusion_lon": 0.0, "fusion_lat": 0.0, "type": "electric_scooter", "name": "7dff2fbb743ed3d979d391042dcdb4ba", "is_disabled": 0, "rental_uris": {"ios": "https://dc.lft.to/lastmile_qr_scan", "android": "https://dc.lft.to/lastmile_qr_scan"}, "is_reserved": 0}, {"lon": -77.06099566666667, "bike_id": "83df5477ea451f0c1c64469cd3b49e40", "lat": 38.943692666666664, "fusion_lon": 0.0, "fusion_lat": 0.0, "type": "electric_scooter", "name": "83df5477ea451f0c1c64469cd3b49e40", "is_disabled": 0, "rental_uris": {"ios": "https://dc.lft.to/lastmile_qr_scan", "android": "https://dc.lft.to/lastmile_qr_scan"}, "is_reserved": 0}, {"lon": -76.98370033333333, "bike_id": "0ea0fb5534fc50c2a53b6d9c42335bf5", "lat": 38.8914205, "fusion_lon": 0.0, "fusion_lat": 0.0, "type": "electric_scooter", "name": "0ea0fb5534fc50c2a53b6d9c42335bf5", "is_disabled": 0, "rental_uris": {"ios": "https://dc.lft.to/lastmile_qr_scan", "android": "https://dc.lft.to/lastmile_qr_scan"}, "is_reserved": 0}, {"lon": -77.03194083333334, "bike_id": "fcf74f744ed74b69c7d54752828c7c2a", "lat": 38.936026, "fusion_lon": 0.0, "fusion_lat": 0.0, "type": "electric_scooter", "name": "fcf74f744ed74b69c7d54752828c7c2a", "is_disabled": 0, "rental_uris": {"ios": "https://dc.lft.to/lastmile_qr_scan", "android": "https://dc.lft.to/lastmile_qr_scan"}, "is_reserved": 0}, {"lon": -76.98571966666667, "bike_id": "8acb47f514b5442a95b7dbf28901d283", "lat": 38.89617833333333, "fusion_lon": 0.0, "fusion_lat": 0.0, "type": "electric_scooter", "name": "8acb47f514b5442a95b7dbf28901d283", "is_disabled": 0, "rental_uris": {"ios": "https://dc.lft.to/lastmile_qr_scan", "android": "https://dc.lft.to/lastmile_qr_scan"}, "is_reserved": 0}, {"lon": -77.00921516666666, "bike_id": "a0e3b94b3b323d95268dacf1d3657ea8", "lat": 38.91064383333333, "fusion_lon": 0.0, "fusion_lat": 0.0, "type": "electric_scooter", "name": "a0e3b94b3b323d95268dacf1d3657ea8", "is_disabled": 0, "rental_uris": {"ios": "https://dc.lft.to/lastmile_qr_scan", "android": "https://dc.lft.to/lastmile_qr_scan"}, "is_reserved": 0}, {"lon": -77.02606483333334, "bike_id": "9bed5a65fca45b3461e43614735f5580", "lat": 38.901554833333336, "fusion_lon": 0.0, "fusion_lat": 0.0, "type": "electric_scooter", "name": "9bed5a65fca45b3461e43614735f5580", "is_disabled": 0, "rental_uris": {"ios": "https://dc.lft.to/lastmile_qr_scan", "android": "https://dc.lft.to/lastmile_qr_scan"}, "is_reserved": 0}, {"lon": -76.9438145, "bike_id": "b65404a20f87d21d02568ecb1e38a3ed", "lat": 38.893212, "fusion_lon": 0.0, "fusion_lat": 0.0, "type": "electric_scooter", "name": "b65404a20f87d21d02568ecb1e38a3ed", "is_disabled": 0, "rental_uris": {"ios": "https://dc.lft.to/lastmile_qr_scan", "android": "https://dc.lft.to/lastmile_qr_scan"}, "is_reserved": 0}, {"lon": -76.98277683333333, "bike_id": "26ec6283bd2a011328a9cac0e5d5fc01", "lat": 38.901385833333336, "fusion_lon": 0.0, "fusion_lat": 0.0, "type": "electric_scooter", "name": "26ec6283bd2a011328a9cac0e5d5fc01", "is_disabled": 0, "rental_uris": {"ios": "https://dc.lft.to/lastmile_qr_scan", "android": "https://dc.lft.to/lastmile_qr_scan"}, "is_reserved": 0}, {"lon": -76.97422116666667, "bike_id": "b56ee058c3b4f732c28215850fc04188", "lat": 38.90405033333333, "fusion_lon": 0.0, "fusion_lat": 0.0, "type": "electric_scooter", "name": "b56ee058c3b4f732c28215850fc04188", "is_disabled": 0, "rental_uris": {"ios": "https://dc.lft.to/lastmile_qr_scan", "android": "https://dc.lft.to/lastmile_qr_scan"}, "is_reserved": 0}, {"lon": -77.0257035, "bike_id": "4df7859843be6bcb5a4aca2f94d7d9ce", "lat": 38.90355016666667, "fusion_lon": 0.0, "fusion_lat": 0.0, "type": "electric_scooter", "name": "4df7859843be6bcb5a4aca2f94d7d9ce", "is_disabled": 0, "rental_uris": {"ios": "https://dc.lft.to/lastmile_qr_scan", "android": "https://dc.lft.to/lastmile_qr_scan"}, "is_reserved": 0}, {"lon": -76.97823366666667, "bike_id": "5eb3a600f501bd1cd0bb307d86f70424", "lat": 38.843630833333336, "fusion_lon": 0.0, "fusion_lat": 0.0, "type": "electric_bike", "name": "5eb3a600f501bd1cd0bb307d86f70424", "is_disabled": 0, "rental_uris": {"ios": "https://dc.lft.to/lastmile_qr_scan", "android": "https://dc.lft.to/lastmile_qr_scan"}, "is_reserved": 0}, {"lon": -77.03467183333333, "bike_id": "a4661d6bf1d53935f854e210a6611e66", "lat": 38.918737, "fusion_lon": 0.0, "fusion_lat": 0.0, "type": "electric_scooter", "name": "a4661d6bf1d53935f854e210a6611e66", "is_disabled": 0, "rental_uris": {"ios": "https://dc.lft.to/lastmile_qr_scan", "android": "https://dc.lft.to/lastmile_qr_scan"}, "is_reserved": 0}, {"lon": -77.02451583333334, "bike_id": "8b31685de794745cdc3e36b6e11c94ec", "lat": 38.90097466666667, "fusion_lon": 0.0, "fusion_lat": 0.0, "type": "electric_scooter", "name": "8b31685de794745cdc3e36b6e11c94ec", "is_disabled": 0, "rental_uris": {"ios": "https://dc.lft.to/lastmile_qr_scan", "android": "https://dc.lft.to/lastmile_qr_scan"}, "is_reserved": 0}, {"lon": -77.09065866666667, "bike_id": "001b9db33e4f1f14457d56980a734931", "lat": 38.86259416666667, "fusion_lon": 0.0, "fusion_lat": 0.0, "type": "electric_bike", "name": "001b9db33e4f1f14457d56980a734931", "is_disabled": 0, "rental_uris": {"ios": "https://dc.lft.to/lastmile_qr_scan", "android": "https://dc.lft.to/lastmile_qr_scan"}, "is_reserved": 0}, {"lon": -77.04162133333334, "bike_id": "04fa7a9fb9ecbe3e76910736bf1f61bc", "lat": 38.91489966666666, "fusion_lon": 0.0, "fusion_lat": 0.0, "type": "electric_scooter", "name": "04fa7a9fb9ecbe3e76910736bf1f61bc", "is_disabled": 0, "rental_uris": {"ios": "https://dc.lft.to/lastmile_qr_scan", "android": "https://dc.lft.to/lastmile_qr_scan"}, "is_reserved": 0}, {"lon": -77.03350066666667, "bike_id": "0a77ae25cf4e76474c6d76ecea9a212f", "lat": 38.8996655, "fusion_lon": 0.0, "fusion_lat": 0.0, "type": "electric_scooter", "name": "0a77ae25cf4e76474c6d76ecea9a212f", "is_disabled": 0, "rental_uris": {"ios": "https://dc.lft.to/lastmile_qr_scan", "android": "https://dc.lft.to/lastmile_qr_scan"}, "is_reserved": 0}, {"lon": -76.9960555, "bike_id": "784c98955fe27baf9f82162d2391f512", "lat": 38.925499, "fusion_lon": 0.0, "fusion_lat": 0.0, "type": "electric_scooter", "name": "784c98955fe27baf9f82162d2391f512", "is_disabled": 0, "rental_uris": {"ios": "https://dc.lft.to/lastmile_qr_scan", "android": "https://dc.lft.to/lastmile_qr_scan"}, "is_reserved": 0}, {"lon": -77.006346, "bike_id": "c9cfed8e5c3d0158460c69fb7af0021a", "lat": 38.95597733333334, "fusion_lon": 0.0, "fusion_lat": 0.0, "type": "electric_scooter", "name": "c9cfed8e5c3d0158460c69fb7af0021a", "is_disabled": 0, "rental_uris": {"ios": "https://dc.lft.to/lastmile_qr_scan", "android": "https://dc.lft.to/lastmile_qr_scan"}, "is_reserved": 0}, {"lon": -77.011084, "bike_id": "cbb17538f531ede14af834b7f3f4d1c2", "lat": 38.90375983333333, "fusion_lon": 0.0, "fusion_lat": 0.0, "type": "electric_scooter", "name": "cbb17538f531ede14af834b7f3f4d1c2", "is_disabled": 0, "rental_uris": {"ios": "https://dc.lft.to/lastmile_qr_scan", "android": "https://dc.lft.to/lastmile_qr_scan"}, "is_reserved": 0}, {"lon": -77.02717383333334, "bike_id": "496438cc6c7f35f08562c8bc6cf26888", "lat": 38.91183916666667, "fusion_lon": 0.0, "fusion_lat": 0.0, "type": "electric_scooter", "name": "496438cc6c7f35f08562c8bc6cf26888", "is_disabled": 0, "rental_uris": {"ios": "https://dc.lft.to/lastmile_qr_scan", "android": "https://dc.lft.to/lastmile_qr_scan"}, "is_reserved": 0}, {"lon": -77.03344216666666, "bike_id": "6a7baa081a215a2a2291468b605886ef", "lat": 38.917069833333336, "fusion_lon": 0.0, "fusion_lat": 0.0, "type": "electric_scooter", "name": "6a7baa081a215a2a2291468b605886ef", "is_disabled": 0, "rental_uris": {"ios": "https://dc.lft.to/lastmile_qr_scan", "android": "https://dc.lft.to/lastmile_qr_scan"}, "is_reserved": 0}, {"lon": -77.02372233333334, "bike_id": "a45f826f54e92dd0da70d3751f242ba3", "lat": 38.926551333333336, "fusion_lon": 0.0, "fusion_lat": 0.0, "type": "electric_scooter", "name": "a45f826f54e92dd0da70d3751f242ba3", "is_disabled": 0, "rental_uris": {"ios": "https://dc.lft.to/lastmile_qr_scan", "android": "https://dc.lft.to/lastmile_qr_scan"}, "is_reserved": 0}, {"lon": -77.0490025, "bike_id": "0d0469b9274b18a0e26d9431e0289230", "lat": 38.890005333333335, "fusion_lon": 0.0, "fusion_lat": 0.0, "type": "electric_scooter", "name": "0d0469b9274b18a0e26d9431e0289230", "is_disabled": 0, "rental_uris": {"ios": "https://dc.lft.to/lastmile_qr_scan", "android": "https://dc.lft.to/lastmile_qr_scan"}, "is_reserved": 0}, {"lon": -77.04865616666666, "bike_id": "87b6b99a323b7229e9319fab03824af4", "lat": 38.892221166666666, "fusion_lon": 0.0, "fusion_lat": 0.0, "type": "electric_scooter", "name": "87b6b99a323b7229e9319fab03824af4", "is_disabled": 0, "rental_uris": {"ios": "https://dc.lft.to/lastmile_qr_scan", "android": "https://dc.lft.to/lastmile_qr_scan"}, "is_reserved": 0}, {"lon": -77.019723, "bike_id": "7bd8d98de8014e85d0711a7e0106ae62", "lat": 38.901036, "fusion_lon": 0.0, "fusion_lat": 0.0, "type": "electric_scooter", "name": "7bd8d98de8014e85d0711a7e0106ae62", "is_disabled": 0, "rental_uris": {"ios": "https://dc.lft.to/lastmile_qr_scan", "android": "https://dc.lft.to/lastmile_qr_scan"}, "is_reserved": 0}, {"lon": -77.01674783333333, "bike_id": "238f6bc13ae64ff3b3526336c430483b", "lat": 38.876955, "fusion_lon": 0.0, "fusion_lat": 0.0, "type": "electric_scooter", "name": "238f6bc13ae64ff3b3526336c430483b", "is_disabled": 0, "rental_uris": {"ios": "https://dc.lft.to/lastmile_qr_scan", "android": "https://dc.lft.to/lastmile_qr_scan"}, "is_reserved": 0}, {"lon": -77.054673, "bike_id": "cc3f9aede7068249cc3ace352db48944", "lat": 38.904348666666664, "fusion_lon": 0.0, "fusion_lat": 0.0, "type": "electric_scooter", "name": "cc3f9aede7068249cc3ace352db48944", "is_disabled": 0, "rental_uris": {"ios": "https://dc.lft.to/lastmile_qr_scan", "android": "https://dc.lft.to/lastmile_qr_scan"}, "is_reserved": 0}, {"lon": -77.0199475, "bike_id": "b23958b953c044602c9c68cdd0e28350", "lat": 38.96628833333333, "fusion_lon": 0.0, "fusion_lat": 0.0, "type": "electric_scooter", "name": "b23958b953c044602c9c68cdd0e28350", "is_disabled": 0, "rental_uris": {"ios": "https://dc.lft.to/lastmile_qr_scan", "android": "https://dc.lft.to/lastmile_qr_scan"}, "is_reserved": 0}, {"lon": -77.02717383333334, "bike_id": "dcf25e0a672cbf985b9b429fa1fa17c6", "lat": 38.910732833333334, "fusion_lon": 0.0, "fusion_lat": 0.0, "type": "electric_scooter", "name": "dcf25e0a672cbf985b9b429fa1fa17c6", "is_disabled": 0, "rental_uris": {"ios": "https://dc.lft.to/lastmile_qr_scan", "android": "https://dc.lft.to/lastmile_qr_scan"}, "is_reserved": 0}, {"lon": -76.98464666666666, "bike_id": "4076e99e9ef579b1c49895176860ba1d", "lat": 38.9039765, "fusion_lon": 0.0, "fusion_lat": 0.0, "type": "electric_scooter", "name": "4076e99e9ef579b1c49895176860ba1d", "is_disabled": 0, "rental_uris": {"ios": "https://dc.lft.to/lastmile_qr_scan", "android": "https://dc.lft.to/lastmile_qr_scan"}, "is_reserved": 0}, {"lon": -77.036163, "bike_id": "039dd7c06ea56d85c05afe1656337ec1", "lat": 38.93679216666666, "fusion_lon": 0.0, "fusion_lat": 0.0, "type": "electric_scooter", "name": "039dd7c06ea56d85c05afe1656337ec1", "is_disabled": 0, "rental_uris": {"ios": "https://dc.lft.to/lastmile_qr_scan", "android": "https://dc.lft.to/lastmile_qr_scan"}, "is_reserved": 0}, {"lon": -76.99455783333333, "bike_id": "fefaf04cda84259d846751395fcd3c7b", "lat": 38.862178666666665, "fusion_lon": 0.0, "fusion_lat": 0.0, "type": "electric_scooter", "name": "fefaf04cda84259d846751395fcd3c7b", "is_disabled": 0, "rental_uris": {"ios": "https://dc.lft.to/lastmile_qr_scan", "android": "https://dc.lft.to/lastmile_qr_scan"}, "is_reserved": 0}, {"lon": -77.01899866666666, "bike_id": "52bd582b70d5918964833f1571d82731", "lat": 38.8986, "fusion_lon": 0.0, "fusion_lat": 0.0, "type": "electric_scooter", "name": "52bd582b70d5918964833f1571d82731", "is_disabled": 0, "rental_uris": {"ios": "https://dc.lft.to/lastmile_qr_scan", "android": "https://dc.lft.to/lastmile_qr_scan"}, "is_reserved": 0}, {"lon": -77.02803183333333, "bike_id": "3f1cf2514c39eb62de3651fe36b8dcd3", "lat": 38.881713, "fusion_lon": 0.0, "fusion_lat": 0.0, "type": "electric_scooter", "name": "3f1cf2514c39eb62de3651fe36b8dcd3", "is_disabled": 0, "rental_uris": {"ios": "https://dc.lft.to/lastmile_qr_scan", "android": "https://dc.lft.to/lastmile_qr_scan"}, "is_reserved": 0}, {"lon": -77.02193733333333, "bike_id": "ef1bc4ce4bd2a0fef61a50cbb77ca360", "lat": 38.905316166666665, "fusion_lon": 0.0, "fusion_lat": 0.0, "type": "electric_scooter", "name": "ef1bc4ce4bd2a0fef61a50cbb77ca360", "is_disabled": 0, "rental_uris": {"ios": "https://dc.lft.to/lastmile_qr_scan", "android": "https://dc.lft.to/lastmile_qr_scan"}, "is_reserved": 0}, {"lon": -77.02765816666667, "bike_id": "11d89458c72041eb57b5f02d35040e9d", "lat": 38.954237666666664, "fusion_lon": 0.0, "fusion_lat": 0.0, "type": "electric_scooter", "name": "11d89458c72041eb57b5f02d35040e9d", "is_disabled": 0, "rental_uris": {"ios": "https://dc.lft.to/lastmile_qr_scan", "android": "https://dc.lft.to/lastmile_qr_scan"}, "is_reserved": 0}, {"lon": -77.033192, "bike_id": "37903058e7cd6b256c4aaf14f3c38e51", "lat": 38.914, "fusion_lon": 0.0, "fusion_lat": 0.0, "type": "electric_scooter", "name": "37903058e7cd6b256c4aaf14f3c38e51", "is_disabled": 0, "rental_uris": {"ios": "https://dc.lft.to/lastmile_qr_scan", "android": "https://dc.lft.to/lastmile_qr_scan"}, "is_reserved": 0}, {"lon": -76.9765135, "bike_id": "e1456d8aea000112a1c51f2f63b8f6e7", "lat": 38.8877845, "fusion_lon": 0.0, "fusion_lat": 0.0, "type": "electric_scooter", "name": "e1456d8aea000112a1c51f2f63b8f6e7", "is_disabled": 0, "rental_uris": {"ios": "https://dc.lft.to/lastmile_qr_scan", "android": "https://dc.lft.to/lastmile_qr_scan"}, "is_reserved": 0}, {"lon": -77.01644316666666, "bike_id": "092c56a4525a69bbe22a036ffd1cc025", "lat": 38.881161666666664, "fusion_lon": 0.0, "fusion_lat": 0.0, "type": "electric_scooter", "name": "092c56a4525a69bbe22a036ffd1cc025", "is_disabled": 0, "rental_uris": {"ios": "https://dc.lft.to/lastmile_qr_scan", "android": "https://dc.lft.to/lastmile_qr_scan"}, "is_reserved": 0}, {"lon": -77.03189416666666, "bike_id": "c0bd1eff3a564984777acceef4eb37eb", "lat": 38.896496, "fusion_lon": 0.0, "fusion_lat": 0.0, "type": "electric_scooter", "name": "c0bd1eff3a564984777acceef4eb37eb", "is_disabled": 0, "rental_uris": {"ios": "https://dc.lft.to/lastmile_qr_scan", "android": "https://dc.lft.to/lastmile_qr_scan"}, "is_reserved": 0}, {"lon": -77.02400283333333, "bike_id": "560bc25f09f9d9342a65494045f15d76", "lat": 38.917067333333335, "fusion_lon": 0.0, "fusion_lat": 0.0, "type": "electric_scooter", "name": "560bc25f09f9d9342a65494045f15d76", "is_disabled": 0, "rental_uris": {"ios": "https://dc.lft.to/lastmile_qr_scan", "android": "https://dc.lft.to/lastmile_qr_scan"}, "is_reserved": 0}, {"lon": -77.03839533333333, "bike_id": "2edfa3aaa8fae76d634f2bafdab076f5", "lat": 38.910938333333334, "fusion_lon": 0.0, "fusion_lat": 0.0, "type": "electric_scooter", "name": "2edfa3aaa8fae76d634f2bafdab076f5", "is_disabled": 0, "rental_uris": {"ios": "https://dc.lft.to/lastmile_qr_scan", "android": "https://dc.lft.to/lastmile_qr_scan"}, "is_reserved": 0}, {"lon": -77.04637033333333, "bike_id": "ac54089d778d2a05ad109e80f60c7100", "lat": 38.9192025, "fusion_lon": 0.0, "fusion_lat": 0.0, "type": "electric_scooter", "name": "ac54089d778d2a05ad109e80f60c7100", "is_disabled": 0, "rental_uris": {"ios": "https://dc.lft.to/lastmile_qr_scan", "android": "https://dc.lft.to/lastmile_qr_scan"}, "is_reserved": 0}, {"lon": -77.01348866666666, "bike_id": "7d1506c3782aea5f4935b57a184efefe", "lat": 38.878108833333336, "fusion_lon": 0.0, "fusion_lat": 0.0, "type": "electric_scooter", "name": "7d1506c3782aea5f4935b57a184efefe", "is_disabled": 0, "rental_uris": {"ios": "https://dc.lft.to/lastmile_qr_scan", "android": "https://dc.lft.to/lastmile_qr_scan"}, "is_reserved": 0}, {"lon": -77.00101133333334, "bike_id": "e46154e855e294982bdc01b07e2ad042", "lat": 38.91637033333333, "fusion_lon": 0.0, "fusion_lat": 0.0, "type": "electric_scooter", "name": "e46154e855e294982bdc01b07e2ad042", "is_disabled": 0, "rental_uris": {"ios": "https://dc.lft.to/lastmile_qr_scan", "android": "https://dc.lft.to/lastmile_qr_scan"}, "is_reserved": 0}, {"lon": -77.03248766666667, "bike_id": "bb301a5899ae0716c36397a88912cd4c", "lat": 38.928383833333335, "fusion_lon": 0.0, "fusion_lat": 0.0, "type": "electric_scooter", "name": "bb301a5899ae0716c36397a88912cd4c", "is_disabled": 0, "rental_uris": {"ios": "https://dc.lft.to/lastmile_qr_scan", "android": "https://dc.lft.to/lastmile_qr_scan"}, "is_reserved": 0}, {"lon": -77.04275083333333, "bike_id": "98aa0918903307bdc23a1e51917be3d9", "lat": 38.922395, "fusion_lon": 0.0, "fusion_lat": 0.0, "type": "electric_scooter", "name": "98aa0918903307bdc23a1e51917be3d9", "is_disabled": 0, "rental_uris": {"ios": "https://dc.lft.to/lastmile_qr_scan", "android": "https://dc.lft.to/lastmile_qr_scan"}, "is_reserved": 0}, {"lon": -77.11710033333334, "bike_id": "91c20a637753422a178ce02c1d056ac6", "lat": 38.867469666666665, "fusion_lon": 0.0, "fusion_lat": 0.0, "type": "electric_bike", "name": "91c20a637753422a178ce02c1d056ac6", "is_disabled": 0, "rental_uris": {"ios": "https://dc.lft.to/lastmile_qr_scan", "android": "https://dc.lft.to/lastmile_qr_scan"}, "is_reserved": 0}, {"lon": -77.04736383333334, "bike_id": "07400424b5d4d48caa69e2ba421a2b4d", "lat": 38.917692833333334, "fusion_lon": 0.0, "fusion_lat": 0.0, "type": "electric_scooter", "name": "07400424b5d4d48caa69e2ba421a2b4d", "is_disabled": 0, "rental_uris": {"ios": "https://dc.lft.to/lastmile_qr_scan", "android": "https://dc.lft.to/lastmile_qr_scan"}, "is_reserved": 0}, {"lon": -76.9852845, "bike_id": "378ef03a51fc0305fc8b4d743435a8d5", "lat": 38.904573666666664, "fusion_lon": 0.0, "fusion_lat": 0.0, "type": "electric_scooter", "name": "378ef03a51fc0305fc8b4d743435a8d5", "is_disabled": 0, "rental_uris": {"ios": "https://dc.lft.to/lastmile_qr_scan", "android": "https://dc.lft.to/lastmile_qr_scan"}, "is_reserved": 0}, {"lon": -77.04815883333333, "bike_id": "72e65b56361e80a9c4fa3a8df49e2438", "lat": 38.9071405, "fusion_lon": 0.0, "fusion_lat": 0.0, "type": "electric_scooter", "name": "72e65b56361e80a9c4fa3a8df49e2438", "is_disabled": 0, "rental_uris": {"ios": "https://dc.lft.to/lastmile_qr_scan", "android": "https://dc.lft.to/lastmile_qr_scan"}, "is_reserved": 0}, {"lon": -77.02461816666667, "bike_id": "79e71a9f78addd6c4da4dc1648949fea", "lat": 38.92081116666667, "fusion_lon": 0.0, "fusion_lat": 0.0, "type": "electric_scooter", "name": "79e71a9f78addd6c4da4dc1648949fea", "is_disabled": 0, "rental_uris": {"ios": "https://dc.lft.to/lastmile_qr_scan", "android": "https://dc.lft.to/lastmile_qr_scan"}, "is_reserved": 0}, {"lon": -77.01794183333334, "bike_id": "78f4587bdff16dbe527acbb917863d22", "lat": 38.9213885, "fusion_lon": 0.0, "fusion_lat": 0.0, "type": "electric_scooter", "name": "78f4587bdff16dbe527acbb917863d22", "is_disabled": 0, "rental_uris": {"ios": "https://dc.lft.to/lastmile_qr_scan", "android": "https://dc.lft.to/lastmile_qr_scan"}, "is_reserved": 0}, {"lon": -77.05526583333334, "bike_id": "bdbaaeec5b6f346acf6431ce84fe8950", "lat": 38.929674166666665, "fusion_lon": 0.0, "fusion_lat": 0.0, "type": "electric_scooter", "name": "bdbaaeec5b6f346acf6431ce84fe8950", "is_disabled": 0, "rental_uris": {"ios": "https://dc.lft.to/lastmile_qr_scan", "android": "https://dc.lft.to/lastmile_qr_scan"}, "is_reserved": 0}, {"lon": -77.03855866666666, "bike_id": "3d69eb654f82855d72048cd0715ec0c4", "lat": 38.906711666666666, "fusion_lon": 0.0, "fusion_lat": 0.0, "type": "electric_scooter", "name": "3d69eb654f82855d72048cd0715ec0c4", "is_disabled": 0, "rental_uris": {"ios": "https://dc.lft.to/lastmile_qr_scan", "android": "https://dc.lft.to/lastmile_qr_scan"}, "is_reserved": 0}, {"lon": -77.02703816666667, "bike_id": "2c87b8a8763d862d5ad86936eba581c1", "lat": 38.906667, "fusion_lon": 0.0, "fusion_lat": 0.0, "type": "electric_scooter", "name": "2c87b8a8763d862d5ad86936eba581c1", "is_disabled": 0, "rental_uris": {"ios": "https://dc.lft.to/lastmile_qr_scan", "android": "https://dc.lft.to/lastmile_qr_scan"}, "is_reserved": 0}, {"lon": -77.02963466666667, "bike_id": "bc3e2c56010f151380950e42a973f2c6", "lat": 38.90718716666667, "fusion_lon": 0.0, "fusion_lat": 0.0, "type": "electric_scooter", "name": "bc3e2c56010f151380950e42a973f2c6", "is_disabled": 0, "rental_uris": {"ios": "https://dc.lft.to/lastmile_qr_scan", "android": "https://dc.lft.to/lastmile_qr_scan"}, "is_reserved": 0}, {"lon": -77.08978416666666, "bike_id": "f6e4e5451f860823614db4bd7c17dd55", "lat": 38.8748025, "fusion_lon": 0.0, "fusion_lat": 0.0, "type": "electric_bike", "name": "f6e4e5451f860823614db4bd7c17dd55", "is_disabled": 0, "rental_uris": {"ios": "https://dc.lft.to/lastmile_qr_scan", "android": "https://dc.lft.to/lastmile_qr_scan"}, "is_reserved": 0}, {"lon": -77.0298785, "bike_id": "4825912647938367bcededc6ccba5416", "lat": 38.89709383333334, "fusion_lon": 0.0, "fusion_lat": 0.0, "type": "electric_scooter", "name": "4825912647938367bcededc6ccba5416", "is_disabled": 0, "rental_uris": {"ios": "https://dc.lft.to/lastmile_qr_scan", "android": "https://dc.lft.to/lastmile_qr_scan"}, "is_reserved": 0}, {"lon": -76.988349, "bike_id": "eeedff8b11c2504d35d97d856f6f21f7", "lat": 38.900775, "fusion_lon": 0.0, "fusion_lat": 0.0, "type": "electric_scooter", "name": "eeedff8b11c2504d35d97d856f6f21f7", "is_disabled": 0, "rental_uris": {"ios": "https://dc.lft.to/lastmile_qr_scan", "android": "https://dc.lft.to/lastmile_qr_scan"}, "is_reserved": 0}, {"lon": -77.03870516666667, "bike_id": "953d7408b225ec8a36396a8b1cc291c0", "lat": 38.90247683333333, "fusion_lon": 0.0, "fusion_lat": 0.0, "type": "electric_scooter", "name": "953d7408b225ec8a36396a8b1cc291c0", "is_disabled": 0, "rental_uris": {"ios": "https://dc.lft.to/lastmile_qr_scan", "android": "https://dc.lft.to/lastmile_qr_scan"}, "is_reserved": 0}, {"lon": -77.01378516666666, "bike_id": "4ad4235f35a122c3fae9792a94e7f7cd", "lat": 38.915082166666664, "fusion_lon": 0.0, "fusion_lat": 0.0, "type": "electric_scooter", "name": "4ad4235f35a122c3fae9792a94e7f7cd", "is_disabled": 0, "rental_uris": {"ios": "https://dc.lft.to/lastmile_qr_scan", "android": "https://dc.lft.to/lastmile_qr_scan"}, "is_reserved": 0}, {"lon": -77.02810333333333, "bike_id": "990a45f2951e2b10f962fc69cdc9f6a3", "lat": 38.93308116666667, "fusion_lon": 0.0, "fusion_lat": 0.0, "type": "electric_scooter", "name": "990a45f2951e2b10f962fc69cdc9f6a3", "is_disabled": 0, "rental_uris": {"ios": "https://dc.lft.to/lastmile_qr_scan", "android": "https://dc.lft.to/lastmile_qr_scan"}, "is_reserved": 0}, {"lon": -77.03938933333333, "bike_id": "3f276ddda07f163bba75520109266c31", "lat": 38.9155525, "fusion_lon": 0.0, "fusion_lat": 0.0, "type": "electric_scooter", "name": "3f276ddda07f163bba75520109266c31", "is_disabled": 0, "rental_uris": {"ios": "https://dc.lft.to/lastmile_qr_scan", "android": "https://dc.lft.to/lastmile_qr_scan"}, "is_reserved": 0}, {"lon": -77.032479, "bike_id": "6f6fe6f7038d9739189174a4b94f4b19", "lat": 38.93765466666667, "fusion_lon": 0.0, "fusion_lat": 0.0, "type": "electric_scooter", "name": "6f6fe6f7038d9739189174a4b94f4b19", "is_disabled": 0, "rental_uris": {"ios": "https://dc.lft.to/lastmile_qr_scan", "android": "https://dc.lft.to/lastmile_qr_scan"}, "is_reserved": 0}, {"lon": -77.04343616666667, "bike_id": "2b0722a8194c65feb20d5f19e4a785ca", "lat": 38.907897, "fusion_lon": 0.0, "fusion_lat": 0.0, "type": "electric_scooter", "name": "2b0722a8194c65feb20d5f19e4a785ca", "is_disabled": 0, "rental_uris": {"ios": "https://dc.lft.to/lastmile_qr_scan", "android": "https://dc.lft.to/lastmile_qr_scan"}, "is_reserved": 0}, {"lon": -77.00585883333333, "bike_id": "349cc398465d200892182174606dfa8e", "lat": 38.90605883333333, "fusion_lon": 0.0, "fusion_lat": 0.0, "type": "electric_scooter", "name": "349cc398465d200892182174606dfa8e", "is_disabled": 0, "rental_uris": {"ios": "https://dc.lft.to/lastmile_qr_scan", "android": "https://dc.lft.to/lastmile_qr_scan"}, "is_reserved": 0}, {"lon": -77.0845885, "bike_id": "c1df7a1fd54b3eb633ca5c9e65c00422", "lat": 38.848185666666666, "fusion_lon": 0.0, "fusion_lat": 0.0, "type": "electric_bike", "name": "c1df7a1fd54b3eb633ca5c9e65c00422", "is_disabled": 0, "rental_uris": {"ios": "https://dc.lft.to/lastmile_qr_scan", "android": "https://dc.lft.to/lastmile_qr_scan"}, "is_reserved": 0}, {"lon": -77.03403633333333, "bike_id": "c8191a7688023dfae8d26bd3650b879e", "lat": 38.922548666666664, "fusion_lon": 0.0, "fusion_lat": 0.0, "type": "electric_scooter", "name": "c8191a7688023dfae8d26bd3650b879e", "is_disabled": 0, "rental_uris": {"ios": "https://dc.lft.to/lastmile_qr_scan", "android": "https://dc.lft.to/lastmile_qr_scan"}, "is_reserved": 0}, {"lon": -77.03269, "bike_id": "9e8a60c3d1ecd08660f10b0ea10afbfb", "lat": 38.9199835, "fusion_lon": 0.0, "fusion_lat": 0.0, "type": "electric_scooter", "name": "9e8a60c3d1ecd08660f10b0ea10afbfb", "is_disabled": 0, "rental_uris": {"ios": "https://dc.lft.to/lastmile_qr_scan", "android": "https://dc.lft.to/lastmile_qr_scan"}, "is_reserved": 0}, {"lon": -77.05343466666666, "bike_id": "71c5cf128151a6e1698725b3d1ebfecb", "lat": 38.90355233333333, "fusion_lon": 0.0, "fusion_lat": 0.0, "type": "electric_scooter", "name": "71c5cf128151a6e1698725b3d1ebfecb", "is_disabled": 0, "rental_uris": {"ios": "https://dc.lft.to/lastmile_qr_scan", "android": "https://dc.lft.to/lastmile_qr_scan"}, "is_reserved": 0}, {"lon": -77.02415833333333, "bike_id": "dde2415ea78a7e388f2c7032b91b6824", "lat": 38.909703, "fusion_lon": 0.0, "fusion_lat": 0.0, "type": "electric_scooter", "name": "dde2415ea78a7e388f2c7032b91b6824", "is_disabled": 0, "rental_uris": {"ios": "https://dc.lft.to/lastmile_qr_scan", "android": "https://dc.lft.to/lastmile_qr_scan"}, "is_reserved": 0}, {"lon": -77.01327383333333, "bike_id": "6428992eebe8ddff66fec22c25d9ee35", "lat": 38.87922983333333, "fusion_lon": 0.0, "fusion_lat": 0.0, "type": "electric_scooter", "name": "6428992eebe8ddff66fec22c25d9ee35", "is_disabled": 0, "rental_uris": {"ios": "https://dc.lft.to/lastmile_qr_scan", "android": "https://dc.lft.to/lastmile_qr_scan"}, "is_reserved": 0}, {"lon": -77.05533483333333, "bike_id": "7f72e294bd1b777b0d87b9a00e4a97ab", "lat": 38.93430816666667, "fusion_lon": 0.0, "fusion_lat": 0.0, "type": "electric_scooter", "name": "7f72e294bd1b777b0d87b9a00e4a97ab", "is_disabled": 0, "rental_uris": {"ios": "https://dc.lft.to/lastmile_qr_scan", "android": "https://dc.lft.to/lastmile_qr_scan"}, "is_reserved": 0}, {"lon": -77.03505116666666, "bike_id": "362550fbf40fa6bc35405e2552d3fb99", "lat": 38.937551, "fusion_lon": 0.0, "fusion_lat": 0.0, "type": "electric_scooter", "name": "362550fbf40fa6bc35405e2552d3fb99", "is_disabled": 0, "rental_uris": {"ios": "https://dc.lft.to/lastmile_qr_scan", "android": "https://dc.lft.to/lastmile_qr_scan"}, "is_reserved": 0}, {"lon": -77.03859966666667, "bike_id": "0a4a9e080dfd224c76153860c8ff2427", "lat": 38.915527166666664, "fusion_lon": 0.0, "fusion_lat": 0.0, "type": "electric_scooter", "name": "0a4a9e080dfd224c76153860c8ff2427", "is_disabled": 0, "rental_uris": {"ios": "https://dc.lft.to/lastmile_qr_scan", "android": "https://dc.lft.to/lastmile_qr_scan"}, "is_reserved": 0}, {"lon": -77.03864683333333, "bike_id": "32987ce11dc0f7b8a542d23cf87ee942", "lat": 38.915499833333335, "fusion_lon": 0.0, "fusion_lat": 0.0, "type": "electric_scooter", "name": "32987ce11dc0f7b8a542d23cf87ee942", "is_disabled": 0, "rental_uris": {"ios": "https://dc.lft.to/lastmile_qr_scan", "android": "https://dc.lft.to/lastmile_qr_scan"}, "is_reserved": 0}, {"lon": -77.02855366666667, "bike_id": "7eb31a14267aeda9aa1254e0acad4ba4", "lat": 38.904293, "fusion_lon": 0.0, "fusion_lat": 0.0, "type": "electric_scooter", "name": "7eb31a14267aeda9aa1254e0acad4ba4", "is_disabled": 0, "rental_uris": {"ios": "https://dc.lft.to/lastmile_qr_scan", "android": "https://dc.lft.to/lastmile_qr_scan"}, "is_reserved": 0}, {"lon": -77.0588955, "bike_id": "a1dde6f619cd02fde11974220003120e", "lat": 38.9360995, "fusion_lon": 0.0, "fusion_lat": 0.0, "type": "electric_scooter", "name": "a1dde6f619cd02fde11974220003120e", "is_disabled": 0, "rental_uris": {"ios": "https://dc.lft.to/lastmile_qr_scan", "android": "https://dc.lft.to/lastmile_qr_scan"}, "is_reserved": 0}, {"lon": -77.019061, "bike_id": "e5b8262438884bf8ca718f7ea43675bf", "lat": 38.903104166666665, "fusion_lon": 0.0, "fusion_lat": 0.0, "type": "electric_bike", "name": "e5b8262438884bf8ca718f7ea43675bf", "is_disabled": 0, "rental_uris": {"ios": "https://dc.lft.to/lastmile_qr_scan", "android": "https://dc.lft.to/lastmile_qr_scan"}, "is_reserved": 0}, {"lon": -77.02709366666667, "bike_id": "4a1dee40a5e4f0a2ca559fd033979732", "lat": 38.92772633333333, "fusion_lon": 0.0, "fusion_lat": 0.0, "type": "electric_scooter", "name": "4a1dee40a5e4f0a2ca559fd033979732", "is_disabled": 0, "rental_uris": {"ios": "https://dc.lft.to/lastmile_qr_scan", "android": "https://dc.lft.to/lastmile_qr_scan"}, "is_reserved": 0}, {"lon": -77.23323716666667, "bike_id": "5ad11da23769f3ca465f75333013892a", "lat": 38.87270983333333, "fusion_lon": 0.0, "fusion_lat": 0.0, "type": "electric_bike", "name": "5ad11da23769f3ca465f75333013892a", "is_disabled": 0, "rental_uris": {"ios": "https://dc.lft.to/lastmile_qr_scan", "android": "https://dc.lft.to/lastmile_qr_scan"}, "is_reserved": 0}, {"lon": -77.03627566666667, "bike_id": "9b1426776da95213061c754932eca91f", "lat": 38.94816133333333, "fusion_lon": 0.0, "fusion_lat": 0.0, "type": "electric_scooter", "name": "9b1426776da95213061c754932eca91f", "is_disabled": 0, "rental_uris": {"ios": "https://dc.lft.to/lastmile_qr_scan", "android": "https://dc.lft.to/lastmile_qr_scan"}, "is_reserved": 0}, {"lon": -76.9730235, "bike_id": "c0a9e4e2eea19ef4fd36582ce0ee5fce", "lat": 38.91645333333334, "fusion_lon": 0.0, "fusion_lat": 0.0, "type": "electric_bike", "name": "c0a9e4e2eea19ef4fd36582ce0ee5fce", "is_disabled": 0, "rental_uris": {"ios": "https://dc.lft.to/lastmile_qr_scan", "android": "https://dc.lft.to/lastmile_qr_scan"}, "is_reserved": 0}, {"lon": -77.03250233333333, "bike_id": "9015b5a941bde88d286f8c2220587b52", "lat": 38.9037135, "fusion_lon": 0.0, "fusion_lat": 0.0, "type": "electric_scooter", "name": "9015b5a941bde88d286f8c2220587b52", "is_disabled": 0, "rental_uris": {"ios": "https://dc.lft.to/lastmile_qr_scan", "android": "https://dc.lft.to/lastmile_qr_scan"}, "is_reserved": 0}, {"lon": -77.01858433333334, "bike_id": "9aecb09b65e89d0622518c6f2f6aa143", "lat": 38.920228, "fusion_lon": 0.0, "fusion_lat": 0.0, "type": "electric_scooter", "name": "9aecb09b65e89d0622518c6f2f6aa143", "is_disabled": 0, "rental_uris": {"ios": "https://dc.lft.to/lastmile_qr_scan", "android": "https://dc.lft.to/lastmile_qr_scan"}, "is_reserved": 0}, {"lon": -77.02834416666667, "bike_id": "b2a07ed5249e50cf8a4d26702350a5b3", "lat": 38.887682833333336, "fusion_lon": 0.0, "fusion_lat": 0.0, "type": "electric_scooter", "name": "b2a07ed5249e50cf8a4d26702350a5b3", "is_disabled": 0, "rental_uris": {"ios": "https://dc.lft.to/lastmile_qr_scan", "android": "https://dc.lft.to/lastmile_qr_scan"}, "is_reserved": 0}, {"lon": -77.23319333333333, "bike_id": "2cbd4862a0eb6ef548a0ff9df8cb476c", "lat": 38.87284483333333, "fusion_lon": 0.0, "fusion_lat": 0.0, "type": "electric_bike", "name": "2cbd4862a0eb6ef548a0ff9df8cb476c", "is_disabled": 0, "rental_uris": {"ios": "https://dc.lft.to/lastmile_qr_scan", "android": "https://dc.lft.to/lastmile_qr_scan"}, "is_reserved": 0}, {"lon": -76.98883033333334, "bike_id": "2693d6cc4ec8b0f47b672b2e775ab160", "lat": 38.86648133333333, "fusion_lon": 0.0, "fusion_lat": 0.0, "type": "electric_scooter", "name": "2693d6cc4ec8b0f47b672b2e775ab160", "is_disabled": 0, "rental_uris": {"ios": "https://dc.lft.to/lastmile_qr_scan", "android": "https://dc.lft.to/lastmile_qr_scan"}, "is_reserved": 0}, {"lon": -77.0089225, "bike_id": "2b1894160e4e772e56f48c7770413f8e", "lat": 38.92273616666667, "fusion_lon": 0.0, "fusion_lat": 0.0, "type": "electric_scooter", "name": "2b1894160e4e772e56f48c7770413f8e", "is_disabled": 0, "rental_uris": {"ios": "https://dc.lft.to/lastmile_qr_scan", "android": "https://dc.lft.to/lastmile_qr_scan"}, "is_reserved": 0}, {"lon": -76.96553616666667, "bike_id": "b3fe3b36938196f2d9bb2ad66de1e5a1", "lat": 38.918498166666666, "fusion_lon": 0.0, "fusion_lat": 0.0, "type": "electric_scooter", "name": "b3fe3b36938196f2d9bb2ad66de1e5a1", "is_disabled": 0, "rental_uris": {"ios": "https://dc.lft.to/lastmile_qr_scan", "android": "https://dc.lft.to/lastmile_qr_scan"}, "is_reserved": 0}, {"lon": -77.02370283333333, "bike_id": "cbcaa80a9293cd0077826a2de69bbd27", "lat": 38.917537333333335, "fusion_lon": 0.0, "fusion_lat": 0.0, "type": "electric_scooter", "name": "cbcaa80a9293cd0077826a2de69bbd27", "is_disabled": 0, "rental_uris": {"ios": "https://dc.lft.to/lastmile_qr_scan", "android": "https://dc.lft.to/lastmile_qr_scan"}, "is_reserved": 0}, {"lon": -77.03401616666666, "bike_id": "3bc00cde0388049a37dbc36ada51f0fa", "lat": 38.9263525, "fusion_lon": 0.0, "fusion_lat": 0.0, "type": "electric_scooter", "name": "3bc00cde0388049a37dbc36ada51f0fa", "is_disabled": 0, "rental_uris": {"ios": "https://dc.lft.to/lastmile_qr_scan", "android": "https://dc.lft.to/lastmile_qr_scan"}, "is_reserved": 0}, {"lon": -76.94999183333333, "bike_id": "88c7432662e2f42e3f445eefbc1ce42e", "lat": 38.8938215, "fusion_lon": 0.0, "fusion_lat": 0.0, "type": "electric_scooter", "name": "88c7432662e2f42e3f445eefbc1ce42e", "is_disabled": 0, "rental_uris": {"ios": "https://dc.lft.to/lastmile_qr_scan", "android": "https://dc.lft.to/lastmile_qr_scan"}, "is_reserved": 0}, {"lon": -77.011893, "bike_id": "5501052815dde424c6daa14df381bfeb", "lat": 38.91550633333333, "fusion_lon": 0.0, "fusion_lat": 0.0, "type": "electric_scooter", "name": "5501052815dde424c6daa14df381bfeb", "is_disabled": 0, "rental_uris": {"ios": "https://dc.lft.to/lastmile_qr_scan", "android": "https://dc.lft.to/lastmile_qr_scan"}, "is_reserved": 0}, {"lon": -76.98021816666666, "bike_id": "f4f6717acdf7ee7b3767315450e897bc", "lat": 38.90077516666667, "fusion_lon": 0.0, "fusion_lat": 0.0, "type": "electric_bike", "name": "f4f6717acdf7ee7b3767315450e897bc", "is_disabled": 0, "rental_uris": {"ios": "https://dc.lft.to/lastmile_qr_scan", "android": "https://dc.lft.to/lastmile_qr_scan"}, "is_reserved": 0}, {"lon": -76.94634316666667, "bike_id": "ca63a8cc1f61b097469bdd5770cc6b55", "lat": 38.89831216666666, "fusion_lon": 0.0, "fusion_lat": 0.0, "type": "electric_scooter", "name": "ca63a8cc1f61b097469bdd5770cc6b55", "is_disabled": 0, "rental_uris": {"ios": "https://dc.lft.to/lastmile_qr_scan", "android": "https://dc.lft.to/lastmile_qr_scan"}, "is_reserved": 0}, {"lon": -77.00033583333334, "bike_id": "7036067a9fcae0f285a901cddcd3d4c2", "lat": 38.90840333333333, "fusion_lon": 0.0, "fusion_lat": 0.0, "type": "electric_scooter", "name": "7036067a9fcae0f285a901cddcd3d4c2", "is_disabled": 0, "rental_uris": {"ios": "https://dc.lft.to/lastmile_qr_scan", "android": "https://dc.lft.to/lastmile_qr_scan"}, "is_reserved": 0}, {"lon": -77.02387766666666, "bike_id": "ace86d9a607ea04b8a9af6e90fab918d", "lat": 38.92076516666667, "fusion_lon": 0.0, "fusion_lat": 0.0, "type": "electric_scooter", "name": "ace86d9a607ea04b8a9af6e90fab918d", "is_disabled": 0, "rental_uris": {"ios": "https://dc.lft.to/lastmile_qr_scan", "android": "https://dc.lft.to/lastmile_qr_scan"}, "is_reserved": 0}, {"lon": -77.04173633333333, "bike_id": "2924cb2a8ddc4a95e4cfaf39751a350f", "lat": 38.9165515, "fusion_lon": 0.0, "fusion_lat": 0.0, "type": "electric_scooter", "name": "2924cb2a8ddc4a95e4cfaf39751a350f", "is_disabled": 0, "rental_uris": {"ios": "https://dc.lft.to/lastmile_qr_scan", "android": "https://dc.lft.to/lastmile_qr_scan"}, "is_reserved": 0}, {"lon": -77.36096833333333, "bike_id": "8540b1c0c993be03dcf9e445e91412be", "lat": 38.939555166666665, "fusion_lon": 0.0, "fusion_lat": 0.0, "type": "electric_bike", "name": "8540b1c0c993be03dcf9e445e91412be", "is_disabled": 0, "rental_uris": {"ios": "https://dc.lft.to/lastmile_qr_scan", "android": "https://dc.lft.to/lastmile_qr_scan"}, "is_reserved": 0}, {"lon": -77.0165395, "bike_id": "d8caf7af64213046ef910cda9719a3d2", "lat": 38.88745333333333, "fusion_lon": 0.0, "fusion_lat": 0.0, "type": "electric_scooter", "name": "d8caf7af64213046ef910cda9719a3d2", "is_disabled": 0, "rental_uris": {"ios": "https://dc.lft.to/lastmile_qr_scan", "android": "https://dc.lft.to/lastmile_qr_scan"}, "is_reserved": 0}, {"lon": -77.03660083333334, "bike_id": "1e532e40009b66e17896a689d5128cc9", "lat": 38.91750966666667, "fusion_lon": 0.0, "fusion_lat": 0.0, "type": "electric_scooter", "name": "1e532e40009b66e17896a689d5128cc9", "is_disabled": 0, "rental_uris": {"ios": "https://dc.lft.to/lastmile_qr_scan", "android": "https://dc.lft.to/lastmile_qr_scan"}, "is_reserved": 0}, {"lon": -76.9770355, "bike_id": "3acd673ad334bb7012d0b04af3821ab8", "lat": 38.94919266666667, "fusion_lon": 0.0, "fusion_lat": 0.0, "type": "electric_bike", "name": "3acd673ad334bb7012d0b04af3821ab8", "is_disabled": 0, "rental_uris": {"ios": "https://dc.lft.to/lastmile_qr_scan", "android": "https://dc.lft.to/lastmile_qr_scan"}, "is_reserved": 0}, {"lon": -77.05130466666667, "bike_id": "7dd324cbadd4d48d1cab913e32ed2524", "lat": 38.90220383333333, "fusion_lon": 0.0, "fusion_lat": 0.0, "type": "electric_scooter", "name": "7dd324cbadd4d48d1cab913e32ed2524", "is_disabled": 0, "rental_uris": {"ios": "https://dc.lft.to/lastmile_qr_scan", "android": "https://dc.lft.to/lastmile_qr_scan"}, "is_reserved": 0}, {"lon": -76.99429333333333, "bike_id": "b31d7e2000b08f45510ce6dc74b56b5f", "lat": 38.8956235, "fusion_lon": 0.0, "fusion_lat": 0.0, "type": "electric_scooter", "name": "b31d7e2000b08f45510ce6dc74b56b5f", "is_disabled": 0, "rental_uris": {"ios": "https://dc.lft.to/lastmile_qr_scan", "android": "https://dc.lft.to/lastmile_qr_scan"}, "is_reserved": 0}, {"lon": -77.003706, "bike_id": "19cfdf9ad479200bc2a947326809c3b4", "lat": 38.897321166666664, "fusion_lon": 0.0, "fusion_lat": 0.0, "type": "electric_scooter", "name": "19cfdf9ad479200bc2a947326809c3b4", "is_disabled": 0, "rental_uris": {"ios": "https://dc.lft.to/lastmile_qr_scan", "android": "https://dc.lft.to/lastmile_qr_scan"}, "is_reserved": 0}, {"lon": -76.90599016666667, "bike_id": "d8545eee4c1ec0059eaaa73944f32e60", "lat": 39.004591833333336, "fusion_lon": 0.0, "fusion_lat": 0.0, "type": "electric_bike", "name": "d8545eee4c1ec0059eaaa73944f32e60", "is_disabled": 0, "rental_uris": {"ios": "https://dc.lft.to/lastmile_qr_scan", "android": "https://dc.lft.to/lastmile_qr_scan"}, "is_reserved": 0}, {"lon": -77.0295045, "bike_id": "0ae00b81c69c832688c55abfbdc8b3b5", "lat": 38.90772783333333, "fusion_lon": 0.0, "fusion_lat": 0.0, "type": "electric_scooter", "name": "0ae00b81c69c832688c55abfbdc8b3b5", "is_disabled": 0, "rental_uris": {"ios": "https://dc.lft.to/lastmile_qr_scan", "android": "https://dc.lft.to/lastmile_qr_scan"}, "is_reserved": 0}, {"lon": -77.01622183333333, "bike_id": "a7519b1870cbc656c804448a3728fb6e", "lat": 38.965740833333335, "fusion_lon": 0.0, "fusion_lat": 0.0, "type": "electric_scooter", "name": "a7519b1870cbc656c804448a3728fb6e", "is_disabled": 0, "rental_uris": {"ios": "https://dc.lft.to/lastmile_qr_scan", "android": "https://dc.lft.to/lastmile_qr_scan"}, "is_reserved": 0}, {"lon": -76.986161, "bike_id": "d4fe3af90ba258f26e50182a50f089c5", "lat": 38.938296666666666, "fusion_lon": 0.0, "fusion_lat": 0.0, "type": "electric_scooter", "name": "d4fe3af90ba258f26e50182a50f089c5", "is_disabled": 0, "rental_uris": {"ios": "https://dc.lft.to/lastmile_qr_scan", "android": "https://dc.lft.to/lastmile_qr_scan"}, "is_reserved": 0}, {"lon": -76.98267766666666, "bike_id": "610c1b01533b20cebd3b8f17b928fe97", "lat": 38.908606166666665, "fusion_lon": 0.0, "fusion_lat": 0.0, "type": "electric_scooter", "name": "610c1b01533b20cebd3b8f17b928fe97", "is_disabled": 0, "rental_uris": {"ios": "https://dc.lft.to/lastmile_qr_scan", "android": "https://dc.lft.to/lastmile_qr_scan"}, "is_reserved": 0}, {"lon": -76.9822665, "bike_id": "31684939890d3562523844c117ed643b", "lat": 38.916419166666664, "fusion_lon": 0.0, "fusion_lat": 0.0, "type": "electric_scooter", "name": "31684939890d3562523844c117ed643b", "is_disabled": 0, "rental_uris": {"ios": "https://dc.lft.to/lastmile_qr_scan", "android": "https://dc.lft.to/lastmile_qr_scan"}, "is_reserved": 0}, {"lon": -76.987175, "bike_id": "168d743ea0242a4e276957ef954ee250", "lat": 38.86626533333333, "fusion_lon": 0.0, "fusion_lat": 0.0, "type": "electric_scooter", "name": "168d743ea0242a4e276957ef954ee250", "is_disabled": 0, "rental_uris": {"ios": "https://dc.lft.to/lastmile_qr_scan", "android": "https://dc.lft.to/lastmile_qr_scan"}, "is_reserved": 0}, {"lon": -77.03661916666667, "bike_id": "3876fe5bac5f3fee9c7737c6065c19f5", "lat": 38.909552833333336, "fusion_lon": 0.0, "fusion_lat": 0.0, "type": "electric_scooter", "name": "3876fe5bac5f3fee9c7737c6065c19f5", "is_disabled": 0, "rental_uris": {"ios": "https://dc.lft.to/lastmile_qr_scan", "android": "https://dc.lft.to/lastmile_qr_scan"}, "is_reserved": 0}, {"lon": -77.01764133333333, "bike_id": "aa62896e93f8de1e0fa77877a736ca82", "lat": 38.902573833333335, "fusion_lon": 0.0, "fusion_lat": 0.0, "type": "electric_scooter", "name": "aa62896e93f8de1e0fa77877a736ca82", "is_disabled": 0, "rental_uris": {"ios": "https://dc.lft.to/lastmile_qr_scan", "android": "https://dc.lft.to/lastmile_qr_scan"}, "is_reserved": 0}, {"lon": -77.03261066666667, "bike_id": "698343ff7afc8dc48920c5aea6810aa9", "lat": 38.935241833333336, "fusion_lon": 0.0, "fusion_lat": 0.0, "type": "electric_scooter", "name": "698343ff7afc8dc48920c5aea6810aa9", "is_disabled": 0, "rental_uris": {"ios": "https://dc.lft.to/lastmile_qr_scan", "android": "https://dc.lft.to/lastmile_qr_scan"}, "is_reserved": 0}, {"lon": -76.98965916666667, "bike_id": "122f83fa4fa7bcdeb4348d50f643fa51", "lat": 38.8569135, "fusion_lon": 0.0, "fusion_lat": 0.0, "type": "electric_scooter", "name": "122f83fa4fa7bcdeb4348d50f643fa51", "is_disabled": 0, "rental_uris": {"ios": "https://dc.lft.to/lastmile_qr_scan", "android": "https://dc.lft.to/lastmile_qr_scan"}, "is_reserved": 0}, {"lon": -76.9819255, "bike_id": "da04216807c07a7909aa7e144ca86e98", "lat": 38.899506333333335, "fusion_lon": 0.0, "fusion_lat": 0.0, "type": "electric_scooter", "name": "da04216807c07a7909aa7e144ca86e98", "is_disabled": 0, "rental_uris": {"ios": "https://dc.lft.to/lastmile_qr_scan", "android": "https://dc.lft.to/lastmile_qr_scan"}, "is_reserved": 0}, {"lon": -77.02841783333334, "bike_id": "2c51a6a7aa49156ea28442e34d9cb741", "lat": 38.8922555, "fusion_lon": 0.0, "fusion_lat": 0.0, "type": "electric_scooter", "name": "2c51a6a7aa49156ea28442e34d9cb741", "is_disabled": 0, "rental_uris": {"ios": "https://dc.lft.to/lastmile_qr_scan", "android": "https://dc.lft.to/lastmile_qr_scan"}, "is_reserved": 0}, {"lon": -77.04926483333334, "bike_id": "026c02fcddebadf7f559e87a1e2e4185", "lat": 38.90376833333333, "fusion_lon": 0.0, "fusion_lat": 0.0, "type": "electric_scooter", "name": "026c02fcddebadf7f559e87a1e2e4185", "is_disabled": 0, "rental_uris": {"ios": "https://dc.lft.to/lastmile_qr_scan", "android": "https://dc.lft.to/lastmile_qr_scan"}, "is_reserved": 0}, {"lon": -76.951855, "bike_id": "3ea94fdbeb3895e83ebe785340043233", "lat": 38.90740983333333, "fusion_lon": 0.0, "fusion_lat": 0.0, "type": "electric_scooter", "name": "3ea94fdbeb3895e83ebe785340043233", "is_disabled": 0, "rental_uris": {"ios": "https://dc.lft.to/lastmile_qr_scan", "android": "https://dc.lft.to/lastmile_qr_scan"}, "is_reserved": 0}, {"lon": -76.98009083333334, "bike_id": "349006b7508595ebf578f2555186f1f9", "lat": 38.9067945, "fusion_lon": 0.0, "fusion_lat": 0.0, "type": "electric_scooter", "name": "349006b7508595ebf578f2555186f1f9", "is_disabled": 0, "rental_uris": {"ios": "https://dc.lft.to/lastmile_qr_scan", "android": "https://dc.lft.to/lastmile_qr_scan"}, "is_reserved": 0}, {"lon": -77.03165816666667, "bike_id": "b5c1211ff5e05ada2d4d11e689566356", "lat": 38.892180333333336, "fusion_lon": 0.0, "fusion_lat": 0.0, "type": "electric_scooter", "name": "b5c1211ff5e05ada2d4d11e689566356", "is_disabled": 0, "rental_uris": {"ios": "https://dc.lft.to/lastmile_qr_scan", "android": "https://dc.lft.to/lastmile_qr_scan"}, "is_reserved": 0}, {"lon": -77.01767316666667, "bike_id": "a523143b6770c3041128db33eb58b237", "lat": 38.92110533333334, "fusion_lon": 0.0, "fusion_lat": 0.0, "type": "electric_scooter", "name": "a523143b6770c3041128db33eb58b237", "is_disabled": 0, "rental_uris": {"ios": "https://dc.lft.to/lastmile_qr_scan", "android": "https://dc.lft.to/lastmile_qr_scan"}, "is_reserved": 0}, {"lon": -76.983668, "bike_id": "6526dd49473e40463fd6e28c9de8cb96", "lat": 38.915032833333335, "fusion_lon": 0.0, "fusion_lat": 0.0, "type": "electric_scooter", "name": "6526dd49473e40463fd6e28c9de8cb96", "is_disabled": 0, "rental_uris": {"ios": "https://dc.lft.to/lastmile_qr_scan", "android": "https://dc.lft.to/lastmile_qr_scan"}, "is_reserved": 0}, {"lon": -76.98772966666667, "bike_id": "1febcf62aefcf765dfa8674ca1e4cd20", "lat": 38.906616666666665, "fusion_lon": 0.0, "fusion_lat": 0.0, "type": "electric_scooter", "name": "1febcf62aefcf765dfa8674ca1e4cd20", "is_disabled": 0, "rental_uris": {"ios": "https://dc.lft.to/lastmile_qr_scan", "android": "https://dc.lft.to/lastmile_qr_scan"}, "is_reserved": 0}, {"lon": -76.98260166666667, "bike_id": "771c4e1420f81a976d83ec866480cc0b", "lat": 38.908549, "fusion_lon": 0.0, "fusion_lat": 0.0, "type": "electric_scooter", "name": "771c4e1420f81a976d83ec866480cc0b", "is_disabled": 0, "rental_uris": {"ios": "https://dc.lft.to/lastmile_qr_scan", "android": "https://dc.lft.to/lastmile_qr_scan"}, "is_reserved": 0}, {"lon": -77.02960633333333, "bike_id": "cbd691b3be5d86c51b8fdfd7f3c0186e", "lat": 38.907955333333334, "fusion_lon": 0.0, "fusion_lat": 0.0, "type": "electric_scooter", "name": "cbd691b3be5d86c51b8fdfd7f3c0186e", "is_disabled": 0, "rental_uris": {"ios": "https://dc.lft.to/lastmile_qr_scan", "android": "https://dc.lft.to/lastmile_qr_scan"}, "is_reserved": 0}, {"lon": -77.1009355, "bike_id": "5f5c4d8b868554487ddccc3ffec7efcb", "lat": 38.959547, "fusion_lon": 0.0, "fusion_lat": 0.0, "type": "electric_bike", "name": "5f5c4d8b868554487ddccc3ffec7efcb", "is_disabled": 0, "rental_uris": {"ios": "https://dc.lft.to/lastmile_qr_scan", "android": "https://dc.lft.to/lastmile_qr_scan"}, "is_reserved": 0}, {"lon": -77.03065433333333, "bike_id": "a633ce44cf9df03eb6805e15ddfd405d", "lat": 38.908068166666666, "fusion_lon": 0.0, "fusion_lat": 0.0, "type": "electric_scooter", "name": "a633ce44cf9df03eb6805e15ddfd405d", "is_disabled": 0, "rental_uris": {"ios": "https://dc.lft.to/lastmile_qr_scan", "android": "https://dc.lft.to/lastmile_qr_scan"}, "is_reserved": 0}, {"lon": -77.01151866666666, "bike_id": "3aab3e4942b8435251b98ba2ba4aa037", "lat": 38.91410416666667, "fusion_lon": 0.0, "fusion_lat": 0.0, "type": "electric_scooter", "name": "3aab3e4942b8435251b98ba2ba4aa037", "is_disabled": 0, "rental_uris": {"ios": "https://dc.lft.to/lastmile_qr_scan", "android": "https://dc.lft.to/lastmile_qr_scan"}, "is_reserved": 0}, {"lon": -76.98501283333333, "bike_id": "a49acb07d04b10130527b08e5b5c124b", "lat": 38.920080166666665, "fusion_lon": 0.0, "fusion_lat": 0.0, "type": "electric_scooter", "name": "a49acb07d04b10130527b08e5b5c124b", "is_disabled": 0, "rental_uris": {"ios": "https://dc.lft.to/lastmile_qr_scan", "android": "https://dc.lft.to/lastmile_qr_scan"}, "is_reserved": 0}, {"lon": -77.03661083333333, "bike_id": "8191fb3bfa8f1d7a72d973814f410f43", "lat": 38.91750533333333, "fusion_lon": 0.0, "fusion_lat": 0.0, "type": "electric_scooter", "name": "8191fb3bfa8f1d7a72d973814f410f43", "is_disabled": 0, "rental_uris": {"ios": "https://dc.lft.to/lastmile_qr_scan", "android": "https://dc.lft.to/lastmile_qr_scan"}, "is_reserved": 0}, {"lon": -77.01165533333334, "bike_id": "0806576c3c64a2db0cf69dd829415642", "lat": 38.87231766666667, "fusion_lon": 0.0, "fusion_lat": 0.0, "type": "electric_bike", "name": "0806576c3c64a2db0cf69dd829415642", "is_disabled": 0, "rental_uris": {"ios": "https://dc.lft.to/lastmile_qr_scan", "android": "https://dc.lft.to/lastmile_qr_scan"}, "is_reserved": 0}, {"lon": -76.96391916666667, "bike_id": "9c94fcc3910d0b6a719a6948dacc5e82", "lat": 38.9516775, "fusion_lon": 0.0, "fusion_lat": 0.0, "type": "electric_bike", "name": "9c94fcc3910d0b6a719a6948dacc5e82", "is_disabled": 0, "rental_uris": {"ios": "https://dc.lft.to/lastmile_qr_scan", "android": "https://dc.lft.to/lastmile_qr_scan"}, "is_reserved": 0}, {"lon": -76.99409833333333, "bike_id": "f411d31a1e3d3860f13c5ad0afbd1482", "lat": 38.8313445, "fusion_lon": 0.0, "fusion_lat": 0.0, "type": "electric_bike", "name": "f411d31a1e3d3860f13c5ad0afbd1482", "is_disabled": 0, "rental_uris": {"ios": "https://dc.lft.to/lastmile_qr_scan", "android": "https://dc.lft.to/lastmile_qr_scan"}, "is_reserved": 0}, {"lon": -77.02578316666667, "bike_id": "1af93a73d913750acefc5fa87f3ec261", "lat": 38.89945266666667, "fusion_lon": 0.0, "fusion_lat": 0.0, "type": "electric_scooter", "name": "1af93a73d913750acefc5fa87f3ec261", "is_disabled": 0, "rental_uris": {"ios": "https://dc.lft.to/lastmile_qr_scan", "android": "https://dc.lft.to/lastmile_qr_scan"}, "is_reserved": 0}, {"lon": -77.02533666666666, "bike_id": "d4dc3e7d847d2ad46ee7f6689f6f8be8", "lat": 38.9273605, "fusion_lon": 0.0, "fusion_lat": 0.0, "type": "electric_scooter", "name": "d4dc3e7d847d2ad46ee7f6689f6f8be8", "is_disabled": 0, "rental_uris": {"ios": "https://dc.lft.to/lastmile_qr_scan", "android": "https://dc.lft.to/lastmile_qr_scan"}, "is_reserved": 0}, {"lon": -77.00788333333334, "bike_id": "05afead60b05cac6eaaec6d1066fe5c8", "lat": 38.89667716666666, "fusion_lon": 0.0, "fusion_lat": 0.0, "type": "electric_scooter", "name": "05afead60b05cac6eaaec6d1066fe5c8", "is_disabled": 0, "rental_uris": {"ios": "https://dc.lft.to/lastmile_qr_scan", "android": "https://dc.lft.to/lastmile_qr_scan"}, "is_reserved": 0}, {"lon": -77.0307355, "bike_id": "2f6f600eb36a61a851b72fd8ca16e30c", "lat": 38.91814516666667, "fusion_lon": 0.0, "fusion_lat": 0.0, "type": "electric_scooter", "name": "2f6f600eb36a61a851b72fd8ca16e30c", "is_disabled": 0, "rental_uris": {"ios": "https://dc.lft.to/lastmile_qr_scan", "android": "https://dc.lft.to/lastmile_qr_scan"}, "is_reserved": 0}, {"lon": -77.0361795, "bike_id": "9a5021fd469161258c234c0db1c1f915", "lat": 38.937402166666665, "fusion_lon": 0.0, "fusion_lat": 0.0, "type": "electric_scooter", "name": "9a5021fd469161258c234c0db1c1f915", "is_disabled": 0, "rental_uris": {"ios": "https://dc.lft.to/lastmile_qr_scan", "android": "https://dc.lft.to/lastmile_qr_scan"}, "is_reserved": 0}, {"lon": -76.98592066666667, "bike_id": "000926ab1c678cf6272ab12e8793a06e", "lat": 38.908144666666665, "fusion_lon": 0.0, "fusion_lat": 0.0, "type": "electric_scooter", "name": "000926ab1c678cf6272ab12e8793a06e", "is_disabled": 0, "rental_uris": {"ios": "https://dc.lft.to/lastmile_qr_scan", "android": "https://dc.lft.to/lastmile_qr_scan"}, "is_reserved": 0}, {"lon": -77.03276633333333, "bike_id": "3003033010abe42cb229e72cdfa0e6d5", "lat": 38.90450883333333, "fusion_lon": 0.0, "fusion_lat": 0.0, "type": "electric_scooter", "name": "3003033010abe42cb229e72cdfa0e6d5", "is_disabled": 0, "rental_uris": {"ios": "https://dc.lft.to/lastmile_qr_scan", "android": "https://dc.lft.to/lastmile_qr_scan"}, "is_reserved": 0}, {"lon": -76.93376333333333, "bike_id": "2694a5df0f73914b725fc30fc39cfd6b", "lat": 38.8990655, "fusion_lon": 0.0, "fusion_lat": 0.0, "type": "electric_scooter", "name": "2694a5df0f73914b725fc30fc39cfd6b", "is_disabled": 0, "rental_uris": {"ios": "https://dc.lft.to/lastmile_qr_scan", "android": "https://dc.lft.to/lastmile_qr_scan"}, "is_reserved": 0}, {"lon": -76.94441133333333, "bike_id": "896fad6a983f755ad749e92bc6561fc9", "lat": 38.900428833333336, "fusion_lon": 0.0, "fusion_lat": 0.0, "type": "electric_scooter", "name": "896fad6a983f755ad749e92bc6561fc9", "is_disabled": 0, "rental_uris": {"ios": "https://dc.lft.to/lastmile_qr_scan", "android": "https://dc.lft.to/lastmile_qr_scan"}, "is_reserved": 0}, {"lon": -77.027146, "bike_id": "49bfd52bad362c9d6c92df8713ac5313", "lat": 38.906689166666666, "fusion_lon": 0.0, "fusion_lat": 0.0, "type": "electric_scooter", "name": "49bfd52bad362c9d6c92df8713ac5313", "is_disabled": 0, "rental_uris": {"ios": "https://dc.lft.to/lastmile_qr_scan", "android": "https://dc.lft.to/lastmile_qr_scan"}, "is_reserved": 0}, {"lon": -77.01812883333334, "bike_id": "573c8bc086cea6d4fe5b4e1cae462a95", "lat": 38.9202575, "fusion_lon": 0.0, "fusion_lat": 0.0, "type": "electric_scooter", "name": "573c8bc086cea6d4fe5b4e1cae462a95", "is_disabled": 0, "rental_uris": {"ios": "https://dc.lft.to/lastmile_qr_scan", "android": "https://dc.lft.to/lastmile_qr_scan"}, "is_reserved": 0}, {"lon": -77.02326583333334, "bike_id": "593b35305dd9dd5c97385e4cb2f9e5c8", "lat": 38.907231833333334, "fusion_lon": 0.0, "fusion_lat": 0.0, "type": "electric_scooter", "name": "593b35305dd9dd5c97385e4cb2f9e5c8", "is_disabled": 0, "rental_uris": {"ios": "https://dc.lft.to/lastmile_qr_scan", "android": "https://dc.lft.to/lastmile_qr_scan"}, "is_reserved": 0}, {"lon": -77.00458383333333, "bike_id": "1a3b65c5397e8f5ee1b36cc5b6f3cc7b", "lat": 38.9118655, "fusion_lon": 0.0, "fusion_lat": 0.0, "type": "electric_scooter", "name": "1a3b65c5397e8f5ee1b36cc5b6f3cc7b", "is_disabled": 0, "rental_uris": {"ios": "https://dc.lft.to/lastmile_qr_scan", "android": "https://dc.lft.to/lastmile_qr_scan"}, "is_reserved": 0}, {"lon": -77.0216925, "bike_id": "fe60a52a13f769bad22b127605038306", "lat": 38.942932166666665, "fusion_lon": 0.0, "fusion_lat": 0.0, "type": "electric_scooter", "name": "fe60a52a13f769bad22b127605038306", "is_disabled": 0, "rental_uris": {"ios": "https://dc.lft.to/lastmile_qr_scan", "android": "https://dc.lft.to/lastmile_qr_scan"}, "is_reserved": 0}, {"lon": -76.94634033333334, "bike_id": "559b4dbaa2e674bfc5abfe3d9bf8afba", "lat": 38.89833566666667, "fusion_lon": 0.0, "fusion_lat": 0.0, "type": "electric_scooter", "name": "559b4dbaa2e674bfc5abfe3d9bf8afba", "is_disabled": 0, "rental_uris": {"ios": "https://dc.lft.to/lastmile_qr_scan", "android": "https://dc.lft.to/lastmile_qr_scan"}, "is_reserved": 0}, {"lon": -77.0766985, "bike_id": "9fa626ba3fed2eb3834b763b0814d6f1", "lat": 38.9432475, "fusion_lon": 0.0, "fusion_lat": 0.0, "type": "electric_scooter", "name": "9fa626ba3fed2eb3834b763b0814d6f1", "is_disabled": 0, "rental_uris": {"ios": "https://dc.lft.to/lastmile_qr_scan", "android": "https://dc.lft.to/lastmile_qr_scan"}, "is_reserved": 0}, {"lon": -77.03944116666666, "bike_id": "04fb7a052a07d7d1adef1beac43810ab", "lat": 38.9194095, "fusion_lon": 0.0, "fusion_lat": 0.0, "type": "electric_scooter", "name": "04fb7a052a07d7d1adef1beac43810ab", "is_disabled": 0, "rental_uris": {"ios": "https://dc.lft.to/lastmile_qr_scan", "android": "https://dc.lft.to/lastmile_qr_scan"}, "is_reserved": 0}, {"lon": -76.99854283333333, "bike_id": "908dca44771f51ea3a3f92deef6b9aa6", "lat": 38.90775133333333, "fusion_lon": 0.0, "fusion_lat": 0.0, "type": "electric_scooter", "name": "908dca44771f51ea3a3f92deef6b9aa6", "is_disabled": 0, "rental_uris": {"ios": "https://dc.lft.to/lastmile_qr_scan", "android": "https://dc.lft.to/lastmile_qr_scan"}, "is_reserved": 0}, {"lon": -77.05614016666667, "bike_id": "20a84be55cd2ed5d241b149c41e6ff49", "lat": 38.92336916666667, "fusion_lon": 0.0, "fusion_lat": 0.0, "type": "electric_scooter", "name": "20a84be55cd2ed5d241b149c41e6ff49", "is_disabled": 0, "rental_uris": {"ios": "https://dc.lft.to/lastmile_qr_scan", "android": "https://dc.lft.to/lastmile_qr_scan"}, "is_reserved": 0}, {"lon": -76.96531366666666, "bike_id": "6b6a762a4d782a33100f3ed0a87727c1", "lat": 38.874777, "fusion_lon": 0.0, "fusion_lat": 0.0, "type": "electric_scooter", "name": "6b6a762a4d782a33100f3ed0a87727c1", "is_disabled": 0, "rental_uris": {"ios": "https://dc.lft.to/lastmile_qr_scan", "android": "https://dc.lft.to/lastmile_qr_scan"}, "is_reserved": 0}, {"lon": -77.04248333333334, "bike_id": "4f5796930e812baf231a6778c671096c", "lat": 38.906502333333336, "fusion_lon": 0.0, "fusion_lat": 0.0, "type": "electric_scooter", "name": "4f5796930e812baf231a6778c671096c", "is_disabled": 0, "rental_uris": {"ios": "https://dc.lft.to/lastmile_qr_scan", "android": "https://dc.lft.to/lastmile_qr_scan"}, "is_reserved": 0}, {"lon": -76.99199733333333, "bike_id": "529a0074768c805e7016bcff631a963e", "lat": 38.898254666666666, "fusion_lon": 0.0, "fusion_lat": 0.0, "type": "electric_scooter", "name": "529a0074768c805e7016bcff631a963e", "is_disabled": 0, "rental_uris": {"ios": "https://dc.lft.to/lastmile_qr_scan", "android": "https://dc.lft.to/lastmile_qr_scan"}, "is_reserved": 0}, {"lon": -77.0422265, "bike_id": "18b27b400f99dba10ef1618aef3ae1b5", "lat": 38.91120383333333, "fusion_lon": 0.0, "fusion_lat": 0.0, "type": "electric_scooter", "name": "18b27b400f99dba10ef1618aef3ae1b5", "is_disabled": 0, "rental_uris": {"ios": "https://dc.lft.to/lastmile_qr_scan", "android": "https://dc.lft.to/lastmile_qr_scan"}, "is_reserved": 0}, {"lon": -77.00920416666666, "bike_id": "129e6273107f961c4c84c5f9421a144f", "lat": 38.896481666666666, "fusion_lon": 0.0, "fusion_lat": 0.0, "type": "electric_scooter", "name": "129e6273107f961c4c84c5f9421a144f", "is_disabled": 0, "rental_uris": {"ios": "https://dc.lft.to/lastmile_qr_scan", "android": "https://dc.lft.to/lastmile_qr_scan"}, "is_reserved": 0}, {"lon": -77.04554566666667, "bike_id": "25879301cdf8312ad3043ad443c735ee", "lat": 38.9193, "fusion_lon": 0.0, "fusion_lat": 0.0, "type": "electric_scooter", "name": "25879301cdf8312ad3043ad443c735ee", "is_disabled": 0, "rental_uris": {"ios": "https://dc.lft.to/lastmile_qr_scan", "android": "https://dc.lft.to/lastmile_qr_scan"}, "is_reserved": 0}, {"lon": -76.98340383333333, "bike_id": "960c66b3124e938b676976f7dcf46dda", "lat": 38.9044915, "fusion_lon": 0.0, "fusion_lat": 0.0, "type": "electric_scooter", "name": "960c66b3124e938b676976f7dcf46dda", "is_disabled": 0, "rental_uris": {"ios": "https://dc.lft.to/lastmile_qr_scan", "android": "https://dc.lft.to/lastmile_qr_scan"}, "is_reserved": 0}, {"lon": -77.03357666666666, "bike_id": "7887acd2ed8dfa24fb4978cf73327b89", "lat": 38.93581566666667, "fusion_lon": 0.0, "fusion_lat": 0.0, "type": "electric_scooter", "name": "7887acd2ed8dfa24fb4978cf73327b89", "is_disabled": 0, "rental_uris": {"ios": "https://dc.lft.to/lastmile_qr_scan", "android": "https://dc.lft.to/lastmile_qr_scan"}, "is_reserved": 0}, {"lon": -76.996116, "bike_id": "81afbf9c7343bd0b3912da72b1b05fec", "lat": 38.8946345, "fusion_lon": 0.0, "fusion_lat": 0.0, "type": "electric_scooter", "name": "81afbf9c7343bd0b3912da72b1b05fec", "is_disabled": 0, "rental_uris": {"ios": "https://dc.lft.to/lastmile_qr_scan", "android": "https://dc.lft.to/lastmile_qr_scan"}, "is_reserved": 0}, {"lon": -77.0411285, "bike_id": "8a8f73495ee40ccc2ae6ea0f1a471b06", "lat": 38.934693, "fusion_lon": 0.0, "fusion_lat": 0.0, "type": "electric_scooter", "name": "8a8f73495ee40ccc2ae6ea0f1a471b06", "is_disabled": 0, "rental_uris": {"ios": "https://dc.lft.to/lastmile_qr_scan", "android": "https://dc.lft.to/lastmile_qr_scan"}, "is_reserved": 0}, {"lon": -77.02654883333334, "bike_id": "1b0d4d541a545568e2956a5f74f43456", "lat": 38.97812, "fusion_lon": 0.0, "fusion_lat": 0.0, "type": "electric_scooter", "name": "1b0d4d541a545568e2956a5f74f43456", "is_disabled": 0, "rental_uris": {"ios": "https://dc.lft.to/lastmile_qr_scan", "android": "https://dc.lft.to/lastmile_qr_scan"}, "is_reserved": 0}, {"lon": -76.97711416666667, "bike_id": "19005ad578219753aac545800c59f5d2", "lat": 38.887767, "fusion_lon": 0.0, "fusion_lat": 0.0, "type": "electric_scooter", "name": "19005ad578219753aac545800c59f5d2", "is_disabled": 0, "rental_uris": {"ios": "https://dc.lft.to/lastmile_qr_scan", "android": "https://dc.lft.to/lastmile_qr_scan"}, "is_reserved": 0}, {"lon": -76.978718, "bike_id": "82bee142a3ef510f8bd70d9b05245343", "lat": 38.8830365, "fusion_lon": 0.0, "fusion_lat": 0.0, "type": "electric_scooter", "name": "82bee142a3ef510f8bd70d9b05245343", "is_disabled": 0, "rental_uris": {"ios": "https://dc.lft.to/lastmile_qr_scan", "android": "https://dc.lft.to/lastmile_qr_scan"}, "is_reserved": 0}, {"lon": -77.0447315, "bike_id": "1592f8323ee18cff8a25c932e926495d", "lat": 38.918885333333336, "fusion_lon": 0.0, "fusion_lat": 0.0, "type": "electric_scooter", "name": "1592f8323ee18cff8a25c932e926495d", "is_disabled": 0, "rental_uris": {"ios": "https://dc.lft.to/lastmile_qr_scan", "android": "https://dc.lft.to/lastmile_qr_scan"}, "is_reserved": 0}, {"lon": -77.01354183333333, "bike_id": "4d599bc24b13a5aa32d9fa23343a543e", "lat": 38.89716, "fusion_lon": 0.0, "fusion_lat": 0.0, "type": "electric_scooter", "name": "4d599bc24b13a5aa32d9fa23343a543e", "is_disabled": 0, "rental_uris": {"ios": "https://dc.lft.to/lastmile_qr_scan", "android": "https://dc.lft.to/lastmile_qr_scan"}, "is_reserved": 0}, {"lon": -77.04507733333334, "bike_id": "af89898b840e7696bdc187a77cf1b10c", "lat": 38.90348633333333, "fusion_lon": 0.0, "fusion_lat": 0.0, "type": "electric_scooter", "name": "af89898b840e7696bdc187a77cf1b10c", "is_disabled": 0, "rental_uris": {"ios": "https://dc.lft.to/lastmile_qr_scan", "android": "https://dc.lft.to/lastmile_qr_scan"}, "is_reserved": 0}, {"lon": -77.00792616666666, "bike_id": "4c0ba2d2fcfb17d47534b927c1bf3be9", "lat": 38.8964465, "fusion_lon": 0.0, "fusion_lat": 0.0, "type": "electric_scooter", "name": "4c0ba2d2fcfb17d47534b927c1bf3be9", "is_disabled": 0, "rental_uris": {"ios": "https://dc.lft.to/lastmile_qr_scan", "android": "https://dc.lft.to/lastmile_qr_scan"}, "is_reserved": 0}, {"lon": -77.08771666666667, "bike_id": "e8e9f1ba9d6d1d6ee4bda509e2d44011", "lat": 38.838990333333335, "fusion_lon": 0.0, "fusion_lat": 0.0, "type": "electric_bike", "name": "e8e9f1ba9d6d1d6ee4bda509e2d44011", "is_disabled": 0, "rental_uris": {"ios": "https://dc.lft.to/lastmile_qr_scan", "android": "https://dc.lft.to/lastmile_qr_scan"}, "is_reserved": 0}, {"lon": -77.02847933333334, "bike_id": "620efa34b5896d72d9cbd0e862f5de13", "lat": 38.927645166666665, "fusion_lon": 0.0, "fusion_lat": 0.0, "type": "electric_scooter", "name": "620efa34b5896d72d9cbd0e862f5de13", "is_disabled": 0, "rental_uris": {"ios": "https://dc.lft.to/lastmile_qr_scan", "android": "https://dc.lft.to/lastmile_qr_scan"}, "is_reserved": 0}, {"lon": -77.12653983333334, "bike_id": "fc9045ce8966554f22ac562d8c8c7c4e", "lat": 38.815099833333335, "fusion_lon": 0.0, "fusion_lat": 0.0, "type": "electric_bike", "name": "fc9045ce8966554f22ac562d8c8c7c4e", "is_disabled": 0, "rental_uris": {"ios": "https://dc.lft.to/lastmile_qr_scan", "android": "https://dc.lft.to/lastmile_qr_scan"}, "is_reserved": 0}, {"lon": -77.02214583333334, "bike_id": "728604ca4a6531fd851d963610e34784", "lat": 38.91011866666667, "fusion_lon": 0.0, "fusion_lat": 0.0, "type": "electric_scooter", "name": "728604ca4a6531fd851d963610e34784", "is_disabled": 0, "rental_uris": {"ios": "https://dc.lft.to/lastmile_qr_scan", "android": "https://dc.lft.to/lastmile_qr_scan"}, "is_reserved": 0}, {"lon": -77.036758, "bike_id": "ffabf6dee7c04119a890ebb5a25ff08f", "lat": 38.9212485, "fusion_lon": 0.0, "fusion_lat": 0.0, "type": "electric_scooter", "name": "ffabf6dee7c04119a890ebb5a25ff08f", "is_disabled": 0, "rental_uris": {"ios": "https://dc.lft.to/lastmile_qr_scan", "android": "https://dc.lft.to/lastmile_qr_scan"}, "is_reserved": 0}, {"lon": -76.927364, "bike_id": "3eacb40306c9fa6bee30f0dc6343d57e", "lat": 38.88966766666667, "fusion_lon": 0.0, "fusion_lat": 0.0, "type": "electric_scooter", "name": "3eacb40306c9fa6bee30f0dc6343d57e", "is_disabled": 0, "rental_uris": {"ios": "https://dc.lft.to/lastmile_qr_scan", "android": "https://dc.lft.to/lastmile_qr_scan"}, "is_reserved": 0}, {"lon": -77.01429666666667, "bike_id": "9a2f2d2d7dcc7ca0236667afdb7098a6", "lat": 38.8764185, "fusion_lon": 0.0, "fusion_lat": 0.0, "type": "electric_scooter", "name": "9a2f2d2d7dcc7ca0236667afdb7098a6", "is_disabled": 0, "rental_uris": {"ios": "https://dc.lft.to/lastmile_qr_scan", "android": "https://dc.lft.to/lastmile_qr_scan"}, "is_reserved": 0}, {"lon": -77.01889683333333, "bike_id": "15a6ac32fdc975e60f4e8c7636dad6e9", "lat": 38.905015, "fusion_lon": 0.0, "fusion_lat": 0.0, "type": "electric_scooter", "name": "15a6ac32fdc975e60f4e8c7636dad6e9", "is_disabled": 0, "rental_uris": {"ios": "https://dc.lft.to/lastmile_qr_scan", "android": "https://dc.lft.to/lastmile_qr_scan"}, "is_reserved": 0}, {"lon": -76.98552183333334, "bike_id": "e55bcee8994e58fcdec79ed71422e069", "lat": 38.9200305, "fusion_lon": 0.0, "fusion_lat": 0.0, "type": "electric_scooter", "name": "e55bcee8994e58fcdec79ed71422e069", "is_disabled": 0, "rental_uris": {"ios": "https://dc.lft.to/lastmile_qr_scan", "android": "https://dc.lft.to/lastmile_qr_scan"}, "is_reserved": 0}, {"lon": -76.93354216666667, "bike_id": "580479bd58efda3af7ed649d53a54238", "lat": 38.89896816666667, "fusion_lon": 0.0, "fusion_lat": 0.0, "type": "electric_scooter", "name": "580479bd58efda3af7ed649d53a54238", "is_disabled": 0, "rental_uris": {"ios": "https://dc.lft.to/lastmile_qr_scan", "android": "https://dc.lft.to/lastmile_qr_scan"}, "is_reserved": 0}, {"lon": -77.05176166666666, "bike_id": "19d409c9f2b19959e65303e3b878f9b0", "lat": 38.923427, "fusion_lon": 0.0, "fusion_lat": 0.0, "type": "electric_scooter", "name": "19d409c9f2b19959e65303e3b878f9b0", "is_disabled": 0, "rental_uris": {"ios": "https://dc.lft.to/lastmile_qr_scan", "android": "https://dc.lft.to/lastmile_qr_scan"}, "is_reserved": 0}, {"lon": -77.02152266666667, "bike_id": "9373d828c3212e043b3165a7401a22ae", "lat": 38.925996166666664, "fusion_lon": 0.0, "fusion_lat": 0.0, "type": "electric_bike", "name": "9373d828c3212e043b3165a7401a22ae", "is_disabled": 0, "rental_uris": {"ios": "https://dc.lft.to/lastmile_qr_scan", "android": "https://dc.lft.to/lastmile_qr_scan"}, "is_reserved": 0}, {"lon": -76.98287033333334, "bike_id": "18b7be0ad3993129ffaf535bcb3ace32", "lat": 38.90044983333333, "fusion_lon": 0.0, "fusion_lat": 0.0, "type": "electric_scooter", "name": "18b7be0ad3993129ffaf535bcb3ace32", "is_disabled": 0, "rental_uris": {"ios": "https://dc.lft.to/lastmile_qr_scan", "android": "https://dc.lft.to/lastmile_qr_scan"}, "is_reserved": 0}, {"lon": -77.05133733333334, "bike_id": "b4b96070a09adb51fd743744b5abaf7e", "lat": 38.92360383333333, "fusion_lon": 0.0, "fusion_lat": 0.0, "type": "electric_scooter", "name": "b4b96070a09adb51fd743744b5abaf7e", "is_disabled": 0, "rental_uris": {"ios": "https://dc.lft.to/lastmile_qr_scan", "android": "https://dc.lft.to/lastmile_qr_scan"}, "is_reserved": 0}, {"lon": -77.08315916666666, "bike_id": "2683f1c0b7bb37b092f088592ace1e65", "lat": 38.929878333333335, "fusion_lon": 0.0, "fusion_lat": 0.0, "type": "electric_scooter", "name": "2683f1c0b7bb37b092f088592ace1e65", "is_disabled": 0, "rental_uris": {"ios": "https://dc.lft.to/lastmile_qr_scan", "android": "https://dc.lft.to/lastmile_qr_scan"}, "is_reserved": 0}, {"lon": -77.03449466666666, "bike_id": "3125f3fbda8774fe03e27faf066cddea", "lat": 38.90889683333333, "fusion_lon": 0.0, "fusion_lat": 0.0, "type": "electric_scooter", "name": "3125f3fbda8774fe03e27faf066cddea", "is_disabled": 0, "rental_uris": {"ios": "https://dc.lft.to/lastmile_qr_scan", "android": "https://dc.lft.to/lastmile_qr_scan"}, "is_reserved": 0}, {"lon": -77.03996916666667, "bike_id": "427d647393e680191cc6bf86d2e99310", "lat": 38.92463216666667, "fusion_lon": 0.0, "fusion_lat": 0.0, "type": "electric_scooter", "name": "427d647393e680191cc6bf86d2e99310", "is_disabled": 0, "rental_uris": {"ios": "https://dc.lft.to/lastmile_qr_scan", "android": "https://dc.lft.to/lastmile_qr_scan"}, "is_reserved": 0}, {"lon": -77.04471033333333, "bike_id": "28f0cc9f766b1d1a8c99983ebe13b6c0", "lat": 38.91568216666667, "fusion_lon": 0.0, "fusion_lat": 0.0, "type": "electric_scooter", "name": "28f0cc9f766b1d1a8c99983ebe13b6c0", "is_disabled": 0, "rental_uris": {"ios": "https://dc.lft.to/lastmile_qr_scan", "android": "https://dc.lft.to/lastmile_qr_scan"}, "is_reserved": 0}, {"lon": -77.04214516666667, "bike_id": "b7fba9956108d7575fdb91a305ca11d6", "lat": 38.91117216666667, "fusion_lon": 0.0, "fusion_lat": 0.0, "type": "electric_scooter", "name": "b7fba9956108d7575fdb91a305ca11d6", "is_disabled": 0, "rental_uris": {"ios": "https://dc.lft.to/lastmile_qr_scan", "android": "https://dc.lft.to/lastmile_qr_scan"}, "is_reserved": 0}, {"lon": -77.02266083333333, "bike_id": "f964ce46e1c6bc07bcba15a1fa83f94d", "lat": 38.91626566666667, "fusion_lon": 0.0, "fusion_lat": 0.0, "type": "electric_scooter", "name": "f964ce46e1c6bc07bcba15a1fa83f94d", "is_disabled": 0, "rental_uris": {"ios": "https://dc.lft.to/lastmile_qr_scan", "android": "https://dc.lft.to/lastmile_qr_scan"}, "is_reserved": 0}, {"lon": -77.0247785, "bike_id": "6414e634a71d4173e0b8d3ccb78f1782", "lat": 38.90176833333334, "fusion_lon": 0.0, "fusion_lat": 0.0, "type": "electric_scooter", "name": "6414e634a71d4173e0b8d3ccb78f1782", "is_disabled": 0, "rental_uris": {"ios": "https://dc.lft.to/lastmile_qr_scan", "android": "https://dc.lft.to/lastmile_qr_scan"}, "is_reserved": 0}, {"lon": -77.02360766666666, "bike_id": "c117c2bc89ee8901980e1a2858faef6d", "lat": 38.89219333333333, "fusion_lon": 0.0, "fusion_lat": 0.0, "type": "electric_scooter", "name": "c117c2bc89ee8901980e1a2858faef6d", "is_disabled": 0, "rental_uris": {"ios": "https://dc.lft.to/lastmile_qr_scan", "android": "https://dc.lft.to/lastmile_qr_scan"}, "is_reserved": 0}, {"lon": -76.98841783333333, "bike_id": "6be2345252f07b934072f64b698cff57", "lat": 38.842814833333335, "fusion_lon": 0.0, "fusion_lat": 0.0, "type": "electric_bike", "name": "6be2345252f07b934072f64b698cff57", "is_disabled": 0, "rental_uris": {"ios": "https://dc.lft.to/lastmile_qr_scan", "android": "https://dc.lft.to/lastmile_qr_scan"}, "is_reserved": 0}, {"lon": -77.05734166666667, "bike_id": "d8bf6d645c6c2ff67dab54e10bbce5db", "lat": 38.933646833333334, "fusion_lon": 0.0, "fusion_lat": 0.0, "type": "electric_scooter", "name": "d8bf6d645c6c2ff67dab54e10bbce5db", "is_disabled": 0, "rental_uris": {"ios": "https://dc.lft.to/lastmile_qr_scan", "android": "https://dc.lft.to/lastmile_qr_scan"}, "is_reserved": 0}, {"lon": -76.97048833333334, "bike_id": "1362560db630dcaebaaf242c8e28d542", "lat": 38.89773616666667, "fusion_lon": 0.0, "fusion_lat": 0.0, "type": "electric_scooter", "name": "1362560db630dcaebaaf242c8e28d542", "is_disabled": 0, "rental_uris": {"ios": "https://dc.lft.to/lastmile_qr_scan", "android": "https://dc.lft.to/lastmile_qr_scan"}, "is_reserved": 0}, {"lon": -77.00917416666667, "bike_id": "b6bffb35c5bdb9d6fdc2a8c3d0020d55", "lat": 38.89644166666667, "fusion_lon": 0.0, "fusion_lat": 0.0, "type": "electric_scooter", "name": "b6bffb35c5bdb9d6fdc2a8c3d0020d55", "is_disabled": 0, "rental_uris": {"ios": "https://dc.lft.to/lastmile_qr_scan", "android": "https://dc.lft.to/lastmile_qr_scan"}, "is_reserved": 0}, {"lon": -77.00041383333334, "bike_id": "ac5717036c387e36c7c6beb2a78211bf", "lat": 38.923996333333335, "fusion_lon": 0.0, "fusion_lat": 0.0, "type": "electric_scooter", "name": "ac5717036c387e36c7c6beb2a78211bf", "is_disabled": 0, "rental_uris": {"ios": "https://dc.lft.to/lastmile_qr_scan", "android": "https://dc.lft.to/lastmile_qr_scan"}, "is_reserved": 0}, {"lon": -77.0016025, "bike_id": "d60bc6562438a9276aec37f427a293ff", "lat": 38.889916, "fusion_lon": 0.0, "fusion_lat": 0.0, "type": "electric_scooter", "name": "d60bc6562438a9276aec37f427a293ff", "is_disabled": 0, "rental_uris": {"ios": "https://dc.lft.to/lastmile_qr_scan", "android": "https://dc.lft.to/lastmile_qr_scan"}, "is_reserved": 0}, {"lon": -77.046244, "bike_id": "07ec8bbf4499aa14efb2fa7cf6a447db", "lat": 38.90554366666667, "fusion_lon": 0.0, "fusion_lat": 0.0, "type": "electric_scooter", "name": "07ec8bbf4499aa14efb2fa7cf6a447db", "is_disabled": 0, "rental_uris": {"ios": "https://dc.lft.to/lastmile_qr_scan", "android": "https://dc.lft.to/lastmile_qr_scan"}, "is_reserved": 0}, {"lon": -77.02741366666666, "bike_id": "93d646eff86c19b3a7a1309c822c1b41", "lat": 38.927800500000004, "fusion_lon": 0.0, "fusion_lat": 0.0, "type": "electric_scooter", "name": "93d646eff86c19b3a7a1309c822c1b41", "is_disabled": 0, "rental_uris": {"ios": "https://dc.lft.to/lastmile_qr_scan", "android": "https://dc.lft.to/lastmile_qr_scan"}, "is_reserved": 0}, {"lon": -77.0241625, "bike_id": "5f882ef9b367c6dd26c20c51668fbb03", "lat": 38.917812, "fusion_lon": 0.0, "fusion_lat": 0.0, "type": "electric_scooter", "name": "5f882ef9b367c6dd26c20c51668fbb03", "is_disabled": 0, "rental_uris": {"ios": "https://dc.lft.to/lastmile_qr_scan", "android": "https://dc.lft.to/lastmile_qr_scan"}, "is_reserved": 0}, {"lon": -77.02959016666667, "bike_id": "dffd448d31b5fcccdb4eaa9566230c38", "lat": 38.912472666666666, "fusion_lon": 0.0, "fusion_lat": 0.0, "type": "electric_scooter", "name": "dffd448d31b5fcccdb4eaa9566230c38", "is_disabled": 0, "rental_uris": {"ios": "https://dc.lft.to/lastmile_qr_scan", "android": "https://dc.lft.to/lastmile_qr_scan"}, "is_reserved": 0}, {"lon": -77.03648066666666, "bike_id": "3174f9eccc7176145e0476d8bfb4472d", "lat": 38.902839166666666, "fusion_lon": 0.0, "fusion_lat": 0.0, "type": "electric_scooter", "name": "3174f9eccc7176145e0476d8bfb4472d", "is_disabled": 0, "rental_uris": {"ios": "https://dc.lft.to/lastmile_qr_scan", "android": "https://dc.lft.to/lastmile_qr_scan"}, "is_reserved": 0}, {"lon": -77.02668966666667, "bike_id": "cf357e3965ae420ecbd9f77c12da31c8", "lat": 38.930992333333336, "fusion_lon": 0.0, "fusion_lat": 0.0, "type": "electric_scooter", "name": "cf357e3965ae420ecbd9f77c12da31c8", "is_disabled": 0, "rental_uris": {"ios": "https://dc.lft.to/lastmile_qr_scan", "android": "https://dc.lft.to/lastmile_qr_scan"},