{"data": {"bikes": [{"fusion_lat": 0.0, "name": "39eb77cb080a2cc785597ee51c39d79e", "is_disabled": 0, "rental_uris": {"android": "https://dc.lft.to/lastmile_qr_scan", "ios": "https://dc.lft.to/lastmile_qr_scan"}, "fusion_lon": 0.0, "lat": 38.91654666666667, "bike_id": "39eb77cb080a2cc785597ee51c39d79e", "type": "electric_scooter", "is_reserved": 0, "lon": -77.02402816666667}, {"fusion_lat": 0.0, "name": "21c6523c8dbaa63219fc70ef04d68a09", "is_disabled": 0, "rental_uris": {"android": "https://dc.lft.to/lastmile_qr_scan", "ios": "https://dc.lft.to/lastmile_qr_scan"}, "fusion_lon": 0.0, "lat": 38.922909833333335, "bike_id": "21c6523c8dbaa63219fc70ef04d68a09", "type": "electric_scooter", "is_reserved": 0, "lon": -77.0732005}, {"fusion_lat": 0.0, "name": "2d0fad8a2c26d7019bd3800d96a0d719", "is_disabled": 0, "rental_uris": {"android": "https://dc.lft.to/lastmile_qr_scan", "ios": "https://dc.lft.to/lastmile_qr_scan"}, "fusion_lon": 0.0, "lat": 38.995248, "bike_id": "2d0fad8a2c26d7019bd3800d96a0d719", "type": "electric_bike", "is_reserved": 0, "lon": -77.029042}, {"fusion_lat": 0.0, "name": "046f779275e6da1dae3e43952de5f8be", "is_disabled": 0, "rental_uris": {"android": "https://dc.lft.to/lastmile_qr_scan", "ios": "https://dc.lft.to/lastmile_qr_scan"}, "fusion_lon": 0.0, "lat": 38.899514333333336, "bike_id": "046f779275e6da1dae3e43952de5f8be", "type": "electric_scooter", "is_reserved": 0, "lon": -77.04525566666666}, {"fusion_lat": 0.0, "name": "3e07d953ce355f0746de922cd14ec2b3", "is_disabled": 0, "rental_uris": {"android": "https://dc.lft.to/lastmile_qr_scan", "ios": "https://dc.lft.to/lastmile_qr_scan"}, "fusion_lon": 0.0, "lat": 38.937664833333336, "bike_id": "3e07d953ce355f0746de922cd14ec2b3", "type": "electric_scooter", "is_reserved": 0, "lon": -77.0760005}, {"fusion_lat": 0.0, "name": "67f83b956cfdcffb9c603cf053685479", "is_disabled": 0, "rental_uris": {"android": "https://dc.lft.to/lastmile_qr_scan", "ios": "https://dc.lft.to/lastmile_qr_scan"}, "fusion_lon": 0.0, "lat": 38.90737516666667, "bike_id": "67f83b956cfdcffb9c603cf053685479", "type": "electric_scooter", "is_reserved": 0, "lon": -76.99835783333333}, {"fusion_lat": 0.0, "name": "e2edccaaadd9b37b15989e198765f1b3", "is_disabled": 0, "rental_uris": {"android": "https://dc.lft.to/lastmile_qr_scan", "ios": "https://dc.lft.to/lastmile_qr_scan"}, "fusion_lon": 0.0, "lat": 38.9029205, "bike_id": "e2edccaaadd9b37b15989e198765f1b3", "type": "electric_scooter", "is_reserved": 0, "lon": -76.99035683333334}, {"fusion_lat": 0.0, "name": "2809a3f19f3b959f17872c4bc41a9f54", "is_disabled": 0, "rental_uris": {"android": "https://dc.lft.to/lastmile_qr_scan", "ios": "https://dc.lft.to/lastmile_qr_scan"}, "fusion_lon": 0.0, "lat": 38.88540316666667, "bike_id": "2809a3f19f3b959f17872c4bc41a9f54", "type": "electric_scooter", "is_reserved": 0, "lon": -76.99762833333334}, {"fusion_lat": 0.0, "name": "f083e521aa47964fc71e3bbae16ce554", "is_disabled": 0, "rental_uris": {"android": "https://dc.lft.to/lastmile_qr_scan", "ios": "https://dc.lft.to/lastmile_qr_scan"}, "fusion_lon": 0.0, "lat": 38.91042316666667, "bike_id": "f083e521aa47964fc71e3bbae16ce554", "type": "electric_scooter", "is_reserved": 0, "lon": -77.03939666666666}, {"fusion_lat": 0.0, "name": "840e139c0caeee063db075ca14d1f8e7", "is_disabled": 0, "rental_uris": {"android": "https://dc.lft.to/lastmile_qr_scan", "ios": "https://dc.lft.to/lastmile_qr_scan"}, "fusion_lon": 0.0, "lat": 38.900218, "bike_id": "840e139c0caeee063db075ca14d1f8e7", "type": "electric_scooter", "is_reserved": 0, "lon": -77.0349155}, {"fusion_lat": 0.0, "name": "0794435b8633bde5fb1ba2fb4a19d6ad", "is_disabled": 0, "rental_uris": {"android": "https://dc.lft.to/lastmile_qr_scan", "ios": "https://dc.lft.to/lastmile_qr_scan"}, "fusion_lon": 0.0, "lat": 38.922590166666666, "bike_id": "0794435b8633bde5fb1ba2fb4a19d6ad", "type": "electric_scooter", "is_reserved": 0, "lon": -77.00917766666667}, {"fusion_lat": 0.0, "name": "12b116cc0e0d2a3bc8a1ea2adfff3034", "is_disabled": 0, "rental_uris": {"android": "https://dc.lft.to/lastmile_qr_scan", "ios": "https://dc.lft.to/lastmile_qr_scan"}, "fusion_lon": 0.0, "lat": 38.89689633333333, "bike_id": "12b116cc0e0d2a3bc8a1ea2adfff3034", "type": "electric_scooter", "is_reserved": 0, "lon": -77.0433605}, {"fusion_lat": 0.0, "name": "68801ebc1b99d949063cb87069959cb1", "is_disabled": 0, "rental_uris": {"android": "https://dc.lft.to/lastmile_qr_scan", "ios": "https://dc.lft.to/lastmile_qr_scan"}, "fusion_lon": 0.0, "lat": 38.831615166666666, "bike_id": "68801ebc1b99d949063cb87069959cb1", "type": "electric_bike", "is_reserved": 0, "lon": -76.99572383333333}, {"fusion_lat": 0.0, "name": "1a56d515a95d6e53561b0d02c3c3a6eb", "is_disabled": 0, "rental_uris": {"android": "https://dc.lft.to/lastmile_qr_scan", "ios": "https://dc.lft.to/lastmile_qr_scan"}, "fusion_lon": 0.0, "lat": 38.91437616666666, "bike_id": "1a56d515a95d6e53561b0d02c3c3a6eb", "type": "electric_scooter", "is_reserved": 0, "lon": -76.993533}, {"fusion_lat": 0.0, "name": "6fa60c02203b6ce2d245f6263f0b5622", "is_disabled": 0, "rental_uris": {"android": "https://dc.lft.to/lastmile_qr_scan", "ios": "https://dc.lft.to/lastmile_qr_scan"}, "fusion_lon": 0.0, "lat": 38.885108333333335, "bike_id": "6fa60c02203b6ce2d245f6263f0b5622", "type": "electric_scooter", "is_reserved": 0, "lon": -77.0111675}, {"fusion_lat": 0.0, "name": "492b1f5fd4fa0487a33f40d93e33a37c", "is_disabled": 0, "rental_uris": {"android": "https://dc.lft.to/lastmile_qr_scan", "ios": "https://dc.lft.to/lastmile_qr_scan"}, "fusion_lon": 0.0, "lat": 38.7817595, "bike_id": "492b1f5fd4fa0487a33f40d93e33a37c", "type": "electric_bike", "is_reserved": 0, "lon": -77.01438866666666}, {"fusion_lat": 0.0, "name": "c2bbb5b8381f947b5e0ba66bd412df62", "is_disabled": 0, "rental_uris": {"android": "https://dc.lft.to/lastmile_qr_scan", "ios": "https://dc.lft.to/lastmile_qr_scan"}, "fusion_lon": 0.0, "lat": 38.9296585, "bike_id": "c2bbb5b8381f947b5e0ba66bd412df62", "type": "electric_scooter", "is_reserved": 0, "lon": -76.9917425}, {"fusion_lat": 0.0, "name": "61424fc918870e94dcfeefcc3ac78bd1", "is_disabled": 0, "rental_uris": {"android": "https://dc.lft.to/lastmile_qr_scan", "ios": "https://dc.lft.to/lastmile_qr_scan"}, "fusion_lon": 0.0, "lat": 38.90869416666666, "bike_id": "61424fc918870e94dcfeefcc3ac78bd1", "type": "electric_scooter", "is_reserved": 0, "lon": -77.04872116666667}, {"fusion_lat": 0.0, "name": "22994b326ca68358fba7efb74ce4970c", "is_disabled": 0, "rental_uris": {"android": "https://dc.lft.to/lastmile_qr_scan", "ios": "https://dc.lft.to/lastmile_qr_scan"}, "fusion_lon": 0.0, "lat": 38.939674333333336, "bike_id": "22994b326ca68358fba7efb74ce4970c", "type": "electric_scooter", "is_reserved": 0, "lon": -77.03280583333333}, {"fusion_lat": 0.0, "name": "111fc646db4ae28e7b0a09257e9d088c", "is_disabled": 0, "rental_uris": {"android": "https://dc.lft.to/lastmile_qr_scan", "ios": "https://dc.lft.to/lastmile_qr_scan"}, "fusion_lon": 0.0, "lat": 38.931783, "bike_id": "111fc646db4ae28e7b0a09257e9d088c", "type": "electric_scooter", "is_reserved": 0, "lon": -77.0379985}, {"fusion_lat": 0.0, "name": "b9b048a7a0ebc39917950b8b4ad6a162", "is_disabled": 0, "rental_uris": {"android": "https://dc.lft.to/lastmile_qr_scan", "ios": "https://dc.lft.to/lastmile_qr_scan"}, "fusion_lon": 0.0, "lat": 38.92907266666667, "bike_id": "b9b048a7a0ebc39917950b8b4ad6a162", "type": "electric_scooter", "is_reserved": 0, "lon": -77.02143383333333}, {"fusion_lat": 0.0, "name": "a32bbca725d505f3b466aeb12f05c113", "is_disabled": 0, "rental_uris": {"android": "https://dc.lft.to/lastmile_qr_scan", "ios": "https://dc.lft.to/lastmile_qr_scan"}, "fusion_lon": 0.0, "lat": 38.96992866666667, "bike_id": "a32bbca725d505f3b466aeb12f05c113", "type": "electric_scooter", "is_reserved": 0, "lon": -77.01157516666666}, {"fusion_lat": 0.0, "name": "f6eae724454ea059429d56b58e147416", "is_disabled": 0, "rental_uris": {"android": "https://dc.lft.to/lastmile_qr_scan", "ios": "https://dc.lft.to/lastmile_qr_scan"}, "fusion_lon": 0.0, "lat": 38.9325855, "bike_id": "f6eae724454ea059429d56b58e147416", "type": "electric_scooter", "is_reserved": 0, "lon": -77.03859466666667}, {"fusion_lat": 0.0, "name": "df6bc3736c2b962106ac5f58df67df3c", "is_disabled": 0, "rental_uris": {"android": "https://dc.lft.to/lastmile_qr_scan", "ios": "https://dc.lft.to/lastmile_qr_scan"}, "fusion_lon": 0.0, "lat": 38.892446, "bike_id": "df6bc3736c2b962106ac5f58df67df3c", "type": "electric_scooter", "is_reserved": 0, "lon": -77.03347983333333}, {"fusion_lat": 0.0, "name": "be4a54bf3ba12db117eefd1883e07708", "is_disabled": 0, "rental_uris": {"android": "https://dc.lft.to/lastmile_qr_scan", "ios": "https://dc.lft.to/lastmile_qr_scan"}, "fusion_lon": 0.0, "lat": 38.8910925, "bike_id": "be4a54bf3ba12db117eefd1883e07708", "type": "electric_scooter", "is_reserved": 0, "lon": -76.94379016666667}, {"fusion_lat": 0.0, "name": "357799b99fdf99b548c175d9ca17251a", "is_disabled": 0, "rental_uris": {"android": "https://dc.lft.to/lastmile_qr_scan", "ios": "https://dc.lft.to/lastmile_qr_scan"}, "fusion_lon": 0.0, "lat": 38.911943666666666, "bike_id": "357799b99fdf99b548c175d9ca17251a", "type": "electric_scooter", "is_reserved": 0, "lon": -77.011987}, {"fusion_lat": 0.0, "name": "fda9cb62e7963f0c2a35a9f6e3e1281a", "is_disabled": 0, "rental_uris": {"android": "https://dc.lft.to/lastmile_qr_scan", "ios": "https://dc.lft.to/lastmile_qr_scan"}, "fusion_lon": 0.0, "lat": 38.9306715, "bike_id": "fda9cb62e7963f0c2a35a9f6e3e1281a", "type": "electric_scooter", "is_reserved": 0, "lon": -77.04048633333333}, {"fusion_lat": 0.0, "name": "bacfac7cfb593f79b60dc1bb6ade32d4", "is_disabled": 0, "rental_uris": {"android": "https://dc.lft.to/lastmile_qr_scan", "ios": "https://dc.lft.to/lastmile_qr_scan"}, "fusion_lon": 0.0, "lat": 38.904801666666664, "bike_id": "bacfac7cfb593f79b60dc1bb6ade32d4", "type": "electric_scooter", "is_reserved": 0, "lon": -77.04858766666666}, {"fusion_lat": 0.0, "name": "e2b7229f29800da43b5044446e42cbcd", "is_disabled": 0, "rental_uris": {"android": "https://dc.lft.to/lastmile_qr_scan", "ios": "https://dc.lft.to/lastmile_qr_scan"}, "fusion_lon": 0.0, "lat": 38.911032166666665, "bike_id": "e2b7229f29800da43b5044446e42cbcd", "type": "electric_scooter", "is_reserved": 0, "lon": -77.02930383333333}, {"fusion_lat": 0.0, "name": "20bd2cb59723272aeed90e7402f8e22e", "is_disabled": 0, "rental_uris": {"android": "https://dc.lft.to/lastmile_qr_scan", "ios": "https://dc.lft.to/lastmile_qr_scan"}, "fusion_lon": 0.0, "lat": 38.897655666666665, "bike_id": "20bd2cb59723272aeed90e7402f8e22e", "type": "electric_scooter", "is_reserved": 0, "lon": -77.02492033333333}, {"fusion_lat": 0.0, "name": "a3f48b8b41580af67b917c5650e8aeda", "is_disabled": 0, "rental_uris": {"android": "https://dc.lft.to/lastmile_qr_scan", "ios": "https://dc.lft.to/lastmile_qr_scan"}, "fusion_lon": 0.0, "lat": 38.924377, "bike_id": "a3f48b8b41580af67b917c5650e8aeda", "type": "electric_scooter", "is_reserved": 0, "lon": -77.044747}, {"fusion_lat": 0.0, "name": "b32bc98d5999c75a6953e5ce91243fe2", "is_disabled": 0, "rental_uris": {"android": "https://dc.lft.to/lastmile_qr_scan", "ios": "https://dc.lft.to/lastmile_qr_scan"}, "fusion_lon": 0.0, "lat": 38.9618725, "bike_id": "b32bc98d5999c75a6953e5ce91243fe2", "type": "electric_bike", "is_reserved": 0, "lon": -77.05266616666667}, {"fusion_lat": 0.0, "name": "4134bc3b7b224a39f382e304cf9d3f14", "is_disabled": 0, "rental_uris": {"android": "https://dc.lft.to/lastmile_qr_scan", "ios": "https://dc.lft.to/lastmile_qr_scan"}, "fusion_lon": 0.0, "lat": 38.9042355, "bike_id": "4134bc3b7b224a39f382e304cf9d3f14", "type": "electric_scooter", "is_reserved": 0, "lon": -77.01883516666666}, {"fusion_lat": 0.0, "name": "71c80509109b04ef0dfad1c39cd3e9fb", "is_disabled": 0, "rental_uris": {"android": "https://dc.lft.to/lastmile_qr_scan", "ios": "https://dc.lft.to/lastmile_qr_scan"}, "fusion_lon": 0.0, "lat": 38.9737575, "bike_id": "71c80509109b04ef0dfad1c39cd3e9fb", "type": "electric_scooter", "is_reserved": 0, "lon": -77.01282116666667}, {"fusion_lat": 0.0, "name": "468c6ae007cf64035423795f226c863d", "is_disabled": 0, "rental_uris": {"android": "https://dc.lft.to/lastmile_qr_scan", "ios": "https://dc.lft.to/lastmile_qr_scan"}, "fusion_lon": 0.0, "lat": 38.9029115, "bike_id": "468c6ae007cf64035423795f226c863d", "type": "electric_scooter", "is_reserved": 0, "lon": -77.03645116666667}, {"fusion_lat": 0.0, "name": "43a76722865c86942c466bfffd6afc16", "is_disabled": 0, "rental_uris": {"android": "https://dc.lft.to/lastmile_qr_scan", "ios": "https://dc.lft.to/lastmile_qr_scan"}, "fusion_lon": 0.0, "lat": 38.92578866666667, "bike_id": "43a76722865c86942c466bfffd6afc16", "type": "electric_scooter", "is_reserved": 0, "lon": -77.02723516666667}, {"fusion_lat": 0.0, "name": "3ff9b614b91ace499f8cd0a19020400c", "is_disabled": 0, "rental_uris": {"android": "https://dc.lft.to/lastmile_qr_scan", "ios": "https://dc.lft.to/lastmile_qr_scan"}, "fusion_lon": 0.0, "lat": 38.90187783333333, "bike_id": "3ff9b614b91ace499f8cd0a19020400c", "type": "electric_scooter", "is_reserved": 0, "lon": -77.0591645}, {"fusion_lat": 0.0, "name": "6447823060f08bc42bad24f644ba802d", "is_disabled": 0, "rental_uris": {"android": "https://dc.lft.to/lastmile_qr_scan", "ios": "https://dc.lft.to/lastmile_qr_scan"}, "fusion_lon": 0.0, "lat": 38.91552883333333, "bike_id": "6447823060f08bc42bad24f644ba802d", "type": "electric_scooter", "is_reserved": 0, "lon": -77.03240566666666}, {"fusion_lat": 0.0, "name": "90bd10cb33ea398a7add69b991de3d36", "is_disabled": 0, "rental_uris": {"android": "https://dc.lft.to/lastmile_qr_scan", "ios": "https://dc.lft.to/lastmile_qr_scan"}, "fusion_lon": 0.0, "lat": 38.92369266666667, "bike_id": "90bd10cb33ea398a7add69b991de3d36", "type": "electric_scooter", "is_reserved": 0, "lon": -77.081531}, {"fusion_lat": 0.0, "name": "0124907cca87f9d5edd92ea35151db1b", "is_disabled": 0, "rental_uris": {"android": "https://dc.lft.to/lastmile_qr_scan", "ios": "https://dc.lft.to/lastmile_qr_scan"}, "fusion_lon": 0.0, "lat": 38.961333, "bike_id": "0124907cca87f9d5edd92ea35151db1b", "type": "electric_scooter", "is_reserved": 0, "lon": -77.027899}, {"fusion_lat": 0.0, "name": "adc91a888b52d3e39c61c88b76e8eaa8", "is_disabled": 0, "rental_uris": {"android": "https://dc.lft.to/lastmile_qr_scan", "ios": "https://dc.lft.to/lastmile_qr_scan"}, "fusion_lon": 0.0, "lat": 38.92067466666666, "bike_id": "adc91a888b52d3e39c61c88b76e8eaa8", "type": "electric_scooter", "is_reserved": 0, "lon": -77.0271255}, {"fusion_lat": 0.0, "name": "d31012cac7f5797fc70cf84a41dba365", "is_disabled": 0, "rental_uris": {"android": "https://dc.lft.to/lastmile_qr_scan", "ios": "https://dc.lft.to/lastmile_qr_scan"}, "fusion_lon": 0.0, "lat": 38.92303916666667, "bike_id": "d31012cac7f5797fc70cf84a41dba365", "type": "electric_scooter", "is_reserved": 0, "lon": -76.9942855}, {"fusion_lat": 0.0, "name": "f90a22dfd4524f7a94c875fd6c7dc4f8", "is_disabled": 0, "rental_uris": {"android": "https://dc.lft.to/lastmile_qr_scan", "ios": "https://dc.lft.to/lastmile_qr_scan"}, "fusion_lon": 0.0, "lat": 38.87690683333334, "bike_id": "f90a22dfd4524f7a94c875fd6c7dc4f8", "type": "electric_scooter", "is_reserved": 0, "lon": -77.017576}, {"fusion_lat": 0.0, "name": "858e312368f8ab375deecdc0b9bd4baf", "is_disabled": 0, "rental_uris": {"android": "https://dc.lft.to/lastmile_qr_scan", "ios": "https://dc.lft.to/lastmile_qr_scan"}, "fusion_lon": 0.0, "lat": 38.88475616666667, "bike_id": "858e312368f8ab375deecdc0b9bd4baf", "type": "electric_scooter", "is_reserved": 0, "lon": -77.0242895}, {"fusion_lat": 0.0, "name": "d257031dc0ccdf5134daab8cef894dfc", "is_disabled": 0, "rental_uris": {"android": "https://dc.lft.to/lastmile_qr_scan", "ios": "https://dc.lft.to/lastmile_qr_scan"}, "fusion_lon": 0.0, "lat": 38.889659333333334, "bike_id": "d257031dc0ccdf5134daab8cef894dfc", "type": "electric_scooter", "is_reserved": 0, "lon": -77.01504533333333}, {"fusion_lat": 0.0, "name": "cb424d1982f0eec413b4430ae79cf2f6", "is_disabled": 0, "rental_uris": {"android": "https://dc.lft.to/lastmile_qr_scan", "ios": "https://dc.lft.to/lastmile_qr_scan"}, "fusion_lon": 0.0, "lat": 38.89007483333334, "bike_id": "cb424d1982f0eec413b4430ae79cf2f6", "type": "electric_scooter", "is_reserved": 0, "lon": -76.93733366666666}, {"fusion_lat": 0.0, "name": "16f0c242a0f72004dfe360d6ab131d48", "is_disabled": 0, "rental_uris": {"android": "https://dc.lft.to/lastmile_qr_scan", "ios": "https://dc.lft.to/lastmile_qr_scan"}, "fusion_lon": 0.0, "lat": 38.9134785, "bike_id": "16f0c242a0f72004dfe360d6ab131d48", "type": "electric_scooter", "is_reserved": 0, "lon": -77.0033765}, {"fusion_lat": 0.0, "name": "7600e4c9c552bcc7dc49c411a1eb9a67", "is_disabled": 0, "rental_uris": {"android": "https://dc.lft.to/lastmile_qr_scan", "ios": "https://dc.lft.to/lastmile_qr_scan"}, "fusion_lon": 0.0, "lat": 38.924597166666665, "bike_id": "7600e4c9c552bcc7dc49c411a1eb9a67", "type": "electric_scooter", "is_reserved": 0, "lon": -77.0240935}, {"fusion_lat": 0.0, "name": "eaddbd86b489cb0a7a8857725315d667", "is_disabled": 0, "rental_uris": {"android": "https://dc.lft.to/lastmile_qr_scan", "ios": "https://dc.lft.to/lastmile_qr_scan"}, "fusion_lon": 0.0, "lat": 38.903846, "bike_id": "eaddbd86b489cb0a7a8857725315d667", "type": "electric_scooter", "is_reserved": 0, "lon": -76.98482816666667}, {"fusion_lat": 0.0, "name": "90f5bad002f401f7adeaecdd0faae5db", "is_disabled": 0, "rental_uris": {"android": "https://dc.lft.to/lastmile_qr_scan", "ios": "https://dc.lft.to/lastmile_qr_scan"}, "fusion_lon": 0.0, "lat": 38.929881333333334, "bike_id": "90f5bad002f401f7adeaecdd0faae5db", "type": "electric_scooter", "is_reserved": 0, "lon": -77.03230916666666}, {"fusion_lat": 0.0, "name": "b27ab286fa27f4823ea26962f61fd489", "is_disabled": 0, "rental_uris": {"android": "https://dc.lft.to/lastmile_qr_scan", "ios": "https://dc.lft.to/lastmile_qr_scan"}, "fusion_lon": 0.0, "lat": 38.9306405, "bike_id": "b27ab286fa27f4823ea26962f61fd489", "type": "electric_scooter", "is_reserved": 0, "lon": -77.03944133333333}, {"fusion_lat": 0.0, "name": "3571e272b65055905685ac20f136b550", "is_disabled": 0, "rental_uris": {"android": "https://dc.lft.to/lastmile_qr_scan", "ios": "https://dc.lft.to/lastmile_qr_scan"}, "fusion_lon": 0.0, "lat": 38.9240355, "bike_id": "3571e272b65055905685ac20f136b550", "type": "electric_scooter", "is_reserved": 0, "lon": -77.042774}, {"fusion_lat": 0.0, "name": "6994414d55ef06aba1765d5ba4198672", "is_disabled": 0, "rental_uris": {"android": "https://dc.lft.to/lastmile_qr_scan", "ios": "https://dc.lft.to/lastmile_qr_scan"}, "fusion_lon": 0.0, "lat": 38.916178333333335, "bike_id": "6994414d55ef06aba1765d5ba4198672", "type": "electric_scooter", "is_reserved": 0, "lon": -77.038552}, {"fusion_lat": 0.0, "name": "59e2b4de8808bf1d06d40798271d670d", "is_disabled": 0, "rental_uris": {"android": "https://dc.lft.to/lastmile_qr_scan", "ios": "https://dc.lft.to/lastmile_qr_scan"}, "fusion_lon": 0.0, "lat": 38.949251, "bike_id": "59e2b4de8808bf1d06d40798271d670d", "type": "electric_scooter", "is_reserved": 0, "lon": -77.01854083333333}, {"fusion_lat": 0.0, "name": "ade41fdc0dda522cadc7884512bffccc", "is_disabled": 0, "rental_uris": {"android": "https://dc.lft.to/lastmile_qr_scan", "ios": "https://dc.lft.to/lastmile_qr_scan"}, "fusion_lon": 0.0, "lat": 38.924816, "bike_id": "ade41fdc0dda522cadc7884512bffccc", "type": "electric_scooter", "is_reserved": 0, "lon": -77.02668333333334}, {"fusion_lat": 0.0, "name": "7c884f6bf45daa46449e510d33cbf493", "is_disabled": 0, "rental_uris": {"android": "https://dc.lft.to/lastmile_qr_scan", "ios": "https://dc.lft.to/lastmile_qr_scan"}, "fusion_lon": 0.0, "lat": 38.878400666666664, "bike_id": "7c884f6bf45daa46449e510d33cbf493", "type": "electric_scooter", "is_reserved": 0, "lon": -77.0044825}, {"fusion_lat": 0.0, "name": "e06c382840ee7295c4152eb22056cbef", "is_disabled": 0, "rental_uris": {"android": "https://dc.lft.to/lastmile_qr_scan", "ios": "https://dc.lft.to/lastmile_qr_scan"}, "fusion_lon": 0.0, "lat": 38.905118, "bike_id": "e06c382840ee7295c4152eb22056cbef", "type": "electric_scooter", "is_reserved": 0, "lon": -77.07031833333333}, {"fusion_lat": 0.0, "name": "01cb4e563c68b6615ccc6f3bef5cc9d2", "is_disabled": 0, "rental_uris": {"android": "https://dc.lft.to/lastmile_qr_scan", "ios": "https://dc.lft.to/lastmile_qr_scan"}, "fusion_lon": 0.0, "lat": 38.92802483333333, "bike_id": "01cb4e563c68b6615ccc6f3bef5cc9d2", "type": "electric_scooter", "is_reserved": 0, "lon": -76.95560733333333}, {"fusion_lat": 0.0, "name": "edcfd6da1cee8c5705544929cf7a0426", "is_disabled": 0, "rental_uris": {"android": "https://dc.lft.to/lastmile_qr_scan", "ios": "https://dc.lft.to/lastmile_qr_scan"}, "fusion_lon": 0.0, "lat": 38.91269233333333, "bike_id": "edcfd6da1cee8c5705544929cf7a0426", "type": "electric_bike", "is_reserved": 0, "lon": -77.036254}, {"fusion_lat": 0.0, "name": "605a52c3fe51fee28f0b262c7a54dfd8", "is_disabled": 0, "rental_uris": {"android": "https://dc.lft.to/lastmile_qr_scan", "ios": "https://dc.lft.to/lastmile_qr_scan"}, "fusion_lon": 0.0, "lat": 38.90485416666667, "bike_id": "605a52c3fe51fee28f0b262c7a54dfd8", "type": "electric_scooter", "is_reserved": 0, "lon": -76.94962466666667}, {"fusion_lat": 0.0, "name": "95bb34f491e40f4d5f8b5ae9b6a94916", "is_disabled": 0, "rental_uris": {"android": "https://dc.lft.to/lastmile_qr_scan", "ios": "https://dc.lft.to/lastmile_qr_scan"}, "fusion_lon": 0.0, "lat": 38.98817866666667, "bike_id": "95bb34f491e40f4d5f8b5ae9b6a94916", "type": "electric_bike", "is_reserved": 0, "lon": -77.02653466666666}, {"fusion_lat": 0.0, "name": "223b31442e434f0ff9a7a1148f5acbeb", "is_disabled": 0, "rental_uris": {"android": "https://dc.lft.to/lastmile_qr_scan", "ios": "https://dc.lft.to/lastmile_qr_scan"}, "fusion_lon": 0.0, "lat": 38.92253766666666, "bike_id": "223b31442e434f0ff9a7a1148f5acbeb", "type": "electric_scooter", "is_reserved": 0, "lon": -77.03385816666666}, {"fusion_lat": 0.0, "name": "04e03f319fb96f3a2a7c771099104369", "is_disabled": 0, "rental_uris": {"android": "https://dc.lft.to/lastmile_qr_scan", "ios": "https://dc.lft.to/lastmile_qr_scan"}, "fusion_lon": 0.0, "lat": 38.899955, "bike_id": "04e03f319fb96f3a2a7c771099104369", "type": "electric_scooter", "is_reserved": 0, "lon": -77.025073}, {"fusion_lat": 0.0, "name": "e9cba4b8574f35b6367352fdaa545b69", "is_disabled": 0, "rental_uris": {"android": "https://dc.lft.to/lastmile_qr_scan", "ios": "https://dc.lft.to/lastmile_qr_scan"}, "fusion_lon": 0.0, "lat": 38.9058375, "bike_id": "e9cba4b8574f35b6367352fdaa545b69", "type": "electric_scooter", "is_reserved": 0, "lon": -77.0089085}, {"fusion_lat": 0.0, "name": "f1b0be3fb53eabc28a3b25f1f2209e46", "is_disabled": 0, "rental_uris": {"android": "https://dc.lft.to/lastmile_qr_scan", "ios": "https://dc.lft.to/lastmile_qr_scan"}, "fusion_lon": 0.0, "lat": 38.897550833333334, "bike_id": "f1b0be3fb53eabc28a3b25f1f2209e46", "type": "electric_scooter", "is_reserved": 0, "lon": -77.05153933333334}, {"fusion_lat": 0.0, "name": "d44af32b8c8a51542051af8d0375ab0a", "is_disabled": 0, "rental_uris": {"android": "https://dc.lft.to/lastmile_qr_scan", "ios": "https://dc.lft.to/lastmile_qr_scan"}, "fusion_lon": 0.0, "lat": 38.89737866666667, "bike_id": "d44af32b8c8a51542051af8d0375ab0a", "type": "electric_scooter", "is_reserved": 0, "lon": -77.04560366666666}, {"fusion_lat": 0.0, "name": "8f7eb16e875fd7c9d2fe668d8638e459", "is_disabled": 0, "rental_uris": {"android": "https://dc.lft.to/lastmile_qr_scan", "ios": "https://dc.lft.to/lastmile_qr_scan"}, "fusion_lon": 0.0, "lat": 38.8340185, "bike_id": "8f7eb16e875fd7c9d2fe668d8638e459", "type": "electric_bike", "is_reserved": 0, "lon": -77.00331916666667}, {"fusion_lat": 0.0, "name": "c6646ecaa2135f75f7a606f75f4e8890", "is_disabled": 0, "rental_uris": {"android": "https://dc.lft.to/lastmile_qr_scan", "ios": "https://dc.lft.to/lastmile_qr_scan"}, "fusion_lon": 0.0, "lat": 38.88440166666667, "bike_id": "c6646ecaa2135f75f7a606f75f4e8890", "type": "electric_scooter", "is_reserved": 0, "lon": -77.00347233333333}, {"fusion_lat": 0.0, "name": "1939b6df750567fb5523b8591d214fd6", "is_disabled": 0, "rental_uris": {"android": "https://dc.lft.to/lastmile_qr_scan", "ios": "https://dc.lft.to/lastmile_qr_scan"}, "fusion_lon": 0.0, "lat": 38.90410833333333, "bike_id": "1939b6df750567fb5523b8591d214fd6", "type": "electric_scooter", "is_reserved": 0, "lon": -76.97329833333333}, {"fusion_lat": 0.0, "name": "b25836e5e821a770c7b1eee6b8c416d7", "is_disabled": 0, "rental_uris": {"android": "https://dc.lft.to/lastmile_qr_scan", "ios": "https://dc.lft.to/lastmile_qr_scan"}, "fusion_lon": 0.0, "lat": 38.91557266666667, "bike_id": "b25836e5e821a770c7b1eee6b8c416d7", "type": "electric_scooter", "is_reserved": 0, "lon": -77.03813083333333}, {"fusion_lat": 0.0, "name": "c9a12bf75c0bf3767a422fbbd2f27143", "is_disabled": 0, "rental_uris": {"android": "https://dc.lft.to/lastmile_qr_scan", "ios": "https://dc.lft.to/lastmile_qr_scan"}, "fusion_lon": 0.0, "lat": 38.8776635, "bike_id": "c9a12bf75c0bf3767a422fbbd2f27143", "type": "electric_scooter", "is_reserved": 0, "lon": -76.99387483333334}, {"fusion_lat": 0.0, "name": "9e383deb5b46aa758e4bd2889e86488d", "is_disabled": 0, "rental_uris": {"android": "https://dc.lft.to/lastmile_qr_scan", "ios": "https://dc.lft.to/lastmile_qr_scan"}, "fusion_lon": 0.0, "lat": 38.935783, "bike_id": "9e383deb5b46aa758e4bd2889e86488d", "type": "electric_scooter", "is_reserved": 0, "lon": -77.0192145}, {"fusion_lat": 0.0, "name": "cae5ff31178c3d0316b34b6ac04a8cf7", "is_disabled": 0, "rental_uris": {"android": "https://dc.lft.to/lastmile_qr_scan", "ios": "https://dc.lft.to/lastmile_qr_scan"}, "fusion_lon": 0.0, "lat": 38.90037933333333, "bike_id": "cae5ff31178c3d0316b34b6ac04a8cf7", "type": "electric_scooter", "is_reserved": 0, "lon": -77.00202116666667}, {"fusion_lat": 0.0, "name": "e485d7d26747c9052e0f7dac75ec0fb1", "is_disabled": 0, "rental_uris": {"android": "https://dc.lft.to/lastmile_qr_scan", "ios": "https://dc.lft.to/lastmile_qr_scan"}, "fusion_lon": 0.0, "lat": 38.90956416666667, "bike_id": "e485d7d26747c9052e0f7dac75ec0fb1", "type": "electric_scooter", "is_reserved": 0, "lon": -77.02384333333333}, {"fusion_lat": 0.0, "name": "3b2f2c950656437da08fdbfb2a0fadcb", "is_disabled": 0, "rental_uris": {"android": "https://dc.lft.to/lastmile_qr_scan", "ios": "https://dc.lft.to/lastmile_qr_scan"}, "fusion_lon": 0.0, "lat": 38.85889616666667, "bike_id": "3b2f2c950656437da08fdbfb2a0fadcb", "type": "electric_bike", "is_reserved": 0, "lon": -77.0954065}, {"fusion_lat": 0.0, "name": "545aba5ef54cdc8d776d1492d6fbd11d", "is_disabled": 0, "rental_uris": {"android": "https://dc.lft.to/lastmile_qr_scan", "ios": "https://dc.lft.to/lastmile_qr_scan"}, "fusion_lon": 0.0, "lat": 38.889919666666664, "bike_id": "545aba5ef54cdc8d776d1492d6fbd11d", "type": "electric_scooter", "is_reserved": 0, "lon": -76.99636966666667}, {"fusion_lat": 0.0, "name": "d2e3ed0f39e62c040735e13e0c7e3d0c", "is_disabled": 0, "rental_uris": {"android": "https://dc.lft.to/lastmile_qr_scan", "ios": "https://dc.lft.to/lastmile_qr_scan"}, "fusion_lon": 0.0, "lat": 38.9094055, "bike_id": "d2e3ed0f39e62c040735e13e0c7e3d0c", "type": "electric_scooter", "is_reserved": 0, "lon": -77.02123233333333}, {"fusion_lat": 0.0, "name": "6952d85e57558214ba3b8044a7798d7c", "is_disabled": 0, "rental_uris": {"android": "https://dc.lft.to/lastmile_qr_scan", "ios": "https://dc.lft.to/lastmile_qr_scan"}, "fusion_lon": 0.0, "lat": 38.917393, "bike_id": "6952d85e57558214ba3b8044a7798d7c", "type": "electric_scooter", "is_reserved": 0, "lon": -77.048277}, {"fusion_lat": 0.0, "name": "a615865feb799056d37bec90563e7bdb", "is_disabled": 0, "rental_uris": {"android": "https://dc.lft.to/lastmile_qr_scan", "ios": "https://dc.lft.to/lastmile_qr_scan"}, "fusion_lon": 0.0, "lat": 38.8994785, "bike_id": "a615865feb799056d37bec90563e7bdb", "type": "electric_scooter", "is_reserved": 0, "lon": -77.05354933333334}, {"fusion_lat": 0.0, "name": "c0533aa4a46af7ddcf33495d9bfd4ffa", "is_disabled": 0, "rental_uris": {"android": "https://dc.lft.to/lastmile_qr_scan", "ios": "https://dc.lft.to/lastmile_qr_scan"}, "fusion_lon": 0.0, "lat": 38.920501, "bike_id": "c0533aa4a46af7ddcf33495d9bfd4ffa", "type": "electric_scooter", "is_reserved": 0, "lon": -77.03387883333333}, {"fusion_lat": 0.0, "name": "a7eedfe60d056c160b930a87aaf77063", "is_disabled": 0, "rental_uris": {"android": "https://dc.lft.to/lastmile_qr_scan", "ios": "https://dc.lft.to/lastmile_qr_scan"}, "fusion_lon": 0.0, "lat": 38.91396833333334, "bike_id": "a7eedfe60d056c160b930a87aaf77063", "type": "electric_scooter", "is_reserved": 0, "lon": -77.03468666666667}, {"fusion_lat": 0.0, "name": "4379bb56cd9379a72a38834072362569", "is_disabled": 0, "rental_uris": {"android": "https://dc.lft.to/lastmile_qr_scan", "ios": "https://dc.lft.to/lastmile_qr_scan"}, "fusion_lon": 0.0, "lat": 38.8898885, "bike_id": "4379bb56cd9379a72a38834072362569", "type": "electric_scooter", "is_reserved": 0, "lon": -76.987318}, {"fusion_lat": 0.0, "name": "9fb421805fdcb16e8a5c60300fdc9094", "is_disabled": 0, "rental_uris": {"android": "https://dc.lft.to/lastmile_qr_scan", "ios": "https://dc.lft.to/lastmile_qr_scan"}, "fusion_lon": 0.0, "lat": 38.93943616666667, "bike_id": "9fb421805fdcb16e8a5c60300fdc9094", "type": "electric_scooter", "is_reserved": 0, "lon": -77.03322983333334}, {"fusion_lat": 0.0, "name": "f0342457de913869c888e8a124300a04", "is_disabled": 0, "rental_uris": {"android": "https://dc.lft.to/lastmile_qr_scan", "ios": "https://dc.lft.to/lastmile_qr_scan"}, "fusion_lon": 0.0, "lat": 38.929614666666666, "bike_id": "f0342457de913869c888e8a124300a04", "type": "electric_scooter", "is_reserved": 0, "lon": -77.02017116666667}, {"fusion_lat": 0.0, "name": "70428bdd03c8541c60d1fb7a5b4dae21", "is_disabled": 0, "rental_uris": {"android": "https://dc.lft.to/lastmile_qr_scan", "ios": "https://dc.lft.to/lastmile_qr_scan"}, "fusion_lon": 0.0, "lat": 38.91408233333333, "bike_id": "70428bdd03c8541c60d1fb7a5b4dae21", "type": "electric_scooter", "is_reserved": 0, "lon": -77.04568366666666}, {"fusion_lat": 0.0, "name": "3d197d58e85ed30a9da7589538bac792", "is_disabled": 0, "rental_uris": {"android": "https://dc.lft.to/lastmile_qr_scan", "ios": "https://dc.lft.to/lastmile_qr_scan"}, "fusion_lon": 0.0, "lat": 38.92257733333334, "bike_id": "3d197d58e85ed30a9da7589538bac792", "type": "electric_scooter", "is_reserved": 0, "lon": -77.0747805}, {"fusion_lat": 0.0, "name": "5cb478cfc6136e29b38b00180c519848", "is_disabled": 0, "rental_uris": {"android": "https://dc.lft.to/lastmile_qr_scan", "ios": "https://dc.lft.to/lastmile_qr_scan"}, "fusion_lon": 0.0, "lat": 38.9194755, "bike_id": "5cb478cfc6136e29b38b00180c519848", "type": "electric_scooter", "is_reserved": 0, "lon": -77.0250335}, {"fusion_lat": 0.0, "name": "5b07661cb48d3d88e28d9a7579756bdc", "is_disabled": 0, "rental_uris": {"android": "https://dc.lft.to/lastmile_qr_scan", "ios": "https://dc.lft.to/lastmile_qr_scan"}, "fusion_lon": 0.0, "lat": 38.90402316666667, "bike_id": "5b07661cb48d3d88e28d9a7579756bdc", "type": "electric_scooter", "is_reserved": 0, "lon": -77.03526716666667}, {"fusion_lat": 0.0, "name": "6c4088c6e7eb897cb4ad3c64138bccb6", "is_disabled": 0, "rental_uris": {"android": "https://dc.lft.to/lastmile_qr_scan", "ios": "https://dc.lft.to/lastmile_qr_scan"}, "fusion_lon": 0.0, "lat": 38.913572333333335, "bike_id": "6c4088c6e7eb897cb4ad3c64138bccb6", "type": "electric_scooter", "is_reserved": 0, "lon": -77.03147666666666}, {"fusion_lat": 0.0, "name": "db0c149d339186c4c6ff57b3a30f7dda", "is_disabled": 0, "rental_uris": {"android": "https://dc.lft.to/lastmile_qr_scan", "ios": "https://dc.lft.to/lastmile_qr_scan"}, "fusion_lon": 0.0, "lat": 38.866272, "bike_id": "db0c149d339186c4c6ff57b3a30f7dda", "type": "electric_bike", "is_reserved": 0, "lon": -76.94569983333334}, {"fusion_lat": 0.0, "name": "bf0d0d6f59702d9e6561095ce9129209", "is_disabled": 0, "rental_uris": {"android": "https://dc.lft.to/lastmile_qr_scan", "ios": "https://dc.lft.to/lastmile_qr_scan"}, "fusion_lon": 0.0, "lat": 38.9118405, "bike_id": "bf0d0d6f59702d9e6561095ce9129209", "type": "electric_scooter", "is_reserved": 0, "lon": -77.04548166666666}, {"fusion_lat": 0.0, "name": "851c55a0c9b11a2894454977b9eb0ed3", "is_disabled": 0, "rental_uris": {"android": "https://dc.lft.to/lastmile_qr_scan", "ios": "https://dc.lft.to/lastmile_qr_scan"}, "fusion_lon": 0.0, "lat": 38.96123333333333, "bike_id": "851c55a0c9b11a2894454977b9eb0ed3", "type": "electric_bike", "is_reserved": 0, "lon": -77.08490816666666}, {"fusion_lat": 0.0, "name": "bc7bcd0f03c521b40a686473d49bd282", "is_disabled": 0, "rental_uris": {"android": "https://dc.lft.to/lastmile_qr_scan", "ios": "https://dc.lft.to/lastmile_qr_scan"}, "fusion_lon": 0.0, "lat": 38.90789933333333, "bike_id": "bc7bcd0f03c521b40a686473d49bd282", "type": "electric_scooter", "is_reserved": 0, "lon": -77.0434625}, {"fusion_lat": 0.0, "name": "e7159df98a6567d19791f5014d0a0792", "is_disabled": 0, "rental_uris": {"android": "https://dc.lft.to/lastmile_qr_scan", "ios": "https://dc.lft.to/lastmile_qr_scan"}, "fusion_lon": 0.0, "lat": 38.908727666666664, "bike_id": "e7159df98a6567d19791f5014d0a0792", "type": "electric_scooter", "is_reserved": 0, "lon": -77.00919883333333}, {"fusion_lat": 0.0, "name": "00dc411b3d7a8329e62888b85c315018", "is_disabled": 0, "rental_uris": {"android": "https://dc.lft.to/lastmile_qr_scan", "ios": "https://dc.lft.to/lastmile_qr_scan"}, "fusion_lon": 0.0, "lat": 38.90677483333333, "bike_id": "00dc411b3d7a8329e62888b85c315018", "type": "electric_scooter", "is_reserved": 0, "lon": -77.02717716666666}, {"fusion_lat": 0.0, "name": "cda3f75efaff0d52a2ba593174475b9d", "is_disabled": 0, "rental_uris": {"android": "https://dc.lft.to/lastmile_qr_scan", "ios": "https://dc.lft.to/lastmile_qr_scan"}, "fusion_lon": 0.0, "lat": 38.922481166666664, "bike_id": "cda3f75efaff0d52a2ba593174475b9d", "type": "electric_scooter", "is_reserved": 0, "lon": -76.984063}, {"fusion_lat": 0.0, "name": "9189bb7e5d6504caac53dc8e74e71c52", "is_disabled": 0, "rental_uris": {"android": "https://dc.lft.to/lastmile_qr_scan", "ios": "https://dc.lft.to/lastmile_qr_scan"}, "fusion_lon": 0.0, "lat": 38.914892333333334, "bike_id": "9189bb7e5d6504caac53dc8e74e71c52", "type": "electric_scooter", "is_reserved": 0, "lon": -77.01230233333334}, {"fusion_lat": 0.0, "name": "09573a123b0fc3b562ffcf1c33612b5c", "is_disabled": 0, "rental_uris": {"android": "https://dc.lft.to/lastmile_qr_scan", "ios": "https://dc.lft.to/lastmile_qr_scan"}, "fusion_lon": 0.0, "lat": 38.9358565, "bike_id": "09573a123b0fc3b562ffcf1c33612b5c", "type": "electric_scooter", "is_reserved": 0, "lon": -77.0284235}, {"fusion_lat": 0.0, "name": "ca643d486015b06a6c50d7a36546c0d1", "is_disabled": 0, "rental_uris": {"android": "https://dc.lft.to/lastmile_qr_scan", "ios": "https://dc.lft.to/lastmile_qr_scan"}, "fusion_lon": 0.0, "lat": 38.91958, "bike_id": "ca643d486015b06a6c50d7a36546c0d1", "type": "electric_bike", "is_reserved": 0, "lon": -77.1010595}, {"fusion_lat": 0.0, "name": "4a7a8e31b655bf9cb7c59df18c4e9d8f", "is_disabled": 0, "rental_uris": {"android": "https://dc.lft.to/lastmile_qr_scan", "ios": "https://dc.lft.to/lastmile_qr_scan"}, "fusion_lon": 0.0, "lat": 38.89743133333333, "bike_id": "4a7a8e31b655bf9cb7c59df18c4e9d8f", "type": "electric_scooter", "is_reserved": 0, "lon": -77.046285}, {"fusion_lat": 0.0, "name": "49864c46b0b52c7b187864529c33040e", "is_disabled": 0, "rental_uris": {"android": "https://dc.lft.to/lastmile_qr_scan", "ios": "https://dc.lft.to/lastmile_qr_scan"}, "fusion_lon": 0.0, "lat": 38.87667866666666, "bike_id": "49864c46b0b52c7b187864529c33040e", "type": "electric_scooter", "is_reserved": 0, "lon": -77.001189}, {"fusion_lat": 0.0, "name": "1cb2aa66f0d629cbe3fbec7910123ac7", "is_disabled": 0, "rental_uris": {"android": "https://dc.lft.to/lastmile_qr_scan", "ios": "https://dc.lft.to/lastmile_qr_scan"}, "fusion_lon": 0.0, "lat": 38.9213395, "bike_id": "1cb2aa66f0d629cbe3fbec7910123ac7", "type": "electric_scooter", "is_reserved": 0, "lon": -77.01792516666667}, {"fusion_lat": 0.0, "name": "3a2ffc69ac0d7eeb8e6e4f52151a0225", "is_disabled": 0, "rental_uris": {"android": "https://dc.lft.to/lastmile_qr_scan", "ios": "https://dc.lft.to/lastmile_qr_scan"}, "fusion_lon": 0.0, "lat": 38.865156666666664, "bike_id": "3a2ffc69ac0d7eeb8e6e4f52151a0225", "type": "electric_bike", "is_reserved": 0, "lon": -76.97333516666667}, {"fusion_lat": 0.0, "name": "225e3859f475a294302d55a30da6c82c", "is_disabled": 0, "rental_uris": {"android": "https://dc.lft.to/lastmile_qr_scan", "ios": "https://dc.lft.to/lastmile_qr_scan"}, "fusion_lon": 0.0, "lat": 38.933659666666664, "bike_id": "225e3859f475a294302d55a30da6c82c", "type": "electric_scooter", "is_reserved": 0, "lon": -77.03264316666667}, {"fusion_lat": 0.0, "name": "1ed0a785ae5feb8d139108d037ea6019", "is_disabled": 0, "rental_uris": {"android": "https://dc.lft.to/lastmile_qr_scan", "ios": "https://dc.lft.to/lastmile_qr_scan"}, "fusion_lon": 0.0, "lat": 38.876859, "bike_id": "1ed0a785ae5feb8d139108d037ea6019", "type": "electric_scooter", "is_reserved": 0, "lon": -77.01757683333334}, {"fusion_lat": 0.0, "name": "a0fb2a8ada575818ab08b583f2a8fb04", "is_disabled": 0, "rental_uris": {"android": "https://dc.lft.to/lastmile_qr_scan", "ios": "https://dc.lft.to/lastmile_qr_scan"}, "fusion_lon": 0.0, "lat": 38.9237785, "bike_id": "a0fb2a8ada575818ab08b583f2a8fb04", "type": "electric_scooter", "is_reserved": 0, "lon": -77.02534383333334}, {"fusion_lat": 0.0, "name": "393e67fcab9aaa701135c5b2380610c9", "is_disabled": 0, "rental_uris": {"android": "https://dc.lft.to/lastmile_qr_scan", "ios": "https://dc.lft.to/lastmile_qr_scan"}, "fusion_lon": 0.0, "lat": 38.849131666666665, "bike_id": "393e67fcab9aaa701135c5b2380610c9", "type": "electric_bike", "is_reserved": 0, "lon": -77.09980816666666}, {"fusion_lat": 0.0, "name": "1531ebb51da7aab669d7085bcb59bda1", "is_disabled": 0, "rental_uris": {"android": "https://dc.lft.to/lastmile_qr_scan", "ios": "https://dc.lft.to/lastmile_qr_scan"}, "fusion_lon": 0.0, "lat": 38.9036335, "bike_id": "1531ebb51da7aab669d7085bcb59bda1", "type": "electric_scooter", "is_reserved": 0, "lon": -77.062719}, {"fusion_lat": 0.0, "name": "7db901d6ac02e23228c573f251bbf941", "is_disabled": 0, "rental_uris": {"android": "https://dc.lft.to/lastmile_qr_scan", "ios": "https://dc.lft.to/lastmile_qr_scan"}, "fusion_lon": 0.0, "lat": 38.91415666666666, "bike_id": "7db901d6ac02e23228c573f251bbf941", "type": "electric_scooter", "is_reserved": 0, "lon": -77.03143316666667}, {"fusion_lat": 0.0, "name": "22d742adb1d6c699f106fadd41759d5c", "is_disabled": 0, "rental_uris": {"android": "https://dc.lft.to/lastmile_qr_scan", "ios": "https://dc.lft.to/lastmile_qr_scan"}, "fusion_lon": 0.0, "lat": 38.928759166666666, "bike_id": "22d742adb1d6c699f106fadd41759d5c", "type": "electric_scooter", "is_reserved": 0, "lon": -77.03482983333333}, {"fusion_lat": 0.0, "name": "8ad5b06eca39a2f1b1703218b488f6fd", "is_disabled": 0, "rental_uris": {"android": "https://dc.lft.to/lastmile_qr_scan", "ios": "https://dc.lft.to/lastmile_qr_scan"}, "fusion_lon": 0.0, "lat": 38.938824, "bike_id": "8ad5b06eca39a2f1b1703218b488f6fd", "type": "electric_scooter", "is_reserved": 0, "lon": -77.02465016666666}, {"fusion_lat": 0.0, "name": "dea0ad72aa59f59dadade6577391da83", "is_disabled": 0, "rental_uris": {"android": "https://dc.lft.to/lastmile_qr_scan", "ios": "https://dc.lft.to/lastmile_qr_scan"}, "fusion_lon": 0.0, "lat": 38.893434, "bike_id": "dea0ad72aa59f59dadade6577391da83", "type": "electric_scooter", "is_reserved": 0, "lon": -76.99382666666666}, {"fusion_lat": 0.0, "name": "51a7e6a9d0d686185ac492ef9bf8b12a", "is_disabled": 0, "rental_uris": {"android": "https://dc.lft.to/lastmile_qr_scan", "ios": "https://dc.lft.to/lastmile_qr_scan"}, "fusion_lon": 0.0, "lat": 38.99226083333333, "bike_id": "51a7e6a9d0d686185ac492ef9bf8b12a", "type": "electric_bike", "is_reserved": 0, "lon": -76.944113}, {"fusion_lat": 0.0, "name": "5d559d32fbf753292f06b0964fca3d54", "is_disabled": 0, "rental_uris": {"android": "https://dc.lft.to/lastmile_qr_scan", "ios": "https://dc.lft.to/lastmile_qr_scan"}, "fusion_lon": 0.0, "lat": 38.9302475, "bike_id": "5d559d32fbf753292f06b0964fca3d54", "type": "electric_scooter", "is_reserved": 0, "lon": -77.0378875}, {"fusion_lat": 0.0, "name": "f74eddf11f5a5a17acc725830c14b039", "is_disabled": 0, "rental_uris": {"android": "https://dc.lft.to/lastmile_qr_scan", "ios": "https://dc.lft.to/lastmile_qr_scan"}, "fusion_lon": 0.0, "lat": 38.91522466666667, "bike_id": "f74eddf11f5a5a17acc725830c14b039", "type": "electric_scooter", "is_reserved": 0, "lon": -77.01326583333334}, {"fusion_lat": 0.0, "name": "a34086379c4350739f8c6bd074d15e39", "is_disabled": 0, "rental_uris": {"android": "https://dc.lft.to/lastmile_qr_scan", "ios": "https://dc.lft.to/lastmile_qr_scan"}, "fusion_lon": 0.0, "lat": 38.924092333333334, "bike_id": "a34086379c4350739f8c6bd074d15e39", "type": "electric_bike", "is_reserved": 0, "lon": -77.05040233333334}, {"fusion_lat": 0.0, "name": "c2426631b661d02ac2cf673c4db83dd9", "is_disabled": 0, "rental_uris": {"android": "https://dc.lft.to/lastmile_qr_scan", "ios": "https://dc.lft.to/lastmile_qr_scan"}, "fusion_lon": 0.0, "lat": 38.914942, "bike_id": "c2426631b661d02ac2cf673c4db83dd9", "type": "electric_scooter", "is_reserved": 0, "lon": -77.02391666666666}, {"fusion_lat": 0.0, "name": "40d30442b204f6da137a6dc5aa020a42", "is_disabled": 0, "rental_uris": {"android": "https://dc.lft.to/lastmile_qr_scan", "ios": "https://dc.lft.to/lastmile_qr_scan"}, "fusion_lon": 0.0, "lat": 38.88508366666667, "bike_id": "40d30442b204f6da137a6dc5aa020a42", "type": "electric_scooter", "is_reserved": 0, "lon": -77.00066116666666}, {"fusion_lat": 0.0, "name": "9f9c980bae440d8765a497927eca9d07", "is_disabled": 0, "rental_uris": {"android": "https://dc.lft.to/lastmile_qr_scan", "ios": "https://dc.lft.to/lastmile_qr_scan"}, "fusion_lon": 0.0, "lat": 38.95314283333333, "bike_id": "9f9c980bae440d8765a497927eca9d07", "type": "electric_scooter", "is_reserved": 0, "lon": -77.0225}, {"fusion_lat": 0.0, "name": "ea8837b0e26a2c729937ec1e77dfb737", "is_disabled": 0, "rental_uris": {"android": "https://dc.lft.to/lastmile_qr_scan", "ios": "https://dc.lft.to/lastmile_qr_scan"}, "fusion_lon": 0.0, "lat": 38.935374, "bike_id": "ea8837b0e26a2c729937ec1e77dfb737", "type": "electric_scooter", "is_reserved": 0, "lon": -77.02350333333334}, {"fusion_lat": 0.0, "name": "023b4e69cc9726804bddf05086c44611", "is_disabled": 0, "rental_uris": {"android": "https://dc.lft.to/lastmile_qr_scan", "ios": "https://dc.lft.to/lastmile_qr_scan"}, "fusion_lon": 0.0, "lat": 38.927426833333335, "bike_id": "023b4e69cc9726804bddf05086c44611", "type": "electric_bike", "is_reserved": 0, "lon": -77.02495633333334}, {"fusion_lat": 0.0, "name": "e36bf9b85ea50c8c1d3947e7377303fb", "is_disabled": 0, "rental_uris": {"android": "https://dc.lft.to/lastmile_qr_scan", "ios": "https://dc.lft.to/lastmile_qr_scan"}, "fusion_lon": 0.0, "lat": 38.92120666666667, "bike_id": "e36bf9b85ea50c8c1d3947e7377303fb", "type": "electric_scooter", "is_reserved": 0, "lon": -77.02080366666667}, {"fusion_lat": 0.0, "name": "f847b7ec000ba84b53a50cffe073df42", "is_disabled": 0, "rental_uris": {"android": "https://dc.lft.to/lastmile_qr_scan", "ios": "https://dc.lft.to/lastmile_qr_scan"}, "fusion_lon": 0.0, "lat": 38.91067616666667, "bike_id": "f847b7ec000ba84b53a50cffe073df42", "type": "electric_scooter", "is_reserved": 0, "lon": -77.03663916666666}, {"fusion_lat": 0.0, "name": "9b6941f5830a3d2cb7133f9f06463ef1", "is_disabled": 0, "rental_uris": {"android": "https://dc.lft.to/lastmile_qr_scan", "ios": "https://dc.lft.to/lastmile_qr_scan"}, "fusion_lon": 0.0, "lat": 38.901373166666666, "bike_id": "9b6941f5830a3d2cb7133f9f06463ef1", "type": "electric_scooter", "is_reserved": 0, "lon": -76.98638766666667}, {"fusion_lat": 0.0, "name": "160705debde893d006376bad9df8378c", "is_disabled": 0, "rental_uris": {"android": "https://dc.lft.to/lastmile_qr_scan", "ios": "https://dc.lft.to/lastmile_qr_scan"}, "fusion_lon": 0.0, "lat": 38.927467666666665, "bike_id": "160705debde893d006376bad9df8378c", "type": "electric_scooter", "is_reserved": 0, "lon": -77.03638316666667}, {"fusion_lat": 0.0, "name": "5cc94acbf6fc6a5ca7afd58077edf904", "is_disabled": 0, "rental_uris": {"android": "https://dc.lft.to/lastmile_qr_scan", "ios": "https://dc.lft.to/lastmile_qr_scan"}, "fusion_lon": 0.0, "lat": 38.913964, "bike_id": "5cc94acbf6fc6a5ca7afd58077edf904", "type": "electric_scooter", "is_reserved": 0, "lon": -77.038505}, {"fusion_lat": 0.0, "name": "da3bd5b966dc227178484f288c40bbcf", "is_disabled": 0, "rental_uris": {"android": "https://dc.lft.to/lastmile_qr_scan", "ios": "https://dc.lft.to/lastmile_qr_scan"}, "fusion_lon": 0.0, "lat": 38.95337833333333, "bike_id": "da3bd5b966dc227178484f288c40bbcf", "type": "electric_bike", "is_reserved": 0, "lon": -76.9825465}, {"fusion_lat": 0.0, "name": "9997d49910ca670251975f03f9795957", "is_disabled": 0, "rental_uris": {"android": "https://dc.lft.to/lastmile_qr_scan", "ios": "https://dc.lft.to/lastmile_qr_scan"}, "fusion_lon": 0.0, "lat": 38.926193166666664, "bike_id": "9997d49910ca670251975f03f9795957", "type": "electric_scooter", "is_reserved": 0, "lon": -77.04321733333333}, {"fusion_lat": 0.0, "name": "73df9a04b14b1b705c7c56235c5cb6db", "is_disabled": 0, "rental_uris": {"android": "https://dc.lft.to/lastmile_qr_scan", "ios": "https://dc.lft.to/lastmile_qr_scan"}, "fusion_lon": 0.0, "lat": 38.87471683333333, "bike_id": "73df9a04b14b1b705c7c56235c5cb6db", "type": "electric_scooter", "is_reserved": 0, "lon": -77.00029716666667}, {"fusion_lat": 0.0, "name": "420098babd29f681c918dc71fe1544d3", "is_disabled": 0, "rental_uris": {"android": "https://dc.lft.to/lastmile_qr_scan", "ios": "https://dc.lft.to/lastmile_qr_scan"}, "fusion_lon": 0.0, "lat": 38.895187666666665, "bike_id": "420098babd29f681c918dc71fe1544d3", "type": "electric_scooter", "is_reserved": 0, "lon": -76.99956183333333}, {"fusion_lat": 0.0, "name": "e54581c0f0b763dd4adabd7591e6fcc2", "is_disabled": 0, "rental_uris": {"android": "https://dc.lft.to/lastmile_qr_scan", "ios": "https://dc.lft.to/lastmile_qr_scan"}, "fusion_lon": 0.0, "lat": 38.9420255, "bike_id": "e54581c0f0b763dd4adabd7591e6fcc2", "type": "electric_scooter", "is_reserved": 0, "lon": -77.02589383333333}, {"fusion_lat": 0.0, "name": "9bb1578006ceeb0b4c9f853c65fb582e", "is_disabled": 0, "rental_uris": {"android": "https://dc.lft.to/lastmile_qr_scan", "ios": "https://dc.lft.to/lastmile_qr_scan"}, "fusion_lon": 0.0, "lat": 38.839357666666665, "bike_id": "9bb1578006ceeb0b4c9f853c65fb582e", "type": "electric_bike", "is_reserved": 0, "lon": -77.07902616666667}, {"fusion_lat": 0.0, "name": "408f6d6e5894e4147729092343bdb256", "is_disabled": 0, "rental_uris": {"android": "https://dc.lft.to/lastmile_qr_scan", "ios": "https://dc.lft.to/lastmile_qr_scan"}, "fusion_lon": 0.0, "lat": 38.978830333333335, "bike_id": "408f6d6e5894e4147729092343bdb256", "type": "electric_bike", "is_reserved": 0, "lon": -77.06025933333333}, {"fusion_lat": 0.0, "name": "13c76f3ff11a4b56cf3f247a075887c9", "is_disabled": 0, "rental_uris": {"android": "https://dc.lft.to/lastmile_qr_scan", "ios": "https://dc.lft.to/lastmile_qr_scan"}, "fusion_lon": 0.0, "lat": 39.05256033333333, "bike_id": "13c76f3ff11a4b56cf3f247a075887c9", "type": "electric_bike", "is_reserved": 0, "lon": -77.080669}, {"fusion_lat": 0.0, "name": "358482d7fbe418223bbccb47ac5ea658", "is_disabled": 0, "rental_uris": {"android": "https://dc.lft.to/lastmile_qr_scan", "ios": "https://dc.lft.to/lastmile_qr_scan"}, "fusion_lon": 0.0, "lat": 38.93524983333333, "bike_id": "358482d7fbe418223bbccb47ac5ea658", "type": "electric_scooter", "is_reserved": 0, "lon": -77.0726365}, {"fusion_lat": 0.0, "name": "00318d4b4b4f01e0cbf3f770dc532582", "is_disabled": 0, "rental_uris": {"android": "https://dc.lft.to/lastmile_qr_scan", "ios": "https://dc.lft.to/lastmile_qr_scan"}, "fusion_lon": 0.0, "lat": 38.9147155, "bike_id": "00318d4b4b4f01e0cbf3f770dc532582", "type": "electric_scooter", "is_reserved": 0, "lon": -77.02406633333334}, {"fusion_lat": 0.0, "name": "8c5ea0ec42f06e52b51fbddcd355a432", "is_disabled": 0, "rental_uris": {"android": "https://dc.lft.to/lastmile_qr_scan", "ios": "https://dc.lft.to/lastmile_qr_scan"}, "fusion_lon": 0.0, "lat": 38.89853983333333, "bike_id": "8c5ea0ec42f06e52b51fbddcd355a432", "type": "electric_scooter", "is_reserved": 0, "lon": -76.99030766666667}, {"fusion_lat": 0.0, "name": "b12282f9e09974ac128f4d0517a4dcec", "is_disabled": 0, "rental_uris": {"android": "https://dc.lft.to/lastmile_qr_scan", "ios": "https://dc.lft.to/lastmile_qr_scan"}, "fusion_lon": 0.0, "lat": 38.88328633333333, "bike_id": "b12282f9e09974ac128f4d0517a4dcec", "type": "electric_scooter", "is_reserved": 0, "lon": -77.0173685}, {"fusion_lat": 0.0, "name": "1fc416a96529f25e5275cd327efdaa92", "is_disabled": 0, "rental_uris": {"android": "https://dc.lft.to/lastmile_qr_scan", "ios": "https://dc.lft.to/lastmile_qr_scan"}, "fusion_lon": 0.0, "lat": 38.9180635, "bike_id": "1fc416a96529f25e5275cd327efdaa92", "type": "electric_scooter", "is_reserved": 0, "lon": -77.037161}, {"fusion_lat": 0.0, "name": "da89b563237ffc5ef0e0b809532271a8", "is_disabled": 0, "rental_uris": {"android": "https://dc.lft.to/lastmile_qr_scan", "ios": "https://dc.lft.to/lastmile_qr_scan"}, "fusion_lon": 0.0, "lat": 38.898762166666664, "bike_id": "da89b563237ffc5ef0e0b809532271a8", "type": "electric_scooter", "is_reserved": 0, "lon": -76.931855}, {"fusion_lat": 0.0, "name": "82ead0141ee4c5cbd65a570e6c061d66", "is_disabled": 0, "rental_uris": {"android": "https://dc.lft.to/lastmile_qr_scan", "ios": "https://dc.lft.to/lastmile_qr_scan"}, "fusion_lon": 0.0, "lat": 38.847578666666664, "bike_id": "82ead0141ee4c5cbd65a570e6c061d66", "type": "electric_scooter", "is_reserved": 0, "lon": -76.99497633333333}, {"fusion_lat": 0.0, "name": "f83643ba60dba695ac2b1c73ffc45fa8", "is_disabled": 0, "rental_uris": {"android": "https://dc.lft.to/lastmile_qr_scan", "ios": "https://dc.lft.to/lastmile_qr_scan"}, "fusion_lon": 0.0, "lat": 38.90245733333333, "bike_id": "f83643ba60dba695ac2b1c73ffc45fa8", "type": "electric_scooter", "is_reserved": 0, "lon": -77.0077155}, {"fusion_lat": 0.0, "name": "a2645d244814ef7f8fffef5f6310d8d1", "is_disabled": 0, "rental_uris": {"android": "https://dc.lft.to/lastmile_qr_scan", "ios": "https://dc.lft.to/lastmile_qr_scan"}, "fusion_lon": 0.0, "lat": 38.89718033333333, "bike_id": "a2645d244814ef7f8fffef5f6310d8d1", "type": "electric_scooter", "is_reserved": 0, "lon": -77.027295}, {"fusion_lat": 0.0, "name": "4932f132efd8084c1fb1c61e8144da3c", "is_disabled": 0, "rental_uris": {"android": "https://dc.lft.to/lastmile_qr_scan", "ios": "https://dc.lft.to/lastmile_qr_scan"}, "fusion_lon": 0.0, "lat": 38.933747333333336, "bike_id": "4932f132efd8084c1fb1c61e8144da3c", "type": "electric_scooter", "is_reserved": 0, "lon": -77.02420133333334}, {"fusion_lat": 0.0, "name": "bca3cdbcb5dff529c5bc72ce8b8609dd", "is_disabled": 0, "rental_uris": {"android": "https://dc.lft.to/lastmile_qr_scan", "ios": "https://dc.lft.to/lastmile_qr_scan"}, "fusion_lon": 0.0, "lat": 38.90721416666667, "bike_id": "bca3cdbcb5dff529c5bc72ce8b8609dd", "type": "electric_scooter", "is_reserved": 0, "lon": -77.02541883333333}, {"fusion_lat": 0.0, "name": "0bed30a8d0a5c421ad840d68a8f17af1", "is_disabled": 0, "rental_uris": {"android": "https://dc.lft.to/lastmile_qr_scan", "ios": "https://dc.lft.to/lastmile_qr_scan"}, "fusion_lon": 0.0, "lat": 38.8830945, "bike_id": "0bed30a8d0a5c421ad840d68a8f17af1", "type": "electric_scooter", "is_reserved": 0, "lon": -77.01929166666666}, {"fusion_lat": 0.0, "name": "2c0929c27053d2a0c0519bd132af0fb2", "is_disabled": 0, "rental_uris": {"android": "https://dc.lft.to/lastmile_qr_scan", "ios": "https://dc.lft.to/lastmile_qr_scan"}, "fusion_lon": 0.0, "lat": 38.81940766666666, "bike_id": "2c0929c27053d2a0c0519bd132af0fb2", "type": "electric_bike", "is_reserved": 0, "lon": -77.00201883333334}, {"fusion_lat": 0.0, "name": "0544ce244f91dc2e4fe4fe8160eccce1", "is_disabled": 0, "rental_uris": {"android": "https://dc.lft.to/lastmile_qr_scan", "ios": "https://dc.lft.to/lastmile_qr_scan"}, "fusion_lon": 0.0, "lat": 38.900104, "bike_id": "0544ce244f91dc2e4fe4fe8160eccce1", "type": "electric_scooter", "is_reserved": 0, "lon": -77.00185516666667}, {"fusion_lat": 0.0, "name": "5dd18a2717a25e9b1cef4a90d89c6702", "is_disabled": 0, "rental_uris": {"android": "https://dc.lft.to/lastmile_qr_scan", "ios": "https://dc.lft.to/lastmile_qr_scan"}, "fusion_lon": 0.0, "lat": 38.90956333333333, "bike_id": "5dd18a2717a25e9b1cef4a90d89c6702", "type": "electric_scooter", "is_reserved": 0, "lon": -76.98535983333333}, {"fusion_lat": 0.0, "name": "70019164d46a1fbe32616292a44767fa", "is_disabled": 0, "rental_uris": {"android": "https://dc.lft.to/lastmile_qr_scan", "ios": "https://dc.lft.to/lastmile_qr_scan"}, "fusion_lon": 0.0, "lat": 38.90464433333333, "bike_id": "70019164d46a1fbe32616292a44767fa", "type": "electric_scooter", "is_reserved": 0, "lon": -77.0295075}, {"fusion_lat": 0.0, "name": "1ac2e2f2e7eac28729ff0b429900d7f3", "is_disabled": 0, "rental_uris": {"android": "https://dc.lft.to/lastmile_qr_scan", "ios": "https://dc.lft.to/lastmile_qr_scan"}, "fusion_lon": 0.0, "lat": 38.84129183333334, "bike_id": "1ac2e2f2e7eac28729ff0b429900d7f3", "type": "electric_bike", "is_reserved": 0, "lon": -77.063066}, {"fusion_lat": 0.0, "name": "57bfc2eeb8f920315e73f8d510907062", "is_disabled": 0, "rental_uris": {"android": "https://dc.lft.to/lastmile_qr_scan", "ios": "https://dc.lft.to/lastmile_qr_scan"}, "fusion_lon": 0.0, "lat": 38.86352566666667, "bike_id": "57bfc2eeb8f920315e73f8d510907062", "type": "electric_bike", "is_reserved": 0, "lon": -77.07719}, {"fusion_lat": 0.0, "name": "8f0f4a3e205dd43978d5f620ce9d5581", "is_disabled": 0, "rental_uris": {"android": "https://dc.lft.to/lastmile_qr_scan", "ios": "https://dc.lft.to/lastmile_qr_scan"}, "fusion_lon": 0.0, "lat": 38.9315315, "bike_id": "8f0f4a3e205dd43978d5f620ce9d5581", "type": "electric_scooter", "is_reserved": 0, "lon": -77.039737}, {"fusion_lat": 0.0, "name": "616525321404d15078372ad96d12463c", "is_disabled": 0, "rental_uris": {"android": "https://dc.lft.to/lastmile_qr_scan", "ios": "https://dc.lft.to/lastmile_qr_scan"}, "fusion_lon": 0.0, "lat": 38.88834216666667, "bike_id": "616525321404d15078372ad96d12463c", "type": "electric_scooter", "is_reserved": 0, "lon": -77.04844066666666}, {"fusion_lat": 0.0, "name": "5603dcaa0c2e5486b95160ba4e9eb0ec", "is_disabled": 0, "rental_uris": {"android": "https://dc.lft.to/lastmile_qr_scan", "ios": "https://dc.lft.to/lastmile_qr_scan"}, "fusion_lon": 0.0, "lat": 38.93752166666667, "bike_id": "5603dcaa0c2e5486b95160ba4e9eb0ec", "type": "electric_scooter", "is_reserved": 0, "lon": -77.0253035}, {"fusion_lat": 0.0, "name": "9c3c3977cbd598ab0ca9658b45e63f69", "is_disabled": 0, "rental_uris": {"android": "https://dc.lft.to/lastmile_qr_scan", "ios": "https://dc.lft.to/lastmile_qr_scan"}, "fusion_lon": 0.0, "lat": 38.89226333333333, "bike_id": "9c3c3977cbd598ab0ca9658b45e63f69", "type": "electric_scooter", "is_reserved": 0, "lon": -77.00295766666666}, {"fusion_lat": 0.0, "name": "ca8a63bf2063b4d7f475391d10114ea4", "is_disabled": 0, "rental_uris": {"android": "https://dc.lft.to/lastmile_qr_scan", "ios": "https://dc.lft.to/lastmile_qr_scan"}, "fusion_lon": 0.0, "lat": 38.90236, "bike_id": "ca8a63bf2063b4d7f475391d10114ea4", "type": "electric_scooter", "is_reserved": 0, "lon": -77.025979}, {"fusion_lat": 0.0, "name": "02f699b66c7e41495358dc26ba43965d", "is_disabled": 0, "rental_uris": {"android": "https://dc.lft.to/lastmile_qr_scan", "ios": "https://dc.lft.to/lastmile_qr_scan"}, "fusion_lon": 0.0, "lat": 38.92319716666667, "bike_id": "02f699b66c7e41495358dc26ba43965d", "type": "electric_scooter", "is_reserved": 0, "lon": -77.02794033333333}, {"fusion_lat": 0.0, "name": "3003c2d21e3da8487ed960619f49264d", "is_disabled": 0, "rental_uris": {"android": "https://dc.lft.to/lastmile_qr_scan", "ios": "https://dc.lft.to/lastmile_qr_scan"}, "fusion_lon": 0.0, "lat": 38.92794516666667, "bike_id": "3003c2d21e3da8487ed960619f49264d", "type": "electric_scooter", "is_reserved": 0, "lon": -77.03154916666666}, {"fusion_lat": 0.0, "name": "995072f1cd96184bd1c0c79bfcd017d5", "is_disabled": 0, "rental_uris": {"android": "https://dc.lft.to/lastmile_qr_scan", "ios": "https://dc.lft.to/lastmile_qr_scan"}, "fusion_lon": 0.0, "lat": 38.93358633333333, "bike_id": "995072f1cd96184bd1c0c79bfcd017d5", "type": "electric_scooter", "is_reserved": 0, "lon": -77.02430866666667}, {"fusion_lat": 0.0, "name": "d23029a7d1bbbde2e79de4694c44d243", "is_disabled": 0, "rental_uris": {"android": "https://dc.lft.to/lastmile_qr_scan", "ios": "https://dc.lft.to/lastmile_qr_scan"}, "fusion_lon": 0.0, "lat": 38.93528933333333, "bike_id": "d23029a7d1bbbde2e79de4694c44d243", "type": "electric_scooter", "is_reserved": 0, "lon": -77.0451965}, {"fusion_lat": 0.0, "name": "a130e0be65f67d590f99ebda6988a002", "is_disabled": 0, "rental_uris": {"android": "https://dc.lft.to/lastmile_qr_scan", "ios": "https://dc.lft.to/lastmile_qr_scan"}, "fusion_lon": 0.0, "lat": 38.924527, "bike_id": "a130e0be65f67d590f99ebda6988a002", "type": "electric_scooter", "is_reserved": 0, "lon": -77.03322883333334}, {"fusion_lat": 0.0, "name": "bca32f1a9cf6c44de4170a45d0e56346", "is_disabled": 0, "rental_uris": {"android": "https://dc.lft.to/lastmile_qr_scan", "ios": "https://dc.lft.to/lastmile_qr_scan"}, "fusion_lon": 0.0, "lat": 38.93533516666667, "bike_id": "bca32f1a9cf6c44de4170a45d0e56346", "type": "electric_scooter", "is_reserved": 0, "lon": -77.0235355}, {"fusion_lat": 0.0, "name": "5337eb8d2ef1985eb1645050fb045cbc", "is_disabled": 0, "rental_uris": {"android": "https://dc.lft.to/lastmile_qr_scan", "ios": "https://dc.lft.to/lastmile_qr_scan"}, "fusion_lon": 0.0, "lat": 38.88992533333333, "bike_id": "5337eb8d2ef1985eb1645050fb045cbc", "type": "electric_scooter", "is_reserved": 0, "lon": -76.98224366666666}, {"fusion_lat": 0.0, "name": "2d6c23141e9006b71bf725247ea1b8db", "is_disabled": 0, "rental_uris": {"android": "https://dc.lft.to/lastmile_qr_scan", "ios": "https://dc.lft.to/lastmile_qr_scan"}, "fusion_lon": 0.0, "lat": 38.97123883333333, "bike_id": "2d6c23141e9006b71bf725247ea1b8db", "type": "electric_bike", "is_reserved": 0, "lon": -77.02087466666667}, {"fusion_lat": 0.0, "name": "08b62690467c89a3723987ec7e369b8c", "is_disabled": 0, "rental_uris": {"android": "https://dc.lft.to/lastmile_qr_scan", "ios": "https://dc.lft.to/lastmile_qr_scan"}, "fusion_lon": 0.0, "lat": 38.93387666666667, "bike_id": "08b62690467c89a3723987ec7e369b8c", "type": "electric_scooter", "is_reserved": 0, "lon": -77.02417616666666}, {"fusion_lat": 0.0, "name": "e6511e5711c64410c60ceb4f316554c8", "is_disabled": 0, "rental_uris": {"android": "https://dc.lft.to/lastmile_qr_scan", "ios": "https://dc.lft.to/lastmile_qr_scan"}, "fusion_lon": 0.0, "lat": 38.938967, "bike_id": "e6511e5711c64410c60ceb4f316554c8", "type": "electric_scooter", "is_reserved": 0, "lon": -77.033123}, {"fusion_lat": 0.0, "name": "0f74af23be268132b2960f55acb37087", "is_disabled": 0, "rental_uris": {"android": "https://dc.lft.to/lastmile_qr_scan", "ios": "https://dc.lft.to/lastmile_qr_scan"}, "fusion_lon": 0.0, "lat": 38.91038783333333, "bike_id": "0f74af23be268132b2960f55acb37087", "type": "electric_scooter", "is_reserved": 0, "lon": -77.012879}, {"fusion_lat": 0.0, "name": "4b544e58a231c8d28565a45a3e99ef84", "is_disabled": 0, "rental_uris": {"android": "https://dc.lft.to/lastmile_qr_scan", "ios": "https://dc.lft.to/lastmile_qr_scan"}, "fusion_lon": 0.0, "lat": 38.9045265, "bike_id": "4b544e58a231c8d28565a45a3e99ef84", "type": "electric_bike", "is_reserved": 0, "lon": -76.97426666666667}, {"fusion_lat": 0.0, "name": "a17342b6c06a2f94b8d50b396f1fed0d", "is_disabled": 0, "rental_uris": {"android": "https://dc.lft.to/lastmile_qr_scan", "ios": "https://dc.lft.to/lastmile_qr_scan"}, "fusion_lon": 0.0, "lat": 38.85565783333333, "bike_id": "a17342b6c06a2f94b8d50b396f1fed0d", "type": "electric_bike", "is_reserved": 0, "lon": -77.113155}, {"fusion_lat": 0.0, "name": "64e772ceef1a19f5eefa2f9447b7340b", "is_disabled": 0, "rental_uris": {"android": "https://dc.lft.to/lastmile_qr_scan", "ios": "https://dc.lft.to/lastmile_qr_scan"}, "fusion_lon": 0.0, "lat": 38.89728616666667, "bike_id": "64e772ceef1a19f5eefa2f9447b7340b", "type": "electric_scooter", "is_reserved": 0, "lon": -76.947017}, {"fusion_lat": 0.0, "name": "d8736baaad1d40ed1c0df81cc1cbf721", "is_disabled": 0, "rental_uris": {"android": "https://dc.lft.to/lastmile_qr_scan", "ios": "https://dc.lft.to/lastmile_qr_scan"}, "fusion_lon": 0.0, "lat": 38.96073, "bike_id": "d8736baaad1d40ed1c0df81cc1cbf721", "type": "electric_scooter", "is_reserved": 0, "lon": -77.0009605}, {"fusion_lat": 0.0, "name": "4d6f55fb5bc6329392b0bdd2d9ffbb2c", "is_disabled": 0, "rental_uris": {"android": "https://dc.lft.to/lastmile_qr_scan", "ios": "https://dc.lft.to/lastmile_qr_scan"}, "fusion_lon": 0.0, "lat": 38.90506216666667, "bike_id": "4d6f55fb5bc6329392b0bdd2d9ffbb2c", "type": "electric_scooter", "is_reserved": 0, "lon": -77.02957783333333}, {"fusion_lat": 0.0, "name": "63942f911157b87f7104a6cdc3822604", "is_disabled": 0, "rental_uris": {"android": "https://dc.lft.to/lastmile_qr_scan", "ios": "https://dc.lft.to/lastmile_qr_scan"}, "fusion_lon": 0.0, "lat": 38.873723166666664, "bike_id": "63942f911157b87f7104a6cdc3822604", "type": "electric_scooter", "is_reserved": 0, "lon": -77.00155466666666}, {"fusion_lat": 0.0, "name": "321b34030811a371db8e6b191b028066", "is_disabled": 0, "rental_uris": {"android": "https://dc.lft.to/lastmile_qr_scan", "ios": "https://dc.lft.to/lastmile_qr_scan"}, "fusion_lon": 0.0, "lat": 38.915062666666664, "bike_id": "321b34030811a371db8e6b191b028066", "type": "electric_scooter", "is_reserved": 0, "lon": -77.00922366666667}, {"fusion_lat": 0.0, "name": "16d641e2a74d127a3e98a5ff705cb346", "is_disabled": 0, "rental_uris": {"android": "https://dc.lft.to/lastmile_qr_scan", "ios": "https://dc.lft.to/lastmile_qr_scan"}, "fusion_lon": 0.0, "lat": 38.9003895, "bike_id": "16d641e2a74d127a3e98a5ff705cb346", "type": "electric_scooter", "is_reserved": 0, "lon": -77.0038565}, {"fusion_lat": 0.0, "name": "96965aaa63806ea3176109e683dc10e0", "is_disabled": 0, "rental_uris": {"android": "https://dc.lft.to/lastmile_qr_scan", "ios": "https://dc.lft.to/lastmile_qr_scan"}, "fusion_lon": 0.0, "lat": 38.9067405, "bike_id": "96965aaa63806ea3176109e683dc10e0", "type": "electric_scooter", "is_reserved": 0, "lon": -77.02708783333334}, {"fusion_lat": 0.0, "name": "bbc0c29e47ace4ee51f5d1af7a5aa72e", "is_disabled": 0, "rental_uris": {"android": "https://dc.lft.to/lastmile_qr_scan", "ios": "https://dc.lft.to/lastmile_qr_scan"}, "fusion_lon": 0.0, "lat": 38.92869983333333, "bike_id": "bbc0c29e47ace4ee51f5d1af7a5aa72e", "type": "electric_scooter", "is_reserved": 0, "lon": -77.03480166666667}, {"fusion_lat": 0.0, "name": "d71587000036b7d654a7ca7118bc1dc0", "is_disabled": 0, "rental_uris": {"android": "https://dc.lft.to/lastmile_qr_scan", "ios": "https://dc.lft.to/lastmile_qr_scan"}, "fusion_lon": 0.0, "lat": 38.9147155, "bike_id": "d71587000036b7d654a7ca7118bc1dc0", "type": "electric_scooter", "is_reserved": 0, "lon": -77.0390055}, {"fusion_lat": 0.0, "name": "caa8bdc50385533aaab1dcd14213ab26", "is_disabled": 0, "rental_uris": {"android": "https://dc.lft.to/lastmile_qr_scan", "ios": "https://dc.lft.to/lastmile_qr_scan"}, "fusion_lon": 0.0, "lat": 38.9386265, "bike_id": "caa8bdc50385533aaab1dcd14213ab26", "type": "electric_scooter", "is_reserved": 0, "lon": -77.02454733333333}, {"fusion_lat": 0.0, "name": "d04e6e885f26240e29fac70257fe2c47", "is_disabled": 0, "rental_uris": {"android": "https://dc.lft.to/lastmile_qr_scan", "ios": "https://dc.lft.to/lastmile_qr_scan"}, "fusion_lon": 0.0, "lat": 38.921024333333335, "bike_id": "d04e6e885f26240e29fac70257fe2c47", "type": "electric_scooter", "is_reserved": 0, "lon": -77.07476616666666}, {"fusion_lat": 0.0, "name": "e4e219321471f24c188017f2772693e8", "is_disabled": 0, "rental_uris": {"android": "https://dc.lft.to/lastmile_qr_scan", "ios": "https://dc.lft.to/lastmile_qr_scan"}, "fusion_lon": 0.0, "lat": 38.8987585, "bike_id": "e4e219321471f24c188017f2772693e8", "type": "electric_scooter", "is_reserved": 0, "lon": -77.0204535}, {"fusion_lat": 0.0, "name": "763b2891e46b4dc9eb42e793489f837d", "is_disabled": 0, "rental_uris": {"android": "https://dc.lft.to/lastmile_qr_scan", "ios": "https://dc.lft.to/lastmile_qr_scan"}, "fusion_lon": 0.0, "lat": 38.919337, "bike_id": "763b2891e46b4dc9eb42e793489f837d", "type": "electric_scooter", "is_reserved": 0, "lon": -77.04500666666667}, {"fusion_lat": 0.0, "name": "b1178175b00c4f36bec251623187cd30", "is_disabled": 0, "rental_uris": {"android": "https://dc.lft.to/lastmile_qr_scan", "ios": "https://dc.lft.to/lastmile_qr_scan"}, "fusion_lon": 0.0, "lat": 38.91019083333333, "bike_id": "b1178175b00c4f36bec251623187cd30", "type": "electric_scooter", "is_reserved": 0, "lon": -77.03851983333334}, {"fusion_lat": 0.0, "name": "acc0d2c9a17dcb0f0921f1d7546a908c", "is_disabled": 0, "rental_uris": {"android": "https://dc.lft.to/lastmile_qr_scan", "ios": "https://dc.lft.to/lastmile_qr_scan"}, "fusion_lon": 0.0, "lat": 38.909752166666664, "bike_id": "acc0d2c9a17dcb0f0921f1d7546a908c", "type": "electric_scooter", "is_reserved": 0, "lon": -77.00911683333334}, {"fusion_lat": 0.0, "name": "05ca22109b648e39a941e7ee64650408", "is_disabled": 0, "rental_uris": {"android": "https://dc.lft.to/lastmile_qr_scan", "ios": "https://dc.lft.to/lastmile_qr_scan"}, "fusion_lon": 0.0, "lat": 38.88768483333333, "bike_id": "05ca22109b648e39a941e7ee64650408", "type": "electric_scooter", "is_reserved": 0, "lon": -76.977478}, {"fusion_lat": 0.0, "name": "86d87ba10eb9131bf51132bcda9424a1", "is_disabled": 0, "rental_uris": {"android": "https://dc.lft.to/lastmile_qr_scan", "ios": "https://dc.lft.to/lastmile_qr_scan"}, "fusion_lon": 0.0, "lat": 38.854568, "bike_id": "86d87ba10eb9131bf51132bcda9424a1", "type": "electric_scooter", "is_reserved": 0, "lon": -76.9722815}, {"fusion_lat": 0.0, "name": "322d507fb225fc568a70170ee38e30c2", "is_disabled": 0, "rental_uris": {"android": "https://dc.lft.to/lastmile_qr_scan", "ios": "https://dc.lft.to/lastmile_qr_scan"}, "fusion_lon": 0.0, "lat": 38.8924815, "bike_id": "322d507fb225fc568a70170ee38e30c2", "type": "electric_scooter", "is_reserved": 0, "lon": -77.0334715}, {"fusion_lat": 0.0, "name": "df6d6bd2229bfca857621d0c3c217187", "is_disabled": 0, "rental_uris": {"android": "https://dc.lft.to/lastmile_qr_scan", "ios": "https://dc.lft.to/lastmile_qr_scan"}, "fusion_lon": 0.0, "lat": 38.9363025, "bike_id": "df6d6bd2229bfca857621d0c3c217187", "type": "electric_scooter", "is_reserved": 0, "lon": -77.03661783333334}, {"fusion_lat": 0.0, "name": "95f632f7176078abbce56009bfe8e3f3", "is_disabled": 0, "rental_uris": {"android": "https://dc.lft.to/lastmile_qr_scan", "ios": "https://dc.lft.to/lastmile_qr_scan"}, "fusion_lon": 0.0, "lat": 38.900799, "bike_id": "95f632f7176078abbce56009bfe8e3f3", "type": "electric_scooter", "is_reserved": 0, "lon": -77.0262375}, {"fusion_lat": 0.0, "name": "181560856b9a37291e755100610eae48", "is_disabled": 0, "rental_uris": {"android": "https://dc.lft.to/lastmile_qr_scan", "ios": "https://dc.lft.to/lastmile_qr_scan"}, "fusion_lon": 0.0, "lat": 38.87921733333334, "bike_id": "181560856b9a37291e755100610eae48", "type": "electric_scooter", "is_reserved": 0, "lon": -77.0082275}, {"fusion_lat": 0.0, "name": "4f0d13b4dda0db23368d15aee73da9c9", "is_disabled": 0, "rental_uris": {"android": "https://dc.lft.to/lastmile_qr_scan", "ios": "https://dc.lft.to/lastmile_qr_scan"}, "fusion_lon": 0.0, "lat": 38.892322166666666, "bike_id": "4f0d13b4dda0db23368d15aee73da9c9", "type": "electric_scooter", "is_reserved": 0, "lon": -77.01711016666667}, {"fusion_lat": 0.0, "name": "ffbb7704d2386d0b60278d97829ce38b", "is_disabled": 0, "rental_uris": {"android": "https://dc.lft.to/lastmile_qr_scan", "ios": "https://dc.lft.to/lastmile_qr_scan"}, "fusion_lon": 0.0, "lat": 38.9273245, "bike_id": "ffbb7704d2386d0b60278d97829ce38b", "type": "electric_scooter", "is_reserved": 0, "lon": -77.0230635}, {"fusion_lat": 0.0, "name": "5d1c4f5abd63f26192070086080bb023", "is_disabled": 0, "rental_uris": {"android": "https://dc.lft.to/lastmile_qr_scan", "ios": "https://dc.lft.to/lastmile_qr_scan"}, "fusion_lon": 0.0, "lat": 38.921563166666665, "bike_id": "5d1c4f5abd63f26192070086080bb023", "type": "electric_scooter", "is_reserved": 0, "lon": -77.03381883333333}, {"fusion_lat": 0.0, "name": "6cd2e93155a32bf36432f8ae418a2fcd", "is_disabled": 0, "rental_uris": {"android": "https://dc.lft.to/lastmile_qr_scan", "ios": "https://dc.lft.to/lastmile_qr_scan"}, "fusion_lon": 0.0, "lat": 38.9285475, "bike_id": "6cd2e93155a32bf36432f8ae418a2fcd", "type": "electric_scooter", "is_reserved": 0, "lon": -77.02439716666666}, {"fusion_lat": 0.0, "name": "7070365f5ee897c13346972a29e01a3e", "is_disabled": 0, "rental_uris": {"android": "https://dc.lft.to/lastmile_qr_scan", "ios": "https://dc.lft.to/lastmile_qr_scan"}, "fusion_lon": 0.0, "lat": 38.9073585, "bike_id": "7070365f5ee897c13346972a29e01a3e", "type": "electric_scooter", "is_reserved": 0, "lon": -77.000593}, {"fusion_lat": 0.0, "name": "f93e6b3733ab2c4f8521fae2f5f59e6b", "is_disabled": 0, "rental_uris": {"android": "https://dc.lft.to/lastmile_qr_scan", "ios": "https://dc.lft.to/lastmile_qr_scan"}, "fusion_lon": 0.0, "lat": 38.916038666666665, "bike_id": "f93e6b3733ab2c4f8521fae2f5f59e6b", "type": "electric_scooter", "is_reserved": 0, "lon": -77.04908366666666}, {"fusion_lat": 0.0, "name": "3572bdb5be6bea240f806704a278d1b7", "is_disabled": 0, "rental_uris": {"android": "https://dc.lft.to/lastmile_qr_scan", "ios": "https://dc.lft.to/lastmile_qr_scan"}, "fusion_lon": 0.0, "lat": 38.90779283333333, "bike_id": "3572bdb5be6bea240f806704a278d1b7", "type": "electric_scooter", "is_reserved": 0, "lon": -77.04216083333333}, {"fusion_lat": 0.0, "name": "a141cae57ad0480c1c7a99229462b5c5", "is_disabled": 0, "rental_uris": {"android": "https://dc.lft.to/lastmile_qr_scan", "ios": "https://dc.lft.to/lastmile_qr_scan"}, "fusion_lon": 0.0, "lat": 38.920029666666665, "bike_id": "a141cae57ad0480c1c7a99229462b5c5", "type": "electric_scooter", "is_reserved": 0, "lon": -77.071364}, {"fusion_lat": 0.0, "name": "4ad383737076c7143b2d3638ca6d8b3a", "is_disabled": 0, "rental_uris": {"android": "https://dc.lft.to/lastmile_qr_scan", "ios": "https://dc.lft.to/lastmile_qr_scan"}, "fusion_lon": 0.0, "lat": 38.92620133333333, "bike_id": "4ad383737076c7143b2d3638ca6d8b3a", "type": "electric_scooter", "is_reserved": 0, "lon": -77.04324816666667}, {"fusion_lat": 0.0, "name": "4f5781d1958c3acf04441491e3fdfc80", "is_disabled": 0, "rental_uris": {"android": "https://dc.lft.to/lastmile_qr_scan", "ios": "https://dc.lft.to/lastmile_qr_scan"}, "fusion_lon": 0.0, "lat": 38.966705833333336, "bike_id": "4f5781d1958c3acf04441491e3fdfc80", "type": "electric_bike", "is_reserved": 0, "lon": -76.97447116666666}, {"fusion_lat": 0.0, "name": "6845df81ca3522e77e16ea377e4736d3", "is_disabled": 0, "rental_uris": {"android": "https://dc.lft.to/lastmile_qr_scan", "ios": "https://dc.lft.to/lastmile_qr_scan"}, "fusion_lon": 0.0, "lat": 38.93121433333334, "bike_id": "6845df81ca3522e77e16ea377e4736d3", "type": "electric_scooter", "is_reserved": 0, "lon": -77.02099266666667}, {"fusion_lat": 0.0, "name": "17398e0a43b6c5e8a5826bd0ca067e8b", "is_disabled": 0, "rental_uris": {"android": "https://dc.lft.to/lastmile_qr_scan", "ios": "https://dc.lft.to/lastmile_qr_scan"}, "fusion_lon": 0.0, "lat": 38.90034133333333, "bike_id": "17398e0a43b6c5e8a5826bd0ca067e8b", "type": "electric_scooter", "is_reserved": 0, "lon": -77.0003145}, {"fusion_lat": 0.0, "name": "718f54277d71270d792b6f5397527a81", "is_disabled": 0, "rental_uris": {"android": "https://dc.lft.to/lastmile_qr_scan", "ios": "https://dc.lft.to/lastmile_qr_scan"}, "fusion_lon": 0.0, "lat": 38.84089316666667, "bike_id": "718f54277d71270d792b6f5397527a81", "type": "electric_bike", "is_reserved": 0, "lon": -76.97031133333333}, {"fusion_lat": 0.0, "name": "6f8e315919d6bb24affa1a1990f09cd9", "is_disabled": 0, "rental_uris": {"android": "https://dc.lft.to/lastmile_qr_scan", "ios": "https://dc.lft.to/lastmile_qr_scan"}, "fusion_lon": 0.0, "lat": 38.93843733333333, "bike_id": "6f8e315919d6bb24affa1a1990f09cd9", "type": "electric_scooter", "is_reserved": 0, "lon": -77.06244716666667}, {"fusion_lat": 0.0, "name": "f02681798693da2985c9c2310ea7cd4a", "is_disabled": 0, "rental_uris": {"android": "https://dc.lft.to/lastmile_qr_scan", "ios": "https://dc.lft.to/lastmile_qr_scan"}, "fusion_lon": 0.0, "lat": 38.89036766666667, "bike_id": "f02681798693da2985c9c2310ea7cd4a", "type": "electric_bike", "is_reserved": 0, "lon": -77.086427}, {"fusion_lat": 0.0, "name": "7ef589b198c52a9870d417fadc14a3e7", "is_disabled": 0, "rental_uris": {"android": "https://dc.lft.to/lastmile_qr_scan", "ios": "https://dc.lft.to/lastmile_qr_scan"}, "fusion_lon": 0.0, "lat": 38.929814, "bike_id": "7ef589b198c52a9870d417fadc14a3e7", "type": "electric_scooter", "is_reserved": 0, "lon": -77.03234516666667}, {"fusion_lat": 0.0, "name": "c34c7c1af5658175b15e6badbef62d04", "is_disabled": 0, "rental_uris": {"android": "https://dc.lft.to/lastmile_qr_scan", "ios": "https://dc.lft.to/lastmile_qr_scan"}, "fusion_lon": 0.0, "lat": 38.930519333333336, "bike_id": "c34c7c1af5658175b15e6badbef62d04", "type": "electric_scooter", "is_reserved": 0, "lon": -77.03349366666667}, {"fusion_lat": 0.0, "name": "5d308595797bc380811413afb2826314", "is_disabled": 0, "rental_uris": {"android": "https://dc.lft.to/lastmile_qr_scan", "ios": "https://dc.lft.to/lastmile_qr_scan"}, "fusion_lon": 0.0, "lat": 38.8579955, "bike_id": "5d308595797bc380811413afb2826314", "type": "electric_bike", "is_reserved": 0, "lon": -77.1201705}, {"fusion_lat": 0.0, "name": "e60cdc06d8925106fb109d4c056ef75a", "is_disabled": 0, "rental_uris": {"android": "https://dc.lft.to/lastmile_qr_scan", "ios": "https://dc.lft.to/lastmile_qr_scan"}, "fusion_lon": 0.0, "lat": 38.89459733333333, "bike_id": "e60cdc06d8925106fb109d4c056ef75a", "type": "electric_scooter", "is_reserved": 0, "lon": -77.02683116666667}, {"fusion_lat": 0.0, "name": "929ce46fe2bbe6477917dc677ad87dc0", "is_disabled": 0, "rental_uris": {"android": "https://dc.lft.to/lastmile_qr_scan", "ios": "https://dc.lft.to/lastmile_qr_scan"}, "fusion_lon": 0.0, "lat": 38.9356645, "bike_id": "929ce46fe2bbe6477917dc677ad87dc0", "type": "electric_scooter", "is_reserved": 0, "lon": -77.034806}, {"fusion_lat": 0.0, "name": "18933e1e9e4fd49c89ae3bdda3dcc271", "is_disabled": 0, "rental_uris": {"android": "https://dc.lft.to/lastmile_qr_scan", "ios": "https://dc.lft.to/lastmile_qr_scan"}, "fusion_lon": 0.0, "lat": 38.9025375, "bike_id": "18933e1e9e4fd49c89ae3bdda3dcc271", "type": "electric_scooter", "is_reserved": 0, "lon": -77.01933083333333}, {"fusion_lat": 0.0, "name": "1511d686188193aa534ce1a809a89f17", "is_disabled": 0, "rental_uris": {"android": "https://dc.lft.to/lastmile_qr_scan", "ios": "https://dc.lft.to/lastmile_qr_scan"}, "fusion_lon": 0.0, "lat": 38.86265683333333, "bike_id": "1511d686188193aa534ce1a809a89f17", "type": "electric_bike", "is_reserved": 0, "lon": -76.9835645}, {"fusion_lat": 0.0, "name": "ab953c0bdf770f4f1ac0abf759848410", "is_disabled": 0, "rental_uris": {"android": "https://dc.lft.to/lastmile_qr_scan", "ios": "https://dc.lft.to/lastmile_qr_scan"}, "fusion_lon": 0.0, "lat": 38.9167335, "bike_id": "ab953c0bdf770f4f1ac0abf759848410", "type": "electric_scooter", "is_reserved": 0, "lon": -77.0271865}, {"fusion_lat": 0.0, "name": "e00abf4d6a91b275643d80285c908bae", "is_disabled": 0, "rental_uris": {"android": "https://dc.lft.to/lastmile_qr_scan", "ios": "https://dc.lft.to/lastmile_qr_scan"}, "fusion_lon": 0.0, "lat": 38.9306995, "bike_id": "e00abf4d6a91b275643d80285c908bae", "type": "electric_scooter", "is_reserved": 0, "lon": -77.02975366666666}, {"fusion_lat": 0.0, "name": "7bf25684dffae7473c1da374fdabea83", "is_disabled": 0, "rental_uris": {"android": "https://dc.lft.to/lastmile_qr_scan", "ios": "https://dc.lft.to/lastmile_qr_scan"}, "fusion_lon": 0.0, "lat": 38.895131666666664, "bike_id": "7bf25684dffae7473c1da374fdabea83", "type": "electric_scooter", "is_reserved": 0, "lon": -77.01097966666667}, {"fusion_lat": 0.0, "name": "105cb497438c159b8fa68014cac4e520", "is_disabled": 0, "rental_uris": {"android": "https://dc.lft.to/lastmile_qr_scan", "ios": "https://dc.lft.to/lastmile_qr_scan"}, "fusion_lon": 0.0, "lat": 38.926672333333336, "bike_id": "105cb497438c159b8fa68014cac4e520", "type": "electric_scooter", "is_reserved": 0, "lon": -77.05154966666667}, {"fusion_lat": 0.0, "name": "c53b8c5ff99fe9a06f909726973daa77", "is_disabled": 0, "rental_uris": {"android": "https://dc.lft.to/lastmile_qr_scan", "ios": "https://dc.lft.to/lastmile_qr_scan"}, "fusion_lon": 0.0, "lat": 38.911573, "bike_id": "c53b8c5ff99fe9a06f909726973daa77", "type": "electric_scooter", "is_reserved": 0, "lon": -76.98716166666667}, {"fusion_lat": 0.0, "name": "fd6706f9c691c746826381abb46fdf30", "is_disabled": 0, "rental_uris": {"android": "https://dc.lft.to/lastmile_qr_scan", "ios": "https://dc.lft.to/lastmile_qr_scan"}, "fusion_lon": 0.0, "lat": 38.9240675, "bike_id": "fd6706f9c691c746826381abb46fdf30", "type": "electric_scooter", "is_reserved": 0, "lon": -77.02538116666666}, {"fusion_lat": 0.0, "name": "76e51dd3550eab47ce22c0e68ad40ae8", "is_disabled": 0, "rental_uris": {"android": "https://dc.lft.to/lastmile_qr_scan", "ios": "https://dc.lft.to/lastmile_qr_scan"}, "fusion_lon": 0.0, "lat": 38.91134133333333, "bike_id": "76e51dd3550eab47ce22c0e68ad40ae8", "type": "electric_scooter", "is_reserved": 0, "lon": -77.01524616666667}, {"fusion_lat": 0.0, "name": "19dfb7c607d1594304b6c6980faef292", "is_disabled": 0, "rental_uris": {"android": "https://dc.lft.to/lastmile_qr_scan", "ios": "https://dc.lft.to/lastmile_qr_scan"}, "fusion_lon": 0.0, "lat": 38.8676545, "bike_id": "19dfb7c607d1594304b6c6980faef292", "type": "electric_scooter", "is_reserved": 0, "lon": -76.982711}, {"fusion_lat": 0.0, "name": "1ccea89b2cbce9c586e55196d2498a8b", "is_disabled": 0, "rental_uris": {"android": "https://dc.lft.to/lastmile_qr_scan", "ios": "https://dc.lft.to/lastmile_qr_scan"}, "fusion_lon": 0.0, "lat": 38.873804166666666, "bike_id": "1ccea89b2cbce9c586e55196d2498a8b", "type": "electric_scooter", "is_reserved": 0, "lon": -77.0013575}, {"fusion_lat": 0.0, "name": "69194bb13884be2979dc88fee02f69d3", "is_disabled": 0, "rental_uris": {"android": "https://dc.lft.to/lastmile_qr_scan", "ios": "https://dc.lft.to/lastmile_qr_scan"}, "fusion_lon": 0.0, "lat": 38.91490266666667, "bike_id": "69194bb13884be2979dc88fee02f69d3", "type": "electric_scooter", "is_reserved": 0, "lon": -77.01415466666667}, {"fusion_lat": 0.0, "name": "1b8415fc171ee42bc69ea9258603270d", "is_disabled": 0, "rental_uris": {"android": "https://dc.lft.to/lastmile_qr_scan", "ios": "https://dc.lft.to/lastmile_qr_scan"}, "fusion_lon": 0.0, "lat": 38.951162, "bike_id": "1b8415fc171ee42bc69ea9258603270d", "type": "electric_scooter", "is_reserved": 0, "lon": -77.05864516666666}, {"fusion_lat": 0.0, "name": "6d352983e2d392b780d25a6ec4e0daa1", "is_disabled": 0, "rental_uris": {"android": "https://dc.lft.to/lastmile_qr_scan", "ios": "https://dc.lft.to/lastmile_qr_scan"}, "fusion_lon": 0.0, "lat": 38.9085785, "bike_id": "6d352983e2d392b780d25a6ec4e0daa1", "type": "electric_scooter", "is_reserved": 0, "lon": -77.02723083333333}, {"fusion_lat": 0.0, "name": "bebf178c6232b0bff171ef705d7a1923", "is_disabled": 0, "rental_uris": {"android": "https://dc.lft.to/lastmile_qr_scan", "ios": "https://dc.lft.to/lastmile_qr_scan"}, "fusion_lon": 0.0, "lat": 38.874588333333335, "bike_id": "bebf178c6232b0bff171ef705d7a1923", "type": "electric_bike", "is_reserved": 0, "lon": -76.99950033333333}, {"fusion_lat": 0.0, "name": "4eac1c7d7634eb078fbf66d7c4414b79", "is_disabled": 0, "rental_uris": {"android": "https://dc.lft.to/lastmile_qr_scan", "ios": "https://dc.lft.to/lastmile_qr_scan"}, "fusion_lon": 0.0, "lat": 38.932417, "bike_id": "4eac1c7d7634eb078fbf66d7c4414b79", "type": "electric_bike", "is_reserved": 0, "lon": -76.9741765}, {"fusion_lat": 0.0, "name": "beb36c5e495ff79e09646c956046a689", "is_disabled": 0, "rental_uris": {"android": "https://dc.lft.to/lastmile_qr_scan", "ios": "https://dc.lft.to/lastmile_qr_scan"}, "fusion_lon": 0.0, "lat": 38.866305, "bike_id": "beb36c5e495ff79e09646c956046a689", "type": "electric_scooter", "is_reserved": 0, "lon": -76.98716716666667}, {"fusion_lat": 0.0, "name": "bcca3a71c4603f28abd1ed492dd7d661", "is_disabled": 0, "rental_uris": {"android": "https://dc.lft.to/lastmile_qr_scan", "ios": "https://dc.lft.to/lastmile_qr_scan"}, "fusion_lon": 0.0, "lat": 38.879763833333335, "bike_id": "bcca3a71c4603f28abd1ed492dd7d661", "type": "electric_bike", "is_reserved": 0, "lon": -77.17840266666667}, {"fusion_lat": 0.0, "name": "2a39ade5a6ff4974990aa278cbb23e32", "is_disabled": 0, "rental_uris": {"android": "https://dc.lft.to/lastmile_qr_scan", "ios": "https://dc.lft.to/lastmile_qr_scan"}, "fusion_lon": 0.0, "lat": 38.911774333333334, "bike_id": "2a39ade5a6ff4974990aa278cbb23e32", "type": "electric_scooter", "is_reserved": 0, "lon": -77.03662066666666}, {"fusion_lat": 0.0, "name": "bfd9f05db4868f7a2bf4bc4c64b988fe", "is_disabled": 0, "rental_uris": {"android": "https://dc.lft.to/lastmile_qr_scan", "ios": "https://dc.lft.to/lastmile_qr_scan"}, "fusion_lon": 0.0, "lat": 38.91704983333333, "bike_id": "bfd9f05db4868f7a2bf4bc4c64b988fe", "type": "electric_scooter", "is_reserved": 0, "lon": -77.0372195}, {"fusion_lat": 0.0, "name": "ac30d91a4906dfa71e369167a938d938", "is_disabled": 0, "rental_uris": {"android": "https://dc.lft.to/lastmile_qr_scan", "ios": "https://dc.lft.to/lastmile_qr_scan"}, "fusion_lon": 0.0, "lat": 38.95475283333333, "bike_id": "ac30d91a4906dfa71e369167a938d938", "type": "electric_scooter", "is_reserved": 0, "lon": -77.0777675}, {"fusion_lat": 0.0, "name": "f3c2b3a41d9d05d0957da5a4417ecfcb", "is_disabled": 0, "rental_uris": {"android": "https://dc.lft.to/lastmile_qr_scan", "ios": "https://dc.lft.to/lastmile_qr_scan"}, "fusion_lon": 0.0, "lat": 38.922449, "bike_id": "f3c2b3a41d9d05d0957da5a4417ecfcb", "type": "electric_scooter", "is_reserved": 0, "lon": -77.0388185}, {"fusion_lat": 0.0, "name": "968d003866661ce278891cff8e71c41c", "is_disabled": 0, "rental_uris": {"android": "https://dc.lft.to/lastmile_qr_scan", "ios": "https://dc.lft.to/lastmile_qr_scan"}, "fusion_lon": 0.0, "lat": 38.90084216666666, "bike_id": "968d003866661ce278891cff8e71c41c", "type": "electric_scooter", "is_reserved": 0, "lon": -76.98685716666667}, {"fusion_lat": 0.0, "name": "229ee875434631bad6dd6a6b95bdb961", "is_disabled": 0, "rental_uris": {"android": "https://dc.lft.to/lastmile_qr_scan", "ios": "https://dc.lft.to/lastmile_qr_scan"}, "fusion_lon": 0.0, "lat": 38.88504566666667, "bike_id": "229ee875434631bad6dd6a6b95bdb961", "type": "electric_scooter", "is_reserved": 0, "lon": -76.9975365}, {"fusion_lat": 0.0, "name": "7cc07c2da76b9fc75a0053fdfb3d3094", "is_disabled": 0, "rental_uris": {"android": "https://dc.lft.to/lastmile_qr_scan", "ios": "https://dc.lft.to/lastmile_qr_scan"}, "fusion_lon": 0.0, "lat": 38.90856183333333, "bike_id": "7cc07c2da76b9fc75a0053fdfb3d3094", "type": "electric_scooter", "is_reserved": 0, "lon": -77.0473665}, {"fusion_lat": 0.0, "name": "4346adc8a5223600114f78daf0b2d70c", "is_disabled": 0, "rental_uris": {"android": "https://dc.lft.to/lastmile_qr_scan", "ios": "https://dc.lft.to/lastmile_qr_scan"}, "fusion_lon": 0.0, "lat": 38.91727, "bike_id": "4346adc8a5223600114f78daf0b2d70c", "type": "electric_scooter", "is_reserved": 0, "lon": -77.028145}, {"fusion_lat": 0.0, "name": "ba66f10aebca0f211e9b3bab71b344a2", "is_disabled": 0, "rental_uris": {"android": "https://dc.lft.to/lastmile_qr_scan", "ios": "https://dc.lft.to/lastmile_qr_scan"}, "fusion_lon": 0.0, "lat": 39.0142095, "bike_id": "ba66f10aebca0f211e9b3bab71b344a2", "type": "electric_bike", "is_reserved": 0, "lon": -77.04499233333334}, {"fusion_lat": 0.0, "name": "f057720afac34b2025b6a1815e9559ae", "is_disabled": 0, "rental_uris": {"android": "https://dc.lft.to/lastmile_qr_scan", "ios": "https://dc.lft.to/lastmile_qr_scan"}, "fusion_lon": 0.0, "lat": 38.89559533333333, "bike_id": "f057720afac34b2025b6a1815e9559ae", "type": "electric_scooter", "is_reserved": 0, "lon": -76.99428033333334}, {"fusion_lat": 0.0, "name": "fc1ae8bab02f068753a30ecc46b1406e", "is_disabled": 0, "rental_uris": {"android": "https://dc.lft.to/lastmile_qr_scan", "ios": "https://dc.lft.to/lastmile_qr_scan"}, "fusion_lon": 0.0, "lat": 38.921602, "bike_id": "fc1ae8bab02f068753a30ecc46b1406e", "type": "electric_scooter", "is_reserved": 0, "lon": -77.02089033333333}, {"fusion_lat": 0.0, "name": "09b8bf87816b1947d13a05e634549c25", "is_disabled": 0, "rental_uris": {"android": "https://dc.lft.to/lastmile_qr_scan", "ios": "https://dc.lft.to/lastmile_qr_scan"}, "fusion_lon": 0.0, "lat": 38.899083, "bike_id": "09b8bf87816b1947d13a05e634549c25", "type": "electric_scooter", "is_reserved": 0, "lon": -76.933536}, {"fusion_lat": 0.0, "name": "1dfdf4a04ef90383c81b5579262414b6", "is_disabled": 0, "rental_uris": {"android": "https://dc.lft.to/lastmile_qr_scan", "ios": "https://dc.lft.to/lastmile_qr_scan"}, "fusion_lon": 0.0, "lat": 38.93609216666667, "bike_id": "1dfdf4a04ef90383c81b5579262414b6", "type": "electric_scooter", "is_reserved": 0, "lon": -77.031897}, {"fusion_lat": 0.0, "name": "10ff51745737ad2dd41a5464eb6c158a", "is_disabled": 0, "rental_uris": {"android": "https://dc.lft.to/lastmile_qr_scan", "ios": "https://dc.lft.to/lastmile_qr_scan"}, "fusion_lon": 0.0, "lat": 38.9219475, "bike_id": "10ff51745737ad2dd41a5464eb6c158a", "type": "electric_scooter", "is_reserved": 0, "lon": -77.08084866666667}, {"fusion_lat": 0.0, "name": "ed3569a6165d81298e8d5705b2ce7071", "is_disabled": 0, "rental_uris": {"android": "https://dc.lft.to/lastmile_qr_scan", "ios": "https://dc.lft.to/lastmile_qr_scan"}, "fusion_lon": 0.0, "lat": 38.90238266666667, "bike_id": "ed3569a6165d81298e8d5705b2ce7071", "type": "electric_scooter", "is_reserved": 0, "lon": -77.04906733333333}, {"fusion_lat": 0.0, "name": "5b0551a186b6a2b0b4b989360b9500f0", "is_disabled": 0, "rental_uris": {"android": "https://dc.lft.to/lastmile_qr_scan", "ios": "https://dc.lft.to/lastmile_qr_scan"}, "fusion_lon": 0.0, "lat": 38.959615666666664, "bike_id": "5b0551a186b6a2b0b4b989360b9500f0", "type": "electric_bike", "is_reserved": 0, "lon": -76.98157966666666}, {"fusion_lat": 0.0, "name": "778cf1d2f61b6c5c1f1727a6dc4601d4", "is_disabled": 0, "rental_uris": {"android": "https://dc.lft.to/lastmile_qr_scan", "ios": "https://dc.lft.to/lastmile_qr_scan"}, "fusion_lon": 0.0, "lat": 38.904085333333335, "bike_id": "778cf1d2f61b6c5c1f1727a6dc4601d4", "type": "electric_scooter", "is_reserved": 0, "lon": -77.04671033333334}, {"fusion_lat": 0.0, "name": "db66e5cb07e20b75031f4a25a6125ae1", "is_disabled": 0, "rental_uris": {"android": "https://dc.lft.to/lastmile_qr_scan", "ios": "https://dc.lft.to/lastmile_qr_scan"}, "fusion_lon": 0.0, "lat": 38.9269765, "bike_id": "db66e5cb07e20b75031f4a25a6125ae1", "type": "electric_scooter", "is_reserved": 0, "lon": -77.0242595}, {"fusion_lat": 0.0, "name": "c6e248c03743e422e19a6953bb279923", "is_disabled": 0, "rental_uris": {"android": "https://dc.lft.to/lastmile_qr_scan", "ios": "https://dc.lft.to/lastmile_qr_scan"}, "fusion_lon": 0.0, "lat": 38.9322025, "bike_id": "c6e248c03743e422e19a6953bb279923", "type": "electric_scooter", "is_reserved": 0, "lon": -77.033464}, {"fusion_lat": 0.0, "name": "2add92a8d56fe6934960781fceca2f9d", "is_disabled": 0, "rental_uris": {"android": "https://dc.lft.to/lastmile_qr_scan", "ios": "https://dc.lft.to/lastmile_qr_scan"}, "fusion_lon": 0.0, "lat": 38.95740633333333, "bike_id": "2add92a8d56fe6934960781fceca2f9d", "type": "electric_bike", "is_reserved": 0, "lon": -76.98083716666666}, {"fusion_lat": 0.0, "name": "2d37e4db2362e680edeb9976c6094c93", "is_disabled": 0, "rental_uris": {"android": "https://dc.lft.to/lastmile_qr_scan", "ios": "https://dc.lft.to/lastmile_qr_scan"}, "fusion_lon": 0.0, "lat": 38.9507245, "bike_id": "2d37e4db2362e680edeb9976c6094c93", "type": "electric_bike", "is_reserved": 0, "lon": -77.0119455}, {"fusion_lat": 0.0, "name": "4e69ef22c4070258b926ecb41763308d", "is_disabled": 0, "rental_uris": {"android": "https://dc.lft.to/lastmile_qr_scan", "ios": "https://dc.lft.to/lastmile_qr_scan"}, "fusion_lon": 0.0, "lat": 38.961280333333335, "bike_id": "4e69ef22c4070258b926ecb41763308d", "type": "electric_bike", "is_reserved": 0, "lon": -77.0328025}, {"fusion_lat": 0.0, "name": "5de0ff1ac7dc68323047dc3f8d743a66", "is_disabled": 0, "rental_uris": {"android": "https://dc.lft.to/lastmile_qr_scan", "ios": "https://dc.lft.to/lastmile_qr_scan"}, "fusion_lon": 0.0, "lat": 38.9463725, "bike_id": "5de0ff1ac7dc68323047dc3f8d743a66", "type": "electric_scooter", "is_reserved": 0, "lon": -77.0953695}, {"fusion_lat": 0.0, "name": "bf22aa8d3acf334fb8ad993ad98d71db", "is_disabled": 0, "rental_uris": {"android": "https://dc.lft.to/lastmile_qr_scan", "ios": "https://dc.lft.to/lastmile_qr_scan"}, "fusion_lon": 0.0, "lat": 38.90165, "bike_id": "bf22aa8d3acf334fb8ad993ad98d71db", "type": "electric_scooter", "is_reserved": 0, "lon": -77.0201085}, {"fusion_lat": 0.0, "name": "c13a3e61986079a20cb5083513b00407", "is_disabled": 0, "rental_uris": {"android": "https://dc.lft.to/lastmile_qr_scan", "ios": "https://dc.lft.to/lastmile_qr_scan"}, "fusion_lon": 0.0, "lat": 38.96136816666667, "bike_id": "c13a3e61986079a20cb5083513b00407", "type": "electric_scooter", "is_reserved": 0, "lon": -77.02787766666667}, {"fusion_lat": 0.0, "name": "bd3e903d351dcee86d4873084ac80a0e", "is_disabled": 0, "rental_uris": {"android": "https://dc.lft.to/lastmile_qr_scan", "ios": "https://dc.lft.to/lastmile_qr_scan"}, "fusion_lon": 0.0, "lat": 38.884562333333335, "bike_id": "bd3e903d351dcee86d4873084ac80a0e", "type": "electric_scooter", "is_reserved": 0, "lon": -76.94980816666667}, {"fusion_lat": 0.0, "name": "3cfef6c908f5ebc98e902c36b2e95fdc", "is_disabled": 0, "rental_uris": {"android": "https://dc.lft.to/lastmile_qr_scan", "ios": "https://dc.lft.to/lastmile_qr_scan"}, "fusion_lon": 0.0, "lat": 38.90267383333333, "bike_id": "3cfef6c908f5ebc98e902c36b2e95fdc", "type": "electric_scooter", "is_reserved": 0, "lon": -77.02956916666666}, {"fusion_lat": 0.0, "name": "abf75450485e488ad7fa7d1ddd2d2e07", "is_disabled": 0, "rental_uris": {"android": "https://dc.lft.to/lastmile_qr_scan", "ios": "https://dc.lft.to/lastmile_qr_scan"}, "fusion_lon": 0.0, "lat": 38.913426333333334, "bike_id": "abf75450485e488ad7fa7d1ddd2d2e07", "type": "electric_scooter", "is_reserved": 0, "lon": -77.04277966666666}, {"fusion_lat": 0.0, "name": "ae14726fb89107873cccac39d2c902a0", "is_disabled": 0, "rental_uris": {"android": "https://dc.lft.to/lastmile_qr_scan", "ios": "https://dc.lft.to/lastmile_qr_scan"}, "fusion_lon": 0.0, "lat": 38.92072183333333, "bike_id": "ae14726fb89107873cccac39d2c902a0", "type": "electric_scooter", "is_reserved": 0, "lon": -77.01481533333333}, {"fusion_lat": 0.0, "name": "3cb236962674fd9853070c753bca3e72", "is_disabled": 0, "rental_uris": {"android": "https://dc.lft.to/lastmile_qr_scan", "ios": "https://dc.lft.to/lastmile_qr_scan"}, "fusion_lon": 0.0, "lat": 38.9079265, "bike_id": "3cb236962674fd9853070c753bca3e72", "type": "electric_scooter", "is_reserved": 0, "lon": -77.00964816666666}, {"fusion_lat": 0.0, "name": "c6e61b8920f97858467facf316c3c992", "is_disabled": 0, "rental_uris": {"android": "https://dc.lft.to/lastmile_qr_scan", "ios": "https://dc.lft.to/lastmile_qr_scan"}, "fusion_lon": 0.0, "lat": 38.9155065, "bike_id": "c6e61b8920f97858467facf316c3c992", "type": "electric_scooter", "is_reserved": 0, "lon": -77.0307005}, {"fusion_lat": 0.0, "name": "f44810c2c33ffa48f1192d6dfcd2c0f0", "is_disabled": 0, "rental_uris": {"android": "https://dc.lft.to/lastmile_qr_scan", "ios": "https://dc.lft.to/lastmile_qr_scan"}, "fusion_lon": 0.0, "lat": 38.89900216666667, "bike_id": "f44810c2c33ffa48f1192d6dfcd2c0f0", "type": "electric_scooter", "is_reserved": 0, "lon": -77.0329655}, {"fusion_lat": 0.0, "name": "bb5fb141b055bb500870cb025cbad2d0", "is_disabled": 0, "rental_uris": {"android": "https://dc.lft.to/lastmile_qr_scan", "ios": "https://dc.lft.to/lastmile_qr_scan"}, "fusion_lon": 0.0, "lat": 38.933425166666666, "bike_id": "bb5fb141b055bb500870cb025cbad2d0", "type": "electric_scooter", "is_reserved": 0, "lon": -77.03636866666666}, {"fusion_lat": 0.0, "name": "b8ca82e7d7def27003d39685db004b5a", "is_disabled": 0, "rental_uris": {"android": "https://dc.lft.to/lastmile_qr_scan", "ios": "https://dc.lft.to/lastmile_qr_scan"}, "fusion_lon": 0.0, "lat": 38.9289555, "bike_id": "b8ca82e7d7def27003d39685db004b5a", "type": "electric_bike", "is_reserved": 0, "lon": -77.2317955}, {"fusion_lat": 0.0, "name": "794bb9b8f9349495a91a17db84c0e766", "is_disabled": 0, "rental_uris": {"android": "https://dc.lft.to/lastmile_qr_scan", "ios": "https://dc.lft.to/lastmile_qr_scan"}, "fusion_lon": 0.0, "lat": 38.900927833333334, "bike_id": "794bb9b8f9349495a91a17db84c0e766", "type": "electric_scooter", "is_reserved": 0, "lon": -76.9833195}, {"fusion_lat": 0.0, "name": "725f149b7dbbe0ac74d56bfb5ae97500", "is_disabled": 0, "rental_uris": {"android": "https://dc.lft.to/lastmile_qr_scan", "ios": "https://dc.lft.to/lastmile_qr_scan"}, "fusion_lon": 0.0, "lat": 38.910450166666664, "bike_id": "725f149b7dbbe0ac74d56bfb5ae97500", "type": "electric_scooter", "is_reserved": 0, "lon": -77.00828683333333}, {"fusion_lat": 0.0, "name": "cf396714fc75b524ea2924f412a159c7", "is_disabled": 0, "rental_uris": {"android": "https://dc.lft.to/lastmile_qr_scan", "ios": "https://dc.lft.to/lastmile_qr_scan"}, "fusion_lon": 0.0, "lat": 38.95297633333333, "bike_id": "cf396714fc75b524ea2924f412a159c7", "type": "electric_scooter", "is_reserved": 0, "lon": -77.0688685}, {"fusion_lat": 0.0, "name": "7886e79fb776a11fe04c4cc68081a317", "is_disabled": 0, "rental_uris": {"android": "https://dc.lft.to/lastmile_qr_scan", "ios": "https://dc.lft.to/lastmile_qr_scan"}, "fusion_lon": 0.0, "lat": 38.925433, "bike_id": "7886e79fb776a11fe04c4cc68081a317", "type": "electric_scooter", "is_reserved": 0, "lon": -77.03828316666667}, {"fusion_lat": 0.0, "name": "690e7d2816091193fbbf1d27ec0be534", "is_disabled": 0, "rental_uris": {"android": "https://dc.lft.to/lastmile_qr_scan", "ios": "https://dc.lft.to/lastmile_qr_scan"}, "fusion_lon": 0.0, "lat": 38.938709833333334, "bike_id": "690e7d2816091193fbbf1d27ec0be534", "type": "electric_scooter", "is_reserved": 0, "lon": -77.02461916666667}, {"fusion_lat": 0.0, "name": "086b332e14963d0b7f63911aa89e45cd", "is_disabled": 0, "rental_uris": {"android": "https://dc.lft.to/lastmile_qr_scan", "ios": "https://dc.lft.to/lastmile_qr_scan"}, "fusion_lon": 0.0, "lat": 38.89793983333333, "bike_id": "086b332e14963d0b7f63911aa89e45cd", "type": "electric_scooter", "is_reserved": 0, "lon": -77.01199783333334}, {"fusion_lat": 0.0, "name": "597bd31776281bffebe0c1c616cc3e06", "is_disabled": 0, "rental_uris": {"android": "https://dc.lft.to/lastmile_qr_scan", "ios": "https://dc.lft.to/lastmile_qr_scan"}, "fusion_lon": 0.0, "lat": 38.9313505, "bike_id": "597bd31776281bffebe0c1c616cc3e06", "type": "electric_scooter", "is_reserved": 0, "lon": -77.03256983333333}, {"fusion_lat": 0.0, "name": "8af6caaedfa880d8c03abe5dc94f0eec", "is_disabled": 0, "rental_uris": {"android": "https://dc.lft.to/lastmile_qr_scan", "ios": "https://dc.lft.to/lastmile_qr_scan"}, "fusion_lon": 0.0, "lat": 38.81914966666667, "bike_id": "8af6caaedfa880d8c03abe5dc94f0eec", "type": "electric_bike", "is_reserved": 0, "lon": -77.126653}, {"fusion_lat": 0.0, "name": "c86785377a0f9e97cdc09ff4ae70c5a8", "is_disabled": 0, "rental_uris": {"android": "https://dc.lft.to/lastmile_qr_scan", "ios": "https://dc.lft.to/lastmile_qr_scan"}, "fusion_lon": 0.0, "lat": 38.89282633333333, "bike_id": "c86785377a0f9e97cdc09ff4ae70c5a8", "type": "electric_scooter", "is_reserved": 0, "lon": -76.98307433333333}, {"fusion_lat": 0.0, "name": "749ac0dc015a6149af03f2dfaa0f7a0b", "is_disabled": 0, "rental_uris": {"android": "https://dc.lft.to/lastmile_qr_scan", "ios": "https://dc.lft.to/lastmile_qr_scan"}, "fusion_lon": 0.0, "lat": 38.94904833333333, "bike_id": "749ac0dc015a6149af03f2dfaa0f7a0b", "type": "electric_bike", "is_reserved": 0, "lon": -76.96377316666667}, {"fusion_lat": 0.0, "name": "00dfd54f3f01d9d1b1dd7142c7f03349", "is_disabled": 0, "rental_uris": {"android": "https://dc.lft.to/lastmile_qr_scan", "ios": "https://dc.lft.to/lastmile_qr_scan"}, "fusion_lon": 0.0, "lat": 38.9181005, "bike_id": "00dfd54f3f01d9d1b1dd7142c7f03349", "type": "electric_scooter", "is_reserved": 0, "lon": -77.01136183333334}, {"fusion_lat": 0.0, "name": "88e4fee3a603cec2ada7a92404cca04e", "is_disabled": 0, "rental_uris": {"android": "https://dc.lft.to/lastmile_qr_scan", "ios": "https://dc.lft.to/lastmile_qr_scan"}, "fusion_lon": 0.0, "lat": 38.948794666666664, "bike_id": "88e4fee3a603cec2ada7a92404cca04e", "type": "electric_scooter", "is_reserved": 0, "lon": -77.02687983333334}, {"fusion_lat": 0.0, "name": "78e58a2ada0f55e766a06ae424041a1a", "is_disabled": 0, "rental_uris": {"android": "https://dc.lft.to/lastmile_qr_scan", "ios": "https://dc.lft.to/lastmile_qr_scan"}, "fusion_lon": 0.0, "lat": 38.911209666666664, "bike_id": "78e58a2ada0f55e766a06ae424041a1a", "type": "electric_scooter", "is_reserved": 0, "lon": -76.99772816666666}, {"fusion_lat": 0.0, "name": "44608064f0015f37964e3e56c5227de3", "is_disabled": 0, "rental_uris": {"android": "https://dc.lft.to/lastmile_qr_scan", "ios": "https://dc.lft.to/lastmile_qr_scan"}, "fusion_lon": 0.0, "lat": 38.92785416666667, "bike_id": "44608064f0015f37964e3e56c5227de3", "type": "electric_scooter", "is_reserved": 0, "lon": -77.0320975}, {"fusion_lat": 0.0, "name": "771f8a4c58e2cdaae07cbd5bddbee24d", "is_disabled": 0, "rental_uris": {"android": "https://dc.lft.to/lastmile_qr_scan", "ios": "https://dc.lft.to/lastmile_qr_scan"}, "fusion_lon": 0.0, "lat": 38.93638216666667, "bike_id": "771f8a4c58e2cdaae07cbd5bddbee24d", "type": "electric_scooter", "is_reserved": 0, "lon": -77.03652933333333}, {"fusion_lat": 0.0, "name": "38f687cea1ba65daa270c3713b9bc351", "is_disabled": 0, "rental_uris": {"android": "https://dc.lft.to/lastmile_qr_scan", "ios": "https://dc.lft.to/lastmile_qr_scan"}, "fusion_lon": 0.0, "lat": 38.913053166666664, "bike_id": "38f687cea1ba65daa270c3713b9bc351", "type": "electric_scooter", "is_reserved": 0, "lon": -77.048722}, {"fusion_lat": 0.0, "name": "480e9f9ad920d8f5a200d3da6769b762", "is_disabled": 0, "rental_uris": {"android": "https://dc.lft.to/lastmile_qr_scan", "ios": "https://dc.lft.to/lastmile_qr_scan"}, "fusion_lon": 0.0, "lat": 38.9111095, "bike_id": "480e9f9ad920d8f5a200d3da6769b762", "type": "electric_scooter", "is_reserved": 0, "lon": -77.0206115}, {"fusion_lat": 0.0, "name": "7f93e3b44bfd06911234b8375ceb3fad", "is_disabled": 0, "rental_uris": {"android": "https://dc.lft.to/lastmile_qr_scan", "ios": "https://dc.lft.to/lastmile_qr_scan"}, "fusion_lon": 0.0, "lat": 38.91962866666667, "bike_id": "7f93e3b44bfd06911234b8375ceb3fad", "type": "electric_scooter", "is_reserved": 0, "lon": -77.07085733333334}, {"fusion_lat": 0.0, "name": "ca468543aafcc7d7013faf2ce4acd9e4", "is_disabled": 0, "rental_uris": {"android": "https://dc.lft.to/lastmile_qr_scan", "ios": "https://dc.lft.to/lastmile_qr_scan"}, "fusion_lon": 0.0, "lat": 38.925602, "bike_id": "ca468543aafcc7d7013faf2ce4acd9e4", "type": "electric_scooter", "is_reserved": 0, "lon": -77.07760733333333}, {"fusion_lat": 0.0, "name": "05f2a58e8c3738291eae610c0c170f95", "is_disabled": 0, "rental_uris": {"android": "https://dc.lft.to/lastmile_qr_scan", "ios": "https://dc.lft.to/lastmile_qr_scan"}, "fusion_lon": 0.0, "lat": 38.8972465, "bike_id": "05f2a58e8c3738291eae610c0c170f95", "type": "electric_scooter", "is_reserved": 0, "lon": -77.01968983333333},