{"data": {"bikes": [{"name": "abeff9b36386f8051228b9765ac9823a", "is_disabled": 0, "lat": 38.920568833333334, "rental_uris": {"ios": "https://dc.lft.to/lastmile_qr_scan", "android": "https://dc.lft.to/lastmile_qr_scan"}, "bike_id": "abeff9b36386f8051228b9765ac9823a", "type": "electric_scooter", "lon": -77.032143, "is_reserved": 0, "fusion_lat": 0.0, "fusion_lon": 0.0}, {"name": "e1a6c58e27cc37d1194a9ba07c8e4334", "is_disabled": 0, "lat": 38.9156055, "rental_uris": {"ios": "https://dc.lft.to/lastmile_qr_scan", "android": "https://dc.lft.to/lastmile_qr_scan"}, "bike_id": "e1a6c58e27cc37d1194a9ba07c8e4334", "type": "electric_scooter", "lon": -77.02175683333333, "is_reserved": 0, "fusion_lat": 0.0, "fusion_lon": 0.0}, {"name": "319877ba516ce75734654d5cb8f6c383", "is_disabled": 0, "lat": 38.9038405, "rental_uris": {"ios": "https://dc.lft.to/lastmile_qr_scan", "android": "https://dc.lft.to/lastmile_qr_scan"}, "bike_id": "319877ba516ce75734654d5cb8f6c383", "type": "electric_scooter", "lon": -77.0601055, "is_reserved": 0, "fusion_lat": 0.0, "fusion_lon": 0.0}, {"name": "f2547577b400804d080603e469262370", "is_disabled": 0, "lat": 38.91375883333333, "rental_uris": {"ios": "https://dc.lft.to/lastmile_qr_scan", "android": "https://dc.lft.to/lastmile_qr_scan"}, "bike_id": "f2547577b400804d080603e469262370", "type": "electric_scooter", "lon": -77.04609233333333, "is_reserved": 0, "fusion_lat": 0.0, "fusion_lon": 0.0}, {"name": "6474547a47a64ff2963d875601a8f186", "is_disabled": 0, "lat": 38.898288, "rental_uris": {"ios": "https://dc.lft.to/lastmile_qr_scan", "android": "https://dc.lft.to/lastmile_qr_scan"}, "bike_id": "6474547a47a64ff2963d875601a8f186", "type": "electric_scooter", "lon": -77.02808133333333, "is_reserved": 0, "fusion_lat": 0.0, "fusion_lon": 0.0}, {"name": "ddbdb64297dd64fcc89212f66970883a", "is_disabled": 0, "lat": 38.919981166666666, "rental_uris": {"ios": "https://dc.lft.to/lastmile_qr_scan", "android": "https://dc.lft.to/lastmile_qr_scan"}, "bike_id": "ddbdb64297dd64fcc89212f66970883a", "type": "electric_scooter", "lon": -77.0322655, "is_reserved": 0, "fusion_lat": 0.0, "fusion_lon": 0.0}, {"name": "caf18a3c4278ba3959484b2f05934d5b", "is_disabled": 0, "lat": 38.90048916666667, "rental_uris": {"ios": "https://dc.lft.to/lastmile_qr_scan", "android": "https://dc.lft.to/lastmile_qr_scan"}, "bike_id": "caf18a3c4278ba3959484b2f05934d5b", "type": "electric_scooter", "lon": -77.0021405, "is_reserved": 0, "fusion_lat": 0.0, "fusion_lon": 0.0}, {"name": "8f1f94f677cc5f1eae4d214874098b73", "is_disabled": 0, "lat": 38.90379433333333, "rental_uris": {"ios": "https://dc.lft.to/lastmile_qr_scan", "android": "https://dc.lft.to/lastmile_qr_scan"}, "bike_id": "8f1f94f677cc5f1eae4d214874098b73", "type": "electric_scooter", "lon": -77.008764, "is_reserved": 0, "fusion_lat": 0.0, "fusion_lon": 0.0}, {"name": "b2a0a8ea74c0a59f51d001b9ce036d6d", "is_disabled": 0, "lat": 38.925964666666665, "rental_uris": {"ios": "https://dc.lft.to/lastmile_qr_scan", "android": "https://dc.lft.to/lastmile_qr_scan"}, "bike_id": "b2a0a8ea74c0a59f51d001b9ce036d6d", "type": "electric_scooter", "lon": -77.0215595, "is_reserved": 0, "fusion_lat": 0.0, "fusion_lon": 0.0}, {"name": "6e5015ca2975b55f5232f33acb135077", "is_disabled": 0, "lat": 38.9027125, "rental_uris": {"ios": "https://dc.lft.to/lastmile_qr_scan", "android": "https://dc.lft.to/lastmile_qr_scan"}, "bike_id": "6e5015ca2975b55f5232f33acb135077", "type": "electric_scooter", "lon": -76.92899983333334, "is_reserved": 0, "fusion_lat": 0.0, "fusion_lon": 0.0}, {"name": "028564def5238515c75329568b431f59", "is_disabled": 0, "lat": 38.9171125, "rental_uris": {"ios": "https://dc.lft.to/lastmile_qr_scan", "android": "https://dc.lft.to/lastmile_qr_scan"}, "bike_id": "028564def5238515c75329568b431f59", "type": "electric_scooter", "lon": -76.97651783333333, "is_reserved": 0, "fusion_lat": 0.0, "fusion_lon": 0.0}, {"name": "4167e471e553235284c60e0a6a15c27d", "is_disabled": 0, "lat": 38.8874235, "rental_uris": {"ios": "https://dc.lft.to/lastmile_qr_scan", "android": "https://dc.lft.to/lastmile_qr_scan"}, "bike_id": "4167e471e553235284c60e0a6a15c27d", "type": "electric_scooter", "lon": -77.02132016666667, "is_reserved": 0, "fusion_lat": 0.0, "fusion_lon": 0.0}, {"name": "fda8761084d416395299c284166543ae", "is_disabled": 0, "lat": 38.90356666666667, "rental_uris": {"ios": "https://dc.lft.to/lastmile_qr_scan", "android": "https://dc.lft.to/lastmile_qr_scan"}, "bike_id": "fda8761084d416395299c284166543ae", "type": "electric_scooter", "lon": -77.040148, "is_reserved": 0, "fusion_lat": 0.0, "fusion_lon": 0.0}, {"name": "1a78cc23a6081a555e6970ce474db381", "is_disabled": 0, "lat": 38.923852333333336, "rental_uris": {"ios": "https://dc.lft.to/lastmile_qr_scan", "android": "https://dc.lft.to/lastmile_qr_scan"}, "bike_id": "1a78cc23a6081a555e6970ce474db381", "type": "electric_scooter", "lon": -77.0216185, "is_reserved": 0, "fusion_lat": 0.0, "fusion_lon": 0.0}, {"name": "2795fd1da9f47b5ee483c868e82eaa84", "is_disabled": 0, "lat": 38.90025033333333, "rental_uris": {"ios": "https://dc.lft.to/lastmile_qr_scan", "android": "https://dc.lft.to/lastmile_qr_scan"}, "bike_id": "2795fd1da9f47b5ee483c868e82eaa84", "type": "electric_scooter", "lon": -77.04844116666666, "is_reserved": 0, "fusion_lat": 0.0, "fusion_lon": 0.0}, {"name": "283fb905ff5ae9ff0f91645f88dcf045", "is_disabled": 0, "lat": 38.924889, "rental_uris": {"ios": "https://dc.lft.to/lastmile_qr_scan", "android": "https://dc.lft.to/lastmile_qr_scan"}, "bike_id": "283fb905ff5ae9ff0f91645f88dcf045", "type": "electric_scooter", "lon": -77.02279116666666, "is_reserved": 0, "fusion_lat": 0.0, "fusion_lon": 0.0}, {"name": "cf62763ac6853752513bc391da911c09", "is_disabled": 0, "lat": 38.930577666666665, "rental_uris": {"ios": "https://dc.lft.to/lastmile_qr_scan", "android": "https://dc.lft.to/lastmile_qr_scan"}, "bike_id": "cf62763ac6853752513bc391da911c09", "type": "electric_scooter", "lon": -77.01868766666666, "is_reserved": 0, "fusion_lat": 0.0, "fusion_lon": 0.0}, {"name": "c3fa68c2caa8a9a412be36ef2c194b16", "is_disabled": 0, "lat": 38.90959483333334, "rental_uris": {"ios": "https://dc.lft.to/lastmile_qr_scan", "android": "https://dc.lft.to/lastmile_qr_scan"}, "bike_id": "c3fa68c2caa8a9a412be36ef2c194b16", "type": "electric_scooter", "lon": -77.0464855, "is_reserved": 0, "fusion_lat": 0.0, "fusion_lon": 0.0}, {"name": "600fc415db6742091586b5c59b85f1a2", "is_disabled": 0, "lat": 38.907462833333334, "rental_uris": {"ios": "https://dc.lft.to/lastmile_qr_scan", "android": "https://dc.lft.to/lastmile_qr_scan"}, "bike_id": "600fc415db6742091586b5c59b85f1a2", "type": "electric_scooter", "lon": -77.029561, "is_reserved": 0, "fusion_lat": 0.0, "fusion_lon": 0.0}, {"name": "ba797da25660d919742bc3658098968f", "is_disabled": 0, "lat": 38.9390345, "rental_uris": {"ios": "https://dc.lft.to/lastmile_qr_scan", "android": "https://dc.lft.to/lastmile_qr_scan"}, "bike_id": "ba797da25660d919742bc3658098968f", "type": "electric_scooter", "lon": -77.02457233333334, "is_reserved": 0, "fusion_lat": 0.0, "fusion_lon": 0.0}, {"name": "c98ba15b23c2a558984ffef2423a6963", "is_disabled": 0, "lat": 38.9253555, "rental_uris": {"ios": "https://dc.lft.to/lastmile_qr_scan", "android": "https://dc.lft.to/lastmile_qr_scan"}, "bike_id": "c98ba15b23c2a558984ffef2423a6963", "type": "electric_scooter", "lon": -77.03497983333334, "is_reserved": 0, "fusion_lat": 0.0, "fusion_lon": 0.0}, {"name": "b48fc032195b7e0b2fd972e4ac9269f5", "is_disabled": 0, "lat": 38.902050333333335, "rental_uris": {"ios": "https://dc.lft.to/lastmile_qr_scan", "android": "https://dc.lft.to/lastmile_qr_scan"}, "bike_id": "b48fc032195b7e0b2fd972e4ac9269f5", "type": "electric_scooter", "lon": -77.02378733333333, "is_reserved": 0, "fusion_lat": 0.0, "fusion_lon": 0.0}, {"name": "ec483fbeed36d7627954b86160da21fd", "is_disabled": 0, "lat": 38.91749166666666, "rental_uris": {"ios": "https://dc.lft.to/lastmile_qr_scan", "android": "https://dc.lft.to/lastmile_qr_scan"}, "bike_id": "ec483fbeed36d7627954b86160da21fd", "type": "electric_scooter", "lon": -77.02494883333334, "is_reserved": 0, "fusion_lat": 0.0, "fusion_lon": 0.0}, {"name": "e924954972b958b97fd79a2348c68e7b", "is_disabled": 0, "lat": 38.91698733333333, "rental_uris": {"ios": "https://dc.lft.to/lastmile_qr_scan", "android": "https://dc.lft.to/lastmile_qr_scan"}, "bike_id": "e924954972b958b97fd79a2348c68e7b", "type": "electric_scooter", "lon": -77.03041916666666, "is_reserved": 0, "fusion_lat": 0.0, "fusion_lon": 0.0}, {"name": "10436207248f2ff6e05cf42d3cfa6f51", "is_disabled": 0, "lat": 38.879547333333335, "rental_uris": {"ios": "https://dc.lft.to/lastmile_qr_scan", "android": "https://dc.lft.to/lastmile_qr_scan"}, "bike_id": "10436207248f2ff6e05cf42d3cfa6f51", "type": "electric_scooter", "lon": -77.006202, "is_reserved": 0, "fusion_lat": 0.0, "fusion_lon": 0.0}, {"name": "bf0cb1af5fd56ecee6719390d4f119c1", "is_disabled": 0, "lat": 38.916862, "rental_uris": {"ios": "https://dc.lft.to/lastmile_qr_scan", "android": "https://dc.lft.to/lastmile_qr_scan"}, "bike_id": "bf0cb1af5fd56ecee6719390d4f119c1", "type": "electric_scooter", "lon": -77.03126683333333, "is_reserved": 0, "fusion_lat": 0.0, "fusion_lon": 0.0}, {"name": "6688da927c74a941ee3add643a7321ea", "is_disabled": 0, "lat": 38.900403, "rental_uris": {"ios": "https://dc.lft.to/lastmile_qr_scan", "android": "https://dc.lft.to/lastmile_qr_scan"}, "bike_id": "6688da927c74a941ee3add643a7321ea", "type": "electric_scooter", "lon": -77.03508433333333, "is_reserved": 0, "fusion_lat": 0.0, "fusion_lon": 0.0}, {"name": "18b6346b9d99c565cc1cda34012b0f36", "is_disabled": 0, "lat": 38.87475583333333, "rental_uris": {"ios": "https://dc.lft.to/lastmile_qr_scan", "android": "https://dc.lft.to/lastmile_qr_scan"}, "bike_id": "18b6346b9d99c565cc1cda34012b0f36", "type": "electric_scooter", "lon": -77.00858766666667, "is_reserved": 0, "fusion_lat": 0.0, "fusion_lon": 0.0}, {"name": "05c02f4635032e31acdb2817a9a1f35b", "is_disabled": 0, "lat": 38.8958215, "rental_uris": {"ios": "https://dc.lft.to/lastmile_qr_scan", "android": "https://dc.lft.to/lastmile_qr_scan"}, "bike_id": "05c02f4635032e31acdb2817a9a1f35b", "type": "electric_scooter", "lon": -76.98317, "is_reserved": 0, "fusion_lat": 0.0, "fusion_lon": 0.0}, {"name": "ec2170fa7764fd811da08b0072441329", "is_disabled": 0, "lat": 38.9280425, "rental_uris": {"ios": "https://dc.lft.to/lastmile_qr_scan", "android": "https://dc.lft.to/lastmile_qr_scan"}, "bike_id": "ec2170fa7764fd811da08b0072441329", "type": "electric_scooter", "lon": -77.0364455, "is_reserved": 0, "fusion_lat": 0.0, "fusion_lon": 0.0}, {"name": "332d7f68fca255d84d442a0ba5823886", "is_disabled": 0, "lat": 38.893236333333334, "rental_uris": {"ios": "https://dc.lft.to/lastmile_qr_scan", "android": "https://dc.lft.to/lastmile_qr_scan"}, "bike_id": "332d7f68fca255d84d442a0ba5823886", "type": "electric_scooter", "lon": -77.022407, "is_reserved": 0, "fusion_lat": 0.0, "fusion_lon": 0.0}, {"name": "98960284b86e4261da1270dde39af9d8", "is_disabled": 0, "lat": 38.8961305, "rental_uris": {"ios": "https://dc.lft.to/lastmile_qr_scan", "android": "https://dc.lft.to/lastmile_qr_scan"}, "bike_id": "98960284b86e4261da1270dde39af9d8", "type": "electric_scooter", "lon": -77.023188, "is_reserved": 0, "fusion_lat": 0.0, "fusion_lon": 0.0}, {"name": "d566da088e6615d1538a83d79bce80d9", "is_disabled": 0, "lat": 38.932867333333334, "rental_uris": {"ios": "https://dc.lft.to/lastmile_qr_scan", "android": "https://dc.lft.to/lastmile_qr_scan"}, "bike_id": "d566da088e6615d1538a83d79bce80d9", "type": "electric_scooter", "lon": -77.028538, "is_reserved": 0, "fusion_lat": 0.0, "fusion_lon": 0.0}, {"name": "8eae791a2fa314e725dda43fe9eac133", "is_disabled": 0, "lat": 38.90042416666667, "rental_uris": {"ios": "https://dc.lft.to/lastmile_qr_scan", "android": "https://dc.lft.to/lastmile_qr_scan"}, "bike_id": "8eae791a2fa314e725dda43fe9eac133", "type": "electric_scooter", "lon": -77.035025, "is_reserved": 0, "fusion_lat": 0.0, "fusion_lon": 0.0}, {"name": "689bb018f967c103b8c30e92df78bda8", "is_disabled": 0, "lat": 38.91006566666667, "rental_uris": {"ios": "https://dc.lft.to/lastmile_qr_scan", "android": "https://dc.lft.to/lastmile_qr_scan"}, "bike_id": "689bb018f967c103b8c30e92df78bda8", "type": "electric_scooter", "lon": -77.03443066666667, "is_reserved": 0, "fusion_lat": 0.0, "fusion_lon": 0.0}, {"name": "979efd02c4e061426f6a5d89e35b6f77", "is_disabled": 0, "lat": 38.90046666666667, "rental_uris": {"ios": "https://dc.lft.to/lastmile_qr_scan", "android": "https://dc.lft.to/lastmile_qr_scan"}, "bike_id": "979efd02c4e061426f6a5d89e35b6f77", "type": "electric_scooter", "lon": -77.000614, "is_reserved": 0, "fusion_lat": 0.0, "fusion_lon": 0.0}, {"name": "fdd64d47d5c9c315166c85ed0f19104c", "is_disabled": 0, "lat": 38.8873285, "rental_uris": {"ios": "https://dc.lft.to/lastmile_qr_scan", "android": "https://dc.lft.to/lastmile_qr_scan"}, "bike_id": "fdd64d47d5c9c315166c85ed0f19104c", "type": "electric_scooter", "lon": -77.02383616666667, "is_reserved": 0, "fusion_lat": 0.0, "fusion_lon": 0.0}, {"name": "d3723918e1b4bb6dd36d32bd1c7f343a", "is_disabled": 0, "lat": 38.898997666666666, "rental_uris": {"ios": "https://dc.lft.to/lastmile_qr_scan", "android": "https://dc.lft.to/lastmile_qr_scan"}, "bike_id": "d3723918e1b4bb6dd36d32bd1c7f343a", "type": "electric_scooter", "lon": -77.03978933333333, "is_reserved": 0, "fusion_lat": 0.0, "fusion_lon": 0.0}, {"name": "8c8a02809a555283c16dfd9aaac40baa", "is_disabled": 0, "lat": 38.90260033333333, "rental_uris": {"ios": "https://dc.lft.to/lastmile_qr_scan", "android": "https://dc.lft.to/lastmile_qr_scan"}, "bike_id": "8c8a02809a555283c16dfd9aaac40baa", "type": "electric_scooter", "lon": -77.05324533333334, "is_reserved": 0, "fusion_lat": 0.0, "fusion_lon": 0.0}, {"name": "817e93af1ed42a993b8959e31e80a35e", "is_disabled": 0, "lat": 38.9179645, "rental_uris": {"ios": "https://dc.lft.to/lastmile_qr_scan", "android": "https://dc.lft.to/lastmile_qr_scan"}, "bike_id": "817e93af1ed42a993b8959e31e80a35e", "type": "electric_scooter", "lon": -77.027108, "is_reserved": 0, "fusion_lat": 0.0, "fusion_lon": 0.0}, {"name": "adff9e128d3eb903a3b82602993b0ee9", "is_disabled": 0, "lat": 38.91471766666667, "rental_uris": {"ios": "https://dc.lft.to/lastmile_qr_scan", "android": "https://dc.lft.to/lastmile_qr_scan"}, "bike_id": "adff9e128d3eb903a3b82602993b0ee9", "type": "electric_scooter", "lon": -77.03851533333334, "is_reserved": 0, "fusion_lat": 0.0, "fusion_lon": 0.0}, {"name": "cd03f92e7c963047541433e6a2e87f99", "is_disabled": 0, "lat": 38.930406166666664, "rental_uris": {"ios": "https://dc.lft.to/lastmile_qr_scan", "android": "https://dc.lft.to/lastmile_qr_scan"}, "bike_id": "cd03f92e7c963047541433e6a2e87f99", "type": "electric_scooter", "lon": -77.0325845, "is_reserved": 0, "fusion_lat": 0.0, "fusion_lon": 0.0}, {"name": "0cc5a285beb086ed45266f9e5d34461d", "is_disabled": 0, "lat": 38.90185733333333, "rental_uris": {"ios": "https://dc.lft.to/lastmile_qr_scan", "android": "https://dc.lft.to/lastmile_qr_scan"}, "bike_id": "0cc5a285beb086ed45266f9e5d34461d", "type": "electric_scooter", "lon": -77.05048983333333, "is_reserved": 0, "fusion_lat": 0.0, "fusion_lon": 0.0}, {"name": "2f74386591df5f6a34a6daafaaecd18d", "is_disabled": 0, "lat": 38.87897483333333, "rental_uris": {"ios": "https://dc.lft.to/lastmile_qr_scan", "android": "https://dc.lft.to/lastmile_qr_scan"}, "bike_id": "2f74386591df5f6a34a6daafaaecd18d", "type": "electric_scooter", "lon": -77.0056695, "is_reserved": 0, "fusion_lat": 0.0, "fusion_lon": 0.0}, {"name": "0130c533cadbe344ea5137be10cc5602", "is_disabled": 0, "lat": 38.92871616666667, "rental_uris": {"ios": "https://dc.lft.to/lastmile_qr_scan", "android": "https://dc.lft.to/lastmile_qr_scan"}, "bike_id": "0130c533cadbe344ea5137be10cc5602", "type": "electric_scooter", "lon": -77.03261766666667, "is_reserved": 0, "fusion_lat": 0.0, "fusion_lon": 0.0}, {"name": "90a5f51aa9e23db84024e072b0d8cb25", "is_disabled": 0, "lat": 38.919283666666665, "rental_uris": {"ios": "https://dc.lft.to/lastmile_qr_scan", "android": "https://dc.lft.to/lastmile_qr_scan"}, "bike_id": "90a5f51aa9e23db84024e072b0d8cb25", "type": "electric_scooter", "lon": -77.030367, "is_reserved": 0, "fusion_lat": 0.0, "fusion_lon": 0.0}, {"name": "9cc63eaa288af662229dfa42027834b2", "is_disabled": 0, "lat": 38.9055035, "rental_uris": {"ios": "https://dc.lft.to/lastmile_qr_scan", "android": "https://dc.lft.to/lastmile_qr_scan"}, "bike_id": "9cc63eaa288af662229dfa42027834b2", "type": "electric_scooter", "lon": -77.006005, "is_reserved": 0, "fusion_lat": 0.0, "fusion_lon": 0.0}, {"name": "f4668363da46398a3c9b4f2d747fb620", "is_disabled": 0, "lat": 38.894459499999996, "rental_uris": {"ios": "https://dc.lft.to/lastmile_qr_scan", "android": "https://dc.lft.to/lastmile_qr_scan"}, "bike_id": "f4668363da46398a3c9b4f2d747fb620", "type": "electric_scooter", "lon": -76.97812216666667, "is_reserved": 0, "fusion_lat": 0.0, "fusion_lon": 0.0}, {"name": "662784afd020679cf1a5f64bf48e0f7c", "is_disabled": 0, "lat": 38.90034166666667, "rental_uris": {"ios": "https://dc.lft.to/lastmile_qr_scan", "android": "https://dc.lft.to/lastmile_qr_scan"}, "bike_id": "662784afd020679cf1a5f64bf48e0f7c", "type": "electric_scooter", "lon": -77.03467416666666, "is_reserved": 0, "fusion_lat": 0.0, "fusion_lon": 0.0}, {"name": "42aa159b10817c253136066b06447c04", "is_disabled": 0, "lat": 38.907374833333336, "rental_uris": {"ios": "https://dc.lft.to/lastmile_qr_scan", "android": "https://dc.lft.to/lastmile_qr_scan"}, "bike_id": "42aa159b10817c253136066b06447c04", "type": "electric_scooter", "lon": -77.04147233333333, "is_reserved": 0, "fusion_lat": 0.0, "fusion_lon": 0.0}, {"name": "240b7be21dd044c733614d53667ceab6", "is_disabled": 0, "lat": 38.920716, "rental_uris": {"ios": "https://dc.lft.to/lastmile_qr_scan", "android": "https://dc.lft.to/lastmile_qr_scan"}, "bike_id": "240b7be21dd044c733614d53667ceab6", "type": "electric_scooter", "lon": -77.02224866666667, "is_reserved": 0, "fusion_lat": 0.0, "fusion_lon": 0.0}, {"name": "80887a3923f1c267e8daa5b074c139aa", "is_disabled": 0, "lat": 38.916659833333334, "rental_uris": {"ios": "https://dc.lft.to/lastmile_qr_scan", "android": "https://dc.lft.to/lastmile_qr_scan"}, "bike_id": "80887a3923f1c267e8daa5b074c139aa", "type": "electric_scooter", "lon": -77.02401383333333, "is_reserved": 0, "fusion_lat": 0.0, "fusion_lon": 0.0}, {"name": "1ed0f3c928569573fdf48129090ab3a4", "is_disabled": 0, "lat": 38.89905733333333, "rental_uris": {"ios": "https://dc.lft.to/lastmile_qr_scan", "android": "https://dc.lft.to/lastmile_qr_scan"}, "bike_id": "1ed0f3c928569573fdf48129090ab3a4", "type": "electric_scooter", "lon": -77.040885, "is_reserved": 0, "fusion_lat": 0.0, "fusion_lon": 0.0}, {"name": "d931d84d0967e98f576b73ef18eaf720", "is_disabled": 0, "lat": 38.91720683333333, "rental_uris": {"ios": "https://dc.lft.to/lastmile_qr_scan", "android": "https://dc.lft.to/lastmile_qr_scan"}, "bike_id": "d931d84d0967e98f576b73ef18eaf720", "type": "electric_scooter", "lon": -77.02699466666667, "is_reserved": 0, "fusion_lat": 0.0, "fusion_lon": 0.0}, {"name": "140266f1a0fec946351be2cd5c409354", "is_disabled": 0, "lat": 38.93715433333333, "rental_uris": {"ios": "https://dc.lft.to/lastmile_qr_scan", "android": "https://dc.lft.to/lastmile_qr_scan"}, "bike_id": "140266f1a0fec946351be2cd5c409354", "type": "electric_scooter", "lon": -77.02388183333333, "is_reserved": 0, "fusion_lat": 0.0, "fusion_lon": 0.0}, {"name": "6b909848702a1feb86d1a77ea8b003e6", "is_disabled": 0, "lat": 38.885979166666665, "rental_uris": {"ios": "https://dc.lft.to/lastmile_qr_scan", "android": "https://dc.lft.to/lastmile_qr_scan"}, "bike_id": "6b909848702a1feb86d1a77ea8b003e6", "type": "electric_scooter", "lon": -76.995334, "is_reserved": 0, "fusion_lat": 0.0, "fusion_lon": 0.0}, {"name": "600a16067599263232fc44b457e189c6", "is_disabled": 0, "lat": 38.88493716666667, "rental_uris": {"ios": "https://dc.lft.to/lastmile_qr_scan", "android": "https://dc.lft.to/lastmile_qr_scan"}, "bike_id": "600a16067599263232fc44b457e189c6", "type": "electric_scooter", "lon": -76.98062116666667, "is_reserved": 0, "fusion_lat": 0.0, "fusion_lon": 0.0}, {"name": "6796ef638f7e9cf08c71ada0042b3383", "is_disabled": 0, "lat": 38.90131366666667, "rental_uris": {"ios": "https://dc.lft.to/lastmile_qr_scan", "android": "https://dc.lft.to/lastmile_qr_scan"}, "bike_id": "6796ef638f7e9cf08c71ada0042b3383", "type": "electric_scooter", "lon": -77.04359666666667, "is_reserved": 0, "fusion_lat": 0.0, "fusion_lon": 0.0}, {"name": "5a8a9624fd1cccaa30cca4662bf853c7", "is_disabled": 0, "lat": 38.912196, "rental_uris": {"ios": "https://dc.lft.to/lastmile_qr_scan", "android": "https://dc.lft.to/lastmile_qr_scan"}, "bike_id": "5a8a9624fd1cccaa30cca4662bf853c7", "type": "electric_scooter", "lon": -77.03184883333333, "is_reserved": 0, "fusion_lat": 0.0, "fusion_lon": 0.0}, {"name": "9353028d715b8765e7dcd5fd941fe129", "is_disabled": 0, "lat": 38.90527, "rental_uris": {"ios": "https://dc.lft.to/lastmile_qr_scan", "android": "https://dc.lft.to/lastmile_qr_scan"}, "bike_id": "9353028d715b8765e7dcd5fd941fe129", "type": "electric_scooter", "lon": -77.04731716666667, "is_reserved": 0, "fusion_lat": 0.0, "fusion_lon": 0.0}, {"name": "28a91f5e1eca81d518269963c013918b", "is_disabled": 0, "lat": 38.895556666666664, "rental_uris": {"ios": "https://dc.lft.to/lastmile_qr_scan", "android": "https://dc.lft.to/lastmile_qr_scan"}, "bike_id": "28a91f5e1eca81d518269963c013918b", "type": "electric_scooter", "lon": -76.94883516666667, "is_reserved": 0, "fusion_lat": 0.0, "fusion_lon": 0.0}, {"name": "981c973937522e4d76cddf68f110174f", "is_disabled": 0, "lat": 38.873740166666664, "rental_uris": {"ios": "https://dc.lft.to/lastmile_qr_scan", "android": "https://dc.lft.to/lastmile_qr_scan"}, "bike_id": "981c973937522e4d76cddf68f110174f", "type": "electric_scooter", "lon": -77.00135233333333, "is_reserved": 0, "fusion_lat": 0.0, "fusion_lon": 0.0}, {"name": "1506b6326bfc64f478458789d71d2f79", "is_disabled": 0, "lat": 38.96575566666667, "rental_uris": {"ios": "https://dc.lft.to/lastmile_qr_scan", "android": "https://dc.lft.to/lastmile_qr_scan"}, "bike_id": "1506b6326bfc64f478458789d71d2f79", "type": "electric_scooter", "lon": -77.00267066666666, "is_reserved": 0, "fusion_lat": 0.0, "fusion_lon": 0.0}, {"name": "762cd63d736bab2ab322cf4f1cf11acd", "is_disabled": 0, "lat": 38.920258, "rental_uris": {"ios": "https://dc.lft.to/lastmile_qr_scan", "android": "https://dc.lft.to/lastmile_qr_scan"}, "bike_id": "762cd63d736bab2ab322cf4f1cf11acd", "type": "electric_scooter", "lon": -77.01022583333334, "is_reserved": 0, "fusion_lat": 0.0, "fusion_lon": 0.0}, {"name": "28d78425884f7a56b62c5699e7f81ae8", "is_disabled": 0, "lat": 38.867346833333336, "rental_uris": {"ios": "https://dc.lft.to/lastmile_qr_scan", "android": "https://dc.lft.to/lastmile_qr_scan"}, "bike_id": "28d78425884f7a56b62c5699e7f81ae8", "type": "electric_scooter", "lon": -76.9878755, "is_reserved": 0, "fusion_lat": 0.0, "fusion_lon": 0.0}, {"name": "0276207a50f42edc63980427ee74c8a0", "is_disabled": 0, "lat": 38.961807666666665, "rental_uris": {"ios": "https://dc.lft.to/lastmile_qr_scan", "android": "https://dc.lft.to/lastmile_qr_scan"}, "bike_id": "0276207a50f42edc63980427ee74c8a0", "type": "electric_bike", "lon": -77.05268866666667, "is_reserved": 0, "fusion_lat": 0.0, "fusion_lon": 0.0}, {"name": "6c5bb593605ce44ff8eb935eebdec8e8", "is_disabled": 0, "lat": 38.9241615, "rental_uris": {"ios": "https://dc.lft.to/lastmile_qr_scan", "android": "https://dc.lft.to/lastmile_qr_scan"}, "bike_id": "6c5bb593605ce44ff8eb935eebdec8e8", "type": "electric_scooter", "lon": -77.05753916666667, "is_reserved": 0, "fusion_lat": 0.0, "fusion_lon": 0.0}, {"name": "e0938ba040e160f56a37deb8679a9501", "is_disabled": 0, "lat": 38.9018345, "rental_uris": {"ios": "https://dc.lft.to/lastmile_qr_scan", "android": "https://dc.lft.to/lastmile_qr_scan"}, "bike_id": "e0938ba040e160f56a37deb8679a9501", "type": "electric_scooter", "lon": -77.027454, "is_reserved": 0, "fusion_lat": 0.0, "fusion_lon": 0.0}, {"name": "2f3cbab2bf069d1addbf71ac405f0278", "is_disabled": 0, "lat": 38.91186583333333, "rental_uris": {"ios": "https://dc.lft.to/lastmile_qr_scan", "android": "https://dc.lft.to/lastmile_qr_scan"}, "bike_id": "2f3cbab2bf069d1addbf71ac405f0278", "type": "electric_scooter", "lon": -77.03049783333333, "is_reserved": 0, "fusion_lat": 0.0, "fusion_lon": 0.0}, {"name": "2f83378820220f88401d40305fc4c5a9", "is_disabled": 0, "lat": 38.904895, "rental_uris": {"ios": "https://dc.lft.to/lastmile_qr_scan", "android": "https://dc.lft.to/lastmile_qr_scan"}, "bike_id": "2f83378820220f88401d40305fc4c5a9", "type": "electric_scooter", "lon": -77.0211415, "is_reserved": 0, "fusion_lat": 0.0, "fusion_lon": 0.0}, {"name": "9a00969df4842248f0d039c2a1bceadd", "is_disabled": 0, "lat": 38.898547, "rental_uris": {"ios": "https://dc.lft.to/lastmile_qr_scan", "android": "https://dc.lft.to/lastmile_qr_scan"}, "bike_id": "9a00969df4842248f0d039c2a1bceadd", "type": "electric_scooter", "lon": -77.018505, "is_reserved": 0, "fusion_lat": 0.0, "fusion_lon": 0.0}, {"name": "c2be6592adb6742c11ffdbd9397b01db", "is_disabled": 0, "lat": 38.898366833333334, "rental_uris": {"ios": "https://dc.lft.to/lastmile_qr_scan", "android": "https://dc.lft.to/lastmile_qr_scan"}, "bike_id": "c2be6592adb6742c11ffdbd9397b01db", "type": "electric_scooter", "lon": -77.03043833333334, "is_reserved": 0, "fusion_lat": 0.0, "fusion_lon": 0.0}, {"name": "b6c334013b36fc70d81b989be2c8760e", "is_disabled": 0, "lat": 38.892181, "rental_uris": {"ios": "https://dc.lft.to/lastmile_qr_scan", "android": "https://dc.lft.to/lastmile_qr_scan"}, "bike_id": "b6c334013b36fc70d81b989be2c8760e", "type": "electric_scooter", "lon": -77.02630716666667, "is_reserved": 0, "fusion_lat": 0.0, "fusion_lon": 0.0}, {"name": "0e885814fe3f3c6e69f973381b6e84de", "is_disabled": 0, "lat": 38.89959, "rental_uris": {"ios": "https://dc.lft.to/lastmile_qr_scan", "android": "https://dc.lft.to/lastmile_qr_scan"}, "bike_id": "0e885814fe3f3c6e69f973381b6e84de", "type": "electric_scooter", "lon": -77.01621116666666, "is_reserved": 0, "fusion_lat": 0.0, "fusion_lon": 0.0}, {"name": "47a679ac8b6f378af84ac3c99ed5e538", "is_disabled": 0, "lat": 38.8755285, "rental_uris": {"ios": "https://dc.lft.to/lastmile_qr_scan", "android": "https://dc.lft.to/lastmile_qr_scan"}, "bike_id": "47a679ac8b6f378af84ac3c99ed5e538", "type": "electric_scooter", "lon": -77.00583733333333, "is_reserved": 0, "fusion_lat": 0.0, "fusion_lon": 0.0}, {"name": "6b505e6f4b1c34d3c07eb87e5891563e", "is_disabled": 0, "lat": 38.90680183333333, "rental_uris": {"ios": "https://dc.lft.to/lastmile_qr_scan", "android": "https://dc.lft.to/lastmile_qr_scan"}, "bike_id": "6b505e6f4b1c34d3c07eb87e5891563e", "type": "electric_bike", "lon": -76.94495233333333, "is_reserved": 0, "fusion_lat": 0.0, "fusion_lon": 0.0}, {"name": "65d15e0949f9b06ba57beea7d11e9032", "is_disabled": 0, "lat": 38.916981166666666, "rental_uris": {"ios": "https://dc.lft.to/lastmile_qr_scan", "android": "https://dc.lft.to/lastmile_qr_scan"}, "bike_id": "65d15e0949f9b06ba57beea7d11e9032", "type": "electric_scooter", "lon": -77.0243385, "is_reserved": 0, "fusion_lat": 0.0, "fusion_lon": 0.0}, {"name": "85b76fd4d90e378119471eb608092ab6", "is_disabled": 0, "lat": 38.92231133333333, "rental_uris": {"ios": "https://dc.lft.to/lastmile_qr_scan", "android": "https://dc.lft.to/lastmile_qr_scan"}, "bike_id": "85b76fd4d90e378119471eb608092ab6", "type": "electric_scooter", "lon": -77.04245716666667, "is_reserved": 0, "fusion_lat": 0.0, "fusion_lon": 0.0}, {"name": "d9e4588502e5aa00bd01857f8cb58dc8", "is_disabled": 0, "lat": 38.9505565, "rental_uris": {"ios": "https://dc.lft.to/lastmile_qr_scan", "android": "https://dc.lft.to/lastmile_qr_scan"}, "bike_id": "d9e4588502e5aa00bd01857f8cb58dc8", "type": "electric_scooter", "lon": -77.08026983333333, "is_reserved": 0, "fusion_lat": 0.0, "fusion_lon": 0.0}, {"name": "36f435bf0e691d2ff5b714ea6f8fc1f4", "is_disabled": 0, "lat": 38.91086266666667, "rental_uris": {"ios": "https://dc.lft.to/lastmile_qr_scan", "android": "https://dc.lft.to/lastmile_qr_scan"}, "bike_id": "36f435bf0e691d2ff5b714ea6f8fc1f4", "type": "electric_scooter", "lon": -77.0448885, "is_reserved": 0, "fusion_lat": 0.0, "fusion_lon": 0.0}, {"name": "1e3d1df5ac96223edd1f864f8ca666d2", "is_disabled": 0, "lat": 38.875520333333334, "rental_uris": {"ios": "https://dc.lft.to/lastmile_qr_scan", "android": "https://dc.lft.to/lastmile_qr_scan"}, "bike_id": "1e3d1df5ac96223edd1f864f8ca666d2", "type": "electric_scooter", "lon": -77.00586016666666, "is_reserved": 0, "fusion_lat": 0.0, "fusion_lon": 0.0}, {"name": "c0ca1e96a8f9b39cafc45c4c017bc462", "is_disabled": 0, "lat": 38.87160166666666, "rental_uris": {"ios": "https://dc.lft.to/lastmile_qr_scan", "android": "https://dc.lft.to/lastmile_qr_scan"}, "bike_id": "c0ca1e96a8f9b39cafc45c4c017bc462", "type": "electric_bike", "lon": -77.01197583333334, "is_reserved": 0, "fusion_lat": 0.0, "fusion_lon": 0.0}, {"name": "9cf3af97993bd69406470ad1aea594ab", "is_disabled": 0, "lat": 38.92065133333333, "rental_uris": {"ios": "https://dc.lft.to/lastmile_qr_scan", "android": "https://dc.lft.to/lastmile_qr_scan"}, "bike_id": "9cf3af97993bd69406470ad1aea594ab", "type": "electric_scooter", "lon": -77.04248883333334, "is_reserved": 0, "fusion_lat": 0.0, "fusion_lon": 0.0}, {"name": "a2048ae21534a42813b4ab183a06a099", "is_disabled": 0, "lat": 38.898841166666664, "rental_uris": {"ios": "https://dc.lft.to/lastmile_qr_scan", "android": "https://dc.lft.to/lastmile_qr_scan"}, "bike_id": "a2048ae21534a42813b4ab183a06a099", "type": "electric_scooter", "lon": -76.9317745, "is_reserved": 0, "fusion_lat": 0.0, "fusion_lon": 0.0}, {"name": "98abcb9ce62eda7fe27474091c5b655f", "is_disabled": 0, "lat": 38.901491666666665, "rental_uris": {"ios": "https://dc.lft.to/lastmile_qr_scan", "android": "https://dc.lft.to/lastmile_qr_scan"}, "bike_id": "98abcb9ce62eda7fe27474091c5b655f", "type": "electric_scooter", "lon": -76.93070183333333, "is_reserved": 0, "fusion_lat": 0.0, "fusion_lon": 0.0}, {"name": "611bfda34712898a5ac3a15147dc2352", "is_disabled": 0, "lat": 38.901936666666664, "rental_uris": {"ios": "https://dc.lft.to/lastmile_qr_scan", "android": "https://dc.lft.to/lastmile_qr_scan"}, "bike_id": "611bfda34712898a5ac3a15147dc2352", "type": "electric_scooter", "lon": -77.02370233333333, "is_reserved": 0, "fusion_lat": 0.0, "fusion_lon": 0.0}, {"name": "72973ca84c3a005505e91e3df624514a", "is_disabled": 0, "lat": 38.93828633333333, "rental_uris": {"ios": "https://dc.lft.to/lastmile_qr_scan", "android": "https://dc.lft.to/lastmile_qr_scan"}, "bike_id": "72973ca84c3a005505e91e3df624514a", "type": "electric_scooter", "lon": -77.03043966666667, "is_reserved": 0, "fusion_lat": 0.0, "fusion_lon": 0.0}, {"name": "5b4dc5445072674cb3b8aba4344d87a1", "is_disabled": 0, "lat": 38.92709633333333, "rental_uris": {"ios": "https://dc.lft.to/lastmile_qr_scan", "android": "https://dc.lft.to/lastmile_qr_scan"}, "bike_id": "5b4dc5445072674cb3b8aba4344d87a1", "type": "electric_scooter", "lon": -77.0210795, "is_reserved": 0, "fusion_lat": 0.0, "fusion_lon": 0.0}, {"name": "3d21dd6b87151ec767c4b8c829cd4ab9", "is_disabled": 0, "lat": 38.89979, "rental_uris": {"ios": "https://dc.lft.to/lastmile_qr_scan", "android": "https://dc.lft.to/lastmile_qr_scan"}, "bike_id": "3d21dd6b87151ec767c4b8c829cd4ab9", "type": "electric_scooter", "lon": -77.02073916666667, "is_reserved": 0, "fusion_lat": 0.0, "fusion_lon": 0.0}, {"name": "c66364aeb977e0eeea7fe6828b5f87f3", "is_disabled": 0, "lat": 38.91734266666667, "rental_uris": {"ios": "https://dc.lft.to/lastmile_qr_scan", "android": "https://dc.lft.to/lastmile_qr_scan"}, "bike_id": "c66364aeb977e0eeea7fe6828b5f87f3", "type": "electric_scooter", "lon": -77.04175233333333, "is_reserved": 0, "fusion_lat": 0.0, "fusion_lon": 0.0}, {"name": "ce42f60a16023f9634faac389e93a704", "is_disabled": 0, "lat": 38.93265266666667, "rental_uris": {"ios": "https://dc.lft.to/lastmile_qr_scan", "android": "https://dc.lft.to/lastmile_qr_scan"}, "bike_id": "ce42f60a16023f9634faac389e93a704", "type": "electric_scooter", "lon": -76.989007, "is_reserved": 0, "fusion_lat": 0.0, "fusion_lon": 0.0}, {"name": "5842e58b29043f7a6fb3af48bf59a24f", "is_disabled": 0, "lat": 38.88652416666667, "rental_uris": {"ios": "https://dc.lft.to/lastmile_qr_scan", "android": "https://dc.lft.to/lastmile_qr_scan"}, "bike_id": "5842e58b29043f7a6fb3af48bf59a24f", "type": "electric_scooter", "lon": -77.01994383333333, "is_reserved": 0, "fusion_lat": 0.0, "fusion_lon": 0.0}, {"name": "4d3fc208b5781022ac9149e6b8e596c2", "is_disabled": 0, "lat": 38.89037783333333, "rental_uris": {"ios": "https://dc.lft.to/lastmile_qr_scan", "android": "https://dc.lft.to/lastmile_qr_scan"}, "bike_id": "4d3fc208b5781022ac9149e6b8e596c2", "type": "electric_scooter", "lon": -76.937486, "is_reserved": 0, "fusion_lat": 0.0, "fusion_lon": 0.0}, {"name": "4a77427d61d3b88a4e27ab0c071e6b4f", "is_disabled": 0, "lat": 38.908570833333336, "rental_uris": {"ios": "https://dc.lft.to/lastmile_qr_scan", "android": "https://dc.lft.to/lastmile_qr_scan"}, "bike_id": "4a77427d61d3b88a4e27ab0c071e6b4f", "type": "electric_scooter", "lon": -77.03854833333334, "is_reserved": 0, "fusion_lat": 0.0, "fusion_lon": 0.0}, {"name": "732ddcd6bef15a2c98881ea5af275a3f", "is_disabled": 0, "lat": 38.95480583333333, "rental_uris": {"ios": "https://dc.lft.to/lastmile_qr_scan", "android": "https://dc.lft.to/lastmile_qr_scan"}, "bike_id": "732ddcd6bef15a2c98881ea5af275a3f", "type": "electric_bike", "lon": -77.02670083333334, "is_reserved": 0, "fusion_lat": 0.0, "fusion_lon": 0.0}, {"name": "5a8292937a15c58117fa9911748574ea", "is_disabled": 0, "lat": 38.863313, "rental_uris": {"ios": "https://dc.lft.to/lastmile_qr_scan", "android": "https://dc.lft.to/lastmile_qr_scan"}, "bike_id": "5a8292937a15c58117fa9911748574ea", "type": "electric_bike", "lon": -76.987129, "is_reserved": 0, "fusion_lat": 0.0, "fusion_lon": 0.0}, {"name": "cca912d0608012ce7d2271a1a1e2c848", "is_disabled": 0, "lat": 38.87202033333333, "rental_uris": {"ios": "https://dc.lft.to/lastmile_qr_scan", "android": "https://dc.lft.to/lastmile_qr_scan"}, "bike_id": "cca912d0608012ce7d2271a1a1e2c848", "type": "electric_scooter", "lon": -77.016761, "is_reserved": 0, "fusion_lat": 0.0, "fusion_lon": 0.0}, {"name": "f9d63da2efbf9f2216107471acf33987", "is_disabled": 0, "lat": 38.799795333333336, "rental_uris": {"ios": "https://dc.lft.to/lastmile_qr_scan", "android": "https://dc.lft.to/lastmile_qr_scan"}, "bike_id": "f9d63da2efbf9f2216107471acf33987", "type": "electric_bike", "lon": -77.12983766666666, "is_reserved": 0, "fusion_lat": 0.0, "fusion_lon": 0.0}, {"name": "e48681d80011ca7ad0e5a4c7c13a2ed9", "is_disabled": 0, "lat": 38.9090805, "rental_uris": {"ios": "https://dc.lft.to/lastmile_qr_scan", "android": "https://dc.lft.to/lastmile_qr_scan"}, "bike_id": "e48681d80011ca7ad0e5a4c7c13a2ed9", "type": "electric_scooter", "lon": -77.064158, "is_reserved": 0, "fusion_lat": 0.0, "fusion_lon": 0.0}, {"name": "d2040fffe63123110b7ab27edf4ec9f8", "is_disabled": 0, "lat": 38.921798, "rental_uris": {"ios": "https://dc.lft.to/lastmile_qr_scan", "android": "https://dc.lft.to/lastmile_qr_scan"}, "bike_id": "d2040fffe63123110b7ab27edf4ec9f8", "type": "electric_scooter", "lon": -77.0419055, "is_reserved": 0, "fusion_lat": 0.0, "fusion_lon": 0.0}, {"name": "a96a9100278c0337f750fb5ff5e48ab9", "is_disabled": 0, "lat": 38.89845533333333, "rental_uris": {"ios": "https://dc.lft.to/lastmile_qr_scan", "android": "https://dc.lft.to/lastmile_qr_scan"}, "bike_id": "a96a9100278c0337f750fb5ff5e48ab9", "type": "electric_scooter", "lon": -77.02981133333333, "is_reserved": 0, "fusion_lat": 0.0, "fusion_lon": 0.0}, {"name": "b8e6c2ffee9aa0be5003f1aa3fffad96", "is_disabled": 0, "lat": 38.924738833333336, "rental_uris": {"ios": "https://dc.lft.to/lastmile_qr_scan", "android": "https://dc.lft.to/lastmile_qr_scan"}, "bike_id": "b8e6c2ffee9aa0be5003f1aa3fffad96", "type": "electric_scooter", "lon": -77.03954166666666, "is_reserved": 0, "fusion_lat": 0.0, "fusion_lon": 0.0}, {"name": "f71895447d412bcd114cb08bd8960334", "is_disabled": 0, "lat": 38.902671833333336, "rental_uris": {"ios": "https://dc.lft.to/lastmile_qr_scan", "android": "https://dc.lft.to/lastmile_qr_scan"}, "bike_id": "f71895447d412bcd114cb08bd8960334", "type": "electric_scooter", "lon": -77.01862883333334, "is_reserved": 0, "fusion_lat": 0.0, "fusion_lon": 0.0}, {"name": "2ce00cb9dc09a6de51348ad6aa21efa1", "is_disabled": 0, "lat": 38.92675533333333, "rental_uris": {"ios": "https://dc.lft.to/lastmile_qr_scan", "android": "https://dc.lft.to/lastmile_qr_scan"}, "bike_id": "2ce00cb9dc09a6de51348ad6aa21efa1", "type": "electric_scooter", "lon": -77.02583816666667, "is_reserved": 0, "fusion_lat": 0.0, "fusion_lon": 0.0}, {"name": "d786f7d0ae8559b570a60e63ac44ad9e", "is_disabled": 0, "lat": 38.90841966666667, "rental_uris": {"ios": "https://dc.lft.to/lastmile_qr_scan", "android": "https://dc.lft.to/lastmile_qr_scan"}, "bike_id": "d786f7d0ae8559b570a60e63ac44ad9e", "type": "electric_scooter", "lon": -77.06351316666667, "is_reserved": 0, "fusion_lat": 0.0, "fusion_lon": 0.0}, {"name": "41a60fc5b829989ac14fe64a89bcc56a", "is_disabled": 0, "lat": 38.923134166666664, "rental_uris": {"ios": "https://dc.lft.to/lastmile_qr_scan", "android": "https://dc.lft.to/lastmile_qr_scan"}, "bike_id": "41a60fc5b829989ac14fe64a89bcc56a", "type": "electric_scooter", "lon": -77.04047866666667, "is_reserved": 0, "fusion_lat": 0.0, "fusion_lon": 0.0}, {"name": "0ca461226cd53774beababb71fbd8f1d", "is_disabled": 0, "lat": 38.92337783333333, "rental_uris": {"ios": "https://dc.lft.to/lastmile_qr_scan", "android": "https://dc.lft.to/lastmile_qr_scan"}, "bike_id": "0ca461226cd53774beababb71fbd8f1d", "type": "electric_scooter", "lon": -77.05221933333333, "is_reserved": 0, "fusion_lat": 0.0, "fusion_lon": 0.0}, {"name": "4ed652431b634f3bb47249bbbac137c1", "is_disabled": 0, "lat": 38.918003666666664, "rental_uris": {"ios": "https://dc.lft.to/lastmile_qr_scan", "android": "https://dc.lft.to/lastmile_qr_scan"}, "bike_id": "4ed652431b634f3bb47249bbbac137c1", "type": "electric_scooter", "lon": -77.03193916666666, "is_reserved": 0, "fusion_lat": 0.0, "fusion_lon": 0.0}, {"name": "f9b6f451854da4ef1323f4026e5532de", "is_disabled": 0, "lat": 38.916533333333334, "rental_uris": {"ios": "https://dc.lft.to/lastmile_qr_scan", "android": "https://dc.lft.to/lastmile_qr_scan"}, "bike_id": "f9b6f451854da4ef1323f4026e5532de", "type": "electric_scooter", "lon": -77.04179966666666, "is_reserved": 0, "fusion_lat": 0.0, "fusion_lon": 0.0}, {"name": "1dd7cb8ce6c45262e51abb8bc0b29d39", "is_disabled": 0, "lat": 38.911971, "rental_uris": {"ios": "https://dc.lft.to/lastmile_qr_scan", "android": "https://dc.lft.to/lastmile_qr_scan"}, "bike_id": "1dd7cb8ce6c45262e51abb8bc0b29d39", "type": "electric_scooter", "lon": -77.0118535, "is_reserved": 0, "fusion_lat": 0.0, "fusion_lon": 0.0}, {"name": "705c7170d1c175b27be3d86bf8809e26", "is_disabled": 0, "lat": 38.921278666666666, "rental_uris": {"ios": "https://dc.lft.to/lastmile_qr_scan", "android": "https://dc.lft.to/lastmile_qr_scan"}, "bike_id": "705c7170d1c175b27be3d86bf8809e26", "type": "electric_scooter", "lon": -77.02108083333333, "is_reserved": 0, "fusion_lat": 0.0, "fusion_lon": 0.0}, {"name": "d920045b950e3963e5b741d60e8f38b4", "is_disabled": 0, "lat": 38.90101266666667, "rental_uris": {"ios": "https://dc.lft.to/lastmile_qr_scan", "android": "https://dc.lft.to/lastmile_qr_scan"}, "bike_id": "d920045b950e3963e5b741d60e8f38b4", "type": "electric_scooter", "lon": -76.9305075, "is_reserved": 0, "fusion_lat": 0.0, "fusion_lon": 0.0}, {"name": "a47a1b31fbfd0b052c9334244c5f97cd", "is_disabled": 0, "lat": 38.9221645, "rental_uris": {"ios": "https://dc.lft.to/lastmile_qr_scan", "android": "https://dc.lft.to/lastmile_qr_scan"}, "bike_id": "a47a1b31fbfd0b052c9334244c5f97cd", "type": "electric_scooter", "lon": -77.02119433333333, "is_reserved": 0, "fusion_lat": 0.0, "fusion_lon": 0.0}, {"name": "a3771d3198884f8f2d8e325b52954aa9", "is_disabled": 0, "lat": 38.89218066666667, "rental_uris": {"ios": "https://dc.lft.to/lastmile_qr_scan", "android": "https://dc.lft.to/lastmile_qr_scan"}, "bike_id": "a3771d3198884f8f2d8e325b52954aa9", "type": "electric_scooter", "lon": -77.043316, "is_reserved": 0, "fusion_lat": 0.0, "fusion_lon": 0.0}, {"name": "e22683f7a78c69c6031febc00b9bfb67", "is_disabled": 0, "lat": 38.8941875, "rental_uris": {"ios": "https://dc.lft.to/lastmile_qr_scan", "android": "https://dc.lft.to/lastmile_qr_scan"}, "bike_id": "e22683f7a78c69c6031febc00b9bfb67", "type": "electric_scooter", "lon": -77.02169383333333, "is_reserved": 0, "fusion_lat": 0.0, "fusion_lon": 0.0}, {"name": "c42a59999711ecd77411b2509fe3d7c4", "is_disabled": 0, "lat": 38.86012216666666, "rental_uris": {"ios": "https://dc.lft.to/lastmile_qr_scan", "android": "https://dc.lft.to/lastmile_qr_scan"}, "bike_id": "c42a59999711ecd77411b2509fe3d7c4", "type": "electric_scooter", "lon": -76.96705216666666, "is_reserved": 0, "fusion_lat": 0.0, "fusion_lon": 0.0}, {"name": "464ba88754225bd6961bb132fdc127b8", "is_disabled": 0, "lat": 38.90660416666667, "rental_uris": {"ios": "https://dc.lft.to/lastmile_qr_scan", "android": "https://dc.lft.to/lastmile_qr_scan"}, "bike_id": "464ba88754225bd6961bb132fdc127b8", "type": "electric_scooter", "lon": -77.03786566666666, "is_reserved": 0, "fusion_lat": 0.0, "fusion_lon": 0.0}, {"name": "e3c0e590ccc7ff4f4e6aece3dc34fe22", "is_disabled": 0, "lat": 38.9078485, "rental_uris": {"ios": "https://dc.lft.to/lastmile_qr_scan", "android": "https://dc.lft.to/lastmile_qr_scan"}, "bike_id": "e3c0e590ccc7ff4f4e6aece3dc34fe22", "type": "electric_scooter", "lon": -77.0425595, "is_reserved": 0, "fusion_lat": 0.0, "fusion_lon": 0.0}, {"name": "a887e24687c7977bec9e27d352d701de", "is_disabled": 0, "lat": 38.904938, "rental_uris": {"ios": "https://dc.lft.to/lastmile_qr_scan", "android": "https://dc.lft.to/lastmile_qr_scan"}, "bike_id": "a887e24687c7977bec9e27d352d701de", "type": "electric_scooter", "lon": -77.02814633333334, "is_reserved": 0, "fusion_lat": 0.0, "fusion_lon": 0.0}, {"name": "f573c7271252a9e8f52518d0f86b0b96", "is_disabled": 0, "lat": 38.92463516666667, "rental_uris": {"ios": "https://dc.lft.to/lastmile_qr_scan", "android": "https://dc.lft.to/lastmile_qr_scan"}, "bike_id": "f573c7271252a9e8f52518d0f86b0b96", "type": "electric_scooter", "lon": -77.020755, "is_reserved": 0, "fusion_lat": 0.0, "fusion_lon": 0.0}, {"name": "785fc8c590b5426634bf13c1172338d9", "is_disabled": 0, "lat": 38.89834366666667, "rental_uris": {"ios": "https://dc.lft.to/lastmile_qr_scan", "android": "https://dc.lft.to/lastmile_qr_scan"}, "bike_id": "785fc8c590b5426634bf13c1172338d9", "type": "electric_scooter", "lon": -77.0221265, "is_reserved": 0, "fusion_lat": 0.0, "fusion_lon": 0.0}, {"name": "3f2a840bacc9d56ff92033bd3ca4a9db", "is_disabled": 0, "lat": 38.887396833333334, "rental_uris": {"ios": "https://dc.lft.to/lastmile_qr_scan", "android": "https://dc.lft.to/lastmile_qr_scan"}, "bike_id": "3f2a840bacc9d56ff92033bd3ca4a9db", "type": "electric_scooter", "lon": -77.02129133333334, "is_reserved": 0, "fusion_lat": 0.0, "fusion_lon": 0.0}, {"name": "31106da9b241aabb10a06afcdea61cc1", "is_disabled": 0, "lat": 38.9122555, "rental_uris": {"ios": "https://dc.lft.to/lastmile_qr_scan", "android": "https://dc.lft.to/lastmile_qr_scan"}, "bike_id": "31106da9b241aabb10a06afcdea61cc1", "type": "electric_scooter", "lon": -77.06601216666667, "is_reserved": 0, "fusion_lat": 0.0, "fusion_lon": 0.0}, {"name": "4f7a7006662c1a6badff8d49b7810b3e", "is_disabled": 0, "lat": 38.9024295, "rental_uris": {"ios": "https://dc.lft.to/lastmile_qr_scan", "android": "https://dc.lft.to/lastmile_qr_scan"}, "bike_id": "4f7a7006662c1a6badff8d49b7810b3e", "type": "electric_scooter", "lon": -77.04289483333334, "is_reserved": 0, "fusion_lat": 0.0, "fusion_lon": 0.0}, {"name": "a8d919d6310d053410d6b7037661c4b4", "is_disabled": 0, "lat": 38.85714983333333, "rental_uris": {"ios": "https://dc.lft.to/lastmile_qr_scan", "android": "https://dc.lft.to/lastmile_qr_scan"}, "bike_id": "a8d919d6310d053410d6b7037661c4b4", "type": "electric_bike", "lon": -76.9810335, "is_reserved": 0, "fusion_lat": 0.0, "fusion_lon": 0.0}, {"name": "b4cb39f2b316c1d74d849dcf1c5e16b3", "is_disabled": 0, "lat": 38.93414166666667, "rental_uris": {"ios": "https://dc.lft.to/lastmile_qr_scan", "android": "https://dc.lft.to/lastmile_qr_scan"}, "bike_id": "b4cb39f2b316c1d74d849dcf1c5e16b3", "type": "electric_bike", "lon": -77.04305833333333, "is_reserved": 0, "fusion_lat": 0.0, "fusion_lon": 0.0}, {"name": "212c5c59fa32916ef3f3e1133b8353e9", "is_disabled": 0, "lat": 38.8771135, "rental_uris": {"ios": "https://dc.lft.to/lastmile_qr_scan", "android": "https://dc.lft.to/lastmile_qr_scan"}, "bike_id": "212c5c59fa32916ef3f3e1133b8353e9", "type": "electric_scooter", "lon": -77.01912833333333, "is_reserved": 0, "fusion_lat": 0.0, "fusion_lon": 0.0}, {"name": "2c63435fc9930783444377e2769a2dc3", "is_disabled": 0, "lat": 38.9014965, "rental_uris": {"ios": "https://dc.lft.to/lastmile_qr_scan", "android": "https://dc.lft.to/lastmile_qr_scan"}, "bike_id": "2c63435fc9930783444377e2769a2dc3", "type": "electric_scooter", "lon": -77.0417425, "is_reserved": 0, "fusion_lat": 0.0, "fusion_lon": 0.0}, {"name": "481c7e49ebd15fcae0a53dfa87678b0a", "is_disabled": 0, "lat": 38.90347583333333, "rental_uris": {"ios": "https://dc.lft.to/lastmile_qr_scan", "android": "https://dc.lft.to/lastmile_qr_scan"}, "bike_id": "481c7e49ebd15fcae0a53dfa87678b0a", "type": "electric_scooter", "lon": -77.00741683333334, "is_reserved": 0, "fusion_lat": 0.0, "fusion_lon": 0.0}, {"name": "7f4d406da92abdffecd52da95f97932e", "is_disabled": 0, "lat": 38.908055833333336, "rental_uris": {"ios": "https://dc.lft.to/lastmile_qr_scan", "android": "https://dc.lft.to/lastmile_qr_scan"}, "bike_id": "7f4d406da92abdffecd52da95f97932e", "type": "electric_scooter", "lon": -77.03453583333334, "is_reserved": 0, "fusion_lat": 0.0, "fusion_lon": 0.0}, {"name": "59a96cc8e07c67f1012328ac823dc2b2", "is_disabled": 0, "lat": 38.89721616666667, "rental_uris": {"ios": "https://dc.lft.to/lastmile_qr_scan", "android": "https://dc.lft.to/lastmile_qr_scan"}, "bike_id": "59a96cc8e07c67f1012328ac823dc2b2", "type": "electric_scooter", "lon": -77.028191, "is_reserved": 0, "fusion_lat": 0.0, "fusion_lon": 0.0}, {"name": "5d136cd658d5ba55002ff6d0f7935596", "is_disabled": 0, "lat": 38.90646983333333, "rental_uris": {"ios": "https://dc.lft.to/lastmile_qr_scan", "android": "https://dc.lft.to/lastmile_qr_scan"}, "bike_id": "5d136cd658d5ba55002ff6d0f7935596", "type": "electric_scooter", "lon": -77.00697733333334, "is_reserved": 0, "fusion_lat": 0.0, "fusion_lon": 0.0}, {"name": "6403c73f2c143b1ecfd49a3d33d2ed27", "is_disabled": 0, "lat": 38.92618433333333, "rental_uris": {"ios": "https://dc.lft.to/lastmile_qr_scan", "android": "https://dc.lft.to/lastmile_qr_scan"}, "bike_id": "6403c73f2c143b1ecfd49a3d33d2ed27", "type": "electric_scooter", "lon": -77.04199516666667, "is_reserved": 0, "fusion_lat": 0.0, "fusion_lon": 0.0}, {"name": "83f21af4239be0e28f65c4fe66355ff1", "is_disabled": 0, "lat": 38.887086, "rental_uris": {"ios": "https://dc.lft.to/lastmile_qr_scan", "android": "https://dc.lft.to/lastmile_qr_scan"}, "bike_id": "83f21af4239be0e28f65c4fe66355ff1", "type": "electric_scooter", "lon": -77.0258205, "is_reserved": 0, "fusion_lat": 0.0, "fusion_lon": 0.0}, {"name": "72b51a389915c3974758f0c5b1c13730", "is_disabled": 0, "lat": 38.849104833333335, "rental_uris": {"ios": "https://dc.lft.to/lastmile_qr_scan", "android": "https://dc.lft.to/lastmile_qr_scan"}, "bike_id": "72b51a389915c3974758f0c5b1c13730", "type": "electric_bike", "lon": -77.09986066666667, "is_reserved": 0, "fusion_lat": 0.0, "fusion_lon": 0.0}, {"name": "c8fafd67289ee05d19698c3af4b5fe8b", "is_disabled": 0, "lat": 38.85082933333333, "rental_uris": {"ios": "https://dc.lft.to/lastmile_qr_scan", "android": "https://dc.lft.to/lastmile_qr_scan"}, "bike_id": "c8fafd67289ee05d19698c3af4b5fe8b", "type": "electric_bike", "lon": -76.95671416666667, "is_reserved": 0, "fusion_lat": 0.0, "fusion_lon": 0.0}, {"name": "119e5a5f6cb1c773f3e7e98c76a2e972", "is_disabled": 0, "lat": 38.873724, "rental_uris": {"ios": "https://dc.lft.to/lastmile_qr_scan", "android": "https://dc.lft.to/lastmile_qr_scan"}, "bike_id": "119e5a5f6cb1c773f3e7e98c76a2e972", "type": "electric_scooter", "lon": -77.00169916666667, "is_reserved": 0, "fusion_lat": 0.0, "fusion_lon": 0.0}, {"name": "e436f0a9d128160efae5f64df9fadc01", "is_disabled": 0, "lat": 38.865359833333336, "rental_uris": {"ios": "https://dc.lft.to/lastmile_qr_scan", "android": "https://dc.lft.to/lastmile_qr_scan"}, "bike_id": "e436f0a9d128160efae5f64df9fadc01", "type": "electric_scooter", "lon": -76.987094, "is_reserved": 0, "fusion_lat": 0.0, "fusion_lon": 0.0}, {"name": "c65d4ab3cf7441e08f192611390db46f", "is_disabled": 0, "lat": 38.9049165, "rental_uris": {"ios": "https://dc.lft.to/lastmile_qr_scan", "android": "https://dc.lft.to/lastmile_qr_scan"}, "bike_id": "c65d4ab3cf7441e08f192611390db46f", "type": "electric_scooter", "lon": -77.046592, "is_reserved": 0, "fusion_lat": 0.0, "fusion_lon": 0.0}, {"name": "1e952012a56f524b8afa34ca8a74d143", "is_disabled": 0, "lat": 38.918395, "rental_uris": {"ios": "https://dc.lft.to/lastmile_qr_scan", "android": "https://dc.lft.to/lastmile_qr_scan"}, "bike_id": "1e952012a56f524b8afa34ca8a74d143", "type": "electric_scooter", "lon": -77.04099416666666, "is_reserved": 0, "fusion_lat": 0.0, "fusion_lon": 0.0}, {"name": "3e6d1382db469016db0ab41f4cb4e257", "is_disabled": 0, "lat": 38.892183333333335, "rental_uris": {"ios": "https://dc.lft.to/lastmile_qr_scan", "android": "https://dc.lft.to/lastmile_qr_scan"}, "bike_id": "3e6d1382db469016db0ab41f4cb4e257", "type": "electric_scooter", "lon": -77.046475, "is_reserved": 0, "fusion_lat": 0.0, "fusion_lon": 0.0}, {"name": "1a045aad5d3feefa7698a8b1bd32f2da", "is_disabled": 0, "lat": 38.930687666666664, "rental_uris": {"ios": "https://dc.lft.to/lastmile_qr_scan", "android": "https://dc.lft.to/lastmile_qr_scan"}, "bike_id": "1a045aad5d3feefa7698a8b1bd32f2da", "type": "electric_scooter", "lon": -77.02165333333333, "is_reserved": 0, "fusion_lat": 0.0, "fusion_lon": 0.0}, {"name": "1e214554c0be64f4d70870b6d4df4660", "is_disabled": 0, "lat": 38.934415666666666, "rental_uris": {"ios": "https://dc.lft.to/lastmile_qr_scan", "android": "https://dc.lft.to/lastmile_qr_scan"}, "bike_id": "1e214554c0be64f4d70870b6d4df4660", "type": "electric_scooter", "lon": -77.02977933333334, "is_reserved": 0, "fusion_lat": 0.0, "fusion_lon": 0.0}, {"name": "ec9b27a70a8910aa80a947078dced82c", "is_disabled": 0, "lat": 38.878176, "rental_uris": {"ios": "https://dc.lft.to/lastmile_qr_scan", "android": "https://dc.lft.to/lastmile_qr_scan"}, "bike_id": "ec9b27a70a8910aa80a947078dced82c", "type": "electric_scooter", "lon": -77.00140316666666, "is_reserved": 0, "fusion_lat": 0.0, "fusion_lon": 0.0}, {"name": "5e2f66026ef2f666dde3efaad1fb0501", "is_disabled": 0, "lat": 38.84931566666667, "rental_uris": {"ios": "https://dc.lft.to/lastmile_qr_scan", "android": "https://dc.lft.to/lastmile_qr_scan"}, "bike_id": "5e2f66026ef2f666dde3efaad1fb0501", "type": "electric_bike", "lon": -77.07780683333333, "is_reserved": 0, "fusion_lat": 0.0, "fusion_lon": 0.0}, {"name": "5000cc91db6948a069f38bf6bb3f1860", "is_disabled": 0, "lat": 38.87482216666667, "rental_uris": {"ios": "https://dc.lft.to/lastmile_qr_scan", "android": "https://dc.lft.to/lastmile_qr_scan"}, "bike_id": "5000cc91db6948a069f38bf6bb3f1860", "type": "electric_scooter", "lon": -77.00852516666667, "is_reserved": 0, "fusion_lat": 0.0, "fusion_lon": 0.0}, {"name": "1ffb8bcba0fd044424caa4037e496dc0", "is_disabled": 0, "lat": 38.96438766666667, "rental_uris": {"ios": "https://dc.lft.to/lastmile_qr_scan", "android": "https://dc.lft.to/lastmile_qr_scan"}, "bike_id": "1ffb8bcba0fd044424caa4037e496dc0", "type": "electric_bike", "lon": -77.02075616666667, "is_reserved": 0, "fusion_lat": 0.0, "fusion_lon": 0.0}, {"name": "fb913fec768db95a2b2e997a3b856916", "is_disabled": 0, "lat": 38.91692233333333, "rental_uris": {"ios": "https://dc.lft.to/lastmile_qr_scan", "android": "https://dc.lft.to/lastmile_qr_scan"}, "bike_id": "fb913fec768db95a2b2e997a3b856916", "type": "electric_scooter", "lon": -77.02439883333334, "is_reserved": 0, "fusion_lat": 0.0, "fusion_lon": 0.0}, {"name": "c2a7fc32bed26df7a2a48876c59b3217", "is_disabled": 0, "lat": 38.91118216666667, "rental_uris": {"ios": "https://dc.lft.to/lastmile_qr_scan", "android": "https://dc.lft.to/lastmile_qr_scan"}, "bike_id": "c2a7fc32bed26df7a2a48876c59b3217", "type": "electric_scooter", "lon": -77.044742, "is_reserved": 0, "fusion_lat": 0.0, "fusion_lon": 0.0}, {"name": "57662a18d19c3ece4bc6bff9b931fa3f", "is_disabled": 0, "lat": 38.918358166666664, "rental_uris": {"ios": "https://dc.lft.to/lastmile_qr_scan", "android": "https://dc.lft.to/lastmile_qr_scan"}, "bike_id": "57662a18d19c3ece4bc6bff9b931fa3f", "type": "electric_scooter", "lon": -77.01611766666667, "is_reserved": 0, "fusion_lat": 0.0, "fusion_lon": 0.0}, {"name": "05f96a10aa623abbca823c0274b8f1d0", "is_disabled": 0, "lat": 38.92320516666667, "rental_uris": {"ios": "https://dc.lft.to/lastmile_qr_scan", "android": "https://dc.lft.to/lastmile_qr_scan"}, "bike_id": "05f96a10aa623abbca823c0274b8f1d0", "type": "electric_scooter", "lon": -77.02701133333333, "is_reserved": 0, "fusion_lat": 0.0, "fusion_lon": 0.0}, {"name": "e20a88764f1bb0cb73e4a72de9f3102e", "is_disabled": 0, "lat": 38.9206445, "rental_uris": {"ios": "https://dc.lft.to/lastmile_qr_scan", "android": "https://dc.lft.to/lastmile_qr_scan"}, "bike_id": "e20a88764f1bb0cb73e4a72de9f3102e", "type": "electric_scooter", "lon": -77.03209766666667, "is_reserved": 0, "fusion_lat": 0.0, "fusion_lon": 0.0}, {"name": "d8ceec3cbee369c99cfb0cfee960fc40", "is_disabled": 0, "lat": 38.920184166666665, "rental_uris": {"ios": "https://dc.lft.to/lastmile_qr_scan", "android": "https://dc.lft.to/lastmile_qr_scan"}, "bike_id": "d8ceec3cbee369c99cfb0cfee960fc40", "type": "electric_scooter", "lon": -77.081967, "is_reserved": 0, "fusion_lat": 0.0, "fusion_lon": 0.0}, {"name": "8cf9bdbe41ecb6623c16a80f591bf4db", "is_disabled": 0, "lat": 38.8951645, "rental_uris": {"ios": "https://dc.lft.to/lastmile_qr_scan", "android": "https://dc.lft.to/lastmile_qr_scan"}, "bike_id": "8cf9bdbe41ecb6623c16a80f591bf4db", "type": "electric_scooter", "lon": -77.00364816666666, "is_reserved": 0, "fusion_lat": 0.0, "fusion_lon": 0.0}, {"name": "98368c7d7b8b4177758b1104cf4a2228", "is_disabled": 0, "lat": 38.91805333333333, "rental_uris": {"ios": "https://dc.lft.to/lastmile_qr_scan", "android": "https://dc.lft.to/lastmile_qr_scan"}, "bike_id": "98368c7d7b8b4177758b1104cf4a2228", "type": "electric_scooter", "lon": -77.02688116666667, "is_reserved": 0, "fusion_lat": 0.0, "fusion_lon": 0.0}, {"name": "145ea83c4c3fb7832159fcc88fc148ca", "is_disabled": 0, "lat": 38.90404783333334, "rental_uris": {"ios": "https://dc.lft.to/lastmile_qr_scan", "android": "https://dc.lft.to/lastmile_qr_scan"}, "bike_id": "145ea83c4c3fb7832159fcc88fc148ca", "type": "electric_scooter", "lon": -77.06813583333333, "is_reserved": 0, "fusion_lat": 0.0, "fusion_lon": 0.0}, {"name": "5b64ab8ee3a086258bf03dbf78623fc0", "is_disabled": 0, "lat": 38.92232633333333, "rental_uris": {"ios": "https://dc.lft.to/lastmile_qr_scan", "android": "https://dc.lft.to/lastmile_qr_scan"}, "bike_id": "5b64ab8ee3a086258bf03dbf78623fc0", "type": "electric_scooter", "lon": -77.042491, "is_reserved": 0, "fusion_lat": 0.0, "fusion_lon": 0.0}, {"name": "3fcd43d76c46370f79f4753ad706ff30", "is_disabled": 0, "lat": 38.89217466666667, "rental_uris": {"ios": "https://dc.lft.to/lastmile_qr_scan", "android": "https://dc.lft.to/lastmile_qr_scan"}, "bike_id": "3fcd43d76c46370f79f4753ad706ff30", "type": "electric_scooter", "lon": -77.03338, "is_reserved": 0, "fusion_lat": 0.0, "fusion_lon": 0.0}, {"name": "c89aba1c4f6a9e7abf29a652385a1844", "is_disabled": 0, "lat": 38.900423833333335, "rental_uris": {"ios": "https://dc.lft.to/lastmile_qr_scan", "android": "https://dc.lft.to/lastmile_qr_scan"}, "bike_id": "c89aba1c4f6a9e7abf29a652385a1844", "type": "electric_scooter", "lon": -76.991462, "is_reserved": 0, "fusion_lat": 0.0, "fusion_lon": 0.0}, {"name": "e98e54ff31ec704f8d21974bea0ca15b", "is_disabled": 0, "lat": 38.8928075, "rental_uris": {"ios": "https://dc.lft.to/lastmile_qr_scan", "android": "https://dc.lft.to/lastmile_qr_scan"}, "bike_id": "e98e54ff31ec704f8d21974bea0ca15b", "type": "electric_scooter", "lon": -76.92999316666666, "is_reserved": 0, "fusion_lat": 0.0, "fusion_lon": 0.0}, {"name": "2a82bd71672ad013cfae24967352f50a", "is_disabled": 0, "lat": 38.81246433333333, "rental_uris": {"ios": "https://dc.lft.to/lastmile_qr_scan", "android": "https://dc.lft.to/lastmile_qr_scan"}, "bike_id": "2a82bd71672ad013cfae24967352f50a", "type": "electric_bike", "lon": -77.11773266666667, "is_reserved": 0, "fusion_lat": 0.0, "fusion_lon": 0.0}, {"name": "633d8379c507385da082f1148b071a28", "is_disabled": 0, "lat": 38.80754683333333, "rental_uris": {"ios": "https://dc.lft.to/lastmile_qr_scan", "android": "https://dc.lft.to/lastmile_qr_scan"}, "bike_id": "633d8379c507385da082f1148b071a28", "type": "electric_bike", "lon": -77.09467283333333, "is_reserved": 0, "fusion_lat": 0.0, "fusion_lon": 0.0}, {"name": "c37cf184b1b315cc1e48ca7135ae122b", "is_disabled": 0, "lat": 38.901176166666666, "rental_uris": {"ios": "https://dc.lft.to/lastmile_qr_scan", "android": "https://dc.lft.to/lastmile_qr_scan"}, "bike_id": "c37cf184b1b315cc1e48ca7135ae122b", "type": "electric_scooter", "lon": -77.04975816666666, "is_reserved": 0, "fusion_lat": 0.0, "fusion_lon": 0.0}, {"name": "0f34a69bbbc0a49a11d39c7c06283e50", "is_disabled": 0, "lat": 38.862155, "rental_uris": {"ios": "https://dc.lft.to/lastmile_qr_scan", "android": "https://dc.lft.to/lastmile_qr_scan"}, "bike_id": "0f34a69bbbc0a49a11d39c7c06283e50", "type": "electric_bike", "lon": -76.99488666666667, "is_reserved": 0, "fusion_lat": 0.0, "fusion_lon": 0.0}, {"name": "5cf020ac2c3d5939f731a8d21dd98abc", "is_disabled": 0, "lat": 38.87891333333334, "rental_uris": {"ios": "https://dc.lft.to/lastmile_qr_scan", "android": "https://dc.lft.to/lastmile_qr_scan"}, "bike_id": "5cf020ac2c3d5939f731a8d21dd98abc", "type": "electric_scooter", "lon": -77.00798616666667, "is_reserved": 0, "fusion_lat": 0.0, "fusion_lon": 0.0}, {"name": "0d6d62d4562e7b18f3456d959da1e1ed", "is_disabled": 0, "lat": 38.907417333333335, "rental_uris": {"ios": "https://dc.lft.to/lastmile_qr_scan", "android": "https://dc.lft.to/lastmile_qr_scan"}, "bike_id": "0d6d62d4562e7b18f3456d959da1e1ed", "type": "electric_scooter", "lon": -76.93550166666667, "is_reserved": 0, "fusion_lat": 0.0, "fusion_lon": 0.0}, {"name": "826bc2186e1bfe0009760d77f91d0d41", "is_disabled": 0, "lat": 38.9267125, "rental_uris": {"ios": "https://dc.lft.to/lastmile_qr_scan", "android": "https://dc.lft.to/lastmile_qr_scan"}, "bike_id": "826bc2186e1bfe0009760d77f91d0d41", "type": "electric_scooter", "lon": -77.01473283333333, "is_reserved": 0, "fusion_lat": 0.0, "fusion_lon": 0.0}, {"name": "4e3458cd383ee51587d4208f5ca31b80", "is_disabled": 0, "lat": 38.873686666666664, "rental_uris": {"ios": "https://dc.lft.to/lastmile_qr_scan", "android": "https://dc.lft.to/lastmile_qr_scan"}, "bike_id": "4e3458cd383ee51587d4208f5ca31b80", "type": "electric_scooter", "lon": -77.00130066666667, "is_reserved": 0, "fusion_lat": 0.0, "fusion_lon": 0.0}, {"name": "a26c20492f3ca1cdc21435a012419d8c", "is_disabled": 0, "lat": 38.904685, "rental_uris": {"ios": "https://dc.lft.to/lastmile_qr_scan", "android": "https://dc.lft.to/lastmile_qr_scan"}, "bike_id": "a26c20492f3ca1cdc21435a012419d8c", "type": "electric_scooter", "lon": -77.038309, "is_reserved": 0, "fusion_lat": 0.0, "fusion_lon": 0.0}, {"name": "97458177c3718a012dd69f0ff6c1f12b", "is_disabled": 0, "lat": 38.860588, "rental_uris": {"ios": "https://dc.lft.to/lastmile_qr_scan", "android": "https://dc.lft.to/lastmile_qr_scan"}, "bike_id": "97458177c3718a012dd69f0ff6c1f12b", "type": "electric_scooter", "lon": -76.967177, "is_reserved": 0, "fusion_lat": 0.0, "fusion_lon": 0.0}, {"name": "bdc69bcbaaeb56d9ea457004d46f0012", "is_disabled": 0, "lat": 38.891798, "rental_uris": {"ios": "https://dc.lft.to/lastmile_qr_scan", "android": "https://dc.lft.to/lastmile_qr_scan"}, "bike_id": "bdc69bcbaaeb56d9ea457004d46f0012", "type": "electric_scooter", "lon": -77.01595466666667, "is_reserved": 0, "fusion_lat": 0.0, "fusion_lon": 0.0}, {"name": "55e3853e133d411171c455b864cf8008", "is_disabled": 0, "lat": 38.9175925, "rental_uris": {"ios": "https://dc.lft.to/lastmile_qr_scan", "android": "https://dc.lft.to/lastmile_qr_scan"}, "bike_id": "55e3853e133d411171c455b864cf8008", "type": "electric_scooter", "lon": -77.02271266666666, "is_reserved": 0, "fusion_lat": 0.0, "fusion_lon": 0.0}, {"name": "60a68f5147fd8871983d7323dd4bb859", "is_disabled": 0, "lat": 38.90277616666667, "rental_uris": {"ios": "https://dc.lft.to/lastmile_qr_scan", "android": "https://dc.lft.to/lastmile_qr_scan"}, "bike_id": "60a68f5147fd8871983d7323dd4bb859", "type": "electric_scooter", "lon": -77.03267783333334, "is_reserved": 0, "fusion_lat": 0.0, "fusion_lon": 0.0}, {"name": "0131f47a1f1093660cfcc8c981792e49", "is_disabled": 0, "lat": 38.873870333333336, "rental_uris": {"ios": "https://dc.lft.to/lastmile_qr_scan", "android": "https://dc.lft.to/lastmile_qr_scan"}, "bike_id": "0131f47a1f1093660cfcc8c981792e49", "type": "electric_scooter", "lon": -77.00039816666667, "is_reserved": 0, "fusion_lat": 0.0, "fusion_lon": 0.0}, {"name": "eae269ba9d5c3e1245e2d40ebf666d86", "is_disabled": 0, "lat": 38.91120333333333, "rental_uris": {"ios": "https://dc.lft.to/lastmile_qr_scan", "android": "https://dc.lft.to/lastmile_qr_scan"}, "bike_id": "eae269ba9d5c3e1245e2d40ebf666d86", "type": "electric_scooter", "lon": -77.02188766666667, "is_reserved": 0, "fusion_lat": 0.0, "fusion_lon": 0.0}, {"name": "c132d7c927b157e14e403c8ad9169006", "is_disabled": 0, "lat": 38.8535805, "rental_uris": {"ios": "https://dc.lft.to/lastmile_qr_scan", "android": "https://dc.lft.to/lastmile_qr_scan"}, "bike_id": "c132d7c927b157e14e403c8ad9169006", "type": "electric_bike", "lon": -77.1147345, "is_reserved": 0, "fusion_lat": 0.0, "fusion_lon": 0.0}, {"name": "8f709db78d1b2a657d5a21a6c13946b6", "is_disabled": 0, "lat": 38.917006, "rental_uris": {"ios": "https://dc.lft.to/lastmile_qr_scan", "android": "https://dc.lft.to/lastmile_qr_scan"}, "bike_id": "8f709db78d1b2a657d5a21a6c13946b6", "type": "electric_scooter", "lon": -77.03036183333333, "is_reserved": 0, "fusion_lat": 0.0, "fusion_lon": 0.0}, {"name": "6b50a57c35d68518e9a362756e507fcf", "is_disabled": 0, "lat": 38.923108666666664, "rental_uris": {"ios": "https://dc.lft.to/lastmile_qr_scan", "android": "https://dc.lft.to/lastmile_qr_scan"}, "bike_id": "6b50a57c35d68518e9a362756e507fcf", "type": "electric_scooter", "lon": -77.0435365, "is_reserved": 0, "fusion_lat": 0.0, "fusion_lon": 0.0}, {"name": "82331c4f507ab2109e314dd7bf323819", "is_disabled": 0, "lat": 38.91809383333333, "rental_uris": {"ios": "https://dc.lft.to/lastmile_qr_scan", "android": "https://dc.lft.to/lastmile_qr_scan"}, "bike_id": "82331c4f507ab2109e314dd7bf323819", "type": "electric_scooter", "lon": -77.031817, "is_reserved": 0, "fusion_lat": 0.0, "fusion_lon": 0.0}, {"name": "82e0915d75896816e5cba31b54fefbbf", "is_disabled": 0, "lat": 38.88716383333333, "rental_uris": {"ios": "https://dc.lft.to/lastmile_qr_scan", "android": "https://dc.lft.to/lastmile_qr_scan"}, "bike_id": "82e0915d75896816e5cba31b54fefbbf", "type": "electric_scooter", "lon": -77.0258475, "is_reserved": 0, "fusion_lat": 0.0, "fusion_lon": 0.0}, {"name": "d8675c2e28ed72908854a4dcfa744f23", "is_disabled": 0, "lat": 38.89770083333333, "rental_uris": {"ios": "https://dc.lft.to/lastmile_qr_scan", "android": "https://dc.lft.to/lastmile_qr_scan"}, "bike_id": "d8675c2e28ed72908854a4dcfa744f23", "type": "electric_scooter", "lon": -76.98465733333333, "is_reserved": 0, "fusion_lat": 0.0, "fusion_lon": 0.0}, {"name": "3c9a516b5623fb8e5112305b70ae2462", "is_disabled": 0, "lat": 38.90018533333333, "rental_uris": {"ios": "https://dc.lft.to/lastmile_qr_scan", "android": "https://dc.lft.to/lastmile_qr_scan"}, "bike_id": "3c9a516b5623fb8e5112305b70ae2462", "type": "electric_scooter", "lon": -77.01161483333334, "is_reserved": 0, "fusion_lat": 0.0, "fusion_lon": 0.0}, {"name": "8d908705cbdb5864aa787e28e24f96d9", "is_disabled": 0, "lat": 38.86886833333333, "rental_uris": {"ios": "https://dc.lft.to/lastmile_qr_scan", "android": "https://dc.lft.to/lastmile_qr_scan"}, "bike_id": "8d908705cbdb5864aa787e28e24f96d9", "type": "electric_scooter", "lon": -76.9900185, "is_reserved": 0, "fusion_lat": 0.0, "fusion_lon": 0.0}, {"name": "ed49fbe0a6f2198cee368b05e381990b", "is_disabled": 0, "lat": 38.94314166666667, "rental_uris": {"ios": "https://dc.lft.to/lastmile_qr_scan", "android": "https://dc.lft.to/lastmile_qr_scan"}, "bike_id": "ed49fbe0a6f2198cee368b05e381990b", "type": "electric_scooter", "lon": -77.06137166666667, "is_reserved": 0, "fusion_lat": 0.0, "fusion_lon": 0.0}, {"name": "e8ca6910cbada7fa2a6c4795fd250e86", "is_disabled": 0, "lat": 38.91909783333333, "rental_uris": {"ios": "https://dc.lft.to/lastmile_qr_scan", "android": "https://dc.lft.to/lastmile_qr_scan"}, "bike_id": "e8ca6910cbada7fa2a6c4795fd250e86", "type": "electric_scooter", "lon": -77.0273215, "is_reserved": 0, "fusion_lat": 0.0, "fusion_lon": 0.0}, {"name": "06d1a288c26a013a79e5f40654c1317b", "is_disabled": 0, "lat": 39.03420166666667, "rental_uris": {"ios": "https://dc.lft.to/lastmile_qr_scan", "android": "https://dc.lft.to/lastmile_qr_scan"}, "bike_id": "06d1a288c26a013a79e5f40654c1317b", "type": "electric_bike", "lon": -77.04301983333333, "is_reserved": 0, "fusion_lat": 0.0, "fusion_lon": 0.0}, {"name": "170ed703bcac60096df76444df9ddf5c", "is_disabled": 0, "lat": 38.929212166666666, "rental_uris": {"ios": "https://dc.lft.to/lastmile_qr_scan", "android": "https://dc.lft.to/lastmile_qr_scan"}, "bike_id": "170ed703bcac60096df76444df9ddf5c", "type": "electric_scooter", "lon": -77.03258983333333, "is_reserved": 0, "fusion_lat": 0.0, "fusion_lon": 0.0}, {"name": "55d5f91f7dcc6cd0804dc52f92b8d02b", "is_disabled": 0, "lat": 38.874755, "rental_uris": {"ios": "https://dc.lft.to/lastmile_qr_scan", "android": "https://dc.lft.to/lastmile_qr_scan"}, "bike_id": "55d5f91f7dcc6cd0804dc52f92b8d02b", "type": "electric_scooter", "lon": -77.00579883333333, "is_reserved": 0, "fusion_lat": 0.0, "fusion_lon": 0.0}, {"name": "b20b5625fb816ac0f90bb1a37a90deaa", "is_disabled": 0, "lat": 38.926824333333336, "rental_uris": {"ios": "https://dc.lft.to/lastmile_qr_scan", "android": "https://dc.lft.to/lastmile_qr_scan"}, "bike_id": "b20b5625fb816ac0f90bb1a37a90deaa", "type": "electric_scooter", "lon": -77.03147583333333, "is_reserved": 0, "fusion_lat": 0.0, "fusion_lon": 0.0}, {"name": "0703b27c53ce065a4dad69e6953beaaf", "is_disabled": 0, "lat": 38.88187516666667, "rental_uris": {"ios": "https://dc.lft.to/lastmile_qr_scan", "android": "https://dc.lft.to/lastmile_qr_scan"}, "bike_id": "0703b27c53ce065a4dad69e6953beaaf", "type": "electric_scooter", "lon": -77.00354816666666, "is_reserved": 0, "fusion_lat": 0.0, "fusion_lon": 0.0}, {"name": "3b1991a44b18859ad6d187b76b4992b3", "is_disabled": 0, "lat": 38.93018166666667, "rental_uris": {"ios": "https://dc.lft.to/lastmile_qr_scan", "android": "https://dc.lft.to/lastmile_qr_scan"}, "bike_id": "3b1991a44b18859ad6d187b76b4992b3", "type": "electric_scooter", "lon": -77.03791366666667, "is_reserved": 0, "fusion_lat": 0.0, "fusion_lon": 0.0}, {"name": "e62f51911cb7068370de8e0599156557", "is_disabled": 0, "lat": 38.89724316666667, "rental_uris": {"ios": "https://dc.lft.to/lastmile_qr_scan", "android": "https://dc.lft.to/lastmile_qr_scan"}, "bike_id": "e62f51911cb7068370de8e0599156557", "type": "electric_scooter", "lon": -77.0187765, "is_reserved": 0, "fusion_lat": 0.0, "fusion_lon": 0.0}, {"name": "00e26ab326c7fd1684808d53e1240c05", "is_disabled": 0, "lat": 38.90443283333333, "rental_uris": {"ios": "https://dc.lft.to/lastmile_qr_scan", "android": "https://dc.lft.to/lastmile_qr_scan"}, "bike_id": "00e26ab326c7fd1684808d53e1240c05", "type": "electric_scooter", "lon": -77.05329416666666, "is_reserved": 0, "fusion_lat": 0.0, "fusion_lon": 0.0}, {"name": "74adb35e5048caa7ad32a2174cbc4daa", "is_disabled": 0, "lat": 38.917974, "rental_uris": {"ios": "https://dc.lft.to/lastmile_qr_scan", "android": "https://dc.lft.to/lastmile_qr_scan"}, "bike_id": "74adb35e5048caa7ad32a2174cbc4daa", "type": "electric_scooter", "lon": -77.02714733333333, "is_reserved": 0, "fusion_lat": 0.0, "fusion_lon": 0.0}, {"name": "b1862a79746a4537abb3498fa36e0a31", "is_disabled": 0, "lat": 38.90382683333333, "rental_uris": {"ios": "https://dc.lft.to/lastmile_qr_scan", "android": "https://dc.lft.to/lastmile_qr_scan"}, "bike_id": "b1862a79746a4537abb3498fa36e0a31", "type": "electric_scooter", "lon": -76.97620883333333, "is_reserved": 0, "fusion_lat": 0.0, "fusion_lon": 0.0}, {"name": "eacb42ec09f4b9ba1709d6da0f20cf02", "is_disabled": 0, "lat": 38.9075635, "rental_uris": {"ios": "https://dc.lft.to/lastmile_qr_scan", "android": "https://dc.lft.to/lastmile_qr_scan"}, "bike_id": "eacb42ec09f4b9ba1709d6da0f20cf02", "type": "electric_scooter", "lon": -77.03601116666667, "is_reserved": 0, "fusion_lat": 0.0, "fusion_lon": 0.0}, {"name": "154896d5c3333d436640dfdfb7dbfba3", "is_disabled": 0, "lat": 38.874341666666666, "rental_uris": {"ios": "https://dc.lft.to/lastmile_qr_scan", "android": "https://dc.lft.to/lastmile_qr_scan"}, "bike_id": "154896d5c3333d436640dfdfb7dbfba3", "type": "electric_scooter", "lon": -77.00927, "is_reserved": 0, "fusion_lat": 0.0, "fusion_lon": 0.0}, {"name": "c806c0dda03e9663bb387e6b55a8bcf7", "is_disabled": 0, "lat": 38.90896866666667, "rental_uris": {"ios": "https://dc.lft.to/lastmile_qr_scan", "android": "https://dc.lft.to/lastmile_qr_scan"}, "bike_id": "c806c0dda03e9663bb387e6b55a8bcf7", "type": "electric_scooter", "lon": -77.07269166666667, "is_reserved": 0, "fusion_lat": 0.0, "fusion_lon": 0.0}, {"name": "47d989a5b32e7f2cb3aac9efc9ec303b", "is_disabled": 0, "lat": 38.892321833333334, "rental_uris": {"ios": "https://dc.lft.to/lastmile_qr_scan", "android": "https://dc.lft.to/lastmile_qr_scan"}, "bike_id": "47d989a5b32e7f2cb3aac9efc9ec303b", "type": "electric_scooter", "lon": -77.048768, "is_reserved": 0, "fusion_lat": 0.0, "fusion_lon": 0.0}, {"name": "e2b4cd3aa0e92004446b3b85f1c9a3b3", "is_disabled": 0, "lat": 38.90575833333333, "rental_uris": {"ios": "https://dc.lft.to/lastmile_qr_scan", "android": "https://dc.lft.to/lastmile_qr_scan"}, "bike_id": "e2b4cd3aa0e92004446b3b85f1c9a3b3", "type": "electric_scooter", "lon": -77.05706216666667, "is_reserved": 0, "fusion_lat": 0.0, "fusion_lon": 0.0}, {"name": "3ec3374f92f541fafa78b13213175ced", "is_disabled": 0, "lat": 38.92370916666667, "rental_uris": {"ios": "https://dc.lft.to/lastmile_qr_scan", "android": "https://dc.lft.to/lastmile_qr_scan"}, "bike_id": "3ec3374f92f541fafa78b13213175ced", "type": "electric_scooter", "lon": -77.02820033333333, "is_reserved": 0, "fusion_lat": 0.0, "fusion_lon": 0.0}, {"name": "3aacc51caadef1139974608efbf9aa06", "is_disabled": 0, "lat": 38.90864883333333, "rental_uris": {"ios": "https://dc.lft.to/lastmile_qr_scan", "android": "https://dc.lft.to/lastmile_qr_scan"}, "bike_id": "3aacc51caadef1139974608efbf9aa06", "type": "electric_scooter", "lon": -76.99796583333334, "is_reserved": 0, "fusion_lat": 0.0, "fusion_lon": 0.0}, {"name": "e5783c35d1b6531760490b3aa4106dc1", "is_disabled": 0, "lat": 38.91035766666667, "rental_uris": {"ios": "https://dc.lft.to/lastmile_qr_scan", "android": "https://dc.lft.to/lastmile_qr_scan"}, "bike_id": "e5783c35d1b6531760490b3aa4106dc1", "type": "electric_scooter", "lon": -77.042668, "is_reserved": 0, "fusion_lat": 0.0, "fusion_lon": 0.0}, {"name": "2a085aa60f05c93fb286f590180c1ccc", "is_disabled": 0, "lat": 38.92128866666667, "rental_uris": {"ios": "https://dc.lft.to/lastmile_qr_scan", "android": "https://dc.lft.to/lastmile_qr_scan"}, "bike_id": "2a085aa60f05c93fb286f590180c1ccc", "type": "electric_scooter", "lon": -77.00950766666666, "is_reserved": 0, "fusion_lat": 0.0, "fusion_lon": 0.0}, {"name": "f551d1544e7e6ca3c54c8c0b15a9af12", "is_disabled": 0, "lat": 38.90355266666667, "rental_uris": {"ios": "https://dc.lft.to/lastmile_qr_scan", "android": "https://dc.lft.to/lastmile_qr_scan"}, "bike_id": "f551d1544e7e6ca3c54c8c0b15a9af12", "type": "electric_scooter", "lon": -77.046643, "is_reserved": 0, "fusion_lat": 0.0, "fusion_lon": 0.0}, {"name": "3746245834d6cb4e3956ac2b2ab5416d", "is_disabled": 0, "lat": 38.919216666666664, "rental_uris": {"ios": "https://dc.lft.to/lastmile_qr_scan", "android": "https://dc.lft.to/lastmile_qr_scan"}, "bike_id": "3746245834d6cb4e3956ac2b2ab5416d", "type": "electric_scooter", "lon": -77.03184183333333, "is_reserved": 0, "fusion_lat": 0.0, "fusion_lon": 0.0}, {"name": "6c6ec4e673aab2f148516b0fc6bfbb4d", "is_disabled": 0, "lat": 38.900143166666666, "rental_uris": {"ios": "https://dc.lft.to/lastmile_qr_scan", "android": "https://dc.lft.to/lastmile_qr_scan"}, "bike_id": "6c6ec4e673aab2f148516b0fc6bfbb4d", "type": "electric_scooter", "lon": -76.9986555, "is_reserved": 0, "fusion_lat": 0.0, "fusion_lon": 0.0}, {"name": "9570b54b5fd337f27034fbfe0fbe44b1", "is_disabled": 0, "lat": 38.91108166666667, "rental_uris": {"ios": "https://dc.lft.to/lastmile_qr_scan", "android": "https://dc.lft.to/lastmile_qr_scan"}, "bike_id": "9570b54b5fd337f27034fbfe0fbe44b1", "type": "electric_scooter", "lon": -77.04544966666667, "is_reserved": 0, "fusion_lat": 0.0, "fusion_lon": 0.0}, {"name": "548f3721dde0d5128aef85cb20821488", "is_disabled": 0, "lat": 38.950857, "rental_uris": {"ios": "https://dc.lft.to/lastmile_qr_scan", "android": "https://dc.lft.to/lastmile_qr_scan"}, "bike_id": "548f3721dde0d5128aef85cb20821488", "type": "electric_bike", "lon": -76.997961, "is_reserved": 0, "fusion_lat": 0.0, "fusion_lon": 0.0}, {"name": "4233b1311dbea15116dd675467203bac", "is_disabled": 0, "lat": 38.875295333333334, "rental_uris": {"ios": "https://dc.lft.to/lastmile_qr_scan", "android": "https://dc.lft.to/lastmile_qr_scan"}, "bike_id": "4233b1311dbea15116dd675467203bac", "type": "electric_scooter", "lon": -77.005056, "is_reserved": 0, "fusion_lat": 0.0, "fusion_lon": 0.0}, {"name": "bf6d1e2bfba0551713dfa03fe4095409", "is_disabled": 0, "lat": 38.90859433333333, "rental_uris": {"ios": "https://dc.lft.to/lastmile_qr_scan", "android": "https://dc.lft.to/lastmile_qr_scan"}, "bike_id": "bf6d1e2bfba0551713dfa03fe4095409", "type": "electric_scooter", "lon": -77.0242005, "is_reserved": 0, "fusion_lat": 0.0, "fusion_lon": 0.0}, {"name": "6160e26b60f0f9ce8dae4fe90e39627c", "is_disabled": 0, "lat": 38.8872655, "rental_uris": {"ios": "https://dc.lft.to/lastmile_qr_scan", "android": "https://dc.lft.to/lastmile_qr_scan"}, "bike_id": "6160e26b60f0f9ce8dae4fe90e39627c", "type": "electric_scooter", "lon": -77.03206216666666, "is_reserved": 0, "fusion_lat": 0.0, "fusion_lon": 0.0}, {"name": "1d3eefd2272a67b8c5f272355428ac72", "is_disabled": 0, "lat": 38.89544383333333, "rental_uris": {"ios": "https://dc.lft.to/lastmile_qr_scan", "android": "https://dc.lft.to/lastmile_qr_scan"}, "bike_id": "1d3eefd2272a67b8c5f272355428ac72", "type": "electric_scooter", "lon": -76.94949533333333, "is_reserved": 0, "fusion_lat": 0.0, "fusion_lon": 0.0}, {"name": "789658bb10e490410503cb2c4d7196b7", "is_disabled": 0, "lat": 38.891948166666666, "rental_uris": {"ios": "https://dc.lft.to/lastmile_qr_scan", "android": "https://dc.lft.to/lastmile_qr_scan"}, "bike_id": "789658bb10e490410503cb2c4d7196b7", "type": "electric_scooter", "lon": -77.0222085, "is_reserved": 0, "fusion_lat": 0.0, "fusion_lon": 0.0}, {"name": "48df81955edfb6ae9775f7124b179952", "is_disabled": 0, "lat": 38.90063333333333, "rental_uris": {"ios": "https://dc.lft.to/lastmile_qr_scan", "android": "https://dc.lft.to/lastmile_qr_scan"}, "bike_id": "48df81955edfb6ae9775f7124b179952", "type": "electric_scooter", "lon": -76.92744566666667, "is_reserved": 0, "fusion_lat": 0.0, "fusion_lon": 0.0}, {"name": "578a2c140b484d26ef1d74949c583fef", "is_disabled": 0, "lat": 38.957538666666665, "rental_uris": {"ios": "https://dc.lft.to/lastmile_qr_scan", "android": "https://dc.lft.to/lastmile_qr_scan"}, "bike_id": "578a2c140b484d26ef1d74949c583fef", "type": "electric_scooter", "lon": -77.02055116666666, "is_reserved": 0, "fusion_lat": 0.0, "fusion_lon": 0.0}, {"name": "b1ae90a7666b71a405c3030eb2348f19", "is_disabled": 0, "lat": 38.904191833333336, "rental_uris": {"ios": "https://dc.lft.to/lastmile_qr_scan", "android": "https://dc.lft.to/lastmile_qr_scan"}, "bike_id": "b1ae90a7666b71a405c3030eb2348f19", "type": "electric_scooter", "lon": -77.046526, "is_reserved": 0, "fusion_lat": 0.0, "fusion_lon": 0.0}, {"name": "c095e129dd9da42bb45ace1728eeaeec", "is_disabled": 0, "lat": 38.92362266666667, "rental_uris": {"ios": "https://dc.lft.to/lastmile_qr_scan", "android": "https://dc.lft.to/lastmile_qr_scan"}, "bike_id": "c095e129dd9da42bb45ace1728eeaeec", "type": "electric_scooter", "lon": -77.05052466666666, "is_reserved": 0, "fusion_lat": 0.0, "fusion_lon": 0.0}, {"name": "38834e55a7f2f9a01426efd8fd7edb9b", "is_disabled": 0, "lat": 38.887264, "rental_uris": {"ios": "https://dc.lft.to/lastmile_qr_scan", "android": "https://dc.lft.to/lastmile_qr_scan"}, "bike_id": "38834e55a7f2f9a01426efd8fd7edb9b", "type": "electric_scooter", "lon": -77.0176625, "is_reserved": 0, "fusion_lat": 0.0, "fusion_lon": 0.0}, {"name": "f770149b12e53cbe868f79500e7a72b8", "is_disabled": 0, "lat": 38.896061, "rental_uris": {"ios": "https://dc.lft.to/lastmile_qr_scan", "android": "https://dc.lft.to/lastmile_qr_scan"}, "bike_id": "f770149b12e53cbe868f79500e7a72b8", "type": "electric_scooter", "lon": -77.02137983333333, "is_reserved": 0, "fusion_lat": 0.0, "fusion_lon": 0.0}, {"name": "48913585dab5c7b346611847847d752d", "is_disabled": 0, "lat": 38.927527166666664, "rental_uris": {"ios": "https://dc.lft.to/lastmile_qr_scan", "android": "https://dc.lft.to/lastmile_qr_scan"}, "bike_id": "48913585dab5c7b346611847847d752d", "type": "electric_scooter", "lon": -77.02426716666666, "is_reserved": 0, "fusion_lat": 0.0, "fusion_lon": 0.0}, {"name": "af72a0860c60d47696cb6ea6ad330131", "is_disabled": 0, "lat": 38.93700833333333, "rental_uris": {"ios": "https://dc.lft.to/lastmile_qr_scan", "android": "https://dc.lft.to/lastmile_qr_scan"}, "bike_id": "af72a0860c60d47696cb6ea6ad330131", "type": "electric_scooter", "lon": -77.0559515, "is_reserved": 0, "fusion_lat": 0.0, "fusion_lon": 0.0}, {"name": "5924091790dd3a223dc55b9354b692f5", "is_disabled": 0, "lat": 38.807592666666665, "rental_uris": {"ios": "https://dc.lft.to/lastmile_qr_scan", "android": "https://dc.lft.to/lastmile_qr_scan"}, "bike_id": "5924091790dd3a223dc55b9354b692f5", "type": "electric_bike", "lon": -77.129864, "is_reserved": 0, "fusion_lat": 0.0, "fusion_lon": 0.0}, {"name": "c5bfb47d5d5cd9a2a315c36528876159", "is_disabled": 0, "lat": 38.89551866666667, "rental_uris": {"ios": "https://dc.lft.to/lastmile_qr_scan", "android": "https://dc.lft.to/lastmile_qr_scan"}, "bike_id": "c5bfb47d5d5cd9a2a315c36528876159", "type": "electric_scooter", "lon": -76.94878466666667, "is_reserved": 0, "fusion_lat": 0.0, "fusion_lon": 0.0}, {"name": "ff5a392ce3313123dabf5661ce4daffa", "is_disabled": 0, "lat": 38.9011935, "rental_uris": {"ios": "https://dc.lft.to/lastmile_qr_scan", "android": "https://dc.lft.to/lastmile_qr_scan"}, "bike_id": "ff5a392ce3313123dabf5661ce4daffa", "type": "electric_scooter", "lon": -77.002137, "is_reserved": 0, "fusion_lat": 0.0, "fusion_lon": 0.0}, {"name": "ec973e0b6c9fd284a45e27588f58c920", "is_disabled": 0, "lat": 38.90024366666667, "rental_uris": {"ios": "https://dc.lft.to/lastmile_qr_scan", "android": "https://dc.lft.to/lastmile_qr_scan"}, "bike_id": "ec973e0b6c9fd284a45e27588f58c920", "type": "electric_scooter", "lon": -76.99139133333334, "is_reserved": 0, "fusion_lat": 0.0, "fusion_lon": 0.0}, {"name": "35617105b49843e4af0388a806b84cf6", "is_disabled": 0, "lat": 38.88732916666667, "rental_uris": {"ios": "https://dc.lft.to/lastmile_qr_scan", "android": "https://dc.lft.to/lastmile_qr_scan"}, "bike_id": "35617105b49843e4af0388a806b84cf6", "type": "electric_scooter", "lon": -77.0152, "is_reserved": 0, "fusion_lat": 0.0, "fusion_lon": 0.0}, {"name": "bdc4f9cdb8a376c2fb5f4c9734d046b4", "is_disabled": 0, "lat": 38.890369, "rental_uris": {"ios": "https://dc.lft.to/lastmile_qr_scan", "android": "https://dc.lft.to/lastmile_qr_scan"}, "bike_id": "bdc4f9cdb8a376c2fb5f4c9734d046b4", "type": "electric_scooter", "lon": -77.0297695, "is_reserved": 0, "fusion_lat": 0.0, "fusion_lon": 0.0}, {"name": "6ef684e98f27bb0c6454644f771ff19c", "is_disabled": 0, "lat": 38.88770433333333, "rental_uris": {"ios": "https://dc.lft.to/lastmile_qr_scan", "android": "https://dc.lft.to/lastmile_qr_scan"}, "bike_id": "6ef684e98f27bb0c6454644f771ff19c", "type": "electric_scooter", "lon": -77.02372683333333, "is_reserved": 0, "fusion_lat": 0.0, "fusion_lon": 0.0}, {"name": "8bca7ed2639dd563678f2b31213bb676", "is_disabled": 0, "lat": 38.92315383333333, "rental_uris": {"ios": "https://dc.lft.to/lastmile_qr_scan", "android": "https://dc.lft.to/lastmile_qr_scan"}, "bike_id": "8bca7ed2639dd563678f2b31213bb676", "type": "electric_scooter", "lon": -77.0402525, "is_reserved": 0, "fusion_lat": 0.0, "fusion_lon": 0.0}, {"name": "a149135af5ca3d8fbfac28eed6d34596", "is_disabled": 0, "lat": 38.8774995, "rental_uris": {"ios": "https://dc.lft.to/lastmile_qr_scan", "android": "https://dc.lft.to/lastmile_qr_scan"}, "bike_id": "a149135af5ca3d8fbfac28eed6d34596", "type": "electric_scooter", "lon": -77.0034245, "is_reserved": 0, "fusion_lat": 0.0, "fusion_lon": 0.0}, {"name": "4e9b9be96354c55cdd2a8fc32c2113c1", "is_disabled": 0, "lat": 38.89555683333333, "rental_uris": {"ios": "https://dc.lft.to/lastmile_qr_scan", "android": "https://dc.lft.to/lastmile_qr_scan"}, "bike_id": "4e9b9be96354c55cdd2a8fc32c2113c1", "type": "electric_scooter", "lon": -76.9487955, "is_reserved": 0, "fusion_lat": 0.0, "fusion_lon": 0.0}, {"name": "1c0f27cd8d370edc1431306661fc8424", "is_disabled": 0, "lat": 38.904918333333335, "rental_uris": {"ios": "https://dc.lft.to/lastmile_qr_scan", "android": "https://dc.lft.to/lastmile_qr_scan"}, "bike_id": "1c0f27cd8d370edc1431306661fc8424", "type": "electric_scooter", "lon": -77.0626355, "is_reserved": 0, "fusion_lat": 0.0, "fusion_lon": 0.0}, {"name": "4824ea82925919c941e3f270689c89b9", "is_disabled": 0, "lat": 38.9002735, "rental_uris": {"ios": "https://dc.lft.to/lastmile_qr_scan", "android": "https://dc.lft.to/lastmile_qr_scan"}, "bike_id": "4824ea82925919c941e3f270689c89b9", "type": "electric_scooter", "lon": -76.99853616666667, "is_reserved": 0, "fusion_lat": 0.0, "fusion_lon": 0.0}, {"name": "f37769f574e27f45376c81a4dd7a62e4", "is_disabled": 0, "lat": 38.8961025, "rental_uris": {"ios": "https://dc.lft.to/lastmile_qr_scan", "android": "https://dc.lft.to/lastmile_qr_scan"}, "bike_id": "f37769f574e27f45376c81a4dd7a62e4", "type": "electric_scooter", "lon": -77.01335666666667, "is_reserved": 0, "fusion_lat": 0.0, "fusion_lon": 0.0}, {"name": "bb88b2bac027289e96788d0da6a954c2", "is_disabled": 0, "lat": 38.90024233333333, "rental_uris": {"ios": "https://dc.lft.to/lastmile_qr_scan", "android": "https://dc.lft.to/lastmile_qr_scan"}, "bike_id": "bb88b2bac027289e96788d0da6a954c2", "type": "electric_scooter", "lon": -76.99605366666667, "is_reserved": 0, "fusion_lat": 0.0, "fusion_lon": 0.0}, {"name": "a81a712100c9b883729500f1ab79cce5", "is_disabled": 0, "lat": 38.89892016666667, "rental_uris": {"ios": "https://dc.lft.to/lastmile_qr_scan", "android": "https://dc.lft.to/lastmile_qr_scan"}, "bike_id": "a81a712100c9b883729500f1ab79cce5", "type": "electric_scooter", "lon": -77.03900933333334, "is_reserved": 0, "fusion_lat": 0.0, "fusion_lon": 0.0}, {"name": "ab36a11347814b8580d00a0b85d0f985", "is_disabled": 0, "lat": 38.9172505, "rental_uris": {"ios": "https://dc.lft.to/lastmile_qr_scan", "android": "https://dc.lft.to/lastmile_qr_scan"}, "bike_id": "ab36a11347814b8580d00a0b85d0f985", "type": "electric_scooter", "lon": -77.022961, "is_reserved": 0, "fusion_lat": 0.0, "fusion_lon": 0.0}, {"name": "c0b15b583e7db7477236d19c670a016b", "is_disabled": 0, "lat": 38.9079335, "rental_uris": {"ios": "https://dc.lft.to/lastmile_qr_scan", "android": "https://dc.lft.to/lastmile_qr_scan"}, "bike_id": "c0b15b583e7db7477236d19c670a016b", "type": "electric_scooter", "lon": -77.029518, "is_reserved": 0, "fusion_lat": 0.0, "fusion_lon": 0.0}, {"name": "2a1e260f8be62f2e9394e9ac567d83c0", "is_disabled": 0, "lat": 38.905286833333335, "rental_uris": {"ios": "https://dc.lft.to/lastmile_qr_scan", "android": "https://dc.lft.to/lastmile_qr_scan"}, "bike_id": "2a1e260f8be62f2e9394e9ac567d83c0", "type": "electric_bike", "lon": -76.99813066666667, "is_reserved": 0, "fusion_lat": 0.0, "fusion_lon": 0.0}, {"name": "e0de2a8f7ec358aab80ec14f00922285", "is_disabled": 0, "lat": 38.90929216666667, "rental_uris": {"ios": "https://dc.lft.to/lastmile_qr_scan", "android": "https://dc.lft.to/lastmile_qr_scan"}, "bike_id": "e0de2a8f7ec358aab80ec14f00922285", "type": "electric_scooter", "lon": -76.99974116666667, "is_reserved": 0, "fusion_lat": 0.0, "fusion_lon": 0.0}, {"name": "bfefad3a8d71ed06f98020b43463d5d0", "is_disabled": 0, "lat": 38.909334333333334, "rental_uris": {"ios": "https://dc.lft.to/lastmile_qr_scan", "android": "https://dc.lft.to/lastmile_qr_scan"}, "bike_id": "bfefad3a8d71ed06f98020b43463d5d0", "type": "electric_scooter", "lon": -77.02820916666667, "is_reserved": 0, "fusion_lat": 0.0, "fusion_lon": 0.0}, {"name": "5b8b89415f9b7b0ee5a3102b51343ce2", "is_disabled": 0, "lat": 38.903453166666665, "rental_uris": {"ios": "https://dc.lft.to/lastmile_qr_scan", "android": "https://dc.lft.to/lastmile_qr_scan"}, "bike_id": "5b8b89415f9b7b0ee5a3102b51343ce2", "type": "electric_scooter", "lon": -77.044913, "is_reserved": 0, "fusion_lat": 0.0, "fusion_lon": 0.0}, {"name": "442a01a6a895aa5427248a693ace1dae", "is_disabled": 0, "lat": 38.90898966666666, "rental_uris": {"ios": "https://dc.lft.to/lastmile_qr_scan", "android": "https://dc.lft.to/lastmile_qr_scan"}, "bike_id": "442a01a6a895aa5427248a693ace1dae", "type": "electric_scooter", "lon": -77.032141, "is_reserved": 0, "fusion_lat": 0.0, "fusion_lon": 0.0}, {"name": "c3842c9f4338679c24457f44a553a18f", "is_disabled": 0, "lat": 38.912651833333335, "rental_uris": {"ios": "https://dc.lft.to/lastmile_qr_scan", "android": "https://dc.lft.to/lastmile_qr_scan"}, "bike_id": "c3842c9f4338679c24457f44a553a18f", "type": "electric_scooter", "lon": -77.022394, "is_reserved": 0, "fusion_lat": 0.0, "fusion_lon": 0.0}, {"name": "9509bf0ffc31bd6d01d020dc2c90af2a", "is_disabled": 0, "lat": 38.9156345, "rental_uris": {"ios": "https://dc.lft.to/lastmile_qr_scan", "android": "https://dc.lft.to/lastmile_qr_scan"}, "bike_id": "9509bf0ffc31bd6d01d020dc2c90af2a", "type": "electric_scooter", "lon": -77.02177383333333, "is_reserved": 0, "fusion_lat": 0.0, "fusion_lon": 0.0}, {"name": "14965e930bdff31fa688a203af945ab9", "is_disabled": 0, "lat": 38.90559316666667, "rental_uris": {"ios": "https://dc.lft.to/lastmile_qr_scan", "android": "https://dc.lft.to/lastmile_qr_scan"}, "bike_id": "14965e930bdff31fa688a203af945ab9", "type": "electric_scooter", "lon": -77.03755833333334, "is_reserved": 0, "fusion_lat": 0.0, "fusion_lon": 0.0}, {"name": "2a1403b9f3201ff5ce8650b3ad7cf091", "is_disabled": 0, "lat": 38.883385833333335, "rental_uris": {"ios": "https://dc.lft.to/lastmile_qr_scan", "android": "https://dc.lft.to/lastmile_qr_scan"}, "bike_id": "2a1403b9f3201ff5ce8650b3ad7cf091", "type": "electric_scooter", "lon": -76.93495983333334, "is_reserved": 0, "fusion_lat": 0.0, "fusion_lon": 0.0}, {"name": "f1bf75c7dc424578506197699c46e5d2", "is_disabled": 0, "lat": 38.90482766666667, "rental_uris": {"ios": "https://dc.lft.to/lastmile_qr_scan", "android": "https://dc.lft.to/lastmile_qr_scan"}, "bike_id": "f1bf75c7dc424578506197699c46e5d2", "type": "electric_scooter", "lon": -77.048694, "is_reserved": 0, "fusion_lat": 0.0, "fusion_lon": 0.0}, {"name": "392b185d5da534f65eccca4e69bd6526", "is_disabled": 0, "lat": 38.923283166666664, "rental_uris": {"ios": "https://dc.lft.to/lastmile_qr_scan", "android": "https://dc.lft.to/lastmile_qr_scan"}, "bike_id": "392b185d5da534f65eccca4e69bd6526", "type": "electric_scooter", "lon": -77.05684033333333, "is_reserved": 0, "fusion_lat": 0.0, "fusion_lon": 0.0}, {"name": "88279d3925470305d28c921f224ee7e4", "is_disabled": 0, "lat": 38.85173733333333, "rental_uris": {"ios": "https://dc.lft.to/lastmile_qr_scan", "android": "https://dc.lft.to/lastmile_qr_scan"}, "bike_id": "88279d3925470305d28c921f224ee7e4", "type": "electric_scooter", "lon": -76.995837, "is_reserved": 0, "fusion_lat": 0.0, "fusion_lon": 0.0}, {"name": "7202e9074ddcf23956612925ff42901d", "is_disabled": 0, "lat": 38.94717716666667, "rental_uris": {"ios": "https://dc.lft.to/lastmile_qr_scan", "android": "https://dc.lft.to/lastmile_qr_scan"}, "bike_id": "7202e9074ddcf23956612925ff42901d", "type": "electric_scooter", "lon": -77.06549716666666, "is_reserved": 0, "fusion_lat": 0.0, "fusion_lon": 0.0}, {"name": "a38eed2e37dfd95964e372271fd04c77", "is_disabled": 0, "lat": 38.887267666666666, "rental_uris": {"ios": "https://dc.lft.to/lastmile_qr_scan", "android": "https://dc.lft.to/lastmile_qr_scan"}, "bike_id": "a38eed2e37dfd95964e372271fd04c77", "type": "electric_scooter", "lon": -77.03187266666667, "is_reserved": 0, "fusion_lat": 0.0, "fusion_lon": 0.0}, {"name": "0a783c715a25f2c534bc962735905009", "is_disabled": 0, "lat": 38.920852, "rental_uris": {"ios": "https://dc.lft.to/lastmile_qr_scan", "android": "https://dc.lft.to/lastmile_qr_scan"}, "bike_id": "0a783c715a25f2c534bc962735905009", "type": "electric_scooter", "lon": -77.02565083333333, "is_reserved": 0, "fusion_lat": 0.0, "fusion_lon": 0.0}, {"name": "d222597a6f978b8be2e564bbef54472d", "is_disabled": 0, "lat": 38.9017525, "rental_uris": {"ios": "https://dc.lft.to/lastmile_qr_scan", "android": "https://dc.lft.to/lastmile_qr_scan"}, "bike_id": "d222597a6f978b8be2e564bbef54472d", "type": "electric_scooter", "lon": -77.05087283333333, "is_reserved": 0, "fusion_lat": 0.0, "fusion_lon": 0.0}, {"name": "eefee234ab572dc9d622ffe7ffd7fb10", "is_disabled": 0, "lat": 38.90966983333333, "rental_uris": {"ios": "https://dc.lft.to/lastmile_qr_scan", "android": "https://dc.lft.to/lastmile_qr_scan"}, "bike_id": "eefee234ab572dc9d622ffe7ffd7fb10", "type": "electric_scooter", "lon": -77.039442, "is_reserved": 0, "fusion_lat": 0.0, "fusion_lon": 0.0}, {"name": "f06ca388cc7e48561adadf472cd52375", "is_disabled": 0, "lat": 38.930781833333334, "rental_uris": {"ios": "https://dc.lft.to/lastmile_qr_scan", "android": "https://dc.lft.to/lastmile_qr_scan"}, "bike_id": "f06ca388cc7e48561adadf472cd52375", "type": "electric_scooter", "lon": -77.0316155, "is_reserved": 0, "fusion_lat": 0.0, "fusion_lon": 0.0}, {"name": "bd373fff92a4c10bc490c5a27a34ff95", "is_disabled": 0, "lat": 38.887434999999996, "rental_uris": {"ios": "https://dc.lft.to/lastmile_qr_scan", "android": "https://dc.lft.to/lastmile_qr_scan"}, "bike_id": "bd373fff92a4c10bc490c5a27a34ff95", "type": "electric_scooter", "lon": -76.99848316666667, "is_reserved": 0, "fusion_lat": 0.0, "fusion_lon": 0.0}, {"name": "0ecb34dc2006006c4b5a35a14313dcae", "is_disabled": 0, "lat": 38.862046, "rental_uris": {"ios": "https://dc.lft.to/lastmile_qr_scan", "android": "https://dc.lft.to/lastmile_qr_scan"}, "bike_id": "0ecb34dc2006006c4b5a35a14313dcae", "type": "electric_bike", "lon": -76.99537083333334, "is_reserved": 0, "fusion_lat": 0.0, "fusion_lon": 0.0}, {"name": "3e438f214501b251edbf2e5cb596bdd3", "is_disabled": 0, "lat": 38.91263283333333, "rental_uris": {"ios": "https://dc.lft.to/lastmile_qr_scan", "android": "https://dc.lft.to/lastmile_qr_scan"}, "bike_id": "3e438f214501b251edbf2e5cb596bdd3", "type": "electric_scooter", "lon": -77.02232266666667, "is_reserved": 0, "fusion_lat": 0.0, "fusion_lon": 0.0}, {"name": "c9cecd71c5537e3d29aa7ee8c24ce953", "is_disabled": 0, "lat": 38.90803066666667, "rental_uris": {"ios": "https://dc.lft.to/lastmile_qr_scan", "android": "https://dc.lft.to/lastmile_qr_scan"}, "bike_id": "c9cecd71c5537e3d29aa7ee8c24ce953", "type": "electric_scooter", "lon": -77.04178883333333, "is_reserved": 0, "fusion_lat": 0.0, "fusion_lon": 0.0}, {"name": "6a2c9abca4fa217585d30771749dfe0a", "is_disabled": 0, "lat": 38.929945333333336, "rental_uris": {"ios": "https://dc.lft.to/lastmile_qr_scan", "android": "https://dc.lft.to/lastmile_qr_scan"}, "bike_id": "6a2c9abca4fa217585d30771749dfe0a", "type": "electric_scooter", "lon": -77.03799883333333, "is_reserved": 0, "fusion_lat": 0.0, "fusion_lon": 0.0}, {"name": "5a84304c7fe5f4edbc6feb65dbbec9cb", "is_disabled": 0, "lat": 38.90480083333333, "rental_uris": {"ios": "https://dc.lft.to/lastmile_qr_scan", "android": "https://dc.lft.to/lastmile_qr_scan"}, "bike_id": "5a84304c7fe5f4edbc6feb65dbbec9cb", "type": "electric_scooter", "lon": -77.053415, "is_reserved": 0, "fusion_lat": 0.0, "fusion_lon": 0.0}, {"name": "e0a172e734317f162ec5fe15e0d72666", "is_disabled": 0, "lat": 38.8842465, "rental_uris": {"ios": "https://dc.lft.to/lastmile_qr_scan", "android": "https://dc.lft.to/lastmile_qr_scan"}, "bike_id": "e0a172e734317f162ec5fe15e0d72666", "type": "electric_scooter", "lon": -77.02975, "is_reserved": 0, "fusion_lat": 0.0, "fusion_lon": 0.0}, {"name": "812ba5c69f6a5c4b0c471971324f68b0", "is_disabled": 0, "lat": 38.9186865, "rental_uris": {"ios": "https://dc.lft.to/lastmile_qr_scan", "android": "https://dc.lft.to/lastmile_qr_scan"}, "bike_id": "812ba5c69f6a5c4b0c471971324f68b0", "type": "electric_scooter", "lon": -76.96405116666666, "is_reserved": 0, "fusion_lat": 0.0, "fusion_lon": 0.0}, {"name": "7fffda27e000e2d0c039285842cc07a5", "is_disabled": 0, "lat": 38.926768333333335, "rental_uris": {"ios": "https://dc.lft.to/lastmile_qr_scan", "android": "https://dc.lft.to/lastmile_qr_scan"}, "bike_id": "7fffda27e000e2d0c039285842cc07a5", "type": "electric_scooter", "lon": -77.03097683333333, "is_reserved": 0, "fusion_lat": 0.0, "fusion_lon": 0.0}, {"name": "6bc2cb7cf5a52d49fe9ed004bc3195ef", "is_disabled": 0, "lat": 38.92785466666667, "rental_uris": {"ios": "https://dc.lft.to/lastmile_qr_scan", "android": "https://dc.lft.to/lastmile_qr_scan"}, "bike_id": "6bc2cb7cf5a52d49fe9ed004bc3195ef", "type": "electric_scooter", "lon": -77.03600866666666, "is_reserved": 0, "fusion_lat": 0.0, "fusion_lon": 0.0}, {"name": "4b2271af502e1256444df0864a3cdc70", "is_disabled": 0, "lat": 38.884356333333336, "rental_uris": {"ios": "https://dc.lft.to/lastmile_qr_scan", "android": "https://dc.lft.to/lastmile_qr_scan"}, "bike_id": "4b2271af502e1256444df0864a3cdc70", "type": "electric_scooter", "lon": -77.00711083333333, "is_reserved": 0, "fusion_lat": 0.0, "fusion_lon": 0.0}, {"name": "e6403f4ba18e01e6c691b61a93c65323", "is_disabled": 0, "lat": 38.8922585, "rental_uris": {"ios": "https://dc.lft.to/lastmile_qr_scan", "android": "https://dc.lft.to/lastmile_qr_scan"}, "bike_id": "e6403f4ba18e01e6c691b61a93c65323", "type": "electric_scooter", "lon": -77.02790566666667, "is_reserved": 0, "fusion_lat": 0.0, "fusion_lon": 0.0}, {"name": "0b712d16b68b72eb77544b3cce013732", "is_disabled": 0, "lat": 38.916747, "rental_uris": {"ios": "https://dc.lft.to/lastmile_qr_scan", "android": "https://dc.lft.to/lastmile_qr_scan"}, "bike_id": "0b712d16b68b72eb77544b3cce013732", "type": "electric_scooter", "lon": -77.0461545, "is_reserved": 0, "fusion_lat": 0.0, "fusion_lon": 0.0}, {"name": "efb8ca6d3eba23f1831b4cee84d88e33", "is_disabled": 0, "lat": 38.896686, "rental_uris": {"ios": "https://dc.lft.to/lastmile_qr_scan", "android": "https://dc.lft.to/lastmile_qr_scan"}, "bike_id": "efb8ca6d3eba23f1831b4cee84d88e33", "type": "electric_scooter", "lon": -76.93207433333333, "is_reserved": 0, "fusion_lat": 0.0, "fusion_lon": 0.0}, {"name": "fe9b4c1fe8c7aa99169a36da0171e3a2", "is_disabled": 0, "lat": 38.900324833333336, "rental_uris": {"ios": "https://dc.lft.to/lastmile_qr_scan", "android": "https://dc.lft.to/lastmile_qr_scan"}, "bike_id": "fe9b4c1fe8c7aa99169a36da0171e3a2", "type": "electric_scooter", "lon": -76.98837, "is_reserved": 0, "fusion_lat": 0.0, "fusion_lon": 0.0}, {"name": "4ace6a704406eef0ef8c635185d66537", "is_disabled": 0, "lat": 38.89613966666667, "rental_uris": {"ios": "https://dc.lft.to/lastmile_qr_scan", "android": "https://dc.lft.to/lastmile_qr_scan"}, "bike_id": "4ace6a704406eef0ef8c635185d66537", "type": "electric_scooter", "lon": -77.02697083333334, "is_reserved": 0, "fusion_lat": 0.0, "fusion_lon": 0.0}, {"name": "bb8a49eb72d2ef0f1a4d423142012f30", "is_disabled": 0, "lat": 38.900141, "rental_uris": {"ios": "https://dc.lft.to/lastmile_qr_scan", "android": "https://dc.lft.to/lastmile_qr_scan"}, "bike_id": "bb8a49eb72d2ef0f1a4d423142012f30", "type": "electric_scooter", "lon": -77.00691783333333, "is_reserved": 0, "fusion_lat": 0.0, "fusion_lon": 0.0}, {"name": "cdece5b583080832de7d25d6fd0180a4", "is_disabled": 0, "lat": 38.92224683333333, "rental_uris": {"ios": "https://dc.lft.to/lastmile_qr_scan", "android": "https://dc.lft.to/lastmile_qr_scan"}, "bike_id": "cdece5b583080832de7d25d6fd0180a4", "type": "electric_scooter", "lon": -77.02021116666667, "is_reserved": 0, "fusion_lat": 0.0, "fusion_lon": 0.0}, {"name": "0e3747718afef93df4b01b76389e395f", "is_disabled": 0, "lat": 38.924150833333336, "rental_uris": {"ios": "https://dc.lft.to/lastmile_qr_scan", "android": "https://dc.lft.to/lastmile_qr_scan"}, "bike_id": "0e3747718afef93df4b01b76389e395f", "type": "electric_scooter", "lon": -77.01946466666666, "is_reserved": 0, "fusion_lat": 0.0, "fusion_lon": 0.0}, {"name": "98d67d68b79c44c335b3e46e832bae0c", "is_disabled": 0, "lat": 38.90577616666667, "rental_uris": {"ios": "https://dc.lft.to/lastmile_qr_scan", "android": "https://dc.lft.to/lastmile_qr_scan"}, "bike_id": "98d67d68b79c44c335b3e46e832bae0c", "type": "electric_scooter", "lon": -77.0342725, "is_reserved": 0, "fusion_lat": 0.0, "fusion_lon": 0.0}, {"name": "dd7e442833b4f8e98bcfb99770271447", "is_disabled": 0, "lat": 38.906618333333334, "rental_uris": {"ios": "https://dc.lft.to/lastmile_qr_scan", "android": "https://dc.lft.to/lastmile_qr_scan"}, "bike_id": "dd7e442833b4f8e98bcfb99770271447", "type": "electric_scooter", "lon": -77.02680733333334, "is_reserved": 0, "fusion_lat": 0.0, "fusion_lon": 0.0}, {"name": "f0810c713e60b16e42fea573c7844c10", "is_disabled": 0, "lat": 38.9244615, "rental_uris": {"ios": "https://dc.lft.to/lastmile_qr_scan", "android": "https://dc.lft.to/lastmile_qr_scan"}, "bike_id": "f0810c713e60b16e42fea573c7844c10", "type": "electric_scooter", "lon": -77.0204035, "is_reserved": 0, "fusion_lat": 0.0, "fusion_lon": 0.0}, {"name": "26ad4019fbe6ec8d87adf9d32a95fdaf", "is_disabled": 0, "lat": 38.91817916666667, "rental_uris": {"ios": "https://dc.lft.to/lastmile_qr_scan", "android": "https://dc.lft.to/lastmile_qr_scan"}, "bike_id": "26ad4019fbe6ec8d87adf9d32a95fdaf", "type": "electric_scooter", "lon": -77.04524233333333, "is_reserved": 0, "fusion_lat": 0.0, "fusion_lon": 0.0}, {"name": "9bf7661d1ac147709dbafbc5d066151d", "is_disabled": 0, "lat": 38.91820583333333, "rental_uris": {"ios": "https://dc.lft.to/lastmile_qr_scan", "android": "https://dc.lft.to/lastmile_qr_scan"}, "bike_id": "9bf7661d1ac147709dbafbc5d066151d", "type": "electric_scooter", "lon": -77.03223666666666, "is_reserved": 0, "fusion_lat": 0.0, "fusion_lon": 0.0}, {"name": "ecbeb9d0492cc5f04caa06dac4939bcc", "is_disabled": 0, "lat": 38.90531133333333, "rental_uris": {"ios": "https://dc.lft.to/lastmile_qr_scan", "android": "https://dc.lft.to/lastmile_qr_scan"}, "bike_id": "ecbeb9d0492cc5f04caa06dac4939bcc", "type": "electric_scooter", "lon": -77.0563865, "is_reserved": 0, "fusion_lat": 0.0, "fusion_lon": 0.0},