{"data": {"bikes": [{"type": "electric_bike", "rental_uris": {"ios": "https://dc.lft.to/lastmile_qr_scan", "android": "https://dc.lft.to/lastmile_qr_scan"}, "lon": -77.18740333333334, "fusion_lon": 0.0, "is_disabled": 0, "lat": 38.893488166666664, "bike_id": "6b68a267052ae8be899b5fab8558f29d", "name": "6b68a267052ae8be899b5fab8558f29d", "is_reserved": 0, "fusion_lat": 0.0}, {"type": "electric_bike", "rental_uris": {"ios": "https://dc.lft.to/lastmile_qr_scan", "android": "https://dc.lft.to/lastmile_qr_scan"}, "lon": -77.044148, "fusion_lon": 0.0, "is_disabled": 0, "lat": 39.01568416666667, "bike_id": "44c268395946341f14b61ad639862ed0", "name": "44c268395946341f14b61ad639862ed0", "is_reserved": 0, "fusion_lat": 0.0}, {"type": "electric_scooter", "rental_uris": {"ios": "https://dc.lft.to/lastmile_qr_scan", "android": "https://dc.lft.to/lastmile_qr_scan"}, "lon": -77.04013416666666, "fusion_lon": 0.0, "is_disabled": 0, "lat": 38.9220215, "bike_id": "7937fde85f0f92402d3b1fc4fc20f98f", "name": "7937fde85f0f92402d3b1fc4fc20f98f", "is_reserved": 0, "fusion_lat": 0.0}, {"type": "electric_scooter", "rental_uris": {"ios": "https://dc.lft.to/lastmile_qr_scan", "android": "https://dc.lft.to/lastmile_qr_scan"}, "lon": -77.02609, "fusion_lon": 0.0, "is_disabled": 0, "lat": 38.91409383333333, "bike_id": "594dff69a87b51a90a3d819cde738f24", "name": "594dff69a87b51a90a3d819cde738f24", "is_reserved": 0, "fusion_lat": 0.0}, {"type": "electric_scooter", "rental_uris": {"ios": "https://dc.lft.to/lastmile_qr_scan", "android": "https://dc.lft.to/lastmile_qr_scan"}, "lon": -77.0363145, "fusion_lon": 0.0, "is_disabled": 0, "lat": 38.954019333333335, "bike_id": "ce62b56f74a455273f3f26019e6c4280", "name": "ce62b56f74a455273f3f26019e6c4280", "is_reserved": 0, "fusion_lat": 0.0}, {"type": "electric_scooter", "rental_uris": {"ios": "https://dc.lft.to/lastmile_qr_scan", "android": "https://dc.lft.to/lastmile_qr_scan"}, "lon": -77.04024583333333, "fusion_lon": 0.0, "is_disabled": 0, "lat": 38.918038333333335, "bike_id": "60a00ba33cf03fda37fe858ee111b401", "name": "60a00ba33cf03fda37fe858ee111b401", "is_reserved": 0, "fusion_lat": 0.0}, {"type": "electric_bike", "rental_uris": {"ios": "https://dc.lft.to/lastmile_qr_scan", "android": "https://dc.lft.to/lastmile_qr_scan"}, "lon": -77.01035283333333, "fusion_lon": 0.0, "is_disabled": 0, "lat": 38.958760166666664, "bike_id": "ce2d9f7da5dde484edbdf9c220f63388", "name": "ce2d9f7da5dde484edbdf9c220f63388", "is_reserved": 0, "fusion_lat": 0.0}, {"type": "electric_scooter", "rental_uris": {"ios": "https://dc.lft.to/lastmile_qr_scan", "android": "https://dc.lft.to/lastmile_qr_scan"}, "lon": -77.02674916666666, "fusion_lon": 0.0, "is_disabled": 0, "lat": 38.899147166666665, "bike_id": "8c7864c6e7b5eccdeb06aabf7353f739", "name": "8c7864c6e7b5eccdeb06aabf7353f739", "is_reserved": 0, "fusion_lat": 0.0}, {"type": "electric_scooter", "rental_uris": {"ios": "https://dc.lft.to/lastmile_qr_scan", "android": "https://dc.lft.to/lastmile_qr_scan"}, "lon": -76.946342, "fusion_lon": 0.0, "is_disabled": 0, "lat": 38.89845433333333, "bike_id": "ffa2b0ae99a99fb8aee4431e3ce2bb44", "name": "ffa2b0ae99a99fb8aee4431e3ce2bb44", "is_reserved": 0, "fusion_lat": 0.0}, {"type": "electric_scooter", "rental_uris": {"ios": "https://dc.lft.to/lastmile_qr_scan", "android": "https://dc.lft.to/lastmile_qr_scan"}, "lon": -77.0131425, "fusion_lon": 0.0, "is_disabled": 0, "lat": 38.88131166666667, "bike_id": "533f6165f6df3b5a33784c5c2599d370", "name": "533f6165f6df3b5a33784c5c2599d370", "is_reserved": 0, "fusion_lat": 0.0}, {"type": "electric_scooter", "rental_uris": {"ios": "https://dc.lft.to/lastmile_qr_scan", "android": "https://dc.lft.to/lastmile_qr_scan"}, "lon": -77.0232965, "fusion_lon": 0.0, "is_disabled": 0, "lat": 38.917606666666664, "bike_id": "e59922656ed7f73a462ca6a0b3039a39", "name": "e59922656ed7f73a462ca6a0b3039a39", "is_reserved": 0, "fusion_lat": 0.0}, {"type": "electric_scooter", "rental_uris": {"ios": "https://dc.lft.to/lastmile_qr_scan", "android": "https://dc.lft.to/lastmile_qr_scan"}, "lon": -77.03280166666667, "fusion_lon": 0.0, "is_disabled": 0, "lat": 38.89900516666667, "bike_id": "e9761ce6b0bf2692b1807490a264dc51", "name": "e9761ce6b0bf2692b1807490a264dc51", "is_reserved": 0, "fusion_lat": 0.0}, {"type": "electric_scooter", "rental_uris": {"ios": "https://dc.lft.to/lastmile_qr_scan", "android": "https://dc.lft.to/lastmile_qr_scan"}, "lon": -77.04252166666667, "fusion_lon": 0.0, "is_disabled": 0, "lat": 38.9076925, "bike_id": "8cbe61c60540620bf991736a57181135", "name": "8cbe61c60540620bf991736a57181135", "is_reserved": 0, "fusion_lat": 0.0}, {"type": "electric_scooter", "rental_uris": {"ios": "https://dc.lft.to/lastmile_qr_scan", "android": "https://dc.lft.to/lastmile_qr_scan"}, "lon": -77.01510616666667, "fusion_lon": 0.0, "is_disabled": 0, "lat": 38.910451, "bike_id": "2c20e2173339ade3e77e5ed949467cdf", "name": "2c20e2173339ade3e77e5ed949467cdf", "is_reserved": 0, "fusion_lat": 0.0}, {"type": "electric_scooter", "rental_uris": {"ios": "https://dc.lft.to/lastmile_qr_scan", "android": "https://dc.lft.to/lastmile_qr_scan"}, "lon": -77.04489416666667, "fusion_lon": 0.0, "is_disabled": 0, "lat": 38.9119585, "bike_id": "eac9590d3f2234703e32a9124df7cfa7", "name": "eac9590d3f2234703e32a9124df7cfa7", "is_reserved": 0, "fusion_lat": 0.0}, {"type": "electric_scooter", "rental_uris": {"ios": "https://dc.lft.to/lastmile_qr_scan", "android": "https://dc.lft.to/lastmile_qr_scan"}, "lon": -77.02688816666667, "fusion_lon": 0.0, "is_disabled": 0, "lat": 38.916881833333335, "bike_id": "72ecf4159b34b80ed0432a62d6074751", "name": "72ecf4159b34b80ed0432a62d6074751", "is_reserved": 0, "fusion_lat": 0.0}, {"type": "electric_scooter", "rental_uris": {"ios": "https://dc.lft.to/lastmile_qr_scan", "android": "https://dc.lft.to/lastmile_qr_scan"}, "lon": -77.04458716666667, "fusion_lon": 0.0, "is_disabled": 0, "lat": 38.91518716666667, "bike_id": "f1c01e8e59273e5ac224b7a39a776e20", "name": "f1c01e8e59273e5ac224b7a39a776e20", "is_reserved": 0, "fusion_lat": 0.0}, {"type": "electric_scooter", "rental_uris": {"ios": "https://dc.lft.to/lastmile_qr_scan", "android": "https://dc.lft.to/lastmile_qr_scan"}, "lon": -77.07010466666667, "fusion_lon": 0.0, "is_disabled": 0, "lat": 38.955279, "bike_id": "7729ad7a8a2113c210856b4591992e35", "name": "7729ad7a8a2113c210856b4591992e35", "is_reserved": 0, "fusion_lat": 0.0}, {"type": "electric_scooter", "rental_uris": {"ios": "https://dc.lft.to/lastmile_qr_scan", "android": "https://dc.lft.to/lastmile_qr_scan"}, "lon": -77.02599116666667, "fusion_lon": 0.0, "is_disabled": 0, "lat": 38.90732633333333, "bike_id": "e6604f6e791f6a3171015f74fc61e7eb", "name": "e6604f6e791f6a3171015f74fc61e7eb", "is_reserved": 0, "fusion_lat": 0.0}, {"type": "electric_scooter", "rental_uris": {"ios": "https://dc.lft.to/lastmile_qr_scan", "android": "https://dc.lft.to/lastmile_qr_scan"}, "lon": -77.02679383333333, "fusion_lon": 0.0, "is_disabled": 0, "lat": 38.90070466666667, "bike_id": "b4b939f24b5f190bbde368ed68af7323", "name": "b4b939f24b5f190bbde368ed68af7323", "is_reserved": 0, "fusion_lat": 0.0}, {"type": "electric_scooter", "rental_uris": {"ios": "https://dc.lft.to/lastmile_qr_scan", "android": "https://dc.lft.to/lastmile_qr_scan"}, "lon": -77.021879, "fusion_lon": 0.0, "is_disabled": 0, "lat": 38.91566516666666, "bike_id": "95e04d7026f89d69bc040ccac52d5ce4", "name": "95e04d7026f89d69bc040ccac52d5ce4", "is_reserved": 0, "fusion_lat": 0.0}, {"type": "electric_scooter", "rental_uris": {"ios": "https://dc.lft.to/lastmile_qr_scan", "android": "https://dc.lft.to/lastmile_qr_scan"}, "lon": -77.03639483333333, "fusion_lon": 0.0, "is_disabled": 0, "lat": 38.93280433333334, "bike_id": "65f186cce2ebfed71e48550da79445fa", "name": "65f186cce2ebfed71e48550da79445fa", "is_reserved": 0, "fusion_lat": 0.0}, {"type": "electric_scooter", "rental_uris": {"ios": "https://dc.lft.to/lastmile_qr_scan", "android": "https://dc.lft.to/lastmile_qr_scan"}, "lon": -77.03221033333334, "fusion_lon": 0.0, "is_disabled": 0, "lat": 38.89882683333333, "bike_id": "5c17f29bfd02f1cca4c22bd3ef607a4b", "name": "5c17f29bfd02f1cca4c22bd3ef607a4b", "is_reserved": 0, "fusion_lat": 0.0}, {"type": "electric_scooter", "rental_uris": {"ios": "https://dc.lft.to/lastmile_qr_scan", "android": "https://dc.lft.to/lastmile_qr_scan"}, "lon": -77.03521333333333, "fusion_lon": 0.0, "is_disabled": 0, "lat": 38.9182355, "bike_id": "4ba9d311e7898347fc98362ef4a626c9", "name": "4ba9d311e7898347fc98362ef4a626c9", "is_reserved": 0, "fusion_lat": 0.0}, {"type": "electric_scooter", "rental_uris": {"ios": "https://dc.lft.to/lastmile_qr_scan", "android": "https://dc.lft.to/lastmile_qr_scan"}, "lon": -76.937433, "fusion_lon": 0.0, "is_disabled": 0, "lat": 38.89005216666666, "bike_id": "81055c2c900fc3d88495edeb41b7f23e", "name": "81055c2c900fc3d88495edeb41b7f23e", "is_reserved": 0, "fusion_lat": 0.0}, {"type": "electric_scooter", "rental_uris": {"ios": "https://dc.lft.to/lastmile_qr_scan", "android": "https://dc.lft.to/lastmile_qr_scan"}, "lon": -77.03855, "fusion_lon": 0.0, "is_disabled": 0, "lat": 38.91683316666666, "bike_id": "42dba3336e5f6145dc90c9ea350bf178", "name": "42dba3336e5f6145dc90c9ea350bf178", "is_reserved": 0, "fusion_lat": 0.0}, {"type": "electric_scooter", "rental_uris": {"ios": "https://dc.lft.to/lastmile_qr_scan", "android": "https://dc.lft.to/lastmile_qr_scan"}, "lon": -77.01059683333334, "fusion_lon": 0.0, "is_disabled": 0, "lat": 38.896030333333336, "bike_id": "9c1443864a9d08f7512ce51ad4db0964", "name": "9c1443864a9d08f7512ce51ad4db0964", "is_reserved": 0, "fusion_lat": 0.0}, {"type": "electric_scooter", "rental_uris": {"ios": "https://dc.lft.to/lastmile_qr_scan", "android": "https://dc.lft.to/lastmile_qr_scan"}, "lon": -77.04194883333334, "fusion_lon": 0.0, "is_disabled": 0, "lat": 38.89218733333333, "bike_id": "cdc048350cdc3ef2d1906512a63f18ba", "name": "cdc048350cdc3ef2d1906512a63f18ba", "is_reserved": 0, "fusion_lat": 0.0}, {"type": "electric_scooter", "rental_uris": {"ios": "https://dc.lft.to/lastmile_qr_scan", "android": "https://dc.lft.to/lastmile_qr_scan"}, "lon": -77.017391, "fusion_lon": 0.0, "is_disabled": 0, "lat": 38.9209385, "bike_id": "55ba84b6bde9fa51d9cb4d0da80c31b2", "name": "55ba84b6bde9fa51d9cb4d0da80c31b2", "is_reserved": 0, "fusion_lat": 0.0}, {"type": "electric_scooter", "rental_uris": {"ios": "https://dc.lft.to/lastmile_qr_scan", "android": "https://dc.lft.to/lastmile_qr_scan"}, "lon": -77.03644233333333, "fusion_lon": 0.0, "is_disabled": 0, "lat": 38.92077166666667, "bike_id": "5d53b39c4c2d24611fd98ce071d17681", "name": "5d53b39c4c2d24611fd98ce071d17681", "is_reserved": 0, "fusion_lat": 0.0}, {"type": "electric_scooter", "rental_uris": {"ios": "https://dc.lft.to/lastmile_qr_scan", "android": "https://dc.lft.to/lastmile_qr_scan"}, "lon": -77.038396, "fusion_lon": 0.0, "is_disabled": 0, "lat": 38.9146505, "bike_id": "bb086ffabf772da975c8bbc7443f79a8", "name": "bb086ffabf772da975c8bbc7443f79a8", "is_reserved": 0, "fusion_lat": 0.0}, {"type": "electric_scooter", "rental_uris": {"ios": "https://dc.lft.to/lastmile_qr_scan", "android": "https://dc.lft.to/lastmile_qr_scan"}, "lon": -76.9938715, "fusion_lon": 0.0, "is_disabled": 0, "lat": 38.91005766666667, "bike_id": "aa33d7c1f2421a3bf666004b3aaf6ac2", "name": "aa33d7c1f2421a3bf666004b3aaf6ac2", "is_reserved": 0, "fusion_lat": 0.0}, {"type": "electric_scooter", "rental_uris": {"ios": "https://dc.lft.to/lastmile_qr_scan", "android": "https://dc.lft.to/lastmile_qr_scan"}, "lon": -77.06888033333334, "fusion_lon": 0.0, "is_disabled": 0, "lat": 38.90417566666667, "bike_id": "5cd3975c59660c44118bc3bd81c3f2f9", "name": "5cd3975c59660c44118bc3bd81c3f2f9", "is_reserved": 0, "fusion_lat": 0.0}, {"type": "electric_bike", "rental_uris": {"ios": "https://dc.lft.to/lastmile_qr_scan", "android": "https://dc.lft.to/lastmile_qr_scan"}, "lon": -77.22216366666666, "fusion_lon": 0.0, "is_disabled": 0, "lat": 38.928526166666664, "bike_id": "81368da9fb082ddd7138a5fb03672a9c", "name": "81368da9fb082ddd7138a5fb03672a9c", "is_reserved": 0, "fusion_lat": 0.0}, {"type": "electric_bike", "rental_uris": {"ios": "https://dc.lft.to/lastmile_qr_scan", "android": "https://dc.lft.to/lastmile_qr_scan"}, "lon": -77.01177866666667, "fusion_lon": 0.0, "is_disabled": 0, "lat": 38.87227983333333, "bike_id": "bf7d03a41acdd6229254ae27988bf5b5", "name": "bf7d03a41acdd6229254ae27988bf5b5", "is_reserved": 0, "fusion_lat": 0.0}, {"type": "electric_scooter", "rental_uris": {"ios": "https://dc.lft.to/lastmile_qr_scan", "android": "https://dc.lft.to/lastmile_qr_scan"}, "lon": -77.05038916666666, "fusion_lon": 0.0, "is_disabled": 0, "lat": 38.892768333333336, "bike_id": "d7b6f838f16e3049bded9ef0f822dccd", "name": "d7b6f838f16e3049bded9ef0f822dccd", "is_reserved": 0, "fusion_lat": 0.0}, {"type": "electric_scooter", "rental_uris": {"ios": "https://dc.lft.to/lastmile_qr_scan", "android": "https://dc.lft.to/lastmile_qr_scan"}, "lon": -77.02691966666667, "fusion_lon": 0.0, "is_disabled": 0, "lat": 38.90679466666667, "bike_id": "5f354f155be7429578e21b3bd2da3869", "name": "5f354f155be7429578e21b3bd2da3869", "is_reserved": 0, "fusion_lat": 0.0}, {"type": "electric_scooter", "rental_uris": {"ios": "https://dc.lft.to/lastmile_qr_scan", "android": "https://dc.lft.to/lastmile_qr_scan"}, "lon": -77.03284933333333, "fusion_lon": 0.0, "is_disabled": 0, "lat": 38.92746733333333, "bike_id": "f667c9ba689af7b5cc154bad3d874111", "name": "f667c9ba689af7b5cc154bad3d874111", "is_reserved": 0, "fusion_lat": 0.0}, {"type": "electric_bike", "rental_uris": {"ios": "https://dc.lft.to/lastmile_qr_scan", "android": "https://dc.lft.to/lastmile_qr_scan"}, "lon": -77.17842133333333, "fusion_lon": 0.0, "is_disabled": 0, "lat": 39.088548833333334, "bike_id": "8e2fac60727d4b10ba7e8172af4a13ec", "name": "8e2fac60727d4b10ba7e8172af4a13ec", "is_reserved": 0, "fusion_lat": 0.0}, {"type": "electric_scooter", "rental_uris": {"ios": "https://dc.lft.to/lastmile_qr_scan", "android": "https://dc.lft.to/lastmile_qr_scan"}, "lon": -76.93991033333333, "fusion_lon": 0.0, "is_disabled": 0, "lat": 38.89976816666667, "bike_id": "fa0cdab844b3a1ddd7ed0ba973651d40", "name": "fa0cdab844b3a1ddd7ed0ba973651d40", "is_reserved": 0, "fusion_lat": 0.0}, {"type": "electric_scooter", "rental_uris": {"ios": "https://dc.lft.to/lastmile_qr_scan", "android": "https://dc.lft.to/lastmile_qr_scan"}, "lon": -77.04420683333333, "fusion_lon": 0.0, "is_disabled": 0, "lat": 38.91005033333333, "bike_id": "86db63fb9dadf9e53f9cf7c10fa2cf7c", "name": "86db63fb9dadf9e53f9cf7c10fa2cf7c", "is_reserved": 0, "fusion_lat": 0.0}, {"type": "electric_bike", "rental_uris": {"ios": "https://dc.lft.to/lastmile_qr_scan", "android": "https://dc.lft.to/lastmile_qr_scan"}, "lon": -76.9879675, "fusion_lon": 0.0, "is_disabled": 0, "lat": 38.92210466666667, "bike_id": "9bd7d22a2734efeaa33ae05cd3537430", "name": "9bd7d22a2734efeaa33ae05cd3537430", "is_reserved": 0, "fusion_lat": 0.0}, {"type": "electric_scooter", "rental_uris": {"ios": "https://dc.lft.to/lastmile_qr_scan", "android": "https://dc.lft.to/lastmile_qr_scan"}, "lon": -77.02211366666667, "fusion_lon": 0.0, "is_disabled": 0, "lat": 38.92480333333334, "bike_id": "956c0dfc75919465e36883055b59e193", "name": "956c0dfc75919465e36883055b59e193", "is_reserved": 0, "fusion_lat": 0.0}, {"type": "electric_scooter", "rental_uris": {"ios": "https://dc.lft.to/lastmile_qr_scan", "android": "https://dc.lft.to/lastmile_qr_scan"}, "lon": -77.0315325, "fusion_lon": 0.0, "is_disabled": 0, "lat": 38.91562233333333, "bike_id": "b498a47b5945c67077a73f781cf77067", "name": "b498a47b5945c67077a73f781cf77067", "is_reserved": 0, "fusion_lat": 0.0}, {"type": "electric_bike", "rental_uris": {"ios": "https://dc.lft.to/lastmile_qr_scan", "android": "https://dc.lft.to/lastmile_qr_scan"}, "lon": -77.088078, "fusion_lon": 0.0, "is_disabled": 0, "lat": 38.86235, "bike_id": "9a54ab5f237277cb35dc897f6275dd3d", "name": "9a54ab5f237277cb35dc897f6275dd3d", "is_reserved": 0, "fusion_lat": 0.0}, {"type": "electric_scooter", "rental_uris": {"ios": "https://dc.lft.to/lastmile_qr_scan", "android": "https://dc.lft.to/lastmile_qr_scan"}, "lon": -77.04422516666666, "fusion_lon": 0.0, "is_disabled": 0, "lat": 38.9319425, "bike_id": "48cd42e88a1bdc718433aaf6183002bf", "name": "48cd42e88a1bdc718433aaf6183002bf", "is_reserved": 0, "fusion_lat": 0.0}, {"type": "electric_scooter", "rental_uris": {"ios": "https://dc.lft.to/lastmile_qr_scan", "android": "https://dc.lft.to/lastmile_qr_scan"}, "lon": -76.99408466666667, "fusion_lon": 0.0, "is_disabled": 0, "lat": 38.87794866666667, "bike_id": "bd335fd206da3c78788d864232997617", "name": "bd335fd206da3c78788d864232997617", "is_reserved": 0, "fusion_lat": 0.0}, {"type": "electric_scooter", "rental_uris": {"ios": "https://dc.lft.to/lastmile_qr_scan", "android": "https://dc.lft.to/lastmile_qr_scan"}, "lon": -77.03592666666667, "fusion_lon": 0.0, "is_disabled": 0, "lat": 38.93308433333333, "bike_id": "0108bad37e507f582f81532787023137", "name": "0108bad37e507f582f81532787023137", "is_reserved": 0, "fusion_lat": 0.0}, {"type": "electric_scooter", "rental_uris": {"ios": "https://dc.lft.to/lastmile_qr_scan", "android": "https://dc.lft.to/lastmile_qr_scan"}, "lon": -77.05024933333333, "fusion_lon": 0.0, "is_disabled": 0, "lat": 38.893776, "bike_id": "bf7a4f96547b1e1b3c73619a1bdf8e1e", "name": "bf7a4f96547b1e1b3c73619a1bdf8e1e", "is_reserved": 0, "fusion_lat": 0.0}, {"type": "electric_scooter", "rental_uris": {"ios": "https://dc.lft.to/lastmile_qr_scan", "android": "https://dc.lft.to/lastmile_qr_scan"}, "lon": -77.04337283333334, "fusion_lon": 0.0, "is_disabled": 0, "lat": 38.906087, "bike_id": "316914f633fddfc312d078f2c9df119c", "name": "316914f633fddfc312d078f2c9df119c", "is_reserved": 0, "fusion_lat": 0.0}, {"type": "electric_scooter", "rental_uris": {"ios": "https://dc.lft.to/lastmile_qr_scan", "android": "https://dc.lft.to/lastmile_qr_scan"}, "lon": -76.9977935, "fusion_lon": 0.0, "is_disabled": 0, "lat": 38.84426216666667, "bike_id": "d53630b8ec6744e39c938f87cb9106cd", "name": "d53630b8ec6744e39c938f87cb9106cd", "is_reserved": 0, "fusion_lat": 0.0}, {"type": "electric_scooter", "rental_uris": {"ios": "https://dc.lft.to/lastmile_qr_scan", "android": "https://dc.lft.to/lastmile_qr_scan"}, "lon": -77.05031533333333, "fusion_lon": 0.0, "is_disabled": 0, "lat": 38.923352333333334, "bike_id": "105b7c7214026a5712f0b4271ac99ec5", "name": "105b7c7214026a5712f0b4271ac99ec5", "is_reserved": 0, "fusion_lat": 0.0}, {"type": "electric_scooter", "rental_uris": {"ios": "https://dc.lft.to/lastmile_qr_scan", "android": "https://dc.lft.to/lastmile_qr_scan"}, "lon": -77.04528516666667, "fusion_lon": 0.0, "is_disabled": 0, "lat": 38.93316016666667, "bike_id": "cc161aa915b815339c2c5336f1b408d5", "name": "cc161aa915b815339c2c5336f1b408d5", "is_reserved": 0, "fusion_lat": 0.0}, {"type": "electric_scooter", "rental_uris": {"ios": "https://dc.lft.to/lastmile_qr_scan", "android": "https://dc.lft.to/lastmile_qr_scan"}, "lon": -77.02824583333333, "fusion_lon": 0.0, "is_disabled": 0, "lat": 38.90284883333333, "bike_id": "1bc4da5cecee239e3173cf88db96585f", "name": "1bc4da5cecee239e3173cf88db96585f", "is_reserved": 0, "fusion_lat": 0.0}, {"type": "electric_bike", "rental_uris": {"ios": "https://dc.lft.to/lastmile_qr_scan", "android": "https://dc.lft.to/lastmile_qr_scan"}, "lon": -76.99337266666667, "fusion_lon": 0.0, "is_disabled": 0, "lat": 38.97226033333333, "bike_id": "dd7b48e7cf5e413f46f4a8058a2aa5f2", "name": "dd7b48e7cf5e413f46f4a8058a2aa5f2", "is_reserved": 0, "fusion_lat": 0.0}, {"type": "electric_scooter", "rental_uris": {"ios": "https://dc.lft.to/lastmile_qr_scan", "android": "https://dc.lft.to/lastmile_qr_scan"}, "lon": -77.04142483333334, "fusion_lon": 0.0, "is_disabled": 0, "lat": 38.92293883333333, "bike_id": "af026ab106b92a11b3be2886bba76a86", "name": "af026ab106b92a11b3be2886bba76a86", "is_reserved": 0, "fusion_lat": 0.0}, {"type": "electric_scooter", "rental_uris": {"ios": "https://dc.lft.to/lastmile_qr_scan", "android": "https://dc.lft.to/lastmile_qr_scan"}, "lon": -76.99506316666667, "fusion_lon": 0.0, "is_disabled": 0, "lat": 38.88364283333333, "bike_id": "f5981c6d8276900f3cf32c8c2eb46928", "name": "f5981c6d8276900f3cf32c8c2eb46928", "is_reserved": 0, "fusion_lat": 0.0}, {"type": "electric_scooter", "rental_uris": {"ios": "https://dc.lft.to/lastmile_qr_scan", "android": "https://dc.lft.to/lastmile_qr_scan"}, "lon": -76.99686433333333, "fusion_lon": 0.0, "is_disabled": 0, "lat": 38.9082775, "bike_id": "9a6bcbe718a32b2d8e9712a289b0986c", "name": "9a6bcbe718a32b2d8e9712a289b0986c", "is_reserved": 0, "fusion_lat": 0.0}, {"type": "electric_scooter", "rental_uris": {"ios": "https://dc.lft.to/lastmile_qr_scan", "android": "https://dc.lft.to/lastmile_qr_scan"}, "lon": -76.933015, "fusion_lon": 0.0, "is_disabled": 0, "lat": 38.881336166666664, "bike_id": "25e307e4df79fb66c1ad36ef595c3c12", "name": "25e307e4df79fb66c1ad36ef595c3c12", "is_reserved": 0, "fusion_lat": 0.0}, {"type": "electric_scooter", "rental_uris": {"ios": "https://dc.lft.to/lastmile_qr_scan", "android": "https://dc.lft.to/lastmile_qr_scan"}, "lon": -77.01458733333334, "fusion_lon": 0.0, "is_disabled": 0, "lat": 38.877271666666665, "bike_id": "042b42a083cc5ab338797a528090157b", "name": "042b42a083cc5ab338797a528090157b", "is_reserved": 0, "fusion_lat": 0.0}, {"type": "electric_scooter", "rental_uris": {"ios": "https://dc.lft.to/lastmile_qr_scan", "android": "https://dc.lft.to/lastmile_qr_scan"}, "lon": -77.01523233333333, "fusion_lon": 0.0, "is_disabled": 0, "lat": 38.9145255, "bike_id": "97a3255b1da931dd3bf4d1b3ade90233", "name": "97a3255b1da931dd3bf4d1b3ade90233", "is_reserved": 0, "fusion_lat": 0.0}, {"type": "electric_bike", "rental_uris": {"ios": "https://dc.lft.to/lastmile_qr_scan", "android": "https://dc.lft.to/lastmile_qr_scan"}, "lon": -76.96804166666666, "fusion_lon": 0.0, "is_disabled": 0, "lat": 38.95528783333334, "bike_id": "3e57936eaf5f3ad60ce25667b4df315d", "name": "3e57936eaf5f3ad60ce25667b4df315d", "is_reserved": 0, "fusion_lat": 0.0}, {"type": "electric_scooter", "rental_uris": {"ios": "https://dc.lft.to/lastmile_qr_scan", "android": "https://dc.lft.to/lastmile_qr_scan"}, "lon": -77.04356933333334, "fusion_lon": 0.0, "is_disabled": 0, "lat": 38.922376, "bike_id": "b5e92dcef822d9e9e059ee5f17279d6a", "name": "b5e92dcef822d9e9e059ee5f17279d6a", "is_reserved": 0, "fusion_lat": 0.0}, {"type": "electric_scooter", "rental_uris": {"ios": "https://dc.lft.to/lastmile_qr_scan", "android": "https://dc.lft.to/lastmile_qr_scan"}, "lon": -77.02323766666666, "fusion_lon": 0.0, "is_disabled": 0, "lat": 38.930583166666665, "bike_id": "b4f0d909893f336d10d2aae9220774e7", "name": "b4f0d909893f336d10d2aae9220774e7", "is_reserved": 0, "fusion_lat": 0.0}, {"type": "electric_scooter", "rental_uris": {"ios": "https://dc.lft.to/lastmile_qr_scan", "android": "https://dc.lft.to/lastmile_qr_scan"}, "lon": -76.96981633333333, "fusion_lon": 0.0, "is_disabled": 0, "lat": 38.919506, "bike_id": "b40a9df67d8c333ee6bb0bca14fa7f34", "name": "b40a9df67d8c333ee6bb0bca14fa7f34", "is_reserved": 0, "fusion_lat": 0.0}, {"type": "electric_scooter", "rental_uris": {"ios": "https://dc.lft.to/lastmile_qr_scan", "android": "https://dc.lft.to/lastmile_qr_scan"}, "lon": -77.0402885, "fusion_lon": 0.0, "is_disabled": 0, "lat": 38.924392, "bike_id": "3ec4c7de44bc6c1d8076fdd1f74b4a23", "name": "3ec4c7de44bc6c1d8076fdd1f74b4a23", "is_reserved": 0, "fusion_lat": 0.0}, {"type": "electric_bike", "rental_uris": {"ios": "https://dc.lft.to/lastmile_qr_scan", "android": "https://dc.lft.to/lastmile_qr_scan"}, "lon": -77.07917933333333, "fusion_lon": 0.0, "is_disabled": 0, "lat": 38.802289, "bike_id": "d391b49418ee825360733c7858502381", "name": "d391b49418ee825360733c7858502381", "is_reserved": 0, "fusion_lat": 0.0}, {"type": "electric_scooter", "rental_uris": {"ios": "https://dc.lft.to/lastmile_qr_scan", "android": "https://dc.lft.to/lastmile_qr_scan"}, "lon": -77.034733, "fusion_lon": 0.0, "is_disabled": 0, "lat": 38.884825166666666, "bike_id": "b43aa20f91ed0f062acf81bc62445097", "name": "b43aa20f91ed0f062acf81bc62445097", "is_reserved": 0, "fusion_lat": 0.0}, {"type": "electric_scooter", "rental_uris": {"ios": "https://dc.lft.to/lastmile_qr_scan", "android": "https://dc.lft.to/lastmile_qr_scan"}, "lon": -76.99033316666667, "fusion_lon": 0.0, "is_disabled": 0, "lat": 38.86365966666666, "bike_id": "ca6cd42c406f4a12c52f519738a9ac47", "name": "ca6cd42c406f4a12c52f519738a9ac47", "is_reserved": 0, "fusion_lat": 0.0}, {"type": "electric_scooter", "rental_uris": {"ios": "https://dc.lft.to/lastmile_qr_scan", "android": "https://dc.lft.to/lastmile_qr_scan"}, "lon": -77.03329983333333, "fusion_lon": 0.0, "is_disabled": 0, "lat": 38.91263516666667, "bike_id": "5e10b24a503844eb9d7b0c0930f89dcd", "name": "5e10b24a503844eb9d7b0c0930f89dcd", "is_reserved": 0, "fusion_lat": 0.0}, {"type": "electric_scooter", "rental_uris": {"ios": "https://dc.lft.to/lastmile_qr_scan", "android": "https://dc.lft.to/lastmile_qr_scan"}, "lon": -77.04344083333334, "fusion_lon": 0.0, "is_disabled": 0, "lat": 38.90233666666666, "bike_id": "8465c85659958307f7805ad439aeb89b", "name": "8465c85659958307f7805ad439aeb89b", "is_reserved": 0, "fusion_lat": 0.0}, {"type": "electric_scooter", "rental_uris": {"ios": "https://dc.lft.to/lastmile_qr_scan", "android": "https://dc.lft.to/lastmile_qr_scan"}, "lon": -77.01474716666667, "fusion_lon": 0.0, "is_disabled": 0, "lat": 38.926708166666664, "bike_id": "90f16b556d2af6f78dde5ec7078331cc", "name": "90f16b556d2af6f78dde5ec7078331cc", "is_reserved": 0, "fusion_lat": 0.0}, {"type": "electric_scooter", "rental_uris": {"ios": "https://dc.lft.to/lastmile_qr_scan", "android": "https://dc.lft.to/lastmile_qr_scan"}, "lon": -77.07063716666667, "fusion_lon": 0.0, "is_disabled": 0, "lat": 38.93172633333333, "bike_id": "99e0a34eccaf7d58e2746f701a5a1e64", "name": "99e0a34eccaf7d58e2746f701a5a1e64", "is_reserved": 0, "fusion_lat": 0.0}, {"type": "electric_scooter", "rental_uris": {"ios": "https://dc.lft.to/lastmile_qr_scan", "android": "https://dc.lft.to/lastmile_qr_scan"}, "lon": -77.0321075, "fusion_lon": 0.0, "is_disabled": 0, "lat": 38.9089405, "bike_id": "c3eb51e6c9ed40a173c134c2abb1e5c4", "name": "c3eb51e6c9ed40a173c134c2abb1e5c4", "is_reserved": 0, "fusion_lat": 0.0}, {"type": "electric_bike", "rental_uris": {"ios": "https://dc.lft.to/lastmile_qr_scan", "android": "https://dc.lft.to/lastmile_qr_scan"}, "lon": -76.937052, "fusion_lon": 0.0, "is_disabled": 0, "lat": 38.87141783333333, "bike_id": "920d148c6eed32dc26100759921edcd9", "name": "920d148c6eed32dc26100759921edcd9", "is_reserved": 0, "fusion_lat": 0.0}, {"type": "electric_bike", "rental_uris": {"ios": "https://dc.lft.to/lastmile_qr_scan", "android": "https://dc.lft.to/lastmile_qr_scan"}, "lon": -77.005744, "fusion_lon": 0.0, "is_disabled": 0, "lat": 38.83979933333333, "bike_id": "0aee2db8bb53cdb2b667c5e9281455b0", "name": "0aee2db8bb53cdb2b667c5e9281455b0", "is_reserved": 0, "fusion_lat": 0.0}, {"type": "electric_scooter", "rental_uris": {"ios": "https://dc.lft.to/lastmile_qr_scan", "android": "https://dc.lft.to/lastmile_qr_scan"}, "lon": -77.04364033333333, "fusion_lon": 0.0, "is_disabled": 0, "lat": 38.9214375, "bike_id": "54510bd94d30e21df3b50b20c40126bb", "name": "54510bd94d30e21df3b50b20c40126bb", "is_reserved": 0, "fusion_lat": 0.0}, {"type": "electric_scooter", "rental_uris": {"ios": "https://dc.lft.to/lastmile_qr_scan", "android": "https://dc.lft.to/lastmile_qr_scan"}, "lon": -77.02495683333333, "fusion_lon": 0.0, "is_disabled": 0, "lat": 38.91800283333333, "bike_id": "5b03f1aa665111005107ff11d5eae0f6", "name": "5b03f1aa665111005107ff11d5eae0f6", "is_reserved": 0, "fusion_lat": 0.0}, {"type": "electric_scooter", "rental_uris": {"ios": "https://dc.lft.to/lastmile_qr_scan", "android": "https://dc.lft.to/lastmile_qr_scan"}, "lon": -77.034704, "fusion_lon": 0.0, "is_disabled": 0, "lat": 38.90446766666667, "bike_id": "6ba9cce21d2dbdbe3bc5e5a48715df52", "name": "6ba9cce21d2dbdbe3bc5e5a48715df52", "is_reserved": 0, "fusion_lat": 0.0}, {"type": "electric_bike", "rental_uris": {"ios": "https://dc.lft.to/lastmile_qr_scan", "android": "https://dc.lft.to/lastmile_qr_scan"}, "lon": -77.0018995, "fusion_lon": 0.0, "is_disabled": 0, "lat": 38.941493333333334, "bike_id": "8d4b92d90d7601f016a471686dd8feb3", "name": "8d4b92d90d7601f016a471686dd8feb3", "is_reserved": 0, "fusion_lat": 0.0}, {"type": "electric_scooter", "rental_uris": {"ios": "https://dc.lft.to/lastmile_qr_scan", "android": "https://dc.lft.to/lastmile_qr_scan"}, "lon": -77.03410233333334, "fusion_lon": 0.0, "is_disabled": 0, "lat": 38.9204255, "bike_id": "9bec746cda3e74013cab4569f86009a2", "name": "9bec746cda3e74013cab4569f86009a2", "is_reserved": 0, "fusion_lat": 0.0}, {"type": "electric_bike", "rental_uris": {"ios": "https://dc.lft.to/lastmile_qr_scan", "android": "https://dc.lft.to/lastmile_qr_scan"}, "lon": -76.98934266666667, "fusion_lon": 0.0, "is_disabled": 0, "lat": 38.867328, "bike_id": "69b39236a4acd94a0559061a7a89bd34", "name": "69b39236a4acd94a0559061a7a89bd34", "is_reserved": 0, "fusion_lat": 0.0}, {"type": "electric_scooter", "rental_uris": {"ios": "https://dc.lft.to/lastmile_qr_scan", "android": "https://dc.lft.to/lastmile_qr_scan"}, "lon": -76.933432, "fusion_lon": 0.0, "is_disabled": 0, "lat": 38.888057, "bike_id": "a90f10e6db6350130027891f2d48bc7d", "name": "a90f10e6db6350130027891f2d48bc7d", "is_reserved": 0, "fusion_lat": 0.0}, {"type": "electric_scooter", "rental_uris": {"ios": "https://dc.lft.to/lastmile_qr_scan", "android": "https://dc.lft.to/lastmile_qr_scan"}, "lon": -76.99205683333334, "fusion_lon": 0.0, "is_disabled": 0, "lat": 38.895113, "bike_id": "a8ededdd8ea198009a595949e66c61c8", "name": "a8ededdd8ea198009a595949e66c61c8", "is_reserved": 0, "fusion_lat": 0.0}, {"type": "electric_scooter", "rental_uris": {"ios": "https://dc.lft.to/lastmile_qr_scan", "android": "https://dc.lft.to/lastmile_qr_scan"}, "lon": -76.99269933333333, "fusion_lon": 0.0, "is_disabled": 0, "lat": 38.902059666666666, "bike_id": "442422eb3079a6bd3df57802f900f7fc", "name": "442422eb3079a6bd3df57802f900f7fc", "is_reserved": 0, "fusion_lat": 0.0}, {"type": "electric_scooter", "rental_uris": {"ios": "https://dc.lft.to/lastmile_qr_scan", "android": "https://dc.lft.to/lastmile_qr_scan"}, "lon": -77.02180566666667, "fusion_lon": 0.0, "is_disabled": 0, "lat": 38.9097855, "bike_id": "e1c1b414dd1771fc1d71208dd7322a0e", "name": "e1c1b414dd1771fc1d71208dd7322a0e", "is_reserved": 0, "fusion_lat": 0.0}, {"type": "electric_scooter", "rental_uris": {"ios": "https://dc.lft.to/lastmile_qr_scan", "android": "https://dc.lft.to/lastmile_qr_scan"}, "lon": -77.07979416666667, "fusion_lon": 0.0, "is_disabled": 0, "lat": 38.9194965, "bike_id": "6ed9555e36ad0bdec997c1e876c1cae8", "name": "6ed9555e36ad0bdec997c1e876c1cae8", "is_reserved": 0, "fusion_lat": 0.0}, {"type": "electric_scooter", "rental_uris": {"ios": "https://dc.lft.to/lastmile_qr_scan", "android": "https://dc.lft.to/lastmile_qr_scan"}, "lon": -76.99731283333334, "fusion_lon": 0.0, "is_disabled": 0, "lat": 38.89884883333333, "bike_id": "7ee3e44f0d8dacd17f5cff9fc46e997e", "name": "7ee3e44f0d8dacd17f5cff9fc46e997e", "is_reserved": 0, "fusion_lat": 0.0}, {"type": "electric_scooter", "rental_uris": {"ios": "https://dc.lft.to/lastmile_qr_scan", "android": "https://dc.lft.to/lastmile_qr_scan"}, "lon": -76.9317475, "fusion_lon": 0.0, "is_disabled": 0, "lat": 38.898799833333335, "bike_id": "ad9c463d4613438308cc413e05565bea", "name": "ad9c463d4613438308cc413e05565bea", "is_reserved": 0, "fusion_lat": 0.0}, {"type": "electric_scooter", "rental_uris": {"ios": "https://dc.lft.to/lastmile_qr_scan", "android": "https://dc.lft.to/lastmile_qr_scan"}, "lon": -77.02988983333333, "fusion_lon": 0.0, "is_disabled": 0, "lat": 38.92045783333333, "bike_id": "0e5b6a15560fb1c2ba27699c1780d776", "name": "0e5b6a15560fb1c2ba27699c1780d776", "is_reserved": 0, "fusion_lat": 0.0}, {"type": "electric_scooter", "rental_uris": {"ios": "https://dc.lft.to/lastmile_qr_scan", "android": "https://dc.lft.to/lastmile_qr_scan"}, "lon": -77.02763, "fusion_lon": 0.0, "is_disabled": 0, "lat": 38.9560795, "bike_id": "961556f5a89539fb20962c131fb12cb3", "name": "961556f5a89539fb20962c131fb12cb3", "is_reserved": 0, "fusion_lat": 0.0}, {"type": "electric_scooter", "rental_uris": {"ios": "https://dc.lft.to/lastmile_qr_scan", "android": "https://dc.lft.to/lastmile_qr_scan"}, "lon": -77.02198333333334, "fusion_lon": 0.0, "is_disabled": 0, "lat": 38.911247333333336, "bike_id": "2e90c0c32881bb189aa552feffbc73c3", "name": "2e90c0c32881bb189aa552feffbc73c3", "is_reserved": 0, "fusion_lat": 0.0}, {"type": "electric_scooter", "rental_uris": {"ios": "https://dc.lft.to/lastmile_qr_scan", "android": "https://dc.lft.to/lastmile_qr_scan"}, "lon": -77.02792, "fusion_lon": 0.0, "is_disabled": 0, "lat": 38.89911033333333, "bike_id": "df3e3141c6f83e4791b6503e605bda22", "name": "df3e3141c6f83e4791b6503e605bda22", "is_reserved": 0, "fusion_lat": 0.0}, {"type": "electric_scooter", "rental_uris": {"ios": "https://dc.lft.to/lastmile_qr_scan", "android": "https://dc.lft.to/lastmile_qr_scan"}, "lon": -77.032005, "fusion_lon": 0.0, "is_disabled": 0, "lat": 38.9246915, "bike_id": "5747955dcf32d893b51fa616b815e0f2", "name": "5747955dcf32d893b51fa616b815e0f2", "is_reserved": 0, "fusion_lat": 0.0}, {"type": "electric_scooter", "rental_uris": {"ios": "https://dc.lft.to/lastmile_qr_scan", "android": "https://dc.lft.to/lastmile_qr_scan"}, "lon": -76.9951235, "fusion_lon": 0.0, "is_disabled": 0, "lat": 38.88140933333333, "bike_id": "1d8127836607384257d510b8992928e1", "name": "1d8127836607384257d510b8992928e1", "is_reserved": 0, "fusion_lat": 0.0}, {"type": "electric_scooter", "rental_uris": {"ios": "https://dc.lft.to/lastmile_qr_scan", "android": "https://dc.lft.to/lastmile_qr_scan"}, "lon": -77.04404533333333, "fusion_lon": 0.0, "is_disabled": 0, "lat": 38.9127345, "bike_id": "0089c486bdae0678dd806f3f8c74dd4f", "name": "0089c486bdae0678dd806f3f8c74dd4f", "is_reserved": 0, "fusion_lat": 0.0}, {"type": "electric_bike", "rental_uris": {"ios": "https://dc.lft.to/lastmile_qr_scan", "android": "https://dc.lft.to/lastmile_qr_scan"}, "lon": -76.99790333333334, "fusion_lon": 0.0, "is_disabled": 0, "lat": 38.9564335, "bike_id": "7959b278de7b464cc52e817a0e13616e", "name": "7959b278de7b464cc52e817a0e13616e", "is_reserved": 0, "fusion_lat": 0.0}, {"type": "electric_scooter", "rental_uris": {"ios": "https://dc.lft.to/lastmile_qr_scan", "android": "https://dc.lft.to/lastmile_qr_scan"}, "lon": -76.98313716666667, "fusion_lon": 0.0, "is_disabled": 0, "lat": 38.8689055, "bike_id": "f58f9fc1eb01821be199b7c917df5fe7", "name": "f58f9fc1eb01821be199b7c917df5fe7", "is_reserved": 0, "fusion_lat": 0.0}, {"type": "electric_scooter", "rental_uris": {"ios": "https://dc.lft.to/lastmile_qr_scan", "android": "https://dc.lft.to/lastmile_qr_scan"}, "lon": -77.02674316666666, "fusion_lon": 0.0, "is_disabled": 0, "lat": 38.899738, "bike_id": "dc9d11cd339a76386eaf9b0df56a3298", "name": "dc9d11cd339a76386eaf9b0df56a3298", "is_reserved": 0, "fusion_lat": 0.0}, {"type": "electric_scooter", "rental_uris": {"ios": "https://dc.lft.to/lastmile_qr_scan", "android": "https://dc.lft.to/lastmile_qr_scan"}, "lon": -77.05267766666667, "fusion_lon": 0.0, "is_disabled": 0, "lat": 38.899908333333336, "bike_id": "235c9d33a5ca4ab9a14a3b3872d93ee7", "name": "235c9d33a5ca4ab9a14a3b3872d93ee7", "is_reserved": 0, "fusion_lat": 0.0}, {"type": "electric_scooter", "rental_uris": {"ios": "https://dc.lft.to/lastmile_qr_scan", "android": "https://dc.lft.to/lastmile_qr_scan"}, "lon": -76.995181, "fusion_lon": 0.0, "is_disabled": 0, "lat": 38.88366833333333, "bike_id": "6f8bc806945585076ef62af2336ba1bc", "name": "6f8bc806945585076ef62af2336ba1bc", "is_reserved": 0, "fusion_lat": 0.0}, {"type": "electric_scooter", "rental_uris": {"ios": "https://dc.lft.to/lastmile_qr_scan", "android": "https://dc.lft.to/lastmile_qr_scan"}, "lon": -76.98181433333333, "fusion_lon": 0.0, "is_disabled": 0, "lat": 38.895796833333335, "bike_id": "1c78a9d2e9520bd2e95f641da922abc8", "name": "1c78a9d2e9520bd2e95f641da922abc8", "is_reserved": 0, "fusion_lat": 0.0}, {"type": "electric_scooter", "rental_uris": {"ios": "https://dc.lft.to/lastmile_qr_scan", "android": "https://dc.lft.to/lastmile_qr_scan"}, "lon": -77.0020715, "fusion_lon": 0.0, "is_disabled": 0, "lat": 38.900535, "bike_id": "cb319dc12dab1c03afa326621889d432", "name": "cb319dc12dab1c03afa326621889d432", "is_reserved": 0, "fusion_lat": 0.0}, {"type": "electric_scooter", "rental_uris": {"ios": "https://dc.lft.to/lastmile_qr_scan", "android": "https://dc.lft.to/lastmile_qr_scan"}, "lon": -77.04126566666666, "fusion_lon": 0.0, "is_disabled": 0, "lat": 38.925292166666665, "bike_id": "0d2c97cc63858d7f77ef93988fb4fa35", "name": "0d2c97cc63858d7f77ef93988fb4fa35", "is_reserved": 0, "fusion_lat": 0.0}, {"type": "electric_bike", "rental_uris": {"ios": "https://dc.lft.to/lastmile_qr_scan", "android": "https://dc.lft.to/lastmile_qr_scan"}, "lon": -77.12486616666666, "fusion_lon": 0.0, "is_disabled": 0, "lat": 38.8539475, "bike_id": "7ccf9e6349b15aad061204fae4b6f48c", "name": "7ccf9e6349b15aad061204fae4b6f48c", "is_reserved": 0, "fusion_lat": 0.0}, {"type": "electric_bike", "rental_uris": {"ios": "https://dc.lft.to/lastmile_qr_scan", "android": "https://dc.lft.to/lastmile_qr_scan"}, "lon": -76.945687, "fusion_lon": 0.0, "is_disabled": 0, "lat": 38.84132983333333, "bike_id": "880243cd113e779935a3c7f25356be78", "name": "880243cd113e779935a3c7f25356be78", "is_reserved": 0, "fusion_lat": 0.0}, {"type": "electric_scooter", "rental_uris": {"ios": "https://dc.lft.to/lastmile_qr_scan", "android": "https://dc.lft.to/lastmile_qr_scan"}, "lon": -77.03084633333333, "fusion_lon": 0.0, "is_disabled": 0, "lat": 38.9309215, "bike_id": "b807e03733672fbffdaa6eb6d8db02bb", "name": "b807e03733672fbffdaa6eb6d8db02bb", "is_reserved": 0, "fusion_lat": 0.0}, {"type": "electric_scooter", "rental_uris": {"ios": "https://dc.lft.to/lastmile_qr_scan", "android": "https://dc.lft.to/lastmile_qr_scan"}, "lon": -77.03864733333333, "fusion_lon": 0.0, "is_disabled": 0, "lat": 38.910349, "bike_id": "f0768a078d90062707578ec5b300c73a", "name": "f0768a078d90062707578ec5b300c73a", "is_reserved": 0, "fusion_lat": 0.0}, {"type": "electric_scooter", "rental_uris": {"ios": "https://dc.lft.to/lastmile_qr_scan", "android": "https://dc.lft.to/lastmile_qr_scan"}, "lon": -77.03646233333333, "fusion_lon": 0.0, "is_disabled": 0, "lat": 38.90273783333333, "bike_id": "0badcb8a16121e8bc3a22639caaa14ca", "name": "0badcb8a16121e8bc3a22639caaa14ca", "is_reserved": 0, "fusion_lat": 0.0}, {"type": "electric_scooter", "rental_uris": {"ios": "https://dc.lft.to/lastmile_qr_scan", "android": "https://dc.lft.to/lastmile_qr_scan"}, "lon": -77.0216805, "fusion_lon": 0.0, "is_disabled": 0, "lat": 38.916163, "bike_id": "6bc7fdf05e9ddb4f07d860b36e4dec0f", "name": "6bc7fdf05e9ddb4f07d860b36e4dec0f", "is_reserved": 0, "fusion_lat": 0.0}, {"type": "electric_scooter", "rental_uris": {"ios": "https://dc.lft.to/lastmile_qr_scan", "android": "https://dc.lft.to/lastmile_qr_scan"}, "lon": -77.05018983333333, "fusion_lon": 0.0, "is_disabled": 0, "lat": 38.90660616666667, "bike_id": "33164055652678f356edb75587791b0d", "name": "33164055652678f356edb75587791b0d", "is_reserved": 0, "fusion_lat": 0.0}, {"type": "electric_scooter", "rental_uris": {"ios": "https://dc.lft.to/lastmile_qr_scan", "android": "https://dc.lft.to/lastmile_qr_scan"}, "lon": -77.00613316666667, "fusion_lon": 0.0, "is_disabled": 0, "lat": 38.905753, "bike_id": "3460bdfed3c9ad868c5c8cfd739c4ebb", "name": "3460bdfed3c9ad868c5c8cfd739c4ebb", "is_reserved": 0, "fusion_lat": 0.0}, {"type": "electric_scooter", "rental_uris": {"ios": "https://dc.lft.to/lastmile_qr_scan", "android": "https://dc.lft.to/lastmile_qr_scan"}, "lon": -77.0261, "fusion_lon": 0.0, "is_disabled": 0, "lat": 38.914078333333336, "bike_id": "f71b6a030a0534255a69d76173bc03ba", "name": "f71b6a030a0534255a69d76173bc03ba", "is_reserved": 0, "fusion_lat": 0.0}, {"type": "electric_scooter", "rental_uris": {"ios": "https://dc.lft.to/lastmile_qr_scan", "android": "https://dc.lft.to/lastmile_qr_scan"}, "lon": -77.041696, "fusion_lon": 0.0, "is_disabled": 0, "lat": 38.913418666666665, "bike_id": "ee30d29d2a41472e108d4736ab761a2b", "name": "ee30d29d2a41472e108d4736ab761a2b", "is_reserved": 0, "fusion_lat": 0.0}, {"type": "electric_scooter", "rental_uris": {"ios": "https://dc.lft.to/lastmile_qr_scan", "android": "https://dc.lft.to/lastmile_qr_scan"}, "lon": -77.0239345, "fusion_lon": 0.0, "is_disabled": 0, "lat": 38.919850833333335, "bike_id": "79b902751e717f64f7723a73a4e1ef6e", "name": "79b902751e717f64f7723a73a4e1ef6e", "is_reserved": 0, "fusion_lat": 0.0}, {"type": "electric_scooter", "rental_uris": {"ios": "https://dc.lft.to/lastmile_qr_scan", "android": "https://dc.lft.to/lastmile_qr_scan"}, "lon": -77.03270816666667, "fusion_lon": 0.0, "is_disabled": 0, "lat": 38.929689833333335, "bike_id": "2d87022a10943b40c2ebd8b34c9d7b1f", "name": "2d87022a10943b40c2ebd8b34c9d7b1f", "is_reserved": 0, "fusion_lat": 0.0}, {"type": "electric_scooter", "rental_uris": {"ios": "https://dc.lft.to/lastmile_qr_scan", "android": "https://dc.lft.to/lastmile_qr_scan"}, "lon": -77.0363995, "fusion_lon": 0.0, "is_disabled": 0, "lat": 38.91688383333333, "bike_id": "f72adab1d93b711b64dc2906cf53b0c1", "name": "f72adab1d93b711b64dc2906cf53b0c1", "is_reserved": 0, "fusion_lat": 0.0}, {"type": "electric_scooter", "rental_uris": {"ios": "https://dc.lft.to/lastmile_qr_scan", "android": "https://dc.lft.to/lastmile_qr_scan"}, "lon": -77.05470266666667, "fusion_lon": 0.0, "is_disabled": 0, "lat": 38.89603, "bike_id": "194d88517e825aae6c5bfc6bff8f365a", "name": "194d88517e825aae6c5bfc6bff8f365a", "is_reserved": 0, "fusion_lat": 0.0}, {"type": "electric_scooter", "rental_uris": {"ios": "https://dc.lft.to/lastmile_qr_scan", "android": "https://dc.lft.to/lastmile_qr_scan"}, "lon": -77.0319545, "fusion_lon": 0.0, "is_disabled": 0, "lat": 38.90121833333333, "bike_id": "36f4cbecdc247d80c5898ee1aa38786f", "name": "36f4cbecdc247d80c5898ee1aa38786f", "is_reserved": 0, "fusion_lat": 0.0}, {"type": "electric_scooter", "rental_uris": {"ios": "https://dc.lft.to/lastmile_qr_scan", "android": "https://dc.lft.to/lastmile_qr_scan"}, "lon": -77.03864316666666, "fusion_lon": 0.0, "is_disabled": 0, "lat": 38.911725833333335, "bike_id": "8d32ae7ea523079f30916b8f930767e1", "name": "8d32ae7ea523079f30916b8f930767e1", "is_reserved": 0, "fusion_lat": 0.0}, {"type": "electric_scooter", "rental_uris": {"ios": "https://dc.lft.to/lastmile_qr_scan", "android": "https://dc.lft.to/lastmile_qr_scan"}, "lon": -77.05754216666666, "fusion_lon": 0.0, "is_disabled": 0, "lat": 38.92454983333333, "bike_id": "b5d7659ac9e757e15695d12cefe81cc0", "name": "b5d7659ac9e757e15695d12cefe81cc0", "is_reserved": 0, "fusion_lat": 0.0}, {"type": "electric_scooter", "rental_uris": {"ios": "https://dc.lft.to/lastmile_qr_scan", "android": "https://dc.lft.to/lastmile_qr_scan"}, "lon": -77.0257515, "fusion_lon": 0.0, "is_disabled": 0, "lat": 38.899413333333335, "bike_id": "50fa3d9ef7e21db8189e701caffc5761", "name": "50fa3d9ef7e21db8189e701caffc5761", "is_reserved": 0, "fusion_lat": 0.0}, {"type": "electric_scooter", "rental_uris": {"ios": "https://dc.lft.to/lastmile_qr_scan", "android": "https://dc.lft.to/lastmile_qr_scan"}, "lon": -76.999049, "fusion_lon": 0.0, "is_disabled": 0, "lat": 38.948213833333334, "bike_id": "6492d92d0978a7406bb7749802b80f04", "name": "6492d92d0978a7406bb7749802b80f04", "is_reserved": 0, "fusion_lat": 0.0}, {"type": "electric_scooter", "rental_uris": {"ios": "https://dc.lft.to/lastmile_qr_scan", "android": "https://dc.lft.to/lastmile_qr_scan"}, "lon": -77.06033383333333, "fusion_lon": 0.0, "is_disabled": 0, "lat": 38.94464166666667, "bike_id": "add0e1370c9c1e68aedb0cb71248fab2", "name": "add0e1370c9c1e68aedb0cb71248fab2", "is_reserved": 0, "fusion_lat": 0.0}, {"type": "electric_scooter", "rental_uris": {"ios": "https://dc.lft.to/lastmile_qr_scan", "android": "https://dc.lft.to/lastmile_qr_scan"}, "lon": -77.060705, "fusion_lon": 0.0, "is_disabled": 0, "lat": 38.902247333333335, "bike_id": "9ff4dbd6678bac80444d0a767cd26039", "name": "9ff4dbd6678bac80444d0a767cd26039", "is_reserved": 0, "fusion_lat": 0.0}, {"type": "electric_scooter", "rental_uris": {"ios": "https://dc.lft.to/lastmile_qr_scan", "android": "https://dc.lft.to/lastmile_qr_scan"}, "lon": -77.021985, "fusion_lon": 0.0, "is_disabled": 0, "lat": 38.914887666666665, "bike_id": "1e97f5dcabfaf94f0e0531e98c87d5ce", "name": "1e97f5dcabfaf94f0e0531e98c87d5ce", "is_reserved": 0, "fusion_lat": 0.0}, {"type": "electric_scooter", "rental_uris": {"ios": "https://dc.lft.to/lastmile_qr_scan", "android": "https://dc.lft.to/lastmile_qr_scan"}, "lon": -76.936088, "fusion_lon": 0.0, "is_disabled": 0, "lat": 38.896803, "bike_id": "d5602cf824e4cf728ac9e24761bb1436", "name": "d5602cf824e4cf728ac9e24761bb1436", "is_reserved": 0, "fusion_lat": 0.0}, {"type": "electric_scooter", "rental_uris": {"ios": "https://dc.lft.to/lastmile_qr_scan", "android": "https://dc.lft.to/lastmile_qr_scan"}, "lon": -77.04191766666666, "fusion_lon": 0.0, "is_disabled": 0, "lat": 38.905624333333336, "bike_id": "9f3ddad1643ebbf748db80514bd6d25b", "name": "9f3ddad1643ebbf748db80514bd6d25b", "is_reserved": 0, "fusion_lat": 0.0}, {"type": "electric_scooter", "rental_uris": {"ios": "https://dc.lft.to/lastmile_qr_scan", "android": "https://dc.lft.to/lastmile_qr_scan"}, "lon": -77.02715533333334, "fusion_lon": 0.0, "is_disabled": 0, "lat": 38.90139466666667, "bike_id": "8af74420b6b9e1a38bb6108950d02792", "name": "8af74420b6b9e1a38bb6108950d02792", "is_reserved": 0, "fusion_lat": 0.0}, {"type": "electric_scooter", "rental_uris": {"ios": "https://dc.lft.to/lastmile_qr_scan", "android": "https://dc.lft.to/lastmile_qr_scan"}, "lon": -77.05221383333334, "fusion_lon": 0.0, "is_disabled": 0, "lat": 38.924905333333335, "bike_id": "2f9569dea58b687caedf1f16a5180b45", "name": "2f9569dea58b687caedf1f16a5180b45", "is_reserved": 0, "fusion_lat": 0.0}, {"type": "electric_scooter", "rental_uris": {"ios": "https://dc.lft.to/lastmile_qr_scan", "android": "https://dc.lft.to/lastmile_qr_scan"}, "lon": -77.031962, "fusion_lon": 0.0, "is_disabled": 0, "lat": 38.91738016666667, "bike_id": "d8cad98f8a02ea119d6e5cc5aabb5112", "name": "d8cad98f8a02ea119d6e5cc5aabb5112", "is_reserved": 0, "fusion_lat": 0.0}, {"type": "electric_scooter", "rental_uris": {"ios": "https://dc.lft.to/lastmile_qr_scan", "android": "https://dc.lft.to/lastmile_qr_scan"}, "lon": -77.0323615, "fusion_lon": 0.0, "is_disabled": 0, "lat": 38.9087595, "bike_id": "2dcbabf3acf322e95cce940cf7083010", "name": "2dcbabf3acf322e95cce940cf7083010", "is_reserved": 0, "fusion_lat": 0.0}, {"type": "electric_scooter", "rental_uris": {"ios": "https://dc.lft.to/lastmile_qr_scan", "android": "https://dc.lft.to/lastmile_qr_scan"}, "lon": -77.03439933333334, "fusion_lon": 0.0, "is_disabled": 0, "lat": 38.906549166666665, "bike_id": "4c1d457bdc57d3d11e5d7865a18acca6", "name": "4c1d457bdc57d3d11e5d7865a18acca6", "is_reserved": 0, "fusion_lat": 0.0}, {"type": "electric_scooter", "rental_uris": {"ios": "https://dc.lft.to/lastmile_qr_scan", "android": "https://dc.lft.to/lastmile_qr_scan"}, "lon": -77.03455216666667, "fusion_lon": 0.0, "is_disabled": 0, "lat": 38.9182295, "bike_id": "2a3a3e81342ca82dd231022becab1774", "name": "2a3a3e81342ca82dd231022becab1774", "is_reserved": 0, "fusion_lat": 0.0}, {"type": "electric_scooter", "rental_uris": {"ios": "https://dc.lft.to/lastmile_qr_scan", "android": "https://dc.lft.to/lastmile_qr_scan"}, "lon": -77.06192483333334, "fusion_lon": 0.0, "is_disabled": 0, "lat": 38.90510733333333, "bike_id": "1e10e3c5b157821879ba494e5972f185", "name": "1e10e3c5b157821879ba494e5972f185", "is_reserved": 0, "fusion_lat": 0.0}, {"type": "electric_scooter", "rental_uris": {"ios": "https://dc.lft.to/lastmile_qr_scan", "android": "https://dc.lft.to/lastmile_qr_scan"}, "lon": -76.98981833333333, "fusion_lon": 0.0, "is_disabled": 0, "lat": 38.86502733333333, "bike_id": "a81b6e63b3b578910e3a13c1b5a0fbe6", "name": "a81b6e63b3b578910e3a13c1b5a0fbe6", "is_reserved": 0, "fusion_lat": 0.0}, {"type": "electric_scooter", "rental_uris": {"ios": "https://dc.lft.to/lastmile_qr_scan", "android": "https://dc.lft.to/lastmile_qr_scan"}, "lon": -77.0282285, "fusion_lon": 0.0, "is_disabled": 0, "lat": 38.902530666666664, "bike_id": "d08d7690a035dd515aeb366c00778842", "name": "d08d7690a035dd515aeb366c00778842", "is_reserved": 0, "fusion_lat": 0.0}, {"type": "electric_scooter", "rental_uris": {"ios": "https://dc.lft.to/lastmile_qr_scan", "android": "https://dc.lft.to/lastmile_qr_scan"}, "lon": -77.040562, "fusion_lon": 0.0, "is_disabled": 0, "lat": 38.900246333333335, "bike_id": "fcc814690d21f28774310bb5546c41de", "name": "fcc814690d21f28774310bb5546c41de", "is_reserved": 0, "fusion_lat": 0.0}, {"type": "electric_scooter", "rental_uris": {"ios": "https://dc.lft.to/lastmile_qr_scan", "android": "https://dc.lft.to/lastmile_qr_scan"}, "lon": -77.04683566666667, "fusion_lon": 0.0, "is_disabled": 0, "lat": 38.900146666666664, "bike_id": "bb4e8b4853eadfdb81fb90d38850b332", "name": "bb4e8b4853eadfdb81fb90d38850b332", "is_reserved": 0, "fusion_lat": 0.0}, {"type": "electric_scooter", "rental_uris": {"ios": "https://dc.lft.to/lastmile_qr_scan", "android": "https://dc.lft.to/lastmile_qr_scan"}, "lon": -77.01502, "fusion_lon": 0.0, "is_disabled": 0, "lat": 38.899186666666665, "bike_id": "a283970a679f6f3195767bd9b18cb1de", "name": "a283970a679f6f3195767bd9b18cb1de", "is_reserved": 0, "fusion_lat": 0.0}, {"type": "electric_scooter", "rental_uris": {"ios": "https://dc.lft.to/lastmile_qr_scan", "android": "https://dc.lft.to/lastmile_qr_scan"}, "lon": -77.04142333333333, "fusion_lon": 0.0, "is_disabled": 0, "lat": 38.89345866666667, "bike_id": "99bb07fbaa4ad53176d87854e3d29645", "name": "99bb07fbaa4ad53176d87854e3d29645", "is_reserved": 0, "fusion_lat": 0.0}, {"type": "electric_scooter", "rental_uris": {"ios": "https://dc.lft.to/lastmile_qr_scan", "android": "https://dc.lft.to/lastmile_qr_scan"}, "lon": -76.97635333333334, "fusion_lon": 0.0, "is_disabled": 0, "lat": 38.85191116666667, "bike_id": "75bc837ab5a53460935180a65bd56b15", "name": "75bc837ab5a53460935180a65bd56b15", "is_reserved": 0, "fusion_lat": 0.0}, {"type": "electric_scooter", "rental_uris": {"ios": "https://dc.lft.to/lastmile_qr_scan", "android": "https://dc.lft.to/lastmile_qr_scan"}, "lon": -77.04465966666666, "fusion_lon": 0.0, "is_disabled": 0, "lat": 38.91114566666667, "bike_id": "44d2f797bde099a4f9440fa9e13700e0", "name": "44d2f797bde099a4f9440fa9e13700e0", "is_reserved": 0, "fusion_lat": 0.0}, {"type": "electric_scooter", "rental_uris": {"ios": "https://dc.lft.to/lastmile_qr_scan", "android": "https://dc.lft.to/lastmile_qr_scan"}, "lon": -76.98837966666666, "fusion_lon": 0.0, "is_disabled": 0, "lat": 38.8907135, "bike_id": "cfa0b0407b4ec6ed98856bdd081c67ed", "name": "cfa0b0407b4ec6ed98856bdd081c67ed", "is_reserved": 0, "fusion_lat": 0.0}, {"type": "electric_bike", "rental_uris": {"ios": "https://dc.lft.to/lastmile_qr_scan", "android": "https://dc.lft.to/lastmile_qr_scan"}, "lon": -76.89537633333333, "fusion_lon": 0.0, "is_disabled": 0, "lat": 38.94548566666667, "bike_id": "7cd3631cacabdd8d298b8105d1fc0c19", "name": "7cd3631cacabdd8d298b8105d1fc0c19", "is_reserved": 0, "fusion_lat": 0.0}, {"type": "electric_scooter", "rental_uris": {"ios": "https://dc.lft.to/lastmile_qr_scan", "android": "https://dc.lft.to/lastmile_qr_scan"}, "lon": -77.04167733333334, "fusion_lon": 0.0, "is_disabled": 0, "lat": 38.91592716666667, "bike_id": "bab4e4f686c2f0739e18ca7515e9a313", "name": "bab4e4f686c2f0739e18ca7515e9a313", "is_reserved": 0, "fusion_lat": 0.0}, {"type": "electric_scooter", "rental_uris": {"ios": "https://dc.lft.to/lastmile_qr_scan", "android": "https://dc.lft.to/lastmile_qr_scan"}, "lon": -77.03278283333333, "fusion_lon": 0.0, "is_disabled": 0, "lat": 38.932511, "bike_id": "3488c4667daebb10579ae13e4a0915d5", "name": "3488c4667daebb10579ae13e4a0915d5", "is_reserved": 0, "fusion_lat": 0.0}, {"type": "electric_scooter", "rental_uris": {"ios": "https://dc.lft.to/lastmile_qr_scan", "android": "https://dc.lft.to/lastmile_qr_scan"}, "lon": -77.02284283333333, "fusion_lon": 0.0, "is_disabled": 0, "lat": 38.916825833333334, "bike_id": "7371bce0b85f61b1cdfd16b3c7a3310a", "name": "7371bce0b85f61b1cdfd16b3c7a3310a", "is_reserved": 0, "fusion_lat": 0.0}, {"type": "electric_scooter", "rental_uris": {"ios": "https://dc.lft.to/lastmile_qr_scan", "android": "https://dc.lft.to/lastmile_qr_scan"}, "lon": -77.03077033333334, "fusion_lon": 0.0, "is_disabled": 0, "lat": 38.899666, "bike_id": "e5e423cf0549a586cf49b3bd52b11cd4", "name": "e5e423cf0549a586cf49b3bd52b11cd4", "is_reserved": 0, "fusion_lat": 0.0}, {"type": "electric_bike", "rental_uris": {"ios": "https://dc.lft.to/lastmile_qr_scan", "android": "https://dc.lft.to/lastmile_qr_scan"}, "lon": -77.07116683333334, "fusion_lon": 0.0, "is_disabled": 0, "lat": 38.800587166666666, "bike_id": "0e497b751590cbac01b4e7ad36d4873d", "name": "0e497b751590cbac01b4e7ad36d4873d", "is_reserved": 0, "fusion_lat": 0.0}, {"type": "electric_scooter", "rental_uris": {"ios": "https://dc.lft.to/lastmile_qr_scan", "android": "https://dc.lft.to/lastmile_qr_scan"}, "lon": -77.03213783333334, "fusion_lon": 0.0, "is_disabled": 0, "lat": 38.91838583333333, "bike_id": "205b5a5f847cc765de3160a069e87d1e", "name": "205b5a5f847cc765de3160a069e87d1e", "is_reserved": 0, "fusion_lat": 0.0}, {"type": "electric_scooter", "rental_uris": {"ios": "https://dc.lft.to/lastmile_qr_scan", "android": "https://dc.lft.to/lastmile_qr_scan"}, "lon": -77.0408105, "fusion_lon": 0.0, "is_disabled": 0, "lat": 38.91692966666667, "bike_id": "b52561bc3d52e038d669356e028a7f49", "name": "b52561bc3d52e038d669356e028a7f49", "is_reserved": 0, "fusion_lat": 0.0}, {"type": "electric_scooter", "rental_uris": {"ios": "https://dc.lft.to/lastmile_qr_scan", "android": "https://dc.lft.to/lastmile_qr_scan"}, "lon": -77.020572, "fusion_lon": 0.0, "is_disabled": 0, "lat": 38.9084485, "bike_id": "73567056f9504e120a72b1944fcea293", "name": "73567056f9504e120a72b1944fcea293", "is_reserved": 0, "fusion_lat": 0.0}, {"type": "electric_scooter", "rental_uris": {"ios": "https://dc.lft.to/lastmile_qr_scan", "android": "https://dc.lft.to/lastmile_qr_scan"}, "lon": -76.988849, "fusion_lon": 0.0, "is_disabled": 0, "lat": 38.866452833333334, "bike_id": "a64523dab15e86d39f33744cf2cff549", "name": "a64523dab15e86d39f33744cf2cff549", "is_reserved": 0, "fusion_lat": 0.0}, {"type": "electric_scooter", "rental_uris": {"ios": "https://dc.lft.to/lastmile_qr_scan", "android": "https://dc.lft.to/lastmile_qr_scan"}, "lon": -76.996303, "fusion_lon": 0.0, "is_disabled": 0, "lat": 38.900005166666666, "bike_id": "a1e23f5114ff4e9879d1d48fa944ccd1", "name": "a1e23f5114ff4e9879d1d48fa944ccd1", "is_reserved": 0, "fusion_lat": 0.0}, {"type": "electric_bike", "rental_uris": {"ios": "https://dc.lft.to/lastmile_qr_scan", "android": "https://dc.lft.to/lastmile_qr_scan"}, "lon": -77.0633005, "fusion_lon": 0.0, "is_disabled": 0, "lat": 38.921024333333335, "bike_id": "bdae215c4f6469de9ddf21acd6cfe606", "name": "bdae215c4f6469de9ddf21acd6cfe606", "is_reserved": 0, "fusion_lat": 0.0}, {"type": "electric_scooter", "rental_uris": {"ios": "https://dc.lft.to/lastmile_qr_scan", "android": "https://dc.lft.to/lastmile_qr_scan"}, "lon": -77.00707666666666, "fusion_lon": 0.0, "is_disabled": 0, "lat": 38.88492516666667, "bike_id": "724082cafdae03af53dd8efa7b8b3e82", "name": "724082cafdae03af53dd8efa7b8b3e82", "is_reserved": 0, "fusion_lat": 0.0}, {"type": "electric_bike", "rental_uris": {"ios": "https://dc.lft.to/lastmile_qr_scan", "android": "https://dc.lft.to/lastmile_qr_scan"}, "lon": -77.024712, "fusion_lon": 0.0, "is_disabled": 0, "lat": 38.95295616666667, "bike_id": "e7dc57659ad990519e543b33089a377c", "name": "e7dc57659ad990519e543b33089a377c", "is_reserved": 0, "fusion_lat": 0.0}, {"type": "electric_scooter", "rental_uris": {"ios": "https://dc.lft.to/lastmile_qr_scan", "android": "https://dc.lft.to/lastmile_qr_scan"}, "lon": -77.02502216666667, "fusion_lon": 0.0, "is_disabled": 0, "lat": 38.9194755, "bike_id": "b873de39c1bb9cd98202079b54abf338", "name": "b873de39c1bb9cd98202079b54abf338", "is_reserved": 0, "fusion_lat": 0.0}, {"type": "electric_scooter", "rental_uris": {"ios": "https://dc.lft.to/lastmile_qr_scan", "android": "https://dc.lft.to/lastmile_qr_scan"}, "lon": -77.0394355, "fusion_lon": 0.0, "is_disabled": 0, "lat": 38.908067833333334, "bike_id": "3bc165089191cb43af02f7cf210ef537", "name": "3bc165089191cb43af02f7cf210ef537", "is_reserved": 0, "fusion_lat": 0.0}, {"type": "electric_scooter", "rental_uris": {"ios": "https://dc.lft.to/lastmile_qr_scan", "android": "https://dc.lft.to/lastmile_qr_scan"}, "lon": -77.04556766666667, "fusion_lon": 0.0, "is_disabled": 0, "lat": 38.913196, "bike_id": "755bdf2a65145f8e168c1389c27e4eef", "name": "755bdf2a65145f8e168c1389c27e4eef", "is_reserved": 0, "fusion_lat": 0.0}, {"type": "electric_scooter", "rental_uris": {"ios": "https://dc.lft.to/lastmile_qr_scan", "android": "https://dc.lft.to/lastmile_qr_scan"}, "lon": -77.02796, "fusion_lon": 0.0, "is_disabled": 0, "lat": 38.93082066666667, "bike_id": "0fe0f9abbe02b41ccaa6e39a2fd328c1", "name": "0fe0f9abbe02b41ccaa6e39a2fd328c1", "is_reserved": 0, "fusion_lat": 0.0}, {"type": "electric_bike", "rental_uris": {"ios": "https://dc.lft.to/lastmile_qr_scan", "android": "https://dc.lft.to/lastmile_qr_scan"}, "lon": -76.92501933333334, "fusion_lon": 0.0, "is_disabled": 0, "lat": 38.999968, "bike_id": "e9bfd5fffb4666dbb3fe9a0fc7c4a1c0", "name": "e9bfd5fffb4666dbb3fe9a0fc7c4a1c0", "is_reserved": 0, "fusion_lat": 0.0}, {"type": "electric_scooter", "rental_uris": {"ios": "https://dc.lft.to/lastmile_qr_scan", "android": "https://dc.lft.to/lastmile_qr_scan"}, "lon": -77.0322345, "fusion_lon": 0.0, "is_disabled": 0, "lat": 38.892226, "bike_id": "fc5b5e2a5d11727200f5a6194c0136e4", "name": "fc5b5e2a5d11727200f5a6194c0136e4", "is_reserved": 0, "fusion_lat": 0.0}, {"type": "electric_scooter", "rental_uris": {"ios": "https://dc.lft.to/lastmile_qr_scan", "android": "https://dc.lft.to/lastmile_qr_scan"}, "lon": -77.02027266666667, "fusion_lon": 0.0, "is_disabled": 0, "lat": 38.93187133333333, "bike_id": "8bb9a4429fee7b6102aeb996b320f7c8", "name": "8bb9a4429fee7b6102aeb996b320f7c8", "is_reserved": 0, "fusion_lat": 0.0}, {"type": "electric_scooter", "rental_uris": {"ios": "https://dc.lft.to/lastmile_qr_scan", "android": "https://dc.lft.to/lastmile_qr_scan"}, "lon": -77.03184016666667, "fusion_lon": 0.0, "is_disabled": 0, "lat": 38.91827383333333, "bike_id": "03c13530a2558fd53bb84d7b053694ae", "name": "03c13530a2558fd53bb84d7b053694ae", "is_reserved": 0, "fusion_lat": 0.0}, {"type": "electric_scooter", "rental_uris": {"ios": "https://dc.lft.to/lastmile_qr_scan", "android": "https://dc.lft.to/lastmile_qr_scan"}, "lon": -77.04179966666666, "fusion_lon": 0.0, "is_disabled": 0, "lat": 38.918351333333334, "bike_id": "53616e72206c39fa1bff54abb6344704", "name": "53616e72206c39fa1bff54abb6344704", "is_reserved": 0, "fusion_lat": 0.0}, {"type": "electric_scooter", "rental_uris": {"ios": "https://dc.lft.to/lastmile_qr_scan", "android": "https://dc.lft.to/lastmile_qr_scan"}, "lon": -77.0593195, "fusion_lon": 0.0, "is_disabled": 0, "lat": 38.909344, "bike_id": "95575019bd8213e23654511d778b0ddf", "name": "95575019bd8213e23654511d778b0ddf", "is_reserved": 0, "fusion_lat": 0.0}, {"type": "electric_bike", "rental_uris": {"ios": "https://dc.lft.to/lastmile_qr_scan", "android": "https://dc.lft.to/lastmile_qr_scan"}, "lon": -77.04601633333333, "fusion_lon": 0.0, "is_disabled": 0, "lat": 38.903451833333335, "bike_id": "1579d3a97627b7d2fdc993512886ef9d", "name": "1579d3a97627b7d2fdc993512886ef9d", "is_reserved": 0, "fusion_lat": 0.0}, {"type": "electric_scooter", "rental_uris": {"ios": "https://dc.lft.to/lastmile_qr_scan", "android": "https://dc.lft.to/lastmile_qr_scan"}, "lon": -76.98540433333334, "fusion_lon": 0.0, "is_disabled": 0, "lat": 38.866755166666664, "bike_id": "907ba893db6960a24b6d75f6e2498c2c", "name": "907ba893db6960a24b6d75f6e2498c2c", "is_reserved": 0, "fusion_lat": 0.0}, {"type": "electric_scooter", "rental_uris": {"ios": "https://dc.lft.to/lastmile_qr_scan", "android": "https://dc.lft.to/lastmile_qr_scan"}, "lon": -76.93173533333334, "fusion_lon": 0.0, "is_disabled": 0, "lat": 38.898811, "bike_id": "481237c02a8ec326e26a77d8b129b431", "name": "481237c02a8ec326e26a77d8b129b431", "is_reserved": 0, "fusion_lat": 0.0}, {"type": "electric_scooter", "rental_uris": {"ios": "https://dc.lft.to/lastmile_qr_scan", "android": "https://dc.lft.to/lastmile_qr_scan"}, "lon": -77.02879483333334, "fusion_lon": 0.0, "is_disabled": 0, "lat": 38.9281755, "bike_id": "e2f5318bb383f1d5dda97669384825d3", "name": "e2f5318bb383f1d5dda97669384825d3", "is_reserved": 0, "fusion_lat": 0.0}, {"type": "electric_scooter", "rental_uris": {"ios": "https://dc.lft.to/lastmile_qr_scan", "android": "https://dc.lft.to/lastmile_qr_scan"}, "lon": -77.02167183333333, "fusion_lon": 0.0, "is_disabled": 0, "lat": 38.93068566666667, "bike_id": "94bd518c9deed968c151a10c4f05a805", "name": "94bd518c9deed968c151a10c4f05a805", "is_reserved": 0, "fusion_lat": 0.0}, {"type": "electric_scooter", "rental_uris": {"ios": "https://dc.lft.to/lastmile_qr_scan", "android": "https://dc.lft.to/lastmile_qr_scan"}, "lon": -77.03326716666666, "fusion_lon": 0.0, "is_disabled": 0, "lat": 38.888870833333335, "bike_id": "0f61e72afb9250cedf3801810af19eb2", "name": "0f61e72afb9250cedf3801810af19eb2", "is_reserved": 0, "fusion_lat": 0.0}, {"type": "electric_scooter", "rental_uris": {"ios": "https://dc.lft.to/lastmile_qr_scan", "android": "https://dc.lft.to/lastmile_qr_scan"}, "lon": -77.04246233333333, "fusion_lon": 0.0, "is_disabled": 0, "lat": 38.922175333333335, "bike_id": "446c385404daaa504b358863c54e5cd3", "name": "446c385404daaa504b358863c54e5cd3", "is_reserved": 0, "fusion_lat": 0.0}, {"type": "electric_scooter", "rental_uris": {"ios": "https://dc.lft.to/lastmile_qr_scan", "android": "https://dc.lft.to/lastmile_qr_scan"}, "lon": -77.0383455, "fusion_lon": 0.0, "is_disabled": 0, "lat": 38.915552166666664, "bike_id": "58a08b9bd84b96dab1435e8f282e4d3f", "name": "58a08b9bd84b96dab1435e8f282e4d3f", "is_reserved": 0, "fusion_lat": 0.0}, {"type": "electric_scooter", "rental_uris": {"ios": "https://dc.lft.to/lastmile_qr_scan", "android": "https://dc.lft.to/lastmile_qr_scan"}, "lon": -77.04057816666666, "fusion_lon": 0.0, "is_disabled": 0, "lat": 38.900293833333336, "bike_id": "33a6a2056956e62ad98ab4337fd99c3e", "name": "33a6a2056956e62ad98ab4337fd99c3e", "is_reserved": 0, "fusion_lat": 0.0}, {"type": "electric_scooter", "rental_uris": {"ios": "https://dc.lft.to/lastmile_qr_scan", "android": "https://dc.lft.to/lastmile_qr_scan"}, "lon": -77.00839416666666, "fusion_lon": 0.0, "is_disabled": 0, "lat": 38.870636, "bike_id": "bc53fc95ecb0619c8a88f9308bbbcc6f", "name": "bc53fc95ecb0619c8a88f9308bbbcc6f", "is_reserved": 0, "fusion_lat": 0.0}, {"type": "electric_scooter", "rental_uris": {"ios": "https://dc.lft.to/lastmile_qr_scan", "android": "https://dc.lft.to/lastmile_qr_scan"}, "lon": -76.99873983333333, "fusion_lon": 0.0, "is_disabled": 0, "lat": 38.907528166666665, "bike_id": "bca7877631ead0470d89bc1b5ef42057", "name": "bca7877631ead0470d89bc1b5ef42057", "is_reserved": 0, "fusion_lat": 0.0}, {"type": "electric_bike", "rental_uris": {"ios": "https://dc.lft.to/lastmile_qr_scan", "android": "https://dc.lft.to/lastmile_qr_scan"}, "lon": -76.99777533333334, "fusion_lon": 0.0, "is_disabled": 0, "lat": 38.8620945, "bike_id": "0e459328d44eb4944c2b8efb8542f483", "name": "0e459328d44eb4944c2b8efb8542f483", "is_reserved": 0, "fusion_lat": 0.0}, {"type": "electric_scooter", "rental_uris": {"ios": "https://dc.lft.to/lastmile_qr_scan", "android": "https://dc.lft.to/lastmile_qr_scan"}, "lon": -77.059324, "fusion_lon": 0.0, "is_disabled": 0, "lat": 38.9429925, "bike_id": "b807883ba3932240198b96857683fd69", "name": "b807883ba3932240198b96857683fd69", "is_reserved": 0, "fusion_lat": 0.0}, {"type": "electric_scooter", "rental_uris": {"ios": "https://dc.lft.to/lastmile_qr_scan", "android": "https://dc.lft.to/lastmile_qr_scan"}, "lon": -77.04659816666667, "fusion_lon": 0.0, "is_disabled": 0, "lat": 38.9000825, "bike_id": "d92128c4101f44917a060c5e93ba1055", "name": "d92128c4101f44917a060c5e93ba1055", "is_reserved": 0, "fusion_lat": 0.0}, {"type": "electric_scooter", "rental_uris": {"ios": "https://dc.lft.to/lastmile_qr_scan", "android": "https://dc.lft.to/lastmile_qr_scan"}, "lon": -77.06100916666666, "fusion_lon": 0.0, "is_disabled": 0, "lat": 38.90530166666667, "bike_id": "c9fe1cddfb7d763e5ad841e1e90d2ea5", "name": "c9fe1cddfb7d763e5ad841e1e90d2ea5", "is_reserved": 0, "fusion_lat": 0.0}, {"type": "electric_scooter", "rental_uris": {"ios": "https://dc.lft.to/lastmile_qr_scan", "android": "https://dc.lft.to/lastmile_qr_scan"}, "lon": -76.9963235, "fusion_lon": 0.0, "is_disabled": 0, "lat": 38.9088835, "bike_id": "e6fefab03c35bc3c8ce94b33ddeed16b", "name": "e6fefab03c35bc3c8ce94b33ddeed16b", "is_reserved": 0, "fusion_lat": 0.0}, {"type": "electric_scooter", "rental_uris": {"ios": "https://dc.lft.to/lastmile_qr_scan", "android": "https://dc.lft.to/lastmile_qr_scan"}, "lon": -77.01949916666666, "fusion_lon": 0.0, "is_disabled": 0, "lat": 38.922455666666664, "bike_id": "7b5352e448ccfd6ce50ba1ea709dbf15", "name": "7b5352e448ccfd6ce50ba1ea709dbf15", "is_reserved": 0, "fusion_lat": 0.0}, {"type": "electric_scooter", "rental_uris": {"ios": "https://dc.lft.to/lastmile_qr_scan", "android": "https://dc.lft.to/lastmile_qr_scan"}, "lon": -77.04163116666666, "fusion_lon": 0.0, "is_disabled": 0, "lat": 38.9054935, "bike_id": "cffb35a11d4c67a507b37338bcb3b948", "name": "cffb35a11d4c67a507b37338bcb3b948", "is_reserved": 0, "fusion_lat": 0.0}, {"type": "electric_scooter", "rental_uris": {"ios": "https://dc.lft.to/lastmile_qr_scan", "android": "https://dc.lft.to/lastmile_qr_scan"}, "lon": -77.02307216666667, "fusion_lon": 0.0, "is_disabled": 0, "lat": 38.915932833333336, "bike_id": "9ee472bba8d2e9abcafb414e6fb9fb78", "name": "9ee472bba8d2e9abcafb414e6fb9fb78", "is_reserved": 0, "fusion_lat": 0.0}, {"type": "electric_scooter", "rental_uris": {"ios": "https://dc.lft.to/lastmile_qr_scan", "android": "https://dc.lft.to/lastmile_qr_scan"}, "lon": -77.03852333333333, "fusion_lon": 0.0, "is_disabled": 0, "lat": 38.908114, "bike_id": "ef8e20d7c3948ddaaafc9731f6495247", "name": "ef8e20d7c3948ddaaafc9731f6495247", "is_reserved": 0, "fusion_lat": 0.0}, {"type": "electric_bike", "rental_uris": {"ios": "https://dc.lft.to/lastmile_qr_scan", "android": "https://dc.lft.to/lastmile_qr_scan"}, "lon": -77.008321, "fusion_lon": 0.0, "is_disabled": 0, "lat": 38.870652666666665, "bike_id": "91b67eb28d19634086c5eb15b3aae6c2", "name": "91b67eb28d19634086c5eb15b3aae6c2", "is_reserved": 0, "fusion_lat": 0.0}, {"type": "electric_scooter", "rental_uris": {"ios": "https://dc.lft.to/lastmile_qr_scan", "android": "https://dc.lft.to/lastmile_qr_scan"}, "lon": -76.99860316666667, "fusion_lon": 0.0, "is_disabled": 0, "lat": 38.899868833333336, "bike_id": "f1359c936e07b6ebec907519ca61f5bd", "name": "f1359c936e07b6ebec907519ca61f5bd", "is_reserved": 0, "fusion_lat": 0.0}, {"type": "electric_scooter", "rental_uris": {"ios": "https://dc.lft.to/lastmile_qr_scan", "android": "https://dc.lft.to/lastmile_qr_scan"}, "lon": -77.00717816666666, "fusion_lon": 0.0, "is_disabled": 0, "lat": 38.89959016666667, "bike_id": "628d450366a1dc557c3836b8adbd22ac", "name": "628d450366a1dc557c3836b8adbd22ac", "is_reserved": 0, "fusion_lat": 0.0}, {"type": "electric_scooter", "rental_uris": {"ios": "https://dc.lft.to/lastmile_qr_scan", "android": "https://dc.lft.to/lastmile_qr_scan"}, "lon": -77.04193333333333, "fusion_lon": 0.0, "is_disabled": 0, "lat": 38.9055255, "bike_id": "df8192e80176d07ad5f52286396d5d24", "name": "df8192e80176d07ad5f52286396d5d24", "is_reserved": 0, "fusion_lat": 0.0}, {"type": "electric_scooter", "rental_uris": {"ios": "https://dc.lft.to/lastmile_qr_scan", "android": "https://dc.lft.to/lastmile_qr_scan"}, "lon": -77.059133, "fusion_lon": 0.0, "is_disabled": 0, "lat": 38.90227483333334, "bike_id": "6338fd264cbe34cdd24e2a34e74a5c3e", "name": "6338fd264cbe34cdd24e2a34e74a5c3e", "is_reserved": 0, "fusion_lat": 0.0}, {"type": "electric_scooter", "rental_uris": {"ios": "https://dc.lft.to/lastmile_qr_scan", "android": "https://dc.lft.to/lastmile_qr_scan"}, "lon": -77.04573333333333, "fusion_lon": 0.0, "is_disabled": 0, "lat": 38.92239633333333, "bike_id": "b4e4d4a9684bafc9081b93c11039fd8f", "name": "b4e4d4a9684bafc9081b93c11039fd8f", "is_reserved": 0, "fusion_lat": 0.0}, {"type": "electric_scooter", "rental_uris": {"ios": "https://dc.lft.to/lastmile_qr_scan", "android": "https://dc.lft.to/lastmile_qr_scan"}, "lon": -76.9924, "fusion_lon": 0.0, "is_disabled": 0, "lat": 38.908291, "bike_id": "e5954fc1920b13ee970004ce0825a956", "name": "e5954fc1920b13ee970004ce0825a956", "is_reserved": 0, "fusion_lat": 0.0}, {"type": "electric_scooter", "rental_uris": {"ios": "https://dc.lft.to/lastmile_qr_scan", "android": "https://dc.lft.to/lastmile_qr_scan"}, "lon": -77.01797316666666, "fusion_lon": 0.0, "is_disabled": 0, "lat": 38.902704666666665, "bike_id": "93d88aac5173edb7dd5e23280b9dc48c", "name": "93d88aac5173edb7dd5e23280b9dc48c", "is_reserved": 0, "fusion_lat": 0.0}, {"type": "electric_scooter", "rental_uris": {"ios": "https://dc.lft.to/lastmile_qr_scan", "android": "https://dc.lft.to/lastmile_qr_scan"}, "lon": -77.03199883333333, "fusion_lon": 0.0, "is_disabled": 0, "lat": 38.918339, "bike_id": "d878efa274a26cc71aa582af2b3faa34", "name": "d878efa274a26cc71aa582af2b3faa34", "is_reserved": 0, "fusion_lat": 0.0}, {"type": "electric_scooter", "rental_uris": {"ios": "https://dc.lft.to/lastmile_qr_scan", "android": "https://dc.lft.to/lastmile_qr_scan"}, "lon": -76.97731166666667, "fusion_lon": 0.0, "is_disabled": 0, "lat": 38.8728945, "bike_id": "e53c988c92e4c72d032146468f4c70dd", "name": "e53c988c92e4c72d032146468f4c70dd", "is_reserved": 0, "fusion_lat": 0.0}, {"type": "electric_bike", "rental_uris": {"ios": "https://dc.lft.to/lastmile_qr_scan", "android": "https://dc.lft.to/lastmile_qr_scan"}, "lon": -76.90434466666666, "fusion_lon": 0.0, "is_disabled": 0, "lat": 38.897717, "bike_id": "d8500f96497dc4a25b3e8e2ba7c4b023", "name": "d8500f96497dc4a25b3e8e2ba7c4b023", "is_reserved": 0, "fusion_lat": 0.0}, {"type": "electric_scooter", "rental_uris": {"ios": "https://dc.lft.to/lastmile_qr_scan", "android": "https://dc.lft.to/lastmile_qr_scan"}, "lon": -76.99547416666667, "fusion_lon": 0.0, "is_disabled": 0, "lat": 38.92653883333333, "bike_id": "3e6a00581438d6f874edd65850576cac", "name": "3e6a00581438d6f874edd65850576cac", "is_reserved": 0, "fusion_lat": 0.0}, {"type": "electric_bike", "rental_uris": {"ios": "https://dc.lft.to/lastmile_qr_scan", "android": "https://dc.lft.to/lastmile_qr_scan"}, "lon": -77.0628015, "fusion_lon": 0.0, "is_disabled": 0, "lat": 38.90475083333333, "bike_id": "0d16286a676d90296cf2c54bff35f469", "name": "0d16286a676d90296cf2c54bff35f469", "is_reserved": 0, "fusion_lat": 0.0}, {"type": "electric_scooter", "rental_uris": {"ios": "https://dc.lft.to/lastmile_qr_scan", "android": "https://dc.lft.to/lastmile_qr_scan"}, "lon": -77.02576466666666, "fusion_lon": 0.0, "is_disabled": 0, "lat": 38.91697633333333, "bike_id": "b9373364b7818ef3a90918445a1654f9", "name": "b9373364b7818ef3a90918445a1654f9", "is_reserved": 0, "fusion_lat": 0.0}, {"type": "electric_scooter", "rental_uris": {"ios": "https://dc.lft.to/lastmile_qr_scan", "android": "https://dc.lft.to/lastmile_qr_scan"}, "lon": -77.04310683333334, "fusion_lon": 0.0, "is_disabled": 0, "lat": 38.91108, "bike_id": "ed4c4948a2eca353e1d2bb6a62ffc143", "name": "ed4c4948a2eca353e1d2bb6a62ffc143", "is_reserved": 0, "fusion_lat": 0.0}, {"type": "electric_scooter", "rental_uris": {"ios": "https://dc.lft.to/lastmile_qr_scan", "android": "https://dc.lft.to/lastmile_qr_scan"}, "lon": -76.985644, "fusion_lon": 0.0, "is_disabled": 0, "lat": 38.88665683333333, "bike_id": "96e54541cf673510028540afe8df50bf", "name": "96e54541cf673510028540afe8df50bf", "is_reserved": 0, "fusion_lat": 0.0}, {"type": "electric_scooter", "rental_uris": {"ios": "https://dc.lft.to/lastmile_qr_scan", "android": "https://dc.lft.to/lastmile_qr_scan"}, "lon": -77.0049185, "fusion_lon": 0.0, "is_disabled": 0, "lat": 38.896800166666665, "bike_id": "bd0f1ac437492a2999933ea86c08767f", "name": "bd0f1ac437492a2999933ea86c08767f", "is_reserved": 0, "fusion_lat": 0.0}, {"type": "electric_scooter", "rental_uris": {"ios": "https://dc.lft.to/lastmile_qr_scan", "android": "https://dc.lft.to/lastmile_qr_scan"}, "lon": -77.01585316666667, "fusion_lon": 0.0, "is_disabled": 0, "lat": 38.928483, "bike_id": "3b33a6df1835736956464f6afcf183c1", "name": "3b33a6df1835736956464f6afcf183c1", "is_reserved": 0, "fusion_lat": 0.0}, {"type": "electric_scooter", "rental_uris": {"ios": "https://dc.lft.to/lastmile_qr_scan", "android": "https://dc.lft.to/lastmile_qr_scan"}, "lon": -77.0258675, "fusion_lon": 0.0, "is_disabled": 0, "lat": 38.90410216666667, "bike_id": "da4984342ed4809296501df0691bc51b", "name": "da4984342ed4809296501df0691bc51b", "is_reserved": 0, "fusion_lat": 0.0}, {"type": "electric_scooter", "rental_uris": {"ios": "https://dc.lft.to/lastmile_qr_scan", "android": "https://dc.lft.to/lastmile_qr_scan"}, "lon": -77.025, "fusion_lon": 0.0, "is_disabled": 0, "lat": 38.919310333333335, "bike_id": "792812e4dacbad693c642041f330e749", "name": "792812e4dacbad693c642041f330e749", "is_reserved": 0, "fusion_lat": 0.0}, {"type": "electric_scooter", "rental_uris": {"ios": "https://dc.lft.to/lastmile_qr_scan", "android": "https://dc.lft.to/lastmile_qr_scan"}, "lon": -77.0164035, "fusion_lon": 0.0, "is_disabled": 0, "lat": 38.90375916666667, "bike_id": "261f8c6609003a013b760141e0e9b4e2", "name": "261f8c6609003a013b760141e0e9b4e2", "is_reserved": 0, "fusion_lat": 0.0}, {"type": "electric_scooter", "rental_uris": {"ios": "https://dc.lft.to/lastmile_qr_scan", "android": "https://dc.lft.to/lastmile_qr_scan"}, "lon": -77.041721, "fusion_lon": 0.0, "is_disabled": 0, "lat": 38.91836283333333, "bike_id": "a9c4f0dfda18b4029dbdd379c9885dab", "name": "a9c4f0dfda18b4029dbdd379c9885dab", "is_reserved": 0, "fusion_lat": 0.0}, {"type": "electric_scooter", "rental_uris": {"ios": "https://dc.lft.to/lastmile_qr_scan", "android": "https://dc.lft.to/lastmile_qr_scan"}, "lon": -77.03263983333333, "fusion_lon": 0.0, "is_disabled": 0, "lat": 38.935192, "bike_id": "6efe0f5a094a8da06f3eab5c535937f6", "name": "6efe0f5a094a8da06f3eab5c535937f6", "is_reserved": 0, "fusion_lat": 0.0}, {"type": "electric_scooter", "rental_uris": {"ios": "https://dc.lft.to/lastmile_qr_scan", "android": "https://dc.lft.to/lastmile_qr_scan"}, "lon": -77.04324633333333, "fusion_lon": 0.0, "is_disabled": 0, "lat": 38.90823916666667, "bike_id": "48b4ed6375029b5169707a0d95ea6136", "name": "48b4ed6375029b5169707a0d95ea6136", "is_reserved": 0, "fusion_lat": 0.0}, {"type": "electric_bike", "rental_uris": {"ios": "https://dc.lft.to/lastmile_qr_scan", "android": "https://dc.lft.to/lastmile_qr_scan"}, "lon": -76.98553066666666, "fusion_lon": 0.0, "is_disabled": 0, "lat": 38.852107, "bike_id": "ef0ec4c8369bacc97fa6ad7e66772ee2", "name": "ef0ec4c8369bacc97fa6ad7e66772ee2", "is_reserved": 0, "fusion_lat": 0.0}, {"type": "electric_scooter", "rental_uris": {"ios": "https://dc.lft.to/lastmile_qr_scan", "android": "https://dc.lft.to/lastmile_qr_scan"}, "lon": -77.03276866666667, "fusion_lon": 0.0, "is_disabled": 0, "lat": 38.9324945, "bike_id": "e46a039bbccbcab518a2f32eb80060bd", "name": "e46a039bbccbcab518a2f32eb80060bd", "is_reserved": 0, "fusion_lat": 0.0}, {"type": "electric_scooter", "rental_uris": {"ios": "https://dc.lft.to/lastmile_qr_scan", "android": "https://dc.lft.to/lastmile_qr_scan"}, "lon": -77.05749383333334, "fusion_lon": 0.0, "is_disabled": 0, "lat": 38.9256325, "bike_id": "b384d4c84b71d277a09cdc213abda8e8", "name": "b384d4c84b71d277a09cdc213abda8e8", "is_reserved": 0, "fusion_lat": 0.0}, {"type": "electric_scooter", "rental_uris": {"ios": "https://dc.lft.to/lastmile_qr_scan", "android": "https://dc.lft.to/lastmile_qr_scan"}, "lon": -77.0334345, "fusion_lon": 0.0, "is_disabled": 0, "lat": 38.917136166666666, "bike_id": "757aea03cc6fc7b2c45c152c7e0a881a", "name": "757aea03cc6fc7b2c45c152c7e0a881a", "is_reserved": 0, "fusion_lat": 0.0}, {"type": "electric_scooter", "rental_uris": {"ios": "https://dc.lft.to/lastmile_qr_scan", "android": "https://dc.lft.to/lastmile_qr_scan"}, "lon": -77.04806116666667, "fusion_lon": 0.0, "is_disabled": 0, "lat": 38.91924066666667, "bike_id": "a9661b4c5d47a4de5dc9ca063c1361e8", "name": "a9661b4c5d47a4de5dc9ca063c1361e8", "is_reserved": 0, "fusion_lat": 0.0}, {"type": "electric_scooter", "rental_uris": {"ios": "https://dc.lft.to/lastmile_qr_scan", "android": "https://dc.lft.to/lastmile_qr_scan"}, "lon": -77.00422116666667, "fusion_lon": 0.0, "is_disabled": 0, "lat": 38.87637633333333, "bike_id": "df14ce1b135decb5aa9508412bdcedc5", "name": "df14ce1b135decb5aa9508412bdcedc5", "is_reserved": 0, "fusion_lat": 0.0}, {"type": "electric_bike", "rental_uris": {"ios": "https://dc.lft.to/lastmile_qr_scan", "android": "https://dc.lft.to/lastmile_qr_scan"}, "lon": -76.93891483333333, "fusion_lon": 0.0, "is_disabled": 0, "lat": 38.9564055, "bike_id": "28ef57ad0f403f8e3e499bbdb152959e", "name": "28ef57ad0f403f8e3e499bbdb152959e", "is_reserved": 0, "fusion_lat": 0.0}, {"type": "electric_bike", "rental_uris": {"ios": "https://dc.lft.to/lastmile_qr_scan", "android": "https://dc.lft.to/lastmile_qr_scan"}, "lon": -76.93544566666667, "fusion_lon": 0.0, "is_disabled": 0, "lat": 38.95183, "bike_id": "bc575d23059f9f19f789721c178c4433", "name": "bc575d23059f9f19f789721c178c4433", "is_reserved": 0, "fusion_lat": 0.0}, {"type": "electric_scooter", "rental_uris": {"ios": "https://dc.lft.to/lastmile_qr_scan", "android": "https://dc.lft.to/lastmile_qr_scan"}, "lon": -77.02591916666667, "fusion_lon": 0.0, "is_disabled": 0, "lat": 38.90408766666667, "bike_id": "6f80768b663d8357e04a4b560d15e119", "name": "6f80768b663d8357e04a4b560d15e119", "is_reserved": 0, "fusion_lat": 0.0}, {"type": "electric_scooter", "rental_uris": {"ios": "https://dc.lft.to/lastmile_qr_scan", "android": "https://dc.lft.to/lastmile_qr_scan"}, "lon": -77.0448055, "fusion_lon": 0.0, "is_disabled": 0, "lat": 38.91919033333333, "bike_id": "8faf4183ca99939240bc83fc7a2ff76d", "name": "8faf4183ca99939240bc83fc7a2ff76d", "is_reserved": 0, "fusion_lat": 0.0}, {"type": "electric_scooter", "rental_uris": {"ios": "https://dc.lft.to/lastmile_qr_scan", "android": "https://dc.lft.to/lastmile_qr_scan"}, "lon": -77.03131233333333, "fusion_lon": 0.0, "is_disabled": 0, "lat": 38.892153, "bike_id": "c1d6b89bd614beedf46e63c8c8d499bf", "name": "c1d6b89bd614beedf46e63c8c8d499bf", "is_reserved": 0, "fusion_lat": 0.0}, {"type": "electric_scooter", "rental_uris": {"ios": "https://dc.lft.to/lastmile_qr_scan", "android": "https://dc.lft.to/lastmile_qr_scan"}, "lon": -76.9766265, "fusion_lon": 0.0, "is_disabled": 0, "lat": 38.86746983333333, "bike_id": "2894a83a26780d52314db466e7d27a94", "name": "2894a83a26780d52314db466e7d27a94", "is_reserved": 0, "fusion_lat": 0.0}, {"type": "electric_scooter", "rental_uris": {"ios": "https://dc.lft.to/lastmile_qr_scan", "android": "https://dc.lft.to/lastmile_qr_scan"}, "lon": -77.01846016666667, "fusion_lon": 0.0, "is_disabled": 0, "lat": 38.94631783333333, "bike_id": "46a2833d5196be2ab3b4804bba37cc5b", "name": "46a2833d5196be2ab3b4804bba37cc5b", "is_reserved": 0, "fusion_lat": 0.0}, {"type": "electric_scooter", "rental_uris": {"ios": "https://dc.lft.to/lastmile_qr_scan", "android": "https://dc.lft.to/lastmile_qr_scan"}, "lon": -77.027629, "fusion_lon": 0.0, "is_disabled": 0, "lat": 38.9072865, "bike_id": "1051aca4e8a481d933b84d167275a954", "name": "1051aca4e8a481d933b84d167275a954", "is_reserved": 0, "fusion_lat": 0.0}, {"type": "electric_scooter", "rental_uris": {"ios": "https://dc.lft.to/lastmile_qr_scan", "android": "https://dc.lft.to/lastmile_qr_scan"}, "lon": -77.03771166666667, "fusion_lon": 0.0, "is_disabled": 0, "lat": 38.91689983333333, "bike_id": "1e9b90abfd726b1fe2e3536ab94ac93f", "name": "1e9b90abfd726b1fe2e3536ab94ac93f", "is_reserved": 0, "fusion_lat": 0.0}, {"type": "electric_bike", "rental_uris": {"ios": "https://dc.lft.to/lastmile_qr_scan", "android": "https://dc.lft.to/lastmile_qr_scan"}, "lon": -77.02840266666666, "fusion_lon": 0.0, "is_disabled": 0, "lat": 38.92642683333333, "bike_id": "604d7ef0a3329c8b31dd47cf16b1e4d0", "name": "604d7ef0a3329c8b31dd47cf16b1e4d0", "is_reserved": 0, "fusion_lat": 0.0}, {"type": "electric_scooter", "rental_uris": {"ios": "https://dc.lft.to/lastmile_qr_scan", "android": "https://dc.lft.to/lastmile_qr_scan"}, "lon": -77.02762466666667, "fusion_lon": 0.0, "is_disabled": 0, "lat": 38.90729866666667, "bike_id": "bb6f6a2927a02345cd57f332a924ce56", "name": "bb6f6a2927a02345cd57f332a924ce56", "is_reserved": 0, "fusion_lat": 0.0}, {"type": "electric_bike", "rental_uris": {"ios": "https://dc.lft.to/lastmile_qr_scan", "android": "https://dc.lft.to/lastmile_qr_scan"}, "lon": -77.11852516666667, "fusion_lon": 0.0, "is_disabled": 0, "lat": 38.87728833333333, "bike_id": "be1c3f5e47d0a24f886db8d977c1f5e6", "name": "be1c3f5e47d0a24f886db8d977c1f5e6", "is_reserved": 0, "fusion_lat": 0.0}, {"type": "electric_scooter", "rental_uris": {"ios": "https://dc.lft.to/lastmile_qr_scan", "android": "https://dc.lft.to/lastmile_qr_scan"}, "lon": -77.080231, "fusion_lon": 0.0, "is_disabled": 0, "lat": 38.9091305, "bike_id": "5cdef63e4dff6a2356e80ccbb2baa688", "name": "5cdef63e4dff6a2356e80ccbb2baa688", "is_reserved": 0, "fusion_lat": 0.0}, {"type": "electric_bike", "rental_uris": {"ios": "https://dc.lft.to/lastmile_qr_scan", "android": "https://dc.lft.to/lastmile_qr_scan"}, "lon": -77.11300983333334, "fusion_lon": 0.0, "is_disabled": 0, "lat": 38.83158133333333, "bike_id": "dcf4723e3210742ac651e93b78ed2e26", "name": "dcf4723e3210742ac651e93b78ed2e26", "is_reserved": 0, "fusion_lat": 0.0}, {"type": "electric_bike", "rental_uris": {"ios": "https://dc.lft.to/lastmile_qr_scan", "android": "https://dc.lft.to/lastmile_qr_scan"}, "lon": -77.0583125, "fusion_lon": 0.0, "is_disabled": 0, "lat": 38.8425475, "bike_id": "4a25db5448aa16d894ea5d5010d1a443", "name": "4a25db5448aa16d894ea5d5010d1a443", "is_reserved": 0, "fusion_lat": 0.0}, {"type": "electric_scooter", "rental_uris": {"ios": "https://dc.lft.to/lastmile_qr_scan", "android": "https://dc.lft.to/lastmile_qr_scan"}, "lon": -77.03248316666667, "fusion_lon": 0.0, "is_disabled": 0, "lat": 38.91705533333333, "bike_id": "560211253e4d66f11c3966e692d9ff55", "name": "560211253e4d66f11c3966e692d9ff55", "is_reserved": 0, "fusion_lat": 0.0}, {"type": "electric_scooter", "rental_uris": {"ios": "https://dc.lft.to/lastmile_qr_scan", "android": "https://dc.lft.to/lastmile_qr_scan"}, "lon": -76.99701783333333, "fusion_lon": 0.0, "is_disabled": 0, "lat": 38.90827216666667, "bike_id": "5b95ffd6401c062bd48910429055ae68", "name": "5b95ffd6401c062bd48910429055ae68", "is_reserved": 0, "fusion_lat": 0.0}, {"type": "electric_scooter", "rental_uris": {"ios": "https://dc.lft.to/lastmile_qr_scan", "android": "https://dc.lft.to/lastmile_qr_scan"}, "lon": -77.022191, "fusion_lon": 0.0, "is_disabled": 0, "lat": 38.91089433333333, "bike_id": "9f9b4cc20f8446ffa579d3f9e6627e42", "name": "9f9b4cc20f8446ffa579d3f9e6627e42", "is_reserved": 0, "fusion_lat": 0.0}, {"type": "electric_scooter", "rental_uris": {"ios": "https://dc.lft.to/lastmile_qr_scan", "android": "https://dc.lft.to/lastmile_qr_scan"}, "lon": -77.03229783333333, "fusion_lon": 0.0, "is_disabled": 0, "lat": 38.92166616666667, "bike_id": "876d31a9d2a7f5207c4190df0750d7fc", "name": "876d31a9d2a7f5207c4190df0750d7fc", "is_reserved": 0, "fusion_lat": 0.0}, {"type": "electric_scooter", "rental_uris": {"ios": "https://dc.lft.to/lastmile_qr_scan", "android": "https://dc.lft.to/lastmile_qr_scan"}, "lon": -77.032342, "fusion_lon": 0.0, "is_disabled": 0, "lat": 38.929818, "bike_id": "c6cd779b525a35fe955ae04d551070fe", "name": "c6cd779b525a35fe955ae04d551070fe", "is_reserved": 0, "fusion_lat": 0.0}, {"type": "electric_scooter", "rental_uris": {"ios": "https://dc.lft.to/lastmile_qr_scan", "android": "https://dc.lft.to/lastmile_qr_scan"}, "lon": -77.04451383333334, "fusion_lon": 0.0, "is_disabled": 0, "lat": 38.9056555, "bike_id": "3a07f7ae871aaac16053f17175e5679d", "name": "3a07f7ae871aaac16053f17175e5679d", "is_reserved": 0, "fusion_lat": 0.0}, {"type": "electric_scooter", "rental_uris": {"ios": "https://dc.lft.to/lastmile_qr_scan", "android": "https://dc.lft.to/lastmile_qr_scan"}, "lon": -77.00892716666667, "fusion_lon": 0.0, "is_disabled": 0, "lat": 38.9127055, "bike_id": "eba7df5db601b48f0586bf81ea45720e", "name": "eba7df5db601b48f0586bf81ea45720e", "is_reserved": 0, "fusion_lat": 0.0}, {"type": "electric_scooter", "rental_uris": {"ios": "https://dc.lft.to/lastmile_qr_scan", "android": "https://dc.lft.to/lastmile_qr_scan"}, "lon": -77.03892266666666, "fusion_lon": 0.0, "is_disabled": 0, "lat": 38.91709316666667, "bike_id": "a7a98b50b49483abbcd48ab094919cad", "name": "a7a98b50b49483abbcd48ab094919cad", "is_reserved": 0, "fusion_lat": 0.0}, {"type": "electric_scooter", "rental_uris": {"ios": "https://dc.lft.to/lastmile_qr_scan", "android": "https://dc.lft.to/lastmile_qr_scan"}, "lon": -77.0344195, "fusion_lon": 0.0, "is_disabled": 0, "lat": 38.90995, "bike_id": "e73fb3d3c5d3a7d27b3afc9895a6d7fc", "name": "e73fb3d3c5d3a7d27b3afc9895a6d7fc", "is_reserved": 0, "fusion_lat": 0.0}, {"type": "electric_bike", "rental_uris": {"ios": "https://dc.lft.to/lastmile_qr_scan", "android": "https://dc.lft.to/lastmile_qr_scan"}, "lon": -77.20837283333333, "fusion_lon": 0.0, "is_disabled": 0, "lat": 38.924631, "bike_id": "1d8d24d03e8bd41d1c75bf9d04130832", "name": "1d8d24d03e8bd41d1c75bf9d04130832", "is_reserved": 0, "fusion_lat": 0.0}, {"type": "electric_scooter", "rental_uris": {"ios": "https://dc.lft.to/lastmile_qr_scan", "android": "https://dc.lft.to/lastmile_qr_scan"}, "lon": -77.02319216666666, "fusion_lon": 0.0, "is_disabled": 0, "lat": 38.89218983333333, "bike_id": "a6e948817afef518840a5598b8dea4c1", "name": "a6e948817afef518840a5598b8dea4c1", "is_reserved": 0, "fusion_lat": 0.0}, {"type": "electric_scooter", "rental_uris": {"ios": "https://dc.lft.to/lastmile_qr_scan", "android": "https://dc.lft.to/lastmile_qr_scan"}, "lon": -77.04881633333333, "fusion_lon": 0.0, "is_disabled": 0, "lat": 38.88988833333333, "bike_id": "fc20ce6554dc30372ce26e31e595f46d", "name": "fc20ce6554dc30372ce26e31e595f46d", "is_reserved": 0, "fusion_lat": 0.0}, {"type": "electric_scooter", "rental_uris": {"ios": "https://dc.lft.to/lastmile_qr_scan", "android": "https://dc.lft.to/lastmile_qr_scan"}, "lon": -77.03837433333334, "fusion_lon": 0.0, "is_disabled": 0, "lat": 38.914827333333335, "bike_id": "1883f95bdc13ae1fdd7ce19ae357c177", "name": "1883f95bdc13ae1fdd7ce19ae357c177", "is_reserved": 0, "fusion_lat": 0.0}, {"type": "electric_scooter", "rental_uris": {"ios": "https://dc.lft.to/lastmile_qr_scan", "android": "https://dc.lft.to/lastmile_qr_scan"}, "lon": -77.02535366666666, "fusion_lon": 0.0, "is_disabled": 0, "lat": 38.92370733333333, "bike_id": "d5996e8cfca769d3a508fef6083ad2de", "name": "d5996e8cfca769d3a508fef6083ad2de", "is_reserved": 0, "fusion_lat": 0.0}, {"type": "electric_scooter", "rental_uris": {"ios": "https://dc.lft.to/lastmile_qr_scan", "android": "https://dc.lft.to/lastmile_qr_scan"}, "lon": -77.03432433333333, "fusion_lon": 0.0, "is_disabled": 0, "lat": 38.907970666666664, "bike_id": "18828aef919aea5380c38b763ebbf019", "name": "18828aef919aea5380c38b763ebbf019", "is_reserved": 0, "fusion_lat": 0.0}, {"type": "electric_scooter", "rental_uris": {"ios": "https://dc.lft.to/lastmile_qr_scan", "android": "https://dc.lft.to/lastmile_qr_scan"}, "lon": -77.02326116666667, "fusion_lon": 0.0, "is_disabled": 0, "lat": 38.922999833333336, "bike_id": "5c43c99549b47e10ffcc1c2ffb9f2be1", "name": "5c43c99549b47e10ffcc1c2ffb9f2be1", "is_reserved": 0, "fusion_lat": 0.0}, {"type": "electric_scooter", "rental_uris": {"ios": "https://dc.lft.to/lastmile_qr_scan", "android": "https://dc.lft.to/lastmile_qr_scan"}, "lon": -77.0154185, "fusion_lon": 0.0, "is_disabled": 0, "lat": 38.891656166666664, "bike_id": "6b7bb27671a827c84c0e685fac18ce88", "name": "6b7bb27671a827c84c0e685fac18ce88", "is_reserved": 0, "fusion_lat": 0.0}, {"type": "electric_scooter", "rental_uris": {"ios": "https://dc.lft.to/lastmile_qr_scan", "android": "https://dc.lft.to/lastmile_qr_scan"}, "lon": -77.02197366666667, "fusion_lon": 0.0, "is_disabled": 0, "lat": 38.932948833333334, "bike_id": "17fe988dc044644fe387cc5da6101063", "name": "17fe988dc044644fe387cc5da6101063", "is_reserved": 0, "fusion_lat": 0.0}, {"type": "electric_scooter", "rental_uris": {"ios": "https://dc.lft.to/lastmile_qr_scan", "android": "https://dc.lft.to/lastmile_qr_scan"}, "lon": -77.07226683333333, "fusion_lon": 0.0, "is_disabled": 0, "lat": 38.8988755, "bike_id": "a47590651212b8863e48dfc6e05f57c1", "name": "a47590651212b8863e48dfc6e05f57c1", "is_reserved": 0, "fusion_lat": 0.0}, {"type": "electric_scooter", "rental_uris": {"ios": "https://dc.lft.to/lastmile_qr_scan", "android": "https://dc.lft.to/lastmile_qr_scan"}, "lon": -77.0455415, "fusion_lon": 0.0, "is_disabled": 0, "lat": 38.91261, "bike_id": "985020624c4462f2a9a053cebcd25bfb", "name": "985020624c4462f2a9a053cebcd25bfb", "is_reserved": 0, "fusion_lat": 0.0}, {"type": "electric_scooter", "rental_uris": {"ios": "https://dc.lft.to/lastmile_qr_scan", "android": "https://dc.lft.to/lastmile_qr_scan"}, "lon": -77.01155266666666, "fusion_lon": 0.0, "is_disabled": 0, "lat": 38.903012833333335, "bike_id": "e9ac2d7898de87448a4fd3f11d069ea4", "name": "e9ac2d7898de87448a4fd3f11d069ea4", "is_reserved": 0, "fusion_lat": 0.0}, {"type": "electric_scooter", "rental_uris": {"ios": "https://dc.lft.to/lastmile_qr_scan", "android": "https://dc.lft.to/lastmile_qr_scan"}, "lon": -77.04186683333333, "fusion_lon": 0.0, "is_disabled": 0, "lat": 38.9198835, "bike_id": "a026d48b9393e0051c99d3939f16ab21", "name": "a026d48b9393e0051c99d3939f16ab21", "is_reserved": 0, "fusion_lat": 0.0}, {"type": "electric_scooter", "rental_uris": {"ios": "https://dc.lft.to/lastmile_qr_scan", "android": "https://dc.lft.to/lastmile_qr_scan"}, "lon": -77.0314875, "fusion_lon": 0.0, "is_disabled": 0, "lat": 38.91565816666667, "bike_id": "82a342109002d6e11da5c45c1ede5896", "name": "82a342109002d6e11da5c45c1ede5896", "is_reserved": 0, "fusion_lat": 0.0}, {"type": "electric_scooter", "rental_uris": {"ios": "https://dc.lft.to/lastmile_qr_scan", "android": "https://dc.lft.to/lastmile_qr_scan"}, "lon": -77.01367966666666, "fusion_lon": 0.0, "is_disabled": 0, "lat": 38.8922645, "bike_id": "029c16dfa708d7b1dd8794abde0688ec", "name": "029c16dfa708d7b1dd8794abde0688ec", "is_reserved": 0, "fusion_lat": 0.0}, {"type": "electric_bike", "rental_uris": {"ios": "https://dc.lft.to/lastmile_qr_scan", "android": "https://dc.lft.to/lastmile_qr_scan"}, "lon": -77.04979983333334, "fusion_lon": 0.0, "is_disabled": 0, "lat": 39.062921, "bike_id": "10ea8891938850f082fdb82f1c749114", "name": "10ea8891938850f082fdb82f1c749114", "is_reserved": 0, "fusion_lat": 0.0}, {"type": "electric_scooter", "rental_uris": {"ios": "https://dc.lft.to/lastmile_qr_scan", "android": "https://dc.lft.to/lastmile_qr_scan"}, "lon": -77.02153716666666, "fusion_lon": 0.0, "is_disabled": 0, "lat": 38.92602983333333, "bike_id": "cc2cf959b88daa646a279e2367fcfd88", "name": "cc2cf959b88daa646a279e2367fcfd88", "is_reserved": 0, "fusion_lat": 0.0}, {"type": "electric_scooter", "rental_uris": {"ios": "https://dc.lft.to/lastmile_qr_scan", "android": "https://dc.lft.to/lastmile_qr_scan"}, "lon": -77.032731, "fusion_lon": 0.0, "is_disabled": 0, "lat": 38.92934533333333, "bike_id": "3dfef9a359ea90005ee0aeafe154834a", "name": "3dfef9a359ea90005ee0aeafe154834a", "is_reserved": 0, "fusion_lat": 0.0}, {"type": "electric_scooter", "rental_uris": {"ios": "https://dc.lft.to/lastmile_qr_scan", "android": "https://dc.lft.to/lastmile_qr_scan"}, "lon": -77.04252983333333, "fusion_lon": 0.0, "is_disabled": 0, "lat": 38.921941333333336, "bike_id": "aafa06783b76cb837e1bee417a36177e", "name": "aafa06783b76cb837e1bee417a36177e", "is_reserved": 0, "fusion_lat": 0.0}, {"type": "electric_scooter", "rental_uris": {"ios": "https://dc.lft.to/lastmile_qr_scan", "android": "https://dc.lft.to/lastmile_qr_scan"}, "lon": -77.03162783333333, "fusion_lon": 0.0, "is_disabled": 0, "lat": 38.896108, "bike_id": "2d0dac5b6db8619ffadaf185c2a6ead6", "name": "2d0dac5b6db8619ffadaf185c2a6ead6", "is_reserved": 0, "fusion_lat": 0.0}, {"type": "electric_scooter", "rental_uris": {"ios": "https://dc.lft.to/lastmile_qr_scan", "android": "https://dc.lft.to/lastmile_qr_scan"}, "lon": -76.98892833333333, "fusion_lon": 0.0, "is_disabled": 0, "lat": 38.86093016666667, "bike_id": "4d48b8dd472502d3bb4615fbfc4f1e23", "name": "4d48b8dd472502d3bb4615fbfc4f1e23", "is_reserved": 0, "fusion_lat": 0.0}, {"type": "electric_scooter", "rental_uris": {"ios": "https://dc.lft.to/lastmile_qr_scan", "android": "https://dc.lft.to/lastmile_qr_scan"}, "lon": -77.0360605, "fusion_lon": 0.0, "is_disabled": 0, "lat": 38.928496, "bike_id": "c55a8f6cf618fa84699cf572f35aee0c", "name": "c55a8f6cf618fa84699cf572f35aee0c", "is_reserved": 0, "fusion_lat": 0.0}, {"type": "electric_scooter", "rental_uris": {"ios": "https://dc.lft.to/lastmile_qr_scan", "android": "https://dc.lft.to/lastmile_qr_scan"}, "lon": -77.00600366666667, "fusion_lon": 0.0, "is_disabled": 0, "lat": 38.90633166666667, "bike_id": "78cd7a38583fd39c2bc21f0a6d924b18", "name": "78cd7a38583fd39c2bc21f0a6d924b18", "is_reserved": 0, "fusion_lat": 0.0}, {"type": "electric_scooter", "rental_uris": {"ios": "https://dc.lft.to/lastmile_qr_scan", "android": "https://dc.lft.to/lastmile_qr_scan"}, "lon": -77.041269, "fusion_lon": 0.0, "is_disabled": 0, "lat": 38.917055, "bike_id": "8a451616b6f9fd88ee4ea8ae193fa390", "name": "8a451616b6f9fd88ee4ea8ae193fa390", "is_reserved": 0, "fusion_lat": 0.0}, {"type": "electric_scooter", "rental_uris": {"ios": "https://dc.lft.to/lastmile_qr_scan", "android": "https://dc.lft.to/lastmile_qr_scan"}, "lon": -77.02807283333334, "fusion_lon": 0.0, "is_disabled": 0, "lat": 38.90728266666667, "bike_id": "4a34f94ee970d7c64091794398e6cd41", "name": "4a34f94ee970d7c64091794398e6cd41", "is_reserved": 0, "fusion_lat": 0.0}, {"type": "electric_scooter", "rental_uris": {"ios": "https://dc.lft.to/lastmile_qr_scan", "android": "https://dc.lft.to/lastmile_qr_scan"}, "lon": -76.99515183333334, "fusion_lon": 0.0, "is_disabled": 0, "lat": 38.862524, "bike_id": "cfb720d412af36fa4ccc5c67ee48594b", "name": "cfb720d412af36fa4ccc5c67ee48594b", "is_reserved": 0, "fusion_lat": 0.0}, {"type": "electric_scooter", "rental_uris": {"ios": "https://dc.lft.to/lastmile_qr_scan", "android": "https://dc.lft.to/lastmile_qr_scan"}, "lon": -77.05130733333333, "fusion_lon": 0.0, "is_disabled": 0, "lat": 38.92356083333333, "bike_id": "d0b117eec7b53adf2d04b285af5857c8", "name": "d0b117eec7b53adf2d04b285af5857c8", "is_reserved": 0, "fusion_lat": 0.0}, {"type": "electric_scooter", "rental_uris": {"ios": "https://dc.lft.to/lastmile_qr_scan", "android": "https://dc.lft.to/lastmile_qr_scan"}, "lon": -76.9223345, "fusion_lon": 0.0, "is_disabled": 0, "lat": 38.900108, "bike_id": "56b9a0fb15bed8324021364f0d5914a9", "name": "56b9a0fb15bed8324021364f0d5914a9", "is_reserved": 0, "fusion_lat": 0.0}, {"type": "electric_scooter", "rental_uris": {"ios": "https://dc.lft.to/lastmile_qr_scan", "android": "https://dc.lft.to/lastmile_qr_scan"}, "lon": -77.028329, "fusion_lon": 0.0, "is_disabled": 0, "lat": 38.89226, "bike_id": "dd6b80192ab4321de754cf00f683ee0f", "name": "dd6b80192ab4321de754cf00f683ee0f", "is_reserved": 0, "fusion_lat": 0.0}, {"type": "electric_bike", "rental_uris": {"ios": "https://dc.lft.to/lastmile_qr_scan", "android": "https://dc.lft.to/lastmile_qr_scan"}, "lon": -77.18738016666667, "fusion_lon": 0.0, "is_disabled": 0, "lat": 38.89348283333333, "bike_id": "c6a6f5ff6c1655f1383c499b2b77bf57", "name": "c6a6f5ff6c1655f1383c499b2b77bf57", "is_reserved": 0, "fusion_lat": 0.0}, {"type": "electric_scooter", "rental_uris": {"ios": "https://dc.lft.to/lastmile_qr_scan", "android": "https://dc.lft.to/lastmile_qr_scan"}, "lon": -77.0218195, "fusion_lon": 0.0, "is_disabled": 0, "lat": 38.90978833333333, "bike_id": "7a1ae2e56a21b92c87af8f662abc1388", "name": "7a1ae2e56a21b92c87af8f662abc1388", "is_reserved": 0, "fusion_lat": 0.0}, {"type": "electric_scooter", "rental_uris": {"ios": "https://dc.lft.to/lastmile_qr_scan", "android": "https://dc.lft.to/lastmile_qr_scan"}, "lon": -77.011928, "fusion_lon": 0.0, "is_disabled": 0, "lat": 38.9001685, "bike_id": "c851dcaf0bdc7a5c814d139fed837ed1", "name": "c851dcaf0bdc7a5c814d139fed837ed1", "is_reserved": 0, "fusion_lat": 0.0}, {"type": "electric_scooter", "rental_uris": {"ios": "https://dc.lft.to/lastmile_qr_scan", "android": "https://dc.lft.to/lastmile_qr_scan"}, "lon": -77.02835483333334, "fusion_lon": 0.0, "is_disabled": 0, "lat": 38.9026945, "bike_id": "c4cd6b89b476b002da11cdffc290c944", "name": "c4cd6b89b476b002da11cdffc290c944", "is_reserved": 0, "fusion_lat": 0.0}, {"type": "electric_scooter", "rental_uris": {"ios": "https://dc.lft.to/lastmile_qr_scan", "android": "https://dc.lft.to/lastmile_qr_scan"}, "lon": -77.04175, "fusion_lon": 0.0, "is_disabled": 0, "lat": 38.905024833333336, "bike_id": "cc18ecea9cbb1e6ee6bf1304d6a33d88", "name": "cc18ecea9cbb1e6ee6bf1304d6a33d88", "is_reserved": 0, "fusion_lat": 0.0}, {"type": "electric_scooter", "rental_uris": {"ios": "https://dc.lft.to/lastmile_qr_scan", "android": "https://dc.lft.to/lastmile_qr_scan"}, "lon": -77.03771183333333, "fusion_lon": 0.0, "is_disabled": 0, "lat": 38.9169105, "bike_id": "1af7bf01b94fcc19352358af5d008a4e", "name": "1af7bf01b94fcc19352358af5d008a4e", "is_reserved": 0, "fusion_lat": 0.0}, {"type": "electric_scooter", "rental_uris": {"ios": "https://dc.lft.to/lastmile_qr_scan", "android": "https://dc.lft.to/lastmile_qr_scan"}, "lon": -77.04077583333333, "fusion_lon": 0.0, "is_disabled": 0, "lat": 38.90474183333333, "bike_id": "0e21c6d3e901f8923fb68119405b1d57", "name": "0e21c6d3e901f8923fb68119405b1d57", "is_reserved": 0, "fusion_lat": 0.0}, {"type": "electric_scooter", "rental_uris": {"ios": "https://dc.lft.to/lastmile_qr_scan", "android": "https://dc.lft.to/lastmile_qr_scan"}, "lon": -77.03185583333334, "fusion_lon": 0.0, "is_disabled": 0, "lat": 38.9248725, "bike_id": "fd34123d6d6f9d867a8f9f32a9567c12", "name": "fd34123d6d6f9d867a8f9f32a9567c12", "is_reserved": 0, "fusion_lat": 0.0}, {"type": "electric_scooter", "rental_uris": {"ios": "https://dc.lft.to/lastmile_qr_scan", "android": "https://dc.lft.to/lastmile_qr_scan"}, "lon": -76.96528633333334, "fusion_lon": 0.0, "is_disabled": 0, "lat": 38.87623166666667, "bike_id": "734e25415a25ee6d8592a0744eb61223", "name": "734e25415a25ee6d8592a0744eb61223", "is_reserved": 0, "fusion_lat": 0.0}, {"type": "electric_scooter", "rental_uris": {"ios": "https://dc.lft.to/lastmile_qr_scan", "android": "https://dc.lft.to/lastmile_qr_scan"}, "lon": -77.0005125, "fusion_lon": 0.0, "is_disabled": 0, "lat": 38.88994233333333, "bike_id": "dad991e245d68977df79ca2f8f8560a7", "name": "dad991e245d68977df79ca2f8f8560a7", "is_reserved": 0, "fusion_lat": 0.0}, {"type": "electric_scooter", "rental_uris": {"ios": "https://dc.lft.to/lastmile_qr_scan", "android": "https://dc.lft.to/lastmile_qr_scan"}, "lon": -77.020111, "fusion_lon": 0.0, "is_disabled": 0, "lat": 38.924142833333335, "bike_id": "37029c8265e5db1c2080c7f55b2b423a", "name": "37029c8265e5db1c2080c7f55b2b423a", "is_reserved": 0, "fusion_lat": 0.0}, {"type": "electric_bike", "rental_uris": {"ios": "https://dc.lft.to/lastmile_qr_scan", "android": "https://dc.lft.to/lastmile_qr_scan"},