{"data": {"bikes": [{"rental_uris": {"ios": "https://dc.lft.to/lastmile_qr_scan", "android": "https://dc.lft.to/lastmile_qr_scan"}, "type": "electric_scooter", "name": "9c3788adcda3e142d13283e7deb88c18", "is_reserved": 0, "lon": -77.00926983333333, "is_disabled": 0, "fusion_lat": 0.0, "lat": 38.9125315, "bike_id": "9c3788adcda3e142d13283e7deb88c18", "fusion_lon": 0.0}, {"rental_uris": {"ios": "https://dc.lft.to/lastmile_qr_scan", "android": "https://dc.lft.to/lastmile_qr_scan"}, "type": "electric_scooter", "name": "ebb2d2be00f9346bf11d12b114c52597", "is_reserved": 0, "lon": -77.00391366666666, "is_disabled": 0, "fusion_lat": 0.0, "lat": 38.874507, "bike_id": "ebb2d2be00f9346bf11d12b114c52597", "fusion_lon": 0.0}, {"rental_uris": {"ios": "https://dc.lft.to/lastmile_qr_scan", "android": "https://dc.lft.to/lastmile_qr_scan"}, "type": "electric_scooter", "name": "057fdc42ae1d359f7c81b5da6c21cc97", "is_reserved": 0, "lon": -77.01904533333334, "is_disabled": 0, "fusion_lat": 0.0, "lat": 38.923386666666666, "bike_id": "057fdc42ae1d359f7c81b5da6c21cc97", "fusion_lon": 0.0}, {"rental_uris": {"ios": "https://dc.lft.to/lastmile_qr_scan", "android": "https://dc.lft.to/lastmile_qr_scan"}, "type": "electric_scooter", "name": "ec45e03f5bac2e7448026e224087c3eb", "is_reserved": 0, "lon": -77.03330833333334, "is_disabled": 0, "fusion_lat": 0.0, "lat": 38.903349, "bike_id": "ec45e03f5bac2e7448026e224087c3eb", "fusion_lon": 0.0}, {"rental_uris": {"ios": "https://dc.lft.to/lastmile_qr_scan", "android": "https://dc.lft.to/lastmile_qr_scan"}, "type": "electric_scooter", "name": "6f2aecd125fc06fcdbd1c237d9d46917", "is_reserved": 0, "lon": -77.0114805, "is_disabled": 0, "fusion_lat": 0.0, "lat": 38.914509833333334, "bike_id": "6f2aecd125fc06fcdbd1c237d9d46917", "fusion_lon": 0.0}, {"rental_uris": {"ios": "https://dc.lft.to/lastmile_qr_scan", "android": "https://dc.lft.to/lastmile_qr_scan"}, "type": "electric_scooter", "name": "8fc31922e71eb45f8472571a5d9e51e4", "is_reserved": 0, "lon": -77.0219395, "is_disabled": 0, "fusion_lat": 0.0, "lat": 38.91978616666667, "bike_id": "8fc31922e71eb45f8472571a5d9e51e4", "fusion_lon": 0.0}, {"rental_uris": {"ios": "https://dc.lft.to/lastmile_qr_scan", "android": "https://dc.lft.to/lastmile_qr_scan"}, "type": "electric_scooter", "name": "f09dd1273f7db4290d314e1c7f61bb4d", "is_reserved": 0, "lon": -77.01760366666667, "is_disabled": 0, "fusion_lat": 0.0, "lat": 38.87726933333333, "bike_id": "f09dd1273f7db4290d314e1c7f61bb4d", "fusion_lon": 0.0}, {"rental_uris": {"ios": "https://dc.lft.to/lastmile_qr_scan", "android": "https://dc.lft.to/lastmile_qr_scan"}, "type": "electric_scooter", "name": "2c9a10b7c6267df057c6622030ee0aa5", "is_reserved": 0, "lon": -77.0460845, "is_disabled": 0, "fusion_lat": 0.0, "lat": 38.9006545, "bike_id": "2c9a10b7c6267df057c6622030ee0aa5", "fusion_lon": 0.0}, {"rental_uris": {"ios": "https://dc.lft.to/lastmile_qr_scan", "android": "https://dc.lft.to/lastmile_qr_scan"}, "type": "electric_scooter", "name": "d4fe9523ac7739c7ab439dd7bdc5ef57", "is_reserved": 0, "lon": -77.0175345, "is_disabled": 0, "fusion_lat": 0.0, "lat": 38.921097333333336, "bike_id": "d4fe9523ac7739c7ab439dd7bdc5ef57", "fusion_lon": 0.0}, {"rental_uris": {"ios": "https://dc.lft.to/lastmile_qr_scan", "android": "https://dc.lft.to/lastmile_qr_scan"}, "type": "electric_scooter", "name": "54f7eeb146790a2a0b7cc9929249dd95", "is_reserved": 0, "lon": -76.956945, "is_disabled": 0, "fusion_lat": 0.0, "lat": 38.892028, "bike_id": "54f7eeb146790a2a0b7cc9929249dd95", "fusion_lon": 0.0}, {"rental_uris": {"ios": "https://dc.lft.to/lastmile_qr_scan", "android": "https://dc.lft.to/lastmile_qr_scan"}, "type": "electric_scooter", "name": "349bad2c4dec48eba5a8c7d709238508", "is_reserved": 0, "lon": -77.03440366666666, "is_disabled": 0, "fusion_lat": 0.0, "lat": 38.910241666666664, "bike_id": "349bad2c4dec48eba5a8c7d709238508", "fusion_lon": 0.0}, {"rental_uris": {"ios": "https://dc.lft.to/lastmile_qr_scan", "android": "https://dc.lft.to/lastmile_qr_scan"}, "type": "electric_bike", "name": "42d5d1f75c6f6ac1772adb581160cbe8", "is_reserved": 0, "lon": -76.97537566666666, "is_disabled": 0, "fusion_lat": 0.0, "lat": 38.90326016666667, "bike_id": "42d5d1f75c6f6ac1772adb581160cbe8", "fusion_lon": 0.0}, {"rental_uris": {"ios": "https://dc.lft.to/lastmile_qr_scan", "android": "https://dc.lft.to/lastmile_qr_scan"}, "type": "electric_scooter", "name": "0cb794298933c41c2d13f8d50553f45b", "is_reserved": 0, "lon": -76.99606433333334, "is_disabled": 0, "fusion_lat": 0.0, "lat": 38.890930833333336, "bike_id": "0cb794298933c41c2d13f8d50553f45b", "fusion_lon": 0.0}, {"rental_uris": {"ios": "https://dc.lft.to/lastmile_qr_scan", "android": "https://dc.lft.to/lastmile_qr_scan"}, "type": "electric_scooter", "name": "4447e5e3cbb3135c69f771581690a41a", "is_reserved": 0, "lon": -77.04349783333333, "is_disabled": 0, "fusion_lat": 0.0, "lat": 38.90128833333333, "bike_id": "4447e5e3cbb3135c69f771581690a41a", "fusion_lon": 0.0}, {"rental_uris": {"ios": "https://dc.lft.to/lastmile_qr_scan", "android": "https://dc.lft.to/lastmile_qr_scan"}, "type": "electric_scooter", "name": "61d60175393f014cbc80f3a27ebfdc89", "is_reserved": 0, "lon": -77.011701, "is_disabled": 0, "fusion_lat": 0.0, "lat": 38.876487, "bike_id": "61d60175393f014cbc80f3a27ebfdc89", "fusion_lon": 0.0}, {"rental_uris": {"ios": "https://dc.lft.to/lastmile_qr_scan", "android": "https://dc.lft.to/lastmile_qr_scan"}, "type": "electric_scooter", "name": "527c431b578d799b118fbdd8fceab21d", "is_reserved": 0, "lon": -77.02708116666666, "is_disabled": 0, "fusion_lat": 0.0, "lat": 38.918073, "bike_id": "527c431b578d799b118fbdd8fceab21d", "fusion_lon": 0.0}, {"rental_uris": {"ios": "https://dc.lft.to/lastmile_qr_scan", "android": "https://dc.lft.to/lastmile_qr_scan"}, "type": "electric_scooter", "name": "95362bbd146085a7331cacfb763c87b1", "is_reserved": 0, "lon": -76.99037733333333, "is_disabled": 0, "fusion_lat": 0.0, "lat": 38.88872716666667, "bike_id": "95362bbd146085a7331cacfb763c87b1", "fusion_lon": 0.0}, {"rental_uris": {"ios": "https://dc.lft.to/lastmile_qr_scan", "android": "https://dc.lft.to/lastmile_qr_scan"}, "type": "electric_scooter", "name": "b02e12630e36d8067364009b23c6e6b8", "is_reserved": 0, "lon": -77.034779, "is_disabled": 0, "fusion_lat": 0.0, "lat": 38.91709266666667, "bike_id": "b02e12630e36d8067364009b23c6e6b8", "fusion_lon": 0.0}, {"rental_uris": {"ios": "https://dc.lft.to/lastmile_qr_scan", "android": "https://dc.lft.to/lastmile_qr_scan"}, "type": "electric_scooter", "name": "e80ba3976345d933af4591f9a2a5429d", "is_reserved": 0, "lon": -77.02985983333333, "is_disabled": 0, "fusion_lat": 0.0, "lat": 38.923710666666665, "bike_id": "e80ba3976345d933af4591f9a2a5429d", "fusion_lon": 0.0}, {"rental_uris": {"ios": "https://dc.lft.to/lastmile_qr_scan", "android": "https://dc.lft.to/lastmile_qr_scan"}, "type": "electric_scooter", "name": "25d18ec8b56f0d196db659b87da5542b", "is_reserved": 0, "lon": -77.03864566666667, "is_disabled": 0, "fusion_lat": 0.0, "lat": 38.91254816666667, "bike_id": "25d18ec8b56f0d196db659b87da5542b", "fusion_lon": 0.0}, {"rental_uris": {"ios": "https://dc.lft.to/lastmile_qr_scan", "android": "https://dc.lft.to/lastmile_qr_scan"}, "type": "electric_scooter", "name": "fc4f891b5f734b50455842aaebdb0a39", "is_reserved": 0, "lon": -77.02761683333334, "is_disabled": 0, "fusion_lat": 0.0, "lat": 38.92379866666667, "bike_id": "fc4f891b5f734b50455842aaebdb0a39", "fusion_lon": 0.0}, {"rental_uris": {"ios": "https://dc.lft.to/lastmile_qr_scan", "android": "https://dc.lft.to/lastmile_qr_scan"}, "type": "electric_scooter", "name": "3bf60e0c329c3b36b4399f4ba5911293", "is_reserved": 0, "lon": -76.97802583333333, "is_disabled": 0, "fusion_lat": 0.0, "lat": 38.90312383333333, "bike_id": "3bf60e0c329c3b36b4399f4ba5911293", "fusion_lon": 0.0}, {"rental_uris": {"ios": "https://dc.lft.to/lastmile_qr_scan", "android": "https://dc.lft.to/lastmile_qr_scan"}, "type": "electric_scooter", "name": "b7ccf8d5789f4979dbc05ba52b70ca72", "is_reserved": 0, "lon": -77.03334116666667, "is_disabled": 0, "fusion_lat": 0.0, "lat": 38.89630233333333, "bike_id": "b7ccf8d5789f4979dbc05ba52b70ca72", "fusion_lon": 0.0}, {"rental_uris": {"ios": "https://dc.lft.to/lastmile_qr_scan", "android": "https://dc.lft.to/lastmile_qr_scan"}, "type": "electric_scooter", "name": "febe3345fe8df19601e28ddaae70ad06", "is_reserved": 0, "lon": -77.04676816666667, "is_disabled": 0, "fusion_lat": 0.0, "lat": 38.892293333333335, "bike_id": "febe3345fe8df19601e28ddaae70ad06", "fusion_lon": 0.0}, {"rental_uris": {"ios": "https://dc.lft.to/lastmile_qr_scan", "android": "https://dc.lft.to/lastmile_qr_scan"}, "type": "electric_scooter", "name": "5d96901b8f7ad1015e3f6dd5965bc84f", "is_reserved": 0, "lon": -77.031288, "is_disabled": 0, "fusion_lat": 0.0, "lat": 38.9190015, "bike_id": "5d96901b8f7ad1015e3f6dd5965bc84f", "fusion_lon": 0.0}, {"rental_uris": {"ios": "https://dc.lft.to/lastmile_qr_scan", "android": "https://dc.lft.to/lastmile_qr_scan"}, "type": "electric_scooter", "name": "3aa6a58e25ef35444da182c134fec2a7", "is_reserved": 0, "lon": -76.969783, "is_disabled": 0, "fusion_lat": 0.0, "lat": 38.873993666666664, "bike_id": "3aa6a58e25ef35444da182c134fec2a7", "fusion_lon": 0.0}, {"rental_uris": {"ios": "https://dc.lft.to/lastmile_qr_scan", "android": "https://dc.lft.to/lastmile_qr_scan"}, "type": "electric_scooter", "name": "e3f038b7c38c4169e9cbab8254db6d7c", "is_reserved": 0, "lon": -77.02084283333333, "is_disabled": 0, "fusion_lat": 0.0, "lat": 38.9271235, "bike_id": "e3f038b7c38c4169e9cbab8254db6d7c", "fusion_lon": 0.0}, {"rental_uris": {"ios": "https://dc.lft.to/lastmile_qr_scan", "android": "https://dc.lft.to/lastmile_qr_scan"}, "type": "electric_scooter", "name": "5ea6006c4019e7eb2b5f9717905d2af8", "is_reserved": 0, "lon": -77.02783883333333, "is_disabled": 0, "fusion_lat": 0.0, "lat": 38.892211833333334, "bike_id": "5ea6006c4019e7eb2b5f9717905d2af8", "fusion_lon": 0.0}, {"rental_uris": {"ios": "https://dc.lft.to/lastmile_qr_scan", "android": "https://dc.lft.to/lastmile_qr_scan"}, "type": "electric_scooter", "name": "872f664660122580280fdea12f224581", "is_reserved": 0, "lon": -77.0325235, "is_disabled": 0, "fusion_lat": 0.0, "lat": 38.898285666666666, "bike_id": "872f664660122580280fdea12f224581", "fusion_lon": 0.0}, {"rental_uris": {"ios": "https://dc.lft.to/lastmile_qr_scan", "android": "https://dc.lft.to/lastmile_qr_scan"}, "type": "electric_bike", "name": "049c0f6524576c0a82a28d62ddf7dce2", "is_reserved": 0, "lon": -77.020291, "is_disabled": 0, "fusion_lat": 0.0, "lat": 38.96556916666667, "bike_id": "049c0f6524576c0a82a28d62ddf7dce2", "fusion_lon": 0.0}, {"rental_uris": {"ios": "https://dc.lft.to/lastmile_qr_scan", "android": "https://dc.lft.to/lastmile_qr_scan"}, "type": "electric_scooter", "name": "eabcccb477d56f1e26c0ca2f41824194", "is_reserved": 0, "lon": -77.04878083333334, "is_disabled": 0, "fusion_lat": 0.0, "lat": 38.90285333333333, "bike_id": "eabcccb477d56f1e26c0ca2f41824194", "fusion_lon": 0.0}, {"rental_uris": {"ios": "https://dc.lft.to/lastmile_qr_scan", "android": "https://dc.lft.to/lastmile_qr_scan"}, "type": "electric_bike", "name": "4c24c10c4bda19bb01cf006f98dbd859", "is_reserved": 0, "lon": -76.98283316666667, "is_disabled": 0, "fusion_lat": 0.0, "lat": 38.84678983333333, "bike_id": "4c24c10c4bda19bb01cf006f98dbd859", "fusion_lon": 0.0}, {"rental_uris": {"ios": "https://dc.lft.to/lastmile_qr_scan", "android": "https://dc.lft.to/lastmile_qr_scan"}, "type": "electric_bike", "name": "84a6fb941996c7e54dbaf46922bc37e6", "is_reserved": 0, "lon": -76.97565383333334, "is_disabled": 0, "fusion_lat": 0.0, "lat": 38.89944933333334, "bike_id": "84a6fb941996c7e54dbaf46922bc37e6", "fusion_lon": 0.0}, {"rental_uris": {"ios": "https://dc.lft.to/lastmile_qr_scan", "android": "https://dc.lft.to/lastmile_qr_scan"}, "type": "electric_scooter", "name": "9ba0897619e196d02df4eea8ad771386", "is_reserved": 0, "lon": -77.0261845, "is_disabled": 0, "fusion_lat": 0.0, "lat": 38.905337833333334, "bike_id": "9ba0897619e196d02df4eea8ad771386", "fusion_lon": 0.0}, {"rental_uris": {"ios": "https://dc.lft.to/lastmile_qr_scan", "android": "https://dc.lft.to/lastmile_qr_scan"}, "type": "electric_scooter", "name": "2c1440ea3c05d5763b5ca461ea7099e6", "is_reserved": 0, "lon": -77.04534966666667, "is_disabled": 0, "fusion_lat": 0.0, "lat": 38.93272966666667, "bike_id": "2c1440ea3c05d5763b5ca461ea7099e6", "fusion_lon": 0.0}, {"rental_uris": {"ios": "https://dc.lft.to/lastmile_qr_scan", "android": "https://dc.lft.to/lastmile_qr_scan"}, "type": "electric_scooter", "name": "e201daf4aa605652f996145d67ea43e7", "is_reserved": 0, "lon": -77.03340966666667, "is_disabled": 0, "fusion_lat": 0.0, "lat": 38.97214233333333, "bike_id": "e201daf4aa605652f996145d67ea43e7", "fusion_lon": 0.0}, {"rental_uris": {"ios": "https://dc.lft.to/lastmile_qr_scan", "android": "https://dc.lft.to/lastmile_qr_scan"}, "type": "electric_scooter", "name": "3ddb57082d7ab03facb2b1ce1b094420", "is_reserved": 0, "lon": -77.063488, "is_disabled": 0, "fusion_lat": 0.0, "lat": 38.908466833333335, "bike_id": "3ddb57082d7ab03facb2b1ce1b094420", "fusion_lon": 0.0}, {"rental_uris": {"ios": "https://dc.lft.to/lastmile_qr_scan", "android": "https://dc.lft.to/lastmile_qr_scan"}, "type": "electric_scooter", "name": "b3c1528fd970748135eba18c09431d73", "is_reserved": 0, "lon": -77.00885933333333, "is_disabled": 0, "fusion_lat": 0.0, "lat": 38.922421166666666, "bike_id": "b3c1528fd970748135eba18c09431d73", "fusion_lon": 0.0}, {"rental_uris": {"ios": "https://dc.lft.to/lastmile_qr_scan", "android": "https://dc.lft.to/lastmile_qr_scan"}, "type": "electric_scooter", "name": "c136d798cb2d49186f1556f2df3d6824", "is_reserved": 0, "lon": -77.02628016666667, "is_disabled": 0, "fusion_lat": 0.0, "lat": 38.922706833333336, "bike_id": "c136d798cb2d49186f1556f2df3d6824", "fusion_lon": 0.0}, {"rental_uris": {"ios": "https://dc.lft.to/lastmile_qr_scan", "android": "https://dc.lft.to/lastmile_qr_scan"}, "type": "electric_scooter", "name": "cb5bd0c266b2a8288797f4ca4ea1a255", "is_reserved": 0, "lon": -77.04073066666666, "is_disabled": 0, "fusion_lat": 0.0, "lat": 38.90573366666667, "bike_id": "cb5bd0c266b2a8288797f4ca4ea1a255", "fusion_lon": 0.0}, {"rental_uris": {"ios": "https://dc.lft.to/lastmile_qr_scan", "android": "https://dc.lft.to/lastmile_qr_scan"}, "type": "electric_scooter", "name": "2d9994fd4828bf269a7486aad461a1df", "is_reserved": 0, "lon": -77.04756816666666, "is_disabled": 0, "fusion_lat": 0.0, "lat": 38.9054195, "bike_id": "2d9994fd4828bf269a7486aad461a1df", "fusion_lon": 0.0}, {"rental_uris": {"ios": "https://dc.lft.to/lastmile_qr_scan", "android": "https://dc.lft.to/lastmile_qr_scan"}, "type": "electric_scooter", "name": "e04693f8845f793aad27e9a058a5f24a", "is_reserved": 0, "lon": -77.0400755, "is_disabled": 0, "fusion_lat": 0.0, "lat": 38.9039305, "bike_id": "e04693f8845f793aad27e9a058a5f24a", "fusion_lon": 0.0}, {"rental_uris": {"ios": "https://dc.lft.to/lastmile_qr_scan", "android": "https://dc.lft.to/lastmile_qr_scan"}, "type": "electric_bike", "name": "600d4d9072da0c3908108c91301a51ec", "is_reserved": 0, "lon": -76.973219, "is_disabled": 0, "fusion_lat": 0.0, "lat": 38.85779216666667, "bike_id": "600d4d9072da0c3908108c91301a51ec", "fusion_lon": 0.0}, {"rental_uris": {"ios": "https://dc.lft.to/lastmile_qr_scan", "android": "https://dc.lft.to/lastmile_qr_scan"}, "type": "electric_scooter", "name": "1f89419d2c6928be2f30e9d491649e9e", "is_reserved": 0, "lon": -77.0092765, "is_disabled": 0, "fusion_lat": 0.0, "lat": 38.88183683333333, "bike_id": "1f89419d2c6928be2f30e9d491649e9e", "fusion_lon": 0.0}, {"rental_uris": {"ios": "https://dc.lft.to/lastmile_qr_scan", "android": "https://dc.lft.to/lastmile_qr_scan"}, "type": "electric_scooter", "name": "2ef0850872fdacf72d97da9506585e39", "is_reserved": 0, "lon": -77.02463583333333, "is_disabled": 0, "fusion_lat": 0.0, "lat": 38.939104666666665, "bike_id": "2ef0850872fdacf72d97da9506585e39", "fusion_lon": 0.0}, {"rental_uris": {"ios": "https://dc.lft.to/lastmile_qr_scan", "android": "https://dc.lft.to/lastmile_qr_scan"}, "type": "electric_scooter", "name": "be7ccfbbad3d5a49e011e8f51fc2270e", "is_reserved": 0, "lon": -77.01906233333334, "is_disabled": 0, "fusion_lat": 0.0, "lat": 38.9233965, "bike_id": "be7ccfbbad3d5a49e011e8f51fc2270e", "fusion_lon": 0.0}, {"rental_uris": {"ios": "https://dc.lft.to/lastmile_qr_scan", "android": "https://dc.lft.to/lastmile_qr_scan"}, "type": "electric_scooter", "name": "5e5f7513cf2142e30a229c1c3a065d80", "is_reserved": 0, "lon": -77.028356, "is_disabled": 0, "fusion_lat": 0.0, "lat": 38.931890833333334, "bike_id": "5e5f7513cf2142e30a229c1c3a065d80", "fusion_lon": 0.0}, {"rental_uris": {"ios": "https://dc.lft.to/lastmile_qr_scan", "android": "https://dc.lft.to/lastmile_qr_scan"}, "type": "electric_scooter", "name": "9f0aed6226d12abd49abee43b2a196cc", "is_reserved": 0, "lon": -77.0134385, "is_disabled": 0, "fusion_lat": 0.0, "lat": 38.919168666666664, "bike_id": "9f0aed6226d12abd49abee43b2a196cc", "fusion_lon": 0.0}, {"rental_uris": {"ios": "https://dc.lft.to/lastmile_qr_scan", "android": "https://dc.lft.to/lastmile_qr_scan"}, "type": "electric_scooter", "name": "f083ce6bf8ec0b4e5b25676b349dfd8e", "is_reserved": 0, "lon": -77.02836783333333, "is_disabled": 0, "fusion_lat": 0.0, "lat": 38.914022833333334, "bike_id": "f083ce6bf8ec0b4e5b25676b349dfd8e", "fusion_lon": 0.0}, {"rental_uris": {"ios": "https://dc.lft.to/lastmile_qr_scan", "android": "https://dc.lft.to/lastmile_qr_scan"}, "type": "electric_scooter", "name": "18e190486620f5d318906e70235e33e1", "is_reserved": 0, "lon": -76.930422, "is_disabled": 0, "fusion_lat": 0.0, "lat": 38.88387766666666, "bike_id": "18e190486620f5d318906e70235e33e1", "fusion_lon": 0.0}, {"rental_uris": {"ios": "https://dc.lft.to/lastmile_qr_scan", "android": "https://dc.lft.to/lastmile_qr_scan"}, "type": "electric_scooter", "name": "e1512a04fd64908b22762f7fdd5950c4", "is_reserved": 0, "lon": -77.04946333333334, "is_disabled": 0, "fusion_lat": 0.0, "lat": 38.9201895, "bike_id": "e1512a04fd64908b22762f7fdd5950c4", "fusion_lon": 0.0}, {"rental_uris": {"ios": "https://dc.lft.to/lastmile_qr_scan", "android": "https://dc.lft.to/lastmile_qr_scan"}, "type": "electric_scooter", "name": "61bfbe043d753eb8c93178d1fd592c90", "is_reserved": 0, "lon": -77.0201815, "is_disabled": 0, "fusion_lat": 0.0, "lat": 38.8921915, "bike_id": "61bfbe043d753eb8c93178d1fd592c90", "fusion_lon": 0.0}, {"rental_uris": {"ios": "https://dc.lft.to/lastmile_qr_scan", "android": "https://dc.lft.to/lastmile_qr_scan"}, "type": "electric_scooter", "name": "f450f091f34be636a00b53addd6bdca7", "is_reserved": 0, "lon": -76.94826633333334, "is_disabled": 0, "fusion_lat": 0.0, "lat": 38.885164, "bike_id": "f450f091f34be636a00b53addd6bdca7", "fusion_lon": 0.0}, {"rental_uris": {"ios": "https://dc.lft.to/lastmile_qr_scan", "android": "https://dc.lft.to/lastmile_qr_scan"}, "type": "electric_scooter", "name": "dfd52abb9b6c1e05a66269f6c8300f89", "is_reserved": 0, "lon": -77.01082783333334, "is_disabled": 0, "fusion_lat": 0.0, "lat": 38.89407666666666, "bike_id": "dfd52abb9b6c1e05a66269f6c8300f89", "fusion_lon": 0.0}, {"rental_uris": {"ios": "https://dc.lft.to/lastmile_qr_scan", "android": "https://dc.lft.to/lastmile_qr_scan"}, "type": "electric_scooter", "name": "15f4e026079967959901b219c33ad209", "is_reserved": 0, "lon": -77.0309925, "is_disabled": 0, "fusion_lat": 0.0, "lat": 38.933096, "bike_id": "15f4e026079967959901b219c33ad209", "fusion_lon": 0.0}, {"rental_uris": {"ios": "https://dc.lft.to/lastmile_qr_scan", "android": "https://dc.lft.to/lastmile_qr_scan"}, "type": "electric_scooter", "name": "583904e246d8429105e54da85cacebe2", "is_reserved": 0, "lon": -77.01939733333333, "is_disabled": 0, "fusion_lat": 0.0, "lat": 38.947032666666665, "bike_id": "583904e246d8429105e54da85cacebe2", "fusion_lon": 0.0}, {"rental_uris": {"ios": "https://dc.lft.to/lastmile_qr_scan", "android": "https://dc.lft.to/lastmile_qr_scan"}, "type": "electric_bike", "name": "335836f7b9f25bfdbeaff8802dc43cee", "is_reserved": 0, "lon": -76.95148533333334, "is_disabled": 0, "fusion_lat": 0.0, "lat": 39.08433316666667, "bike_id": "335836f7b9f25bfdbeaff8802dc43cee", "fusion_lon": 0.0}, {"rental_uris": {"ios": "https://dc.lft.to/lastmile_qr_scan", "android": "https://dc.lft.to/lastmile_qr_scan"}, "type": "electric_scooter", "name": "2af60afe9a0698dbc92073ae70d1760f", "is_reserved": 0, "lon": -77.02804016666667, "is_disabled": 0, "fusion_lat": 0.0, "lat": 38.89881466666667, "bike_id": "2af60afe9a0698dbc92073ae70d1760f", "fusion_lon": 0.0}, {"rental_uris": {"ios": "https://dc.lft.to/lastmile_qr_scan", "android": "https://dc.lft.to/lastmile_qr_scan"}, "type": "electric_bike", "name": "e3585bfb935fb83dae019dd968d88aef", "is_reserved": 0, "lon": -76.97560016666667, "is_disabled": 0, "fusion_lat": 0.0, "lat": 38.90439766666667, "bike_id": "e3585bfb935fb83dae019dd968d88aef", "fusion_lon": 0.0}, {"rental_uris": {"ios": "https://dc.lft.to/lastmile_qr_scan", "android": "https://dc.lft.to/lastmile_qr_scan"}, "type": "electric_scooter", "name": "9915cce9e840228126cea2c414ce99ed", "is_reserved": 0, "lon": -77.00156666666666, "is_disabled": 0, "fusion_lat": 0.0, "lat": 38.82133283333334, "bike_id": "9915cce9e840228126cea2c414ce99ed", "fusion_lon": 0.0}, {"rental_uris": {"ios": "https://dc.lft.to/lastmile_qr_scan", "android": "https://dc.lft.to/lastmile_qr_scan"}, "type": "electric_scooter", "name": "c4aba7f73166654b77cf2e4523f5ee1b", "is_reserved": 0, "lon": -77.007775, "is_disabled": 0, "fusion_lat": 0.0, "lat": 38.95242966666667, "bike_id": "c4aba7f73166654b77cf2e4523f5ee1b", "fusion_lon": 0.0}, {"rental_uris": {"ios": "https://dc.lft.to/lastmile_qr_scan", "android": "https://dc.lft.to/lastmile_qr_scan"}, "type": "electric_scooter", "name": "c70d0a194788b7598a54e11f4f9b2b90", "is_reserved": 0, "lon": -77.03329683333334, "is_disabled": 0, "fusion_lat": 0.0, "lat": 38.887724, "bike_id": "c70d0a194788b7598a54e11f4f9b2b90", "fusion_lon": 0.0}, {"rental_uris": {"ios": "https://dc.lft.to/lastmile_qr_scan", "android": "https://dc.lft.to/lastmile_qr_scan"}, "type": "electric_scooter", "name": "9d3f7c41acb2c4bf7b9bb89cc63cb806", "is_reserved": 0, "lon": -77.03355383333333, "is_disabled": 0, "fusion_lat": 0.0, "lat": 38.892328, "bike_id": "9d3f7c41acb2c4bf7b9bb89cc63cb806", "fusion_lon": 0.0}, {"rental_uris": {"ios": "https://dc.lft.to/lastmile_qr_scan", "android": "https://dc.lft.to/lastmile_qr_scan"}, "type": "electric_bike", "name": "48ed5bb7b711b53e4053319425f7b449", "is_reserved": 0, "lon": -76.97844816666667, "is_disabled": 0, "fusion_lat": 0.0, "lat": 38.888716333333335, "bike_id": "48ed5bb7b711b53e4053319425f7b449", "fusion_lon": 0.0}, {"rental_uris": {"ios": "https://dc.lft.to/lastmile_qr_scan", "android": "https://dc.lft.to/lastmile_qr_scan"}, "type": "electric_scooter", "name": "f673bc4ceeba0a0c4c73de8a0dca968c", "is_reserved": 0, "lon": -77.0076845, "is_disabled": 0, "fusion_lat": 0.0, "lat": 38.90587416666666, "bike_id": "f673bc4ceeba0a0c4c73de8a0dca968c", "fusion_lon": 0.0}, {"rental_uris": {"ios": "https://dc.lft.to/lastmile_qr_scan", "android": "https://dc.lft.to/lastmile_qr_scan"}, "type": "electric_scooter", "name": "3ba83132d3f66163d202241d644cc1ac", "is_reserved": 0, "lon": -77.014936, "is_disabled": 0, "fusion_lat": 0.0, "lat": 38.917674, "bike_id": "3ba83132d3f66163d202241d644cc1ac", "fusion_lon": 0.0}, {"rental_uris": {"ios": "https://dc.lft.to/lastmile_qr_scan", "android": "https://dc.lft.to/lastmile_qr_scan"}, "type": "electric_scooter", "name": "3b4039a069691f3ebd63a600b5c912db", "is_reserved": 0, "lon": -77.02711583333334, "is_disabled": 0, "fusion_lat": 0.0, "lat": 38.918042, "bike_id": "3b4039a069691f3ebd63a600b5c912db", "fusion_lon": 0.0}, {"rental_uris": {"ios": "https://dc.lft.to/lastmile_qr_scan", "android": "https://dc.lft.to/lastmile_qr_scan"}, "type": "electric_scooter", "name": "f67956bebd6f58447e5a034a72c06ff7", "is_reserved": 0, "lon": -76.98622933333333, "is_disabled": 0, "fusion_lat": 0.0, "lat": 38.90584666666667, "bike_id": "f67956bebd6f58447e5a034a72c06ff7", "fusion_lon": 0.0}, {"rental_uris": {"ios": "https://dc.lft.to/lastmile_qr_scan", "android": "https://dc.lft.to/lastmile_qr_scan"}, "type": "electric_scooter", "name": "5f0346fa09eeca5645adc733f086c617", "is_reserved": 0, "lon": -77.03247983333333, "is_disabled": 0, "fusion_lat": 0.0, "lat": 38.91708466666667, "bike_id": "5f0346fa09eeca5645adc733f086c617", "fusion_lon": 0.0}, {"rental_uris": {"ios": "https://dc.lft.to/lastmile_qr_scan", "android": "https://dc.lft.to/lastmile_qr_scan"}, "type": "electric_bike", "name": "976d2ffb7599122066cdf4910340af16", "is_reserved": 0, "lon": -77.1128925, "is_disabled": 0, "fusion_lat": 0.0, "lat": 38.83104866666667, "bike_id": "976d2ffb7599122066cdf4910340af16", "fusion_lon": 0.0}, {"rental_uris": {"ios": "https://dc.lft.to/lastmile_qr_scan", "android": "https://dc.lft.to/lastmile_qr_scan"}, "type": "electric_scooter", "name": "0e2b5eb310b22bdd608fa590b2590046", "is_reserved": 0, "lon": -77.0632415, "is_disabled": 0, "fusion_lat": 0.0, "lat": 38.91337133333333, "bike_id": "0e2b5eb310b22bdd608fa590b2590046", "fusion_lon": 0.0}, {"rental_uris": {"ios": "https://dc.lft.to/lastmile_qr_scan", "android": "https://dc.lft.to/lastmile_qr_scan"}, "type": "electric_scooter", "name": "5ffad138fb0d1151010911caf358466c", "is_reserved": 0, "lon": -77.08784416666667, "is_disabled": 0, "fusion_lat": 0.0, "lat": 38.935554333333336, "bike_id": "5ffad138fb0d1151010911caf358466c", "fusion_lon": 0.0}, {"rental_uris": {"ios": "https://dc.lft.to/lastmile_qr_scan", "android": "https://dc.lft.to/lastmile_qr_scan"}, "type": "electric_scooter", "name": "6ce1683efff4937820cc5e4ec53be72e", "is_reserved": 0, "lon": -77.0354145, "is_disabled": 0, "fusion_lat": 0.0, "lat": 38.92414483333334, "bike_id": "6ce1683efff4937820cc5e4ec53be72e", "fusion_lon": 0.0}, {"rental_uris": {"ios": "https://dc.lft.to/lastmile_qr_scan", "android": "https://dc.lft.to/lastmile_qr_scan"}, "type": "electric_bike", "name": "cc294e9876c0f0a9db5284c89336408c", "is_reserved": 0, "lon": -77.12648366666667, "is_disabled": 0, "fusion_lat": 0.0, "lat": 38.81906566666667, "bike_id": "cc294e9876c0f0a9db5284c89336408c", "fusion_lon": 0.0}, {"rental_uris": {"ios": "https://dc.lft.to/lastmile_qr_scan", "android": "https://dc.lft.to/lastmile_qr_scan"}, "type": "electric_scooter", "name": "513faff684a4868a6b1769bc1c1530fa", "is_reserved": 0, "lon": -76.928276, "is_disabled": 0, "fusion_lat": 0.0, "lat": 38.9017695, "bike_id": "513faff684a4868a6b1769bc1c1530fa", "fusion_lon": 0.0}, {"rental_uris": {"ios": "https://dc.lft.to/lastmile_qr_scan", "android": "https://dc.lft.to/lastmile_qr_scan"}, "type": "electric_scooter", "name": "aee591538b205b0e9687c7a3a77774e1", "is_reserved": 0, "lon": -77.0466015, "is_disabled": 0, "fusion_lat": 0.0, "lat": 38.907578, "bike_id": "aee591538b205b0e9687c7a3a77774e1", "fusion_lon": 0.0}, {"rental_uris": {"ios": "https://dc.lft.to/lastmile_qr_scan", "android": "https://dc.lft.to/lastmile_qr_scan"}, "type": "electric_scooter", "name": "45bc4809f3d0a42ecf7e4ce2183ab6af", "is_reserved": 0, "lon": -77.03209666666666, "is_disabled": 0, "fusion_lat": 0.0, "lat": 38.930484, "bike_id": "45bc4809f3d0a42ecf7e4ce2183ab6af", "fusion_lon": 0.0}, {"rental_uris": {"ios": "https://dc.lft.to/lastmile_qr_scan", "android": "https://dc.lft.to/lastmile_qr_scan"}, "type": "electric_bike", "name": "56e04282fa898f2a043bbc4179ebbcaa", "is_reserved": 0, "lon": -77.0006665, "is_disabled": 0, "fusion_lat": 0.0, "lat": 38.919039833333336, "bike_id": "56e04282fa898f2a043bbc4179ebbcaa", "fusion_lon": 0.0}, {"rental_uris": {"ios": "https://dc.lft.to/lastmile_qr_scan", "android": "https://dc.lft.to/lastmile_qr_scan"}, "type": "electric_scooter", "name": "10194f8fb7d2dfe521b2979ebb66b706", "is_reserved": 0, "lon": -77.045154, "is_disabled": 0, "fusion_lat": 0.0, "lat": 38.916077333333334, "bike_id": "10194f8fb7d2dfe521b2979ebb66b706", "fusion_lon": 0.0}, {"rental_uris": {"ios": "https://dc.lft.to/lastmile_qr_scan", "android": "https://dc.lft.to/lastmile_qr_scan"}, "type": "electric_scooter", "name": "83edeb8520f50253296139c60a75f525", "is_reserved": 0, "lon": -77.02215033333333, "is_disabled": 0, "fusion_lat": 0.0, "lat": 38.915531666666666, "bike_id": "83edeb8520f50253296139c60a75f525", "fusion_lon": 0.0}, {"rental_uris": {"ios": "https://dc.lft.to/lastmile_qr_scan", "android": "https://dc.lft.to/lastmile_qr_scan"}, "type": "electric_scooter", "name": "f367285eaa1499fa28caeaa61816af5b", "is_reserved": 0, "lon": -76.94706683333334, "is_disabled": 0, "fusion_lat": 0.0, "lat": 38.89299066666667, "bike_id": "f367285eaa1499fa28caeaa61816af5b", "fusion_lon": 0.0}, {"rental_uris": {"ios": "https://dc.lft.to/lastmile_qr_scan", "android": "https://dc.lft.to/lastmile_qr_scan"}, "type": "electric_scooter", "name": "4cc08ee1a2dcb9580968c351e3821440", "is_reserved": 0, "lon": -77.0640075, "is_disabled": 0, "fusion_lat": 0.0, "lat": 38.90853833333333, "bike_id": "4cc08ee1a2dcb9580968c351e3821440", "fusion_lon": 0.0}, {"rental_uris": {"ios": "https://dc.lft.to/lastmile_qr_scan", "android": "https://dc.lft.to/lastmile_qr_scan"}, "type": "electric_scooter", "name": "27db22b7ca134fc3ca7aeaf8e6d5b484", "is_reserved": 0, "lon": -77.04628483333333, "is_disabled": 0, "fusion_lat": 0.0, "lat": 38.89739016666667, "bike_id": "27db22b7ca134fc3ca7aeaf8e6d5b484", "fusion_lon": 0.0}, {"rental_uris": {"ios": "https://dc.lft.to/lastmile_qr_scan", "android": "https://dc.lft.to/lastmile_qr_scan"}, "type": "electric_scooter", "name": "c775c487aec90ea74cd3140d5e992bce", "is_reserved": 0, "lon": -77.01349716666667, "is_disabled": 0, "fusion_lat": 0.0, "lat": 38.894947, "bike_id": "c775c487aec90ea74cd3140d5e992bce", "fusion_lon": 0.0}, {"rental_uris": {"ios": "https://dc.lft.to/lastmile_qr_scan", "android": "https://dc.lft.to/lastmile_qr_scan"}, "type": "electric_scooter", "name": "73ce8d7a7dea889d3949c4f5c4024bd4", "is_reserved": 0, "lon": -77.06375466666667, "is_disabled": 0, "fusion_lat": 0.0, "lat": 38.935559, "bike_id": "73ce8d7a7dea889d3949c4f5c4024bd4", "fusion_lon": 0.0}, {"rental_uris": {"ios": "https://dc.lft.to/lastmile_qr_scan", "android": "https://dc.lft.to/lastmile_qr_scan"}, "type": "electric_scooter", "name": "5f6a5090db22c6e838bcd4d2f6817933", "is_reserved": 0, "lon": -77.03801166666666, "is_disabled": 0, "fusion_lat": 0.0, "lat": 38.93222433333333, "bike_id": "5f6a5090db22c6e838bcd4d2f6817933", "fusion_lon": 0.0}, {"rental_uris": {"ios": "https://dc.lft.to/lastmile_qr_scan", "android": "https://dc.lft.to/lastmile_qr_scan"}, "type": "electric_scooter", "name": "8d6da5d4e2b95c739b61b26ce6caeca9", "is_reserved": 0, "lon": -77.05108466666667, "is_disabled": 0, "fusion_lat": 0.0, "lat": 38.903826, "bike_id": "8d6da5d4e2b95c739b61b26ce6caeca9", "fusion_lon": 0.0}, {"rental_uris": {"ios": "https://dc.lft.to/lastmile_qr_scan", "android": "https://dc.lft.to/lastmile_qr_scan"}, "type": "electric_scooter", "name": "ba512ca048b2e45095cc5b6038d23773", "is_reserved": 0, "lon": -77.03334083333333, "is_disabled": 0, "fusion_lat": 0.0, "lat": 38.887808666666665, "bike_id": "ba512ca048b2e45095cc5b6038d23773", "fusion_lon": 0.0}, {"rental_uris": {"ios": "https://dc.lft.to/lastmile_qr_scan", "android": "https://dc.lft.to/lastmile_qr_scan"}, "type": "electric_scooter", "name": "1b8c40d3997ced6a99705c33f24d4316", "is_reserved": 0, "lon": -77.0289365, "is_disabled": 0, "fusion_lat": 0.0, "lat": 38.9170635, "bike_id": "1b8c40d3997ced6a99705c33f24d4316", "fusion_lon": 0.0}, {"rental_uris": {"ios": "https://dc.lft.to/lastmile_qr_scan", "android": "https://dc.lft.to/lastmile_qr_scan"}, "type": "electric_scooter", "name": "56be21207c5cb22c975a15499f9e37ae", "is_reserved": 0, "lon": -76.9265735, "is_disabled": 0, "fusion_lat": 0.0, "lat": 38.88234466666667, "bike_id": "56be21207c5cb22c975a15499f9e37ae", "fusion_lon": 0.0}, {"rental_uris": {"ios": "https://dc.lft.to/lastmile_qr_scan", "android": "https://dc.lft.to/lastmile_qr_scan"}, "type": "electric_scooter", "name": "efe640f130746803a91377d06116be2c", "is_reserved": 0, "lon": -77.02514483333333, "is_disabled": 0, "fusion_lat": 0.0, "lat": 38.92072566666667, "bike_id": "efe640f130746803a91377d06116be2c", "fusion_lon": 0.0}, {"rental_uris": {"ios": "https://dc.lft.to/lastmile_qr_scan", "android": "https://dc.lft.to/lastmile_qr_scan"}, "type": "electric_scooter", "name": "1c02f431143697670de512db114be16d", "is_reserved": 0, "lon": -77.0416785, "is_disabled": 0, "fusion_lat": 0.0, "lat": 38.91842033333333, "bike_id": "1c02f431143697670de512db114be16d", "fusion_lon": 0.0}, {"rental_uris": {"ios": "https://dc.lft.to/lastmile_qr_scan", "android": "https://dc.lft.to/lastmile_qr_scan"}, "type": "electric_scooter", "name": "9d7d580ed3e3af72383ce5f957f7d151", "is_reserved": 0, "lon": -77.010467, "is_disabled": 0, "fusion_lat": 0.0, "lat": 38.911040166666666, "bike_id": "9d7d580ed3e3af72383ce5f957f7d151", "fusion_lon": 0.0}, {"rental_uris": {"ios": "https://dc.lft.to/lastmile_qr_scan", "android": "https://dc.lft.to/lastmile_qr_scan"}, "type": "electric_scooter", "name": "2139b2332c44a7e1ee0148ba6b1c756b", "is_reserved": 0, "lon": -77.01846916666666, "is_disabled": 0, "fusion_lat": 0.0, "lat": 38.95425083333333, "bike_id": "2139b2332c44a7e1ee0148ba6b1c756b", "fusion_lon": 0.0}, {"rental_uris": {"ios": "https://dc.lft.to/lastmile_qr_scan", "android": "https://dc.lft.to/lastmile_qr_scan"}, "type": "electric_scooter", "name": "490ad4d5c00d0a6ee1cc25666a72cda1", "is_reserved": 0, "lon": -77.03122716666667, "is_disabled": 0, "fusion_lat": 0.0, "lat": 38.9169335, "bike_id": "490ad4d5c00d0a6ee1cc25666a72cda1", "fusion_lon": 0.0}, {"rental_uris": {"ios": "https://dc.lft.to/lastmile_qr_scan", "android": "https://dc.lft.to/lastmile_qr_scan"}, "type": "electric_scooter", "name": "f42cf08bceea9e8ef2d727dc055f1246", "is_reserved": 0, "lon": -77.03465733333333, "is_disabled": 0, "fusion_lat": 0.0, "lat": 38.9057005, "bike_id": "f42cf08bceea9e8ef2d727dc055f1246", "fusion_lon": 0.0}, {"rental_uris": {"ios": "https://dc.lft.to/lastmile_qr_scan", "android": "https://dc.lft.to/lastmile_qr_scan"}, "type": "electric_scooter", "name": "3d0d88a2466edc9727aaf46afba7f976", "is_reserved": 0, "lon": -77.00198816666666, "is_disabled": 0, "fusion_lat": 0.0, "lat": 38.892874, "bike_id": "3d0d88a2466edc9727aaf46afba7f976", "fusion_lon": 0.0}, {"rental_uris": {"ios": "https://dc.lft.to/lastmile_qr_scan", "android": "https://dc.lft.to/lastmile_qr_scan"}, "type": "electric_scooter", "name": "d1151cd7c3e486b5d4a5eb4eb63fc28a", "is_reserved": 0, "lon": -76.9949485, "is_disabled": 0, "fusion_lat": 0.0, "lat": 38.86215466666667, "bike_id": "d1151cd7c3e486b5d4a5eb4eb63fc28a", "fusion_lon": 0.0}, {"rental_uris": {"ios": "https://dc.lft.to/lastmile_qr_scan", "android": "https://dc.lft.to/lastmile_qr_scan"}, "type": "electric_scooter", "name": "4e0b80a10b8eb5e53e05eb696bc54379", "is_reserved": 0, "lon": -77.0423655, "is_disabled": 0, "fusion_lat": 0.0, "lat": 38.905769, "bike_id": "4e0b80a10b8eb5e53e05eb696bc54379", "fusion_lon": 0.0}, {"rental_uris": {"ios": "https://dc.lft.to/lastmile_qr_scan", "android": "https://dc.lft.to/lastmile_qr_scan"}, "type": "electric_bike", "name": "82a1d6c3486455da63637d491f456f98", "is_reserved": 0, "lon": -77.00759083333334, "is_disabled": 0, "fusion_lat": 0.0, "lat": 38.997820833333336, "bike_id": "82a1d6c3486455da63637d491f456f98", "fusion_lon": 0.0}, {"rental_uris": {"ios": "https://dc.lft.to/lastmile_qr_scan", "android": "https://dc.lft.to/lastmile_qr_scan"}, "type": "electric_scooter", "name": "c2f4e6b9010653205bcfacff6d92e0ed", "is_reserved": 0, "lon": -77.018632, "is_disabled": 0, "fusion_lat": 0.0, "lat": 38.89465283333333, "bike_id": "c2f4e6b9010653205bcfacff6d92e0ed", "fusion_lon": 0.0}, {"rental_uris": {"ios": "https://dc.lft.to/lastmile_qr_scan", "android": "https://dc.lft.to/lastmile_qr_scan"}, "type": "electric_scooter", "name": "c4d20717d2172470d028cfabab8f32b6", "is_reserved": 0, "lon": -76.98985633333334, "is_disabled": 0, "fusion_lat": 0.0, "lat": 38.91753216666667, "bike_id": "c4d20717d2172470d028cfabab8f32b6", "fusion_lon": 0.0}, {"rental_uris": {"ios": "https://dc.lft.to/lastmile_qr_scan", "android": "https://dc.lft.to/lastmile_qr_scan"}, "type": "electric_scooter", "name": "3ff07c2cfe6ccf079a340e39a62640ce", "is_reserved": 0, "lon": -77.03186233333334, "is_disabled": 0, "fusion_lat": 0.0, "lat": 38.913480666666665, "bike_id": "3ff07c2cfe6ccf079a340e39a62640ce", "fusion_lon": 0.0}, {"rental_uris": {"ios": "https://dc.lft.to/lastmile_qr_scan", "android": "https://dc.lft.to/lastmile_qr_scan"}, "type": "electric_scooter", "name": "9340c8b304031e6c040cbc2c23cd8480", "is_reserved": 0, "lon": -76.9991185, "is_disabled": 0, "fusion_lat": 0.0, "lat": 38.9245515, "bike_id": "9340c8b304031e6c040cbc2c23cd8480", "fusion_lon": 0.0}, {"rental_uris": {"ios": "https://dc.lft.to/lastmile_qr_scan", "android": "https://dc.lft.to/lastmile_qr_scan"}, "type": "electric_scooter", "name": "91531eaf2dcb994f60d8fb629eb39d50", "is_reserved": 0, "lon": -77.03387333333333, "is_disabled": 0, "fusion_lat": 0.0, "lat": 38.8865895, "bike_id": "91531eaf2dcb994f60d8fb629eb39d50", "fusion_lon": 0.0}, {"rental_uris": {"ios": "https://dc.lft.to/lastmile_qr_scan", "android": "https://dc.lft.to/lastmile_qr_scan"}, "type": "electric_scooter", "name": "d100115d5c2aba19f9a2df6e04dd5575", "is_reserved": 0, "lon": -77.0220275, "is_disabled": 0, "fusion_lat": 0.0, "lat": 38.911280833333336, "bike_id": "d100115d5c2aba19f9a2df6e04dd5575", "fusion_lon": 0.0}, {"rental_uris": {"ios": "https://dc.lft.to/lastmile_qr_scan", "android": "https://dc.lft.to/lastmile_qr_scan"}, "type": "electric_scooter", "name": "5405ac139dfa8348c9be7407ec2cd6a2", "is_reserved": 0, "lon": -77.03830833333333, "is_disabled": 0, "fusion_lat": 0.0, "lat": 38.910402500000004, "bike_id": "5405ac139dfa8348c9be7407ec2cd6a2", "fusion_lon": 0.0}, {"rental_uris": {"ios": "https://dc.lft.to/lastmile_qr_scan", "android": "https://dc.lft.to/lastmile_qr_scan"}, "type": "electric_scooter", "name": "8ca2309697f2d38b6152ad83c868ee41", "is_reserved": 0, "lon": -77.072629, "is_disabled": 0, "fusion_lat": 0.0, "lat": 38.922440333333334, "bike_id": "8ca2309697f2d38b6152ad83c868ee41", "fusion_lon": 0.0}, {"rental_uris": {"ios": "https://dc.lft.to/lastmile_qr_scan", "android": "https://dc.lft.to/lastmile_qr_scan"}, "type": "electric_scooter", "name": "174c5744abb2922e54bdb53dc4816000", "is_reserved": 0, "lon": -76.9959645, "is_disabled": 0, "fusion_lat": 0.0, "lat": 38.9002905, "bike_id": "174c5744abb2922e54bdb53dc4816000", "fusion_lon": 0.0}, {"rental_uris": {"ios": "https://dc.lft.to/lastmile_qr_scan", "android": "https://dc.lft.to/lastmile_qr_scan"}, "type": "electric_scooter", "name": "7f0a0e829ce6a0796f88bdc7bf071f72", "is_reserved": 0, "lon": -77.030317, "is_disabled": 0, "fusion_lat": 0.0, "lat": 38.922452166666666, "bike_id": "7f0a0e829ce6a0796f88bdc7bf071f72", "fusion_lon": 0.0}, {"rental_uris": {"ios": "https://dc.lft.to/lastmile_qr_scan", "android": "https://dc.lft.to/lastmile_qr_scan"}, "type": "electric_scooter", "name": "0bc35cdc429823e249d31da4f47d1186", "is_reserved": 0, "lon": -77.029744, "is_disabled": 0, "fusion_lat": 0.0, "lat": 38.9191265, "bike_id": "0bc35cdc429823e249d31da4f47d1186", "fusion_lon": 0.0}, {"rental_uris": {"ios": "https://dc.lft.to/lastmile_qr_scan", "android": "https://dc.lft.to/lastmile_qr_scan"}, "type": "electric_scooter", "name": "a404c13192e805b430678d33bd2076ac", "is_reserved": 0, "lon": -77.04568783333333, "is_disabled": 0, "fusion_lat": 0.0, "lat": 38.9140255, "bike_id": "a404c13192e805b430678d33bd2076ac", "fusion_lon": 0.0}, {"rental_uris": {"ios": "https://dc.lft.to/lastmile_qr_scan", "android": "https://dc.lft.to/lastmile_qr_scan"}, "type": "electric_scooter", "name": "f8b8a3fec978a750037808d6b64ded48", "is_reserved": 0, "lon": -77.0071355, "is_disabled": 0, "fusion_lat": 0.0, "lat": 38.88485816666667, "bike_id": "f8b8a3fec978a750037808d6b64ded48", "fusion_lon": 0.0}, {"rental_uris": {"ios": "https://dc.lft.to/lastmile_qr_scan", "android": "https://dc.lft.to/lastmile_qr_scan"}, "type": "electric_scooter", "name": "4fa0c7a7f7352b43cae05eba077e6de9", "is_reserved": 0, "lon": -77.012254, "is_disabled": 0, "fusion_lat": 0.0, "lat": 38.8767005, "bike_id": "4fa0c7a7f7352b43cae05eba077e6de9", "fusion_lon": 0.0}, {"rental_uris": {"ios": "https://dc.lft.to/lastmile_qr_scan", "android": "https://dc.lft.to/lastmile_qr_scan"}, "type": "electric_bike", "name": "537b6d4a3cce336c9134ea78e9aa69e4", "is_reserved": 0, "lon": -77.00676416666667, "is_disabled": 0, "fusion_lat": 0.0, "lat": 38.945097833333335, "bike_id": "537b6d4a3cce336c9134ea78e9aa69e4", "fusion_lon": 0.0}, {"rental_uris": {"ios": "https://dc.lft.to/lastmile_qr_scan", "android": "https://dc.lft.to/lastmile_qr_scan"}, "type": "electric_scooter", "name": "93e50e40c9d497df07705036b989ccc9", "is_reserved": 0, "lon": -77.00699216666666, "is_disabled": 0, "fusion_lat": 0.0, "lat": 38.90591633333333, "bike_id": "93e50e40c9d497df07705036b989ccc9", "fusion_lon": 0.0}, {"rental_uris": {"ios": "https://dc.lft.to/lastmile_qr_scan", "android": "https://dc.lft.to/lastmile_qr_scan"}, "type": "electric_scooter", "name": "0423df0e1be3c4e5ea8213a1e7de4ebd", "is_reserved": 0, "lon": -77.03842833333333, "is_disabled": 0, "fusion_lat": 0.0, "lat": 38.911712333333334, "bike_id": "0423df0e1be3c4e5ea8213a1e7de4ebd", "fusion_lon": 0.0}, {"rental_uris": {"ios": "https://dc.lft.to/lastmile_qr_scan", "android": "https://dc.lft.to/lastmile_qr_scan"}, "type": "electric_scooter", "name": "cd57168f855c1f8efcad815eea760855", "is_reserved": 0, "lon": -77.03305033333334, "is_disabled": 0, "fusion_lat": 0.0, "lat": 38.8992245, "bike_id": "cd57168f855c1f8efcad815eea760855", "fusion_lon": 0.0}, {"rental_uris": {"ios": "https://dc.lft.to/lastmile_qr_scan", "android": "https://dc.lft.to/lastmile_qr_scan"}, "type": "electric_bike", "name": "d4588340e78786ffb6e1da8ce5d0aa7d", "is_reserved": 0, "lon": -77.22192783333334, "is_disabled": 0, "fusion_lat": 0.0, "lat": 38.8716515, "bike_id": "d4588340e78786ffb6e1da8ce5d0aa7d", "fusion_lon": 0.0}, {"rental_uris": {"ios": "https://dc.lft.to/lastmile_qr_scan", "android": "https://dc.lft.to/lastmile_qr_scan"}, "type": "electric_scooter", "name": "ac52717720d66ef331fbc8fc62ec6a44", "is_reserved": 0, "lon": -77.0512705, "is_disabled": 0, "fusion_lat": 0.0, "lat": 38.8974945, "bike_id": "ac52717720d66ef331fbc8fc62ec6a44", "fusion_lon": 0.0}, {"rental_uris": {"ios": "https://dc.lft.to/lastmile_qr_scan", "android": "https://dc.lft.to/lastmile_qr_scan"}, "type": "electric_scooter", "name": "43f9e9ab985b88884e7e51e41a571adf", "is_reserved": 0, "lon": -77.03952266666667, "is_disabled": 0, "fusion_lat": 0.0, "lat": 38.895672833333336, "bike_id": "43f9e9ab985b88884e7e51e41a571adf", "fusion_lon": 0.0}, {"rental_uris": {"ios": "https://dc.lft.to/lastmile_qr_scan", "android": "https://dc.lft.to/lastmile_qr_scan"}, "type": "electric_scooter", "name": "c4aef207864c251f22ef8740fe4d60f9", "is_reserved": 0, "lon": -77.034824, "is_disabled": 0, "fusion_lat": 0.0, "lat": 38.9079415, "bike_id": "c4aef207864c251f22ef8740fe4d60f9", "fusion_lon": 0.0}, {"rental_uris": {"ios": "https://dc.lft.to/lastmile_qr_scan", "android": "https://dc.lft.to/lastmile_qr_scan"}, "type": "electric_scooter", "name": "693b102f450bb810fcd56d3056e4562f", "is_reserved": 0, "lon": -77.04674966666667, "is_disabled": 0, "fusion_lat": 0.0, "lat": 38.89277833333333, "bike_id": "693b102f450bb810fcd56d3056e4562f", "fusion_lon": 0.0}, {"rental_uris": {"ios": "https://dc.lft.to/lastmile_qr_scan", "android": "https://dc.lft.to/lastmile_qr_scan"}, "type": "electric_scooter", "name": "78c572df170b6115987b0aec84801ac3", "is_reserved": 0, "lon": -77.05121083333333, "is_disabled": 0, "fusion_lat": 0.0, "lat": 38.925287833333336, "bike_id": "78c572df170b6115987b0aec84801ac3", "fusion_lon": 0.0}, {"rental_uris": {"ios": "https://dc.lft.to/lastmile_qr_scan", "android": "https://dc.lft.to/lastmile_qr_scan"}, "type": "electric_scooter", "name": "780f26d06303eab1127dd9090025fe70", "is_reserved": 0, "lon": -77.023108, "is_disabled": 0, "fusion_lat": 0.0, "lat": 38.91783933333333, "bike_id": "780f26d06303eab1127dd9090025fe70", "fusion_lon": 0.0}, {"rental_uris": {"ios": "https://dc.lft.to/lastmile_qr_scan", "android": "https://dc.lft.to/lastmile_qr_scan"}, "type": "electric_bike", "name": "a3254b08636784ef59e63774f7cd9fc9", "is_reserved": 0, "lon": -77.05514866666667, "is_disabled": 0, "fusion_lat": 0.0, "lat": 38.94404466666667, "bike_id": "a3254b08636784ef59e63774f7cd9fc9", "fusion_lon": 0.0}, {"rental_uris": {"ios": "https://dc.lft.to/lastmile_qr_scan", "android": "https://dc.lft.to/lastmile_qr_scan"}, "type": "electric_bike", "name": "88f7ed24b29c0c0b4c4cb98db87c8399", "is_reserved": 0, "lon": -76.9992, "is_disabled": 0, "fusion_lat": 0.0, "lat": 38.99467933333333, "bike_id": "88f7ed24b29c0c0b4c4cb98db87c8399", "fusion_lon": 0.0}, {"rental_uris": {"ios": "https://dc.lft.to/lastmile_qr_scan", "android": "https://dc.lft.to/lastmile_qr_scan"}, "type": "electric_scooter", "name": "54c730a2e279180e719c19f88c7ac13c", "is_reserved": 0, "lon": -77.04469933333333, "is_disabled": 0, "fusion_lat": 0.0, "lat": 38.922942166666665, "bike_id": "54c730a2e279180e719c19f88c7ac13c", "fusion_lon": 0.0}, {"rental_uris": {"ios": "https://dc.lft.to/lastmile_qr_scan", "android": "https://dc.lft.to/lastmile_qr_scan"}, "type": "electric_scooter", "name": "46c2ac1ccd38816f945657d1452eb914", "is_reserved": 0, "lon": -77.02911866666666, "is_disabled": 0, "fusion_lat": 0.0, "lat": 38.944368, "bike_id": "46c2ac1ccd38816f945657d1452eb914", "fusion_lon": 0.0}, {"rental_uris": {"ios": "https://dc.lft.to/lastmile_qr_scan", "android": "https://dc.lft.to/lastmile_qr_scan"}, "type": "electric_scooter", "name": "4fffc03440d9e827a1dd6e3ba4af0d8a", "is_reserved": 0, "lon": -77.0141775, "is_disabled": 0, "fusion_lat": 0.0, "lat": 38.91322366666667, "bike_id": "4fffc03440d9e827a1dd6e3ba4af0d8a", "fusion_lon": 0.0}, {"rental_uris": {"ios": "https://dc.lft.to/lastmile_qr_scan", "android": "https://dc.lft.to/lastmile_qr_scan"}, "type": "electric_scooter", "name": "8b7dc616b0a70be1755c14bb8ed8d9c8", "is_reserved": 0, "lon": -77.0023345, "is_disabled": 0, "fusion_lat": 0.0, "lat": 38.940761, "bike_id": "8b7dc616b0a70be1755c14bb8ed8d9c8", "fusion_lon": 0.0}, {"rental_uris": {"ios": "https://dc.lft.to/lastmile_qr_scan", "android": "https://dc.lft.to/lastmile_qr_scan"}, "type": "electric_scooter", "name": "43cff0c238c1e689b6dc614c72832203", "is_reserved": 0, "lon": -77.0660915, "is_disabled": 0, "fusion_lat": 0.0, "lat": 38.911074166666666, "bike_id": "43cff0c238c1e689b6dc614c72832203", "fusion_lon": 0.0}, {"rental_uris": {"ios": "https://dc.lft.to/lastmile_qr_scan", "android": "https://dc.lft.to/lastmile_qr_scan"}, "type": "electric_scooter", "name": "565fba41a4042a299d1b8fd322a74cb2", "is_reserved": 0, "lon": -77.01991866666667, "is_disabled": 0, "fusion_lat": 0.0, "lat": 38.90153883333333, "bike_id": "565fba41a4042a299d1b8fd322a74cb2", "fusion_lon": 0.0}, {"rental_uris": {"ios": "https://dc.lft.to/lastmile_qr_scan", "android": "https://dc.lft.to/lastmile_qr_scan"}, "type": "electric_scooter", "name": "70bed687d7a38b32290569987f11caf4", "is_reserved": 0, "lon": -77.01978716666666, "is_disabled": 0, "fusion_lat": 0.0, "lat": 38.9521225, "bike_id": "70bed687d7a38b32290569987f11caf4", "fusion_lon": 0.0}, {"rental_uris": {"ios": "https://dc.lft.to/lastmile_qr_scan", "android": "https://dc.lft.to/lastmile_qr_scan"}, "type": "electric_scooter", "name": "a8512890bf004ae83f93f23f2214f620", "is_reserved": 0, "lon": -77.065537, "is_disabled": 0, "fusion_lat": 0.0, "lat": 38.90514666666667, "bike_id": "a8512890bf004ae83f93f23f2214f620", "fusion_lon": 0.0}, {"rental_uris": {"ios": "https://dc.lft.to/lastmile_qr_scan", "android": "https://dc.lft.to/lastmile_qr_scan"}, "type": "electric_scooter", "name": "d051b95724167966536aea13ee74bd51", "is_reserved": 0, "lon": -77.02613183333334, "is_disabled": 0, "fusion_lat": 0.0, "lat": 38.90509333333333, "bike_id": "d051b95724167966536aea13ee74bd51", "fusion_lon": 0.0}, {"rental_uris": {"ios": "https://dc.lft.to/lastmile_qr_scan", "android": "https://dc.lft.to/lastmile_qr_scan"}, "type": "electric_scooter", "name": "59d56b01400508aa55a5ecdc9ff4f793", "is_reserved": 0, "lon": -77.05022266666667, "is_disabled": 0, "fusion_lat": 0.0, "lat": 38.91048966666666, "bike_id": "59d56b01400508aa55a5ecdc9ff4f793", "fusion_lon": 0.0}, {"rental_uris": {"ios": "https://dc.lft.to/lastmile_qr_scan", "android": "https://dc.lft.to/lastmile_qr_scan"}, "type": "electric_scooter", "name": "be577d7e59dde5725ba61084a11ee6f6", "is_reserved": 0, "lon": -77.0467385, "is_disabled": 0, "fusion_lat": 0.0, "lat": 38.89235566666667, "bike_id": "be577d7e59dde5725ba61084a11ee6f6", "fusion_lon": 0.0}, {"rental_uris": {"ios": "https://dc.lft.to/lastmile_qr_scan", "android": "https://dc.lft.to/lastmile_qr_scan"}, "type": "electric_scooter", "name": "e5cba66ff4cad3055ab108ffeccab702", "is_reserved": 0, "lon": -77.03458133333334, "is_disabled": 0, "fusion_lat": 0.0, "lat": 38.907389333333334, "bike_id": "e5cba66ff4cad3055ab108ffeccab702", "fusion_lon": 0.0}, {"rental_uris": {"ios": "https://dc.lft.to/lastmile_qr_scan", "android": "https://dc.lft.to/lastmile_qr_scan"}, "type": "electric_scooter", "name": "7cb4d39848a01d18b2d58032626df649", "is_reserved": 0, "lon": -77.00453266666666, "is_disabled": 0, "fusion_lat": 0.0, "lat": 38.83791866666667, "bike_id": "7cb4d39848a01d18b2d58032626df649", "fusion_lon": 0.0}, {"rental_uris": {"ios": "https://dc.lft.to/lastmile_qr_scan", "android": "https://dc.lft.to/lastmile_qr_scan"}, "type": "electric_scooter", "name": "cb95b0605dc6a0ef0aaf6934cfe70438", "is_reserved": 0, "lon": -77.03839083333334, "is_disabled": 0, "fusion_lat": 0.0, "lat": 38.912323666666666, "bike_id": "cb95b0605dc6a0ef0aaf6934cfe70438", "fusion_lon": 0.0}, {"rental_uris": {"ios": "https://dc.lft.to/lastmile_qr_scan", "android": "https://dc.lft.to/lastmile_qr_scan"}, "type": "electric_scooter", "name": "5bc560835a6530da0fa756c6e5da839f", "is_reserved": 0, "lon": -77.0237415, "is_disabled": 0, "fusion_lat": 0.0, "lat": 38.9095325, "bike_id": "5bc560835a6530da0fa756c6e5da839f", "fusion_lon": 0.0}, {"rental_uris": {"ios": "https://dc.lft.to/lastmile_qr_scan", "android": "https://dc.lft.to/lastmile_qr_scan"}, "type": "electric_scooter", "name": "7eb9fa5262f5c6766602d7600bd8b7ed", "is_reserved": 0, "lon": -76.99625333333333, "is_disabled": 0, "fusion_lat": 0.0, "lat": 38.8773295, "bike_id": "7eb9fa5262f5c6766602d7600bd8b7ed", "fusion_lon": 0.0}, {"rental_uris": {"ios": "https://dc.lft.to/lastmile_qr_scan", "android": "https://dc.lft.to/lastmile_qr_scan"}, "type": "electric_bike", "name": "761133526331596a59c975ea5ce51b7f", "is_reserved": 0, "lon": -76.93325533333334, "is_disabled": 0, "fusion_lat": 0.0, "lat": 38.951507666666664, "bike_id": "761133526331596a59c975ea5ce51b7f", "fusion_lon": 0.0}, {"rental_uris": {"ios": "https://dc.lft.to/lastmile_qr_scan", "android": "https://dc.lft.to/lastmile_qr_scan"}, "type": "electric_scooter", "name": "fa30442ea1ed3edef82a1792d3e2e17f", "is_reserved": 0, "lon": -77.0320305, "is_disabled": 0, "fusion_lat": 0.0, "lat": 38.9182075, "bike_id": "fa30442ea1ed3edef82a1792d3e2e17f", "fusion_lon": 0.0}, {"rental_uris": {"ios": "https://dc.lft.to/lastmile_qr_scan", "android": "https://dc.lft.to/lastmile_qr_scan"}, "type": "electric_scooter", "name": "2011d042b76f5d6b59b0ea2e344e46ca", "is_reserved": 0, "lon": -77.01125283333333, "is_disabled": 0, "fusion_lat": 0.0, "lat": 38.91920183333333, "bike_id": "2011d042b76f5d6b59b0ea2e344e46ca", "fusion_lon": 0.0}, {"rental_uris": {"ios": "https://dc.lft.to/lastmile_qr_scan", "android": "https://dc.lft.to/lastmile_qr_scan"}, "type": "electric_scooter", "name": "a237b9e3b3f36b9c66393905cc8f94a5", "is_reserved": 0, "lon": -77.024054, "is_disabled": 0, "fusion_lat": 0.0, "lat": 38.938130666666666, "bike_id": "a237b9e3b3f36b9c66393905cc8f94a5", "fusion_lon": 0.0}, {"rental_uris": {"ios": "https://dc.lft.to/lastmile_qr_scan", "android": "https://dc.lft.to/lastmile_qr_scan"}, "type": "electric_scooter", "name": "7022a6d5f87455f7288a736bf1f5b156", "is_reserved": 0, "lon": -77.02628, "is_disabled": 0, "fusion_lat": 0.0, "lat": 38.89625383333333, "bike_id": "7022a6d5f87455f7288a736bf1f5b156", "fusion_lon": 0.0}, {"rental_uris": {"ios": "https://dc.lft.to/lastmile_qr_scan", "android": "https://dc.lft.to/lastmile_qr_scan"}, "type": "electric_scooter", "name": "3e88c9556fbe32bf98548e90983761bf", "is_reserved": 0, "lon": -76.98375933333334, "is_disabled": 0, "fusion_lat": 0.0, "lat": 38.887224333333336, "bike_id": "3e88c9556fbe32bf98548e90983761bf", "fusion_lon": 0.0}, {"rental_uris": {"ios": "https://dc.lft.to/lastmile_qr_scan", "android": "https://dc.lft.to/lastmile_qr_scan"}, "type": "electric_scooter", "name": "0cfcd9a62b16e6b6196c14588f0c4eeb", "is_reserved": 0, "lon": -76.9845295, "is_disabled": 0, "fusion_lat": 0.0, "lat": 38.91480116666666, "bike_id": "0cfcd9a62b16e6b6196c14588f0c4eeb", "fusion_lon": 0.0}, {"rental_uris": {"ios": "https://dc.lft.to/lastmile_qr_scan", "android": "https://dc.lft.to/lastmile_qr_scan"}, "type": "electric_scooter", "name": "f163a35752121a07e8b4d429b17ea925", "is_reserved": 0, "lon": -77.03385933333334, "is_disabled": 0, "fusion_lat": 0.0, "lat": 38.90109116666667, "bike_id": "f163a35752121a07e8b4d429b17ea925", "fusion_lon": 0.0}, {"rental_uris": {"ios": "https://dc.lft.to/lastmile_qr_scan", "android": "https://dc.lft.to/lastmile_qr_scan"}, "type": "electric_scooter", "name": "2251db361c7204fe47fe3439ab4919b2", "is_reserved": 0, "lon": -77.06517983333333, "is_disabled": 0, "fusion_lat": 0.0, "lat": 38.905278833333334, "bike_id": "2251db361c7204fe47fe3439ab4919b2", "fusion_lon": 0.0}, {"rental_uris": {"ios": "https://dc.lft.to/lastmile_qr_scan", "android": "https://dc.lft.to/lastmile_qr_scan"}, "type": "electric_scooter", "name": "cf955dedbed37002dfcd0d99b9e49763", "is_reserved": 0, "lon": -77.017571, "is_disabled": 0, "fusion_lat": 0.0, "lat": 38.87711083333333, "bike_id": "cf955dedbed37002dfcd0d99b9e49763", "fusion_lon": 0.0}, {"rental_uris": {"ios": "https://dc.lft.to/lastmile_qr_scan", "android": "https://dc.lft.to/lastmile_qr_scan"}, "type": "electric_scooter", "name": "758e8af4e2e189e80bbbd8ddf0271cd4", "is_reserved": 0, "lon": -77.047308, "is_disabled": 0, "fusion_lat": 0.0, "lat": 38.895494666666664, "bike_id": "758e8af4e2e189e80bbbd8ddf0271cd4", "fusion_lon": 0.0}, {"rental_uris": {"ios": "https://dc.lft.to/lastmile_qr_scan", "android": "https://dc.lft.to/lastmile_qr_scan"}, "type": "electric_scooter", "name": "67887a5d645cc41f23b2b766eb03791c", "is_reserved": 0, "lon": -77.026037, "is_disabled": 0, "fusion_lat": 0.0, "lat": 38.893120333333336, "bike_id": "67887a5d645cc41f23b2b766eb03791c", "fusion_lon": 0.0}, {"rental_uris": {"ios": "https://dc.lft.to/lastmile_qr_scan", "android": "https://dc.lft.to/lastmile_qr_scan"}, "type": "electric_scooter", "name": "60069ca52558bc51e5decfaddb571819", "is_reserved": 0, "lon": -77.038367, "is_disabled": 0, "fusion_lat": 0.0, "lat": 38.91316416666667, "bike_id": "60069ca52558bc51e5decfaddb571819", "fusion_lon": 0.0}, {"rental_uris": {"ios": "https://dc.lft.to/lastmile_qr_scan", "android": "https://dc.lft.to/lastmile_qr_scan"}, "type": "electric_scooter", "name": "040ebdd7675480d15363ce000d337abf", "is_reserved": 0, "lon": -77.01816433333333, "is_disabled": 0, "fusion_lat": 0.0, "lat": 38.90537166666667, "bike_id": "040ebdd7675480d15363ce000d337abf", "fusion_lon": 0.0}, {"rental_uris": {"ios": "https://dc.lft.to/lastmile_qr_scan", "android": "https://dc.lft.to/lastmile_qr_scan"}, "type": "electric_scooter", "name": "f48064638ae85e809e43a03c978ef303", "is_reserved": 0, "lon": -77.026005, "is_disabled": 0, "fusion_lat": 0.0, "lat": 38.9264725, "bike_id": "f48064638ae85e809e43a03c978ef303", "fusion_lon": 0.0}, {"rental_uris": {"ios": "https://dc.lft.to/lastmile_qr_scan", "android": "https://dc.lft.to/lastmile_qr_scan"}, "type": "electric_scooter", "name": "52e103070ab43fd154d77f94159caf3b", "is_reserved": 0, "lon": -76.99423316666666, "is_disabled": 0, "fusion_lat": 0.0, "lat": 38.916880166666665, "bike_id": "52e103070ab43fd154d77f94159caf3b", "fusion_lon": 0.0}, {"rental_uris": {"ios": "https://dc.lft.to/lastmile_qr_scan", "android": "https://dc.lft.to/lastmile_qr_scan"}, "type": "electric_scooter", "name": "24382cb9d2df50630bc2c9fe57fc1ec8", "is_reserved": 0, "lon": -77.04516816666667, "is_disabled": 0, "fusion_lat": 0.0, "lat": 38.91809133333334, "bike_id": "24382cb9d2df50630bc2c9fe57fc1ec8", "fusion_lon": 0.0}, {"rental_uris": {"ios": "https://dc.lft.to/lastmile_qr_scan", "android": "https://dc.lft.to/lastmile_qr_scan"}, "type": "electric_scooter", "name": "d7b0634c43bfe6fa1adeeae4d80cd935", "is_reserved": 0, "lon": -77.02479566666666, "is_disabled": 0, "fusion_lat": 0.0, "lat": 38.91809883333333, "bike_id": "d7b0634c43bfe6fa1adeeae4d80cd935", "fusion_lon": 0.0}, {"rental_uris": {"ios": "https://dc.lft.to/lastmile_qr_scan", "android": "https://dc.lft.to/lastmile_qr_scan"}, "type": "electric_scooter", "name": "7c856df3c1c8ca26294aea437a257ebe", "is_reserved": 0, "lon": -77.0322045, "is_disabled": 0, "fusion_lat": 0.0, "lat": 38.90963283333333, "bike_id": "7c856df3c1c8ca26294aea437a257ebe", "fusion_lon": 0.0}, {"rental_uris": {"ios": "https://dc.lft.to/lastmile_qr_scan", "android": "https://dc.lft.to/lastmile_qr_scan"}, "type": "electric_scooter", "name": "b56b7f7505c52ea5ca8286a4bad66473", "is_reserved": 0, "lon": -77.018106, "is_disabled": 0, "fusion_lat": 0.0, "lat": 38.900813166666666, "bike_id": "b56b7f7505c52ea5ca8286a4bad66473", "fusion_lon": 0.0}, {"rental_uris": {"ios": "https://dc.lft.to/lastmile_qr_scan", "android": "https://dc.lft.to/lastmile_qr_scan"}, "type": "electric_scooter", "name": "04434031b77c884336aed6ce51be253e", "is_reserved": 0, "lon": -77.04141283333334, "is_disabled": 0, "fusion_lat": 0.0, "lat": 38.930436, "bike_id": "04434031b77c884336aed6ce51be253e", "fusion_lon": 0.0}, {"rental_uris": {"ios": "https://dc.lft.to/lastmile_qr_scan", "android": "https://dc.lft.to/lastmile_qr_scan"}, "type": "electric_scooter", "name": "3eebb1fee34aedbc5bc5605ac587f383", "is_reserved": 0, "lon": -76.987023, "is_disabled": 0, "fusion_lat": 0.0, "lat": 38.859634, "bike_id": "3eebb1fee34aedbc5bc5605ac587f383", "fusion_lon": 0.0}, {"rental_uris": {"ios": "https://dc.lft.to/lastmile_qr_scan", "android": "https://dc.lft.to/lastmile_qr_scan"}, "type": "electric_scooter", "name": "95b6c8ff2d66f2e1d2349bc107299ecb", "is_reserved": 0, "lon": -77.0386635, "is_disabled": 0, "fusion_lat": 0.0, "lat": 38.91255266666667, "bike_id": "95b6c8ff2d66f2e1d2349bc107299ecb", "fusion_lon": 0.0}, {"rental_uris": {"ios": "https://dc.lft.to/lastmile_qr_scan", "android": "https://dc.lft.to/lastmile_qr_scan"}, "type": "electric_scooter", "name": "f1de0cf9395a9d248f8fcafb199d59ca", "is_reserved": 0, "lon": -76.9891345, "is_disabled": 0, "fusion_lat": 0.0, "lat": 38.900103666666666, "bike_id": "f1de0cf9395a9d248f8fcafb199d59ca", "fusion_lon": 0.0}, {"rental_uris": {"ios": "https://dc.lft.to/lastmile_qr_scan", "android": "https://dc.lft.to/lastmile_qr_scan"}, "type": "electric_scooter", "name": "835ad1b3cfb1e4752ed928280b965d92", "is_reserved": 0, "lon": -77.01768, "is_disabled": 0, "fusion_lat": 0.0, "lat": 38.887260166666664, "bike_id": "835ad1b3cfb1e4752ed928280b965d92", "fusion_lon": 0.0}, {"rental_uris": {"ios": "https://dc.lft.to/lastmile_qr_scan", "android": "https://dc.lft.to/lastmile_qr_scan"}, "type": "electric_scooter", "name": "37f2fe6e4f030b7a0e9956e4b804f2e7", "is_reserved": 0, "lon": -77.02716433333333, "is_disabled": 0, "fusion_lat": 0.0, "lat": 38.910145666666665, "bike_id": "37f2fe6e4f030b7a0e9956e4b804f2e7", "fusion_lon": 0.0}, {"rental_uris": {"ios": "https://dc.lft.to/lastmile_qr_scan", "android": "https://dc.lft.to/lastmile_qr_scan"}, "type": "electric_scooter", "name": "d8a85710ec72a1857196f4c185aaf5ef", "is_reserved": 0, "lon": -77.02645966666667, "is_disabled": 0, "fusion_lat": 0.0, "lat": 38.881068666666664, "bike_id": "d8a85710ec72a1857196f4c185aaf5ef", "fusion_lon": 0.0}, {"rental_uris": {"ios": "https://dc.lft.to/lastmile_qr_scan", "android": "https://dc.lft.to/lastmile_qr_scan"}, "type": "electric_scooter", "name": "3960038cdd850dba3fd3bb2d853affae", "is_reserved": 0, "lon": -77.01218733333333, "is_disabled": 0, "fusion_lat": 0.0, "lat": 38.869742, "bike_id": "3960038cdd850dba3fd3bb2d853affae", "fusion_lon": 0.0}, {"rental_uris": {"ios": "https://dc.lft.to/lastmile_qr_scan", "android": "https://dc.lft.to/lastmile_qr_scan"}, "type": "electric_scooter", "name": "82c27bbda5222c8d3e9b45f47b216746", "is_reserved": 0, "lon": -77.0121305, "is_disabled": 0, "fusion_lat": 0.0, "lat": 38.90169183333333, "bike_id": "82c27bbda5222c8d3e9b45f47b216746", "fusion_lon": 0.0}, {"rental_uris": {"ios": "https://dc.lft.to/lastmile_qr_scan", "android": "https://dc.lft.to/lastmile_qr_scan"}, "type": "electric_scooter", "name": "dacdec3d8d8b0316bc534b3018246f25", "is_reserved": 0, "lon": -76.98323533333334, "is_disabled": 0, "fusion_lat": 0.0, "lat": 38.87833633333334, "bike_id": "dacdec3d8d8b0316bc534b3018246f25", "fusion_lon": 0.0}, {"rental_uris": {"ios": "https://dc.lft.to/lastmile_qr_scan", "android": "https://dc.lft.to/lastmile_qr_scan"}, "type": "electric_scooter", "name": "d255f388e8e8955548a8e8af3fee31f7", "is_reserved": 0, "lon": -77.04654516666666, "is_disabled": 0, "fusion_lat": 0.0, "lat": 38.92120716666667, "bike_id": "d255f388e8e8955548a8e8af3fee31f7", "fusion_lon": 0.0}, {"rental_uris": {"ios": "https://dc.lft.to/lastmile_qr_scan", "android": "https://dc.lft.to/lastmile_qr_scan"}, "type": "electric_scooter", "name": "415f2a61bb22f5b08a982dffb9e2b0ff", "is_reserved": 0, "lon": -77.00349866666667, "is_disabled": 0, "fusion_lat": 0.0, "lat": 38.896415166666664, "bike_id": "415f2a61bb22f5b08a982dffb9e2b0ff", "fusion_lon": 0.0}, {"rental_uris": {"ios": "https://dc.lft.to/lastmile_qr_scan", "android": "https://dc.lft.to/lastmile_qr_scan"}, "type": "electric_scooter", "name": "702aa73031353e7bff40bfc72a01e694", "is_reserved": 0, "lon": -76.97357933333333, "is_disabled": 0, "fusion_lat": 0.0, "lat": 38.850031, "bike_id": "702aa73031353e7bff40bfc72a01e694", "fusion_lon": 0.0}, {"rental_uris": {"ios": "https://dc.lft.to/lastmile_qr_scan", "android": "https://dc.lft.to/lastmile_qr_scan"}, "type": "electric_bike", "name": "6a989428806fa41133dcc59a7131976e", "is_reserved": 0, "lon": -76.9416535, "is_disabled": 0, "fusion_lat": 0.0, "lat": 38.865516666666664, "bike_id": "6a989428806fa41133dcc59a7131976e", "fusion_lon": 0.0}, {"rental_uris": {"ios": "https://dc.lft.to/lastmile_qr_scan", "android": "https://dc.lft.to/lastmile_qr_scan"}, "type": "electric_scooter", "name": "598b18f1e5851e92a2b93ff66f6ca743", "is_reserved": 0, "lon": -77.03866116666667, "is_disabled": 0, "fusion_lat": 0.0, "lat": 38.9125565, "bike_id": "598b18f1e5851e92a2b93ff66f6ca743", "fusion_lon": 0.0}, {"rental_uris": {"ios": "https://dc.lft.to/lastmile_qr_scan", "android": "https://dc.lft.to/lastmile_qr_scan"}, "type": "electric_scooter", "name": "340e092afaf66fe2ab14b78690d1908f", "is_reserved": 0, "lon": -77.0258035, "is_disabled": 0, "fusion_lat": 0.0, "lat": 38.896451, "bike_id": "340e092afaf66fe2ab14b78690d1908f", "fusion_lon": 0.0}, {"rental_uris": {"ios": "https://dc.lft.to/lastmile_qr_scan", "android": "https://dc.lft.to/lastmile_qr_scan"}, "type": "electric_scooter", "name": "cb6dc3a14b96012828de7ccdba7d3d2b", "is_reserved": 0, "lon": -77.01944233333333, "is_disabled": 0, "fusion_lat": 0.0, "lat": 38.923127, "bike_id": "cb6dc3a14b96012828de7ccdba7d3d2b", "fusion_lon": 0.0}, {"rental_uris": {"ios": "https://dc.lft.to/lastmile_qr_scan", "android": "https://dc.lft.to/lastmile_qr_scan"}, "type": "electric_scooter", "name": "09831cc9ef3c064edfb41b2464e7771f", "is_reserved": 0, "lon": -77.015117, "is_disabled": 0, "fusion_lat": 0.0, "lat": 38.898961, "bike_id": "09831cc9ef3c064edfb41b2464e7771f", "fusion_lon": 0.0}, {"rental_uris": {"ios": "https://dc.lft.to/lastmile_qr_scan", "android": "https://dc.lft.to/lastmile_qr_scan"}, "type": "electric_scooter", "name": "ef20d5939718eaaa5f7da8a70f6cd9d1", "is_reserved": 0, "lon": -77.02704, "is_disabled": 0, "fusion_lat": 0.0, "lat": 38.897270666666664, "bike_id": "ef20d5939718eaaa5f7da8a70f6cd9d1", "fusion_lon": 0.0}, {"rental_uris": {"ios": "https://dc.lft.to/lastmile_qr_scan", "android": "https://dc.lft.to/lastmile_qr_scan"}, "type": "electric_scooter", "name": "1bfa3ff6af97ee447167c9f259bad13d", "is_reserved": 0, "lon": -77.00207783333333, "is_disabled": 0, "fusion_lat": 0.0, "lat": 38.900208, "bike_id": "1bfa3ff6af97ee447167c9f259bad13d", "fusion_lon": 0.0}, {"rental_uris": {"ios": "https://dc.lft.to/lastmile_qr_scan", "android": "https://dc.lft.to/lastmile_qr_scan"}, "type": "electric_scooter", "name": "63ea0d2337202e1fa6116674f1c8300f", "is_reserved": 0, "lon": -77.0199055, "is_disabled": 0, "fusion_lat": 0.0, "lat": 38.9005185, "bike_id": "63ea0d2337202e1fa6116674f1c8300f", "fusion_lon": 0.0}, {"rental_uris": {"ios": "https://dc.lft.to/lastmile_qr_scan", "android": "https://dc.lft.to/lastmile_qr_scan"}, "type": "electric_scooter", "name": "b820ddb90efb966207a06b5ccde6eb94", "is_reserved": 0, "lon": -77.04133033333333, "is_disabled": 0, "fusion_lat": 0.0, "lat": 38.93402416666667, "bike_id": "b820ddb90efb966207a06b5ccde6eb94", "fusion_lon": 0.0}, {"rental_uris": {"ios": "https://dc.lft.to/lastmile_qr_scan", "android": "https://dc.lft.to/lastmile_qr_scan"}, "type": "electric_scooter", "name": "ff77d17396a0fad2d77d69c4fd292849", "is_reserved": 0, "lon": -77.04962033333334, "is_disabled": 0, "fusion_lat": 0.0, "lat": 38.913276833333335, "bike_id": "ff77d17396a0fad2d77d69c4fd292849", "fusion_lon": 0.0}, {"rental_uris": {"ios": "https://dc.lft.to/lastmile_qr_scan", "android": "https://dc.lft.to/lastmile_qr_scan"}, "type": "electric_scooter", "name": "4981963d4c42d076e3925a467d20bfbf", "is_reserved": 0, "lon": -77.03955766666667, "is_disabled": 0, "fusion_lat": 0.0, "lat": 38.8924875, "bike_id": "4981963d4c42d076e3925a467d20bfbf", "fusion_lon": 0.0}, {"rental_uris": {"ios": "https://dc.lft.to/lastmile_qr_scan", "android": "https://dc.lft.to/lastmile_qr_scan"}, "type": "electric_scooter", "name": "108ae46928deb2e6b290594aa7a75dfc", "is_reserved": 0, "lon": -77.02622366666667, "is_disabled": 0, "fusion_lat": 0.0, "lat": 38.897212, "bike_id": "108ae46928deb2e6b290594aa7a75dfc", "fusion_lon": 0.0}, {"rental_uris": {"ios": "https://dc.lft.to/lastmile_qr_scan", "android": "https://dc.lft.to/lastmile_qr_scan"}, "type": "electric_scooter", "name": "8fb0602bdf33495dca6f521e7871cc56", "is_reserved": 0, "lon": -76.980355, "is_disabled": 0, "fusion_lat": 0.0, "lat": 38.916777333333336, "bike_id": "8fb0602bdf33495dca6f521e7871cc56", "fusion_lon": 0.0}, {"rental_uris": {"ios": "https://dc.lft.to/lastmile_qr_scan", "android": "https://dc.lft.to/lastmile_qr_scan"}, "type": "electric_scooter", "name": "e4344b6c97faa8d2d828084cbe81bd9b", "is_reserved": 0, "lon": -77.03208783333334, "is_disabled": 0, "fusion_lat": 0.0, "lat": 38.8923115, "bike_id": "e4344b6c97faa8d2d828084cbe81bd9b", "fusion_lon": 0.0}, {"rental_uris": {"ios": "https://dc.lft.to/lastmile_qr_scan", "android": "https://dc.lft.to/lastmile_qr_scan"}, "type": "electric_scooter", "name": "9ae1120545619150037c685063f72e5e", "is_reserved": 0, "lon": -77.02221, "is_disabled": 0, "fusion_lat": 0.0, "lat": 38.92471, "bike_id": "9ae1120545619150037c685063f72e5e", "fusion_lon": 0.0}, {"rental_uris": {"ios": "https://dc.lft.to/lastmile_qr_scan", "android": "https://dc.lft.to/lastmile_qr_scan"}, "type": "electric_bike", "name": "fba7e0d721754fd7ba915be9f317a166", "is_reserved": 0, "lon": -77.01584983333333, "is_disabled": 0, "fusion_lat": 0.0, "lat": 38.9527485, "bike_id": "fba7e0d721754fd7ba915be9f317a166", "fusion_lon": 0.0}, {"rental_uris": {"ios": "https://dc.lft.to/lastmile_qr_scan", "android": "https://dc.lft.to/lastmile_qr_scan"}, "type": "electric_scooter", "name": "8e582c642c6ce6661208fa6292274e9a", "is_reserved": 0, "lon": -76.9956155, "is_disabled": 0, "fusion_lat": 0.0, "lat": 38.9266695, "bike_id": "8e582c642c6ce6661208fa6292274e9a", "fusion_lon": 0.0}, {"rental_uris": {"ios": "https://dc.lft.to/lastmile_qr_scan", "android": "https://dc.lft.to/lastmile_qr_scan"}, "type": "electric_scooter", "name": "854c2b023ae9fc3f8b188c89d55ef54f", "is_reserved": 0, "lon": -77.03662233333333, "is_disabled": 0, "fusion_lat": 0.0, "lat": 38.913841, "bike_id": "854c2b023ae9fc3f8b188c89d55ef54f", "fusion_lon": 0.0}, {"rental_uris": {"ios": "https://dc.lft.to/lastmile_qr_scan", "android": "https://dc.lft.to/lastmile_qr_scan"}, "type": "electric_scooter", "name": "195a998c931d061dcb5ee13362e8504a", "is_reserved": 0, "lon": -77.05632883333334, "is_disabled": 0, "fusion_lat": 0.0, "lat": 38.92424783333333, "bike_id": "195a998c931d061dcb5ee13362e8504a", "fusion_lon": 0.0}, {"rental_uris": {"ios": "https://dc.lft.to/lastmile_qr_scan", "android": "https://dc.lft.to/lastmile_qr_scan"}, "type": "electric_scooter", "name": "fa23446b66324b6b3bb8b37afcb176a7", "is_reserved": 0, "lon": -77.05193083333333, "is_disabled": 0, "fusion_lat": 0.0, "lat": 38.90252666666667, "bike_id": "fa23446b66324b6b3bb8b37afcb176a7", "fusion_lon": 0.0}, {"rental_uris": {"ios": "https://dc.lft.to/lastmile_qr_scan", "android": "https://dc.lft.to/lastmile_qr_scan"}, "type": "electric_scooter", "name": "de42887bb37762e4b4d45492ef07504e", "is_reserved": 0, "lon": -77.04184883333333, "is_disabled": 0, "fusion_lat": 0.0, "lat": 38.92198716666667, "bike_id": "de42887bb37762e4b4d45492ef07504e", "fusion_lon": 0.0}, {"rental_uris": {"ios": "https://dc.lft.to/lastmile_qr_scan", "android": "https://dc.lft.to/lastmile_qr_scan"}, "type": "electric_scooter", "name": "e72898e865cafdb2026f518712b902cf", "is_reserved": 0, "lon": -76.98737133333333, "is_disabled": 0, "fusion_lat": 0.0, "lat": 38.84224233333333, "bike_id": "e72898e865cafdb2026f518712b902cf", "fusion_lon": 0.0}, {"rental_uris": {"ios": "https://dc.lft.to/lastmile_qr_scan", "android": "https://dc.lft.to/lastmile_qr_scan"}, "type": "electric_scooter", "name": "de2f267720e1b9c447d7dabeaa07b296", "is_reserved": 0, "lon": -77.04045633333334, "is_disabled": 0, "fusion_lat": 0.0, "lat": 38.91866866666667, "bike_id": "de2f267720e1b9c447d7dabeaa07b296", "fusion_lon": 0.0}, {"rental_uris": {"ios": "https://dc.lft.to/lastmile_qr_scan", "android": "https://dc.lft.to/lastmile_qr_scan"}, "type": "electric_scooter", "name": "3ac823856dbafc7690918582a8a353c7", "is_reserved": 0, "lon": -77.05873783333334, "is_disabled": 0, "fusion_lat": 0.0, "lat": 38.94243, "bike_id": "3ac823856dbafc7690918582a8a353c7", "fusion_lon": 0.0}, {"rental_uris": {"ios": "https://dc.lft.to/lastmile_qr_scan", "android": "https://dc.lft.to/lastmile_qr_scan"}, "type": "electric_scooter", "name": "09840baed48cc30b354c6134a0da0343", "is_reserved": 0, "lon": -77.0676795, "is_disabled": 0, "fusion_lat": 0.0, "lat": 38.90408133333333, "bike_id": "09840baed48cc30b354c6134a0da0343", "fusion_lon": 0.0}, {"rental_uris": {"ios": "https://dc.lft.to/lastmile_qr_scan", "android": "https://dc.lft.to/lastmile_qr_scan"}, "type": "electric_scooter", "name": "857beb6a13d9893c910f80ecc09ed2a9", "is_reserved": 0, "lon": -76.92921883333334, "is_disabled": 0, "fusion_lat": 0.0, "lat": 38.8865695, "bike_id": "857beb6a13d9893c910f80ecc09ed2a9", "fusion_lon": 0.0}, {"rental_uris": {"ios": "https://dc.lft.to/lastmile_qr_scan", "android": "https://dc.lft.to/lastmile_qr_scan"}, "type": "electric_scooter", "name": "e006c5992398f488ba555be051c68bf5", "is_reserved": 0, "lon": -77.0366015, "is_disabled": 0, "fusion_lat": 0.0, "lat": 38.95597583333333, "bike_id": "e006c5992398f488ba555be051c68bf5", "fusion_lon": 0.0}, {"rental_uris": {"ios": "https://dc.lft.to/lastmile_qr_scan", "android": "https://dc.lft.to/lastmile_qr_scan"}, "type": "electric_scooter", "name": "a3a419f51a462252148a06587f4bc6a2", "is_reserved": 0, "lon": -77.0550895, "is_disabled": 0, "fusion_lat": 0.0, "lat": 38.92826933333333, "bike_id": "a3a419f51a462252148a06587f4bc6a2", "fusion_lon": 0.0}, {"rental_uris": {"ios": "https://dc.lft.to/lastmile_qr_scan", "android": "https://dc.lft.to/lastmile_qr_scan"}, "type": "electric_bike", "name": "5b367571192541c19914f297bfc3e3fe", "is_reserved": 0, "lon": -77.21664, "is_disabled": 0, "fusion_lat": 0.0, "lat": 38.8950415, "bike_id": "5b367571192541c19914f297bfc3e3fe", "fusion_lon": 0.0}, {"rental_uris": {"ios": "https://dc.lft.to/lastmile_qr_scan", "android": "https://dc.lft.to/lastmile_qr_scan"}, "type": "electric_bike", "name": "2bad4cc8599495dc48796e6feabbd812", "is_reserved": 0, "lon": -77.0652975, "is_disabled": 0, "fusion_lat": 0.0, "lat": 38.99230583333333, "bike_id": "2bad4cc8599495dc48796e6feabbd812", "fusion_lon": 0.0}, {"rental_uris": {"ios": "https://dc.lft.to/lastmile_qr_scan", "android": "https://dc.lft.to/lastmile_qr_scan"}, "type": "electric_bike", "name": "945d47361a14d987f4de81b5633a42c9", "is_reserved": 0, "lon": -77.09723033333333, "is_disabled": 0, "fusion_lat": 0.0, "lat": 38.807366333333334, "bike_id": "945d47361a14d987f4de81b5633a42c9", "fusion_lon": 0.0}, {"rental_uris": {"ios": "https://dc.lft.to/lastmile_qr_scan", "android": "https://dc.lft.to/lastmile_qr_scan"}, "type": "electric_scooter", "name": "616fec00431baeba373c17c57ad26775", "is_reserved": 0, "lon": -77.00561433333333, "is_disabled": 0, "fusion_lat": 0.0, "lat": 38.879198333333335, "bike_id": "616fec00431baeba373c17c57ad26775", "fusion_lon": 0.0}, {"rental_uris": {"ios": "https://dc.lft.to/lastmile_qr_scan", "android": "https://dc.lft.to/lastmile_qr_scan"}, "type": "electric_bike", "name": "a8d50364b8029f7ea04a4a7d2b4ff3e0", "is_reserved": 0, "lon": -77.01223633333333, "is_disabled": 0, "fusion_lat": 0.0, "lat": 38.871902166666665, "bike_id": "a8d50364b8029f7ea04a4a7d2b4ff3e0", "fusion_lon": 0.0}, {"rental_uris": {"ios": "https://dc.lft.to/lastmile_qr_scan", "android": "https://dc.lft.to/lastmile_qr_scan"}, "type": "electric_scooter", "name": "8983e4dbf4eade64370322d75ef45cc4", "is_reserved": 0, "lon": -77.03914816666666, "is_disabled": 0, "fusion_lat": 0.0, "lat": 38.90827483333333, "bike_id": "8983e4dbf4eade64370322d75ef45cc4", "fusion_lon": 0.0}, {"rental_uris": {"ios": "https://dc.lft.to/lastmile_qr_scan", "android": "https://dc.lft.to/lastmile_qr_scan"}, "type": "electric_scooter", "name": "a4843add24192e37dd06724d53027ee2", "is_reserved": 0, "lon": -77.04553333333334, "is_disabled": 0, "fusion_lat": 0.0, "lat": 38.91936316666666, "bike_id": "a4843add24192e37dd06724d53027ee2", "fusion_lon": 0.0}, {"rental_uris": {"ios": "https://dc.lft.to/lastmile_qr_scan", "android": "https://dc.lft.to/lastmile_qr_scan"}, "type": "electric_scooter", "name": "3d53f7f01c369d65d94d603f98a3973c", "is_reserved": 0, "lon": -77.03481983333333, "is_disabled": 0, "fusion_lat": 0.0, "lat": 38.931126166666665, "bike_id": "3d53f7f01c369d65d94d603f98a3973c", "fusion_lon": 0.0}, {"rental_uris": {"ios": "https://dc.lft.to/lastmile_qr_scan", "android": "https://dc.lft.to/lastmile_qr_scan"}, "type": "electric_scooter", "name": "4d7028f464eed251104480e4df06d05e", "is_reserved": 0, "lon": -77.025924, "is_disabled": 0, "fusion_lat": 0.0, "lat": 38.91691466666666, "bike_id": "4d7028f464eed251104480e4df06d05e", "fusion_lon": 0.0}, {"rental_uris": {"ios": "https://dc.lft.to/lastmile_qr_scan", "android": "https://dc.lft.to/lastmile_qr_scan"}, "type": "electric_scooter", "name": "77e61eb0a2417cae9d34e00cf0ff1c14", "is_reserved": 0, "lon": -77.03780583333334, "is_disabled": 0, "fusion_lat": 0.0, "lat": 38.9396485, "bike_id": "77e61eb0a2417cae9d34e00cf0ff1c14", "fusion_lon": 0.0}, {"rental_uris": {"ios": "https://dc.lft.to/lastmile_qr_scan", "android": "https://dc.lft.to/lastmile_qr_scan"}, "type": "electric_scooter", "name": "35eb27b835afb7133777f57796c6b6ab", "is_reserved": 0, "lon": -77.03207416666666, "is_disabled": 0, "fusion_lat": 0.0, "lat": 38.91425183333333, "bike_id": "35eb27b835afb7133777f57796c6b6ab", "fusion_lon": 0.0}, {"rental_uris": {"ios": "https://dc.lft.to/lastmile_qr_scan", "android": "https://dc.lft.to/lastmile_qr_scan"}, "type": "electric_scooter", "name": "cabd984e523e5b5bc5cbcd8e97884fac", "is_reserved": 0, "lon": -77.01869183333334, "is_disabled": 0, "fusion_lat": 0.0, "lat": 38.9135945, "bike_id": "cabd984e523e5b5bc5cbcd8e97884fac", "fusion_lon": 0.0}, {"rental_uris": {"ios": "https://dc.lft.to/lastmile_qr_scan", "android": "https://dc.lft.to/lastmile_qr_scan"}, "type": "electric_bike", "name": "6e4171d2f5c0ef04bc36c10588b748db", "is_reserved": 0, "lon": -76.97315233333333, "is_disabled": 0, "fusion_lat": 0.0, "lat": 38.9175755, "bike_id": "6e4171d2f5c0ef04bc36c10588b748db", "fusion_lon": 0.0}, {"rental_uris": {"ios": "https://dc.lft.to/lastmile_qr_scan", "android": "https://dc.lft.to/lastmile_qr_scan"}, "type": "electric_scooter", "name": "877ae1a1974cdee2d8206fba192bfa22", "is_reserved": 0, "lon": -77.032584, "is_disabled": 0, "fusion_lat": 0.0, "lat": 38.909546666666664, "bike_id": "877ae1a1974cdee2d8206fba192bfa22", "fusion_lon": 0.0}, {"rental_uris": {"ios": "https://dc.lft.to/lastmile_qr_scan", "android": "https://dc.lft.to/lastmile_qr_scan"}, "type": "electric_scooter", "name": "6b4596acb238a1b56ce1b9667e5587b1", "is_reserved": 0, "lon": -77.00932633333333, "is_disabled": 0, "fusion_lat": 0.0, "lat": 38.8997955, "bike_id": "6b4596acb238a1b56ce1b9667e5587b1", "fusion_lon": 0.0}, {"rental_uris": {"ios": "https://dc.lft.to/lastmile_qr_scan", "android": "https://dc.lft.to/lastmile_qr_scan"}, "type": "electric_scooter", "name": "8f7adbe729f541026d50089fcefd02f8", "is_reserved": 0, "lon": -77.01707816666666, "is_disabled": 0, "fusion_lat": 0.0, "lat": 38.902496, "bike_id": "8f7adbe729f541026d50089fcefd02f8", "fusion_lon": 0.0}, {"rental_uris": {"ios": "https://dc.lft.to/lastmile_qr_scan", "android": "https://dc.lft.to/lastmile_qr_scan"}, "type": "electric_scooter", "name": "af402497d7a665a53e06ee42bc827461", "is_reserved": 0, "lon": -77.04697116666667, "is_disabled": 0, "fusion_lat": 0.0, "lat": 38.92158216666667, "bike_id": "af402497d7a665a53e06ee42bc827461", "fusion_lon": 0.0}, {"rental_uris": {"ios": "https://dc.lft.to/lastmile_qr_scan", "android": "https://dc.lft.to/lastmile_qr_scan"}, "type": "electric_scooter", "name": "915efa4155b363294087a82c7e3e10d7", "is_reserved": 0, "lon": -77.0006705, "is_disabled": 0, "fusion_lat": 0.0, "lat": 38.90135216666667, "bike_id": "915efa4155b363294087a82c7e3e10d7", "fusion_lon": 0.0}, {"rental_uris": {"ios": "https://dc.lft.to/lastmile_qr_scan", "android": "https://dc.lft.to/lastmile_qr_scan"}, "type": "electric_scooter", "name": "3f49c597d27014f9b4f553bd8efaa1b5", "is_reserved": 0, "lon": -77.0250225, "is_disabled": 0, "fusion_lat": 0.0, "lat": 38.94172616666667, "bike_id": "3f49c597d27014f9b4f553bd8efaa1b5", "fusion_lon": 0.0}, {"rental_uris": {"ios": "https://dc.lft.to/lastmile_qr_scan", "android": "https://dc.lft.to/lastmile_qr_scan"}, "type": "electric_scooter", "name": "410a3fc13bf5e48b501fce13cee09e30", "is_reserved": 0, "lon": -77.03245983333333, "is_disabled": 0, "fusion_lat": 0.0, "lat": 38.905431166666666, "bike_id": "410a3fc13bf5e48b501fce13cee09e30", "fusion_lon": 0.0}, {"rental_uris": {"ios": "https://dc.lft.to/lastmile_qr_scan", "android": "https://dc.lft.to/lastmile_qr_scan"}, "type": "electric_scooter", "name": "d428b265727c5e4f2b6caa183b3c82cd", "is_reserved": 0, "lon": -77.044451, "is_disabled": 0, "fusion_lat": 0.0, "lat": 38.901300166666665, "bike_id": "d428b265727c5e4f2b6caa183b3c82cd", "fusion_lon": 0.0}, {"rental_uris": {"ios": "https://dc.lft.to/lastmile_qr_scan", "android": "https://dc.lft.to/lastmile_qr_scan"}, "type": "electric_scooter", "name": "12d45479eefe72489f7c2de6cc1ad9d2", "is_reserved": 0, "lon": -77.03210016666667, "is_disabled": 0, "fusion_lat": 0.0, "lat": 38.892323166666664, "bike_id": "12d45479eefe72489f7c2de6cc1ad9d2", "fusion_lon": 0.0}, {"rental_uris": {"ios": "https://dc.lft.to/lastmile_qr_scan", "android": "https://dc.lft.to/lastmile_qr_scan"}, "type": "electric_scooter", "name": "9cdc5075010b68179ebf958544bc5d60", "is_reserved": 0, "lon": -77.024015, "is_disabled": 0, "fusion_lat": 0.0, "lat": 38.920833333333334, "bike_id": "9cdc5075010b68179ebf958544bc5d60", "fusion_lon": 0.0}, {"rental_uris": {"ios": "https://dc.lft.to/lastmile_qr_scan", "android": "https://dc.lft.to/lastmile_qr_scan"}, "type": "electric_scooter", "name": "5babfd8d788d6d8e15adc90081f8d974", "is_reserved": 0, "lon": -77.0275885, "is_disabled": 0, "fusion_lat": 0.0, "lat": 38.929669, "bike_id": "5babfd8d788d6d8e15adc90081f8d974", "fusion_lon": 0.0}, {"rental_uris": {"ios": "https://dc.lft.to/lastmile_qr_scan", "android": "https://dc.lft.to/lastmile_qr_scan"}, "type": "electric_scooter", "name": "fa5969cfa4e14253351414a344990140", "is_reserved": 0, "lon": -77.0419415, "is_disabled": 0, "fusion_lat": 0.0, "lat": 38.920513, "bike_id": "fa5969cfa4e14253351414a344990140", "fusion_lon": 0.0}, {"rental_uris": {"ios": "https://dc.lft.to/lastmile_qr_scan", "android": "https://dc.lft.to/lastmile_qr_scan"}, "type": "electric_scooter", "name": "65f7c19ed627607ed8b3714c8e42c46e", "is_reserved": 0, "lon": -77.027588, "is_disabled": 0, "fusion_lat": 0.0, "lat": 38.913423, "bike_id": "65f7c19ed627607ed8b3714c8e42c46e", "fusion_lon": 0.0}, {"rental_uris": {"ios": "https://dc.lft.to/lastmile_qr_scan", "android": "https://dc.lft.to/lastmile_qr_scan"}, "type": "electric_scooter", "name": "d6b34489e5767cd73e5c5706428f7b81", "is_reserved": 0, "lon": -77.01952966666667, "is_disabled": 0, "fusion_lat": 0.0, "lat": 38.92244866666667, "bike_id": "d6b34489e5767cd73e5c5706428f7b81", "fusion_lon": 0.0}, {"rental_uris": {"ios": "https://dc.lft.to/lastmile_qr_scan", "android": "https://dc.lft.to/lastmile_qr_scan"}, "type": "electric_scooter", "name": "df44a2234889e70d572c719d772efa1c", "is_reserved": 0, "lon": -77.0230605, "is_disabled": 0, "fusion_lat": 0.0, "lat": 38.90171683333333, "bike_id": "df44a2234889e70d572c719d772efa1c", "fusion_lon": 0.0}, {"rental_uris": {"ios": "https://dc.lft.to/lastmile_qr_scan", "android": "https://dc.lft.to/lastmile_qr_scan"}, "type": "electric_scooter", "name": "5c56b252af5451985c5952aa9072384b", "is_reserved": 0, "lon": -77.0295095, "is_disabled": 0, "fusion_lat": 0.0, "lat": 38.90506383333334, "bike_id": "5c56b252af5451985c5952aa9072384b", "fusion_lon": 0.0}, {"rental_uris": {"ios": "https://dc.lft.to/lastmile_qr_scan", "android": "https://dc.lft.to/lastmile_qr_scan"}, "type": "electric_scooter", "name": "23b7d71b6d91ffe6549abc34a34c1b17", "is_reserved": 0, "lon": -77.06123333333333, "is_disabled": 0, "fusion_lat": 0.0, "lat": 38.905028333333334, "bike_id": "23b7d71b6d91ffe6549abc34a34c1b17", "fusion_lon": 0.0}, {"rental_uris": {"ios": "https://dc.lft.to/lastmile_qr_scan", "android": "https://dc.lft.to/lastmile_qr_scan"}, "type": "electric_scooter", "name": "ca231a35ebb83e915b2d2983fe87931a", "is_reserved": 0, "lon": -77.0423575, "is_disabled": 0, "fusion_lat": 0.0, "lat": 38.921941, "bike_id": "ca231a35ebb83e915b2d2983fe87931a", "fusion_lon": 0.0}, {"rental_uris": {"ios": "https://dc.lft.to/lastmile_qr_scan", "android": "https://dc.lft.to/lastmile_qr_scan"}, "type": "electric_scooter", "name": "ccd5bd6b2ab9bcc58123ec7fe39aab46", "is_reserved": 0, "lon": -77.01353766666666, "is_disabled": 0, "fusion_lat": 0.0, "lat": 38.91934766666667, "bike_id": "ccd5bd6b2ab9bcc58123ec7fe39aab46", "fusion_lon": 0.0}, {"rental_uris": {"ios": "https://dc.lft.to/lastmile_qr_scan", "android": "https://dc.lft.to/lastmile_qr_scan"}, "type": "electric_scooter", "name": "c7e782a7c86283c2128e3425e4500c72", "is_reserved": 0, "lon": -77.03245283333334, "is_disabled": 0, "fusion_lat": 0.0, "lat": 38.931341833333335, "bike_id": "c7e782a7c86283c2128e3425e4500c72", "fusion_lon": 0.0}, {"rental_uris": {"ios": "https://dc.lft.to/lastmile_qr_scan", "android": "https://dc.lft.to/lastmile_qr_scan"}, "type": "electric_scooter", "name": "2dd1c2f5673c83b1dab2cd030313b0d2", "is_reserved": 0, "lon": -77.031896, "is_disabled": 0, "fusion_lat": 0.0, "lat": 38.90874633333333, "bike_id": "2dd1c2f5673c83b1dab2cd030313b0d2", "fusion_lon": 0.0}, {"rental_uris": {"ios": "https://dc.lft.to/lastmile_qr_scan", "android": "https://dc.lft.to/lastmile_qr_scan"}, "type": "electric_scooter", "name": "6ccf120f25b7c9c4d10ea7adc0923d98", "is_reserved": 0, "lon": -77.020017, "is_disabled": 0, "fusion_lat": 0.0, "lat": 38.930230333333334, "bike_id": "6ccf120f25b7c9c4d10ea7adc0923d98", "fusion_lon": 0.0}, {"rental_uris": {"ios": "https://dc.lft.to/lastmile_qr_scan", "android": "https://dc.lft.to/lastmile_qr_scan"}, "type": "electric_scooter", "name": "c5d63bdb106a0b45b2144275ee9859b2", "is_reserved": 0, "lon": -77.02228983333333, "is_disabled": 0, "fusion_lat": 0.0, "lat": 38.892214, "bike_id": "c5d63bdb106a0b45b2144275ee9859b2", "fusion_lon": 0.0}, {"rental_uris": {"ios": "https://dc.lft.to/lastmile_qr_scan", "android": "https://dc.lft.to/lastmile_qr_scan"}, "type": "electric_scooter", "name": "a83adb8047cbad1d04a0fbff7d3999ec", "is_reserved": 0, "lon": -77.03292866666666, "is_disabled": 0, "fusion_lat": 0.0, "lat": 38.924487166666665, "bike_id": "a83adb8047cbad1d04a0fbff7d3999ec", "fusion_lon": 0.0}, {"rental_uris": {"ios": "https://dc.lft.to/lastmile_qr_scan", "android": "https://dc.lft.to/lastmile_qr_scan"}, "type": "electric_scooter", "name": "23d7fe5e0e71940f001bc6ed4e583512", "is_reserved": 0, "lon": -77.02126766666666, "is_disabled": 0, "fusion_lat": 0.0, "lat": 38.9132225, "bike_id": "23d7fe5e0e71940f001bc6ed4e583512", "fusion_lon": 0.0}, {"rental_uris": {"ios": "https://dc.lft.to/lastmile_qr_scan", "android": "https://dc.lft.to/lastmile_qr_scan"}, "type": "electric_scooter", "name": "c42cfe5af9dc13bfc81894682f99b838", "is_reserved": 0, "lon": -77.02077233333333, "is_disabled": 0, "fusion_lat": 0.0, "lat": 38.9272235, "bike_id": "c42cfe5af9dc13bfc81894682f99b838", "fusion_lon": 0.0}, {"rental_uris": {"ios": "https://dc.lft.to/lastmile_qr_scan", "android": "https://dc.lft.to/lastmile_qr_scan"}, "type": "electric_scooter", "name": "5007e17efb9c6465792e212d991662f6", "is_reserved": 0, "lon": -77.03365183333334, "is_disabled": 0, "fusion_lat": 0.0, "lat": 38.930531, "bike_id": "5007e17efb9c6465792e212d991662f6", "fusion_lon": 0.0}, {"rental_uris": {"ios": "https://dc.lft.to/lastmile_qr_scan", "android": "https://dc.lft.to/lastmile_qr_scan"}, "type": "electric_scooter", "name": "4d24b8b8eb0afc809cd3ee385bf1811e", "is_reserved": 0, "lon": -77.03661833333334, "is_disabled": 0, "fusion_lat": 0.0, "lat": 38.92285366666667, "bike_id": "4d24b8b8eb0afc809cd3ee385bf1811e", "fusion_lon": 0.0}, {"rental_uris": {"ios": "https://dc.lft.to/lastmile_qr_scan", "android": "https://dc.lft.to/lastmile_qr_scan"}, "type": "electric_scooter", "name": "de642f5a6d90ac51a0796472321619e4", "is_reserved": 0, "lon": -76.99157866666667, "is_disabled": 0, "fusion_lat": 0.0, "lat": 38.90037266666667, "bike_id": "de642f5a6d90ac51a0796472321619e4", "fusion_lon": 0.0}, {"rental_uris": {"ios": "https://dc.lft.to/lastmile_qr_scan", "android": "https://dc.lft.to/lastmile_qr_scan"}, "type": "electric_scooter", "name": "1e248f11a56a98718229423d22b0e47b", "is_reserved": 0, "lon": -77.03449333333333, "is_disabled": 0, "fusion_lat": 0.0, "lat": 38.91028416666666, "bike_id": "1e248f11a56a98718229423d22b0e47b", "fusion_lon": 0.0}, {"rental_uris": {"ios": "https://dc.lft.to/lastmile_qr_scan", "android": "https://dc.lft.to/lastmile_qr_scan"}, "type": "electric_scooter", "name": "d30d169f81a068870e128e3aad8b3170", "is_reserved": 0, "lon": -77.0560065, "is_disabled": 0, "fusion_lat": 0.0, "lat": 38.89422866666666, "bike_id": "d30d169f81a068870e128e3aad8b3170", "fusion_lon": 0.0}, {"rental_uris": {"ios": "https://dc.lft.to/lastmile_qr_scan", "android": "https://dc.lft.to/lastmile_qr_scan"}, "type": "electric_scooter", "name": "9b100e48a217452fa8a8059b107a75e9", "is_reserved": 0, "lon": -77.03699066666667, "is_disabled": 0, "fusion_lat": 0.0, "lat": 38.932802333333335, "bike_id": "9b100e48a217452fa8a8059b107a75e9", "fusion_lon": 0.0}, {"rental_uris": {"ios": "https://dc.lft.to/lastmile_qr_scan", "android": "https://dc.lft.to/lastmile_qr_scan"}, "type": "electric_scooter", "name": "4559faf31f46ea712b83a5e447bffe9d", "is_reserved": 0, "lon": -77.0101775, "is_disabled": 0, "fusion_lat": 0.0, "lat": 38.91400633333333, "bike_id": "4559faf31f46ea712b83a5e447bffe9d", "fusion_lon": 0.0}, {"rental_uris": {"ios": "https://dc.lft.to/lastmile_qr_scan", "android": "https://dc.lft.to/lastmile_qr_scan"}, "type": "electric_scooter", "name": "9e716c7df46d51ad8c21256bd28bc0a0", "is_reserved": 0, "lon": -77.03205366666667, "is_disabled": 0, "fusion_lat": 0.0, "lat": 38.88705233333334, "bike_id": "9e716c7df46d51ad8c21256bd28bc0a0", "fusion_lon": 0.0}, {"rental_uris": {"ios": "https://dc.lft.to/lastmile_qr_scan", "android": "https://dc.lft.to/lastmile_qr_scan"}, "type": "electric_scooter", "name": "2f962af9a7bebe36dd3fd7ec4d828dc7", "is_reserved": 0, "lon": -77.04685366666666, "is_disabled": 0, "fusion_lat": 0.0, "lat": 38.892202833333336, "bike_id": "2f962af9a7bebe36dd3fd7ec4d828dc7", "fusion_lon": 0.0}, {"rental_uris": {"ios": "https://dc.lft.to/lastmile_qr_scan", "android": "https://dc.lft.to/lastmile_qr_scan"}, "type": "electric_scooter", "name": "ff69c97fe38d29e750a5431910a110f8", "is_reserved": 0, "lon": -77.03378933333333, "is_disabled": 0, "fusion_lat": 0.0, "lat": 38.89915666666667, "bike_id": "ff69c97fe38d29e750a5431910a110f8", "fusion_lon": 0.0}, {"rental_uris": {"ios": "https://dc.lft.to/lastmile_qr_scan", "android": "https://dc.lft.to/lastmile_qr_scan"}, "type": "electric_scooter", "name": "70e2bb40a47ecaa5cca3538214e7b04a", "is_reserved": 0, "lon": -76.96544333333334, "is_disabled": 0, "fusion_lat": 0.0, "lat": 38.8788515, "bike_id": "70e2bb40a47ecaa5cca3538214e7b04a", "fusion_lon": 0.0}, {"rental_uris": {"ios": "https://dc.lft.to/lastmile_qr_scan", "android": "https://dc.lft.to/lastmile_qr_scan"}, "type": "electric_scooter", "name": "b236480536ecc57feb9a2efb2d5c9725", "is_reserved": 0, "lon": -77.00490316666667, "is_disabled": 0, "fusion_lat": 0.0, "lat": 38.87939083333333, "bike_id": "b236480536ecc57feb9a2efb2d5c9725", "fusion_lon": 0.0}, {"rental_uris": {"ios": "https://dc.lft.to/lastmile_qr_scan", "android": "https://dc.lft.to/lastmile_qr_scan"}, "type": "electric_scooter", "name": "456f4953240b7cdce26bf7667d4b4656", "is_reserved": 0, "lon": -77.03644933333334, "is_disabled": 0, "fusion_lat": 0.0, "lat": 38.920193166666664, "bike_id": "456f4953240b7cdce26bf7667d4b4656", "fusion_lon": 0.0}, {"rental_uris": {"ios": "https://dc.lft.to/lastmile_qr_scan", "android": "https://dc.lft.to/lastmile_qr_scan"}, "type": "electric_scooter", "name": "7410d3ed83558493ef5eb9cb49f76fd3", "is_reserved": 0, "lon": -77.0464985, "is_disabled": 0, "fusion_lat": 0.0, "lat": 38.91052, "bike_id": "7410d3ed83558493ef5eb9cb49f76fd3", "fusion_lon": 0.0}, {"rental_uris": {"ios": "https://dc.lft.to/lastmile_qr_scan", "android": "https://dc.lft.to/lastmile_qr_scan"}, "type": "electric_bike", "name": "ed0eb6006aa5c909bd8c77bd380894d0", "is_reserved": 0, "lon": -77.083692, "is_disabled": 0, "fusion_lat": 0.0, "lat": 38.854163, "bike_id": "ed0eb6006aa5c909bd8c77bd380894d0", "fusion_lon": 0.0}, {"rental_uris": {"ios": "https://dc.lft.to/lastmile_qr_scan", "android": "https://dc.lft.to/lastmile_qr_scan"}, "type": "electric_scooter", "name": "70e223da3d5be75b0c90f716fd5e003c", "is_reserved": 0, "lon": -77.04626216666666, "is_disabled": 0, "fusion_lat": 0.0, "lat": 38.919071833333334, "bike_id": "70e223da3d5be75b0c90f716fd5e003c", "fusion_lon": 0.0}, {"rental_uris": {"ios": "https://dc.lft.to/lastmile_qr_scan", "android": "https://dc.lft.to/lastmile_qr_scan"}, "type": "electric_scooter", "name": "f5e9c5b3d5662206451eb6f3804c992d", "is_reserved": 0, "lon": -76.9974065, "is_disabled": 0, "fusion_lat": 0.0, "lat": 38.92034316666667, "bike_id": "f5e9c5b3d5662206451eb6f3804c992d", "fusion_lon": 0.0}, {"rental_uris": {"ios": "https://dc.lft.to/lastmile_qr_scan", "android": "https://dc.lft.to/lastmile_qr_scan"}, "type": "electric_scooter", "name": "08f8d3f9e47e175b1fe430ec5c8dab66", "is_reserved": 0, "lon": -76.99503416666667, "is_disabled": 0, "fusion_lat": 0.0, "lat": 38.862449166666664, "bike_id": "08f8d3f9e47e175b1fe430ec5c8dab66", "fusion_lon": 0.0}, {"rental_uris": {"ios": "https://dc.lft.to/lastmile_qr_scan", "android": "https://dc.lft.to/lastmile_qr_scan"}, "type": "electric_scooter", "name": "db3ff76628a8e69235f7bfd5e4718b85", "is_reserved": 0, "lon": -77.00412066666667, "is_disabled": 0, "fusion_lat": 0.0, "lat": 38.8769065, "bike_id": "db3ff76628a8e69235f7bfd5e4718b85", "fusion_lon": 0.0}, {"rental_uris": {"ios": "https://dc.lft.to/lastmile_qr_scan", "android": "https://dc.lft.to/lastmile_qr_scan"}, "type": "electric_scooter", "name": "95a2b7832bfb7680e6056cca1beca920", "is_reserved": 0, "lon": -77.01619216666667, "is_disabled": 0, "fusion_lat": 0.0, "lat": 38.90130933333333, "bike_id": "95a2b7832bfb7680e6056cca1beca920", "fusion_lon": 0.0}, {"rental_uris": {"ios": "https://dc.lft.to/lastmile_qr_scan", "android": "https://dc.lft.to/lastmile_qr_scan"}, "type": "electric_scooter", "name": "91aad5519023c14df3dfef939af8801c", "is_reserved": 0, "lon": -77.01592116666667, "is_disabled": 0, "fusion_lat": 0.0, "lat": 38.91644483333334, "bike_id": "91aad5519023c14df3dfef939af8801c", "fusion_lon": 0.0}, {"rental_uris": {"ios": "https://dc.lft.to/lastmile_qr_scan", "android": "https://dc.lft.to/lastmile_qr_scan"}, "type": "electric_scooter", "name": "9771f2a2e7e7c7774b6ea95c4838a39b", "is_reserved": 0, "lon": -77.03449883333333, "is_disabled": 0, "fusion_lat": 0.0, "lat": 38.9073385, "bike_id": "9771f2a2e7e7c7774b6ea95c4838a39b", "fusion_lon": 0.0}, {"rental_uris": {"ios": "https://dc.lft.to/lastmile_qr_scan", "android": "https://dc.lft.to/lastmile_qr_scan"}, "type": "electric_bike", "name": "31ec00160230bcae8a43cae6dcc329ee", "is_reserved": 0, "lon": -77.02587816666667, "is_disabled": 0, "fusion_lat": 0.0, "lat": 38.978717333333336, "bike_id": "31ec00160230bcae8a43cae6dcc329ee", "fusion_lon": 0.0}, {"rental_uris": {"ios": "https://dc.lft.to/lastmile_qr_scan", "android": "https://dc.lft.to/lastmile_qr_scan"}, "type": "electric_scooter", "name": "17c28a79e5a868fbcc7739c25fea957f", "is_reserved": 0, "lon": -77.02219416666667, "is_disabled": 0, "fusion_lat": 0.0, "lat": 38.90532533333333, "bike_id": "17c28a79e5a868fbcc7739c25fea957f", "fusion_lon": 0.0}, {"rental_uris": {"ios": "https://dc.lft.to/lastmile_qr_scan", "android": "https://dc.lft.to/lastmile_qr_scan"}, "type": "electric_scooter", "name": "688c51ac97bdf9d728da3771ba74f71d", "is_reserved": 0, "lon": -77.0107705, "is_disabled": 0, "fusion_lat": 0.0, "lat": 38.8979225, "bike_id": "688c51ac97bdf9d728da3771ba74f71d", "fusion_lon": 0.0}, {"rental_uris": {"ios": "https://dc.lft.to/lastmile_qr_scan", "android": "https://dc.lft.to/lastmile_qr_scan"}, "type": "electric_scooter", "name": "e85fe2b0240c22c3a02ebf2a5920f88f", "is_reserved": 0, "lon": -77.049497, "is_disabled": 0, "fusion_lat": 0.0, "lat": 38.90069666666667, "bike_id": "e85fe2b0240c22c3a02ebf2a5920f88f", "fusion_lon": 0.0}, {"rental_uris": {"ios": "https://dc.lft.to/lastmile_qr_scan", "android": "https://dc.lft.to/lastmile_qr_scan"}, "type": "electric_scooter", "name": "b1b8c2304f5ceaebd6e0999760d3c7a4", "is_reserved": 0, "lon": -77.0306485, "is_disabled": 0, "fusion_lat": 0.0, "lat": 38.90565483333334, "bike_id": "b1b8c2304f5ceaebd6e0999760d3c7a4", "fusion_lon": 0.0}, {"rental_uris": {"ios": "https://dc.lft.to/lastmile_qr_scan", "android": "https://dc.lft.to/lastmile_qr_scan"}, "type": "electric_scooter", "name": "2cf23ce887409ac42c8edbb282504058", "is_reserved": 0, "lon": -77.040745, "is_disabled": 0, "fusion_lat": 0.0, "lat": 38.94772533333333, "bike_id": "2cf23ce887409ac42c8edbb282504058", "fusion_lon": 0.0}, {"rental_uris": {"ios": "https://dc.lft.to/lastmile_qr_scan", "android": "https://dc.lft.to/lastmile_qr_scan"}, "type": "electric_scooter", "name": "0ed84424f3ebd1cad70b5fc0494bc159", "is_reserved": 0, "lon": -77.03957716666666, "is_disabled": 0, "fusion_lat": 0.0, "lat": 38.8924685, "bike_id": "0ed84424f3ebd1cad70b5fc0494bc159", "fusion_lon": 0.0}, {"rental_uris": {"ios": "https://dc.lft.to/lastmile_qr_scan", "android": "https://dc.lft.to/lastmile_qr_scan"}, "type": "electric_bike", "name": "26e35356b0efbd601f31cf4e907e8266", "is_reserved": 0, "lon": -76.99912033333334, "is_disabled": 0, "fusion_lat": 0.0, "lat": 38.86442866666667, "bike_id": "26e35356b0efbd601f31cf4e907e8266", "fusion_lon": 0.0}, {"rental_uris": {"ios": "https://dc.lft.to/lastmile_qr_scan", "android": "https://dc.lft.to/lastmile_qr_scan"}, "type": "electric_scooter", "name": "93fe6dae6b5fe45df14f540adb904c10", "is_reserved": 0, "lon": -77.02110183333333, "is_disabled": 0, "fusion_lat": 0.0, "lat": 38.966722833333336, "bike_id": "93fe6dae6b5fe45df14f540adb904c10", "fusion_lon": 0.0}, {"rental_uris": {"ios": "https://dc.lft.to/lastmile_qr_scan", "android": "https://dc.lft.to/lastmile_qr_scan"}, "type": "electric_scooter", "name": "53f28b234154b9e0f83a55a144f6706c", "is_reserved": 0, "lon": -77.029992, "is_disabled": 0, "fusion_lat": 0.0, "lat": 38.917074, "bike_id": "53f28b234154b9e0f83a55a144f6706c", "fusion_lon": 0.0}, {"rental_uris": {"ios": "https://dc.lft.to/lastmile_qr_scan", "android": "https://dc.lft.to/lastmile_qr_scan"}, "type": "electric_scooter", "name": "17d016abf671f725d1708af0bb82d475", "is_reserved": 0, "lon": -76.99034983333334, "is_disabled": 0, "fusion_lat": 0.0, "lat": 38.888791499999996, "bike_id": "17d016abf671f725d1708af0bb82d475", "fusion_lon": 0.0}, {"rental_uris": {"ios": "https://dc.lft.to/lastmile_qr_scan", "android": "https://dc.lft.to/lastmile_qr_scan"}, "type": "electric_scooter", "name": "cadc358efaacb7c090d3cd7206f814aa", "is_reserved": 0, "lon": -77.04166366666666, "is_disabled": 0, "fusion_lat": 0.0, "lat": 38.918446, "bike_id": "cadc358efaacb7c090d3cd7206f814aa", "fusion_lon": 0.0}, {"rental_uris": {"ios": "https://dc.lft.to/lastmile_qr_scan", "android": "https://dc.lft.to/lastmile_qr_scan"}, "type": "electric_scooter", "name": "c0257cd9b772a807a8c92669e8250329", "is_reserved": 0, "lon": -77.00748033333333, "is_disabled": 0, "fusion_lat": 0.0, "lat": 38.9111785, "bike_id": "c0257cd9b772a807a8c92669e8250329", "fusion_lon": 0.0}, {"rental_uris": {"ios": "https://dc.lft.to/lastmile_qr_scan", "android": "https://dc.lft.to/lastmile_qr_scan"}, "type": "electric_scooter", "name": "cefebad68976040061beb834c0439fec", "is_reserved": 0, "lon": -76.98808733333334, "is_disabled": 0, "fusion_lat": 0.0, "lat": 38.90025166666667, "bike_id": "cefebad68976040061beb834c0439fec", "fusion_lon": 0.0}, {"rental_uris": {"ios": "https://dc.lft.to/lastmile_qr_scan", "android": "https://dc.lft.to/lastmile_qr_scan"}, "type": "electric_scooter", "name": "f798c75498f2ed29833a0f8040ae2e85", "is_reserved": 0, "lon": -77.0346295, "is_disabled": 0, "fusion_lat": 0.0, "lat": 38.918141, "bike_id": "f798c75498f2ed29833a0f8040ae2e85", "fusion_lon": 0.0}, {"rental_uris": {"ios": "https://dc.lft.to/lastmile_qr_scan", "android": "https://dc.lft.to/lastmile_qr_scan"}, "type": "electric_scooter", "name": "390d1fbdbb5f8a20de35904207f5ccb3", "is_reserved": 0, "lon": -76.985379, "is_disabled": 0, "fusion_lat": 0.0, "lat": 38.9145035, "bike_id": "390d1fbdbb5f8a20de35904207f5ccb3", "fusion_lon": 0.0}, {"rental_uris": {"ios": "https://dc.lft.to/lastmile_qr_scan", "android": "https://dc.lft.to/lastmile_qr_scan"}, "type": "electric_bike", "name": "3f491949c839a251e96d9dca98208c38", "is_reserved": 0, "lon": -76.993692, "is_disabled": 0, "fusion_lat": 0.0, "lat": 38.927252833333334, "bike_id": "3f491949c839a251e96d9dca98208c38", "fusion_lon": 0.0}, {"rental_uris": {"ios": "https://dc.lft.to/lastmile_qr_scan", "android": "https://dc.lft.to/lastmile_qr_scan"},