{"data": {"bikes": [{"bike_id": "bfe31a80aad326d95bce54bbaca605ab", "type": "electric_scooter", "is_disabled": 0, "lat": 38.87111316666667, "rental_uris": {"ios": "https://dc.lft.to/lastmile_qr_scan", "android": "https://dc.lft.to/lastmile_qr_scan"}, "is_reserved": 0, "fusion_lon": 0.0, "fusion_lat": 0.0, "lon": -77.007573, "name": "bfe31a80aad326d95bce54bbaca605ab"}, {"bike_id": "ddfbce13fec4ec54bf5bb0e83ac03cb9", "type": "electric_scooter", "is_disabled": 0, "lat": 38.88656266666667, "rental_uris": {"ios": "https://dc.lft.to/lastmile_qr_scan", "android": "https://dc.lft.to/lastmile_qr_scan"}, "is_reserved": 0, "fusion_lon": 0.0, "fusion_lat": 0.0, "lon": -77.02821333333333, "name": "ddfbce13fec4ec54bf5bb0e83ac03cb9"}, {"bike_id": "b552856507bfafb1de99e7d2794ea229", "type": "electric_bike", "is_disabled": 0, "lat": 38.952472, "rental_uris": {"ios": "https://dc.lft.to/lastmile_qr_scan", "android": "https://dc.lft.to/lastmile_qr_scan"}, "is_reserved": 0, "fusion_lon": 0.0, "fusion_lat": 0.0, "lon": -76.976735, "name": "b552856507bfafb1de99e7d2794ea229"}, {"bike_id": "b9f4487e627abf3c85ea3dfc3fafa046", "type": "electric_scooter", "is_disabled": 0, "lat": 38.911205833333334, "rental_uris": {"ios": "https://dc.lft.to/lastmile_qr_scan", "android": "https://dc.lft.to/lastmile_qr_scan"}, "is_reserved": 0, "fusion_lon": 0.0, "fusion_lat": 0.0, "lon": -77.03174616666666, "name": "b9f4487e627abf3c85ea3dfc3fafa046"}, {"bike_id": "df497aab8705f1edfda8d7cacf279e8f", "type": "electric_scooter", "is_disabled": 0, "lat": 38.90804333333333, "rental_uris": {"ios": "https://dc.lft.to/lastmile_qr_scan", "android": "https://dc.lft.to/lastmile_qr_scan"}, "is_reserved": 0, "fusion_lon": 0.0, "fusion_lat": 0.0, "lon": -77.08411216666667, "name": "df497aab8705f1edfda8d7cacf279e8f"}, {"bike_id": "890587b4d33ed0c4f0f5243fffc3cfac", "type": "electric_scooter", "is_disabled": 0, "lat": 38.87419283333333, "rental_uris": {"ios": "https://dc.lft.to/lastmile_qr_scan", "android": "https://dc.lft.to/lastmile_qr_scan"}, "is_reserved": 0, "fusion_lon": 0.0, "fusion_lat": 0.0, "lon": -76.96908583333334, "name": "890587b4d33ed0c4f0f5243fffc3cfac"}, {"bike_id": "74dcb0ab1c6d78921d7500d49e9d8c2a", "type": "electric_scooter", "is_disabled": 0, "lat": 38.900312, "rental_uris": {"ios": "https://dc.lft.to/lastmile_qr_scan", "android": "https://dc.lft.to/lastmile_qr_scan"}, "is_reserved": 0, "fusion_lon": 0.0, "fusion_lat": 0.0, "lon": -76.98840866666667, "name": "74dcb0ab1c6d78921d7500d49e9d8c2a"}, {"bike_id": "bd3bc92e3daa5e2cd21f9f8ae16b4b95", "type": "electric_scooter", "is_disabled": 0, "lat": 38.9096015, "rental_uris": {"ios": "https://dc.lft.to/lastmile_qr_scan", "android": "https://dc.lft.to/lastmile_qr_scan"}, "is_reserved": 0, "fusion_lon": 0.0, "fusion_lat": 0.0, "lon": -77.03236466666667, "name": "bd3bc92e3daa5e2cd21f9f8ae16b4b95"}, {"bike_id": "08563b56355963cb1cd0afbd210c7d46", "type": "electric_bike", "is_disabled": 0, "lat": 38.963123333333336, "rental_uris": {"ios": "https://dc.lft.to/lastmile_qr_scan", "android": "https://dc.lft.to/lastmile_qr_scan"}, "is_reserved": 0, "fusion_lon": 0.0, "fusion_lat": 0.0, "lon": -76.97358183333333, "name": "08563b56355963cb1cd0afbd210c7d46"}, {"bike_id": "a55d7e225d8ec5d79064fc158b7d42e8", "type": "electric_scooter", "is_disabled": 0, "lat": 38.923980666666665, "rental_uris": {"ios": "https://dc.lft.to/lastmile_qr_scan", "android": "https://dc.lft.to/lastmile_qr_scan"}, "is_reserved": 0, "fusion_lon": 0.0, "fusion_lat": 0.0, "lon": -77.05051366666666, "name": "a55d7e225d8ec5d79064fc158b7d42e8"}, {"bike_id": "1c0de8487455d2ab5eb15404ea86eac4", "type": "electric_bike", "is_disabled": 0, "lat": 38.9628495, "rental_uris": {"ios": "https://dc.lft.to/lastmile_qr_scan", "android": "https://dc.lft.to/lastmile_qr_scan"}, "is_reserved": 0, "fusion_lon": 0.0, "fusion_lat": 0.0, "lon": -77.01120666666667, "name": "1c0de8487455d2ab5eb15404ea86eac4"}, {"bike_id": "8f2073c38a91450dd13286aed2d6df81", "type": "electric_scooter", "is_disabled": 0, "lat": 38.911214, "rental_uris": {"ios": "https://dc.lft.to/lastmile_qr_scan", "android": "https://dc.lft.to/lastmile_qr_scan"}, "is_reserved": 0, "fusion_lon": 0.0, "fusion_lat": 0.0, "lon": -77.04470266666667, "name": "8f2073c38a91450dd13286aed2d6df81"}, {"bike_id": "617b485cfa7ed2fe513400b497206920", "type": "electric_scooter", "is_disabled": 0, "lat": 38.96604633333333, "rental_uris": {"ios": "https://dc.lft.to/lastmile_qr_scan", "android": "https://dc.lft.to/lastmile_qr_scan"}, "is_reserved": 0, "fusion_lon": 0.0, "fusion_lat": 0.0, "lon": -77.01979516666667, "name": "617b485cfa7ed2fe513400b497206920"}, {"bike_id": "d6803a130b4aeea43638cf259db7fae6", "type": "electric_scooter", "is_disabled": 0, "lat": 38.92049983333333, "rental_uris": {"ios": "https://dc.lft.to/lastmile_qr_scan", "android": "https://dc.lft.to/lastmile_qr_scan"}, "is_reserved": 0, "fusion_lon": 0.0, "fusion_lat": 0.0, "lon": -77.03460233333334, "name": "d6803a130b4aeea43638cf259db7fae6"}, {"bike_id": "318f7d02789a74d956b35dd6a76dc815", "type": "electric_scooter", "is_disabled": 0, "lat": 38.9082605, "rental_uris": {"ios": "https://dc.lft.to/lastmile_qr_scan", "android": "https://dc.lft.to/lastmile_qr_scan"}, "is_reserved": 0, "fusion_lon": 0.0, "fusion_lat": 0.0, "lon": -77.03670283333334, "name": "318f7d02789a74d956b35dd6a76dc815"}, {"bike_id": "35c0997c425afb11c1476b5405a3d3f5", "type": "electric_scooter", "is_disabled": 0, "lat": 38.919127333333336, "rental_uris": {"ios": "https://dc.lft.to/lastmile_qr_scan", "android": "https://dc.lft.to/lastmile_qr_scan"}, "is_reserved": 0, "fusion_lon": 0.0, "fusion_lat": 0.0, "lon": -77.04472266666667, "name": "35c0997c425afb11c1476b5405a3d3f5"}, {"bike_id": "6ccf73872a31b869cf98b84a941595e9", "type": "electric_scooter", "is_disabled": 0, "lat": 38.90864716666667, "rental_uris": {"ios": "https://dc.lft.to/lastmile_qr_scan", "android": "https://dc.lft.to/lastmile_qr_scan"}, "is_reserved": 0, "fusion_lon": 0.0, "fusion_lat": 0.0, "lon": -77.06897316666667, "name": "6ccf73872a31b869cf98b84a941595e9"}, {"bike_id": "337d4418dd15709e652b7e223c1004ba", "type": "electric_scooter", "is_disabled": 0, "lat": 38.909697333333334, "rental_uris": {"ios": "https://dc.lft.to/lastmile_qr_scan", "android": "https://dc.lft.to/lastmile_qr_scan"}, "is_reserved": 0, "fusion_lon": 0.0, "fusion_lat": 0.0, "lon": -77.038628, "name": "337d4418dd15709e652b7e223c1004ba"}, {"bike_id": "fa118e5b09a2a8fe1d99ba3da82a32ac", "type": "electric_scooter", "is_disabled": 0, "lat": 38.89196366666667, "rental_uris": {"ios": "https://dc.lft.to/lastmile_qr_scan", "android": "https://dc.lft.to/lastmile_qr_scan"}, "is_reserved": 0, "fusion_lon": 0.0, "fusion_lat": 0.0, "lon": -77.00234366666666, "name": "fa118e5b09a2a8fe1d99ba3da82a32ac"}, {"bike_id": "a58c77e8c3bd7fe35544fac9f212ea4b", "type": "electric_scooter", "is_disabled": 0, "lat": 38.90289883333333, "rental_uris": {"ios": "https://dc.lft.to/lastmile_qr_scan", "android": "https://dc.lft.to/lastmile_qr_scan"}, "is_reserved": 0, "fusion_lon": 0.0, "fusion_lat": 0.0, "lon": -77.02146616666667, "name": "a58c77e8c3bd7fe35544fac9f212ea4b"}, {"bike_id": "3021448a546611fe0b533524e2929cff", "type": "electric_scooter", "is_disabled": 0, "lat": 38.9345985, "rental_uris": {"ios": "https://dc.lft.to/lastmile_qr_scan", "android": "https://dc.lft.to/lastmile_qr_scan"}, "is_reserved": 0, "fusion_lon": 0.0, "fusion_lat": 0.0, "lon": -76.96436483333333, "name": "3021448a546611fe0b533524e2929cff"}, {"bike_id": "969afefb7f02b540683b371717afb26c", "type": "electric_bike", "is_disabled": 0, "lat": 38.879018, "rental_uris": {"ios": "https://dc.lft.to/lastmile_qr_scan", "android": "https://dc.lft.to/lastmile_qr_scan"}, "is_reserved": 0, "fusion_lon": 0.0, "fusion_lat": 0.0, "lon": -77.0194465, "name": "969afefb7f02b540683b371717afb26c"}, {"bike_id": "f35c54894a38bfc284e47b29ef78bf8c", "type": "electric_scooter", "is_disabled": 0, "lat": 38.931495, "rental_uris": {"ios": "https://dc.lft.to/lastmile_qr_scan", "android": "https://dc.lft.to/lastmile_qr_scan"}, "is_reserved": 0, "fusion_lon": 0.0, "fusion_lat": 0.0, "lon": -77.04518516666667, "name": "f35c54894a38bfc284e47b29ef78bf8c"}, {"bike_id": "bfd9ab2480f2c4a682fe1b31c983c73f", "type": "electric_bike", "is_disabled": 0, "lat": 39.02434916666667, "rental_uris": {"ios": "https://dc.lft.to/lastmile_qr_scan", "android": "https://dc.lft.to/lastmile_qr_scan"}, "is_reserved": 0, "fusion_lon": 0.0, "fusion_lat": 0.0, "lon": -77.13103433333333, "name": "bfd9ab2480f2c4a682fe1b31c983c73f"}, {"bike_id": "5808c6fbe16bcf39c6dda01e184e3af9", "type": "electric_scooter", "is_disabled": 0, "lat": 38.90209616666667, "rental_uris": {"ios": "https://dc.lft.to/lastmile_qr_scan", "android": "https://dc.lft.to/lastmile_qr_scan"}, "is_reserved": 0, "fusion_lon": 0.0, "fusion_lat": 0.0, "lon": -77.02603116666667, "name": "5808c6fbe16bcf39c6dda01e184e3af9"}, {"bike_id": "d2b9a2640886f82baa0ef0cb80b506dc", "type": "electric_bike", "is_disabled": 0, "lat": 38.898474, "rental_uris": {"ios": "https://dc.lft.to/lastmile_qr_scan", "android": "https://dc.lft.to/lastmile_qr_scan"}, "is_reserved": 0, "fusion_lon": 0.0, "fusion_lat": 0.0, "lon": -77.05299333333333, "name": "d2b9a2640886f82baa0ef0cb80b506dc"}, {"bike_id": "947bd78c2d5fbefccd0caf5185a4e6c9", "type": "electric_scooter", "is_disabled": 0, "lat": 38.921278, "rental_uris": {"ios": "https://dc.lft.to/lastmile_qr_scan", "android": "https://dc.lft.to/lastmile_qr_scan"}, "is_reserved": 0, "fusion_lon": 0.0, "fusion_lat": 0.0, "lon": -77.0366745, "name": "947bd78c2d5fbefccd0caf5185a4e6c9"}, {"bike_id": "f17fd5a95d50685fdca96eaf66bb36df", "type": "electric_scooter", "is_disabled": 0, "lat": 38.90454233333333, "rental_uris": {"ios": "https://dc.lft.to/lastmile_qr_scan", "android": "https://dc.lft.to/lastmile_qr_scan"}, "is_reserved": 0, "fusion_lon": 0.0, "fusion_lat": 0.0, "lon": -77.02885516666667, "name": "f17fd5a95d50685fdca96eaf66bb36df"}, {"bike_id": "f1ada729b8364816c5282d9d59e063e4", "type": "electric_scooter", "is_disabled": 0, "lat": 38.8669345, "rental_uris": {"ios": "https://dc.lft.to/lastmile_qr_scan", "android": "https://dc.lft.to/lastmile_qr_scan"}, "is_reserved": 0, "fusion_lon": 0.0, "fusion_lat": 0.0, "lon": -76.98708716666667, "name": "f1ada729b8364816c5282d9d59e063e4"}, {"bike_id": "564cb9cda4f813e8ea880764c3ad5c4d", "type": "electric_scooter", "is_disabled": 0, "lat": 38.922993, "rental_uris": {"ios": "https://dc.lft.to/lastmile_qr_scan", "android": "https://dc.lft.to/lastmile_qr_scan"}, "is_reserved": 0, "fusion_lon": 0.0, "fusion_lat": 0.0, "lon": -76.9979775, "name": "564cb9cda4f813e8ea880764c3ad5c4d"}, {"bike_id": "b8d1e35e2faf3621be326923631e79ec", "type": "electric_scooter", "is_disabled": 0, "lat": 38.90957816666667, "rental_uris": {"ios": "https://dc.lft.to/lastmile_qr_scan", "android": "https://dc.lft.to/lastmile_qr_scan"}, "is_reserved": 0, "fusion_lon": 0.0, "fusion_lat": 0.0, "lon": -77.0212145, "name": "b8d1e35e2faf3621be326923631e79ec"}, {"bike_id": "807c47eb2c3ed36eca23163ddf52ff5f", "type": "electric_scooter", "is_disabled": 0, "lat": 38.9408955, "rental_uris": {"ios": "https://dc.lft.to/lastmile_qr_scan", "android": "https://dc.lft.to/lastmile_qr_scan"}, "is_reserved": 0, "fusion_lon": 0.0, "fusion_lat": 0.0, "lon": -77.03653883333334, "name": "807c47eb2c3ed36eca23163ddf52ff5f"}, {"bike_id": "c90430c216b1ebd83e444979ff8a8992", "type": "electric_scooter", "is_disabled": 0, "lat": 38.90890866666667, "rental_uris": {"ios": "https://dc.lft.to/lastmile_qr_scan", "android": "https://dc.lft.to/lastmile_qr_scan"}, "is_reserved": 0, "fusion_lon": 0.0, "fusion_lat": 0.0, "lon": -77.034672, "name": "c90430c216b1ebd83e444979ff8a8992"}, {"bike_id": "946c81f10029d7e19c638da05fc92b1b", "type": "electric_scooter", "is_disabled": 0, "lat": 38.916974833333335, "rental_uris": {"ios": "https://dc.lft.to/lastmile_qr_scan", "android": "https://dc.lft.to/lastmile_qr_scan"}, "is_reserved": 0, "fusion_lon": 0.0, "fusion_lat": 0.0, "lon": -77.02885266666667, "name": "946c81f10029d7e19c638da05fc92b1b"}, {"bike_id": "310c0c34a421a27fef3f6cb45fed47b9", "type": "electric_scooter", "is_disabled": 0, "lat": 38.909692, "rental_uris": {"ios": "https://dc.lft.to/lastmile_qr_scan", "android": "https://dc.lft.to/lastmile_qr_scan"}, "is_reserved": 0, "fusion_lon": 0.0, "fusion_lat": 0.0, "lon": -77.0328885, "name": "310c0c34a421a27fef3f6cb45fed47b9"}, {"bike_id": "bec950b181cf9f07ad449907ce328c25", "type": "electric_scooter", "is_disabled": 0, "lat": 38.914081833333334, "rental_uris": {"ios": "https://dc.lft.to/lastmile_qr_scan", "android": "https://dc.lft.to/lastmile_qr_scan"}, "is_reserved": 0, "fusion_lon": 0.0, "fusion_lat": 0.0, "lon": -77.0212755, "name": "bec950b181cf9f07ad449907ce328c25"}, {"bike_id": "d1ddf5c548380dfb7cc3a4fca1edb1e7", "type": "electric_scooter", "is_disabled": 0, "lat": 38.866816, "rental_uris": {"ios": "https://dc.lft.to/lastmile_qr_scan", "android": "https://dc.lft.to/lastmile_qr_scan"}, "is_reserved": 0, "fusion_lon": 0.0, "fusion_lat": 0.0, "lon": -76.98583683333334, "name": "d1ddf5c548380dfb7cc3a4fca1edb1e7"}, {"bike_id": "44a93a42732fa5f2290859483ce8a632", "type": "electric_scooter", "is_disabled": 0, "lat": 38.899639666666666, "rental_uris": {"ios": "https://dc.lft.to/lastmile_qr_scan", "android": "https://dc.lft.to/lastmile_qr_scan"}, "is_reserved": 0, "fusion_lon": 0.0, "fusion_lat": 0.0, "lon": -77.05135166666666, "name": "44a93a42732fa5f2290859483ce8a632"}, {"bike_id": "89ada18f961a31811fa6ed59d4be60a9", "type": "electric_scooter", "is_disabled": 0, "lat": 38.90821, "rental_uris": {"ios": "https://dc.lft.to/lastmile_qr_scan", "android": "https://dc.lft.to/lastmile_qr_scan"}, "is_reserved": 0, "fusion_lon": 0.0, "fusion_lat": 0.0, "lon": -77.06376866666666, "name": "89ada18f961a31811fa6ed59d4be60a9"}, {"bike_id": "173851c11cd1d9fb2db8bb47bd144ab0", "type": "electric_scooter", "is_disabled": 0, "lat": 38.917812833333336, "rental_uris": {"ios": "https://dc.lft.to/lastmile_qr_scan", "android": "https://dc.lft.to/lastmile_qr_scan"}, "is_reserved": 0, "fusion_lon": 0.0, "fusion_lat": 0.0, "lon": -77.04546933333333, "name": "173851c11cd1d9fb2db8bb47bd144ab0"}, {"bike_id": "14ba58e89b4e3e5e00df718faa614dd4", "type": "electric_scooter", "is_disabled": 0, "lat": 38.89308783333333, "rental_uris": {"ios": "https://dc.lft.to/lastmile_qr_scan", "android": "https://dc.lft.to/lastmile_qr_scan"}, "is_reserved": 0, "fusion_lon": 0.0, "fusion_lat": 0.0, "lon": -77.01224266666667, "name": "14ba58e89b4e3e5e00df718faa614dd4"}, {"bike_id": "d5f5c9e6bb4200cefc4c954c54721fa4", "type": "electric_scooter", "is_disabled": 0, "lat": 38.92194166666667, "rental_uris": {"ios": "https://dc.lft.to/lastmile_qr_scan", "android": "https://dc.lft.to/lastmile_qr_scan"}, "is_reserved": 0, "fusion_lon": 0.0, "fusion_lat": 0.0, "lon": -77.0378365, "name": "d5f5c9e6bb4200cefc4c954c54721fa4"}, {"bike_id": "f1dd779e0c024569390968194110e583", "type": "electric_scooter", "is_disabled": 0, "lat": 38.90970766666667, "rental_uris": {"ios": "https://dc.lft.to/lastmile_qr_scan", "android": "https://dc.lft.to/lastmile_qr_scan"}, "is_reserved": 0, "fusion_lon": 0.0, "fusion_lat": 0.0, "lon": -77.03630583333333, "name": "f1dd779e0c024569390968194110e583"}, {"bike_id": "4b1bc88553667e2cba7bf2b35d6124fa", "type": "electric_scooter", "is_disabled": 0, "lat": 38.908418833333336, "rental_uris": {"ios": "https://dc.lft.to/lastmile_qr_scan", "android": "https://dc.lft.to/lastmile_qr_scan"}, "is_reserved": 0, "fusion_lon": 0.0, "fusion_lat": 0.0, "lon": -77.02379183333333, "name": "4b1bc88553667e2cba7bf2b35d6124fa"}, {"bike_id": "4022707d6845d831f9aca94d49cf6971", "type": "electric_scooter", "is_disabled": 0, "lat": 38.866857333333336, "rental_uris": {"ios": "https://dc.lft.to/lastmile_qr_scan", "android": "https://dc.lft.to/lastmile_qr_scan"}, "is_reserved": 0, "fusion_lon": 0.0, "fusion_lat": 0.0, "lon": -76.98576933333334, "name": "4022707d6845d831f9aca94d49cf6971"}, {"bike_id": "bd396a3ce2b8c9021781268108601561", "type": "electric_scooter", "is_disabled": 0, "lat": 38.93373616666667, "rental_uris": {"ios": "https://dc.lft.to/lastmile_qr_scan", "android": "https://dc.lft.to/lastmile_qr_scan"}, "is_reserved": 0, "fusion_lon": 0.0, "fusion_lat": 0.0, "lon": -77.05728733333333, "name": "bd396a3ce2b8c9021781268108601561"}, {"bike_id": "7194fad2f1a0ad1944aa873cab7f6eb1", "type": "electric_scooter", "is_disabled": 0, "lat": 38.93352933333333, "rental_uris": {"ios": "https://dc.lft.to/lastmile_qr_scan", "android": "https://dc.lft.to/lastmile_qr_scan"}, "is_reserved": 0, "fusion_lon": 0.0, "fusion_lat": 0.0, "lon": -76.99257283333333, "name": "7194fad2f1a0ad1944aa873cab7f6eb1"}, {"bike_id": "54b6b32abcd4ed891b3835666e3fd6a4", "type": "electric_scooter", "is_disabled": 0, "lat": 38.904096333333335, "rental_uris": {"ios": "https://dc.lft.to/lastmile_qr_scan", "android": "https://dc.lft.to/lastmile_qr_scan"}, "is_reserved": 0, "fusion_lon": 0.0, "fusion_lat": 0.0, "lon": -77.01830583333333, "name": "54b6b32abcd4ed891b3835666e3fd6a4"}, {"bike_id": "db91a3a4d49ed7c7e14e8dfc39b8c789", "type": "electric_scooter", "is_disabled": 0, "lat": 38.908481, "rental_uris": {"ios": "https://dc.lft.to/lastmile_qr_scan", "android": "https://dc.lft.to/lastmile_qr_scan"}, "is_reserved": 0, "fusion_lon": 0.0, "fusion_lat": 0.0, "lon": -77.02710616666667, "name": "db91a3a4d49ed7c7e14e8dfc39b8c789"}, {"bike_id": "a779c4799a7249ff4e79cd6b41ac9e29", "type": "electric_scooter", "is_disabled": 0, "lat": 38.895394833333334, "rental_uris": {"ios": "https://dc.lft.to/lastmile_qr_scan", "android": "https://dc.lft.to/lastmile_qr_scan"}, "is_reserved": 0, "fusion_lon": 0.0, "fusion_lat": 0.0, "lon": -76.98863233333333, "name": "a779c4799a7249ff4e79cd6b41ac9e29"}, {"bike_id": "9a9d50beb0ef309f240a1e8eed1cd694", "type": "electric_scooter", "is_disabled": 0, "lat": 38.907203333333335, "rental_uris": {"ios": "https://dc.lft.to/lastmile_qr_scan", "android": "https://dc.lft.to/lastmile_qr_scan"}, "is_reserved": 0, "fusion_lon": 0.0, "fusion_lat": 0.0, "lon": -77.02249816666667, "name": "9a9d50beb0ef309f240a1e8eed1cd694"}, {"bike_id": "a79cd7c39042f50d89af7c5b9f90c626", "type": "electric_bike", "is_disabled": 0, "lat": 38.865104, "rental_uris": {"ios": "https://dc.lft.to/lastmile_qr_scan", "android": "https://dc.lft.to/lastmile_qr_scan"}, "is_reserved": 0, "fusion_lon": 0.0, "fusion_lat": 0.0, "lon": -76.97339516666666, "name": "a79cd7c39042f50d89af7c5b9f90c626"}, {"bike_id": "396f071afe5d01fa24ae827ffb2600ea", "type": "electric_scooter", "is_disabled": 0, "lat": 38.92222016666667, "rental_uris": {"ios": "https://dc.lft.to/lastmile_qr_scan", "android": "https://dc.lft.to/lastmile_qr_scan"}, "is_reserved": 0, "fusion_lon": 0.0, "fusion_lat": 0.0, "lon": -77.02374333333333, "name": "396f071afe5d01fa24ae827ffb2600ea"}, {"bike_id": "6c252aeb3ac186ed3203589abb25fd4a", "type": "electric_scooter", "is_disabled": 0, "lat": 38.91106166666667, "rental_uris": {"ios": "https://dc.lft.to/lastmile_qr_scan", "android": "https://dc.lft.to/lastmile_qr_scan"}, "is_reserved": 0, "fusion_lon": 0.0, "fusion_lat": 0.0, "lon": -77.049008, "name": "6c252aeb3ac186ed3203589abb25fd4a"}, {"bike_id": "f517aedf6fea3e6dde3bab76184896b3", "type": "electric_scooter", "is_disabled": 0, "lat": 38.9070595, "rental_uris": {"ios": "https://dc.lft.to/lastmile_qr_scan", "android": "https://dc.lft.to/lastmile_qr_scan"}, "is_reserved": 0, "fusion_lon": 0.0, "fusion_lat": 0.0, "lon": -77.02399983333333, "name": "f517aedf6fea3e6dde3bab76184896b3"}, {"bike_id": "aacf392df92c4f335cf9a5a813fac423", "type": "electric_bike", "is_disabled": 0, "lat": 38.947988, "rental_uris": {"ios": "https://dc.lft.to/lastmile_qr_scan", "android": "https://dc.lft.to/lastmile_qr_scan"}, "is_reserved": 0, "fusion_lon": 0.0, "fusion_lat": 0.0, "lon": -76.95541116666666, "name": "aacf392df92c4f335cf9a5a813fac423"}, {"bike_id": "adbc1262707906751ba7892e7640744b", "type": "electric_scooter", "is_disabled": 0, "lat": 38.908343333333335, "rental_uris": {"ios": "https://dc.lft.to/lastmile_qr_scan", "android": "https://dc.lft.to/lastmile_qr_scan"}, "is_reserved": 0, "fusion_lon": 0.0, "fusion_lat": 0.0, "lon": -77.03465333333334, "name": "adbc1262707906751ba7892e7640744b"}, {"bike_id": "e1a6deb88690bba12b32db96208761a4", "type": "electric_scooter", "is_disabled": 0, "lat": 38.9182665, "rental_uris": {"ios": "https://dc.lft.to/lastmile_qr_scan", "android": "https://dc.lft.to/lastmile_qr_scan"}, "is_reserved": 0, "fusion_lon": 0.0, "fusion_lat": 0.0, "lon": -77.03218833333334, "name": "e1a6deb88690bba12b32db96208761a4"}, {"bike_id": "0be9eed69d3f159897621b2e1b23471e", "type": "electric_scooter", "is_disabled": 0, "lat": 38.9144325, "rental_uris": {"ios": "https://dc.lft.to/lastmile_qr_scan", "android": "https://dc.lft.to/lastmile_qr_scan"}, "is_reserved": 0, "fusion_lon": 0.0, "fusion_lat": 0.0, "lon": -77.04587116666667, "name": "0be9eed69d3f159897621b2e1b23471e"}, {"bike_id": "118a9abb28dbb5d72c33bd8ae80cf40f", "type": "electric_scooter", "is_disabled": 0, "lat": 38.84315516666667, "rental_uris": {"ios": "https://dc.lft.to/lastmile_qr_scan", "android": "https://dc.lft.to/lastmile_qr_scan"}, "is_reserved": 0, "fusion_lon": 0.0, "fusion_lat": 0.0, "lon": -76.999252, "name": "118a9abb28dbb5d72c33bd8ae80cf40f"}, {"bike_id": "5cf15c60ec581ef4ca4c83e588b13e46", "type": "electric_scooter", "is_disabled": 0, "lat": 38.84538466666667, "rental_uris": {"ios": "https://dc.lft.to/lastmile_qr_scan", "android": "https://dc.lft.to/lastmile_qr_scan"}, "is_reserved": 0, "fusion_lon": 0.0, "fusion_lat": 0.0, "lon": -76.98548533333333, "name": "5cf15c60ec581ef4ca4c83e588b13e46"}, {"bike_id": "4905588a99b15a1c4d4c857fa18f7c78", "type": "electric_scooter", "is_disabled": 0, "lat": 38.92316366666667, "rental_uris": {"ios": "https://dc.lft.to/lastmile_qr_scan", "android": "https://dc.lft.to/lastmile_qr_scan"}, "is_reserved": 0, "fusion_lon": 0.0, "fusion_lat": 0.0, "lon": -77.04635683333333, "name": "4905588a99b15a1c4d4c857fa18f7c78"}, {"bike_id": "b909975d035e45567493cabd600f9165", "type": "electric_scooter", "is_disabled": 0, "lat": 38.918256666666665, "rental_uris": {"ios": "https://dc.lft.to/lastmile_qr_scan", "android": "https://dc.lft.to/lastmile_qr_scan"}, "is_reserved": 0, "fusion_lon": 0.0, "fusion_lat": 0.0, "lon": -77.04940233333333, "name": "b909975d035e45567493cabd600f9165"}, {"bike_id": "2231b4a254ca1d7789160f73b03cde15", "type": "electric_scooter", "is_disabled": 0, "lat": 38.90942716666667, "rental_uris": {"ios": "https://dc.lft.to/lastmile_qr_scan", "android": "https://dc.lft.to/lastmile_qr_scan"}, "is_reserved": 0, "fusion_lon": 0.0, "fusion_lat": 0.0, "lon": -77.03442166666666, "name": "2231b4a254ca1d7789160f73b03cde15"}, {"bike_id": "53e5de4cb2649f241e1c79ead540f88d", "type": "electric_scooter", "is_disabled": 0, "lat": 38.91418216666667, "rental_uris": {"ios": "https://dc.lft.to/lastmile_qr_scan", "android": "https://dc.lft.to/lastmile_qr_scan"}, "is_reserved": 0, "fusion_lon": 0.0, "fusion_lat": 0.0, "lon": -77.02200416666666, "name": "53e5de4cb2649f241e1c79ead540f88d"}, {"bike_id": "61dd17e696e33a679bfa8f141e2509ac", "type": "electric_scooter", "is_disabled": 0, "lat": 38.9111515, "rental_uris": {"ios": "https://dc.lft.to/lastmile_qr_scan", "android": "https://dc.lft.to/lastmile_qr_scan"}, "is_reserved": 0, "fusion_lon": 0.0, "fusion_lat": 0.0, "lon": -77.044574, "name": "61dd17e696e33a679bfa8f141e2509ac"}, {"bike_id": "d3f9351eddb4c39fc92a655bcb2a2ca7", "type": "electric_scooter", "is_disabled": 0, "lat": 38.91565533333333, "rental_uris": {"ios": "https://dc.lft.to/lastmile_qr_scan", "android": "https://dc.lft.to/lastmile_qr_scan"}, "is_reserved": 0, "fusion_lon": 0.0, "fusion_lat": 0.0, "lon": -77.04461433333333, "name": "d3f9351eddb4c39fc92a655bcb2a2ca7"}, {"bike_id": "949e2cf18da1437d11302e63b530cc1e", "type": "electric_scooter", "is_disabled": 0, "lat": 38.89201966666667, "rental_uris": {"ios": "https://dc.lft.to/lastmile_qr_scan", "android": "https://dc.lft.to/lastmile_qr_scan"}, "is_reserved": 0, "fusion_lon": 0.0, "fusion_lat": 0.0, "lon": -77.0250325, "name": "949e2cf18da1437d11302e63b530cc1e"}, {"bike_id": "9ca354918b366def33b89153d28417f1", "type": "electric_scooter", "is_disabled": 0, "lat": 38.92781183333334, "rental_uris": {"ios": "https://dc.lft.to/lastmile_qr_scan", "android": "https://dc.lft.to/lastmile_qr_scan"}, "is_reserved": 0, "fusion_lon": 0.0, "fusion_lat": 0.0, "lon": -77.04314416666666, "name": "9ca354918b366def33b89153d28417f1"}, {"bike_id": "b6fff79c578ef29c01ccfac7ff4acc76", "type": "electric_scooter", "is_disabled": 0, "lat": 38.921916833333334, "rental_uris": {"ios": "https://dc.lft.to/lastmile_qr_scan", "android": "https://dc.lft.to/lastmile_qr_scan"}, "is_reserved": 0, "fusion_lon": 0.0, "fusion_lat": 0.0, "lon": -77.01972716666667, "name": "b6fff79c578ef29c01ccfac7ff4acc76"}, {"bike_id": "ea3c33bb5cd20b336e71f6a82cff94df", "type": "electric_scooter", "is_disabled": 0, "lat": 38.90492366666667, "rental_uris": {"ios": "https://dc.lft.to/lastmile_qr_scan", "android": "https://dc.lft.to/lastmile_qr_scan"}, "is_reserved": 0, "fusion_lon": 0.0, "fusion_lat": 0.0, "lon": -77.02721616666666, "name": "ea3c33bb5cd20b336e71f6a82cff94df"}, {"bike_id": "77a3cdfe5b8b534566d3ff2875b40bfb", "type": "electric_scooter", "is_disabled": 0, "lat": 38.9221295, "rental_uris": {"ios": "https://dc.lft.to/lastmile_qr_scan", "android": "https://dc.lft.to/lastmile_qr_scan"}, "is_reserved": 0, "fusion_lon": 0.0, "fusion_lat": 0.0, "lon": -77.03292283333333, "name": "77a3cdfe5b8b534566d3ff2875b40bfb"}, {"bike_id": "508643927a951edf001e36f0ffbfeec1", "type": "electric_scooter", "is_disabled": 0, "lat": 38.96416266666667, "rental_uris": {"ios": "https://dc.lft.to/lastmile_qr_scan", "android": "https://dc.lft.to/lastmile_qr_scan"}, "is_reserved": 0, "fusion_lon": 0.0, "fusion_lat": 0.0, "lon": -77.02428616666667, "name": "508643927a951edf001e36f0ffbfeec1"}, {"bike_id": "ef579cea07c760e0ae1685e6824339de", "type": "electric_scooter", "is_disabled": 0, "lat": 38.924487, "rental_uris": {"ios": "https://dc.lft.to/lastmile_qr_scan", "android": "https://dc.lft.to/lastmile_qr_scan"}, "is_reserved": 0, "fusion_lon": 0.0, "fusion_lat": 0.0, "lon": -77.04206016666667, "name": "ef579cea07c760e0ae1685e6824339de"}, {"bike_id": "9248afb7a84b590cee6fbb019346cf91", "type": "electric_bike", "is_disabled": 0, "lat": 38.89739316666667, "rental_uris": {"ios": "https://dc.lft.to/lastmile_qr_scan", "android": "https://dc.lft.to/lastmile_qr_scan"}, "is_reserved": 0, "fusion_lon": 0.0, "fusion_lat": 0.0, "lon": -76.92044966666667, "name": "9248afb7a84b590cee6fbb019346cf91"}, {"bike_id": "5706c3e84e536ffcd38996a277e0d477", "type": "electric_scooter", "is_disabled": 0, "lat": 38.89718366666666, "rental_uris": {"ios": "https://dc.lft.to/lastmile_qr_scan", "android": "https://dc.lft.to/lastmile_qr_scan"}, "is_reserved": 0, "fusion_lon": 0.0, "fusion_lat": 0.0, "lon": -77.02440516666667, "name": "5706c3e84e536ffcd38996a277e0d477"}, {"bike_id": "17b7d587bd71a5687b009f74d85d41ee", "type": "electric_scooter", "is_disabled": 0, "lat": 38.9030475, "rental_uris": {"ios": "https://dc.lft.to/lastmile_qr_scan", "android": "https://dc.lft.to/lastmile_qr_scan"}, "is_reserved": 0, "fusion_lon": 0.0, "fusion_lat": 0.0, "lon": -77.05163266666666, "name": "17b7d587bd71a5687b009f74d85d41ee"}, {"bike_id": "9d04e44f7ab1106c4ee059a52b4ef347", "type": "electric_scooter", "is_disabled": 0, "lat": 38.907791333333336, "rental_uris": {"ios": "https://dc.lft.to/lastmile_qr_scan", "android": "https://dc.lft.to/lastmile_qr_scan"}, "is_reserved": 0, "fusion_lon": 0.0, "fusion_lat": 0.0, "lon": -77.00226266666667, "name": "9d04e44f7ab1106c4ee059a52b4ef347"}, {"bike_id": "98a4eb883c4323fb83902c1f676ebd00", "type": "electric_scooter", "is_disabled": 0, "lat": 38.90299316666667, "rental_uris": {"ios": "https://dc.lft.to/lastmile_qr_scan", "android": "https://dc.lft.to/lastmile_qr_scan"}, "is_reserved": 0, "fusion_lon": 0.0, "fusion_lat": 0.0, "lon": -77.04942583333333, "name": "98a4eb883c4323fb83902c1f676ebd00"}, {"bike_id": "3239c3a5a9221f150d1363e629997b22", "type": "electric_bike", "is_disabled": 0, "lat": 38.9932475, "rental_uris": {"ios": "https://dc.lft.to/lastmile_qr_scan", "android": "https://dc.lft.to/lastmile_qr_scan"}, "is_reserved": 0, "fusion_lon": 0.0, "fusion_lat": 0.0, "lon": -76.9461305, "name": "3239c3a5a9221f150d1363e629997b22"}, {"bike_id": "8b668250da6afd8295c2eb30a3a21422", "type": "electric_bike", "is_disabled": 0, "lat": 38.85518783333333, "rental_uris": {"ios": "https://dc.lft.to/lastmile_qr_scan", "android": "https://dc.lft.to/lastmile_qr_scan"}, "is_reserved": 0, "fusion_lon": 0.0, "fusion_lat": 0.0, "lon": -77.12004583333334, "name": "8b668250da6afd8295c2eb30a3a21422"}, {"bike_id": "4fac2939d03530296b331ebcd243db71", "type": "electric_scooter", "is_disabled": 0, "lat": 38.916118166666664, "rental_uris": {"ios": "https://dc.lft.to/lastmile_qr_scan", "android": "https://dc.lft.to/lastmile_qr_scan"}, "is_reserved": 0, "fusion_lon": 0.0, "fusion_lat": 0.0, "lon": -77.032058, "name": "4fac2939d03530296b331ebcd243db71"}, {"bike_id": "7979af13163f545c6786863d1fb5fb5d", "type": "electric_scooter", "is_disabled": 0, "lat": 38.90231383333333, "rental_uris": {"ios": "https://dc.lft.to/lastmile_qr_scan", "android": "https://dc.lft.to/lastmile_qr_scan"}, "is_reserved": 0, "fusion_lon": 0.0, "fusion_lat": 0.0, "lon": -77.0405275, "name": "7979af13163f545c6786863d1fb5fb5d"}, {"bike_id": "0209f2cbc46b27364396127ec00c01de", "type": "electric_scooter", "is_disabled": 0, "lat": 38.91939, "rental_uris": {"ios": "https://dc.lft.to/lastmile_qr_scan", "android": "https://dc.lft.to/lastmile_qr_scan"}, "is_reserved": 0, "fusion_lon": 0.0, "fusion_lat": 0.0, "lon": -77.03202416666667, "name": "0209f2cbc46b27364396127ec00c01de"}, {"bike_id": "2b539dc33261566740a09d6b72412603", "type": "electric_scooter", "is_disabled": 0, "lat": 38.93355916666667, "rental_uris": {"ios": "https://dc.lft.to/lastmile_qr_scan", "android": "https://dc.lft.to/lastmile_qr_scan"}, "is_reserved": 0, "fusion_lon": 0.0, "fusion_lat": 0.0, "lon": -77.07357383333333, "name": "2b539dc33261566740a09d6b72412603"}, {"bike_id": "8a6273a33931b18a9b92a1341e5c6404", "type": "electric_scooter", "is_disabled": 0, "lat": 38.929786666666665, "rental_uris": {"ios": "https://dc.lft.to/lastmile_qr_scan", "android": "https://dc.lft.to/lastmile_qr_scan"}, "is_reserved": 0, "fusion_lon": 0.0, "fusion_lat": 0.0, "lon": -77.03655766666667, "name": "8a6273a33931b18a9b92a1341e5c6404"}, {"bike_id": "d89d0a941700a1d1a723745a87c4de3b", "type": "electric_scooter", "is_disabled": 0, "lat": 38.92204683333333, "rental_uris": {"ios": "https://dc.lft.to/lastmile_qr_scan", "android": "https://dc.lft.to/lastmile_qr_scan"}, "is_reserved": 0, "fusion_lon": 0.0, "fusion_lat": 0.0, "lon": -77.03658233333333, "name": "d89d0a941700a1d1a723745a87c4de3b"}, {"bike_id": "fe3a3a7db0aa92c81ccbc31fc6f34635", "type": "electric_scooter", "is_disabled": 0, "lat": 38.91139666666667, "rental_uris": {"ios": "https://dc.lft.to/lastmile_qr_scan", "android": "https://dc.lft.to/lastmile_qr_scan"}, "is_reserved": 0, "fusion_lon": 0.0, "fusion_lat": 0.0, "lon": -77.06535766666667, "name": "fe3a3a7db0aa92c81ccbc31fc6f34635"}, {"bike_id": "9c65d9269602773d793c932a84df53e8", "type": "electric_scooter", "is_disabled": 0, "lat": 38.909673833333336, "rental_uris": {"ios": "https://dc.lft.to/lastmile_qr_scan", "android": "https://dc.lft.to/lastmile_qr_scan"}, "is_reserved": 0, "fusion_lon": 0.0, "fusion_lat": 0.0, "lon": -77.03231516666666, "name": "9c65d9269602773d793c932a84df53e8"}, {"bike_id": "4b0614237c456341f3b397b83b635d07", "type": "electric_scooter", "is_disabled": 0, "lat": 38.903872, "rental_uris": {"ios": "https://dc.lft.to/lastmile_qr_scan", "android": "https://dc.lft.to/lastmile_qr_scan"}, "is_reserved": 0, "fusion_lon": 0.0, "fusion_lat": 0.0, "lon": -77.06859216666666, "name": "4b0614237c456341f3b397b83b635d07"}, {"bike_id": "788a5798fb4659e2e173632eb9045c3c", "type": "electric_scooter", "is_disabled": 0, "lat": 38.897872, "rental_uris": {"ios": "https://dc.lft.to/lastmile_qr_scan", "android": "https://dc.lft.to/lastmile_qr_scan"}, "is_reserved": 0, "fusion_lon": 0.0, "fusion_lat": 0.0, "lon": -77.02369466666667, "name": "788a5798fb4659e2e173632eb9045c3c"}, {"bike_id": "478bd8d957bec1add1a48c75d219bdc8", "type": "electric_scooter", "is_disabled": 0, "lat": 38.937180166666664, "rental_uris": {"ios": "https://dc.lft.to/lastmile_qr_scan", "android": "https://dc.lft.to/lastmile_qr_scan"}, "is_reserved": 0, "fusion_lon": 0.0, "fusion_lat": 0.0, "lon": -76.990527, "name": "478bd8d957bec1add1a48c75d219bdc8"}, {"bike_id": "3933458e1e755dd7eee2f4711865261d", "type": "electric_scooter", "is_disabled": 0, "lat": 38.91274266666667, "rental_uris": {"ios": "https://dc.lft.to/lastmile_qr_scan", "android": "https://dc.lft.to/lastmile_qr_scan"}, "is_reserved": 0, "fusion_lon": 0.0, "fusion_lat": 0.0, "lon": -77.05156383333333, "name": "3933458e1e755dd7eee2f4711865261d"}, {"bike_id": "9a36f623e01b4afe7f1227ce4cefb64f", "type": "electric_scooter", "is_disabled": 0, "lat": 38.91691, "rental_uris": {"ios": "https://dc.lft.to/lastmile_qr_scan", "android": "https://dc.lft.to/lastmile_qr_scan"}, "is_reserved": 0, "fusion_lon": 0.0, "fusion_lat": 0.0, "lon": -77.03214216666667, "name": "9a36f623e01b4afe7f1227ce4cefb64f"}, {"bike_id": "b343e231b9bf745e06f7602f8fcbf9d2", "type": "electric_scooter", "is_disabled": 0, "lat": 38.8826815, "rental_uris": {"ios": "https://dc.lft.to/lastmile_qr_scan", "android": "https://dc.lft.to/lastmile_qr_scan"}, "is_reserved": 0, "fusion_lon": 0.0, "fusion_lat": 0.0, "lon": -76.99252433333334, "name": "b343e231b9bf745e06f7602f8fcbf9d2"}, {"bike_id": "0e817783226f1c538c9865e3d5025926", "type": "electric_scooter", "is_disabled": 0, "lat": 38.918612333333336, "rental_uris": {"ios": "https://dc.lft.to/lastmile_qr_scan", "android": "https://dc.lft.to/lastmile_qr_scan"}, "is_reserved": 0, "fusion_lon": 0.0, "fusion_lat": 0.0, "lon": -77.015038, "name": "0e817783226f1c538c9865e3d5025926"}, {"bike_id": "74caf0c4639b183ec2113ac4728ef564", "type": "electric_scooter", "is_disabled": 0, "lat": 38.92151783333333, "rental_uris": {"ios": "https://dc.lft.to/lastmile_qr_scan", "android": "https://dc.lft.to/lastmile_qr_scan"}, "is_reserved": 0, "fusion_lon": 0.0, "fusion_lat": 0.0, "lon": -77.033131, "name": "74caf0c4639b183ec2113ac4728ef564"}, {"bike_id": "ca1dba864cf8c0d6aedf138255c62a64", "type": "electric_scooter", "is_disabled": 0, "lat": 38.94326733333333, "rental_uris": {"ios": "https://dc.lft.to/lastmile_qr_scan", "android": "https://dc.lft.to/lastmile_qr_scan"}, "is_reserved": 0, "fusion_lon": 0.0, "fusion_lat": 0.0, "lon": -77.01485883333334, "name": "ca1dba864cf8c0d6aedf138255c62a64"}, {"bike_id": "66d39d664b1e8561cee69d6c6232e7f3", "type": "electric_scooter", "is_disabled": 0, "lat": 38.9315305, "rental_uris": {"ios": "https://dc.lft.to/lastmile_qr_scan", "android": "https://dc.lft.to/lastmile_qr_scan"}, "is_reserved": 0, "fusion_lon": 0.0, "fusion_lat": 0.0, "lon": -77.03356866666667, "name": "66d39d664b1e8561cee69d6c6232e7f3"}, {"bike_id": "388cb6d1deb4c65a0ae329ccabba4a97", "type": "electric_scooter", "is_disabled": 0, "lat": 38.915636166666665, "rental_uris": {"ios": "https://dc.lft.to/lastmile_qr_scan", "android": "https://dc.lft.to/lastmile_qr_scan"}, "is_reserved": 0, "fusion_lon": 0.0, "fusion_lat": 0.0, "lon": -77.03124183333334, "name": "388cb6d1deb4c65a0ae329ccabba4a97"}, {"bike_id": "7a9baed2a093003f7d00aaab1ae3b049", "type": "electric_scooter", "is_disabled": 0, "lat": 38.90757116666666, "rental_uris": {"ios": "https://dc.lft.to/lastmile_qr_scan", "android": "https://dc.lft.to/lastmile_qr_scan"}, "is_reserved": 0, "fusion_lon": 0.0, "fusion_lat": 0.0, "lon": -77.02795233333333, "name": "7a9baed2a093003f7d00aaab1ae3b049"}, {"bike_id": "7b00416240487f801d8bea0226761581", "type": "electric_scooter", "is_disabled": 0, "lat": 38.904127333333335, "rental_uris": {"ios": "https://dc.lft.to/lastmile_qr_scan", "android": "https://dc.lft.to/lastmile_qr_scan"}, "is_reserved": 0, "fusion_lon": 0.0, "fusion_lat": 0.0, "lon": -76.97329883333333, "name": "7b00416240487f801d8bea0226761581"}, {"bike_id": "4fc55c133855f9704f97178b8e14c6b4", "type": "electric_scooter", "is_disabled": 0, "lat": 38.92830166666667, "rental_uris": {"ios": "https://dc.lft.to/lastmile_qr_scan", "android": "https://dc.lft.to/lastmile_qr_scan"}, "is_reserved": 0, "fusion_lon": 0.0, "fusion_lat": 0.0, "lon": -77.032626, "name": "4fc55c133855f9704f97178b8e14c6b4"}, {"bike_id": "ae86e9251fa47f01b7efd71414e30cd1", "type": "electric_scooter", "is_disabled": 0, "lat": 38.9240705, "rental_uris": {"ios": "https://dc.lft.to/lastmile_qr_scan", "android": "https://dc.lft.to/lastmile_qr_scan"}, "is_reserved": 0, "fusion_lon": 0.0, "fusion_lat": 0.0, "lon": -77.0200495, "name": "ae86e9251fa47f01b7efd71414e30cd1"}, {"bike_id": "a37dba4d542f3abf70d0ab1600e93457", "type": "electric_bike", "is_disabled": 0, "lat": 38.99675933333333, "rental_uris": {"ios": "https://dc.lft.to/lastmile_qr_scan", "android": "https://dc.lft.to/lastmile_qr_scan"}, "is_reserved": 0, "fusion_lon": 0.0, "fusion_lat": 0.0, "lon": -77.03789583333334, "name": "a37dba4d542f3abf70d0ab1600e93457"}, {"bike_id": "1c59ee58546260fb256ac5c65dc57b48", "type": "electric_scooter", "is_disabled": 0, "lat": 38.904782166666664, "rental_uris": {"ios": "https://dc.lft.to/lastmile_qr_scan", "android": "https://dc.lft.to/lastmile_qr_scan"}, "is_reserved": 0, "fusion_lon": 0.0, "fusion_lat": 0.0, "lon": -77.0293465, "name": "1c59ee58546260fb256ac5c65dc57b48"}, {"bike_id": "95231b4e3d59323f17a0b5c0ca83f554", "type": "electric_scooter", "is_disabled": 0, "lat": 38.918352166666665, "rental_uris": {"ios": "https://dc.lft.to/lastmile_qr_scan", "android": "https://dc.lft.to/lastmile_qr_scan"}, "is_reserved": 0, "fusion_lon": 0.0, "fusion_lat": 0.0, "lon": -76.96556816666667, "name": "95231b4e3d59323f17a0b5c0ca83f554"}, {"bike_id": "b59151e58f4aebd3718dc6fc501aa598", "type": "electric_bike", "is_disabled": 0, "lat": 38.896085666666664, "rental_uris": {"ios": "https://dc.lft.to/lastmile_qr_scan", "android": "https://dc.lft.to/lastmile_qr_scan"}, "is_reserved": 0, "fusion_lon": 0.0, "fusion_lat": 0.0, "lon": -76.90734783333333, "name": "b59151e58f4aebd3718dc6fc501aa598"}, {"bike_id": "23b214980b1410b47847b39179747c82", "type": "electric_scooter", "is_disabled": 0, "lat": 38.94733933333333, "rental_uris": {"ios": "https://dc.lft.to/lastmile_qr_scan", "android": "https://dc.lft.to/lastmile_qr_scan"}, "is_reserved": 0, "fusion_lon": 0.0, "fusion_lat": 0.0, "lon": -77.07863, "name": "23b214980b1410b47847b39179747c82"}, {"bike_id": "43faa89e39f97ff3c3dd55b068e7fa69", "type": "electric_scooter", "is_disabled": 0, "lat": 38.88887833333333, "rental_uris": {"ios": "https://dc.lft.to/lastmile_qr_scan", "android": "https://dc.lft.to/lastmile_qr_scan"}, "is_reserved": 0, "fusion_lon": 0.0, "fusion_lat": 0.0, "lon": -77.03325283333334, "name": "43faa89e39f97ff3c3dd55b068e7fa69"}, {"bike_id": "04837b3a53a60d3c0a320754490cb6eb", "type": "electric_scooter", "is_disabled": 0, "lat": 38.92134716666666, "rental_uris": {"ios": "https://dc.lft.to/lastmile_qr_scan", "android": "https://dc.lft.to/lastmile_qr_scan"}, "is_reserved": 0, "fusion_lon": 0.0, "fusion_lat": 0.0, "lon": -77.01804633333333, "name": "04837b3a53a60d3c0a320754490cb6eb"}, {"bike_id": "2ca27d4d3e08b204ebc669a2f3d1b303", "type": "electric_scooter", "is_disabled": 0, "lat": 38.91111133333333, "rental_uris": {"ios": "https://dc.lft.to/lastmile_qr_scan", "android": "https://dc.lft.to/lastmile_qr_scan"}, "is_reserved": 0, "fusion_lon": 0.0, "fusion_lat": 0.0, "lon": -77.03832416666667, "name": "2ca27d4d3e08b204ebc669a2f3d1b303"}, {"bike_id": "48a1414e24b65dffd405a52eaae596c7", "type": "electric_scooter", "is_disabled": 0, "lat": 38.92154083333333, "rental_uris": {"ios": "https://dc.lft.to/lastmile_qr_scan", "android": "https://dc.lft.to/lastmile_qr_scan"}, "is_reserved": 0, "fusion_lon": 0.0, "fusion_lat": 0.0, "lon": -77.03512866666667, "name": "48a1414e24b65dffd405a52eaae596c7"}, {"bike_id": "aa5f84eece1f3230930ee99bd2cf5126", "type": "electric_scooter", "is_disabled": 0, "lat": 38.935402833333335, "rental_uris": {"ios": "https://dc.lft.to/lastmile_qr_scan", "android": "https://dc.lft.to/lastmile_qr_scan"}, "is_reserved": 0, "fusion_lon": 0.0, "fusion_lat": 0.0, "lon": -77.03411816666667, "name": "aa5f84eece1f3230930ee99bd2cf5126"}, {"bike_id": "8a710333ee33e21e2e548517be21d024", "type": "electric_scooter", "is_disabled": 0, "lat": 38.861747, "rental_uris": {"ios": "https://dc.lft.to/lastmile_qr_scan", "android": "https://dc.lft.to/lastmile_qr_scan"}, "is_reserved": 0, "fusion_lon": 0.0, "fusion_lat": 0.0, "lon": -77.08836166666667, "name": "8a710333ee33e21e2e548517be21d024"}, {"bike_id": "7c96957aa8f41f96ef75d037b3c1c118", "type": "electric_scooter", "is_disabled": 0, "lat": 38.890339833333336, "rental_uris": {"ios": "https://dc.lft.to/lastmile_qr_scan", "android": "https://dc.lft.to/lastmile_qr_scan"}, "is_reserved": 0, "fusion_lon": 0.0, "fusion_lat": 0.0, "lon": -76.9375275, "name": "7c96957aa8f41f96ef75d037b3c1c118"}, {"bike_id": "50e928056b52986e5efb4a6fc58debf6", "type": "electric_scooter", "is_disabled": 0, "lat": 38.92109083333333, "rental_uris": {"ios": "https://dc.lft.to/lastmile_qr_scan", "android": "https://dc.lft.to/lastmile_qr_scan"}, "is_reserved": 0, "fusion_lon": 0.0, "fusion_lat": 0.0, "lon": -77.03640416666667, "name": "50e928056b52986e5efb4a6fc58debf6"}, {"bike_id": "e80236c31e627e16f0182922a323c64f", "type": "electric_scooter", "is_disabled": 0, "lat": 38.90417866666667, "rental_uris": {"ios": "https://dc.lft.to/lastmile_qr_scan", "android": "https://dc.lft.to/lastmile_qr_scan"}, "is_reserved": 0, "fusion_lon": 0.0, "fusion_lat": 0.0, "lon": -76.990687, "name": "e80236c31e627e16f0182922a323c64f"}, {"bike_id": "0ed70bc285da0822c697851f2a8299fb", "type": "electric_scooter", "is_disabled": 0, "lat": 38.897999166666665, "rental_uris": {"ios": "https://dc.lft.to/lastmile_qr_scan", "android": "https://dc.lft.to/lastmile_qr_scan"}, "is_reserved": 0, "fusion_lon": 0.0, "fusion_lat": 0.0, "lon": -77.02471983333334, "name": "0ed70bc285da0822c697851f2a8299fb"}, {"bike_id": "e05864e9471b9ccd7e52ef1ef92a976a", "type": "electric_scooter", "is_disabled": 0, "lat": 38.904037, "rental_uris": {"ios": "https://dc.lft.to/lastmile_qr_scan", "android": "https://dc.lft.to/lastmile_qr_scan"}, "is_reserved": 0, "fusion_lon": 0.0, "fusion_lat": 0.0, "lon": -77.06766883333333, "name": "e05864e9471b9ccd7e52ef1ef92a976a"}, {"bike_id": "2b67c2ca358c06f240552354c9e2d32e", "type": "electric_scooter", "is_disabled": 0, "lat": 38.889968, "rental_uris": {"ios": "https://dc.lft.to/lastmile_qr_scan", "android": "https://dc.lft.to/lastmile_qr_scan"}, "is_reserved": 0, "fusion_lon": 0.0, "fusion_lat": 0.0, "lon": -77.00111566666666, "name": "2b67c2ca358c06f240552354c9e2d32e"}, {"bike_id": "2f10bad1392cd484a37fbf1075a2ba6c", "type": "electric_scooter", "is_disabled": 0, "lat": 38.91845433333334, "rental_uris": {"ios": "https://dc.lft.to/lastmile_qr_scan", "android": "https://dc.lft.to/lastmile_qr_scan"}, "is_reserved": 0, "fusion_lon": 0.0, "fusion_lat": 0.0, "lon": -77.02521616666667, "name": "2f10bad1392cd484a37fbf1075a2ba6c"}, {"bike_id": "5d42646d73f77f7f59f1849f84fa736b", "type": "electric_scooter", "is_disabled": 0, "lat": 38.95734783333333, "rental_uris": {"ios": "https://dc.lft.to/lastmile_qr_scan", "android": "https://dc.lft.to/lastmile_qr_scan"}, "is_reserved": 0, "fusion_lon": 0.0, "fusion_lat": 0.0, "lon": -77.0239805, "name": "5d42646d73f77f7f59f1849f84fa736b"}, {"bike_id": "f55b57ac4354a6c7446cb67198bdf0ca", "type": "electric_scooter", "is_disabled": 0, "lat": 38.9083615, "rental_uris": {"ios": "https://dc.lft.to/lastmile_qr_scan", "android": "https://dc.lft.to/lastmile_qr_scan"}, "is_reserved": 0, "fusion_lon": 0.0, "fusion_lat": 0.0, "lon": -77.02712333333334, "name": "f55b57ac4354a6c7446cb67198bdf0ca"}, {"bike_id": "fa99bc7a8c376f2934b94f2142674e86", "type": "electric_scooter", "is_disabled": 0, "lat": 38.9163635, "rental_uris": {"ios": "https://dc.lft.to/lastmile_qr_scan", "android": "https://dc.lft.to/lastmile_qr_scan"}, "is_reserved": 0, "fusion_lon": 0.0, "fusion_lat": 0.0, "lon": -77.00046266666666, "name": "fa99bc7a8c376f2934b94f2142674e86"}, {"bike_id": "12bdb5a53814f18244a955ec4e07e7be", "type": "electric_scooter", "is_disabled": 0, "lat": 38.918648166666664, "rental_uris": {"ios": "https://dc.lft.to/lastmile_qr_scan", "android": "https://dc.lft.to/lastmile_qr_scan"}, "is_reserved": 0, "fusion_lon": 0.0, "fusion_lat": 0.0, "lon": -77.0365275, "name": "12bdb5a53814f18244a955ec4e07e7be"}, {"bike_id": "156a7483442c658d103e233e96c0328a", "type": "electric_scooter", "is_disabled": 0, "lat": 38.862072166666664, "rental_uris": {"ios": "https://dc.lft.to/lastmile_qr_scan", "android": "https://dc.lft.to/lastmile_qr_scan"}, "is_reserved": 0, "fusion_lon": 0.0, "fusion_lat": 0.0, "lon": -76.99469066666667, "name": "156a7483442c658d103e233e96c0328a"}, {"bike_id": "6c6fedec2ca21f35a182144c8434d41d", "type": "electric_scooter", "is_disabled": 0, "lat": 38.91778633333333, "rental_uris": {"ios": "https://dc.lft.to/lastmile_qr_scan", "android": "https://dc.lft.to/lastmile_qr_scan"}, "is_reserved": 0, "fusion_lon": 0.0, "fusion_lat": 0.0, "lon": -77.0365875, "name": "6c6fedec2ca21f35a182144c8434d41d"}, {"bike_id": "fc36345189645aa8a3a30d9a0575be7d", "type": "electric_scooter", "is_disabled": 0, "lat": 38.910898833333334, "rental_uris": {"ios": "https://dc.lft.to/lastmile_qr_scan", "android": "https://dc.lft.to/lastmile_qr_scan"}, "is_reserved": 0, "fusion_lon": 0.0, "fusion_lat": 0.0, "lon": -77.02807116666666, "name": "fc36345189645aa8a3a30d9a0575be7d"}, {"bike_id": "73d6e8dd1f26587a1e3088e89c14b123", "type": "electric_scooter", "is_disabled": 0, "lat": 38.919087833333336, "rental_uris": {"ios": "https://dc.lft.to/lastmile_qr_scan", "android": "https://dc.lft.to/lastmile_qr_scan"}, "is_reserved": 0, "fusion_lon": 0.0, "fusion_lat": 0.0, "lon": -77.0320265, "name": "73d6e8dd1f26587a1e3088e89c14b123"}, {"bike_id": "8bb6aeac3b921d08ac0da26ba9fbb54f", "type": "electric_scooter", "is_disabled": 0, "lat": 38.905681333333334, "rental_uris": {"ios": "https://dc.lft.to/lastmile_qr_scan", "android": "https://dc.lft.to/lastmile_qr_scan"}, "is_reserved": 0, "fusion_lon": 0.0, "fusion_lat": 0.0, "lon": -77.04244933333334, "name": "8bb6aeac3b921d08ac0da26ba9fbb54f"}, {"bike_id": "04686d451a42d46e56510e92eaae593a", "type": "electric_scooter", "is_disabled": 0, "lat": 38.90962566666666, "rental_uris": {"ios": "https://dc.lft.to/lastmile_qr_scan", "android": "https://dc.lft.to/lastmile_qr_scan"}, "is_reserved": 0, "fusion_lon": 0.0, "fusion_lat": 0.0, "lon": -77.0323805, "name": "04686d451a42d46e56510e92eaae593a"}, {"bike_id": "a487441460fb095af8567ec6e1638dcd", "type": "electric_scooter", "is_disabled": 0, "lat": 38.917316, "rental_uris": {"ios": "https://dc.lft.to/lastmile_qr_scan", "android": "https://dc.lft.to/lastmile_qr_scan"}, "is_reserved": 0, "fusion_lon": 0.0, "fusion_lat": 0.0, "lon": -77.02608916666667, "name": "a487441460fb095af8567ec6e1638dcd"}, {"bike_id": "b12357a97b89493dc39041c53af81304", "type": "electric_scooter", "is_disabled": 0, "lat": 38.8925175, "rental_uris": {"ios": "https://dc.lft.to/lastmile_qr_scan", "android": "https://dc.lft.to/lastmile_qr_scan"}, "is_reserved": 0, "fusion_lon": 0.0, "fusion_lat": 0.0, "lon": -76.92570616666667, "name": "b12357a97b89493dc39041c53af81304"}, {"bike_id": "794b39d09825eb54c2242a7ef5f4f305", "type": "electric_scooter", "is_disabled": 0, "lat": 38.864423333333335, "rental_uris": {"ios": "https://dc.lft.to/lastmile_qr_scan", "android": "https://dc.lft.to/lastmile_qr_scan"}, "is_reserved": 0, "fusion_lon": 0.0, "fusion_lat": 0.0, "lon": -76.97989233333334, "name": "794b39d09825eb54c2242a7ef5f4f305"}, {"bike_id": "36f9e70b74aedf38e2ec650b2fe56c19", "type": "electric_scooter", "is_disabled": 0, "lat": 38.88039833333333, "rental_uris": {"ios": "https://dc.lft.to/lastmile_qr_scan", "android": "https://dc.lft.to/lastmile_qr_scan"}, "is_reserved": 0, "fusion_lon": 0.0, "fusion_lat": 0.0, "lon": -77.0053265, "name": "36f9e70b74aedf38e2ec650b2fe56c19"}, {"bike_id": "ace01665aa119938a8da7021e8b33d59", "type": "electric_scooter", "is_disabled": 0, "lat": 38.921579666666666, "rental_uris": {"ios": "https://dc.lft.to/lastmile_qr_scan", "android": "https://dc.lft.to/lastmile_qr_scan"}, "is_reserved": 0, "fusion_lon": 0.0, "fusion_lat": 0.0, "lon": -77.03382616666667, "name": "ace01665aa119938a8da7021e8b33d59"}, {"bike_id": "6458347cdbde75710e4885262e3f8cd3", "type": "electric_scooter", "is_disabled": 0, "lat": 38.920863, "rental_uris": {"ios": "https://dc.lft.to/lastmile_qr_scan", "android": "https://dc.lft.to/lastmile_qr_scan"}, "is_reserved": 0, "fusion_lon": 0.0, "fusion_lat": 0.0, "lon": -77.0316345, "name": "6458347cdbde75710e4885262e3f8cd3"}, {"bike_id": "acc121143d64450a23cc6bbaab54bd62", "type": "electric_bike", "is_disabled": 0, "lat": 38.876606, "rental_uris": {"ios": "https://dc.lft.to/lastmile_qr_scan", "android": "https://dc.lft.to/lastmile_qr_scan"}, "is_reserved": 0, "fusion_lon": 0.0, "fusion_lat": 0.0, "lon": -77.007014, "name": "acc121143d64450a23cc6bbaab54bd62"}, {"bike_id": "b391bdc2b90d6066451d7fc0eb98f462", "type": "electric_scooter", "is_disabled": 0, "lat": 38.91398016666667, "rental_uris": {"ios": "https://dc.lft.to/lastmile_qr_scan", "android": "https://dc.lft.to/lastmile_qr_scan"}, "is_reserved": 0, "fusion_lon": 0.0, "fusion_lat": 0.0, "lon": -77.03184616666667, "name": "b391bdc2b90d6066451d7fc0eb98f462"}, {"bike_id": "452c20e6ce25d1df7fa7c7180e15fdbb", "type": "electric_bike", "is_disabled": 0, "lat": 38.9930245, "rental_uris": {"ios": "https://dc.lft.to/lastmile_qr_scan", "android": "https://dc.lft.to/lastmile_qr_scan"}, "is_reserved": 0, "fusion_lon": 0.0, "fusion_lat": 0.0, "lon": -77.025083, "name": "452c20e6ce25d1df7fa7c7180e15fdbb"}, {"bike_id": "ad3efac0283e3123e04f5d5d002c12c0", "type": "electric_scooter", "is_disabled": 0, "lat": 38.90959566666667, "rental_uris": {"ios": "https://dc.lft.to/lastmile_qr_scan", "android": "https://dc.lft.to/lastmile_qr_scan"}, "is_reserved": 0, "fusion_lon": 0.0, "fusion_lat": 0.0, "lon": -77.03234966666666, "name": "ad3efac0283e3123e04f5d5d002c12c0"}, {"bike_id": "e23a6e9f6c4d41ffa7c41459ca53df0a", "type": "electric_scooter", "is_disabled": 0, "lat": 38.9023085, "rental_uris": {"ios": "https://dc.lft.to/lastmile_qr_scan", "android": "https://dc.lft.to/lastmile_qr_scan"}, "is_reserved": 0, "fusion_lon": 0.0, "fusion_lat": 0.0, "lon": -77.04176966666667, "name": "e23a6e9f6c4d41ffa7c41459ca53df0a"}, {"bike_id": "493c21f9cd74baf6d08819dec4931806", "type": "electric_scooter", "is_disabled": 0, "lat": 38.882078166666666, "rental_uris": {"ios": "https://dc.lft.to/lastmile_qr_scan", "android": "https://dc.lft.to/lastmile_qr_scan"}, "is_reserved": 0, "fusion_lon": 0.0, "fusion_lat": 0.0, "lon": -76.9892565, "name": "493c21f9cd74baf6d08819dec4931806"}, {"bike_id": "7bb480fb37e08e5613adaf9c1b33dcfd", "type": "electric_scooter", "is_disabled": 0, "lat": 38.915474833333334, "rental_uris": {"ios": "https://dc.lft.to/lastmile_qr_scan", "android": "https://dc.lft.to/lastmile_qr_scan"}, "is_reserved": 0, "fusion_lon": 0.0, "fusion_lat": 0.0, "lon": -77.02202016666666, "name": "7bb480fb37e08e5613adaf9c1b33dcfd"}, {"bike_id": "eff1ac1e67ef53047a6b750502cea3f8", "type": "electric_scooter", "is_disabled": 0, "lat": 38.922445, "rental_uris": {"ios": "https://dc.lft.to/lastmile_qr_scan", "android": "https://dc.lft.to/lastmile_qr_scan"}, "is_reserved": 0, "fusion_lon": 0.0, "fusion_lat": 0.0, "lon": -77.042699, "name": "eff1ac1e67ef53047a6b750502cea3f8"}, {"bike_id": "fbfde5385253075268e99acd9808dca8", "type": "electric_scooter", "is_disabled": 0, "lat": 38.900711333333334, "rental_uris": {"ios": "https://dc.lft.to/lastmile_qr_scan", "android": "https://dc.lft.to/lastmile_qr_scan"}, "is_reserved": 0, "fusion_lon": 0.0, "fusion_lat": 0.0, "lon": -77.048587, "name": "fbfde5385253075268e99acd9808dca8"}, {"bike_id": "5df217bfb80619a573ffbcd2f808d7ab", "type": "electric_scooter", "is_disabled": 0, "lat": 38.90594633333333, "rental_uris": {"ios": "https://dc.lft.to/lastmile_qr_scan", "android": "https://dc.lft.to/lastmile_qr_scan"}, "is_reserved": 0, "fusion_lon": 0.0, "fusion_lat": 0.0, "lon": -77.04038933333334, "name": "5df217bfb80619a573ffbcd2f808d7ab"}, {"bike_id": "44862b628b4db0d318ef9c2e09f99f59", "type": "electric_bike", "is_disabled": 0, "lat": 38.93965083333333, "rental_uris": {"ios": "https://dc.lft.to/lastmile_qr_scan", "android": "https://dc.lft.to/lastmile_qr_scan"}, "is_reserved": 0, "fusion_lon": 0.0, "fusion_lat": 0.0, "lon": -77.05255133333333, "name": "44862b628b4db0d318ef9c2e09f99f59"}, {"bike_id": "539f7e23ad673070b59eeae1c9658a2b", "type": "electric_scooter", "is_disabled": 0, "lat": 38.9248445, "rental_uris": {"ios": "https://dc.lft.to/lastmile_qr_scan", "android": "https://dc.lft.to/lastmile_qr_scan"}, "is_reserved": 0, "fusion_lon": 0.0, "fusion_lat": 0.0, "lon": -77.02833366666667, "name": "539f7e23ad673070b59eeae1c9658a2b"}, {"bike_id": "8f0b75c059dd70b435af7439f2a6eb22", "type": "electric_scooter", "is_disabled": 0, "lat": 38.92599666666667, "rental_uris": {"ios": "https://dc.lft.to/lastmile_qr_scan", "android": "https://dc.lft.to/lastmile_qr_scan"}, "is_reserved": 0, "fusion_lon": 0.0, "fusion_lat": 0.0, "lon": -77.02447116666667, "name": "8f0b75c059dd70b435af7439f2a6eb22"}, {"bike_id": "1a17b4d834ea38fce0bc8d865caf5f33", "type": "electric_scooter", "is_disabled": 0, "lat": 38.898770666666664, "rental_uris": {"ios": "https://dc.lft.to/lastmile_qr_scan", "android": "https://dc.lft.to/lastmile_qr_scan"}, "is_reserved": 0, "fusion_lon": 0.0, "fusion_lat": 0.0, "lon": -76.93186833333333, "name": "1a17b4d834ea38fce0bc8d865caf5f33"}, {"bike_id": "025febc2a506ef89cf72924f35d696b1", "type": "electric_scooter", "is_disabled": 0, "lat": 38.930644666666666, "rental_uris": {"ios": "https://dc.lft.to/lastmile_qr_scan", "android": "https://dc.lft.to/lastmile_qr_scan"}, "is_reserved": 0, "fusion_lon": 0.0, "fusion_lat": 0.0, "lon": -77.0412285, "name": "025febc2a506ef89cf72924f35d696b1"}, {"bike_id": "d9517d64ea00e3611b3a566d57a10beb", "type": "electric_scooter", "is_disabled": 0, "lat": 38.907087, "rental_uris": {"ios": "https://dc.lft.to/lastmile_qr_scan", "android": "https://dc.lft.to/lastmile_qr_scan"}, "is_reserved": 0, "fusion_lon": 0.0, "fusion_lat": 0.0, "lon": -77.04338783333333, "name": "d9517d64ea00e3611b3a566d57a10beb"}, {"bike_id": "00e47d8be068fa633b38f259787b7f17", "type": "electric_scooter", "is_disabled": 0, "lat": 38.921254, "rental_uris": {"ios": "https://dc.lft.to/lastmile_qr_scan", "android": "https://dc.lft.to/lastmile_qr_scan"}, "is_reserved": 0, "fusion_lon": 0.0, "fusion_lat": 0.0, "lon": -77.027135, "name": "00e47d8be068fa633b38f259787b7f17"}, {"bike_id": "cd904d56062ff907485d12b496cfc12b", "type": "electric_scooter", "is_disabled": 0, "lat": 38.9056675, "rental_uris": {"ios": "https://dc.lft.to/lastmile_qr_scan", "android": "https://dc.lft.to/lastmile_qr_scan"}, "is_reserved": 0, "fusion_lon": 0.0, "fusion_lat": 0.0, "lon": -77.04257183333333, "name": "cd904d56062ff907485d12b496cfc12b"}, {"bike_id": "09086512e0fbf6d8a52f41f575f80150", "type": "electric_scooter", "is_disabled": 0, "lat": 38.928676, "rental_uris": {"ios": "https://dc.lft.to/lastmile_qr_scan", "android": "https://dc.lft.to/lastmile_qr_scan"}, "is_reserved": 0, "fusion_lon": 0.0, "fusion_lat": 0.0, "lon": -77.03283166666667, "name": "09086512e0fbf6d8a52f41f575f80150"}, {"bike_id": "83a2e51217726acc2ffb689ce0481ccc", "type": "electric_scooter", "is_disabled": 0, "lat": 38.92177083333333, "rental_uris": {"ios": "https://dc.lft.to/lastmile_qr_scan", "android": "https://dc.lft.to/lastmile_qr_scan"}, "is_reserved": 0, "fusion_lon": 0.0, "fusion_lat": 0.0, "lon": -77.04014933333333, "name": "83a2e51217726acc2ffb689ce0481ccc"}, {"bike_id": "fcfa1168a22d724ea3b7d4cb0c632559", "type": "electric_scooter", "is_disabled": 0, "lat": 38.9168705, "rental_uris": {"ios": "https://dc.lft.to/lastmile_qr_scan", "android": "https://dc.lft.to/lastmile_qr_scan"}, "is_reserved": 0, "fusion_lon": 0.0, "fusion_lat": 0.0, "lon": -77.03772733333334, "name": "fcfa1168a22d724ea3b7d4cb0c632559"}, {"bike_id": "f1c407067998a5392cc203803b6eec83", "type": "electric_scooter", "is_disabled": 0, "lat": 38.90368133333333, "rental_uris": {"ios": "https://dc.lft.to/lastmile_qr_scan", "android": "https://dc.lft.to/lastmile_qr_scan"}, "is_reserved": 0, "fusion_lon": 0.0, "fusion_lat": 0.0, "lon": -77.02950816666667, "name": "f1c407067998a5392cc203803b6eec83"}, {"bike_id": "bf210bf9f644d2835a8dec2e006493ad", "type": "electric_bike", "is_disabled": 0, "lat": 38.92451783333333, "rental_uris": {"ios": "https://dc.lft.to/lastmile_qr_scan", "android": "https://dc.lft.to/lastmile_qr_scan"}, "is_reserved": 0, "fusion_lon": 0.0, "fusion_lat": 0.0, "lon": -77.2255965, "name": "bf210bf9f644d2835a8dec2e006493ad"}, {"bike_id": "abd8ed2168579b0e5140e69b87d7c914", "type": "electric_scooter", "is_disabled": 0, "lat": 38.90639183333333, "rental_uris": {"ios": "https://dc.lft.to/lastmile_qr_scan", "android": "https://dc.lft.to/lastmile_qr_scan"}, "is_reserved": 0, "fusion_lon": 0.0, "fusion_lat": 0.0, "lon": -77.00975183333334, "name": "abd8ed2168579b0e5140e69b87d7c914"}, {"bike_id": "ee0e2238d6501e03d670c671aedccfe3", "type": "electric_scooter", "is_disabled": 0, "lat": 38.9419395, "rental_uris": {"ios": "https://dc.lft.to/lastmile_qr_scan", "android": "https://dc.lft.to/lastmile_qr_scan"}, "is_reserved": 0, "fusion_lon": 0.0, "fusion_lat": 0.0, "lon": -77.02434733333334, "name": "ee0e2238d6501e03d670c671aedccfe3"}, {"bike_id": "01b388de0514b93669b3c6267faa8b98", "type": "electric_scooter", "is_disabled": 0, "lat": 38.898432, "rental_uris": {"ios": "https://dc.lft.to/lastmile_qr_scan", "android": "https://dc.lft.to/lastmile_qr_scan"}, "is_reserved": 0, "fusion_lon": 0.0, "fusion_lat": 0.0, "lon": -76.94633566666667, "name": "01b388de0514b93669b3c6267faa8b98"}, {"bike_id": "45baba6eba3237b004dae9bee81ab2db", "type": "electric_scooter", "is_disabled": 0, "lat": 38.914638333333336, "rental_uris": {"ios": "https://dc.lft.to/lastmile_qr_scan", "android": "https://dc.lft.to/lastmile_qr_scan"}, "is_reserved": 0, "fusion_lon": 0.0, "fusion_lat": 0.0, "lon": -77.02287283333334, "name": "45baba6eba3237b004dae9bee81ab2db"}, {"bike_id": "2c63594f8a7055aeafe3688719466f2d", "type": "electric_bike", "is_disabled": 0, "lat": 38.95226566666667, "rental_uris": {"ios": "https://dc.lft.to/lastmile_qr_scan", "android": "https://dc.lft.to/lastmile_qr_scan"}, "is_reserved": 0, "fusion_lon": 0.0, "fusion_lat": 0.0, "lon": -77.00295033333333, "name": "2c63594f8a7055aeafe3688719466f2d"}, {"bike_id": "3c5a6490e77d408ce7c0116ac0ee6a86", "type": "electric_bike", "is_disabled": 0, "lat": 38.94659716666666, "rental_uris": {"ios": "https://dc.lft.to/lastmile_qr_scan", "android": "https://dc.lft.to/lastmile_qr_scan"}, "is_reserved": 0, "fusion_lon": 0.0, "fusion_lat": 0.0, "lon": -76.95668383333333, "name": "3c5a6490e77d408ce7c0116ac0ee6a86"}, {"bike_id": "cf81d1cd3e0021866630d699ebcf613c", "type": "electric_scooter", "is_disabled": 0, "lat": 38.906816666666664, "rental_uris": {"ios": "https://dc.lft.to/lastmile_qr_scan", "android": "https://dc.lft.to/lastmile_qr_scan"}, "is_reserved": 0, "fusion_lon": 0.0, "fusion_lat": 0.0, "lon": -77.02396166666666, "name": "cf81d1cd3e0021866630d699ebcf613c"}, {"bike_id": "126ae508939e72bb0dcd1e4ab227afd1", "type": "electric_scooter", "is_disabled": 0, "lat": 38.844300833333335, "rental_uris": {"ios": "https://dc.lft.to/lastmile_qr_scan", "android": "https://dc.lft.to/lastmile_qr_scan"}, "is_reserved": 0, "fusion_lon": 0.0, "fusion_lat": 0.0, "lon": -76.99865666666666, "name": "126ae508939e72bb0dcd1e4ab227afd1"}, {"bike_id": "544f22aba3537d7f65d79e0407b6d664", "type": "electric_scooter", "is_disabled": 0, "lat": 38.90786116666666, "rental_uris": {"ios": "https://dc.lft.to/lastmile_qr_scan", "android": "https://dc.lft.to/lastmile_qr_scan"}, "is_reserved": 0, "fusion_lon": 0.0, "fusion_lat": 0.0, "lon": -77.03198016666667, "name": "544f22aba3537d7f65d79e0407b6d664"}, {"bike_id": "f45cd214744fab4ce1529dbd402ca15d", "type": "electric_scooter", "is_disabled": 0, "lat": 38.933971166666666, "rental_uris": {"ios": "https://dc.lft.to/lastmile_qr_scan", "android": "https://dc.lft.to/lastmile_qr_scan"}, "is_reserved": 0, "fusion_lon": 0.0, "fusion_lat": 0.0, "lon": -77.035196, "name": "f45cd214744fab4ce1529dbd402ca15d"}, {"bike_id": "44b46f8b914db750987a5a66debf0b79", "type": "electric_scooter", "is_disabled": 0, "lat": 38.9172305, "rental_uris": {"ios": "https://dc.lft.to/lastmile_qr_scan", "android": "https://dc.lft.to/lastmile_qr_scan"}, "is_reserved": 0, "fusion_lon": 0.0, "fusion_lat": 0.0, "lon": -77.03658383333334, "name": "44b46f8b914db750987a5a66debf0b79"}, {"bike_id": "0032695c0aa0245e8fdda4967b0b28a5", "type": "electric_scooter", "is_disabled": 0, "lat": 38.9068415, "rental_uris": {"ios": "https://dc.lft.to/lastmile_qr_scan", "android": "https://dc.lft.to/lastmile_qr_scan"}, "is_reserved": 0, "fusion_lon": 0.0, "fusion_lat": 0.0, "lon": -77.04211866666667, "name": "0032695c0aa0245e8fdda4967b0b28a5"}, {"bike_id": "66723b0a520f97147515b4de1b2b743f", "type": "electric_scooter", "is_disabled": 0, "lat": 38.90265333333333, "rental_uris": {"ios": "https://dc.lft.to/lastmile_qr_scan", "android": "https://dc.lft.to/lastmile_qr_scan"}, "is_reserved": 0, "fusion_lon": 0.0, "fusion_lat": 0.0, "lon": -77.00742566666666, "name": "66723b0a520f97147515b4de1b2b743f"}, {"bike_id": "db902c4c6071deb793fda738879c3bd5", "type": "electric_scooter", "is_disabled": 0, "lat": 38.9214005, "rental_uris": {"ios": "https://dc.lft.to/lastmile_qr_scan", "android": "https://dc.lft.to/lastmile_qr_scan"}, "is_reserved": 0, "fusion_lon": 0.0, "fusion_lat": 0.0, "lon": -77.04766466666666, "name": "db902c4c6071deb793fda738879c3bd5"}, {"bike_id": "7d0bf8a860f6110f677d567e9f3916fb", "type": "electric_scooter", "is_disabled": 0, "lat": 38.93846766666667, "rental_uris": {"ios": "https://dc.lft.to/lastmile_qr_scan", "android": "https://dc.lft.to/lastmile_qr_scan"}, "is_reserved": 0, "fusion_lon": 0.0, "fusion_lat": 0.0, "lon": -77.0723095, "name": "7d0bf8a860f6110f677d567e9f3916fb"}, {"bike_id": "1ff98707b9959406ecdd69320091b9ce", "type": "electric_scooter", "is_disabled": 0, "lat": 38.90982116666667, "rental_uris": {"ios": "https://dc.lft.to/lastmile_qr_scan", "android": "https://dc.lft.to/lastmile_qr_scan"}, "is_reserved": 0, "fusion_lon": 0.0, "fusion_lat": 0.0, "lon": -77.0151365, "name": "1ff98707b9959406ecdd69320091b9ce"}, {"bike_id": "afe2f186a2e0a49cf404575ba18e788a", "type": "electric_scooter", "is_disabled": 0, "lat": 38.90941683333333, "rental_uris": {"ios": "https://dc.lft.to/lastmile_qr_scan", "android": "https://dc.lft.to/lastmile_qr_scan"}, "is_reserved": 0, "fusion_lon": 0.0, "fusion_lat": 0.0, "lon": -77.05563466666666, "name": "afe2f186a2e0a49cf404575ba18e788a"}, {"bike_id": "93ed26da616ac1bd1376f90a1324bead", "type": "electric_scooter", "is_disabled": 0, "lat": 38.964996666666664, "rental_uris": {"ios": "https://dc.lft.to/lastmile_qr_scan", "android": "https://dc.lft.to/lastmile_qr_scan"}, "is_reserved": 0, "fusion_lon": 0.0, "fusion_lat": 0.0, "lon": -77.002047, "name": "93ed26da616ac1bd1376f90a1324bead"}, {"bike_id": "d594a1b574fff5687bfbe690ac77d0c1", "type": "electric_scooter", "is_disabled": 0, "lat": 38.95652033333333, "rental_uris": {"ios": "https://dc.lft.to/lastmile_qr_scan", "android": "https://dc.lft.to/lastmile_qr_scan"}, "is_reserved": 0, "fusion_lon": 0.0, "fusion_lat": 0.0, "lon": -77.01002983333333, "name": "d594a1b574fff5687bfbe690ac77d0c1"}, {"bike_id": "9fe5827eab246f97d5d19875a24f5ed3", "type": "electric_scooter", "is_disabled": 0, "lat": 38.95637333333333, "rental_uris": {"ios": "https://dc.lft.to/lastmile_qr_scan", "android": "https://dc.lft.to/lastmile_qr_scan"}, "is_reserved": 0, "fusion_lon": 0.0, "fusion_lat": 0.0, "lon": -77.01162483333333, "name": "9fe5827eab246f97d5d19875a24f5ed3"}, {"bike_id": "7d804df6b7a10ca495b889b71ba9af43", "type": "electric_scooter", "is_disabled": 0, "lat": 38.932364, "rental_uris": {"ios": "https://dc.lft.to/lastmile_qr_scan", "android": "https://dc.lft.to/lastmile_qr_scan"}, "is_reserved": 0, "fusion_lon": 0.0, "fusion_lat": 0.0, "lon": -77.03888816666667, "name": "7d804df6b7a10ca495b889b71ba9af43"}, {"bike_id": "55bd623230bbcbd04f91fa114d1b4be2", "type": "electric_scooter", "is_disabled": 0, "lat": 38.8869755, "rental_uris": {"ios": "https://dc.lft.to/lastmile_qr_scan", "android": "https://dc.lft.to/lastmile_qr_scan"}, "is_reserved": 0, "fusion_lon": 0.0, "fusion_lat": 0.0, "lon": -76.99612883333333, "name": "55bd623230bbcbd04f91fa114d1b4be2"}, {"bike_id": "612379916e3629d8456eadd001ccef5a", "type": "electric_scooter", "is_disabled": 0, "lat": 38.92450383333333, "rental_uris": {"ios": "https://dc.lft.to/lastmile_qr_scan", "android": "https://dc.lft.to/lastmile_qr_scan"}, "is_reserved": 0, "fusion_lon": 0.0, "fusion_lat": 0.0, "lon": -77.04396533333333, "name": "612379916e3629d8456eadd001ccef5a"}, {"bike_id": "da0195c59ad21c1510058824869b2998", "type": "electric_scooter", "is_disabled": 0, "lat": 38.915039, "rental_uris": {"ios": "https://dc.lft.to/lastmile_qr_scan", "android": "https://dc.lft.to/lastmile_qr_scan"}, "is_reserved": 0, "fusion_lon": 0.0, "fusion_lat": 0.0, "lon": -77.01774383333333, "name": "da0195c59ad21c1510058824869b2998"}, {"bike_id": "a921491532207143e392d6b8482dac7e", "type": "electric_scooter", "is_disabled": 0, "lat": 38.88658016666667, "rental_uris": {"ios": "https://dc.lft.to/lastmile_qr_scan", "android": "https://dc.lft.to/lastmile_qr_scan"}, "is_reserved": 0, "fusion_lon": 0.0, "fusion_lat": 0.0, "lon": -77.001161, "name": "a921491532207143e392d6b8482dac7e"}, {"bike_id": "5ec0d741b58fe000769ff0704548a449", "type": "electric_scooter", "is_disabled": 0, "lat": 38.915465833333336, "rental_uris": {"ios": "https://dc.lft.to/lastmile_qr_scan", "android": "https://dc.lft.to/lastmile_qr_scan"}, "is_reserved": 0, "fusion_lon": 0.0, "fusion_lat": 0.0, "lon": -77.040141, "name": "5ec0d741b58fe000769ff0704548a449"}, {"bike_id": "8cc3c5b1bf5d7e84c2e8524bda379473", "type": "electric_scooter", "is_disabled": 0, "lat": 38.91841016666667, "rental_uris": {"ios": "https://dc.lft.to/lastmile_qr_scan", "android": "https://dc.lft.to/lastmile_qr_scan"}, "is_reserved": 0, "fusion_lon": 0.0, "fusion_lat": 0.0, "lon": -76.9655035, "name": "8cc3c5b1bf5d7e84c2e8524bda379473"}, {"bike_id": "6e67f5837151f7c90dfe16205e33cef7", "type": "electric_bike", "is_disabled": 0, "lat": 38.813264, "rental_uris": {"ios": "https://dc.lft.to/lastmile_qr_scan", "android": "https://dc.lft.to/lastmile_qr_scan"}, "is_reserved": 0, "fusion_lon": 0.0, "fusion_lat": 0.0, "lon": -77.05084083333334, "name": "6e67f5837151f7c90dfe16205e33cef7"}, {"bike_id": "22be52536725cbcfb17d6505572018bc", "type": "electric_scooter", "is_disabled": 0, "lat": 38.90977133333333, "rental_uris": {"ios": "https://dc.lft.to/lastmile_qr_scan", "android": "https://dc.lft.to/lastmile_qr_scan"}, "is_reserved": 0, "fusion_lon": 0.0, "fusion_lat": 0.0, "lon": -77.033846, "name": "22be52536725cbcfb17d6505572018bc"}, {"bike_id": "32dbf67404f2bc209e94896f1347f3ce", "type": "electric_bike", "is_disabled": 0, "lat": 38.87479183333333, "rental_uris": {"ios": "https://dc.lft.to/lastmile_qr_scan", "android": "https://dc.lft.to/lastmile_qr_scan"}, "is_reserved": 0, "fusion_lon": 0.0, "fusion_lat": 0.0, "lon": -76.96532016666667, "name": "32dbf67404f2bc209e94896f1347f3ce"}, {"bike_id": "b838ea2574a5f909116ae06b2426757d", "type": "electric_scooter", "is_disabled": 0, "lat": 38.911127, "rental_uris": {"ios": "https://dc.lft.to/lastmile_qr_scan", "android": "https://dc.lft.to/lastmile_qr_scan"}, "is_reserved": 0, "fusion_lon": 0.0, "fusion_lat": 0.0, "lon": -77.0383045, "name": "b838ea2574a5f909116ae06b2426757d"}, {"bike_id": "5767b373458d80be78ceb2b369f77bbf", "type": "electric_scooter", "is_disabled": 0, "lat": 38.90164983333333, "rental_uris": {"ios": "https://dc.lft.to/lastmile_qr_scan", "android": "https://dc.lft.to/lastmile_qr_scan"}, "is_reserved": 0, "fusion_lon": 0.0, "fusion_lat": 0.0, "lon": -76.93022616666667, "name": "5767b373458d80be78ceb2b369f77bbf"}, {"bike_id": "909af818174f01acc49b4f98e0de9556", "type": "electric_scooter", "is_disabled": 0, "lat": 38.901641166666664, "rental_uris": {"ios": "https://dc.lft.to/lastmile_qr_scan", "android": "https://dc.lft.to/lastmile_qr_scan"}, "is_reserved": 0, "fusion_lon": 0.0, "fusion_lat": 0.0, "lon": -76.98452383333333, "name": "909af818174f01acc49b4f98e0de9556"}, {"bike_id": "59446dfdbd086f8b145a4838b62f6703", "type": "electric_scooter", "is_disabled": 0, "lat": 38.904196666666664, "rental_uris": {"ios": "https://dc.lft.to/lastmile_qr_scan", "android": "https://dc.lft.to/lastmile_qr_scan"}, "is_reserved": 0, "fusion_lon": 0.0, "fusion_lat": 0.0, "lon": -76.97375116666667, "name": "59446dfdbd086f8b145a4838b62f6703"}, {"bike_id": "b8506d0ae2b3e1506ebdd99c872e4c66", "type": "electric_scooter", "is_disabled": 0, "lat": 38.92449583333333, "rental_uris": {"ios": "https://dc.lft.to/lastmile_qr_scan", "android": "https://dc.lft.to/lastmile_qr_scan"}, "is_reserved": 0, "fusion_lon": 0.0, "fusion_lat": 0.0, "lon": -77.02408016666666, "name": "b8506d0ae2b3e1506ebdd99c872e4c66"}, {"bike_id": "d70eddf402ad263cae9d3d0555477b85", "type": "electric_scooter", "is_disabled": 0, "lat": 38.919525166666666, "rental_uris": {"ios": "https://dc.lft.to/lastmile_qr_scan", "android": "https://dc.lft.to/lastmile_qr_scan"}, "is_reserved": 0, "fusion_lon": 0.0, "fusion_lat": 0.0, "lon": -77.0249145, "name": "d70eddf402ad263cae9d3d0555477b85"}, {"bike_id": "b17228dff125f4c3504807de361a1c09", "type": "electric_scooter", "is_disabled": 0, "lat": 38.9187555, "rental_uris": {"ios": "https://dc.lft.to/lastmile_qr_scan", "android": "https://dc.lft.to/lastmile_qr_scan"}, "is_reserved": 0, "fusion_lon": 0.0, "fusion_lat": 0.0, "lon": -77.04463783333334, "name": "b17228dff125f4c3504807de361a1c09"}, {"bike_id": "cf11129a828b61d045128b05e9fcffe0", "type": "electric_scooter", "is_disabled": 0, "lat": 38.90788766666667, "rental_uris": {"ios": "https://dc.lft.to/lastmile_qr_scan", "android": "https://dc.lft.to/lastmile_qr_scan"}, "is_reserved": 0, "fusion_lon": 0.0, "fusion_lat": 0.0, "lon": -77.00205366666667, "name": "cf11129a828b61d045128b05e9fcffe0"}, {"bike_id": "5c249a5be0b8346026a2b74480afcbe8", "type": "electric_scooter", "is_disabled": 0, "lat": 38.942893, "rental_uris": {"ios": "https://dc.lft.to/lastmile_qr_scan", "android": "https://dc.lft.to/lastmile_qr_scan"}, "is_reserved": 0, "fusion_lon": 0.0, "fusion_lat": 0.0, "lon": -77.02170833333334, "name": "5c249a5be0b8346026a2b74480afcbe8"}, {"bike_id": "ee96cffde5bc9c772b94804d27affaa6", "type": "electric_bike", "is_disabled": 0, "lat": 38.85411283333333, "rental_uris": {"ios": "https://dc.lft.to/lastmile_qr_scan", "android": "https://dc.lft.to/lastmile_qr_scan"}, "is_reserved": 0, "fusion_lon": 0.0, "fusion_lat": 0.0, "lon": -77.12082616666666, "name": "ee96cffde5bc9c772b94804d27affaa6"}, {"bike_id": "493cac288acbff83880c803363b431e1", "type": "electric_scooter", "is_disabled": 0, "lat": 38.86567066666667, "rental_uris": {"ios": "https://dc.lft.to/lastmile_qr_scan", "android": "https://dc.lft.to/lastmile_qr_scan"}, "is_reserved": 0, "fusion_lon": 0.0, "fusion_lat": 0.0, "lon": -76.98216383333333, "name": "493cac288acbff83880c803363b431e1"}, {"bike_id": "df1d9e1aaac254e4f79181b885b4f5ee", "type": "electric_scooter", "is_disabled": 0, "lat": 38.866558833333336, "rental_uris": {"ios": "https://dc.lft.to/lastmile_qr_scan", "android": "https://dc.lft.to/lastmile_qr_scan"}, "is_reserved": 0, "fusion_lon": 0.0, "fusion_lat": 0.0, "lon": -76.98887216666667, "name": "df1d9e1aaac254e4f79181b885b4f5ee"}, {"bike_id": "565a7a36919f9c9dcf729a87e88387bd", "type": "electric_scooter", "is_disabled": 0, "lat": 38.90532566666667, "rental_uris": {"ios": "https://dc.lft.to/lastmile_qr_scan", "android": "https://dc.lft.to/lastmile_qr_scan"}, "is_reserved": 0, "fusion_lon": 0.0, "fusion_lat": 0.0, "lon": -76.99631966666666, "name": "565a7a36919f9c9dcf729a87e88387bd"}, {"bike_id": "996cdf1ebe6cc71d06c3237ea132f52e", "type": "electric_scooter", "is_disabled": 0, "lat": 38.88741666666667, "rental_uris": {"ios": "https://dc.lft.to/lastmile_qr_scan", "android": "https://dc.lft.to/lastmile_qr_scan"}, "is_reserved": 0, "fusion_lon": 0.0, "fusion_lat": 0.0, "lon": -76.9962725, "name": "996cdf1ebe6cc71d06c3237ea132f52e"}, {"bike_id": "215899b30bed6daa81cca32f0a1c4a90", "type": "electric_scooter", "is_disabled": 0, "lat": 38.888771166666665, "rental_uris": {"ios": "https://dc.lft.to/lastmile_qr_scan", "android": "https://dc.lft.to/lastmile_qr_scan"}, "is_reserved": 0, "fusion_lon": 0.0, "fusion_lat": 0.0, "lon": -76.99034633333333, "name": "215899b30bed6daa81cca32f0a1c4a90"}, {"bike_id": "998ad0548596de52f6aabed514bc85e0", "type": "electric_scooter", "is_disabled": 0, "lat": 38.9333585, "rental_uris": {"ios": "https://dc.lft.to/lastmile_qr_scan", "android": "https://dc.lft.to/lastmile_qr_scan"}, "is_reserved": 0, "fusion_lon": 0.0, "fusion_lat": 0.0, "lon": -77.03983666666667, "name": "998ad0548596de52f6aabed514bc85e0"}, {"bike_id": "5d1c9e74d2da115cb6aae4de6393bd06", "type": "electric_scooter", "is_disabled": 0, "lat": 38.90968933333333, "rental_uris": {"ios": "https://dc.lft.to/lastmile_qr_scan", "android": "https://dc.lft.to/lastmile_qr_scan"}, "is_reserved": 0, "fusion_lon": 0.0, "fusion_lat": 0.0, "lon": -77.0464755, "name": "5d1c9e74d2da115cb6aae4de6393bd06"}, {"bike_id": "4de236983a6a0a34e852f6a777809965", "type": "electric_scooter", "is_disabled": 0, "lat": 38.91706216666667, "rental_uris": {"ios": "https://dc.lft.to/lastmile_qr_scan", "android": "https://dc.lft.to/lastmile_qr_scan"}, "is_reserved": 0, "fusion_lon": 0.0, "fusion_lat": 0.0, "lon": -77.0065665, "name": "4de236983a6a0a34e852f6a777809965"}, {"bike_id": "8c0b0c3a75874e6b1f544afadc865f99", "type": "electric_scooter", "is_disabled": 0, "lat": 38.901803, "rental_uris": {"ios": "https://dc.lft.to/lastmile_qr_scan", "android": "https://dc.lft.to/lastmile_qr_scan"}, "is_reserved": 0, "fusion_lon": 0.0, "fusion_lat": 0.0, "lon": -76.98076983333333, "name": "8c0b0c3a75874e6b1f544afadc865f99"}, {"bike_id": "33fe9bcd1ae8b24ede5fe70e5d5c7ff9", "type": "electric_scooter", "is_disabled": 0, "lat": 38.93102016666667, "rental_uris": {"ios": "https://dc.lft.to/lastmile_qr_scan", "android": "https://dc.lft.to/lastmile_qr_scan"}, "is_reserved": 0, "fusion_lon": 0.0, "fusion_lat": 0.0, "lon": -77.02480866666667, "name": "33fe9bcd1ae8b24ede5fe70e5d5c7ff9"}, {"bike_id": "20791112b718cbc10cf0308b76acb40b", "type": "electric_scooter", "is_disabled": 0, "lat": 38.866969833333336, "rental_uris": {"ios": "https://dc.lft.to/lastmile_qr_scan", "android": "https://dc.lft.to/lastmile_qr_scan"}, "is_reserved": 0, "fusion_lon": 0.0, "fusion_lat": 0.0, "lon": -76.987118, "name": "20791112b718cbc10cf0308b76acb40b"}, {"bike_id": "a6c1d0c535eafd4fef6894afe22f35b5", "type": "electric_scooter", "is_disabled": 0, "lat": 38.931316, "rental_uris": {"ios": "https://dc.lft.to/lastmile_qr_scan", "android": "https://dc.lft.to/lastmile_qr_scan"}, "is_reserved": 0, "fusion_lon": 0.0, "fusion_lat": 0.0, "lon": -76.99575466666667, "name": "a6c1d0c535eafd4fef6894afe22f35b5"}, {"bike_id": "1f56c12ed242655ede95158ef2fd119c", "type": "electric_scooter", "is_disabled": 0, "lat": 38.918223166666664, "rental_uris": {"ios": "https://dc.lft.to/lastmile_qr_scan", "android": "https://dc.lft.to/lastmile_qr_scan"}, "is_reserved": 0, "fusion_lon": 0.0, "fusion_lat": 0.0, "lon": -77.04941966666667, "name": "1f56c12ed242655ede95158ef2fd119c"}, {"bike_id": "09832ca54c7dd01ec434a252857f50c3", "type": "electric_scooter", "is_disabled": 0, "lat": 38.881346666666666, "rental_uris": {"ios": "https://dc.lft.to/lastmile_qr_scan", "android": "https://dc.lft.to/lastmile_qr_scan"}, "is_reserved": 0, "fusion_lon": 0.0, "fusion_lat": 0.0, "lon": -76.98353916666667, "name": "09832ca54c7dd01ec434a252857f50c3"}, {"bike_id": "7fd3f3790506aca91329efd8600cae53", "type": "electric_scooter", "is_disabled": 0, "lat": 38.8983365, "rental_uris": {"ios": "https://dc.lft.to/lastmile_qr_scan", "android": "https://dc.lft.to/lastmile_qr_scan"}, "is_reserved": 0, "fusion_lon": 0.0, "fusion_lat": 0.0, "lon": -77.02855, "name": "7fd3f3790506aca91329efd8600cae53"}, {"bike_id": "eb5f4c914f4457dfcc3b57c6397643ed", "type": "electric_scooter", "is_disabled": 0, "lat": 38.94749766666666, "rental_uris": {"ios": "https://dc.lft.to/lastmile_qr_scan", "android": "https://dc.lft.to/lastmile_qr_scan"}, "is_reserved": 0, "fusion_lon": 0.0, "fusion_lat": 0.0, "lon": -77.075869, "name": "eb5f4c914f4457dfcc3b57c6397643ed"}, {"bike_id": "99b668f3c1a5066a1fb548f50b8d8bc7", "type": "electric_scooter", "is_disabled": 0, "lat": 38.90708216666667, "rental_uris": {"ios": "https://dc.lft.to/lastmile_qr_scan", "android": "https://dc.lft.to/lastmile_qr_scan"}, "is_reserved": 0, "fusion_lon": 0.0, "fusion_lat": 0.0, "lon": -77.02407933333333, "name": "99b668f3c1a5066a1fb548f50b8d8bc7"}, {"bike_id": "b11841f30ab6eddc414afc669bdc6658", "type": "electric_scooter", "is_disabled": 0, "lat": 38.93339316666667, "rental_uris": {"ios": "https://dc.lft.to/lastmile_qr_scan", "android": "https://dc.lft.to/lastmile_qr_scan"}, "is_reserved": 0, "fusion_lon": 0.0, "fusion_lat": 0.0, "lon": -77.0205655, "name": "b11841f30ab6eddc414afc669bdc6658"}, {"bike_id": "de8f2094839b3086786beac2217192ef", "type": "electric_scooter", "is_disabled": 0, "lat": 38.91273866666667, "rental_uris": {"ios": "https://dc.lft.to/lastmile_qr_scan", "android": "https://dc.lft.to/lastmile_qr_scan"}, "is_reserved": 0, "fusion_lon": 0.0, "fusion_lat": 0.0, "lon": -77.02271116666667, "name": "de8f2094839b3086786beac2217192ef"}, {"bike_id": "b48854d3f8393edb9eda77ebb3a105ec", "type": "electric_bike", "is_disabled": 0, "lat": 39.0527965, "rental_uris": {"ios": "https://dc.lft.to/lastmile_qr_scan", "android": "https://dc.lft.to/lastmile_qr_scan"}, "is_reserved": 0, "fusion_lon": 0.0, "fusion_lat": 0.0, "lon": -77.08069216666667, "name": "b48854d3f8393edb9eda77ebb3a105ec"}, {"bike_id": "eaf94f7f1017934a2dc90c5a3fbd0ce0", "type": "electric_scooter", "is_disabled": 0, "lat": 38.90259483333333, "rental_uris": {"ios": "https://dc.lft.to/lastmile_qr_scan", "android": "https://dc.lft.to/lastmile_qr_scan"}, "is_reserved": 0, "fusion_lon": 0.0, "fusion_lat": 0.0, "lon": -77.01639966666667, "name": "eaf94f7f1017934a2dc90c5a3fbd0ce0"}, {"bike_id": "3bd458802f01569d6bd8cf0b4d67dbaf", "type": "electric_scooter", "is_disabled": 0, "lat": 38.896168333333335, "rental_uris": {"ios": "https://dc.lft.to/lastmile_qr_scan", "android": "https://dc.lft.to/lastmile_qr_scan"}, "is_reserved": 0, "fusion_lon": 0.0, "fusion_lat": 0.0, "lon": -76.9857045, "name": "3bd458802f01569d6bd8cf0b4d67dbaf"}, {"bike_id": "686d23366e637f2bfd74b2daf94bee11", "type": "electric_scooter", "is_disabled": 0, "lat": 38.90630816666667, "rental_uris": {"ios": "https://dc.lft.to/lastmile_qr_scan", "android": "https://dc.lft.to/lastmile_qr_scan"}, "is_reserved": 0, "fusion_lon": 0.0, "fusion_lat": 0.0, "lon": -77.02973, "name": "686d23366e637f2bfd74b2daf94bee11"}, {"bike_id": "0d5990829886b42fd2ce258d84c6660f", "type": "electric_scooter", "is_disabled": 0, "lat": 38.92528566666667, "rental_uris": {"ios": "https://dc.lft.to/lastmile_qr_scan", "android": "https://dc.lft.to/lastmile_qr_scan"}, "is_reserved": 0, "fusion_lon": 0.0, "fusion_lat": 0.0, "lon": -77.04277683333333, "name": "0d5990829886b42fd2ce258d84c6660f"}, {"bike_id": "669a8c9b64a6327241676990bd617886", "type": "electric_scooter", "is_disabled": 0, "lat": 38.921549666666664, "rental_uris": {"ios": "https://dc.lft.to/lastmile_qr_scan", "android": "https://dc.lft.to/lastmile_qr_scan"}, "is_reserved": 0, "fusion_lon": 0.0, "fusion_lat": 0.0, "lon": -77.0351355, "name": "669a8c9b64a6327241676990bd617886"}, {"bike_id": "e9b2aa355fbd144e21bbccf42a7c0de7", "type": "electric_scooter", "is_disabled": 0, "lat": 38.89478166666667, "rental_uris": {"ios": "https://dc.lft.to/lastmile_qr_scan", "android": "https://dc.lft.to/lastmile_qr_scan"}, "is_reserved": 0, "fusion_lon": 0.0, "fusion_lat": 0.0, "lon": -76.94860183333333, "name": "e9b2aa355fbd144e21bbccf42a7c0de7"}, {"bike_id": "9740dbd6d8a82d258d36242469ef9b18", "type": "electric_scooter", "is_disabled": 0, "lat": 38.90741933333334, "rental_uris": {"ios": "https://dc.lft.to/lastmile_qr_scan", "android": "https://dc.lft.to/lastmile_qr_scan"}, "is_reserved": 0, "fusion_lon": 0.0, "fusion_lat": 0.0, "lon": -77.00933266666667, "name": "9740dbd6d8a82d258d36242469ef9b18"}, {"bike_id": "2ede1329df77da6a76b25e357bbbaada", "type": "electric_scooter", "is_disabled": 0, "lat": 38.90774366666667, "rental_uris": {"ios": "https://dc.lft.to/lastmile_qr_scan", "android": "https://dc.lft.to/lastmile_qr_scan"}, "is_reserved": 0, "fusion_lon": 0.0, "fusion_lat": 0.0, "lon": -77.071454, "name": "2ede1329df77da6a76b25e357bbbaada"}, {"bike_id": "d4ef689a2713226e2bb000039e96cd13", "type": "electric_scooter", "is_disabled": 0, "lat": 38.91179, "rental_uris": {"ios": "https://dc.lft.to/lastmile_qr_scan", "android": "https://dc.lft.to/lastmile_qr_scan"}, "is_reserved": 0, "fusion_lon": 0.0, "fusion_lat": 0.0, "lon": -77.04028066666666, "name": "d4ef689a2713226e2bb000039e96cd13"}, {"bike_id": "5fbf5e88e9b67dc58caf0f9febb7323c", "type": "electric_scooter", "is_disabled": 0, "lat": 38.897018333333335, "rental_uris": {"ios": "https://dc.lft.to/lastmile_qr_scan", "android": "https://dc.lft.to/lastmile_qr_scan"}, "is_reserved": 0, "fusion_lon": 0.0, "fusion_lat": 0.0, "lon": -77.00837183333333, "name": "5fbf5e88e9b67dc58caf0f9febb7323c"}, {"bike_id": "a10b59b714e39e5e8ee1351dab22cd7f", "type": "electric_scooter", "is_disabled": 0, "lat": 38.91936033333333, "rental_uris": {"ios": "https://dc.lft.to/lastmile_qr_scan", "android": "https://dc.lft.to/lastmile_qr_scan"}, "is_reserved": 0, "fusion_lon": 0.0, "fusion_lat": 0.0, "lon": -77.03203616666667, "name": "a10b59b714e39e5e8ee1351dab22cd7f"}, {"bike_id": "9b45825e70983f74afb1987055e703ad", "type": "electric_scooter", "is_disabled": 0, "lat": 38.907090833333335, "rental_uris": {"ios": "https://dc.lft.to/lastmile_qr_scan", "android": "https://dc.lft.to/lastmile_qr_scan"}, "is_reserved": 0, "fusion_lon": 0.0, "fusion_lat": 0.0, "lon": -77.03189533333334, "name": "9b45825e70983f74afb1987055e703ad"}, {"bike_id": "74a8f76cbb285844d9dbf72c413005c2", "type": "electric_scooter", "is_disabled": 0, "lat": 38.91931533333333, "rental_uris": {"ios": "https://dc.lft.to/lastmile_qr_scan", "android": "https://dc.lft.to/lastmile_qr_scan"}, "is_reserved": 0, "fusion_lon": 0.0, "fusion_lat": 0.0, "lon": -77.04498066666666, "name": "74a8f76cbb285844d9dbf72c413005c2"}, {"bike_id": "49bce711b591abb3056b2873c024d534", "type": "electric_scooter", "is_disabled": 0, "lat": 38.89842266666667, "rental_uris": {"ios": "https://dc.lft.to/lastmile_qr_scan", "android": "https://dc.lft.to/lastmile_qr_scan"}, "is_reserved": 0, "fusion_lon": 0.0, "fusion_lat": 0.0, "lon": -76.94630716666667, "name": "49bce711b591abb3056b2873c024d534"}, {"bike_id": "339ee98539edf59fbc5161096674d9fb", "type": "electric_scooter", "is_disabled": 0, "lat": 38.913345, "rental_uris": {"ios": "https://dc.lft.to/lastmile_qr_scan", "android": "https://dc.lft.to/lastmile_qr_scan"}, "is_reserved": 0, "fusion_lon": 0.0, "fusion_lat": 0.0, "lon": -77.031917, "name": "339ee98539edf59fbc5161096674d9fb"}, {"bike_id": "c9ee759895e47f4f61553e1e405bb67e", "type": "electric_scooter", "is_disabled": 0, "lat": 38.902690666666665, "rental_uris": {"ios": "https://dc.lft.to/lastmile_qr_scan", "android": "https://dc.lft.to/lastmile_qr_scan"}, "is_reserved": 0, "fusion_lon": 0.0, "fusion_lat": 0.0, "lon": -77.05479483333333, "name": "c9ee759895e47f4f61553e1e405bb67e"}, {"bike_id": "13a0d03542cc26b73125db7a1aa3a828", "type": "electric_scooter", "is_disabled": 0, "lat": 38.92232683333334, "rental_uris": {"ios": "https://dc.lft.to/lastmile_qr_scan", "android": "https://dc.lft.to/lastmile_qr_scan"}, "is_reserved": 0, "fusion_lon": 0.0, "fusion_lat": 0.0, "lon": -77.03703383333334, "name": "13a0d03542cc26b73125db7a1aa3a828"}, {"bike_id": "0c5285db0d549131d626710c821987dc", "type": "electric_scooter", "is_disabled": 0, "lat": 38.904083166666666, "rental_uris": {"ios": "https://dc.lft.to/lastmile_qr_scan", "android": "https://dc.lft.to/lastmile_qr_scan"}, "is_reserved": 0, "fusion_lon": 0.0, "fusion_lat": 0.0, "lon": -76.9733125, "name": "0c5285db0d549131d626710c821987dc"}, {"bike_id": "3eb4e10302cd8e1d0d09f5ab6b268145", "type": "electric_scooter", "is_disabled": 0, "lat": 38.866566166666665, "rental_uris": {"ios": "https://dc.lft.to/lastmile_qr_scan", "android": "https://dc.lft.to/lastmile_qr_scan"}, "is_reserved": 0, "fusion_lon": 0.0, "fusion_lat": 0.0, "lon": -76.9888575, "name": "3eb4e10302cd8e1d0d09f5ab6b268145"}, {"bike_id": "2070c5bffd92b74f13736c178dc67251", "type": "electric_scooter", "is_disabled": 0, "lat": 38.904072666666664, "rental_uris": {"ios": "https://dc.lft.to/lastmile_qr_scan", "android": "https://dc.lft.to/lastmile_qr_scan"}, "is_reserved": 0, "fusion_lon": 0.0, "fusion_lat": 0.0, "lon": -77.06879166666667, "name": "2070c5bffd92b74f13736c178dc67251"}, {"bike_id": "f611b69de17f81069d354e7905000425", "type": "electric_bike", "is_disabled": 0, "lat": 38.8496555, "rental_uris": {"ios": "https://dc.lft.to/lastmile_qr_scan", "android": "https://dc.lft.to/lastmile_qr_scan"}, "is_reserved": 0, "fusion_lon": 0.0, "fusion_lat": 0.0, "lon": -77.0775615, "name": "f611b69de17f81069d354e7905000425"}, {"bike_id": "9851adbe8592383b52a5bcf1d4720bb6", "type": "electric_scooter", "is_disabled": 0, "lat": 38.9036975, "rental_uris": {"ios": "https://dc.lft.to/lastmile_qr_scan", "android": "https://dc.lft.to/lastmile_qr_scan"}, "is_reserved": 0, "fusion_lon": 0.0, "fusion_lat": 0.0, "lon": -77.02209116666667, "name": "9851adbe8592383b52a5bcf1d4720bb6"}, {"bike_id": "53febba2d334f111ae9a37a62302b084", "type": "electric_scooter", "is_disabled": 0, "lat": 38.91821316666667, "rental_uris": {"ios": "https://dc.lft.to/lastmile_qr_scan", "android": "https://dc.lft.to/lastmile_qr_scan"}, "is_reserved": 0, "fusion_lon": 0.0, "fusion_lat": 0.0, "lon": -77.031771, "name": "53febba2d334f111ae9a37a62302b084"}, {"bike_id": "4d8ac8ba435a05cd91722c35996ed97a", "type": "electric_scooter", "is_disabled": 0, "lat": 38.91720733333333, "rental_uris": {"ios": "https://dc.lft.to/lastmile_qr_scan", "android": "https://dc.lft.to/lastmile_qr_scan"}, "is_reserved": 0, "fusion_lon": 0.0, "fusion_lat": 0.0, "lon": -77.01206933333333, "name": "4d8ac8ba435a05cd91722c35996ed97a"}, {"bike_id": "ee2b63d7ebe34217281ef6232851d212", "type": "electric_scooter", "is_disabled": 0, "lat": 38.91674416666667, "rental_uris": {"ios": "https://dc.lft.to/lastmile_qr_scan", "android": "https://dc.lft.to/lastmile_qr_scan"}, "is_reserved": 0, "fusion_lon": 0.0, "fusion_lat": 0.0, "lon": -77.0228515, "name": "ee2b63d7ebe34217281ef6232851d212"}, {"bike_id": "699c7442d232e2e1b5f1d49798d14307", "type": "electric_scooter", "is_disabled": 0, "lat": 38.89729916666667, "rental_uris": {"ios": "https://dc.lft.to/lastmile_qr_scan", "android": "https://dc.lft.to/lastmile_qr_scan"}, "is_reserved": 0, "fusion_lon": 0.0, "fusion_lat": 0.0, "lon": -77.05473616666667, "name": "699c7442d232e2e1b5f1d49798d14307"}, {"bike_id": "5affa49d15907afeb4d08de3a02c8e93", "type": "electric_scooter", "is_disabled": 0, "lat": 38.90589033333333, "rental_uris": {"ios": "https://dc.lft.to/lastmile_qr_scan", "android": "https://dc.lft.to/lastmile_qr_scan"}, "is_reserved": 0, "fusion_lon": 0.0, "fusion_lat": 0.0, "lon": -77.02709083333333, "name": "5affa49d15907afeb4d08de3a02c8e93"}, {"bike_id": "76f79027395738a52d3b55ec3bb54802", "type": "electric_scooter", "is_disabled": 0, "lat": 38.91223383333333, "rental_uris": {"ios": "https://dc.lft.to/lastmile_qr_scan", "android": "https://dc.lft.to/lastmile_qr_scan"}, "is_reserved": 0, "fusion_lon": 0.0, "fusion_lat": 0.0, "lon": -76.987865, "name": "76f79027395738a52d3b55ec3bb54802"}, {"bike_id": "916b5cb0f13370a99578cff10013bcd9", "type": "electric_bike", "is_disabled": 0, "lat": 38.94471716666666, "rental_uris": {"ios": "https://dc.lft.to/lastmile_qr_scan", "android": "https://dc.lft.to/lastmile_qr_scan"}, "is_reserved": 0, "fusion_lon": 0.0, "fusion_lat": 0.0, "lon": -76.98688216666666, "name": "916b5cb0f13370a99578cff10013bcd9"}, {"bike_id": "0df53c12e6bb27c845badf536908ab74", "type": "electric_scooter", "is_disabled": 0, "lat": 38.9150455, "rental_uris": {"ios": "https://dc.lft.to/lastmile_qr_scan", "android": "https://dc.lft.to/lastmile_qr_scan"}, "is_reserved": 0, "fusion_lon": 0.0, "fusion_lat": 0.0, "lon": -77.01774066666667, "name": "0df53c12e6bb27c845badf536908ab74"}, {"bike_id": "1f74abaada4dbff1b172577f4ad41f97", "type": "electric_scooter", "is_disabled": 0, "lat": 38.91110033333333, "rental_uris": {"ios": "https://dc.lft.to/lastmile_qr_scan", "android": "https://dc.lft.to/lastmile_qr_scan"}, "is_reserved": 0, "fusion_lon": 0.0, "fusion_lat": 0.0, "lon": -77.02768066666667, "name": "1f74abaada4dbff1b172577f4ad41f97"}, {"bike_id": "55daa9ec311996e6b8bdd2774a978772", "type": "electric_bike", "is_disabled": 0, "lat": 38.954477833333335, "rental_uris": {"ios": "https://dc.lft.to/lastmile_qr_scan", "android": "https://dc.lft.to/lastmile_qr_scan"}, "is_reserved": 0, "fusion_lon": 0.0, "fusion_lat": 0.0, "lon": -77.03648616666666, "name": "55daa9ec311996e6b8bdd2774a978772"}, {"bike_id": "4acc464e8b8987d125f7c23bbbe1ddf6", "type": "electric_scooter", "is_disabled": 0, "lat": 38.89515516666667, "rental_uris": {"ios": "https://dc.lft.to/lastmile_qr_scan", "android": "https://dc.lft.to/lastmile_qr_scan"}, "is_reserved": 0, "fusion_lon": 0.0, "fusion_lat": 0.0, "lon": -77.04332083333334, "name": "4acc464e8b8987d125f7c23bbbe1ddf6"}, {"bike_id": "59aa491064e039c9e887508cc0cd44fb", "type": "electric_scooter", "is_disabled": 0, "lat": 38.92231483333333, "rental_uris": {"ios": "https://dc.lft.to/lastmile_qr_scan", "android": "https://dc.lft.to/lastmile_qr_scan"}, "is_reserved": 0, "fusion_lon": 0.0, "fusion_lat": 0.0, "lon": -76.97531516666666, "name": "59aa491064e039c9e887508cc0cd44fb"}, {"bike_id": "40875d0db9d5df3f7912fe0b90977aac", "type": "electric_scooter", "is_disabled": 0, "lat": 38.903702333333335, "rental_uris": {"ios": "https://dc.lft.to/lastmile_qr_scan", "android": "https://dc.lft.to/lastmile_qr_scan"}, "is_reserved": 0, "fusion_lon": 0.0, "fusion_lat": 0.0, "lon": -76.99210466666666, "name": "40875d0db9d5df3f7912fe0b90977aac"}, {"bike_id": "d3f7fdd6f1714da1c1a83cf58ddcea1d", "type": "electric_scooter", "is_disabled": 0, "lat": 38.9113795, "rental_uris": {"ios": "https://dc.lft.to/lastmile_qr_scan", "android": "https://dc.lft.to/lastmile_qr_scan"}, "is_reserved": 0, "fusion_lon": 0.0, "fusion_lat": 0.0, "lon": -77.04495733333333, "name": "d3f7fdd6f1714da1c1a83cf58ddcea1d"}, {"bike_id": "5b8f1c9bb25e862c37437eb65daf1dea", "type": "electric_scooter", "is_disabled": 0, "lat": 38.933175166666665, "rental_uris": {"ios": "https://dc.lft.to/lastmile_qr_scan", "android": "https://dc.lft.to/lastmile_qr_scan"}, "is_reserved": 0, "fusion_lon": 0.0, "fusion_lat": 0.0, "lon": -77.02749933333334, "name": "5b8f1c9bb25e862c37437eb65daf1dea"}, {"bike_id": "c54988dd1ddf82303b1d17ff8f6e68a6", "type": "electric_bike", "is_disabled": 0, "lat": 39.0509515, "rental_uris": {"ios": "https://dc.lft.to/lastmile_qr_scan", "android": "https://dc.lft.to/lastmile_qr_scan"}, "is_reserved": 0, "fusion_lon": 0.0, "fusion_lat": 0.0, "lon": -77.11759433333333, "name": "c54988dd1ddf82303b1d17ff8f6e68a6"}, {"bike_id": "94f065f0be111290703dfa245cf99648", "type": "electric_scooter", "is_disabled": 0, "lat": 38.91270266666667, "rental_uris": {"ios": "https://dc.lft.to/lastmile_qr_scan", "android": "https://dc.lft.to/lastmile_qr_scan"}, "is_reserved": 0, "fusion_lon": 0.0, "fusion_lat": 0.0, "lon": -77.0220545, "name": "94f065f0be111290703dfa245cf99648"}, {"bike_id": "63385bb2282f869db3e792ec5be3a801", "type": "electric_scooter", "is_disabled": 0, "lat": 38.92060433333333, "rental_uris": {"ios": "https://dc.lft.to/lastmile_qr_scan", "android": "https://dc.lft.to/lastmile_qr_scan"}, "is_reserved": 0, "fusion_lon": 0.0, "fusion_lat": 0.0, "lon": -77.042524, "name": "63385bb2282f869db3e792ec5be3a801"}, {"bike_id": "d7a00367f2b0a95d98485528a3e6a719", "type": "electric_scooter", "is_disabled": 0, "lat": 38.90862216666667, "rental_uris": {"ios": "https://dc.lft.to/lastmile_qr_scan", "android": "https://dc.lft.to/lastmile_qr_scan"}, "is_reserved": 0, "fusion_lon": 0.0, "fusion_lat": 0.0, "lon": -77.02228716666667, "name": "d7a00367f2b0a95d98485528a3e6a719"}, {"bike_id": "08834a30ae84209e7fee8ddae5323ea2", "type": "electric_scooter", "is_disabled": 0, "lat": 38.902574333333334, "rental_uris": {"ios": "https://dc.lft.to/lastmile_qr_scan", "android": "https://dc.lft.to/lastmile_qr_scan"}, "is_reserved": 0, "fusion_lon": 0.0, "fusion_lat": 0.0, "lon": -77.03368033333334, "name": "08834a30ae84209e7fee8ddae5323ea2"}, {"bike_id": "6e67aa85dee8e7c84facf19536a0b2e4", "type": "electric_scooter", "is_disabled": 0, "lat": 38.922345666666665, "rental_uris": {"ios": "https://dc.lft.to/lastmile_qr_scan", "android": "https://dc.lft.to/lastmile_qr_scan"}, "is_reserved": 0, "fusion_lon": 0.0, "fusion_lat": 0.0, "lon": -77.03133466666667, "name": "6e67aa85dee8e7c84facf19536a0b2e4"}, {"bike_id": "cbfd7f677d8b89c156ef73dc5472ee2a", "type": "electric_scooter", "is_disabled": 0, "lat": 38.90684066666667, "rental_uris": {"ios": "https://dc.lft.to/lastmile_qr_scan", "android": "https://dc.lft.to/lastmile_qr_scan"}, "is_reserved": 0, "fusion_lon": 0.0, "fusion_lat": 0.0, "lon": -77.026952, "name": "cbfd7f677d8b89c156ef73dc5472ee2a"}, {"bike_id": "2b329ae68fd49ddb04db257a0ea2615f", "type": "electric_scooter", "is_disabled": 0, "lat": 38.90793933333333, "rental_uris": {"ios": "https://dc.lft.to/lastmile_qr_scan", "android": "https://dc.lft.to/lastmile_qr_scan"}, "is_reserved": 0, "fusion_lon": 0.0, "fusion_lat": 0.0, "lon": -77.0482355, "name": "2b329ae68fd49ddb04db257a0ea2615f"}, {"bike_id": "8113c157e44079bbb8302b46cf80add3", "type": "electric_scooter", "is_disabled": 0, "lat": 38.896709, "rental_uris": {"ios": "https://dc.lft.to/lastmile_qr_scan", "android": "https://dc.lft.to/lastmile_qr_scan"}, "is_reserved": 0, "fusion_lon": 0.0, "fusion_lat": 0.0, "lon": -77.07131183333334, "name": "8113c157e44079bbb8302b46cf80add3"}, {"bike_id": "28e4813d6c166870965e2c3078642fc9", "type": "electric_scooter", "is_disabled": 0, "lat": 38.86630533333334, "rental_uris": {"ios": "https://dc.lft.to/lastmile_qr_scan", "android": "https://dc.lft.to/lastmile_qr_scan"}, "is_reserved": 0, "fusion_lon": 0.0, "fusion_lat": 0.0, "lon": -76.98715033333333, "name": "28e4813d6c166870965e2c3078642fc9"}, {"bike_id": "9ee0f428dc1bba6bec8fd1fddab83e3f", "type": "electric_scooter", "is_disabled": 0, "lat": 38.922899, "rental_uris": {"ios": "https://dc.lft.to/lastmile_qr_scan", "android": "https://dc.lft.to/lastmile_qr_scan"}, "is_reserved": 0, "fusion_lon": 0.0, "fusion_lat": 0.0, "lon": -77.0447515, "name": "9ee0f428dc1bba6bec8fd1fddab83e3f"}, {"bike_id": "a303cd86331b460ae27d8baf243b74b8", "type": "electric_bike", "is_disabled": 0, "lat": 38.93147533333333, "rental_uris": {"ios": "https://dc.lft.to/lastmile_qr_scan", "android": "https://dc.lft.to/lastmile_qr_scan"}, "is_reserved": 0, "fusion_lon": 0.0, "fusion_lat": 0.0, "lon": -77.07844866666667, "name": "a303cd86331b460ae27d8baf243b74b8"}, {"bike_id": "a09260576e817059e51a00733c3a109b", "type": "electric_scooter", "is_disabled": 0, "lat": 38.8877905, "rental_uris": {"ios": "https://dc.lft.to/lastmile_qr_scan", "android": "https://dc.lft.to/lastmile_qr_scan"}, "is_reserved": 0, "fusion_lon": 0.0, "fusion_lat": 0.0, "lon": -76.95523866666667, "name": "a09260576e817059e51a00733c3a109b"}, {"bike_id": "45575ce973eeaac1049ee28e7475a39f", "type": "electric_scooter", "is_disabled": 0, "lat": 38.92053216666667, "rental_uris": {"ios": "https://dc.lft.to/lastmile_qr_scan", "android": "https://dc.lft.to/lastmile_qr_scan"}, "is_reserved": 0, "fusion_lon": 0.0, "fusion_lat": 0.0, "lon": -77.03411716666666, "name": "45575ce973eeaac1049ee28e7475a39f"}, {"bike_id": "3b92b5d3e5210a5c26c522838b31a157", "type": "electric_scooter", "is_disabled": 0, "lat": 38.915600833333336, "rental_uris": {"ios": "https://dc.lft.to/lastmile_qr_scan", "android": "https://dc.lft.to/lastmile_qr_scan"}, "is_reserved": 0, "fusion_lon": 0.0, "fusion_lat": 0.0, "lon": -77.031229, "name": "3b92b5d3e5210a5c26c522838b31a157"}, {"bike_id": "18f314d2d4deb09308e1c45babda6213", "type": "electric_bike", "is_disabled": 0, "lat": 38.831578, "rental_uris": {"ios": "https://dc.lft.to/lastmile_qr_scan", "android": "https://dc.lft.to/lastmile_qr_scan"}, "is_reserved": 0, "fusion_lon": 0.0, "fusion_lat": 0.0, "lon": -76.99544133333333, "name": "18f314d2d4deb09308e1c45babda6213"}, {"bike_id": "967a0794d8119902d3f28bd147942e80", "type": "electric_scooter", "is_disabled": 0, "lat": 38.90955733333333, "rental_uris": {"ios": "https://dc.lft.to/lastmile_qr_scan", "android": "https://dc.lft.to/lastmile_qr_scan"}, "is_reserved": 0, "fusion_lon": 0.0, "fusion_lat": 0.0, "lon": -77.04544816666667, "name": "967a0794d8119902d3f28bd147942e80"}, {"bike_id": "6e98b0244762800a63b006473c1b2a79", "type": "electric_scooter", "is_disabled": 0, "lat": 38.907396, "rental_uris": {"ios": "https://dc.lft.to/lastmile_qr_scan", "android": "https://dc.lft.to/lastmile_qr_scan"}, "is_reserved": 0, "fusion_lon": 0.0, "fusion_lat": 0.0, "lon": -77.04350083333334, "name": "6e98b0244762800a63b006473c1b2a79"}, {"bike_id": "b51f2983c8ecd38081b2c9e0df633e8d", "type": "electric_scooter", "is_disabled": 0, "lat": 38.90251766666667, "rental_uris": {"ios": "https://dc.lft.to/lastmile_qr_scan", "android": "https://dc.lft.to/lastmile_qr_scan"}, "is_reserved": 0, "fusion_lon": 0.0, "fusion_lat": 0.0, "lon": -77.01833816666667, "name": "b51f2983c8ecd38081b2c9e0df633e8d"}, {"bike_id": "fa115fdc32f34023d9ccc00c715f269a", "type": "electric_scooter", "is_disabled": 0, "lat": 38.91148, "rental_uris": {"ios": "https://dc.lft.to/lastmile_qr_scan", "android": "https://dc.lft.to/lastmile_qr_scan"}, "is_reserved": 0, "fusion_lon": 0.0, "fusion_lat": 0.0, "lon": -77.02958716666667, "name": "fa115fdc32f34023d9ccc00c715f269a"}, {"bike_id": "9b3214c6f2cf7c54256ef915a103f29e", "type": "electric_scooter", "is_disabled": 0, "lat": 38.898504833333334, "rental_uris": {"ios": "https://dc.lft.to/lastmile_qr_scan", "android": "https://dc.lft.to/lastmile_qr_scan"}, "is_reserved": 0, "fusion_lon": 0.0, "fusion_lat": 0.0, "lon": -77.02212633333333, "name": "9b3214c6f2cf7c54256ef915a103f29e"}, {"bike_id": "e37c07e1a0ed7388b086d2e404f233e9", "type": "electric_bike", "is_disabled": 0, "lat": 38.897270166666665, "rental_uris": {"ios": "https://dc.lft.to/lastmile_qr_scan", "android": "https://dc.lft.to/lastmile_qr_scan"}, "is_reserved": 0, "fusion_lon": 0.0, "fusion_lat": 0.0, "lon": -77.055457, "name": "e37c07e1a0ed7388b086d2e404f233e9"}, {"bike_id": "e9d1844da988fc1825520571f67b901e", "type": "electric_scooter", "is_disabled": 0, "lat": 38.90120833333334, "rental_uris": {"ios": "https://dc.lft.to/lastmile_qr_scan", "android": "https://dc.lft.to/lastmile_qr_scan"}, "is_reserved": 0, "fusion_lon": 0.0, "fusion_lat": 0.0, "lon": -77.03075066666666, "name": "e9d1844da988fc1825520571f67b901e"}, {"bike_id": "d16173cf7f21f953efbfacdc80394d79", "type": "electric_scooter", "is_disabled": 0, "lat": 38.920076333333334, "rental_uris": {"ios": "https://dc.lft.to/lastmile_qr_scan", "android": "https://dc.lft.to/lastmile_qr_scan"},