{"data": {"bikes": [{"lon": -77.03429216666666, "fusion_lon": 0.0, "bike_id": "552aac50a7da3fd0e832237d18a2b969", "type": "electric_scooter", "name": "552aac50a7da3fd0e832237d18a2b969", "rental_uris": {"android": "https://dc.lft.to/lastmile_qr_scan", "ios": "https://dc.lft.to/lastmile_qr_scan"}, "is_disabled": 0, "fusion_lat": 0.0, "lat": 38.91796, "is_reserved": 0}, {"lon": -77.04222016666667, "fusion_lon": 0.0, "bike_id": "d5a1412f1e9dc96ad3838b6e9724fa17", "type": "electric_scooter", "name": "d5a1412f1e9dc96ad3838b6e9724fa17", "rental_uris": {"android": "https://dc.lft.to/lastmile_qr_scan", "ios": "https://dc.lft.to/lastmile_qr_scan"}, "is_disabled": 0, "fusion_lat": 0.0, "lat": 38.923160833333334, "is_reserved": 0}, {"lon": -77.02281383333333, "fusion_lon": 0.0, "bike_id": "e3b5f1b32e4c5c1d619ae88b671ffb6c", "type": "electric_scooter", "name": "e3b5f1b32e4c5c1d619ae88b671ffb6c", "rental_uris": {"android": "https://dc.lft.to/lastmile_qr_scan", "ios": "https://dc.lft.to/lastmile_qr_scan"}, "is_disabled": 0, "fusion_lat": 0.0, "lat": 38.91566233333333, "is_reserved": 0}, {"lon": -77.02979483333333, "fusion_lon": 0.0, "bike_id": "449ded1a5b171f108806aae26329d8dd", "type": "electric_scooter", "name": "449ded1a5b171f108806aae26329d8dd", "rental_uris": {"android": "https://dc.lft.to/lastmile_qr_scan", "ios": "https://dc.lft.to/lastmile_qr_scan"}, "is_disabled": 0, "fusion_lat": 0.0, "lat": 38.905252833333336, "is_reserved": 0}, {"lon": -77.02330716666667, "fusion_lon": 0.0, "bike_id": "f5b15c8c628bbb9620cc7470c45b072c", "type": "electric_scooter", "name": "f5b15c8c628bbb9620cc7470c45b072c", "rental_uris": {"android": "https://dc.lft.to/lastmile_qr_scan", "ios": "https://dc.lft.to/lastmile_qr_scan"}, "is_disabled": 0, "fusion_lat": 0.0, "lat": 38.92235133333333, "is_reserved": 0}, {"lon": -77.02695933333334, "fusion_lon": 0.0, "bike_id": "1fb97139aab5e8f2eab4410e37124ea6", "type": "electric_scooter", "name": "1fb97139aab5e8f2eab4410e37124ea6", "rental_uris": {"android": "https://dc.lft.to/lastmile_qr_scan", "ios": "https://dc.lft.to/lastmile_qr_scan"}, "is_disabled": 0, "fusion_lat": 0.0, "lat": 38.92276566666666, "is_reserved": 0}, {"lon": -77.03788016666667, "fusion_lon": 0.0, "bike_id": "b0babb8fe0e9f88e07dc225b3384c266", "type": "electric_bike", "name": "b0babb8fe0e9f88e07dc225b3384c266", "rental_uris": {"android": "https://dc.lft.to/lastmile_qr_scan", "ios": "https://dc.lft.to/lastmile_qr_scan"}, "is_disabled": 0, "fusion_lat": 0.0, "lat": 38.99680266666667, "is_reserved": 0}, {"lon": -77.048332, "fusion_lon": 0.0, "bike_id": "42c088d00a0e979090dd2808f1544175", "type": "electric_scooter", "name": "42c088d00a0e979090dd2808f1544175", "rental_uris": {"android": "https://dc.lft.to/lastmile_qr_scan", "ios": "https://dc.lft.to/lastmile_qr_scan"}, "is_disabled": 0, "fusion_lat": 0.0, "lat": 38.918455333333334, "is_reserved": 0}, {"lon": -77.028333, "fusion_lon": 0.0, "bike_id": "d3d3a8b78c3b54a8910a56514a7d7b17", "type": "electric_scooter", "name": "d3d3a8b78c3b54a8910a56514a7d7b17", "rental_uris": {"android": "https://dc.lft.to/lastmile_qr_scan", "ios": "https://dc.lft.to/lastmile_qr_scan"}, "is_disabled": 0, "fusion_lat": 0.0, "lat": 38.9223745, "is_reserved": 0}, {"lon": -77.0340745, "fusion_lon": 0.0, "bike_id": "8ab75c08508952cc5cefb78d6cd539ad", "type": "electric_scooter", "name": "8ab75c08508952cc5cefb78d6cd539ad", "rental_uris": {"android": "https://dc.lft.to/lastmile_qr_scan", "ios": "https://dc.lft.to/lastmile_qr_scan"}, "is_disabled": 0, "fusion_lat": 0.0, "lat": 38.928677, "is_reserved": 0}, {"lon": -77.03301516666667, "fusion_lon": 0.0, "bike_id": "9880300a50c140453fedc9218da2c776", "type": "electric_scooter", "name": "9880300a50c140453fedc9218da2c776", "rental_uris": {"android": "https://dc.lft.to/lastmile_qr_scan", "ios": "https://dc.lft.to/lastmile_qr_scan"}, "is_disabled": 0, "fusion_lat": 0.0, "lat": 38.92464533333333, "is_reserved": 0}, {"lon": -77.02208633333333, "fusion_lon": 0.0, "bike_id": "41cef1fe4106b7898697e158501ec562", "type": "electric_scooter", "name": "41cef1fe4106b7898697e158501ec562", "rental_uris": {"android": "https://dc.lft.to/lastmile_qr_scan", "ios": "https://dc.lft.to/lastmile_qr_scan"}, "is_disabled": 0, "fusion_lat": 0.0, "lat": 38.909709166666666, "is_reserved": 0}, {"lon": -77.021552, "fusion_lon": 0.0, "bike_id": "1a79122bf785c0d86317205fd1ab5789", "type": "electric_scooter", "name": "1a79122bf785c0d86317205fd1ab5789", "rental_uris": {"android": "https://dc.lft.to/lastmile_qr_scan", "ios": "https://dc.lft.to/lastmile_qr_scan"}, "is_disabled": 0, "fusion_lat": 0.0, "lat": 38.9246435, "is_reserved": 0}, {"lon": -77.0139025, "fusion_lon": 0.0, "bike_id": "25bb99f84abc18e336f1ba2fc572ac17", "type": "electric_scooter", "name": "25bb99f84abc18e336f1ba2fc572ac17", "rental_uris": {"android": "https://dc.lft.to/lastmile_qr_scan", "ios": "https://dc.lft.to/lastmile_qr_scan"}, "is_disabled": 0, "fusion_lat": 0.0, "lat": 38.94233033333333, "is_reserved": 0}, {"lon": -77.05097066666667, "fusion_lon": 0.0, "bike_id": "fb5ac7032d278581e7be127ddbb7e9a3", "type": "electric_scooter", "name": "fb5ac7032d278581e7be127ddbb7e9a3", "rental_uris": {"android": "https://dc.lft.to/lastmile_qr_scan", "ios": "https://dc.lft.to/lastmile_qr_scan"}, "is_disabled": 0, "fusion_lat": 0.0, "lat": 38.89977716666667, "is_reserved": 0}, {"lon": -77.0271375, "fusion_lon": 0.0, "bike_id": "df89af6b02b81b397eaad4830d304cc2", "type": "electric_scooter", "name": "df89af6b02b81b397eaad4830d304cc2", "rental_uris": {"android": "https://dc.lft.to/lastmile_qr_scan", "ios": "https://dc.lft.to/lastmile_qr_scan"}, "is_disabled": 0, "fusion_lat": 0.0, "lat": 38.90673116666667, "is_reserved": 0}, {"lon": -76.9431645, "fusion_lon": 0.0, "bike_id": "8ffbd9eabe99171f5bb8dc0c4f1c1a16", "type": "electric_bike", "name": "8ffbd9eabe99171f5bb8dc0c4f1c1a16", "rental_uris": {"android": "https://dc.lft.to/lastmile_qr_scan", "ios": "https://dc.lft.to/lastmile_qr_scan"}, "is_disabled": 0, "fusion_lat": 0.0, "lat": 38.93830616666666, "is_reserved": 0}, {"lon": -77.02222216666667, "fusion_lon": 0.0, "bike_id": "35ee4b0d9435ff07d0552030252bc533", "type": "electric_scooter", "name": "35ee4b0d9435ff07d0552030252bc533", "rental_uris": {"android": "https://dc.lft.to/lastmile_qr_scan", "ios": "https://dc.lft.to/lastmile_qr_scan"}, "is_disabled": 0, "fusion_lat": 0.0, "lat": 38.892211333333336, "is_reserved": 0}, {"lon": -77.02825066666666, "fusion_lon": 0.0, "bike_id": "1146f92b57c485957f73fa8c46b8215f", "type": "electric_scooter", "name": "1146f92b57c485957f73fa8c46b8215f", "rental_uris": {"android": "https://dc.lft.to/lastmile_qr_scan", "ios": "https://dc.lft.to/lastmile_qr_scan"}, "is_disabled": 0, "fusion_lat": 0.0, "lat": 38.886664833333334, "is_reserved": 0}, {"lon": -77.03297266666667, "fusion_lon": 0.0, "bike_id": "45f72c6a1adfbb9a986cf9065e268407", "type": "electric_scooter", "name": "45f72c6a1adfbb9a986cf9065e268407", "rental_uris": {"android": "https://dc.lft.to/lastmile_qr_scan", "ios": "https://dc.lft.to/lastmile_qr_scan"}, "is_disabled": 0, "fusion_lat": 0.0, "lat": 38.89892583333334, "is_reserved": 0}, {"lon": -77.040416, "fusion_lon": 0.0, "bike_id": "6fef5ccf124a1a076514f4601da6e29a", "type": "electric_scooter", "name": "6fef5ccf124a1a076514f4601da6e29a", "rental_uris": {"android": "https://dc.lft.to/lastmile_qr_scan", "ios": "https://dc.lft.to/lastmile_qr_scan"}, "is_disabled": 0, "fusion_lat": 0.0, "lat": 38.90583083333333, "is_reserved": 0}, {"lon": -77.00256883333333, "fusion_lon": 0.0, "bike_id": "8d781ea266201681dc68087fcb9683ac", "type": "electric_scooter", "name": "8d781ea266201681dc68087fcb9683ac", "rental_uris": {"android": "https://dc.lft.to/lastmile_qr_scan", "ios": "https://dc.lft.to/lastmile_qr_scan"}, "is_disabled": 0, "fusion_lat": 0.0, "lat": 38.894855666666665, "is_reserved": 0}, {"lon": -76.96919066666666, "fusion_lon": 0.0, "bike_id": "f2fbd8fddc8043ca3392b627ab6e47d2", "type": "electric_scooter", "name": "f2fbd8fddc8043ca3392b627ab6e47d2", "rental_uris": {"android": "https://dc.lft.to/lastmile_qr_scan", "ios": "https://dc.lft.to/lastmile_qr_scan"}, "is_disabled": 0, "fusion_lat": 0.0, "lat": 38.8552965, "is_reserved": 0}, {"lon": -77.005398, "fusion_lon": 0.0, "bike_id": "7e04a64f78bd48f5d3220f5e86b970e3", "type": "electric_scooter", "name": "7e04a64f78bd48f5d3220f5e86b970e3", "rental_uris": {"android": "https://dc.lft.to/lastmile_qr_scan", "ios": "https://dc.lft.to/lastmile_qr_scan"}, "is_disabled": 0, "fusion_lat": 0.0, "lat": 38.84651083333333, "is_reserved": 0}, {"lon": -77.0410145, "fusion_lon": 0.0, "bike_id": "1b37b7f136d0cf03a54a86269f6dc982", "type": "electric_scooter", "name": "1b37b7f136d0cf03a54a86269f6dc982", "rental_uris": {"android": "https://dc.lft.to/lastmile_qr_scan", "ios": "https://dc.lft.to/lastmile_qr_scan"}, "is_disabled": 0, "fusion_lat": 0.0, "lat": 38.910505, "is_reserved": 0}, {"lon": -77.01416566666667, "fusion_lon": 0.0, "bike_id": "35307d6376108c6ce2ec14a9da11808d", "type": "electric_scooter", "name": "35307d6376108c6ce2ec14a9da11808d", "rental_uris": {"android": "https://dc.lft.to/lastmile_qr_scan", "ios": "https://dc.lft.to/lastmile_qr_scan"}, "is_disabled": 0, "fusion_lat": 0.0, "lat": 38.928582, "is_reserved": 0}, {"lon": -77.0477185, "fusion_lon": 0.0, "bike_id": "f5ae9eebc69551850304c7037d62a860", "type": "electric_scooter", "name": "f5ae9eebc69551850304c7037d62a860", "rental_uris": {"android": "https://dc.lft.to/lastmile_qr_scan", "ios": "https://dc.lft.to/lastmile_qr_scan"}, "is_disabled": 0, "fusion_lat": 0.0, "lat": 38.917577666666666, "is_reserved": 0}, {"lon": -77.02394883333334, "fusion_lon": 0.0, "bike_id": "7089b56ace1f0ceda760372a9c3eed98", "type": "electric_scooter", "name": "7089b56ace1f0ceda760372a9c3eed98", "rental_uris": {"android": "https://dc.lft.to/lastmile_qr_scan", "ios": "https://dc.lft.to/lastmile_qr_scan"}, "is_disabled": 0, "fusion_lat": 0.0, "lat": 38.87971733333333, "is_reserved": 0}, {"lon": -77.03722816666667, "fusion_lon": 0.0, "bike_id": "5d9758508a00e242d8f980b50af9406d", "type": "electric_scooter", "name": "5d9758508a00e242d8f980b50af9406d", "rental_uris": {"android": "https://dc.lft.to/lastmile_qr_scan", "ios": "https://dc.lft.to/lastmile_qr_scan"}, "is_disabled": 0, "fusion_lat": 0.0, "lat": 38.9279915, "is_reserved": 0}, {"lon": -77.0019865, "fusion_lon": 0.0, "bike_id": "d6eaf38bb6d3af291282de1731372cfd", "type": "electric_scooter", "name": "d6eaf38bb6d3af291282de1731372cfd", "rental_uris": {"android": "https://dc.lft.to/lastmile_qr_scan", "ios": "https://dc.lft.to/lastmile_qr_scan"}, "is_disabled": 0, "fusion_lat": 0.0, "lat": 38.965100166666666, "is_reserved": 0}, {"lon": -77.03644516666667, "fusion_lon": 0.0, "bike_id": "dc67a1d7f3233fa1d440a5ff047638e7", "type": "electric_scooter", "name": "dc67a1d7f3233fa1d440a5ff047638e7", "rental_uris": {"android": "https://dc.lft.to/lastmile_qr_scan", "ios": "https://dc.lft.to/lastmile_qr_scan"}, "is_disabled": 0, "fusion_lat": 0.0, "lat": 38.9175065, "is_reserved": 0}, {"lon": -77.01097816666666, "fusion_lon": 0.0, "bike_id": "0024d88843a36c06c6b14f636b3c3493", "type": "electric_bike", "name": "0024d88843a36c06c6b14f636b3c3493", "rental_uris": {"android": "https://dc.lft.to/lastmile_qr_scan", "ios": "https://dc.lft.to/lastmile_qr_scan"}, "is_disabled": 0, "fusion_lat": 0.0, "lat": 38.87304183333333, "is_reserved": 0}, {"lon": -77.02705266666666, "fusion_lon": 0.0, "bike_id": "615e279d8ebca8963ee1ea9260d34f2d", "type": "electric_scooter", "name": "615e279d8ebca8963ee1ea9260d34f2d", "rental_uris": {"android": "https://dc.lft.to/lastmile_qr_scan", "ios": "https://dc.lft.to/lastmile_qr_scan"}, "is_disabled": 0, "fusion_lat": 0.0, "lat": 38.907843166666666, "is_reserved": 0}, {"lon": -77.05540716666667, "fusion_lon": 0.0, "bike_id": "077ea197d551224f8fe83892e4d3c68a", "type": "electric_scooter", "name": "077ea197d551224f8fe83892e4d3c68a", "rental_uris": {"android": "https://dc.lft.to/lastmile_qr_scan", "ios": "https://dc.lft.to/lastmile_qr_scan"}, "is_disabled": 0, "fusion_lat": 0.0, "lat": 38.900039166666666, "is_reserved": 0}, {"lon": -77.05514116666667, "fusion_lon": 0.0, "bike_id": "28eaaa9ab93cdfeb89cd8c0a359110f4", "type": "electric_scooter", "name": "28eaaa9ab93cdfeb89cd8c0a359110f4", "rental_uris": {"android": "https://dc.lft.to/lastmile_qr_scan", "ios": "https://dc.lft.to/lastmile_qr_scan"}, "is_disabled": 0, "fusion_lat": 0.0, "lat": 38.92951083333333, "is_reserved": 0}, {"lon": -77.0164075, "fusion_lon": 0.0, "bike_id": "f232f7c75ff51aac027982fb37f2d2b9", "type": "electric_scooter", "name": "f232f7c75ff51aac027982fb37f2d2b9", "rental_uris": {"android": "https://dc.lft.to/lastmile_qr_scan", "ios": "https://dc.lft.to/lastmile_qr_scan"}, "is_disabled": 0, "fusion_lat": 0.0, "lat": 38.88104166666667, "is_reserved": 0}, {"lon": -77.04689816666667, "fusion_lon": 0.0, "bike_id": "c1444c70a1eb3ba1de778ad2b8fdbc34", "type": "electric_scooter", "name": "c1444c70a1eb3ba1de778ad2b8fdbc34", "rental_uris": {"android": "https://dc.lft.to/lastmile_qr_scan", "ios": "https://dc.lft.to/lastmile_qr_scan"}, "is_disabled": 0, "fusion_lat": 0.0, "lat": 38.903007, "is_reserved": 0}, {"lon": -77.01887816666667, "fusion_lon": 0.0, "bike_id": "8bf7448f1d0faa1635627be9fb72da4f", "type": "electric_scooter", "name": "8bf7448f1d0faa1635627be9fb72da4f", "rental_uris": {"android": "https://dc.lft.to/lastmile_qr_scan", "ios": "https://dc.lft.to/lastmile_qr_scan"}, "is_disabled": 0, "fusion_lat": 0.0, "lat": 38.91324016666667, "is_reserved": 0}, {"lon": -77.034745, "fusion_lon": 0.0, "bike_id": "8cfd2c5da0025c533b147ccfedfd1c2f", "type": "electric_scooter", "name": "8cfd2c5da0025c533b147ccfedfd1c2f", "rental_uris": {"android": "https://dc.lft.to/lastmile_qr_scan", "ios": "https://dc.lft.to/lastmile_qr_scan"}, "is_disabled": 0, "fusion_lat": 0.0, "lat": 38.917055833333336, "is_reserved": 0}, {"lon": -77.01773333333334, "fusion_lon": 0.0, "bike_id": "8701ddfd584262a43c2b0b416cf677c5", "type": "electric_scooter", "name": "8701ddfd584262a43c2b0b416cf677c5", "rental_uris": {"android": "https://dc.lft.to/lastmile_qr_scan", "ios": "https://dc.lft.to/lastmile_qr_scan"}, "is_disabled": 0, "fusion_lat": 0.0, "lat": 38.913381, "is_reserved": 0}, {"lon": -77.04292733333334, "fusion_lon": 0.0, "bike_id": "c9ed5a743eab43ef695d5f1830978c80", "type": "electric_scooter", "name": "c9ed5a743eab43ef695d5f1830978c80", "rental_uris": {"android": "https://dc.lft.to/lastmile_qr_scan", "ios": "https://dc.lft.to/lastmile_qr_scan"}, "is_disabled": 0, "fusion_lat": 0.0, "lat": 38.908644, "is_reserved": 0}, {"lon": -77.017268, "fusion_lon": 0.0, "bike_id": "85ce41e9d095289bbf701ab8daf4c31c", "type": "electric_scooter", "name": "85ce41e9d095289bbf701ab8daf4c31c", "rental_uris": {"android": "https://dc.lft.to/lastmile_qr_scan", "ios": "https://dc.lft.to/lastmile_qr_scan"}, "is_disabled": 0, "fusion_lat": 0.0, "lat": 38.916130833333334, "is_reserved": 0}, {"lon": -77.03396733333334, "fusion_lon": 0.0, "bike_id": "4cdea7cf038b6fdb37c18d5be474aa25", "type": "electric_scooter", "name": "4cdea7cf038b6fdb37c18d5be474aa25", "rental_uris": {"android": "https://dc.lft.to/lastmile_qr_scan", "ios": "https://dc.lft.to/lastmile_qr_scan"}, "is_disabled": 0, "fusion_lat": 0.0, "lat": 38.92213533333333, "is_reserved": 0}, {"lon": -77.03516666666667, "fusion_lon": 0.0, "bike_id": "7738c2e4b0456d027bae5269d827557f", "type": "electric_scooter", "name": "7738c2e4b0456d027bae5269d827557f", "rental_uris": {"android": "https://dc.lft.to/lastmile_qr_scan", "ios": "https://dc.lft.to/lastmile_qr_scan"}, "is_disabled": 0, "fusion_lat": 0.0, "lat": 38.922007, "is_reserved": 0}, {"lon": -77.03046366666666, "fusion_lon": 0.0, "bike_id": "efe83d91fc054f053d450faa79882fe0", "type": "electric_scooter", "name": "efe83d91fc054f053d450faa79882fe0", "rental_uris": {"android": "https://dc.lft.to/lastmile_qr_scan", "ios": "https://dc.lft.to/lastmile_qr_scan"}, "is_disabled": 0, "fusion_lat": 0.0, "lat": 38.91628333333333, "is_reserved": 0}, {"lon": -77.0007065, "fusion_lon": 0.0, "bike_id": "d9803cf0bb02ab1edb5e45ead688d7f1", "type": "electric_scooter", "name": "d9803cf0bb02ab1edb5e45ead688d7f1", "rental_uris": {"android": "https://dc.lft.to/lastmile_qr_scan", "ios": "https://dc.lft.to/lastmile_qr_scan"}, "is_disabled": 0, "fusion_lat": 0.0, "lat": 38.873833, "is_reserved": 0}, {"lon": -77.04146, "fusion_lon": 0.0, "bike_id": "7121f9c132f69805c495cc6e3d20adbc", "type": "electric_scooter", "name": "7121f9c132f69805c495cc6e3d20adbc", "rental_uris": {"android": "https://dc.lft.to/lastmile_qr_scan", "ios": "https://dc.lft.to/lastmile_qr_scan"}, "is_disabled": 0, "fusion_lat": 0.0, "lat": 38.91963633333334, "is_reserved": 0}, {"lon": -77.0200865, "fusion_lon": 0.0, "bike_id": "072d33fb2a216ab3eca36c8e8ef95b6f", "type": "electric_scooter", "name": "072d33fb2a216ab3eca36c8e8ef95b6f", "rental_uris": {"android": "https://dc.lft.to/lastmile_qr_scan", "ios": "https://dc.lft.to/lastmile_qr_scan"}, "is_disabled": 0, "fusion_lat": 0.0, "lat": 38.913694166666666, "is_reserved": 0}, {"lon": -76.9801155, "fusion_lon": 0.0, "bike_id": "0bb51b5170d56ddfb5233a71d47130ba", "type": "electric_scooter", "name": "0bb51b5170d56ddfb5233a71d47130ba", "rental_uris": {"android": "https://dc.lft.to/lastmile_qr_scan", "ios": "https://dc.lft.to/lastmile_qr_scan"}, "is_disabled": 0, "fusion_lat": 0.0, "lat": 38.904491666666665, "is_reserved": 0}, {"lon": -77.03366816666667, "fusion_lon": 0.0, "bike_id": "b9daa6268e3235204ddcfa1febaa8e1f", "type": "electric_scooter", "name": "b9daa6268e3235204ddcfa1febaa8e1f", "rental_uris": {"android": "https://dc.lft.to/lastmile_qr_scan", "ios": "https://dc.lft.to/lastmile_qr_scan"}, "is_disabled": 0, "fusion_lat": 0.0, "lat": 38.919307333333336, "is_reserved": 0}, {"lon": -77.00435666666667, "fusion_lon": 0.0, "bike_id": "61f810eaddf72bbe92241cd1b0ecdeb0", "type": "electric_bike", "name": "61f810eaddf72bbe92241cd1b0ecdeb0", "rental_uris": {"android": "https://dc.lft.to/lastmile_qr_scan", "ios": "https://dc.lft.to/lastmile_qr_scan"}, "is_disabled": 0, "fusion_lat": 0.0, "lat": 38.9119735, "is_reserved": 0}, {"lon": -77.03001416666666, "fusion_lon": 0.0, "bike_id": "17ad345f8292745df0c8eb90d0aaea68", "type": "electric_scooter", "name": "17ad345f8292745df0c8eb90d0aaea68", "rental_uris": {"android": "https://dc.lft.to/lastmile_qr_scan", "ios": "https://dc.lft.to/lastmile_qr_scan"}, "is_disabled": 0, "fusion_lat": 0.0, "lat": 38.896303, "is_reserved": 0}, {"lon": -77.0466965, "fusion_lon": 0.0, "bike_id": "6d929f33166461fbab32da2fdf5f110e", "type": "electric_scooter", "name": "6d929f33166461fbab32da2fdf5f110e", "rental_uris": {"android": "https://dc.lft.to/lastmile_qr_scan", "ios": "https://dc.lft.to/lastmile_qr_scan"}, "is_disabled": 0, "fusion_lat": 0.0, "lat": 38.908861333333334, "is_reserved": 0}, {"lon": -77.03639266666667, "fusion_lon": 0.0, "bike_id": "733c5a0b87b336f595666f894187eeb6", "type": "electric_scooter", "name": "733c5a0b87b336f595666f894187eeb6", "rental_uris": {"android": "https://dc.lft.to/lastmile_qr_scan", "ios": "https://dc.lft.to/lastmile_qr_scan"}, "is_disabled": 0, "fusion_lat": 0.0, "lat": 38.924153, "is_reserved": 0}, {"lon": -76.98087083333333, "fusion_lon": 0.0, "bike_id": "8878a3a74cb785543db0db57d4567303", "type": "electric_scooter", "name": "8878a3a74cb785543db0db57d4567303", "rental_uris": {"android": "https://dc.lft.to/lastmile_qr_scan", "ios": "https://dc.lft.to/lastmile_qr_scan"}, "is_disabled": 0, "fusion_lat": 0.0, "lat": 38.92250283333333, "is_reserved": 0}, {"lon": -77.02350133333333, "fusion_lon": 0.0, "bike_id": "fde4857e6426045275393f0ee19b06f0", "type": "electric_scooter", "name": "fde4857e6426045275393f0ee19b06f0", "rental_uris": {"android": "https://dc.lft.to/lastmile_qr_scan", "ios": "https://dc.lft.to/lastmile_qr_scan"}, "is_disabled": 0, "fusion_lat": 0.0, "lat": 38.893966166666665, "is_reserved": 0}, {"lon": -77.03250666666666, "fusion_lon": 0.0, "bike_id": "3c1fc33bfb75c01dce65e24c8144762b", "type": "electric_scooter", "name": "3c1fc33bfb75c01dce65e24c8144762b", "rental_uris": {"android": "https://dc.lft.to/lastmile_qr_scan", "ios": "https://dc.lft.to/lastmile_qr_scan"}, "is_disabled": 0, "fusion_lat": 0.0, "lat": 38.9015205, "is_reserved": 0}, {"lon": -77.02177066666667, "fusion_lon": 0.0, "bike_id": "e42fa96291ed4444fefa6c45d506bcbb", "type": "electric_scooter", "name": "e42fa96291ed4444fefa6c45d506bcbb", "rental_uris": {"android": "https://dc.lft.to/lastmile_qr_scan", "ios": "https://dc.lft.to/lastmile_qr_scan"}, "is_disabled": 0, "fusion_lat": 0.0, "lat": 38.92867733333333, "is_reserved": 0}, {"lon": -76.93365666666666, "fusion_lon": 0.0, "bike_id": "4e878472457287277fda515c5279a015", "type": "electric_scooter", "name": "4e878472457287277fda515c5279a015", "rental_uris": {"android": "https://dc.lft.to/lastmile_qr_scan", "ios": "https://dc.lft.to/lastmile_qr_scan"}, "is_disabled": 0, "fusion_lat": 0.0, "lat": 38.89907733333333, "is_reserved": 0}, {"lon": -76.99499966666667, "fusion_lon": 0.0, "bike_id": "b3ec1250bb46e7476653bcad429b9a6b", "type": "electric_scooter", "name": "b3ec1250bb46e7476653bcad429b9a6b", "rental_uris": {"android": "https://dc.lft.to/lastmile_qr_scan", "ios": "https://dc.lft.to/lastmile_qr_scan"}, "is_disabled": 0, "fusion_lat": 0.0, "lat": 38.90986016666667, "is_reserved": 0}, {"lon": -77.0199475, "fusion_lon": 0.0, "bike_id": "49594732cb1f9b2ee2e28937a22abff7", "type": "electric_scooter", "name": "49594732cb1f9b2ee2e28937a22abff7", "rental_uris": {"android": "https://dc.lft.to/lastmile_qr_scan", "ios": "https://dc.lft.to/lastmile_qr_scan"}, "is_disabled": 0, "fusion_lat": 0.0, "lat": 38.92290766666667, "is_reserved": 0}, {"lon": -77.03386583333334, "fusion_lon": 0.0, "bike_id": "d525c0aa31fe0c3d0e776d2b9dd5ec8f", "type": "electric_scooter", "name": "d525c0aa31fe0c3d0e776d2b9dd5ec8f", "rental_uris": {"android": "https://dc.lft.to/lastmile_qr_scan", "ios": "https://dc.lft.to/lastmile_qr_scan"}, "is_disabled": 0, "fusion_lat": 0.0, "lat": 38.921580666666664, "is_reserved": 0}, {"lon": -77.033436, "fusion_lon": 0.0, "bike_id": "a90533b9cac07e71e08d1e20f915e223", "type": "electric_scooter", "name": "a90533b9cac07e71e08d1e20f915e223", "rental_uris": {"android": "https://dc.lft.to/lastmile_qr_scan", "ios": "https://dc.lft.to/lastmile_qr_scan"}, "is_disabled": 0, "fusion_lat": 0.0, "lat": 38.921630666666665, "is_reserved": 0}, {"lon": -77.0597505, "fusion_lon": 0.0, "bike_id": "4a477c1c49f1069fe5fb5cc9bd95fdfb", "type": "electric_scooter", "name": "4a477c1c49f1069fe5fb5cc9bd95fdfb", "rental_uris": {"android": "https://dc.lft.to/lastmile_qr_scan", "ios": "https://dc.lft.to/lastmile_qr_scan"}, "is_disabled": 0, "fusion_lat": 0.0, "lat": 38.9011255, "is_reserved": 0}, {"lon": -77.00283483333334, "fusion_lon": 0.0, "bike_id": "0aaa6e5dd5eb73267b3f37c6e5a0ef39", "type": "electric_bike", "name": "0aaa6e5dd5eb73267b3f37c6e5a0ef39", "rental_uris": {"android": "https://dc.lft.to/lastmile_qr_scan", "ios": "https://dc.lft.to/lastmile_qr_scan"}, "is_disabled": 0, "fusion_lat": 0.0, "lat": 38.95711466666667, "is_reserved": 0}, {"lon": -77.0241105, "fusion_lon": 0.0, "bike_id": "f032b7990c65c8d2c1b5544dfd98bbae", "type": "electric_scooter", "name": "f032b7990c65c8d2c1b5544dfd98bbae", "rental_uris": {"android": "https://dc.lft.to/lastmile_qr_scan", "ios": "https://dc.lft.to/lastmile_qr_scan"}, "is_disabled": 0, "fusion_lat": 0.0, "lat": 38.91404133333333, "is_reserved": 0}, {"lon": -77.02987533333334, "fusion_lon": 0.0, "bike_id": "cebc9d3a75d6d65dcbc3f33df5b1daea", "type": "electric_bike", "name": "cebc9d3a75d6d65dcbc3f33df5b1daea", "rental_uris": {"android": "https://dc.lft.to/lastmile_qr_scan", "ios": "https://dc.lft.to/lastmile_qr_scan"}, "is_disabled": 0, "fusion_lat": 0.0, "lat": 38.92418816666667, "is_reserved": 0}, {"lon": -77.0633985, "fusion_lon": 0.0, "bike_id": "9848c37f794e4965be408abae245e4d5", "type": "electric_scooter", "name": "9848c37f794e4965be408abae245e4d5", "rental_uris": {"android": "https://dc.lft.to/lastmile_qr_scan", "ios": "https://dc.lft.to/lastmile_qr_scan"}, "is_disabled": 0, "fusion_lat": 0.0, "lat": 38.906869666666665, "is_reserved": 0}, {"lon": -77.03064666666667, "fusion_lon": 0.0, "bike_id": "394eb9b7587e5fc039889abad8d935a3", "type": "electric_scooter", "name": "394eb9b7587e5fc039889abad8d935a3", "rental_uris": {"android": "https://dc.lft.to/lastmile_qr_scan", "ios": "https://dc.lft.to/lastmile_qr_scan"}, "is_disabled": 0, "fusion_lat": 0.0, "lat": 38.92250833333333, "is_reserved": 0}, {"lon": -77.01902433333333, "fusion_lon": 0.0, "bike_id": "8490c99faede2312dd7104099be25516", "type": "electric_scooter", "name": "8490c99faede2312dd7104099be25516", "rental_uris": {"android": "https://dc.lft.to/lastmile_qr_scan", "ios": "https://dc.lft.to/lastmile_qr_scan"}, "is_disabled": 0, "fusion_lat": 0.0, "lat": 38.9093165, "is_reserved": 0}, {"lon": -76.97329116666667, "fusion_lon": 0.0, "bike_id": "de231d16a06316fe47e965ef5e84787c", "type": "electric_scooter", "name": "de231d16a06316fe47e965ef5e84787c", "rental_uris": {"android": "https://dc.lft.to/lastmile_qr_scan", "ios": "https://dc.lft.to/lastmile_qr_scan"}, "is_disabled": 0, "fusion_lat": 0.0, "lat": 38.90416716666667, "is_reserved": 0}, {"lon": -77.01262816666667, "fusion_lon": 0.0, "bike_id": "c66d3afdc2e81fab50d3d06960a9eb21", "type": "electric_scooter", "name": "c66d3afdc2e81fab50d3d06960a9eb21", "rental_uris": {"android": "https://dc.lft.to/lastmile_qr_scan", "ios": "https://dc.lft.to/lastmile_qr_scan"}, "is_disabled": 0, "fusion_lat": 0.0, "lat": 38.91553666666667, "is_reserved": 0}, {"lon": -77.02810033333333, "fusion_lon": 0.0, "bike_id": "3a7e3341890f1c0884d5182fadabedd0", "type": "electric_scooter", "name": "3a7e3341890f1c0884d5182fadabedd0", "rental_uris": {"android": "https://dc.lft.to/lastmile_qr_scan", "ios": "https://dc.lft.to/lastmile_qr_scan"}, "is_disabled": 0, "fusion_lat": 0.0, "lat": 38.930836, "is_reserved": 0}, {"lon": -77.03334783333334, "fusion_lon": 0.0, "bike_id": "59d5dd13f3490724e8075bd40daf4ba4", "type": "electric_scooter", "name": "59d5dd13f3490724e8075bd40daf4ba4", "rental_uris": {"android": "https://dc.lft.to/lastmile_qr_scan", "ios": "https://dc.lft.to/lastmile_qr_scan"}, "is_disabled": 0, "fusion_lat": 0.0, "lat": 38.90288833333334, "is_reserved": 0}, {"lon": -77.16237683333334, "fusion_lon": 0.0, "bike_id": "d8d558381ca2d754a21cc2b4f66b9fde", "type": "electric_bike", "name": "d8d558381ca2d754a21cc2b4f66b9fde", "rental_uris": {"android": "https://dc.lft.to/lastmile_qr_scan", "ios": "https://dc.lft.to/lastmile_qr_scan"}, "is_disabled": 0, "fusion_lat": 0.0, "lat": 38.8866645, "is_reserved": 0}, {"lon": -77.001989, "fusion_lon": 0.0, "bike_id": "193fae3f893c8fa546b19ac27c5b5047", "type": "electric_scooter", "name": "193fae3f893c8fa546b19ac27c5b5047", "rental_uris": {"android": "https://dc.lft.to/lastmile_qr_scan", "ios": "https://dc.lft.to/lastmile_qr_scan"}, "is_disabled": 0, "fusion_lat": 0.0, "lat": 38.902442, "is_reserved": 0}, {"lon": -77.03176983333333, "fusion_lon": 0.0, "bike_id": "febb4980141ae36f11788944bebd8239", "type": "electric_scooter", "name": "febb4980141ae36f11788944bebd8239", "rental_uris": {"android": "https://dc.lft.to/lastmile_qr_scan", "ios": "https://dc.lft.to/lastmile_qr_scan"}, "is_disabled": 0, "fusion_lat": 0.0, "lat": 38.91607716666667, "is_reserved": 0}, {"lon": -77.02391466666667, "fusion_lon": 0.0, "bike_id": "801f9b527db4d69ec97eda73852383a3", "type": "electric_scooter", "name": "801f9b527db4d69ec97eda73852383a3", "rental_uris": {"android": "https://dc.lft.to/lastmile_qr_scan", "ios": "https://dc.lft.to/lastmile_qr_scan"}, "is_disabled": 0, "fusion_lat": 0.0, "lat": 38.920076, "is_reserved": 0}, {"lon": -77.04827883333333, "fusion_lon": 0.0, "bike_id": "65afcf728f0be4bdc7e25faf6d53a7ea", "type": "electric_scooter", "name": "65afcf728f0be4bdc7e25faf6d53a7ea", "rental_uris": {"android": "https://dc.lft.to/lastmile_qr_scan", "ios": "https://dc.lft.to/lastmile_qr_scan"}, "is_disabled": 0, "fusion_lat": 0.0, "lat": 38.9007765, "is_reserved": 0}, {"lon": -77.00713933333333, "fusion_lon": 0.0, "bike_id": "075d432596e52bf4a0c182611ae1ce68", "type": "electric_scooter", "name": "075d432596e52bf4a0c182611ae1ce68", "rental_uris": {"android": "https://dc.lft.to/lastmile_qr_scan", "ios": "https://dc.lft.to/lastmile_qr_scan"}, "is_disabled": 0, "fusion_lat": 0.0, "lat": 38.88495283333334, "is_reserved": 0}, {"lon": -77.01039483333334, "fusion_lon": 0.0, "bike_id": "a943870a0c6747e63b360d6b077a128f", "type": "electric_bike", "name": "a943870a0c6747e63b360d6b077a128f", "rental_uris": {"android": "https://dc.lft.to/lastmile_qr_scan", "ios": "https://dc.lft.to/lastmile_qr_scan"}, "is_disabled": 0, "fusion_lat": 0.0, "lat": 38.91699716666667, "is_reserved": 0}, {"lon": -77.0505095, "fusion_lon": 0.0, "bike_id": "cdd2b40f17d75e1b4f68071b28eee4f8", "type": "electric_scooter", "name": "cdd2b40f17d75e1b4f68071b28eee4f8", "rental_uris": {"android": "https://dc.lft.to/lastmile_qr_scan", "ios": "https://dc.lft.to/lastmile_qr_scan"}, "is_disabled": 0, "fusion_lat": 0.0, "lat": 38.9054365, "is_reserved": 0}, {"lon": -77.02714416666667, "fusion_lon": 0.0, "bike_id": "0c19752757ff10c752b0300cd34d5091", "type": "electric_scooter", "name": "0c19752757ff10c752b0300cd34d5091", "rental_uris": {"android": "https://dc.lft.to/lastmile_qr_scan", "ios": "https://dc.lft.to/lastmile_qr_scan"}, "is_disabled": 0, "fusion_lat": 0.0, "lat": 38.92464666666667, "is_reserved": 0}, {"lon": -77.03970116666666, "fusion_lon": 0.0, "bike_id": "d3a52a05f24b1060ed0704c9e9b8a56c", "type": "electric_scooter", "name": "d3a52a05f24b1060ed0704c9e9b8a56c", "rental_uris": {"android": "https://dc.lft.to/lastmile_qr_scan", "ios": "https://dc.lft.to/lastmile_qr_scan"}, "is_disabled": 0, "fusion_lat": 0.0, "lat": 38.895388833333335, "is_reserved": 0}, {"lon": -77.00660983333333, "fusion_lon": 0.0, "bike_id": "5a12cdc7589a7698b9799e4fdde210ca", "type": "electric_scooter", "name": "5a12cdc7589a7698b9799e4fdde210ca", "rental_uris": {"android": "https://dc.lft.to/lastmile_qr_scan", "ios": "https://dc.lft.to/lastmile_qr_scan"}, "is_disabled": 0, "fusion_lat": 0.0, "lat": 38.8970225, "is_reserved": 0}, {"lon": -77.032849, "fusion_lon": 0.0, "bike_id": "8a4710d19cbc4b450cd4fc0dd6cac80d", "type": "electric_scooter", "name": "8a4710d19cbc4b450cd4fc0dd6cac80d", "rental_uris": {"android": "https://dc.lft.to/lastmile_qr_scan", "ios": "https://dc.lft.to/lastmile_qr_scan"}, "is_disabled": 0, "fusion_lat": 0.0, "lat": 38.9378455, "is_reserved": 0}, {"lon": -76.99692033333334, "fusion_lon": 0.0, "bike_id": "d32b4bc75939f9e56c26ea901bd5fcc4", "type": "electric_scooter", "name": "d32b4bc75939f9e56c26ea901bd5fcc4", "rental_uris": {"android": "https://dc.lft.to/lastmile_qr_scan", "ios": "https://dc.lft.to/lastmile_qr_scan"}, "is_disabled": 0, "fusion_lat": 0.0, "lat": 38.9220535, "is_reserved": 0}, {"lon": -76.988797, "fusion_lon": 0.0, "bike_id": "95e11912b6c9554c388be2647840af40", "type": "electric_scooter", "name": "95e11912b6c9554c388be2647840af40", "rental_uris": {"android": "https://dc.lft.to/lastmile_qr_scan", "ios": "https://dc.lft.to/lastmile_qr_scan"}, "is_disabled": 0, "fusion_lat": 0.0, "lat": 38.8666305, "is_reserved": 0}, {"lon": -77.22882116666666, "fusion_lon": 0.0, "bike_id": "ab6be2f45c07c754a84b6c6a3b22b24c", "type": "electric_bike", "name": "ab6be2f45c07c754a84b6c6a3b22b24c", "rental_uris": {"android": "https://dc.lft.to/lastmile_qr_scan", "ios": "https://dc.lft.to/lastmile_qr_scan"}, "is_disabled": 0, "fusion_lat": 0.0, "lat": 38.90962433333333, "is_reserved": 0}, {"lon": -76.97827966666667, "fusion_lon": 0.0, "bike_id": "a19ffd2f4c1e391be42e3951dcb30d08", "type": "electric_scooter", "name": "a19ffd2f4c1e391be42e3951dcb30d08", "rental_uris": {"android": "https://dc.lft.to/lastmile_qr_scan", "ios": "https://dc.lft.to/lastmile_qr_scan"}, "is_disabled": 0, "fusion_lat": 0.0, "lat": 38.898481, "is_reserved": 0}, {"lon": -77.02971316666667, "fusion_lon": 0.0, "bike_id": "9184ed8f4b7e21fd6647fd0998862d59", "type": "electric_scooter", "name": "9184ed8f4b7e21fd6647fd0998862d59", "rental_uris": {"android": "https://dc.lft.to/lastmile_qr_scan", "ios": "https://dc.lft.to/lastmile_qr_scan"}, "is_disabled": 0, "fusion_lat": 0.0, "lat": 38.92102666666667, "is_reserved": 0}, {"lon": -77.03319666666667, "fusion_lon": 0.0, "bike_id": "9fbeb76d5c6475c1cee590b3cfcc0eed", "type": "electric_scooter", "name": "9fbeb76d5c6475c1cee590b3cfcc0eed", "rental_uris": {"android": "https://dc.lft.to/lastmile_qr_scan", "ios": "https://dc.lft.to/lastmile_qr_scan"}, "is_disabled": 0, "fusion_lat": 0.0, "lat": 38.898056, "is_reserved": 0}, {"lon": -77.019783, "fusion_lon": 0.0, "bike_id": "749201d86d563e1061761b74ebefcba9", "type": "electric_scooter", "name": "749201d86d563e1061761b74ebefcba9", "rental_uris": {"android": "https://dc.lft.to/lastmile_qr_scan", "ios": "https://dc.lft.to/lastmile_qr_scan"}, "is_disabled": 0, "fusion_lat": 0.0, "lat": 38.905079, "is_reserved": 0}, {"lon": -77.03042766666667, "fusion_lon": 0.0, "bike_id": "b143111418cd16318cf49306d6c468e4", "type": "electric_scooter", "name": "b143111418cd16318cf49306d6c468e4", "rental_uris": {"android": "https://dc.lft.to/lastmile_qr_scan", "ios": "https://dc.lft.to/lastmile_qr_scan"}, "is_disabled": 0, "fusion_lat": 0.0, "lat": 38.923734833333334, "is_reserved": 0}, {"lon": -76.98176366666667, "fusion_lon": 0.0, "bike_id": "3923b72d8a5cc66b33637c9adecd9abd", "type": "electric_scooter", "name": "3923b72d8a5cc66b33637c9adecd9abd", "rental_uris": {"android": "https://dc.lft.to/lastmile_qr_scan", "ios": "https://dc.lft.to/lastmile_qr_scan"}, "is_disabled": 0, "fusion_lat": 0.0, "lat": 38.869688833333335, "is_reserved": 0}, {"lon": -77.0115285, "fusion_lon": 0.0, "bike_id": "6298c81c3c1b7eb4322f802879ba4506", "type": "electric_scooter", "name": "6298c81c3c1b7eb4322f802879ba4506", "rental_uris": {"android": "https://dc.lft.to/lastmile_qr_scan", "ios": "https://dc.lft.to/lastmile_qr_scan"}, "is_disabled": 0, "fusion_lat": 0.0, "lat": 38.89645, "is_reserved": 0}, {"lon": -77.04499533333333, "fusion_lon": 0.0, "bike_id": "0bda40b86393ccfa801deee3be5dab41", "type": "electric_scooter", "name": "0bda40b86393ccfa801deee3be5dab41", "rental_uris": {"android": "https://dc.lft.to/lastmile_qr_scan", "ios": "https://dc.lft.to/lastmile_qr_scan"}, "is_disabled": 0, "fusion_lat": 0.0, "lat": 38.91945466666667, "is_reserved": 0}, {"lon": -77.03849366666667, "fusion_lon": 0.0, "bike_id": "13d27154ff8ea7d22731469628fb9971", "type": "electric_scooter", "name": "13d27154ff8ea7d22731469628fb9971", "rental_uris": {"android": "https://dc.lft.to/lastmile_qr_scan", "ios": "https://dc.lft.to/lastmile_qr_scan"}, "is_disabled": 0, "fusion_lat": 0.0, "lat": 38.924670166666665, "is_reserved": 0}, {"lon": -77.01363833333333, "fusion_lon": 0.0, "bike_id": "8f6c4202dc08e6e3fe101d23869104aa", "type": "electric_scooter", "name": "8f6c4202dc08e6e3fe101d23869104aa", "rental_uris": {"android": "https://dc.lft.to/lastmile_qr_scan", "ios": "https://dc.lft.to/lastmile_qr_scan"}, "is_disabled": 0, "fusion_lat": 0.0, "lat": 38.9287975, "is_reserved": 0}, {"lon": -77.003626, "fusion_lon": 0.0, "bike_id": "52b4da3b402a4abbaeba99efcc727683", "type": "electric_scooter", "name": "52b4da3b402a4abbaeba99efcc727683", "rental_uris": {"android": "https://dc.lft.to/lastmile_qr_scan", "ios": "https://dc.lft.to/lastmile_qr_scan"}, "is_disabled": 0, "fusion_lat": 0.0, "lat": 38.87718533333334, "is_reserved": 0}, {"lon": -77.04357466666667, "fusion_lon": 0.0, "bike_id": "d65f548ac0e5474ed8cc1b567d11ad6d", "type": "electric_scooter", "name": "d65f548ac0e5474ed8cc1b567d11ad6d", "rental_uris": {"android": "https://dc.lft.to/lastmile_qr_scan", "ios": "https://dc.lft.to/lastmile_qr_scan"}, "is_disabled": 0, "fusion_lat": 0.0, "lat": 38.873949, "is_reserved": 0}, {"lon": -77.0295725, "fusion_lon": 0.0, "bike_id": "911f65a8e38e456c168da88b3daedbfa", "type": "electric_scooter", "name": "911f65a8e38e456c168da88b3daedbfa", "rental_uris": {"android": "https://dc.lft.to/lastmile_qr_scan", "ios": "https://dc.lft.to/lastmile_qr_scan"}, "is_disabled": 0, "fusion_lat": 0.0, "lat": 38.92275766666667, "is_reserved": 0}, {"lon": -77.03402266666667, "fusion_lon": 0.0, "bike_id": "b4348c7940dc0eae5874bc424f4f45a4", "type": "electric_scooter", "name": "b4348c7940dc0eae5874bc424f4f45a4", "rental_uris": {"android": "https://dc.lft.to/lastmile_qr_scan", "ios": "https://dc.lft.to/lastmile_qr_scan"}, "is_disabled": 0, "fusion_lat": 0.0, "lat": 38.90369783333333, "is_reserved": 0}, {"lon": -77.00329583333334, "fusion_lon": 0.0, "bike_id": "3f80b83d61750dcaa3bba35b8dc39d81", "type": "electric_scooter", "name": "3f80b83d61750dcaa3bba35b8dc39d81", "rental_uris": {"android": "https://dc.lft.to/lastmile_qr_scan", "ios": "https://dc.lft.to/lastmile_qr_scan"}, "is_disabled": 0, "fusion_lat": 0.0, "lat": 38.88504966666667, "is_reserved": 0}, {"lon": -77.019781, "fusion_lon": 0.0, "bike_id": "6bfa739aaf56edd8cc7172800b7c3f3e", "type": "electric_scooter", "name": "6bfa739aaf56edd8cc7172800b7c3f3e", "rental_uris": {"android": "https://dc.lft.to/lastmile_qr_scan", "ios": "https://dc.lft.to/lastmile_qr_scan"}, "is_disabled": 0, "fusion_lat": 0.0, "lat": 38.893715, "is_reserved": 0}, {"lon": -77.0337395, "fusion_lon": 0.0, "bike_id": "6e801d7979fc8ef3535ee40ea641200b", "type": "electric_scooter", "name": "6e801d7979fc8ef3535ee40ea641200b", "rental_uris": {"android": "https://dc.lft.to/lastmile_qr_scan", "ios": "https://dc.lft.to/lastmile_qr_scan"}, "is_disabled": 0, "fusion_lat": 0.0, "lat": 38.9306255, "is_reserved": 0}, {"lon": -77.04976316666666, "fusion_lon": 0.0, "bike_id": "fc79ea650c794c315fd69b8dad372efa", "type": "electric_scooter", "name": "fc79ea650c794c315fd69b8dad372efa", "rental_uris": {"android": "https://dc.lft.to/lastmile_qr_scan", "ios": "https://dc.lft.to/lastmile_qr_scan"}, "is_disabled": 0, "fusion_lat": 0.0, "lat": 38.917922, "is_reserved": 0}, {"lon": -76.98694733333333, "fusion_lon": 0.0, "bike_id": "f742c1a8975d8b4ce6f85ef8e0f7471f", "type": "electric_scooter", "name": "f742c1a8975d8b4ce6f85ef8e0f7471f", "rental_uris": {"android": "https://dc.lft.to/lastmile_qr_scan", "ios": "https://dc.lft.to/lastmile_qr_scan"}, "is_disabled": 0, "fusion_lat": 0.0, "lat": 38.86727533333333, "is_reserved": 0}, {"lon": -77.02712, "fusion_lon": 0.0, "bike_id": "4f81eb3cbcd85be03905c647b16f3a4b", "type": "electric_scooter", "name": "4f81eb3cbcd85be03905c647b16f3a4b", "rental_uris": {"android": "https://dc.lft.to/lastmile_qr_scan", "ios": "https://dc.lft.to/lastmile_qr_scan"}, "is_disabled": 0, "fusion_lat": 0.0, "lat": 38.88140333333333, "is_reserved": 0}, {"lon": -77.03847216666666, "fusion_lon": 0.0, "bike_id": "1dd0e136208a22124c878e5e67ef2ad6", "type": "electric_scooter", "name": "1dd0e136208a22124c878e5e67ef2ad6", "rental_uris": {"android": "https://dc.lft.to/lastmile_qr_scan", "ios": "https://dc.lft.to/lastmile_qr_scan"}, "is_disabled": 0, "fusion_lat": 0.0, "lat": 38.903093166666665, "is_reserved": 0}, {"lon": -76.965289, "fusion_lon": 0.0, "bike_id": "b1596400af4af6b04adf1b8bb6984bc2", "type": "electric_scooter", "name": "b1596400af4af6b04adf1b8bb6984bc2", "rental_uris": {"android": "https://dc.lft.to/lastmile_qr_scan", "ios": "https://dc.lft.to/lastmile_qr_scan"}, "is_disabled": 0, "fusion_lat": 0.0, "lat": 38.87630766666667, "is_reserved": 0}, {"lon": -77.003739, "fusion_lon": 0.0, "bike_id": "2f334157f6274e75cf42cfd1a72a01e6", "type": "electric_scooter", "name": "2f334157f6274e75cf42cfd1a72a01e6", "rental_uris": {"android": "https://dc.lft.to/lastmile_qr_scan", "ios": "https://dc.lft.to/lastmile_qr_scan"}, "is_disabled": 0, "fusion_lat": 0.0, "lat": 38.908686, "is_reserved": 0}, {"lon": -77.0318335, "fusion_lon": 0.0, "bike_id": "2f825fd7f15f35375cd2ecfff386c35e", "type": "electric_scooter", "name": "2f825fd7f15f35375cd2ecfff386c35e", "rental_uris": {"android": "https://dc.lft.to/lastmile_qr_scan", "ios": "https://dc.lft.to/lastmile_qr_scan"}, "is_disabled": 0, "fusion_lat": 0.0, "lat": 38.911274, "is_reserved": 0}, {"lon": -77.04146466666667, "fusion_lon": 0.0, "bike_id": "fb5452b7ec002d3969ffbaaf4bcb7cb2", "type": "electric_scooter", "name": "fb5452b7ec002d3969ffbaaf4bcb7cb2", "rental_uris": {"android": "https://dc.lft.to/lastmile_qr_scan", "ios": "https://dc.lft.to/lastmile_qr_scan"}, "is_disabled": 0, "fusion_lat": 0.0, "lat": 38.922973, "is_reserved": 0}, {"lon": -77.02003316666666, "fusion_lon": 0.0, "bike_id": "af20c999bf6f008c353452308b51ed2a", "type": "electric_bike", "name": "af20c999bf6f008c353452308b51ed2a", "rental_uris": {"android": "https://dc.lft.to/lastmile_qr_scan", "ios": "https://dc.lft.to/lastmile_qr_scan"}, "is_disabled": 0, "fusion_lat": 0.0, "lat": 38.91066683333333, "is_reserved": 0}, {"lon": -76.98615, "fusion_lon": 0.0, "bike_id": "02be47d5a7d99a5bafe2aaeedfb659a9", "type": "electric_scooter", "name": "02be47d5a7d99a5bafe2aaeedfb659a9", "rental_uris": {"android": "https://dc.lft.to/lastmile_qr_scan", "ios": "https://dc.lft.to/lastmile_qr_scan"}, "is_disabled": 0, "fusion_lat": 0.0, "lat": 38.88284066666667, "is_reserved": 0}, {"lon": -77.03569583333334, "fusion_lon": 0.0, "bike_id": "b6ba94305189fa3440cec00702238c8e", "type": "electric_scooter", "name": "b6ba94305189fa3440cec00702238c8e", "rental_uris": {"android": "https://dc.lft.to/lastmile_qr_scan", "ios": "https://dc.lft.to/lastmile_qr_scan"}, "is_disabled": 0, "fusion_lat": 0.0, "lat": 38.90377683333333, "is_reserved": 0}, {"lon": -77.05421066666666, "fusion_lon": 0.0, "bike_id": "6035dbeaa7446f823c4939141e178be7", "type": "electric_bike", "name": "6035dbeaa7446f823c4939141e178be7", "rental_uris": {"android": "https://dc.lft.to/lastmile_qr_scan", "ios": "https://dc.lft.to/lastmile_qr_scan"}, "is_disabled": 0, "fusion_lat": 0.0, "lat": 38.93524983333333, "is_reserved": 0}, {"lon": -77.0209165, "fusion_lon": 0.0, "bike_id": "ec76ca6f2987e2404646b1c21f01e47b", "type": "electric_scooter", "name": "ec76ca6f2987e2404646b1c21f01e47b", "rental_uris": {"android": "https://dc.lft.to/lastmile_qr_scan", "ios": "https://dc.lft.to/lastmile_qr_scan"}, "is_disabled": 0, "fusion_lat": 0.0, "lat": 38.881863333333335, "is_reserved": 0}, {"lon": -76.94642783333333, "fusion_lon": 0.0, "bike_id": "bddfd472574633779266802d148b5010", "type": "electric_scooter", "name": "bddfd472574633779266802d148b5010", "rental_uris": {"android": "https://dc.lft.to/lastmile_qr_scan", "ios": "https://dc.lft.to/lastmile_qr_scan"}, "is_disabled": 0, "fusion_lat": 0.0, "lat": 38.898670333333335, "is_reserved": 0}, {"lon": -76.98597383333333, "fusion_lon": 0.0, "bike_id": "03d23c2bfced8ef7d6d87017d8d5f02c", "type": "electric_scooter", "name": "03d23c2bfced8ef7d6d87017d8d5f02c", "rental_uris": {"android": "https://dc.lft.to/lastmile_qr_scan", "ios": "https://dc.lft.to/lastmile_qr_scan"}, "is_disabled": 0, "fusion_lat": 0.0, "lat": 38.90017666666667, "is_reserved": 0}, {"lon": -77.0819735, "fusion_lon": 0.0, "bike_id": "c97ad6d0d60843b38cb7897fb9b97f17", "type": "electric_scooter", "name": "c97ad6d0d60843b38cb7897fb9b97f17", "rental_uris": {"android": "https://dc.lft.to/lastmile_qr_scan", "ios": "https://dc.lft.to/lastmile_qr_scan"}, "is_disabled": 0, "fusion_lat": 0.0, "lat": 38.933378166666664, "is_reserved": 0}, {"lon": -77.02612566666667, "fusion_lon": 0.0, "bike_id": "7876b42d0241699fa1ec83a1d6ef4589", "type": "electric_scooter", "name": "7876b42d0241699fa1ec83a1d6ef4589", "rental_uris": {"android": "https://dc.lft.to/lastmile_qr_scan", "ios": "https://dc.lft.to/lastmile_qr_scan"}, "is_disabled": 0, "fusion_lat": 0.0, "lat": 38.9142095, "is_reserved": 0}, {"lon": -77.03381833333333, "fusion_lon": 0.0, "bike_id": "81ecfefd677a2738428a109ceeb9a969", "type": "electric_scooter", "name": "81ecfefd677a2738428a109ceeb9a969", "rental_uris": {"android": "https://dc.lft.to/lastmile_qr_scan", "ios": "https://dc.lft.to/lastmile_qr_scan"}, "is_disabled": 0, "fusion_lat": 0.0, "lat": 38.926525166666664, "is_reserved": 0}, {"lon": -77.01415033333333, "fusion_lon": 0.0, "bike_id": "dea91c4cf4a940a8f4966e942de2df96", "type": "electric_scooter", "name": "dea91c4cf4a940a8f4966e942de2df96", "rental_uris": {"android": "https://dc.lft.to/lastmile_qr_scan", "ios": "https://dc.lft.to/lastmile_qr_scan"}, "is_disabled": 0, "fusion_lat": 0.0, "lat": 38.919177833333336, "is_reserved": 0}, {"lon": -77.0639385, "fusion_lon": 0.0, "bike_id": "2645b24f4d16ef072ae7564e739e7761", "type": "electric_scooter", "name": "2645b24f4d16ef072ae7564e739e7761", "rental_uris": {"android": "https://dc.lft.to/lastmile_qr_scan", "ios": "https://dc.lft.to/lastmile_qr_scan"}, "is_disabled": 0, "fusion_lat": 0.0, "lat": 38.9442485, "is_reserved": 0}, {"lon": -77.023091, "fusion_lon": 0.0, "bike_id": "c91ec018418e0ddfcc10c4395debaa8f", "type": "electric_scooter", "name": "c91ec018418e0ddfcc10c4395debaa8f", "rental_uris": {"android": "https://dc.lft.to/lastmile_qr_scan", "ios": "https://dc.lft.to/lastmile_qr_scan"}, "is_disabled": 0, "fusion_lat": 0.0, "lat": 38.91596883333333, "is_reserved": 0}, {"lon": -77.022953, "fusion_lon": 0.0, "bike_id": "b5f379096ed29f1aaeb7bb95970bd843", "type": "electric_scooter", "name": "b5f379096ed29f1aaeb7bb95970bd843", "rental_uris": {"android": "https://dc.lft.to/lastmile_qr_scan", "ios": "https://dc.lft.to/lastmile_qr_scan"}, "is_disabled": 0, "fusion_lat": 0.0, "lat": 38.91794983333333, "is_reserved": 0}, {"lon": -77.02183716666667, "fusion_lon": 0.0, "bike_id": "6e21aa468974c1155894894590b0e3c6", "type": "electric_scooter", "name": "6e21aa468974c1155894894590b0e3c6", "rental_uris": {"android": "https://dc.lft.to/lastmile_qr_scan", "ios": "https://dc.lft.to/lastmile_qr_scan"}, "is_disabled": 0, "fusion_lat": 0.0, "lat": 38.90987283333333, "is_reserved": 0}, {"lon": -77.019113, "fusion_lon": 0.0, "bike_id": "2ca9a0f13227844078bbc9baba0c57e9", "type": "electric_bike", "name": "2ca9a0f13227844078bbc9baba0c57e9", "rental_uris": {"android": "https://dc.lft.to/lastmile_qr_scan", "ios": "https://dc.lft.to/lastmile_qr_scan"}, "is_disabled": 0, "fusion_lat": 0.0, "lat": 38.93777883333333, "is_reserved": 0}, {"lon": -77.04880666666666, "fusion_lon": 0.0, "bike_id": "3b30419147302c3578e12e4aecd13931", "type": "electric_scooter", "name": "3b30419147302c3578e12e4aecd13931", "rental_uris": {"android": "https://dc.lft.to/lastmile_qr_scan", "ios": "https://dc.lft.to/lastmile_qr_scan"}, "is_disabled": 0, "fusion_lat": 0.0, "lat": 38.899990833333334, "is_reserved": 0}, {"lon": -76.98789983333333, "fusion_lon": 0.0, "bike_id": "f6cf01f9bc37e7b0a7a5a5f88fdcdb12", "type": "electric_scooter", "name": "f6cf01f9bc37e7b0a7a5a5f88fdcdb12", "rental_uris": {"android": "https://dc.lft.to/lastmile_qr_scan", "ios": "https://dc.lft.to/lastmile_qr_scan"}, "is_disabled": 0, "fusion_lat": 0.0, "lat": 38.9123405, "is_reserved": 0}, {"lon": -76.981755, "fusion_lon": 0.0, "bike_id": "510e549de3f6a5c9d7535567557298bf", "type": "electric_scooter", "name": "510e549de3f6a5c9d7535567557298bf", "rental_uris": {"android": "https://dc.lft.to/lastmile_qr_scan", "ios": "https://dc.lft.to/lastmile_qr_scan"}, "is_disabled": 0, "fusion_lat": 0.0, "lat": 38.916706, "is_reserved": 0}, {"lon": -77.0319165, "fusion_lon": 0.0, "bike_id": "1d39ca665e324df735ca164c1a9eeb92", "type": "electric_scooter", "name": "1d39ca665e324df735ca164c1a9eeb92", "rental_uris": {"android": "https://dc.lft.to/lastmile_qr_scan", "ios": "https://dc.lft.to/lastmile_qr_scan"}, "is_disabled": 0, "fusion_lat": 0.0, "lat": 38.915816666666665, "is_reserved": 0}, {"lon": -77.032118, "fusion_lon": 0.0, "bike_id": "ddf86fd03f8e6c436c4b7ad122cbc30a", "type": "electric_scooter", "name": "ddf86fd03f8e6c436c4b7ad122cbc30a", "rental_uris": {"android": "https://dc.lft.to/lastmile_qr_scan", "ios": "https://dc.lft.to/lastmile_qr_scan"}, "is_disabled": 0, "fusion_lat": 0.0, "lat": 38.90118616666667, "is_reserved": 0}, {"lon": -76.99369166666666, "fusion_lon": 0.0, "bike_id": "f377341de1d23503f6a808d44c252d99", "type": "electric_bike", "name": "f377341de1d23503f6a808d44c252d99", "rental_uris": {"android": "https://dc.lft.to/lastmile_qr_scan", "ios": "https://dc.lft.to/lastmile_qr_scan"}, "is_disabled": 0, "fusion_lat": 0.0, "lat": 38.9910495, "is_reserved": 0}, {"lon": -77.03322333333334, "fusion_lon": 0.0, "bike_id": "e350c8ec26a4df06cf0a86cdc442deb4", "type": "electric_scooter", "name": "e350c8ec26a4df06cf0a86cdc442deb4", "rental_uris": {"android": "https://dc.lft.to/lastmile_qr_scan", "ios": "https://dc.lft.to/lastmile_qr_scan"}, "is_disabled": 0, "fusion_lat": 0.0, "lat": 38.89829783333333, "is_reserved": 0}, {"lon": -77.02494166666666, "fusion_lon": 0.0, "bike_id": "dd182836fe5aebb74085cd8cd9ff119a", "type": "electric_scooter", "name": "dd182836fe5aebb74085cd8cd9ff119a", "rental_uris": {"android": "https://dc.lft.to/lastmile_qr_scan", "ios": "https://dc.lft.to/lastmile_qr_scan"}, "is_disabled": 0, "fusion_lat": 0.0, "lat": 38.919402, "is_reserved": 0}, {"lon": -77.02709916666667, "fusion_lon": 0.0, "bike_id": "a2531fe3f3f273e573107de5563e028f", "type": "electric_scooter", "name": "a2531fe3f3f273e573107de5563e028f", "rental_uris": {"android": "https://dc.lft.to/lastmile_qr_scan", "ios": "https://dc.lft.to/lastmile_qr_scan"}, "is_disabled": 0, "fusion_lat": 0.0, "lat": 38.927711333333335, "is_reserved": 0}, {"lon": -77.025492, "fusion_lon": 0.0, "bike_id": "6525843b8e16010755c06a5d2cd8b858", "type": "electric_bike", "name": "6525843b8e16010755c06a5d2cd8b858", "rental_uris": {"android": "https://dc.lft.to/lastmile_qr_scan", "ios": "https://dc.lft.to/lastmile_qr_scan"}, "is_disabled": 0, "fusion_lat": 0.0, "lat": 38.9486655, "is_reserved": 0}, {"lon": -77.02812433333334, "fusion_lon": 0.0, "bike_id": "e9c66ae1876d9fbafd350b20da2bea7a", "type": "electric_scooter", "name": "e9c66ae1876d9fbafd350b20da2bea7a", "rental_uris": {"android": "https://dc.lft.to/lastmile_qr_scan", "ios": "https://dc.lft.to/lastmile_qr_scan"}, "is_disabled": 0, "fusion_lat": 0.0, "lat": 38.93081033333333, "is_reserved": 0}, {"lon": -77.03778516666667, "fusion_lon": 0.0, "bike_id": "7f95253d224449f5fd1d5baae92f02de", "type": "electric_scooter", "name": "7f95253d224449f5fd1d5baae92f02de", "rental_uris": {"android": "https://dc.lft.to/lastmile_qr_scan", "ios": "https://dc.lft.to/lastmile_qr_scan"}, "is_disabled": 0, "fusion_lat": 0.0, "lat": 38.92630916666667, "is_reserved": 0}, {"lon": -77.07127716666666, "fusion_lon": 0.0, "bike_id": "5324e595687dcf484aa27a4a948c302e", "type": "electric_scooter", "name": "5324e595687dcf484aa27a4a948c302e", "rental_uris": {"android": "https://dc.lft.to/lastmile_qr_scan", "ios": "https://dc.lft.to/lastmile_qr_scan"}, "is_disabled": 0, "fusion_lat": 0.0, "lat": 38.906769, "is_reserved": 0}, {"lon": -76.97168983333333, "fusion_lon": 0.0, "bike_id": "ee44801ee955d73872a860be386218ee", "type": "electric_scooter", "name": "ee44801ee955d73872a860be386218ee", "rental_uris": {"android": "https://dc.lft.to/lastmile_qr_scan", "ios": "https://dc.lft.to/lastmile_qr_scan"}, "is_disabled": 0, "fusion_lat": 0.0, "lat": 38.8782105, "is_reserved": 0}, {"lon": -77.00753016666667, "fusion_lon": 0.0, "bike_id": "a0d0ca85fb1120affe808799b60edd7a", "type": "electric_scooter", "name": "a0d0ca85fb1120affe808799b60edd7a", "rental_uris": {"android": "https://dc.lft.to/lastmile_qr_scan", "ios": "https://dc.lft.to/lastmile_qr_scan"}, "is_disabled": 0, "fusion_lat": 0.0, "lat": 38.871179833333336, "is_reserved": 0}, {"lon": -77.02384983333333, "fusion_lon": 0.0, "bike_id": "fd2059d5539bbe753fa91cb523375c55", "type": "electric_scooter", "name": "fd2059d5539bbe753fa91cb523375c55", "rental_uris": {"android": "https://dc.lft.to/lastmile_qr_scan", "ios": "https://dc.lft.to/lastmile_qr_scan"}, "is_disabled": 0, "fusion_lat": 0.0, "lat": 38.912961333333335, "is_reserved": 0}, {"lon": -77.02768816666666, "fusion_lon": 0.0, "bike_id": "16255ef6669c009e1fad718502129a6c", "type": "electric_scooter", "name": "16255ef6669c009e1fad718502129a6c", "rental_uris": {"android": "https://dc.lft.to/lastmile_qr_scan", "ios": "https://dc.lft.to/lastmile_qr_scan"}, "is_disabled": 0, "fusion_lat": 0.0, "lat": 38.93464383333333, "is_reserved": 0}, {"lon": -76.9962795, "fusion_lon": 0.0, "bike_id": "3c1f508cf4e181495318871093801a6a", "type": "electric_scooter", "name": "3c1f508cf4e181495318871093801a6a", "rental_uris": {"android": "https://dc.lft.to/lastmile_qr_scan", "ios": "https://dc.lft.to/lastmile_qr_scan"}, "is_disabled": 0, "fusion_lat": 0.0, "lat": 38.90067166666667, "is_reserved": 0}, {"lon": -77.01702483333334, "fusion_lon": 0.0, "bike_id": "33ca1ee56b72c2a0b28c464e2ff0feac", "type": "electric_scooter", "name": "33ca1ee56b72c2a0b28c464e2ff0feac", "rental_uris": {"android": "https://dc.lft.to/lastmile_qr_scan", "ios": "https://dc.lft.to/lastmile_qr_scan"}, "is_disabled": 0, "fusion_lat": 0.0, "lat": 38.91386116666666, "is_reserved": 0}, {"lon": -77.015751, "fusion_lon": 0.0, "bike_id": "1df040caeb868d02fb5e8a4862a8c17d", "type": "electric_scooter", "name": "1df040caeb868d02fb5e8a4862a8c17d", "rental_uris": {"android": "https://dc.lft.to/lastmile_qr_scan", "ios": "https://dc.lft.to/lastmile_qr_scan"}, "is_disabled": 0, "fusion_lat": 0.0, "lat": 38.91581716666666, "is_reserved": 0}, {"lon": -76.987414, "fusion_lon": 0.0, "bike_id": "10b074eeedf7de862c0bd0098ae20c09", "type": "electric_scooter", "name": "10b074eeedf7de862c0bd0098ae20c09", "rental_uris": {"android": "https://dc.lft.to/lastmile_qr_scan", "ios": "https://dc.lft.to/lastmile_qr_scan"}, "is_disabled": 0, "fusion_lat": 0.0, "lat": 38.9003185, "is_reserved": 0}, {"lon": -77.0206835, "fusion_lon": 0.0, "bike_id": "2e870c3f65f0209c0dfb78a73f698dc4", "type": "electric_bike", "name": "2e870c3f65f0209c0dfb78a73f698dc4", "rental_uris": {"android": "https://dc.lft.to/lastmile_qr_scan", "ios": "https://dc.lft.to/lastmile_qr_scan"}, "is_disabled": 0, "fusion_lat": 0.0, "lat": 38.9365025, "is_reserved": 0}, {"lon": -77.04017716666667, "fusion_lon": 0.0, "bike_id": "53dca0bdbc6c56a47aeab66933b0f6d7", "type": "electric_scooter", "name": "53dca0bdbc6c56a47aeab66933b0f6d7", "rental_uris": {"android": "https://dc.lft.to/lastmile_qr_scan", "ios": "https://dc.lft.to/lastmile_qr_scan"}, "is_disabled": 0, "fusion_lat": 0.0, "lat": 38.90383683333334, "is_reserved": 0}, {"lon": -76.9321475, "fusion_lon": 0.0, "bike_id": "affbe3c38a567c42de64b30427ea2cba", "type": "electric_scooter", "name": "affbe3c38a567c42de64b30427ea2cba", "rental_uris": {"android": "https://dc.lft.to/lastmile_qr_scan", "ios": "https://dc.lft.to/lastmile_qr_scan"}, "is_disabled": 0, "fusion_lat": 0.0, "lat": 38.89670516666666, "is_reserved": 0}, {"lon": -77.04906216666667, "fusion_lon": 0.0, "bike_id": "452c35446fd80a9fce3c73f784a25388", "type": "electric_scooter", "name": "452c35446fd80a9fce3c73f784a25388", "rental_uris": {"android": "https://dc.lft.to/lastmile_qr_scan", "ios": "https://dc.lft.to/lastmile_qr_scan"}, "is_disabled": 0, "fusion_lat": 0.0, "lat": 38.916033, "is_reserved": 0}, {"lon": -77.04147416666666, "fusion_lon": 0.0, "bike_id": "a63e70e084137a539571fc6668c6f299", "type": "electric_scooter", "name": "a63e70e084137a539571fc6668c6f299", "rental_uris": {"android": "https://dc.lft.to/lastmile_qr_scan", "ios": "https://dc.lft.to/lastmile_qr_scan"}, "is_disabled": 0, "fusion_lat": 0.0, "lat": 38.906600166666664, "is_reserved": 0}, {"lon": -77.04730333333333, "fusion_lon": 0.0, "bike_id": "570ce7df52b105598251af88dca9f184", "type": "electric_scooter", "name": "570ce7df52b105598251af88dca9f184", "rental_uris": {"android": "https://dc.lft.to/lastmile_qr_scan", "ios": "https://dc.lft.to/lastmile_qr_scan"}, "is_disabled": 0, "fusion_lat": 0.0, "lat": 38.901692, "is_reserved": 0}, {"lon": -77.05465933333333, "fusion_lon": 0.0, "bike_id": "751fb2c29a725e9c043e2c65abc49995", "type": "electric_scooter", "name": "751fb2c29a725e9c043e2c65abc49995", "rental_uris": {"android": "https://dc.lft.to/lastmile_qr_scan", "ios": "https://dc.lft.to/lastmile_qr_scan"}, "is_disabled": 0, "fusion_lat": 0.0, "lat": 38.909605, "is_reserved": 0}, {"lon": -77.03984166666666, "fusion_lon": 0.0, "bike_id": "0cdda64ef80859967be0c10c34bb7696", "type": "electric_scooter", "name": "0cdda64ef80859967be0c10c34bb7696", "rental_uris": {"android": "https://dc.lft.to/lastmile_qr_scan", "ios": "https://dc.lft.to/lastmile_qr_scan"}, "is_disabled": 0, "fusion_lat": 0.0, "lat": 38.918161166666664, "is_reserved": 0}, {"lon": -77.0385265, "fusion_lon": 0.0, "bike_id": "c9e124fda03673623e89ceaca8f6efe2", "type": "electric_scooter", "name": "c9e124fda03673623e89ceaca8f6efe2", "rental_uris": {"android": "https://dc.lft.to/lastmile_qr_scan", "ios": "https://dc.lft.to/lastmile_qr_scan"}, "is_disabled": 0, "fusion_lat": 0.0, "lat": 38.902890166666666, "is_reserved": 0}, {"lon": -77.035824, "fusion_lon": 0.0, "bike_id": "4bcd098c21d1794015de65bb051e400b", "type": "electric_scooter", "name": "4bcd098c21d1794015de65bb051e400b", "rental_uris": {"android": "https://dc.lft.to/lastmile_qr_scan", "ios": "https://dc.lft.to/lastmile_qr_scan"}, "is_disabled": 0, "fusion_lat": 0.0, "lat": 38.99228516666667, "is_reserved": 0}, {"lon": -77.0323205, "fusion_lon": 0.0, "bike_id": "72b0ecf633b8051db89c1f5d55d5ad08", "type": "electric_scooter", "name": "72b0ecf633b8051db89c1f5d55d5ad08", "rental_uris": {"android": "https://dc.lft.to/lastmile_qr_scan", "ios": "https://dc.lft.to/lastmile_qr_scan"}, "is_disabled": 0, "fusion_lat": 0.0, "lat": 38.901553, "is_reserved": 0}, {"lon": -76.9606005, "fusion_lon": 0.0, "bike_id": "ec1768421844f8a06d4521341e78ad32", "type": "electric_bike", "name": "ec1768421844f8a06d4521341e78ad32", "rental_uris": {"android": "https://dc.lft.to/lastmile_qr_scan", "ios": "https://dc.lft.to/lastmile_qr_scan"}, "is_disabled": 0, "fusion_lat": 0.0, "lat": 38.884006166666666, "is_reserved": 0}, {"lon": -77.00199683333334, "fusion_lon": 0.0, "bike_id": "7f7cf56e4ce163dc26833a627c747a8e", "type": "electric_scooter", "name": "7f7cf56e4ce163dc26833a627c747a8e", "rental_uris": {"android": "https://dc.lft.to/lastmile_qr_scan", "ios": "https://dc.lft.to/lastmile_qr_scan"}, "is_disabled": 0, "fusion_lat": 0.0, "lat": 38.89106966666667, "is_reserved": 0}, {"lon": -77.11762233333333, "fusion_lon": 0.0, "bike_id": "6d90b5a4c01702d01e8e4e2fb22e272b", "type": "electric_bike", "name": "6d90b5a4c01702d01e8e4e2fb22e272b", "rental_uris": {"android": "https://dc.lft.to/lastmile_qr_scan", "ios": "https://dc.lft.to/lastmile_qr_scan"}, "is_disabled": 0, "fusion_lat": 0.0, "lat": 39.05111816666667, "is_reserved": 0}, {"lon": -77.03213433333333, "fusion_lon": 0.0, "bike_id": "7ec6fe65359f8647e4c4065b5300142c", "type": "electric_scooter", "name": "7ec6fe65359f8647e4c4065b5300142c", "rental_uris": {"android": "https://dc.lft.to/lastmile_qr_scan", "ios": "https://dc.lft.to/lastmile_qr_scan"}, "is_disabled": 0, "fusion_lat": 0.0, "lat": 38.9091405, "is_reserved": 0}, {"lon": -77.03732966666666, "fusion_lon": 0.0, "bike_id": "8db6a5569c11daa5b562700ba0325f64", "type": "electric_scooter", "name": "8db6a5569c11daa5b562700ba0325f64", "rental_uris": {"android": "https://dc.lft.to/lastmile_qr_scan", "ios": "https://dc.lft.to/lastmile_qr_scan"}, "is_disabled": 0, "fusion_lat": 0.0, "lat": 38.911161166666666, "is_reserved": 0}, {"lon": -76.92681416666667, "fusion_lon": 0.0, "bike_id": "5e5684f166f7087d054d5b0fd9c9bb32", "type": "electric_scooter", "name": "5e5684f166f7087d054d5b0fd9c9bb32", "rental_uris": {"android": "https://dc.lft.to/lastmile_qr_scan", "ios": "https://dc.lft.to/lastmile_qr_scan"}, "is_disabled": 0, "fusion_lat": 0.0, "lat": 38.888483666666666, "is_reserved": 0}, {"lon": -77.00883083333333, "fusion_lon": 0.0, "bike_id": "76c7ed5a8ed20ea834259add2307072a", "type": "electric_scooter", "name": "76c7ed5a8ed20ea834259add2307072a", "rental_uris": {"android": "https://dc.lft.to/lastmile_qr_scan", "ios": "https://dc.lft.to/lastmile_qr_scan"}, "is_disabled": 0, "fusion_lat": 0.0, "lat": 38.87672466666667, "is_reserved": 0}, {"lon": -76.9690805, "fusion_lon": 0.0, "bike_id": "1e70f50dac6110959960b507d88812f3", "type": "electric_scooter", "name": "1e70f50dac6110959960b507d88812f3", "rental_uris": {"android": "https://dc.lft.to/lastmile_qr_scan", "ios": "https://dc.lft.to/lastmile_qr_scan"}, "is_disabled": 0, "fusion_lat": 0.0, "lat": 38.87427816666667, "is_reserved": 0}, {"lon": -76.96983766666666, "fusion_lon": 0.0, "bike_id": "f70d0ac2c5a669a5e3fe048cec5acfc2", "type": "electric_scooter", "name": "f70d0ac2c5a669a5e3fe048cec5acfc2", "rental_uris": {"android": "https://dc.lft.to/lastmile_qr_scan", "ios": "https://dc.lft.to/lastmile_qr_scan"}, "is_disabled": 0, "fusion_lat": 0.0, "lat": 38.878662, "is_reserved": 0}, {"lon": -77.036648, "fusion_lon": 0.0, "bike_id": "3580070c5962825394e8f1056a316cb9", "type": "electric_scooter", "name": "3580070c5962825394e8f1056a316cb9", "rental_uris": {"android": "https://dc.lft.to/lastmile_qr_scan", "ios": "https://dc.lft.to/lastmile_qr_scan"}, "is_disabled": 0, "fusion_lat": 0.0, "lat": 38.926077, "is_reserved": 0}, {"lon": -77.000718, "fusion_lon": 0.0, "bike_id": "1f19f9ef93afe07e91c54ce15e4f8657", "type": "electric_scooter", "name": "1f19f9ef93afe07e91c54ce15e4f8657", "rental_uris": {"android": "https://dc.lft.to/lastmile_qr_scan", "ios": "https://dc.lft.to/lastmile_qr_scan"}, "is_disabled": 0, "fusion_lat": 0.0, "lat": 38.88684216666667, "is_reserved": 0}, {"lon": -77.003247, "fusion_lon": 0.0, "bike_id": "c95b7eb62608c498ab5852785221608f", "type": "electric_scooter", "name": "c95b7eb62608c498ab5852785221608f", "rental_uris": {"android": "https://dc.lft.to/lastmile_qr_scan", "ios": "https://dc.lft.to/lastmile_qr_scan"}, "is_disabled": 0, "fusion_lat": 0.0, "lat": 38.919401666666666, "is_reserved": 0}, {"lon": -77.02972916666667, "fusion_lon": 0.0, "bike_id": "5badd08e1bd6ae4201274577b94d907b", "type": "electric_scooter", "name": "5badd08e1bd6ae4201274577b94d907b", "rental_uris": {"android": "https://dc.lft.to/lastmile_qr_scan", "ios": "https://dc.lft.to/lastmile_qr_scan"}, "is_disabled": 0, "fusion_lat": 0.0, "lat": 38.905226666666664, "is_reserved": 0}, {"lon": -76.94265383333334, "fusion_lon": 0.0, "bike_id": "d68cb0043bffcf8e00cba9f3e39eb40d", "type": "electric_scooter", "name": "d68cb0043bffcf8e00cba9f3e39eb40d", "rental_uris": {"android": "https://dc.lft.to/lastmile_qr_scan", "ios": "https://dc.lft.to/lastmile_qr_scan"}, "is_disabled": 0, "fusion_lat": 0.0, "lat": 38.8984425, "is_reserved": 0}, {"lon": -76.98823633333333, "fusion_lon": 0.0, "bike_id": "caf8705cc45a50fd6053bb5d7af310b9", "type": "electric_scooter", "name": "caf8705cc45a50fd6053bb5d7af310b9", "rental_uris": {"android": "https://dc.lft.to/lastmile_qr_scan", "ios": "https://dc.lft.to/lastmile_qr_scan"}, "is_disabled": 0, "fusion_lat": 0.0, "lat": 38.900366, "is_reserved": 0}, {"lon": -77.01946633333333, "fusion_lon": 0.0, "bike_id": "97812c79d8a3666751c40aeddcbbc607", "type": "electric_scooter", "name": "97812c79d8a3666751c40aeddcbbc607", "rental_uris": {"android": "https://dc.lft.to/lastmile_qr_scan", "ios": "https://dc.lft.to/lastmile_qr_scan"}, "is_disabled": 0, "fusion_lat": 0.0, "lat": 38.884185, "is_reserved": 0}, {"lon": -77.04682883333334, "fusion_lon": 0.0, "bike_id": "ef9ea44d09d378e76f68e4f3f0d92599", "type": "electric_scooter", "name": "ef9ea44d09d378e76f68e4f3f0d92599", "rental_uris": {"android": "https://dc.lft.to/lastmile_qr_scan", "ios": "https://dc.lft.to/lastmile_qr_scan"}, "is_disabled": 0, "fusion_lat": 0.0, "lat": 38.89331, "is_reserved": 0}, {"lon": -77.03163933333333, "fusion_lon": 0.0, "bike_id": "27cf441a43b2cf32b236cf2f10d7f3a9", "type": "electric_bike", "name": "27cf441a43b2cf32b236cf2f10d7f3a9", "rental_uris": {"android": "https://dc.lft.to/lastmile_qr_scan", "ios": "https://dc.lft.to/lastmile_qr_scan"}, "is_disabled": 0, "fusion_lat": 0.0, "lat": 38.96443216666667, "is_reserved": 0}, {"lon": -76.97097216666667, "fusion_lon": 0.0, "bike_id": "f793e910425091931f8ad1e0feb457c4", "type": "electric_scooter", "name": "f793e910425091931f8ad1e0feb457c4", "rental_uris": {"android": "https://dc.lft.to/lastmile_qr_scan", "ios": "https://dc.lft.to/lastmile_qr_scan"}, "is_disabled": 0, "fusion_lat": 0.0, "lat": 38.87067433333333, "is_reserved": 0}, {"lon": -76.9525315, "fusion_lon": 0.0, "bike_id": "639b40177be6b2e90251ad5eacb9b033", "type": "electric_bike", "name": "639b40177be6b2e90251ad5eacb9b033", "rental_uris": {"android": "https://dc.lft.to/lastmile_qr_scan", "ios": "https://dc.lft.to/lastmile_qr_scan"}, "is_disabled": 0, "fusion_lat": 0.0, "lat": 38.9069625, "is_reserved": 0}, {"lon": -77.03839533333333, "fusion_lon": 0.0, "bike_id": "6d1cf1549d18d02d7b3c7f5f0becc388", "type": "electric_scooter", "name": "6d1cf1549d18d02d7b3c7f5f0becc388", "rental_uris": {"android": "https://dc.lft.to/lastmile_qr_scan", "ios": "https://dc.lft.to/lastmile_qr_scan"}, "is_disabled": 0, "fusion_lat": 0.0, "lat": 38.92185583333333, "is_reserved": 0}, {"lon": -77.029465, "fusion_lon": 0.0, "bike_id": "8868c71621f73fddd9d5532fd4c7e0e7", "type": "electric_scooter", "name": "8868c71621f73fddd9d5532fd4c7e0e7", "rental_uris": {"android": "https://dc.lft.to/lastmile_qr_scan", "ios": "https://dc.lft.to/lastmile_qr_scan"}, "is_disabled": 0, "fusion_lat": 0.0, "lat": 38.905094, "is_reserved": 0}, {"lon": -77.201364, "fusion_lon": 0.0, "bike_id": "2f76908334116723b9138a4b20e21f23", "type": "electric_bike", "name": "2f76908334116723b9138a4b20e21f23", "rental_uris": {"android": "https://dc.lft.to/lastmile_qr_scan", "ios": "https://dc.lft.to/lastmile_qr_scan"}, "is_disabled": 0, "fusion_lat": 0.0, "lat": 38.922227666666664, "is_reserved": 0}, {"lon": -77.0223165, "fusion_lon": 0.0, "bike_id": "d4b17cbfc2deb9121b608f855affd303", "type": "electric_scooter", "name": "d4b17cbfc2deb9121b608f855affd303", "rental_uris": {"android": "https://dc.lft.to/lastmile_qr_scan", "ios": "https://dc.lft.to/lastmile_qr_scan"}, "is_disabled": 0, "fusion_lat": 0.0, "lat": 38.9347885, "is_reserved": 0}, {"lon": -77.040592, "fusion_lon": 0.0, "bike_id": "954e8d7c11db041b48a32d8423b7813e", "type": "electric_scooter", "name": "954e8d7c11db041b48a32d8423b7813e", "rental_uris": {"android": "https://dc.lft.to/lastmile_qr_scan", "ios": "https://dc.lft.to/lastmile_qr_scan"}, "is_disabled": 0, "fusion_lat": 0.0, "lat": 38.9040365, "is_reserved": 0}, {"lon": -77.03282283333333, "fusion_lon": 0.0, "bike_id": "9a1a222f925f139d94dec35ab468c5e4", "type": "electric_scooter", "name": "9a1a222f925f139d94dec35ab468c5e4", "rental_uris": {"android": "https://dc.lft.to/lastmile_qr_scan", "ios": "https://dc.lft.to/lastmile_qr_scan"}, "is_disabled": 0, "fusion_lat": 0.0, "lat": 38.922800333333335, "is_reserved": 0}, {"lon": -77.00197183333333, "fusion_lon": 0.0, "bike_id": "cdddaf3076843d64af4f4471065c1bf5", "type": "electric_scooter", "name": "cdddaf3076843d64af4f4471065c1bf5", "rental_uris": {"android": "https://dc.lft.to/lastmile_qr_scan", "ios": "https://dc.lft.to/lastmile_qr_scan"}, "is_disabled": 0, "fusion_lat": 0.0, "lat": 38.9003275, "is_reserved": 0}, {"lon": -76.94637316666666, "fusion_lon": 0.0, "bike_id": "6028cfd5de543eb7470950513b98c4f5", "type": "electric_scooter", "name": "6028cfd5de543eb7470950513b98c4f5", "rental_uris": {"android": "https://dc.lft.to/lastmile_qr_scan", "ios": "https://dc.lft.to/lastmile_qr_scan"}, "is_disabled": 0, "fusion_lat": 0.0, "lat": 38.898684, "is_reserved": 0}, {"lon": -77.02259283333333, "fusion_lon": 0.0, "bike_id": "a0c7524b3921ea7f58f7929efc2baccb", "type": "electric_scooter", "name": "a0c7524b3921ea7f58f7929efc2baccb", "rental_uris": {"android": "https://dc.lft.to/lastmile_qr_scan", "ios": "https://dc.lft.to/lastmile_qr_scan"}, "is_disabled": 0, "fusion_lat": 0.0, "lat": 38.92828383333333, "is_reserved": 0}, {"lon": -77.05257066666667, "fusion_lon": 0.0, "bike_id": "8617ee26b2884944c9e70e00d2e38927", "type": "electric_scooter", "name": "8617ee26b2884944c9e70e00d2e38927", "rental_uris": {"android": "https://dc.lft.to/lastmile_qr_scan", "ios": "https://dc.lft.to/lastmile_qr_scan"}, "is_disabled": 0, "fusion_lat": 0.0, "lat": 38.92780716666667, "is_reserved": 0}, {"lon": -77.034528, "fusion_lon": 0.0, "bike_id": "3444070666daa72856e22e7c82bd6458", "type": "electric_scooter", "name": "3444070666daa72856e22e7c82bd6458", "rental_uris": {"android": "https://dc.lft.to/lastmile_qr_scan", "ios": "https://dc.lft.to/lastmile_qr_scan"}, "is_disabled": 0, "fusion_lat": 0.0, "lat": 38.90343816666667, "is_reserved": 0}, {"lon": -77.18742566666667, "fusion_lon": 0.0, "bike_id": "f2b6953ea1d821b64a7a9d450afe1221", "type": "electric_bike", "name": "f2b6953ea1d821b64a7a9d450afe1221", "rental_uris": {"android": "https://dc.lft.to/lastmile_qr_scan", "ios": "https://dc.lft.to/lastmile_qr_scan"}, "is_disabled": 0, "fusion_lat": 0.0, "lat": 38.893566, "is_reserved": 0}, {"lon": -77.00301483333334, "fusion_lon": 0.0, "bike_id": "16d54f956ca6afd9e20cf90fed5ee2c7", "type": "electric_scooter", "name": "16d54f956ca6afd9e20cf90fed5ee2c7", "rental_uris": {"android": "https://dc.lft.to/lastmile_qr_scan", "ios": "https://dc.lft.to/lastmile_qr_scan"}, "is_disabled": 0, "fusion_lat": 0.0, "lat": 38.89497766666667, "is_reserved": 0}, {"lon": -77.00195683333334, "fusion_lon": 0.0, "bike_id": "0ed528fcfe2e22d8fb5b4a900d59e015", "type": "electric_scooter", "name": "0ed528fcfe2e22d8fb5b4a900d59e015", "rental_uris": {"android": "https://dc.lft.to/lastmile_qr_scan", "ios": "https://dc.lft.to/lastmile_qr_scan"}, "is_disabled": 0, "fusion_lat": 0.0, "lat": 38.902444333333335, "is_reserved": 0}, {"lon": -77.01193, "fusion_lon": 0.0, "bike_id": "144e823612b84b1497ea16500e25d300", "type": "electric_scooter", "name": "144e823612b84b1497ea16500e25d300", "rental_uris": {"android": "https://dc.lft.to/lastmile_qr_scan", "ios": "https://dc.lft.to/lastmile_qr_scan"}, "is_disabled": 0, "fusion_lat": 0.0, "lat": 38.90024916666667, "is_reserved": 0}, {"lon": -77.05164266666667, "fusion_lon": 0.0, "bike_id": "a390f672c91a29889990e1560d6a4173", "type": "electric_scooter", "name": "a390f672c91a29889990e1560d6a4173", "rental_uris": {"android": "https://dc.lft.to/lastmile_qr_scan", "ios": "https://dc.lft.to/lastmile_qr_scan"}, "is_disabled": 0, "fusion_lat": 0.0, "lat": 38.901158833333334, "is_reserved": 0}, {"lon": -77.00363266666666, "fusion_lon": 0.0, "bike_id": "142354d7b58ebb44d816e66dcd400c15", "type": "electric_scooter", "name": "142354d7b58ebb44d816e66dcd400c15", "rental_uris": {"android": "https://dc.lft.to/lastmile_qr_scan", "ios": "https://dc.lft.to/lastmile_qr_scan"}, "is_disabled": 0, "fusion_lat": 0.0, "lat": 38.877107, "is_reserved": 0}, {"lon": -77.03957783333334, "fusion_lon": 0.0, "bike_id": "78dfd7086f7ae1c1512db76a90088fcc", "type": "electric_scooter", "name": "78dfd7086f7ae1c1512db76a90088fcc", "rental_uris": {"android": "https://dc.lft.to/lastmile_qr_scan", "ios": "https://dc.lft.to/lastmile_qr_scan"}, "is_disabled": 0, "fusion_lat": 0.0, "lat": 38.896277833333336, "is_reserved": 0}, {"lon": -77.03362716666666, "fusion_lon": 0.0, "bike_id": "18914822d599561410308affc8613740", "type": "electric_scooter", "name": "18914822d599561410308affc8613740", "rental_uris": {"android": "https://dc.lft.to/lastmile_qr_scan", "ios": "https://dc.lft.to/lastmile_qr_scan"}, "is_disabled": 0, "fusion_lat": 0.0, "lat": 38.93581133333333, "is_reserved": 0}, {"lon": -76.99267966666666, "fusion_lon": 0.0, "bike_id": "276e2b7edf41afa7bc3c96828b5c2d44", "type": "electric_scooter", "name": "276e2b7edf41afa7bc3c96828b5c2d44", "rental_uris": {"android": "https://dc.lft.to/lastmile_qr_scan", "ios": "https://dc.lft.to/lastmile_qr_scan"}, "is_disabled": 0, "fusion_lat": 0.0, "lat": 38.8625625, "is_reserved": 0}, {"lon": -76.99807283333334, "fusion_lon": 0.0, "bike_id": "e094e9014b2112a6a4f662e325132eef", "type": "electric_scooter", "name": "e094e9014b2112a6a4f662e325132eef", "rental_uris": {"android": "https://dc.lft.to/lastmile_qr_scan", "ios": "https://dc.lft.to/lastmile_qr_scan"}, "is_disabled": 0, "fusion_lat": 0.0, "lat": 38.90036333333333, "is_reserved": 0}, {"lon": -77.0604905, "fusion_lon": 0.0, "bike_id": "366def69da5e82d3fd4aa178997129b6", "type": "electric_scooter", "name": "366def69da5e82d3fd4aa178997129b6", "rental_uris": {"android": "https://dc.lft.to/lastmile_qr_scan", "ios": "https://dc.lft.to/lastmile_qr_scan"}, "is_disabled": 0, "fusion_lat": 0.0, "lat": 38.939223166666665, "is_reserved": 0}, {"lon": -76.97702783333334, "fusion_lon": 0.0, "bike_id": "448a001e3ae5efb5e369508d4e91d447", "type": "electric_bike", "name": "448a001e3ae5efb5e369508d4e91d447", "rental_uris": {"android": "https://dc.lft.to/lastmile_qr_scan", "ios": "https://dc.lft.to/lastmile_qr_scan"}, "is_disabled": 0, "fusion_lat": 0.0, "lat": 38.9016265, "is_reserved": 0}, {"lon": -76.99008616666667, "fusion_lon": 0.0, "bike_id": "b7fadd82c3b638baa17af074a55dad00", "type": "electric_scooter", "name": "b7fadd82c3b638baa17af074a55dad00", "rental_uris": {"android": "https://dc.lft.to/lastmile_qr_scan", "ios": "https://dc.lft.to/lastmile_qr_scan"}, "is_disabled": 0, "fusion_lat": 0.0, "lat": 38.86505566666666, "is_reserved": 0}, {"lon": -77.003469, "fusion_lon": 0.0, "bike_id": "4e7ebbb8004e5e80d7e962f26417c318", "type": "electric_scooter", "name": "4e7ebbb8004e5e80d7e962f26417c318", "rental_uris": {"android": "https://dc.lft.to/lastmile_qr_scan", "ios": "https://dc.lft.to/lastmile_qr_scan"}, "is_disabled": 0, "fusion_lat": 0.0, "lat": 38.884403166666665, "is_reserved": 0}, {"lon": -76.9836245, "fusion_lon": 0.0, "bike_id": "24fdbe9cd24b3755ece4fd11433e5a4e", "type": "electric_bike", "name": "24fdbe9cd24b3755ece4fd11433e5a4e", "rental_uris": {"android": "https://dc.lft.to/lastmile_qr_scan", "ios": "https://dc.lft.to/lastmile_qr_scan"}, "is_disabled": 0, "fusion_lat": 0.0, "lat": 38.91484583333333, "is_reserved": 0}, {"lon": -77.032252, "fusion_lon": 0.0, "bike_id": "08e0a73fde110e71f01893323807f1aa", "type": "electric_scooter", "name": "08e0a73fde110e71f01893323807f1aa", "rental_uris": {"android": "https://dc.lft.to/lastmile_qr_scan", "ios": "https://dc.lft.to/lastmile_qr_scan"}, "is_disabled": 0, "fusion_lat": 0.0, "lat": 38.92593133333333, "is_reserved": 0}, {"lon": -77.02367816666667, "fusion_lon": 0.0, "bike_id": "659d814c0b1ecbf71ea751bbb8d2ddf4", "type": "electric_scooter", "name": "659d814c0b1ecbf71ea751bbb8d2ddf4", "rental_uris": {"android": "https://dc.lft.to/lastmile_qr_scan", "ios": "https://dc.lft.to/lastmile_qr_scan"}, "is_disabled": 0, "fusion_lat": 0.0, "lat": 38.925101166666664, "is_reserved": 0}, {"lon": -77.045211, "fusion_lon": 0.0, "bike_id": "279d26fd04629cb47430159fcef6c5bd", "type": "electric_scooter", "name": "279d26fd04629cb47430159fcef6c5bd", "rental_uris": {"android": "https://dc.lft.to/lastmile_qr_scan", "ios": "https://dc.lft.to/lastmile_qr_scan"}, "is_disabled": 0, "fusion_lat": 0.0, "lat": 38.90388133333333, "is_reserved": 0}, {"lon": -77.03772583333334, "fusion_lon": 0.0, "bike_id": "a5ec214791d5487926eb68bfeac14251", "type": "electric_scooter", "name": "a5ec214791d5487926eb68bfeac14251", "rental_uris": {"android": "https://dc.lft.to/lastmile_qr_scan", "ios": "https://dc.lft.to/lastmile_qr_scan"}, "is_disabled": 0, "fusion_lat": 0.0, "lat": 38.924749, "is_reserved": 0}, {"lon": -77.02545833333333, "fusion_lon": 0.0, "bike_id": "cb36c539819045cb9825776fdc5363a2", "type": "electric_scooter", "name": "cb36c539819045cb9825776fdc5363a2", "rental_uris": {"android": "https://dc.lft.to/lastmile_qr_scan", "ios": "https://dc.lft.to/lastmile_qr_scan"}, "is_disabled": 0, "fusion_lat": 0.0, "lat": 38.920869333333336, "is_reserved": 0}, {"lon": -77.0219565, "fusion_lon": 0.0, "bike_id": "2456c370ec321e611ba7d66eae293fcd", "type": "electric_scooter", "name": "2456c370ec321e611ba7d66eae293fcd", "rental_uris": {"android": "https://dc.lft.to/lastmile_qr_scan", "ios": "https://dc.lft.to/lastmile_qr_scan"}, "is_disabled": 0, "fusion_lat": 0.0, "lat": 38.914902166666664, "is_reserved": 0}, {"lon": -76.952869, "fusion_lon": 0.0, "bike_id": "cd993e60774c09d6f9fc85f624f3a371", "type": "electric_bike", "name": "cd993e60774c09d6f9fc85f624f3a371", "rental_uris": {"android": "https://dc.lft.to/lastmile_qr_scan", "ios": "https://dc.lft.to/lastmile_qr_scan"}, "is_disabled": 0, "fusion_lat": 0.0, "lat": 38.862472, "is_reserved": 0}, {"lon": -77.04160466666667, "fusion_lon": 0.0, "bike_id": "0548b83fa9c9ae45346b5b341cacb22c", "type": "electric_scooter", "name": "0548b83fa9c9ae45346b5b341cacb22c", "rental_uris": {"android": "https://dc.lft.to/lastmile_qr_scan", "ios": "https://dc.lft.to/lastmile_qr_scan"}, "is_disabled": 0, "fusion_lat": 0.0, "lat": 38.918705, "is_reserved": 0}, {"lon": -77.02664133333333, "fusion_lon": 0.0, "bike_id": "d24bd35576752a79d8f47ad025deaed2", "type": "electric_scooter", "name": "d24bd35576752a79d8f47ad025deaed2", "rental_uris": {"android": "https://dc.lft.to/lastmile_qr_scan", "ios": "https://dc.lft.to/lastmile_qr_scan"}, "is_disabled": 0, "fusion_lat": 0.0, "lat": 38.896247833333334, "is_reserved": 0}, {"lon": -77.03318816666666, "fusion_lon": 0.0, "bike_id": "6e94c58f977a722a0aaeb7f2d56d9a87", "type": "electric_scooter", "name": "6e94c58f977a722a0aaeb7f2d56d9a87", "rental_uris": {"android": "https://dc.lft.to/lastmile_qr_scan", "ios": "https://dc.lft.to/lastmile_qr_scan"}, "is_disabled": 0, "fusion_lat": 0.0, "lat": 38.913229333333334, "is_reserved": 0}, {"lon": -76.92911366666667, "fusion_lon": 0.0, "bike_id": "f98ec52fdacf3c6f63d50c00a65cf02a", "type": "electric_scooter", "name": "f98ec52fdacf3c6f63d50c00a65cf02a", "rental_uris": {"android": "https://dc.lft.to/lastmile_qr_scan", "ios": "https://dc.lft.to/lastmile_qr_scan"}, "is_disabled": 0, "fusion_lat": 0.0, "lat": 38.898526, "is_reserved": 0}, {"lon": -77.04299216666666, "fusion_lon": 0.0, "bike_id": "afd8db0cb15049adb94e13f7e8a162f6", "type": "electric_scooter", "name": "afd8db0cb15049adb94e13f7e8a162f6", "rental_uris": {"android": "https://dc.lft.to/lastmile_qr_scan", "ios": "https://dc.lft.to/lastmile_qr_scan"}, "is_disabled": 0, "fusion_lat": 0.0, "lat": 38.93193433333333, "is_reserved": 0}, {"lon": -77.03202083333333, "fusion_lon": 0.0, "bike_id": "93f2f76112daf8b727ae33b5173cf79c", "type": "electric_scooter", "name": "93f2f76112daf8b727ae33b5173cf79c", "rental_uris": {"android": "https://dc.lft.to/lastmile_qr_scan", "ios": "https://dc.lft.to/lastmile_qr_scan"}, "is_disabled": 0, "fusion_lat": 0.0, "lat": 38.901387166666666, "is_reserved": 0}, {"lon": -77.04511616666667, "fusion_lon": 0.0, "bike_id": "39b803ec8f66f23b18e5bd2ce0349836", "type": "electric_scooter", "name": "39b803ec8f66f23b18e5bd2ce0349836", "rental_uris": {"android": "https://dc.lft.to/lastmile_qr_scan", "ios": "https://dc.lft.to/lastmile_qr_scan"}, "is_disabled": 0, "fusion_lat": 0.0, "lat": 38.89969883333333, "is_reserved": 0}, {"lon": -77.042644, "fusion_lon": 0.0, "bike_id": "598e332683633ba370bbd8a46bd678ab", "type": "electric_scooter", "name": "598e332683633ba370bbd8a46bd678ab", "rental_uris": {"android": "https://dc.lft.to/lastmile_qr_scan", "ios": "https://dc.lft.to/lastmile_qr_scan"}, "is_disabled": 0, "fusion_lat": 0.0, "lat": 38.90646, "is_reserved": 0}, {"lon": -77.03181583333334, "fusion_lon": 0.0, "bike_id": "061815e65ef5430c9a7533fec4eed279", "type": "electric_scooter", "name": "061815e65ef5430c9a7533fec4eed279", "rental_uris": {"android": "https://dc.lft.to/lastmile_qr_scan", "ios": "https://dc.lft.to/lastmile_qr_scan"}, "is_disabled": 0, "fusion_lat": 0.0, "lat": 38.91098616666667, "is_reserved": 0}, {"lon": -77.031021, "fusion_lon": 0.0, "bike_id": "670016d03ad955ab6812bf17590d590a", "type": "electric_scooter", "name": "670016d03ad955ab6812bf17590d590a", "rental_uris": {"android": "https://dc.lft.to/lastmile_qr_scan", "ios": "https://dc.lft.to/lastmile_qr_scan"}, "is_disabled": 0, "fusion_lat": 0.0, "lat": 38.883210166666665, "is_reserved": 0}, {"lon": -77.04991733333334, "fusion_lon": 0.0, "bike_id": "712daa6ab182cf6b276fc42a8e541ca6", "type": "electric_scooter", "name": "712daa6ab182cf6b276fc42a8e541ca6", "rental_uris": {"android": "https://dc.lft.to/lastmile_qr_scan", "ios": "https://dc.lft.to/lastmile_qr_scan"}, "is_disabled": 0, "fusion_lat": 0.0, "lat": 38.900806833333334, "is_reserved": 0}, {"lon": -77.04721466666666, "fusion_lon": 0.0, "bike_id": "5e2aa17791265a2b728497530115aadd", "type": "electric_scooter", "name": "5e2aa17791265a2b728497530115aadd", "rental_uris": {"android": "https://dc.lft.to/lastmile_qr_scan", "ios": "https://dc.lft.to/lastmile_qr_scan"}, "is_disabled": 0, "fusion_lat": 0.0, "lat": 38.900712666666664, "is_reserved": 0}, {"lon": -77.0036145, "fusion_lon": 0.0, "bike_id": "f75d0062abf390cc70359eaae91da3c8", "type": "electric_scooter", "name": "f75d0062abf390cc70359eaae91da3c8", "rental_uris": {"android": "https://dc.lft.to/lastmile_qr_scan", "ios": "https://dc.lft.to/lastmile_qr_scan"}, "is_disabled": 0, "fusion_lat": 0.0, "lat": 38.90863783333333, "is_reserved": 0}, {"lon": -77.03662566666667, "fusion_lon": 0.0, "bike_id": "27824db145806d62f3efabf16a337777", "type": "electric_bike", "name": "27824db145806d62f3efabf16a337777", "rental_uris": {"android": "https://dc.lft.to/lastmile_qr_scan", "ios": "https://dc.lft.to/lastmile_qr_scan"}, "is_disabled": 0, "fusion_lat": 0.0, "lat": 38.930857833333334, "is_reserved": 0}, {"lon": -77.02975033333334, "fusion_lon": 0.0, "bike_id": "81ac8cd888188a3135c4f88aa29a941d", "type": "electric_scooter", "name": "81ac8cd888188a3135c4f88aa29a941d", "rental_uris": {"android": "https://dc.lft.to/lastmile_qr_scan", "ios": "https://dc.lft.to/lastmile_qr_scan"}, "is_disabled": 0, "fusion_lat": 0.0, "lat": 38.91993766666667, "is_reserved": 0}, {"lon": -77.04173966666667, "fusion_lon": 0.0, "bike_id": "988650c68614ebe503235fbc83136b50", "type": "electric_scooter", "name": "988650c68614ebe503235fbc83136b50", "rental_uris": {"android": "https://dc.lft.to/lastmile_qr_scan", "ios": "https://dc.lft.to/lastmile_qr_scan"}, "is_disabled": 0, "fusion_lat": 0.0, "lat": 38.915147, "is_reserved": 0}, {"lon": -77.0291185, "fusion_lon": 0.0, "bike_id": "8fb4e8c6421f7ad463ee3342ddfb9723", "type": "electric_scooter", "name": "8fb4e8c6421f7ad463ee3342ddfb9723", "rental_uris": {"android": "https://dc.lft.to/lastmile_qr_scan", "ios": "https://dc.lft.to/lastmile_qr_scan"}, "is_disabled": 0, "fusion_lat": 0.0, "lat": 38.91707066666667, "is_reserved": 0}, {"lon": -76.98960883333334, "fusion_lon": 0.0, "bike_id": "0735780eb999b0f74b81624115d7e6bd", "type": "electric_scooter", "name": "0735780eb999b0f74b81624115d7e6bd", "rental_uris": {"android": "https://dc.lft.to/lastmile_qr_scan", "ios": "https://dc.lft.to/lastmile_qr_scan"}, "is_disabled": 0, "fusion_lat": 0.0, "lat": 38.85878983333333, "is_reserved": 0}, {"lon": -77.03521633333334, "fusion_lon": 0.0, "bike_id": "cecb7f0f50acd40334d3e20a4f7ba325", "type": "electric_scooter", "name": "cecb7f0f50acd40334d3e20a4f7ba325", "rental_uris": {"android": "https://dc.lft.to/lastmile_qr_scan", "ios": "https://dc.lft.to/lastmile_qr_scan"}, "is_disabled": 0, "fusion_lat": 0.0, "lat": 38.925376666666665, "is_reserved": 0}, {"lon": -77.00293833333333, "fusion_lon": 0.0, "bike_id": "1ea9072819335102e9f3aae3c5f0e988", "type": "electric_scooter", "name": "1ea9072819335102e9f3aae3c5f0e988", "rental_uris": {"android": "https://dc.lft.to/lastmile_qr_scan", "ios": "https://dc.lft.to/lastmile_qr_scan"}, "is_disabled": 0, "fusion_lat": 0.0, "lat": 38.918206, "is_reserved": 0}, {"lon": -77.002375, "fusion_lon": 0.0, "bike_id": "1cdceab28c7567d82ab0bfd98e2f6f0f", "type": "electric_scooter", "name": "1cdceab28c7567d82ab0bfd98e2f6f0f", "rental_uris": {"android": "https://dc.lft.to/lastmile_qr_scan", "ios": "https://dc.lft.to/lastmile_qr_scan"}, "is_disabled": 0, "fusion_lat": 0.0, "lat": 38.8749105, "is_reserved": 0}, {"lon": -77.06077283333333, "fusion_lon": 0.0, "bike_id": "4ff2410084259ba615e0cec0ff9b61c8", "type": "electric_scooter", "name": "4ff2410084259ba615e0cec0ff9b61c8", "rental_uris": {"android": "https://dc.lft.to/lastmile_qr_scan", "ios": "https://dc.lft.to/lastmile_qr_scan"}, "is_disabled": 0, "fusion_lat": 0.0, "lat": 38.90688733333333, "is_reserved": 0}, {"lon": -77.02215516666666, "fusion_lon": 0.0, "bike_id": "abf863d82536a49cfb0a90a84e2b48ec", "type": "electric_scooter", "name": "abf863d82536a49cfb0a90a84e2b48ec", "rental_uris": {"android": "https://dc.lft.to/lastmile_qr_scan", "ios": "https://dc.lft.to/lastmile_qr_scan"}, "is_disabled": 0, "fusion_lat": 0.0, "lat": 38.924714, "is_reserved": 0}, {"lon": -77.02102816666667, "fusion_lon": 0.0, "bike_id": "8bbe28bea983a28d99604a780fa1d17b", "type": "electric_scooter", "name": "8bbe28bea983a28d99604a780fa1d17b", "rental_uris": {"android": "https://dc.lft.to/lastmile_qr_scan", "ios": "https://dc.lft.to/lastmile_qr_scan"}, "is_disabled": 0, "fusion_lat": 0.0, "lat": 38.885093, "is_reserved": 0}, {"lon": -76.995835, "fusion_lon": 0.0, "bike_id": "31f2ed496c53c2900207834d6fad20ed", "type": "electric_scooter", "name": "31f2ed496c53c2900207834d6fad20ed", "rental_uris": {"android": "https://dc.lft.to/lastmile_qr_scan", "ios": "https://dc.lft.to/lastmile_qr_scan"}, "is_disabled": 0, "fusion_lat": 0.0, "lat": 38.851754, "is_reserved": 0}, {"lon": -77.03206033333333, "fusion_lon": 0.0, "bike_id": "5eb273d59d6f348a1ea9dc4af20360d4", "type": "electric_scooter", "name": "5eb273d59d6f348a1ea9dc4af20360d4", "rental_uris": {"android": "https://dc.lft.to/lastmile_qr_scan", "ios": "https://dc.lft.to/lastmile_qr_scan"}, "is_disabled": 0, "fusion_lat": 0.0, "lat": 38.91616283333333, "is_reserved": 0}, {"lon": -77.06524516666667, "fusion_lon": 0.0, "bike_id": "7100f12e8ce07d1e0452e2e8699a0db0", "type": "electric_scooter", "name": "7100f12e8ce07d1e0452e2e8699a0db0", "rental_uris": {"android": "https://dc.lft.to/lastmile_qr_scan", "ios": "https://dc.lft.to/lastmile_qr_scan"}, "is_disabled": 0, "fusion_lat": 0.0, "lat": 38.90533933333333, "is_reserved": 0}, {"lon": -77.02410133333333, "fusion_lon": 0.0, "bike_id": "ccaa9b5f4fbcc8534a035510869df5f8", "type": "electric_scooter", "name": "ccaa9b5f4fbcc8534a035510869df5f8", "rental_uris": {"android": "https://dc.lft.to/lastmile_qr_scan", "ios": "https://dc.lft.to/lastmile_qr_scan"}, "is_disabled": 0, "fusion_lat": 0.0, "lat": 38.879918833333335, "is_reserved": 0}, {"lon": -76.995139, "fusion_lon": 0.0, "bike_id": "8e654b7dbb8dc51797527153aa4ce776", "type": "electric_scooter", "name": "8e654b7dbb8dc51797527153aa4ce776", "rental_uris": {"android": "https://dc.lft.to/lastmile_qr_scan", "ios": "https://dc.lft.to/lastmile_qr_scan"}, "is_disabled": 0, "fusion_lat": 0.0, "lat": 38.93383683333333, "is_reserved": 0}, {"lon": -76.984238, "fusion_lon": 0.0, "bike_id": "d43738952272c2d03bf605dbbbba7954", "type": "electric_bike", "name": "d43738952272c2d03bf605dbbbba7954", "rental_uris": {"android": "https://dc.lft.to/lastmile_qr_scan", "ios": "https://dc.lft.to/lastmile_qr_scan"}, "is_disabled": 0, "fusion_lat": 0.0, "lat": 38.92649183333333, "is_reserved": 0}, {"lon": -77.02202933333334, "fusion_lon": 0.0, "bike_id": "a225be639989ee37bcdebf033ccfc773", "type": "electric_scooter", "name": "a225be639989ee37bcdebf033ccfc773", "rental_uris": {"android": "https://dc.lft.to/lastmile_qr_scan", "ios": "https://dc.lft.to/lastmile_qr_scan"}, "is_disabled": 0, "fusion_lat": 0.0, "lat": 38.927023, "is_reserved": 0}, {"lon": -77.03969566666666, "fusion_lon": 0.0, "bike_id": "fcf8c1b9ca5cb69b47e2f017f7a902a1", "type": "electric_scooter", "name": "fcf8c1b9ca5cb69b47e2f017f7a902a1", "rental_uris": {"android": "https://dc.lft.to/lastmile_qr_scan", "ios": "https://dc.lft.to/lastmile_qr_scan"}, "is_disabled": 0, "fusion_lat": 0.0, "lat": 38.905692333333334, "is_reserved": 0}, {"lon": -76.95511983333333, "fusion_lon": 0.0, "bike_id": "ff2027fdd8cb67e9d046ffa6770bf7ad", "type": "electric_bike", "name": "ff2027fdd8cb67e9d046ffa6770bf7ad", "rental_uris": {"android": "https://dc.lft.to/lastmile_qr_scan", "ios": "https://dc.lft.to/lastmile_qr_scan"}, "is_disabled": 0, "fusion_lat": 0.0, "lat": 38.93926033333334, "is_reserved": 0}, {"lon": -77.02384716666667, "fusion_lon": 0.0, "bike_id": "e3904bbfab9c96e46428ae017d12d292", "type": "electric_scooter", "name": "e3904bbfab9c96e46428ae017d12d292", "rental_uris": {"android": "https://dc.lft.to/lastmile_qr_scan", "ios": "https://dc.lft.to/lastmile_qr_scan"}, "is_disabled": 0, "fusion_lat": 0.0, "lat": 38.91899633333333, "is_reserved": 0}, {"lon": -76.9741325, "fusion_lon": 0.0, "bike_id": "9763000e40032e32272c8424da0a92a7", "type": "electric_bike", "name": "9763000e40032e32272c8424da0a92a7", "rental_uris": {"android": "https://dc.lft.to/lastmile_qr_scan", "ios": "https://dc.lft.to/lastmile_qr_scan"}, "is_disabled": 0, "fusion_lat": 0.0, "lat": 38.902119666666664, "is_reserved": 0}, {"lon": -77.042734, "fusion_lon": 0.0, "bike_id": "cb9671e4a60fccfd1fbb142213697abe", "type": "electric_scooter", "name": "cb9671e4a60fccfd1fbb142213697abe", "rental_uris": {"android": "https://dc.lft.to/lastmile_qr_scan", "ios": "https://dc.lft.to/lastmile_qr_scan"}, "is_disabled": 0, "fusion_lat": 0.0, "lat": 38.908645166666666, "is_reserved": 0}, {"lon": -77.0453695, "fusion_lon": 0.0, "bike_id": "ce7fdc247c4e38103ec14b524ec86d7a", "type": "electric_scooter", "name": "ce7fdc247c4e38103ec14b524ec86d7a", "rental_uris": {"android": "https://dc.lft.to/lastmile_qr_scan", "ios": "https://dc.lft.to/lastmile_qr_scan"}, "is_disabled": 0, "fusion_lat": 0.0, "lat": 38.931648, "is_reserved": 0}, {"lon": -77.02308816666667, "fusion_lon": 0.0, "bike_id": "dafdd103a8e61793aa44fd9102a67698", "type": "electric_scooter", "name": "dafdd103a8e61793aa44fd9102a67698", "rental_uris": {"android": "https://dc.lft.to/lastmile_qr_scan", "ios": "https://dc.lft.to/lastmile_qr_scan"}, "is_disabled": 0, "fusion_lat": 0.0, "lat": 38.9272625, "is_reserved": 0}, {"lon": -77.01151833333333, "fusion_lon": 0.0, "bike_id": "4e97a51680b593fbd1fed0c1a7b93bd2", "type": "electric_scooter", "name": "4e97a51680b593fbd1fed0c1a7b93bd2", "rental_uris": {"android": "https://dc.lft.to/lastmile_qr_scan", "ios": "https://dc.lft.to/lastmile_qr_scan"}, "is_disabled": 0, "fusion_lat": 0.0, "lat": 38.900389, "is_reserved": 0}, {"lon": -77.07094883333333, "fusion_lon": 0.0, "bike_id": "bcc65383a9ce671aa47dee7eb6161504", "type": "electric_scooter", "name": "bcc65383a9ce671aa47dee7eb6161504", "rental_uris": {"android": "https://dc.lft.to/lastmile_qr_scan", "ios": "https://dc.lft.to/lastmile_qr_scan"}, "is_disabled": 0, "fusion_lat": 0.0, "lat": 38.8966755, "is_reserved": 0}, {"lon": -76.9559255, "fusion_lon": 0.0, "bike_id": "2323c7175693444b71da5f9b44016d5b", "type": "electric_scooter", "name": "2323c7175693444b71da5f9b44016d5b", "rental_uris": {"android": "https://dc.lft.to/lastmile_qr_scan", "ios": "https://dc.lft.to/lastmile_qr_scan"}, "is_disabled": 0, "fusion_lat": 0.0, "lat": 38.887648166666665, "is_reserved": 0}, {"lon": -77.005793, "fusion_lon": 0.0, "bike_id": "051e505a8bf242f3bca5c00817a3b563", "type": "electric_scooter", "name": "051e505a8bf242f3bca5c00817a3b563", "rental_uris": {"android": "https://dc.lft.to/lastmile_qr_scan", "ios": "https://dc.lft.to/lastmile_qr_scan"}, "is_disabled": 0, "fusion_lat": 0.0, "lat": 38.875763, "is_reserved": 0}, {"lon": -77.03638816666667, "fusion_lon": 0.0, "bike_id": "bbe63d644b975ae8919f69cf03997463", "type": "electric_scooter", "name": "bbe63d644b975ae8919f69cf03997463", "rental_uris": {"android": "https://dc.lft.to/lastmile_qr_scan", "ios": "https://dc.lft.to/lastmile_qr_scan"}, "is_disabled": 0, "fusion_lat": 0.0, "lat": 38.917511833333336, "is_reserved": 0}, {"lon": -77.0217935, "fusion_lon": 0.0, "bike_id": "b9ee542d77ff9df935ba70bfcaf2c355", "type": "electric_scooter", "name": "b9ee542d77ff9df935ba70bfcaf2c355", "rental_uris": {"android": "https://dc.lft.to/lastmile_qr_scan", "ios": "https://dc.lft.to/lastmile_qr_scan"}, "is_disabled": 0, "fusion_lat": 0.0, "lat": 38.942938833333336, "is_reserved": 0}, {"lon": -77.02457166666667, "fusion_lon": 0.0, "bike_id": "0a906fe07b0993f33936f0e7efb36b7d", "type": "electric_scooter", "name": "0a906fe07b0993f33936f0e7efb36b7d", "rental_uris": {"android": "https://dc.lft.to/lastmile_qr_scan", "ios": "https://dc.lft.to/lastmile_qr_scan"}, "is_disabled": 0, "fusion_lat": 0.0, "lat": 38.931116833333334, "is_reserved": 0}, {"lon": -77.0385645, "fusion_lon": 0.0, "bike_id": "48f8693fc07545006e2ad8866f41d7e4", "type": "electric_scooter", "name": "48f8693fc07545006e2ad8866f41d7e4", "rental_uris": {"android": "https://dc.lft.to/lastmile_qr_scan", "ios": "https://dc.lft.to/lastmile_qr_scan"}, "is_disabled": 0, "fusion_lat": 0.0, "lat": 38.91717533333333, "is_reserved": 0}, {"lon": -77.0255635, "fusion_lon": 0.0, "bike_id": "1a2b82e233734067ce4d40d69012a35e", "type": "electric_scooter", "name": "1a2b82e233734067ce4d40d69012a35e", "rental_uris": {"android": "https://dc.lft.to/lastmile_qr_scan", "ios": "https://dc.lft.to/lastmile_qr_scan"}, "is_disabled": 0, "fusion_lat": 0.0, "lat": 38.90351033333334, "is_reserved": 0}, {"lon": -77.02553883333333, "fusion_lon": 0.0, "bike_id": "209dcf3e4c9884bbd90bf3c68ad7e27b", "type": "electric_bike", "name": "209dcf3e4c9884bbd90bf3c68ad7e27b", "rental_uris": {"android": "https://dc.lft.to/lastmile_qr_scan", "ios": "https://dc.lft.to/lastmile_qr_scan"}, "is_disabled": 0, "fusion_lat": 0.0, "lat": 38.9971075, "is_reserved": 0}, {"lon": -77.031824, "fusion_lon": 0.0, "bike_id": "11d7b3f4c0c4dd6c5bf3949c466d30df", "type": "electric_scooter", "name": "11d7b3f4c0c4dd6c5bf3949c466d30df", "rental_uris": {"android": "https://dc.lft.to/lastmile_qr_scan", "ios": "https://dc.lft.to/lastmile_qr_scan"}, "is_disabled": 0, "fusion_lat": 0.0, "lat": 38.91584433333333, "is_reserved": 0}, {"lon": -77.01326566666667, "fusion_lon": 0.0, "bike_id": "a8379121dca00cb60d30ea53cc966f36", "type": "electric_scooter", "name": "a8379121dca00cb60d30ea53cc966f36", "rental_uris": {"android": "https://dc.lft.to/lastmile_qr_scan", "ios": "https://dc.lft.to/lastmile_qr_scan"}, "is_disabled": 0, "fusion_lat": 0.0, "lat": 38.90611116666667, "is_reserved": 0}, {"lon": -77.02718266666666, "fusion_lon": 0.0, "bike_id": "5d26f924748796fac458e62d05bb32b0", "type": "electric_scooter", "name": "5d26f924748796fac458e62d05bb32b0", "rental_uris": {"android": "https://dc.lft.to/lastmile_qr_scan", "ios": "https://dc.lft.to/lastmile_qr_scan"}, "is_disabled": 0, "fusion_lat": 0.0, "lat": 38.897427, "is_reserved": 0}, {"lon": -76.9871585, "fusion_lon": 0.0, "bike_id": "d4ab2829697042be000b058680993953", "type": "electric_scooter", "name": "d4ab2829697042be000b058680993953", "rental_uris": {"android": "https://dc.lft.to/lastmile_qr_scan", "ios": "https://dc.lft.to/lastmile_qr_scan"}, "is_disabled": 0, "fusion_lat": 0.0, "lat": 38.86631166666667, "is_reserved": 0}, {"lon": -77.01136266666667, "fusion_lon": 0.0, "bike_id": "655b015073d987d8948d8b9e9d3452d4", "type": "electric_scooter", "name": "655b015073d987d8948d8b9e9d3452d4", "rental_uris": {"android": "https://dc.lft.to/lastmile_qr_scan", "ios": "https://dc.lft.to/lastmile_qr_scan"}, "is_disabled": 0, "fusion_lat": 0.0, "lat": 38.911781500000004, "is_reserved": 0}, {"lon": -77.02479616666666, "fusion_lon": 0.0, "bike_id": "8caa2dd7c9fb6c109cf09e87eff23e80", "type": "electric_scooter", "name": "8caa2dd7c9fb6c109cf09e87eff23e80", "rental_uris": {"android": "https://dc.lft.to/lastmile_qr_scan", "ios": "https://dc.lft.to/lastmile_qr_scan"}, "is_disabled": 0, "fusion_lat": 0.0, "lat": 38.93105416666667, "is_reserved": 0}, {"lon": -77.05340066666666, "fusion_lon": 0.0, "bike_id": "34c82aae7886490fa52c4eb873d14d00", "type": "electric_scooter", "name": "34c82aae7886490fa52c4eb873d14d00", "rental_uris": {"android": "https://dc.lft.to/lastmile_qr_scan", "ios": "https://dc.lft.to/lastmile_qr_scan"}, "is_disabled": 0, "fusion_lat": 0.0, "lat": 38.9023595, "is_reserved": 0}, {"lon": -77.03256533333334, "fusion_lon": 0.0, "bike_id": "1cbfac98032e44ba893c7bc6f28f602e", "type": "electric_scooter", "name": "1cbfac98032e44ba893c7bc6f28f602e", "rental_uris": {"android": "https://dc.lft.to/lastmile_qr_scan", "ios": "https://dc.lft.to/lastmile_qr_scan"}, "is_disabled": 0, "fusion_lat": 0.0, "lat": 38.92388416666667, "is_reserved": 0}, {"lon": -77.02303666666667, "fusion_lon": 0.0, "bike_id": "261abb58b7eff595ab791e3004a5f695", "type": "electric_scooter", "name": "261abb58b7eff595ab791e3004a5f695", "rental_uris": {"android": "https://dc.lft.to/lastmile_qr_scan", "ios": "https://dc.lft.to/lastmile_qr_scan"}, "is_disabled": 0, "fusion_lat": 0.0, "lat": 38.91791716666667, "is_reserved": 0}, {"lon": -77.0270335, "fusion_lon": 0.0, "bike_id": "f5efadd96a1b38ec3e935d3511fd62f8", "type": "electric_scooter", "name": "f5efadd96a1b38ec3e935d3511fd62f8", "rental_uris": {"android": "https://dc.lft.to/lastmile_qr_scan", "ios": "https://dc.lft.to/lastmile_qr_scan"}, "is_disabled": 0, "fusion_lat": 0.0, "lat": 38.89954783333334, "is_reserved": 0}, {"lon": -77.05742666666667, "fusion_lon": 0.0, "bike_id": "d97a99d50095a2e840d1acc6796f69e4", "type": "electric_scooter", "name": "d97a99d50095a2e840d1acc6796f69e4", "rental_uris": {"android": "https://dc.lft.to/lastmile_qr_scan", "ios": "https://dc.lft.to/lastmile_qr_scan"}, "is_disabled": 0, "fusion_lat": 0.0, "lat": 38.93390616666667, "is_reserved": 0}, {"lon": -77.05470983333333, "fusion_lon": 0.0, "bike_id": "4394d46ecc662ebaeeb73d77c41af4bd", "type": "electric_scooter", "name": "4394d46ecc662ebaeeb73d77c41af4bd", "rental_uris": {"android": "https://dc.lft.to/lastmile_qr_scan", "ios": "https://dc.lft.to/lastmile_qr_scan"}, "is_disabled": 0, "fusion_lat": 0.0, "lat": 38.89736933333333, "is_reserved": 0}, {"lon": -77.0044145, "fusion_lon": 0.0, "bike_id": "1171fb1f81654dcb06500a4fedda46f6", "type": "electric_scooter", "name": "1171fb1f81654dcb06500a4fedda46f6", "rental_uris": {"android": "https://dc.lft.to/lastmile_qr_scan", "ios": "https://dc.lft.to/lastmile_qr_scan"}, "is_disabled": 0, "fusion_lat": 0.0, "lat": 38.876805, "is_reserved": 0}, {"lon": -77.05180616666667, "fusion_lon": 0.0, "bike_id": "9ab7bc0b4b8202d490bb36092af4418c", "type": "electric_scooter", "name": "9ab7bc0b4b8202d490bb36092af4418c", "rental_uris": {"android": "https://dc.lft.to/lastmile_qr_scan", "ios": "https://dc.lft.to/lastmile_qr_scan"}, "is_disabled": 0, "fusion_lat": 0.0, "lat": 38.9243095, "is_reserved": 0}, {"lon": -77.03210466666667, "fusion_lon": 0.0, "bike_id": "1f253863302c7d1683605167776db58a", "type": "electric_scooter", "name": "1f253863302c7d1683605167776db58a", "rental_uris": {"android": "https://dc.lft.to/lastmile_qr_scan", "ios": "https://dc.lft.to/lastmile_qr_scan"}, "is_disabled": 0, "fusion_lat": 0.0, "lat": 38.9214135, "is_reserved": 0}, {"lon": -76.9463575, "fusion_lon": 0.0, "bike_id": "d53be3198580fe02db055b367d9bd853", "type": "electric_scooter", "name": "d53be3198580fe02db055b367d9bd853", "rental_uris": {"android": "https://dc.lft.to/lastmile_qr_scan", "ios": "https://dc.lft.to/lastmile_qr_scan"}, "is_disabled": 0, "fusion_lat": 0.0, "lat": 38.89870283333333, "is_reserved": 0}, {"lon": -77.05512216666666, "fusion_lon": 0.0, "bike_id": "ea6b23da884d0e3080ce37040a3becb1", "type": "electric_scooter", "name": "ea6b23da884d0e3080ce37040a3becb1", "rental_uris": {"android": "https://dc.lft.to/lastmile_qr_scan", "ios": "https://dc.lft.to/lastmile_qr_scan"}, "is_disabled": 0, "fusion_lat": 0.0, "lat": 38.928415666666666, "is_reserved": 0}, {"lon": -77.02716183333334, "fusion_lon": 0.0, "bike_id": "ed120e128df3a733c0466eb651ed3030", "type": "electric_scooter", "name": "ed120e128df3a733c0466eb651ed3030", "rental_uris": {"android": "https://dc.lft.to/lastmile_qr_scan", "ios": "https://dc.lft.to/lastmile_qr_scan"}, "is_disabled": 0, "fusion_lat": 0.0, "lat": 38.92463733333334, "is_reserved": 0}, {"lon": -77.01708566666667, "fusion_lon": 0.0, "bike_id": "81e377efe3459e95b4ee2de1b45f38f5", "type": "electric_scooter", "name": "81e377efe3459e95b4ee2de1b45f38f5", "rental_uris": {"android": "https://dc.lft.to/lastmile_qr_scan", "ios": "https://dc.lft.to/lastmile_qr_scan"}, "is_disabled": 0, "fusion_lat": 0.0, "lat": 38.9175235, "is_reserved": 0},