{"data": {"bikes": [{"is_disabled": 0, "fusion_lon": 0.0, "fusion_lat": 0.0, "lat": 38.9284685, "type": "electric_scooter", "lon": -77.01405883333334, "bike_id": "6ee6c3a827246e03b4c2bf0670f2e71b", "rental_uris": {"android": "https://dc.lft.to/lastmile_qr_scan", "ios": "https://dc.lft.to/lastmile_qr_scan"}, "name": "6ee6c3a827246e03b4c2bf0670f2e71b", "is_reserved": 0}, {"is_disabled": 0, "fusion_lon": 0.0, "fusion_lat": 0.0, "lat": 38.901409, "type": "electric_scooter", "lon": -77.0292925, "bike_id": "7594414fd375fb1b99cf52b7063f4ca3", "rental_uris": {"android": "https://dc.lft.to/lastmile_qr_scan", "ios": "https://dc.lft.to/lastmile_qr_scan"}, "name": "7594414fd375fb1b99cf52b7063f4ca3", "is_reserved": 0}, {"is_disabled": 0, "fusion_lon": 0.0, "fusion_lat": 0.0, "lat": 38.934704833333335, "type": "electric_scooter", "lon": -77.07219933333333, "bike_id": "f08d5d86d3c0a252ccd9458086b2f8ba", "rental_uris": {"android": "https://dc.lft.to/lastmile_qr_scan", "ios": "https://dc.lft.to/lastmile_qr_scan"}, "name": "f08d5d86d3c0a252ccd9458086b2f8ba", "is_reserved": 0}, {"is_disabled": 0, "fusion_lon": 0.0, "fusion_lat": 0.0, "lat": 38.9270735, "type": "electric_scooter", "lon": -77.0232885, "bike_id": "4a9cf7651aa89d3df173bf61b5c58f93", "rental_uris": {"android": "https://dc.lft.to/lastmile_qr_scan", "ios": "https://dc.lft.to/lastmile_qr_scan"}, "name": "4a9cf7651aa89d3df173bf61b5c58f93", "is_reserved": 0}, {"is_disabled": 0, "fusion_lon": 0.0, "fusion_lat": 0.0, "lat": 38.9004575, "type": "electric_scooter", "lon": -76.92275866666667, "bike_id": "8ef7c057678edce5bac34f9bc233c5c0", "rental_uris": {"android": "https://dc.lft.to/lastmile_qr_scan", "ios": "https://dc.lft.to/lastmile_qr_scan"}, "name": "8ef7c057678edce5bac34f9bc233c5c0", "is_reserved": 0}, {"is_disabled": 0, "fusion_lon": 0.0, "fusion_lat": 0.0, "lat": 38.936800833333336, "type": "electric_scooter", "lon": -77.0246805, "bike_id": "dbbae0f4845e2d76328e99c93a25a2b8", "rental_uris": {"android": "https://dc.lft.to/lastmile_qr_scan", "ios": "https://dc.lft.to/lastmile_qr_scan"}, "name": "dbbae0f4845e2d76328e99c93a25a2b8", "is_reserved": 0}, {"is_disabled": 0, "fusion_lon": 0.0, "fusion_lat": 0.0, "lat": 38.927288, "type": "electric_scooter", "lon": -77.02245566666667, "bike_id": "5c080166e7cf003ecdc5b32e18c7f79f", "rental_uris": {"android": "https://dc.lft.to/lastmile_qr_scan", "ios": "https://dc.lft.to/lastmile_qr_scan"}, "name": "5c080166e7cf003ecdc5b32e18c7f79f", "is_reserved": 0}, {"is_disabled": 0, "fusion_lon": 0.0, "fusion_lat": 0.0, "lat": 38.8937245, "type": "electric_scooter", "lon": -76.94996033333334, "bike_id": "c587d19c2e451a15d5f40a97da58188c", "rental_uris": {"android": "https://dc.lft.to/lastmile_qr_scan", "ios": "https://dc.lft.to/lastmile_qr_scan"}, "name": "c587d19c2e451a15d5f40a97da58188c", "is_reserved": 0}, {"is_disabled": 0, "fusion_lon": 0.0, "fusion_lat": 0.0, "lat": 38.86134166666667, "type": "electric_scooter", "lon": -76.98541533333334, "bike_id": "ecb876464ed2b9659347ea56181386ec", "rental_uris": {"android": "https://dc.lft.to/lastmile_qr_scan", "ios": "https://dc.lft.to/lastmile_qr_scan"}, "name": "ecb876464ed2b9659347ea56181386ec", "is_reserved": 0}, {"is_disabled": 0, "fusion_lon": 0.0, "fusion_lat": 0.0, "lat": 38.89042583333333, "type": "electric_scooter", "lon": -76.95245833333334, "bike_id": "e694302a50550985f8412bebabcd3780", "rental_uris": {"android": "https://dc.lft.to/lastmile_qr_scan", "ios": "https://dc.lft.to/lastmile_qr_scan"}, "name": "e694302a50550985f8412bebabcd3780", "is_reserved": 0}, {"is_disabled": 0, "fusion_lon": 0.0, "fusion_lat": 0.0, "lat": 38.93625933333333, "type": "electric_scooter", "lon": -77.0590785, "bike_id": "f1a80e84ef1bcad50edf01d20cd32546", "rental_uris": {"android": "https://dc.lft.to/lastmile_qr_scan", "ios": "https://dc.lft.to/lastmile_qr_scan"}, "name": "f1a80e84ef1bcad50edf01d20cd32546", "is_reserved": 0}, {"is_disabled": 0, "fusion_lon": 0.0, "fusion_lat": 0.0, "lat": 38.911865166666665, "type": "electric_scooter", "lon": -77.0350485, "bike_id": "4d1811418a9bc7baf28a830255bdcf5c", "rental_uris": {"android": "https://dc.lft.to/lastmile_qr_scan", "ios": "https://dc.lft.to/lastmile_qr_scan"}, "name": "4d1811418a9bc7baf28a830255bdcf5c", "is_reserved": 0}, {"is_disabled": 0, "fusion_lon": 0.0, "fusion_lat": 0.0, "lat": 38.896766, "type": "electric_scooter", "lon": -76.99792133333334, "bike_id": "af33b32be94f469d438c3e5f967e4527", "rental_uris": {"android": "https://dc.lft.to/lastmile_qr_scan", "ios": "https://dc.lft.to/lastmile_qr_scan"}, "name": "af33b32be94f469d438c3e5f967e4527", "is_reserved": 0}, {"is_disabled": 0, "fusion_lon": 0.0, "fusion_lat": 0.0, "lat": 38.897287, "type": "electric_scooter", "lon": -77.0494525, "bike_id": "2e07f54a46344f3df0a2077337e99c8f", "rental_uris": {"android": "https://dc.lft.to/lastmile_qr_scan", "ios": "https://dc.lft.to/lastmile_qr_scan"}, "name": "2e07f54a46344f3df0a2077337e99c8f", "is_reserved": 0}, {"is_disabled": 0, "fusion_lon": 0.0, "fusion_lat": 0.0, "lat": 38.921317333333334, "type": "electric_scooter", "lon": -77.04389933333333, "bike_id": "188f4638914fadb52fd3804ef4a31726", "rental_uris": {"android": "https://dc.lft.to/lastmile_qr_scan", "ios": "https://dc.lft.to/lastmile_qr_scan"}, "name": "188f4638914fadb52fd3804ef4a31726", "is_reserved": 0}, {"is_disabled": 0, "fusion_lon": 0.0, "fusion_lat": 0.0, "lat": 38.8923065, "type": "electric_scooter", "lon": -77.0436185, "bike_id": "fd47b09287e1d4f5212fa71086e5b9e3", "rental_uris": {"android": "https://dc.lft.to/lastmile_qr_scan", "ios": "https://dc.lft.to/lastmile_qr_scan"}, "name": "fd47b09287e1d4f5212fa71086e5b9e3", "is_reserved": 0}, {"is_disabled": 0, "fusion_lon": 0.0, "fusion_lat": 0.0, "lat": 38.90445733333333, "type": "electric_scooter", "lon": -77.024003, "bike_id": "f4bc62d1e48049e228fde086cd15a0f9", "rental_uris": {"android": "https://dc.lft.to/lastmile_qr_scan", "ios": "https://dc.lft.to/lastmile_qr_scan"}, "name": "f4bc62d1e48049e228fde086cd15a0f9", "is_reserved": 0}, {"is_disabled": 0, "fusion_lon": 0.0, "fusion_lat": 0.0, "lat": 38.852831333333334, "type": "electric_bike", "lon": -76.981523, "bike_id": "096698b4383cff73aad620ea1f712b16", "rental_uris": {"android": "https://dc.lft.to/lastmile_qr_scan", "ios": "https://dc.lft.to/lastmile_qr_scan"}, "name": "096698b4383cff73aad620ea1f712b16", "is_reserved": 0}, {"is_disabled": 0, "fusion_lon": 0.0, "fusion_lat": 0.0, "lat": 38.857861666666665, "type": "electric_bike", "lon": -76.98748216666667, "bike_id": "b8405bd55645a8552975cbe791045e04", "rental_uris": {"android": "https://dc.lft.to/lastmile_qr_scan", "ios": "https://dc.lft.to/lastmile_qr_scan"}, "name": "b8405bd55645a8552975cbe791045e04", "is_reserved": 0}, {"is_disabled": 0, "fusion_lon": 0.0, "fusion_lat": 0.0, "lat": 38.90474483333333, "type": "electric_bike", "lon": -76.92949383333334, "bike_id": "24fd539b52312285fdd35b83cbccd41c", "rental_uris": {"android": "https://dc.lft.to/lastmile_qr_scan", "ios": "https://dc.lft.to/lastmile_qr_scan"}, "name": "24fd539b52312285fdd35b83cbccd41c", "is_reserved": 0}, {"is_disabled": 0, "fusion_lon": 0.0, "fusion_lat": 0.0, "lat": 38.943358, "type": "electric_bike", "lon": -77.01481833333334, "bike_id": "1be6a53a868c0f6b202bbd92c92b72ac", "rental_uris": {"android": "https://dc.lft.to/lastmile_qr_scan", "ios": "https://dc.lft.to/lastmile_qr_scan"}, "name": "1be6a53a868c0f6b202bbd92c92b72ac", "is_reserved": 0}, {"is_disabled": 0, "fusion_lon": 0.0, "fusion_lat": 0.0, "lat": 38.91121166666667, "type": "electric_scooter", "lon": -77.04209316666666, "bike_id": "dc9b2e8215f64c816c3d40159bf6cb04", "rental_uris": {"android": "https://dc.lft.to/lastmile_qr_scan", "ios": "https://dc.lft.to/lastmile_qr_scan"}, "name": "dc9b2e8215f64c816c3d40159bf6cb04", "is_reserved": 0}, {"is_disabled": 0, "fusion_lon": 0.0, "fusion_lat": 0.0, "lat": 38.91781133333333, "type": "electric_scooter", "lon": -77.04154033333333, "bike_id": "04be11cbdcf04bfbc0acec730dea9213", "rental_uris": {"android": "https://dc.lft.to/lastmile_qr_scan", "ios": "https://dc.lft.to/lastmile_qr_scan"}, "name": "04be11cbdcf04bfbc0acec730dea9213", "is_reserved": 0}, {"is_disabled": 0, "fusion_lon": 0.0, "fusion_lat": 0.0, "lat": 38.89990983333333, "type": "electric_scooter", "lon": -77.03363716666667, "bike_id": "52c4abaceb8f1c7a06a834431d9f459b", "rental_uris": {"android": "https://dc.lft.to/lastmile_qr_scan", "ios": "https://dc.lft.to/lastmile_qr_scan"}, "name": "52c4abaceb8f1c7a06a834431d9f459b", "is_reserved": 0}, {"is_disabled": 0, "fusion_lon": 0.0, "fusion_lat": 0.0, "lat": 38.92125166666667, "type": "electric_scooter", "lon": -77.04445, "bike_id": "12c2cf7ed3fccd967595cadd307d7fcc", "rental_uris": {"android": "https://dc.lft.to/lastmile_qr_scan", "ios": "https://dc.lft.to/lastmile_qr_scan"}, "name": "12c2cf7ed3fccd967595cadd307d7fcc", "is_reserved": 0}, {"is_disabled": 0, "fusion_lon": 0.0, "fusion_lat": 0.0, "lat": 38.883921666666666, "type": "electric_scooter", "lon": -76.95418183333334, "bike_id": "45306dcb11fe024cb6447f4550362f76", "rental_uris": {"android": "https://dc.lft.to/lastmile_qr_scan", "ios": "https://dc.lft.to/lastmile_qr_scan"}, "name": "45306dcb11fe024cb6447f4550362f76", "is_reserved": 0}, {"is_disabled": 0, "fusion_lon": 0.0, "fusion_lat": 0.0, "lat": 38.916952333333334, "type": "electric_scooter", "lon": -77.03114216666667, "bike_id": "c6c8ffa43101935e96fda3ae3edd3c9f", "rental_uris": {"android": "https://dc.lft.to/lastmile_qr_scan", "ios": "https://dc.lft.to/lastmile_qr_scan"}, "name": "c6c8ffa43101935e96fda3ae3edd3c9f", "is_reserved": 0}, {"is_disabled": 0, "fusion_lon": 0.0, "fusion_lat": 0.0, "lat": 38.89206566666667, "type": "electric_scooter", "lon": -76.988151, "bike_id": "cf24b8b7af26e647c1d2a4b54a0b8c0b", "rental_uris": {"android": "https://dc.lft.to/lastmile_qr_scan", "ios": "https://dc.lft.to/lastmile_qr_scan"}, "name": "cf24b8b7af26e647c1d2a4b54a0b8c0b", "is_reserved": 0}, {"is_disabled": 0, "fusion_lon": 0.0, "fusion_lat": 0.0, "lat": 38.914855, "type": "electric_scooter", "lon": -77.03466083333333, "bike_id": "fcb1f88d2afb6df799fafead84ade001", "rental_uris": {"android": "https://dc.lft.to/lastmile_qr_scan", "ios": "https://dc.lft.to/lastmile_qr_scan"}, "name": "fcb1f88d2afb6df799fafead84ade001", "is_reserved": 0}, {"is_disabled": 0, "fusion_lon": 0.0, "fusion_lat": 0.0, "lat": 38.92368066666667, "type": "electric_scooter", "lon": -77.028013, "bike_id": "7415044b41ab1fab8da8b22f04c5ae91", "rental_uris": {"android": "https://dc.lft.to/lastmile_qr_scan", "ios": "https://dc.lft.to/lastmile_qr_scan"}, "name": "7415044b41ab1fab8da8b22f04c5ae91", "is_reserved": 0}, {"is_disabled": 0, "fusion_lon": 0.0, "fusion_lat": 0.0, "lat": 38.911006666666665, "type": "electric_scooter", "lon": -77.06604416666667, "bike_id": "3b35df06cb0d1b6ccb03e1df836651dd", "rental_uris": {"android": "https://dc.lft.to/lastmile_qr_scan", "ios": "https://dc.lft.to/lastmile_qr_scan"}, "name": "3b35df06cb0d1b6ccb03e1df836651dd", "is_reserved": 0}, {"is_disabled": 0, "fusion_lon": 0.0, "fusion_lat": 0.0, "lat": 39.088432833333336, "type": "electric_bike", "lon": -77.17802716666667, "bike_id": "909676f4831ea34cf4a0ea835592b87a", "rental_uris": {"android": "https://dc.lft.to/lastmile_qr_scan", "ios": "https://dc.lft.to/lastmile_qr_scan"}, "name": "909676f4831ea34cf4a0ea835592b87a", "is_reserved": 0}, {"is_disabled": 0, "fusion_lon": 0.0, "fusion_lat": 0.0, "lat": 38.92368166666667, "type": "electric_scooter", "lon": -77.03136033333334, "bike_id": "64114e0f89e73f2b119d1100f39076ef", "rental_uris": {"android": "https://dc.lft.to/lastmile_qr_scan", "ios": "https://dc.lft.to/lastmile_qr_scan"}, "name": "64114e0f89e73f2b119d1100f39076ef", "is_reserved": 0}, {"is_disabled": 0, "fusion_lon": 0.0, "fusion_lat": 0.0, "lat": 38.93606666666667, "type": "electric_scooter", "lon": -77.0586385, "bike_id": "d7dd5cfc1af875a273482b7ee337f055", "rental_uris": {"android": "https://dc.lft.to/lastmile_qr_scan", "ios": "https://dc.lft.to/lastmile_qr_scan"}, "name": "d7dd5cfc1af875a273482b7ee337f055", "is_reserved": 0}, {"is_disabled": 0, "fusion_lon": 0.0, "fusion_lat": 0.0, "lat": 38.912673166666664, "type": "electric_scooter", "lon": -77.0387325, "bike_id": "3d789cd90679ddc50b3dab7dcb7bd273", "rental_uris": {"android": "https://dc.lft.to/lastmile_qr_scan", "ios": "https://dc.lft.to/lastmile_qr_scan"}, "name": "3d789cd90679ddc50b3dab7dcb7bd273", "is_reserved": 0}, {"is_disabled": 0, "fusion_lon": 0.0, "fusion_lat": 0.0, "lat": 38.92334816666666, "type": "electric_scooter", "lon": -77.04183816666666, "bike_id": "ae25952183912a8afc786224ecd08572", "rental_uris": {"android": "https://dc.lft.to/lastmile_qr_scan", "ios": "https://dc.lft.to/lastmile_qr_scan"}, "name": "ae25952183912a8afc786224ecd08572", "is_reserved": 0}, {"is_disabled": 0, "fusion_lon": 0.0, "fusion_lat": 0.0, "lat": 38.90064516666666, "type": "electric_scooter", "lon": -76.9338625, "bike_id": "fd3b23af99b803892f6a7ae55e83bbae", "rental_uris": {"android": "https://dc.lft.to/lastmile_qr_scan", "ios": "https://dc.lft.to/lastmile_qr_scan"}, "name": "fd3b23af99b803892f6a7ae55e83bbae", "is_reserved": 0}, {"is_disabled": 0, "fusion_lon": 0.0, "fusion_lat": 0.0, "lat": 38.88591066666667, "type": "electric_scooter", "lon": -77.01760666666667, "bike_id": "fafba591ed0bb5bfac05a53332113baf", "rental_uris": {"android": "https://dc.lft.to/lastmile_qr_scan", "ios": "https://dc.lft.to/lastmile_qr_scan"}, "name": "fafba591ed0bb5bfac05a53332113baf", "is_reserved": 0}, {"is_disabled": 0, "fusion_lon": 0.0, "fusion_lat": 0.0, "lat": 38.8789955, "type": "electric_scooter", "lon": -76.9352545, "bike_id": "d5205a0cb3ddd94af8ac79143437da63", "rental_uris": {"android": "https://dc.lft.to/lastmile_qr_scan", "ios": "https://dc.lft.to/lastmile_qr_scan"}, "name": "d5205a0cb3ddd94af8ac79143437da63", "is_reserved": 0}, {"is_disabled": 0, "fusion_lon": 0.0, "fusion_lat": 0.0, "lat": 38.913039, "type": "electric_scooter", "lon": -77.03843666666667, "bike_id": "c0cd64ded5252bcadda67787f3dd2fdf", "rental_uris": {"android": "https://dc.lft.to/lastmile_qr_scan", "ios": "https://dc.lft.to/lastmile_qr_scan"}, "name": "c0cd64ded5252bcadda67787f3dd2fdf", "is_reserved": 0}, {"is_disabled": 0, "fusion_lon": 0.0, "fusion_lat": 0.0, "lat": 38.8768785, "type": "electric_scooter", "lon": -77.00508416666666, "bike_id": "fb76c36f35f0f0356f4e5eb417e5585c", "rental_uris": {"android": "https://dc.lft.to/lastmile_qr_scan", "ios": "https://dc.lft.to/lastmile_qr_scan"}, "name": "fb76c36f35f0f0356f4e5eb417e5585c", "is_reserved": 0}, {"is_disabled": 0, "fusion_lon": 0.0, "fusion_lat": 0.0, "lat": 38.899686, "type": "electric_scooter", "lon": -77.05146083333334, "bike_id": "412456509463041f21b673970de6ec18", "rental_uris": {"android": "https://dc.lft.to/lastmile_qr_scan", "ios": "https://dc.lft.to/lastmile_qr_scan"}, "name": "412456509463041f21b673970de6ec18", "is_reserved": 0}, {"is_disabled": 0, "fusion_lon": 0.0, "fusion_lat": 0.0, "lat": 38.91272033333333, "type": "electric_scooter", "lon": -77.02225683333333, "bike_id": "380f53290f39bf3a5ab5d255319fa75c", "rental_uris": {"android": "https://dc.lft.to/lastmile_qr_scan", "ios": "https://dc.lft.to/lastmile_qr_scan"}, "name": "380f53290f39bf3a5ab5d255319fa75c", "is_reserved": 0}, {"is_disabled": 0, "fusion_lon": 0.0, "fusion_lat": 0.0, "lat": 38.90600233333333, "type": "electric_scooter", "lon": -77.05711483333333, "bike_id": "3d83ffa1a588f95b64020cde8f7e4fab", "rental_uris": {"android": "https://dc.lft.to/lastmile_qr_scan", "ios": "https://dc.lft.to/lastmile_qr_scan"}, "name": "3d83ffa1a588f95b64020cde8f7e4fab", "is_reserved": 0}, {"is_disabled": 0, "fusion_lon": 0.0, "fusion_lat": 0.0, "lat": 38.925274, "type": "electric_scooter", "lon": -77.07666966666666, "bike_id": "24452349196b2ff65c2123642fb8e238", "rental_uris": {"android": "https://dc.lft.to/lastmile_qr_scan", "ios": "https://dc.lft.to/lastmile_qr_scan"}, "name": "24452349196b2ff65c2123642fb8e238", "is_reserved": 0}, {"is_disabled": 0, "fusion_lon": 0.0, "fusion_lat": 0.0, "lat": 38.92454516666667, "type": "electric_scooter", "lon": -77.0508655, "bike_id": "469f9283aefb558ee6bca7d177632e17", "rental_uris": {"android": "https://dc.lft.to/lastmile_qr_scan", "ios": "https://dc.lft.to/lastmile_qr_scan"}, "name": "469f9283aefb558ee6bca7d177632e17", "is_reserved": 0}, {"is_disabled": 0, "fusion_lon": 0.0, "fusion_lat": 0.0, "lat": 38.883578, "type": "electric_scooter", "lon": -76.985648, "bike_id": "e5f47415b33b38b06432694a2eb6bddb", "rental_uris": {"android": "https://dc.lft.to/lastmile_qr_scan", "ios": "https://dc.lft.to/lastmile_qr_scan"}, "name": "e5f47415b33b38b06432694a2eb6bddb", "is_reserved": 0}, {"is_disabled": 0, "fusion_lon": 0.0, "fusion_lat": 0.0, "lat": 38.90862083333333, "type": "electric_scooter", "lon": -77.0461995, "bike_id": "03c247eda7a313ed4fd2789d11ee9f08", "rental_uris": {"android": "https://dc.lft.to/lastmile_qr_scan", "ios": "https://dc.lft.to/lastmile_qr_scan"}, "name": "03c247eda7a313ed4fd2789d11ee9f08", "is_reserved": 0}, {"is_disabled": 0, "fusion_lon": 0.0, "fusion_lat": 0.0, "lat": 38.9134065, "type": "electric_scooter", "lon": -77.04246666666667, "bike_id": "81d700d03383bd8ac053433e44c12b18", "rental_uris": {"android": "https://dc.lft.to/lastmile_qr_scan", "ios": "https://dc.lft.to/lastmile_qr_scan"}, "name": "81d700d03383bd8ac053433e44c12b18", "is_reserved": 0}, {"is_disabled": 0, "fusion_lon": 0.0, "fusion_lat": 0.0, "lat": 38.9179915, "type": "electric_scooter", "lon": -77.03442716666666, "bike_id": "e41e9016cd7da83a006f7d07ab05aa5c", "rental_uris": {"android": "https://dc.lft.to/lastmile_qr_scan", "ios": "https://dc.lft.to/lastmile_qr_scan"}, "name": "e41e9016cd7da83a006f7d07ab05aa5c", "is_reserved": 0}, {"is_disabled": 0, "fusion_lon": 0.0, "fusion_lat": 0.0, "lat": 38.88869366666667, "type": "electric_scooter", "lon": -77.04004383333333, "bike_id": "6d233cf62e83aa08f443ce68a574c7d2", "rental_uris": {"android": "https://dc.lft.to/lastmile_qr_scan", "ios": "https://dc.lft.to/lastmile_qr_scan"}, "name": "6d233cf62e83aa08f443ce68a574c7d2", "is_reserved": 0}, {"is_disabled": 0, "fusion_lon": 0.0, "fusion_lat": 0.0, "lat": 38.92885783333333, "type": "electric_scooter", "lon": -77.01399116666667, "bike_id": "934501d92b159d1273a796348bb092fd", "rental_uris": {"android": "https://dc.lft.to/lastmile_qr_scan", "ios": "https://dc.lft.to/lastmile_qr_scan"}, "name": "934501d92b159d1273a796348bb092fd", "is_reserved": 0}, {"is_disabled": 0, "fusion_lon": 0.0, "fusion_lat": 0.0, "lat": 38.91840783333333, "type": "electric_scooter", "lon": -77.072115, "bike_id": "cbdf84659a662c7f2cd5a29616494145", "rental_uris": {"android": "https://dc.lft.to/lastmile_qr_scan", "ios": "https://dc.lft.to/lastmile_qr_scan"}, "name": "cbdf84659a662c7f2cd5a29616494145", "is_reserved": 0}, {"is_disabled": 0, "fusion_lon": 0.0, "fusion_lat": 0.0, "lat": 38.93550716666667, "type": "electric_scooter", "lon": -77.05809466666666, "bike_id": "5a5199b0451419e22d9b6136341ae559", "rental_uris": {"android": "https://dc.lft.to/lastmile_qr_scan", "ios": "https://dc.lft.to/lastmile_qr_scan"}, "name": "5a5199b0451419e22d9b6136341ae559", "is_reserved": 0}, {"is_disabled": 0, "fusion_lon": 0.0, "fusion_lat": 0.0, "lat": 38.877752666666666, "type": "electric_scooter", "lon": -77.01434316666666, "bike_id": "7754fbe088af845494695a61f5c41ea2", "rental_uris": {"android": "https://dc.lft.to/lastmile_qr_scan", "ios": "https://dc.lft.to/lastmile_qr_scan"}, "name": "7754fbe088af845494695a61f5c41ea2", "is_reserved": 0}, {"is_disabled": 0, "fusion_lon": 0.0, "fusion_lat": 0.0, "lat": 38.926364666666665, "type": "electric_bike", "lon": -77.03334066666666, "bike_id": "1bf2d3349d18dc1828e82cb0f8fbc485", "rental_uris": {"android": "https://dc.lft.to/lastmile_qr_scan", "ios": "https://dc.lft.to/lastmile_qr_scan"}, "name": "1bf2d3349d18dc1828e82cb0f8fbc485", "is_reserved": 0}, {"is_disabled": 0, "fusion_lon": 0.0, "fusion_lat": 0.0, "lat": 38.848933833333334, "type": "electric_scooter", "lon": -77.005218, "bike_id": "12b78c10e8238297f964eee3d46b2009", "rental_uris": {"android": "https://dc.lft.to/lastmile_qr_scan", "ios": "https://dc.lft.to/lastmile_qr_scan"}, "name": "12b78c10e8238297f964eee3d46b2009", "is_reserved": 0}, {"is_disabled": 0, "fusion_lon": 0.0, "fusion_lat": 0.0, "lat": 38.91330683333333, "type": "electric_scooter", "lon": -77.04185766666667, "bike_id": "16ea7b657a2003c4d6c3227930619e70", "rental_uris": {"android": "https://dc.lft.to/lastmile_qr_scan", "ios": "https://dc.lft.to/lastmile_qr_scan"}, "name": "16ea7b657a2003c4d6c3227930619e70", "is_reserved": 0}, {"is_disabled": 0, "fusion_lon": 0.0, "fusion_lat": 0.0, "lat": 38.8984465, "type": "electric_scooter", "lon": -77.0073385, "bike_id": "1cbdf77e01ff9b53a38aca7baf33d4f4", "rental_uris": {"android": "https://dc.lft.to/lastmile_qr_scan", "ios": "https://dc.lft.to/lastmile_qr_scan"}, "name": "1cbdf77e01ff9b53a38aca7baf33d4f4", "is_reserved": 0}, {"is_disabled": 0, "fusion_lon": 0.0, "fusion_lat": 0.0, "lat": 38.98138066666667, "type": "electric_bike", "lon": -77.0077265, "bike_id": "5a10cbddc789648cdf8e4488a502f173", "rental_uris": {"android": "https://dc.lft.to/lastmile_qr_scan", "ios": "https://dc.lft.to/lastmile_qr_scan"}, "name": "5a10cbddc789648cdf8e4488a502f173", "is_reserved": 0}, {"is_disabled": 0, "fusion_lon": 0.0, "fusion_lat": 0.0, "lat": 38.91417116666667, "type": "electric_scooter", "lon": -77.03580766666667, "bike_id": "4be0c94396b2fbca81b5e997ebcba830", "rental_uris": {"android": "https://dc.lft.to/lastmile_qr_scan", "ios": "https://dc.lft.to/lastmile_qr_scan"}, "name": "4be0c94396b2fbca81b5e997ebcba830", "is_reserved": 0}, {"is_disabled": 0, "fusion_lon": 0.0, "fusion_lat": 0.0, "lat": 38.86356083333333, "type": "electric_scooter", "lon": -76.990682, "bike_id": "a387c5a1c0b122a2bcd048ed608f19a8", "rental_uris": {"android": "https://dc.lft.to/lastmile_qr_scan", "ios": "https://dc.lft.to/lastmile_qr_scan"}, "name": "a387c5a1c0b122a2bcd048ed608f19a8", "is_reserved": 0}, {"is_disabled": 0, "fusion_lon": 0.0, "fusion_lat": 0.0, "lat": 38.9057855, "type": "electric_scooter", "lon": -77.05117266666667, "bike_id": "8b87ebab2f6e620edc034b95ede08e2c", "rental_uris": {"android": "https://dc.lft.to/lastmile_qr_scan", "ios": "https://dc.lft.to/lastmile_qr_scan"}, "name": "8b87ebab2f6e620edc034b95ede08e2c", "is_reserved": 0}, {"is_disabled": 0, "fusion_lon": 0.0, "fusion_lat": 0.0, "lat": 38.899410333333336, "type": "electric_scooter", "lon": -77.038971, "bike_id": "d07117a55c0abee156a06df36195bc9b", "rental_uris": {"android": "https://dc.lft.to/lastmile_qr_scan", "ios": "https://dc.lft.to/lastmile_qr_scan"}, "name": "d07117a55c0abee156a06df36195bc9b", "is_reserved": 0}, {"is_disabled": 0, "fusion_lon": 0.0, "fusion_lat": 0.0, "lat": 38.923853, "type": "electric_scooter", "lon": -77.0276145, "bike_id": "be3e0180c0b4cf99e3f5b7ce822efb95", "rental_uris": {"android": "https://dc.lft.to/lastmile_qr_scan", "ios": "https://dc.lft.to/lastmile_qr_scan"}, "name": "be3e0180c0b4cf99e3f5b7ce822efb95", "is_reserved": 0}, {"is_disabled": 0, "fusion_lon": 0.0, "fusion_lat": 0.0, "lat": 38.883525, "type": "electric_scooter", "lon": -76.92787233333334, "bike_id": "8b73d6c44de6c6f342754247cdd0accb", "rental_uris": {"android": "https://dc.lft.to/lastmile_qr_scan", "ios": "https://dc.lft.to/lastmile_qr_scan"}, "name": "8b73d6c44de6c6f342754247cdd0accb", "is_reserved": 0}, {"is_disabled": 0, "fusion_lon": 0.0, "fusion_lat": 0.0, "lat": 38.87946516666667, "type": "electric_scooter", "lon": -77.00561166666667, "bike_id": "8a2804b4376f107e66c7f8cd68929cc9", "rental_uris": {"android": "https://dc.lft.to/lastmile_qr_scan", "ios": "https://dc.lft.to/lastmile_qr_scan"}, "name": "8a2804b4376f107e66c7f8cd68929cc9", "is_reserved": 0}, {"is_disabled": 0, "fusion_lon": 0.0, "fusion_lat": 0.0, "lat": 38.8926065, "type": "electric_scooter", "lon": -76.94159816666667, "bike_id": "aa497b48c62fefda5a2214fb66eb61ed", "rental_uris": {"android": "https://dc.lft.to/lastmile_qr_scan", "ios": "https://dc.lft.to/lastmile_qr_scan"}, "name": "aa497b48c62fefda5a2214fb66eb61ed", "is_reserved": 0}, {"is_disabled": 0, "fusion_lon": 0.0, "fusion_lat": 0.0, "lat": 38.908226666666664, "type": "electric_scooter", "lon": -77.0335435, "bike_id": "b709f2db198308a31c4a0959127c02c8", "rental_uris": {"android": "https://dc.lft.to/lastmile_qr_scan", "ios": "https://dc.lft.to/lastmile_qr_scan"}, "name": "b709f2db198308a31c4a0959127c02c8", "is_reserved": 0}, {"is_disabled": 0, "fusion_lon": 0.0, "fusion_lat": 0.0, "lat": 38.8985145, "type": "electric_bike", "lon": -76.93191683333333, "bike_id": "43377a5b212479a03d43936e3cac3a79", "rental_uris": {"android": "https://dc.lft.to/lastmile_qr_scan", "ios": "https://dc.lft.to/lastmile_qr_scan"}, "name": "43377a5b212479a03d43936e3cac3a79", "is_reserved": 0}, {"is_disabled": 0, "fusion_lon": 0.0, "fusion_lat": 0.0, "lat": 38.909477833333334, "type": "electric_scooter", "lon": -77.01530116666666, "bike_id": "edaa39433ccaa8525629cdba92d97096", "rental_uris": {"android": "https://dc.lft.to/lastmile_qr_scan", "ios": "https://dc.lft.to/lastmile_qr_scan"}, "name": "edaa39433ccaa8525629cdba92d97096", "is_reserved": 0}, {"is_disabled": 0, "fusion_lon": 0.0, "fusion_lat": 0.0, "lat": 38.906526666666664, "type": "electric_scooter", "lon": -77.02533866666667, "bike_id": "465f185daf8a01668722a5d8c89c35fc", "rental_uris": {"android": "https://dc.lft.to/lastmile_qr_scan", "ios": "https://dc.lft.to/lastmile_qr_scan"}, "name": "465f185daf8a01668722a5d8c89c35fc", "is_reserved": 0}, {"is_disabled": 0, "fusion_lon": 0.0, "fusion_lat": 0.0, "lat": 38.93537033333333, "type": "electric_scooter", "lon": -77.02386433333334, "bike_id": "3633fd18fd99d696dbf8afa5716a579a", "rental_uris": {"android": "https://dc.lft.to/lastmile_qr_scan", "ios": "https://dc.lft.to/lastmile_qr_scan"}, "name": "3633fd18fd99d696dbf8afa5716a579a", "is_reserved": 0}, {"is_disabled": 0, "fusion_lon": 0.0, "fusion_lat": 0.0, "lat": 38.892319, "type": "electric_scooter", "lon": -77.04361866666666, "bike_id": "e1048e4f11e21de60230a5081cba2dd1", "rental_uris": {"android": "https://dc.lft.to/lastmile_qr_scan", "ios": "https://dc.lft.to/lastmile_qr_scan"}, "name": "e1048e4f11e21de60230a5081cba2dd1", "is_reserved": 0}, {"is_disabled": 0, "fusion_lon": 0.0, "fusion_lat": 0.0, "lat": 38.912006166666664, "type": "electric_scooter", "lon": -77.01213366666667, "bike_id": "2c4a030780eba288ce79401a087fba33", "rental_uris": {"android": "https://dc.lft.to/lastmile_qr_scan", "ios": "https://dc.lft.to/lastmile_qr_scan"}, "name": "2c4a030780eba288ce79401a087fba33", "is_reserved": 0}, {"is_disabled": 0, "fusion_lon": 0.0, "fusion_lat": 0.0, "lat": 38.906759, "type": "electric_scooter", "lon": -77.026875, "bike_id": "ddb4367a3dbcaeefaeb1e9438104a569", "rental_uris": {"android": "https://dc.lft.to/lastmile_qr_scan", "ios": "https://dc.lft.to/lastmile_qr_scan"}, "name": "ddb4367a3dbcaeefaeb1e9438104a569", "is_reserved": 0}, {"is_disabled": 0, "fusion_lon": 0.0, "fusion_lat": 0.0, "lat": 38.90612183333333, "type": "electric_scooter", "lon": -77.0280515, "bike_id": "c292ed87c3bddbcdb7a953dea584cec3", "rental_uris": {"android": "https://dc.lft.to/lastmile_qr_scan", "ios": "https://dc.lft.to/lastmile_qr_scan"}, "name": "c292ed87c3bddbcdb7a953dea584cec3", "is_reserved": 0}, {"is_disabled": 0, "fusion_lon": 0.0, "fusion_lat": 0.0, "lat": 38.82730316666667, "type": "electric_bike", "lon": -77.00862466666666, "bike_id": "7b6abe6de90289fd8762976911f9a677", "rental_uris": {"android": "https://dc.lft.to/lastmile_qr_scan", "ios": "https://dc.lft.to/lastmile_qr_scan"}, "name": "7b6abe6de90289fd8762976911f9a677", "is_reserved": 0}, {"is_disabled": 0, "fusion_lon": 0.0, "fusion_lat": 0.0, "lat": 38.893617166666665, "type": "electric_scooter", "lon": -77.02277883333333, "bike_id": "162af21a23ea727b689f79d50cdcc5c0", "rental_uris": {"android": "https://dc.lft.to/lastmile_qr_scan", "ios": "https://dc.lft.to/lastmile_qr_scan"}, "name": "162af21a23ea727b689f79d50cdcc5c0", "is_reserved": 0}, {"is_disabled": 0, "fusion_lon": 0.0, "fusion_lat": 0.0, "lat": 38.9072705, "type": "electric_scooter", "lon": -77.030678, "bike_id": "e1962fb38cb49bc741ffa30d954afa02", "rental_uris": {"android": "https://dc.lft.to/lastmile_qr_scan", "ios": "https://dc.lft.to/lastmile_qr_scan"}, "name": "e1962fb38cb49bc741ffa30d954afa02", "is_reserved": 0}, {"is_disabled": 0, "fusion_lon": 0.0, "fusion_lat": 0.0, "lat": 38.89651, "type": "electric_scooter", "lon": -77.04356066666666, "bike_id": "9cc555c24391b477912e1723c222be6b", "rental_uris": {"android": "https://dc.lft.to/lastmile_qr_scan", "ios": "https://dc.lft.to/lastmile_qr_scan"}, "name": "9cc555c24391b477912e1723c222be6b", "is_reserved": 0}, {"is_disabled": 0, "fusion_lon": 0.0, "fusion_lat": 0.0, "lat": 38.920808, "type": "electric_bike", "lon": -77.00341883333333, "bike_id": "cb7208e343e89fba08f9a1af7f0d129e", "rental_uris": {"android": "https://dc.lft.to/lastmile_qr_scan", "ios": "https://dc.lft.to/lastmile_qr_scan"}, "name": "cb7208e343e89fba08f9a1af7f0d129e", "is_reserved": 0}, {"is_disabled": 0, "fusion_lon": 0.0, "fusion_lat": 0.0, "lat": 38.88863466666667, "type": "electric_scooter", "lon": -76.97738266666667, "bike_id": "3853eef833e277186d043671166e4125", "rental_uris": {"android": "https://dc.lft.to/lastmile_qr_scan", "ios": "https://dc.lft.to/lastmile_qr_scan"}, "name": "3853eef833e277186d043671166e4125", "is_reserved": 0}, {"is_disabled": 0, "fusion_lon": 0.0, "fusion_lat": 0.0, "lat": 38.93025333333333, "type": "electric_scooter", "lon": -77.03460416666667, "bike_id": "b6004da4ca8b99f20c0c3e0e6df027bc", "rental_uris": {"android": "https://dc.lft.to/lastmile_qr_scan", "ios": "https://dc.lft.to/lastmile_qr_scan"}, "name": "b6004da4ca8b99f20c0c3e0e6df027bc", "is_reserved": 0}, {"is_disabled": 0, "fusion_lon": 0.0, "fusion_lat": 0.0, "lat": 38.9181815, "type": "electric_scooter", "lon": -77.03633716666667, "bike_id": "a1d401dd752a24da9d253d05bb7ef114", "rental_uris": {"android": "https://dc.lft.to/lastmile_qr_scan", "ios": "https://dc.lft.to/lastmile_qr_scan"}, "name": "a1d401dd752a24da9d253d05bb7ef114", "is_reserved": 0}, {"is_disabled": 0, "fusion_lon": 0.0, "fusion_lat": 0.0, "lat": 38.9396215, "type": "electric_scooter", "lon": -77.032851, "bike_id": "4664a11ebb97985655c8fe8ed255ec55", "rental_uris": {"android": "https://dc.lft.to/lastmile_qr_scan", "ios": "https://dc.lft.to/lastmile_qr_scan"}, "name": "4664a11ebb97985655c8fe8ed255ec55", "is_reserved": 0}, {"is_disabled": 0, "fusion_lon": 0.0, "fusion_lat": 0.0, "lat": 38.90532916666667, "type": "electric_scooter", "lon": -77.056444, "bike_id": "be73556d76e0537986ee81189fc35d05", "rental_uris": {"android": "https://dc.lft.to/lastmile_qr_scan", "ios": "https://dc.lft.to/lastmile_qr_scan"}, "name": "be73556d76e0537986ee81189fc35d05", "is_reserved": 0}, {"is_disabled": 0, "fusion_lon": 0.0, "fusion_lat": 0.0, "lat": 38.923701333333334, "type": "electric_scooter", "lon": -77.05040916666667, "bike_id": "55eca152059cff58f1ef26a5bde4a486", "rental_uris": {"android": "https://dc.lft.to/lastmile_qr_scan", "ios": "https://dc.lft.to/lastmile_qr_scan"}, "name": "55eca152059cff58f1ef26a5bde4a486", "is_reserved": 0}, {"is_disabled": 0, "fusion_lon": 0.0, "fusion_lat": 0.0, "lat": 38.912701, "type": "electric_scooter", "lon": -77.02561983333334, "bike_id": "acd8925f7ff9e82bf2a35e8019643f2b", "rental_uris": {"android": "https://dc.lft.to/lastmile_qr_scan", "ios": "https://dc.lft.to/lastmile_qr_scan"}, "name": "acd8925f7ff9e82bf2a35e8019643f2b", "is_reserved": 0}, {"is_disabled": 0, "fusion_lon": 0.0, "fusion_lat": 0.0, "lat": 38.827820833333334, "type": "electric_bike", "lon": -77.1108525, "bike_id": "4c5fb94474f1d18e47e5252372f7a89d", "rental_uris": {"android": "https://dc.lft.to/lastmile_qr_scan", "ios": "https://dc.lft.to/lastmile_qr_scan"}, "name": "4c5fb94474f1d18e47e5252372f7a89d", "is_reserved": 0}, {"is_disabled": 0, "fusion_lon": 0.0, "fusion_lat": 0.0, "lat": 38.9048165, "type": "electric_bike", "lon": -76.95060016666666, "bike_id": "f34861eb8d3a1f5b6d3c77750ab79cb7", "rental_uris": {"android": "https://dc.lft.to/lastmile_qr_scan", "ios": "https://dc.lft.to/lastmile_qr_scan"}, "name": "f34861eb8d3a1f5b6d3c77750ab79cb7", "is_reserved": 0}, {"is_disabled": 0, "fusion_lon": 0.0, "fusion_lat": 0.0, "lat": 38.923725833333336, "type": "electric_scooter", "lon": -77.03020733333334, "bike_id": "9684504717e80e8c77edaacb3f09f956", "rental_uris": {"android": "https://dc.lft.to/lastmile_qr_scan", "ios": "https://dc.lft.to/lastmile_qr_scan"}, "name": "9684504717e80e8c77edaacb3f09f956", "is_reserved": 0}, {"is_disabled": 0, "fusion_lon": 0.0, "fusion_lat": 0.0, "lat": 38.96263716666667, "type": "electric_scooter", "lon": -77.0290045, "bike_id": "74fbd6d42703516b3c69cfbcc37f7deb", "rental_uris": {"android": "https://dc.lft.to/lastmile_qr_scan", "ios": "https://dc.lft.to/lastmile_qr_scan"}, "name": "74fbd6d42703516b3c69cfbcc37f7deb", "is_reserved": 0}, {"is_disabled": 0, "fusion_lon": 0.0, "fusion_lat": 0.0, "lat": 38.898352833333334, "type": "electric_scooter", "lon": -76.94635783333334, "bike_id": "d33ce46d9e7499d2cd9acc3da8a90d91", "rental_uris": {"android": "https://dc.lft.to/lastmile_qr_scan", "ios": "https://dc.lft.to/lastmile_qr_scan"}, "name": "d33ce46d9e7499d2cd9acc3da8a90d91", "is_reserved": 0}, {"is_disabled": 0, "fusion_lon": 0.0, "fusion_lat": 0.0, "lat": 38.88533416666667, "type": "electric_scooter", "lon": -76.92703883333333, "bike_id": "7a3688634557f3c39a795999a426581f", "rental_uris": {"android": "https://dc.lft.to/lastmile_qr_scan", "ios": "https://dc.lft.to/lastmile_qr_scan"}, "name": "7a3688634557f3c39a795999a426581f", "is_reserved": 0}, {"is_disabled": 0, "fusion_lon": 0.0, "fusion_lat": 0.0, "lat": 38.90789, "type": "electric_scooter", "lon": -77.03052133333334, "bike_id": "1ade0687efbef7f85a9518ff09f99a72", "rental_uris": {"android": "https://dc.lft.to/lastmile_qr_scan", "ios": "https://dc.lft.to/lastmile_qr_scan"}, "name": "1ade0687efbef7f85a9518ff09f99a72", "is_reserved": 0}, {"is_disabled": 0, "fusion_lon": 0.0, "fusion_lat": 0.0, "lat": 38.934918333333336, "type": "electric_scooter", "lon": -77.034397, "bike_id": "615484d6f6eed2c4b7d895a9ddcf386e", "rental_uris": {"android": "https://dc.lft.to/lastmile_qr_scan", "ios": "https://dc.lft.to/lastmile_qr_scan"}, "name": "615484d6f6eed2c4b7d895a9ddcf386e", "is_reserved": 0}, {"is_disabled": 0, "fusion_lon": 0.0, "fusion_lat": 0.0, "lat": 38.935434666666666, "type": "electric_scooter", "lon": -77.0222755, "bike_id": "d41e4c62dd77452e31a672110962f752", "rental_uris": {"android": "https://dc.lft.to/lastmile_qr_scan", "ios": "https://dc.lft.to/lastmile_qr_scan"}, "name": "d41e4c62dd77452e31a672110962f752", "is_reserved": 0}, {"is_disabled": 0, "fusion_lon": 0.0, "fusion_lat": 0.0, "lat": 38.90408883333333, "type": "electric_scooter", "lon": -77.03296383333333, "bike_id": "ca5613e5f4b94d7f7c456a534f67b14b", "rental_uris": {"android": "https://dc.lft.to/lastmile_qr_scan", "ios": "https://dc.lft.to/lastmile_qr_scan"}, "name": "ca5613e5f4b94d7f7c456a534f67b14b", "is_reserved": 0}, {"is_disabled": 0, "fusion_lon": 0.0, "fusion_lat": 0.0, "lat": 38.8963015, "type": "electric_scooter", "lon": -77.00906783333333, "bike_id": "6755c3b88ddd5a8380a79e0186ee4a56", "rental_uris": {"android": "https://dc.lft.to/lastmile_qr_scan", "ios": "https://dc.lft.to/lastmile_qr_scan"}, "name": "6755c3b88ddd5a8380a79e0186ee4a56", "is_reserved": 0}, {"is_disabled": 0, "fusion_lon": 0.0, "fusion_lat": 0.0, "lat": 38.92459916666667, "type": "electric_scooter", "lon": -77.02964733333333, "bike_id": "93e7a8aadc8de24f518af261dbf1f2bc", "rental_uris": {"android": "https://dc.lft.to/lastmile_qr_scan", "ios": "https://dc.lft.to/lastmile_qr_scan"}, "name": "93e7a8aadc8de24f518af261dbf1f2bc", "is_reserved": 0}, {"is_disabled": 0, "fusion_lon": 0.0, "fusion_lat": 0.0, "lat": 38.89721483333334, "type": "electric_scooter", "lon": -77.02161916666667, "bike_id": "82e3597076f3f6be5ba4aa37beca1ace", "rental_uris": {"android": "https://dc.lft.to/lastmile_qr_scan", "ios": "https://dc.lft.to/lastmile_qr_scan"}, "name": "82e3597076f3f6be5ba4aa37beca1ace", "is_reserved": 0}, {"is_disabled": 0, "fusion_lon": 0.0, "fusion_lat": 0.0, "lat": 38.91992483333333, "type": "electric_bike", "lon": -76.97308266666667, "bike_id": "2cddfc49188c7fc31fae25e17c08a4c2", "rental_uris": {"android": "https://dc.lft.to/lastmile_qr_scan", "ios": "https://dc.lft.to/lastmile_qr_scan"}, "name": "2cddfc49188c7fc31fae25e17c08a4c2", "is_reserved": 0}, {"is_disabled": 0, "fusion_lon": 0.0, "fusion_lat": 0.0, "lat": 38.91758033333333, "type": "electric_scooter", "lon": -77.035941, "bike_id": "21928e45d13020c515b070aac3edbff3", "rental_uris": {"android": "https://dc.lft.to/lastmile_qr_scan", "ios": "https://dc.lft.to/lastmile_qr_scan"}, "name": "21928e45d13020c515b070aac3edbff3", "is_reserved": 0}, {"is_disabled": 0, "fusion_lon": 0.0, "fusion_lat": 0.0, "lat": 38.93377383333333, "type": "electric_scooter", "lon": -77.07260833333333, "bike_id": "6917fb2ca3bf782026aee5662f81ec04", "rental_uris": {"android": "https://dc.lft.to/lastmile_qr_scan", "ios": "https://dc.lft.to/lastmile_qr_scan"}, "name": "6917fb2ca3bf782026aee5662f81ec04", "is_reserved": 0}, {"is_disabled": 0, "fusion_lon": 0.0, "fusion_lat": 0.0, "lat": 38.9159, "type": "electric_bike", "lon": -76.97148783333333, "bike_id": "d27fc0933aa2c501310a59a8db174c8f", "rental_uris": {"android": "https://dc.lft.to/lastmile_qr_scan", "ios": "https://dc.lft.to/lastmile_qr_scan"}, "name": "d27fc0933aa2c501310a59a8db174c8f", "is_reserved": 0}, {"is_disabled": 0, "fusion_lon": 0.0, "fusion_lat": 0.0, "lat": 38.918596666666666, "type": "electric_scooter", "lon": -77.03186166666667, "bike_id": "74dfa914026420f1145d4481fb120ed1", "rental_uris": {"android": "https://dc.lft.to/lastmile_qr_scan", "ios": "https://dc.lft.to/lastmile_qr_scan"}, "name": "74dfa914026420f1145d4481fb120ed1", "is_reserved": 0}, {"is_disabled": 0, "fusion_lon": 0.0, "fusion_lat": 0.0, "lat": 38.92278616666667, "type": "electric_bike", "lon": -76.99762416666667, "bike_id": "0c610aa472c0777f447f34e343d60d2d", "rental_uris": {"android": "https://dc.lft.to/lastmile_qr_scan", "ios": "https://dc.lft.to/lastmile_qr_scan"}, "name": "0c610aa472c0777f447f34e343d60d2d", "is_reserved": 0}, {"is_disabled": 0, "fusion_lon": 0.0, "fusion_lat": 0.0, "lat": 38.975397, "type": "electric_bike", "lon": -76.99528533333333, "bike_id": "722a85e5d502fbd6274971e72be4bd48", "rental_uris": {"android": "https://dc.lft.to/lastmile_qr_scan", "ios": "https://dc.lft.to/lastmile_qr_scan"}, "name": "722a85e5d502fbd6274971e72be4bd48", "is_reserved": 0}, {"is_disabled": 0, "fusion_lon": 0.0, "fusion_lat": 0.0, "lat": 38.911061833333335, "type": "electric_scooter", "lon": -77.00343266666667, "bike_id": "5520d9235e853cf6c49db65f9d32ebb9", "rental_uris": {"android": "https://dc.lft.to/lastmile_qr_scan", "ios": "https://dc.lft.to/lastmile_qr_scan"}, "name": "5520d9235e853cf6c49db65f9d32ebb9", "is_reserved": 0}, {"is_disabled": 0, "fusion_lon": 0.0, "fusion_lat": 0.0, "lat": 38.90841, "type": "electric_scooter", "lon": -77.02700866666666, "bike_id": "fb9664c9d36c557996474e1a357367ff", "rental_uris": {"android": "https://dc.lft.to/lastmile_qr_scan", "ios": "https://dc.lft.to/lastmile_qr_scan"}, "name": "fb9664c9d36c557996474e1a357367ff", "is_reserved": 0}, {"is_disabled": 0, "fusion_lon": 0.0, "fusion_lat": 0.0, "lat": 38.8690795, "type": "electric_bike", "lon": -77.13177833333333, "bike_id": "d9baad59ff8af8705557978f1380d833", "rental_uris": {"android": "https://dc.lft.to/lastmile_qr_scan", "ios": "https://dc.lft.to/lastmile_qr_scan"}, "name": "d9baad59ff8af8705557978f1380d833", "is_reserved": 0}, {"is_disabled": 0, "fusion_lon": 0.0, "fusion_lat": 0.0, "lat": 38.91268183333333, "type": "electric_scooter", "lon": -77.02223983333333, "bike_id": "081b4b18c6b7583dd8cafa48758c5265", "rental_uris": {"android": "https://dc.lft.to/lastmile_qr_scan", "ios": "https://dc.lft.to/lastmile_qr_scan"}, "name": "081b4b18c6b7583dd8cafa48758c5265", "is_reserved": 0}, {"is_disabled": 0, "fusion_lon": 0.0, "fusion_lat": 0.0, "lat": 38.922848333333334, "type": "electric_scooter", "lon": -77.0423325, "bike_id": "e45fba9236bd395f7ae9901692768287", "rental_uris": {"android": "https://dc.lft.to/lastmile_qr_scan", "ios": "https://dc.lft.to/lastmile_qr_scan"}, "name": "e45fba9236bd395f7ae9901692768287", "is_reserved": 0}, {"is_disabled": 0, "fusion_lon": 0.0, "fusion_lat": 0.0, "lat": 38.93581283333333, "type": "electric_bike", "lon": -77.08260483333333, "bike_id": "0878a1508eb342703b5821c087e54bb9", "rental_uris": {"android": "https://dc.lft.to/lastmile_qr_scan", "ios": "https://dc.lft.to/lastmile_qr_scan"}, "name": "0878a1508eb342703b5821c087e54bb9", "is_reserved": 0}, {"is_disabled": 0, "fusion_lon": 0.0, "fusion_lat": 0.0, "lat": 38.930038333333336, "type": "electric_scooter", "lon": -77.02211966666667, "bike_id": "b80c9f359ece850b9249b703ff946705", "rental_uris": {"android": "https://dc.lft.to/lastmile_qr_scan", "ios": "https://dc.lft.to/lastmile_qr_scan"}, "name": "b80c9f359ece850b9249b703ff946705", "is_reserved": 0}, {"is_disabled": 0, "fusion_lon": 0.0, "fusion_lat": 0.0, "lat": 38.9057215, "type": "electric_scooter", "lon": -77.00390566666667, "bike_id": "de0094c82699820a308f4018c2effffa", "rental_uris": {"android": "https://dc.lft.to/lastmile_qr_scan", "ios": "https://dc.lft.to/lastmile_qr_scan"}, "name": "de0094c82699820a308f4018c2effffa", "is_reserved": 0}, {"is_disabled": 0, "fusion_lon": 0.0, "fusion_lat": 0.0, "lat": 38.892387166666666, "type": "electric_scooter", "lon": -77.0467785, "bike_id": "f9209286d170055e13b53d57db4a0a68", "rental_uris": {"android": "https://dc.lft.to/lastmile_qr_scan", "ios": "https://dc.lft.to/lastmile_qr_scan"}, "name": "f9209286d170055e13b53d57db4a0a68", "is_reserved": 0}, {"is_disabled": 0, "fusion_lon": 0.0, "fusion_lat": 0.0, "lat": 38.89741383333333, "type": "electric_scooter", "lon": -77.04682116666666, "bike_id": "2acfd770783bec7ce9eae5f545d1319e", "rental_uris": {"android": "https://dc.lft.to/lastmile_qr_scan", "ios": "https://dc.lft.to/lastmile_qr_scan"}, "name": "2acfd770783bec7ce9eae5f545d1319e", "is_reserved": 0}, {"is_disabled": 0, "fusion_lon": 0.0, "fusion_lat": 0.0, "lat": 38.9354415, "type": "electric_scooter", "lon": -77.034201, "bike_id": "ce129d9dc4526ae5370367485700eca8", "rental_uris": {"android": "https://dc.lft.to/lastmile_qr_scan", "ios": "https://dc.lft.to/lastmile_qr_scan"}, "name": "ce129d9dc4526ae5370367485700eca8", "is_reserved": 0}, {"is_disabled": 0, "fusion_lon": 0.0, "fusion_lat": 0.0, "lat": 38.90471733333333, "type": "electric_scooter", "lon": -76.9921325, "bike_id": "e6d08f06c6685c908e4840dd79e1aa2a", "rental_uris": {"android": "https://dc.lft.to/lastmile_qr_scan", "ios": "https://dc.lft.to/lastmile_qr_scan"}, "name": "e6d08f06c6685c908e4840dd79e1aa2a", "is_reserved": 0}, {"is_disabled": 0, "fusion_lon": 0.0, "fusion_lat": 0.0, "lat": 38.92262866666667, "type": "electric_scooter", "lon": -77.0712905, "bike_id": "57c8e90f0ab85c47386e450d53a32c44", "rental_uris": {"android": "https://dc.lft.to/lastmile_qr_scan", "ios": "https://dc.lft.to/lastmile_qr_scan"}, "name": "57c8e90f0ab85c47386e450d53a32c44", "is_reserved": 0}, {"is_disabled": 0, "fusion_lon": 0.0, "fusion_lat": 0.0, "lat": 38.911514833333335, "type": "electric_scooter", "lon": -76.98500983333334, "bike_id": "0cfce5f247e6accf970dd20073e07bb7", "rental_uris": {"android": "https://dc.lft.to/lastmile_qr_scan", "ios": "https://dc.lft.to/lastmile_qr_scan"}, "name": "0cfce5f247e6accf970dd20073e07bb7", "is_reserved": 0}, {"is_disabled": 0, "fusion_lon": 0.0, "fusion_lat": 0.0, "lat": 38.9170545, "type": "electric_scooter", "lon": -77.0011535, "bike_id": "4f3dce5c0082b46c8f3d0b2c04c9d418", "rental_uris": {"android": "https://dc.lft.to/lastmile_qr_scan", "ios": "https://dc.lft.to/lastmile_qr_scan"}, "name": "4f3dce5c0082b46c8f3d0b2c04c9d418", "is_reserved": 0}, {"is_disabled": 0, "fusion_lon": 0.0, "fusion_lat": 0.0, "lat": 38.908996, "type": "electric_scooter", "lon": -77.02295616666666, "bike_id": "c26a40e0ca9d3679aff56d2a37da0405", "rental_uris": {"android": "https://dc.lft.to/lastmile_qr_scan", "ios": "https://dc.lft.to/lastmile_qr_scan"}, "name": "c26a40e0ca9d3679aff56d2a37da0405", "is_reserved": 0}, {"is_disabled": 0, "fusion_lon": 0.0, "fusion_lat": 0.0, "lat": 38.9179975, "type": "electric_scooter", "lon": -77.02394866666667, "bike_id": "6cba76cb52233e4c7e07d51cfc17b776", "rental_uris": {"android": "https://dc.lft.to/lastmile_qr_scan", "ios": "https://dc.lft.to/lastmile_qr_scan"}, "name": "6cba76cb52233e4c7e07d51cfc17b776", "is_reserved": 0}, {"is_disabled": 0, "fusion_lon": 0.0, "fusion_lat": 0.0, "lat": 38.985044, "type": "electric_bike", "lon": -76.9821475, "bike_id": "2ee872bae8b657cace9fc6eda6a47f46", "rental_uris": {"android": "https://dc.lft.to/lastmile_qr_scan", "ios": "https://dc.lft.to/lastmile_qr_scan"}, "name": "2ee872bae8b657cace9fc6eda6a47f46", "is_reserved": 0}, {"is_disabled": 0, "fusion_lon": 0.0, "fusion_lat": 0.0, "lat": 38.903635666666666, "type": "electric_scooter", "lon": -77.032293, "bike_id": "a981db0c89674d992e5432595724b530", "rental_uris": {"android": "https://dc.lft.to/lastmile_qr_scan", "ios": "https://dc.lft.to/lastmile_qr_scan"}, "name": "a981db0c89674d992e5432595724b530", "is_reserved": 0}, {"is_disabled": 0, "fusion_lon": 0.0, "fusion_lat": 0.0, "lat": 38.905121333333334, "type": "electric_scooter", "lon": -77.025083, "bike_id": "ae2125e90ecb3183672f9917469fd0c1", "rental_uris": {"android": "https://dc.lft.to/lastmile_qr_scan", "ios": "https://dc.lft.to/lastmile_qr_scan"}, "name": "ae2125e90ecb3183672f9917469fd0c1", "is_reserved": 0}, {"is_disabled": 0, "fusion_lon": 0.0, "fusion_lat": 0.0, "lat": 38.91822033333333, "type": "electric_scooter", "lon": -77.03213833333334, "bike_id": "5cb6f103d343cec10ee19c85eed8da11", "rental_uris": {"android": "https://dc.lft.to/lastmile_qr_scan", "ios": "https://dc.lft.to/lastmile_qr_scan"}, "name": "5cb6f103d343cec10ee19c85eed8da11", "is_reserved": 0}, {"is_disabled": 0, "fusion_lon": 0.0, "fusion_lat": 0.0, "lat": 38.9156245, "type": "electric_scooter", "lon": -77.0102315, "bike_id": "18af94fbad061077618d11361a7b4394", "rental_uris": {"android": "https://dc.lft.to/lastmile_qr_scan", "ios": "https://dc.lft.to/lastmile_qr_scan"}, "name": "18af94fbad061077618d11361a7b4394", "is_reserved": 0}, {"is_disabled": 0, "fusion_lon": 0.0, "fusion_lat": 0.0, "lat": 38.904798166666666, "type": "electric_scooter", "lon": -76.97321833333334, "bike_id": "326a4e0a5796d47101a3d58802fee010", "rental_uris": {"android": "https://dc.lft.to/lastmile_qr_scan", "ios": "https://dc.lft.to/lastmile_qr_scan"}, "name": "326a4e0a5796d47101a3d58802fee010", "is_reserved": 0}, {"is_disabled": 0, "fusion_lon": 0.0, "fusion_lat": 0.0, "lat": 38.9027755, "type": "electric_scooter", "lon": -77.03440133333334, "bike_id": "2180c1a699ad688263b5a1218fb7f3b3", "rental_uris": {"android": "https://dc.lft.to/lastmile_qr_scan", "ios": "https://dc.lft.to/lastmile_qr_scan"}, "name": "2180c1a699ad688263b5a1218fb7f3b3", "is_reserved": 0}, {"is_disabled": 0, "fusion_lon": 0.0, "fusion_lat": 0.0, "lat": 38.89826333333333, "type": "electric_scooter", "lon": -76.94652066666667, "bike_id": "e433894a4715c8f2f225519f23de1126", "rental_uris": {"android": "https://dc.lft.to/lastmile_qr_scan", "ios": "https://dc.lft.to/lastmile_qr_scan"}, "name": "e433894a4715c8f2f225519f23de1126", "is_reserved": 0}, {"is_disabled": 0, "fusion_lon": 0.0, "fusion_lat": 0.0, "lat": 38.911086166666664, "type": "electric_scooter", "lon": -77.03219766666666, "bike_id": "6fbc893014eb9d78d386ea640fb6f9b5", "rental_uris": {"android": "https://dc.lft.to/lastmile_qr_scan", "ios": "https://dc.lft.to/lastmile_qr_scan"}, "name": "6fbc893014eb9d78d386ea640fb6f9b5", "is_reserved": 0}, {"is_disabled": 0, "fusion_lon": 0.0, "fusion_lat": 0.0, "lat": 38.92459183333333, "type": "electric_scooter", "lon": -77.02966883333333, "bike_id": "70a170b60bd5520a405d23078bbab247", "rental_uris": {"android": "https://dc.lft.to/lastmile_qr_scan", "ios": "https://dc.lft.to/lastmile_qr_scan"}, "name": "70a170b60bd5520a405d23078bbab247", "is_reserved": 0}, {"is_disabled": 0, "fusion_lon": 0.0, "fusion_lat": 0.0, "lat": 38.9105215, "type": "electric_scooter", "lon": -77.02290883333333, "bike_id": "12434b41dc7603936142191832da7f66", "rental_uris": {"android": "https://dc.lft.to/lastmile_qr_scan", "ios": "https://dc.lft.to/lastmile_qr_scan"}, "name": "12434b41dc7603936142191832da7f66", "is_reserved": 0}, {"is_disabled": 0, "fusion_lon": 0.0, "fusion_lat": 0.0, "lat": 38.917091666666664, "type": "electric_scooter", "lon": -77.03317066666666, "bike_id": "c834273005153f50a455dbc13ae00020", "rental_uris": {"android": "https://dc.lft.to/lastmile_qr_scan", "ios": "https://dc.lft.to/lastmile_qr_scan"}, "name": "c834273005153f50a455dbc13ae00020", "is_reserved": 0}, {"is_disabled": 0, "fusion_lon": 0.0, "fusion_lat": 0.0, "lat": 38.95179183333333, "type": "electric_scooter", "lon": -77.02609666666666, "bike_id": "c7c8159281c0519972f6cd8d9225d074", "rental_uris": {"android": "https://dc.lft.to/lastmile_qr_scan", "ios": "https://dc.lft.to/lastmile_qr_scan"}, "name": "c7c8159281c0519972f6cd8d9225d074", "is_reserved": 0}, {"is_disabled": 0, "fusion_lon": 0.0, "fusion_lat": 0.0, "lat": 38.90383683333334, "type": "electric_scooter", "lon": -76.99003133333333, "bike_id": "c323e2cfe684cd9c302d83fcfc0eb199", "rental_uris": {"android": "https://dc.lft.to/lastmile_qr_scan", "ios": "https://dc.lft.to/lastmile_qr_scan"}, "name": "c323e2cfe684cd9c302d83fcfc0eb199", "is_reserved": 0}, {"is_disabled": 0, "fusion_lon": 0.0, "fusion_lat": 0.0, "lat": 38.88129766666667, "type": "electric_bike", "lon": -77.01692616666666, "bike_id": "e951a6e0045580f8d8dfb449e2788751", "rental_uris": {"android": "https://dc.lft.to/lastmile_qr_scan", "ios": "https://dc.lft.to/lastmile_qr_scan"}, "name": "e951a6e0045580f8d8dfb449e2788751", "is_reserved": 0}, {"is_disabled": 0, "fusion_lon": 0.0, "fusion_lat": 0.0, "lat": 38.9280465, "type": "electric_scooter", "lon": -77.03621766666667, "bike_id": "5587a851bd3f0594ae36ff6c94532fbe", "rental_uris": {"android": "https://dc.lft.to/lastmile_qr_scan", "ios": "https://dc.lft.to/lastmile_qr_scan"}, "name": "5587a851bd3f0594ae36ff6c94532fbe", "is_reserved": 0}, {"is_disabled": 0, "fusion_lon": 0.0, "fusion_lat": 0.0, "lat": 38.94625666666666, "type": "electric_bike", "lon": -76.93411566666667, "bike_id": "b7c6db34f585da5c7262b21273f6c0bf", "rental_uris": {"android": "https://dc.lft.to/lastmile_qr_scan", "ios": "https://dc.lft.to/lastmile_qr_scan"}, "name": "b7c6db34f585da5c7262b21273f6c0bf", "is_reserved": 0}, {"is_disabled": 0, "fusion_lon": 0.0, "fusion_lat": 0.0, "lat": 38.86355966666667, "type": "electric_scooter", "lon": -76.99067, "bike_id": "bfb745e0c012bd6213c6db5d1fcb895f", "rental_uris": {"android": "https://dc.lft.to/lastmile_qr_scan", "ios": "https://dc.lft.to/lastmile_qr_scan"}, "name": "bfb745e0c012bd6213c6db5d1fcb895f", "is_reserved": 0}, {"is_disabled": 0, "fusion_lon": 0.0, "fusion_lat": 0.0, "lat": 38.92033966666666, "type": "electric_scooter", "lon": -77.01876483333334, "bike_id": "7279d54b1981cb9fad3280582b09d93d", "rental_uris": {"android": "https://dc.lft.to/lastmile_qr_scan", "ios": "https://dc.lft.to/lastmile_qr_scan"}, "name": "7279d54b1981cb9fad3280582b09d93d", "is_reserved": 0}, {"is_disabled": 0, "fusion_lon": 0.0, "fusion_lat": 0.0, "lat": 38.90179366666667, "type": "electric_scooter", "lon": -77.05011933333333, "bike_id": "034e232898746386ff5e5de158e551b7", "rental_uris": {"android": "https://dc.lft.to/lastmile_qr_scan", "ios": "https://dc.lft.to/lastmile_qr_scan"}, "name": "034e232898746386ff5e5de158e551b7", "is_reserved": 0}, {"is_disabled": 0, "fusion_lon": 0.0, "fusion_lat": 0.0, "lat": 38.9056645, "type": "electric_scooter", "lon": -77.04866383333334, "bike_id": "fe0908c83b68c619127010a1b37d59ee", "rental_uris": {"android": "https://dc.lft.to/lastmile_qr_scan", "ios": "https://dc.lft.to/lastmile_qr_scan"}, "name": "fe0908c83b68c619127010a1b37d59ee", "is_reserved": 0}, {"is_disabled": 0, "fusion_lon": 0.0, "fusion_lat": 0.0, "lat": 38.93702483333333, "type": "electric_scooter", "lon": -77.0610595, "bike_id": "711055822685222d87ee524a8208041d", "rental_uris": {"android": "https://dc.lft.to/lastmile_qr_scan", "ios": "https://dc.lft.to/lastmile_qr_scan"}, "name": "711055822685222d87ee524a8208041d", "is_reserved": 0}, {"is_disabled": 0, "fusion_lon": 0.0, "fusion_lat": 0.0, "lat": 38.89829433333333, "type": "electric_scooter", "lon": -77.04332983333333, "bike_id": "a7505b77e02f7beeae762efd7f389187", "rental_uris": {"android": "https://dc.lft.to/lastmile_qr_scan", "ios": "https://dc.lft.to/lastmile_qr_scan"}, "name": "a7505b77e02f7beeae762efd7f389187", "is_reserved": 0}, {"is_disabled": 0, "fusion_lon": 0.0, "fusion_lat": 0.0, "lat": 38.923378666666665, "type": "electric_scooter", "lon": -77.0545185, "bike_id": "44e7936924be3a34c081cbe9e1d2fbb0", "rental_uris": {"android": "https://dc.lft.to/lastmile_qr_scan", "ios": "https://dc.lft.to/lastmile_qr_scan"}, "name": "44e7936924be3a34c081cbe9e1d2fbb0", "is_reserved": 0}, {"is_disabled": 0, "fusion_lon": 0.0, "fusion_lat": 0.0, "lat": 38.943032333333335, "type": "electric_scooter", "lon": -77.027621, "bike_id": "d1239010f5f0ecb51471ecc4280f8732", "rental_uris": {"android": "https://dc.lft.to/lastmile_qr_scan", "ios": "https://dc.lft.to/lastmile_qr_scan"}, "name": "d1239010f5f0ecb51471ecc4280f8732", "is_reserved": 0}, {"is_disabled": 0, "fusion_lon": 0.0, "fusion_lat": 0.0, "lat": 38.81026633333333, "type": "electric_bike", "lon": -77.08441516666667, "bike_id": "51c53ef69a997124b10b6e48f765f475", "rental_uris": {"android": "https://dc.lft.to/lastmile_qr_scan", "ios": "https://dc.lft.to/lastmile_qr_scan"}, "name": "51c53ef69a997124b10b6e48f765f475", "is_reserved": 0}, {"is_disabled": 0, "fusion_lon": 0.0, "fusion_lat": 0.0, "lat": 38.92584033333333, "type": "electric_scooter", "lon": -77.0321175, "bike_id": "568edafd0e62a24617adacdfbafeb081", "rental_uris": {"android": "https://dc.lft.to/lastmile_qr_scan", "ios": "https://dc.lft.to/lastmile_qr_scan"}, "name": "568edafd0e62a24617adacdfbafeb081", "is_reserved": 0}, {"is_disabled": 0, "fusion_lon": 0.0, "fusion_lat": 0.0, "lat": 38.894147333333336, "type": "electric_scooter", "lon": -77.010857, "bike_id": "0b4191143ff2295cfc9956d06d6c8196", "rental_uris": {"android": "https://dc.lft.to/lastmile_qr_scan", "ios": "https://dc.lft.to/lastmile_qr_scan"}, "name": "0b4191143ff2295cfc9956d06d6c8196", "is_reserved": 0}, {"is_disabled": 0, "fusion_lon": 0.0, "fusion_lat": 0.0, "lat": 38.92073533333333, "type": "electric_scooter", "lon": -77.043789, "bike_id": "569f931e5fffa5b514a019b192ddab2f", "rental_uris": {"android": "https://dc.lft.to/lastmile_qr_scan", "ios": "https://dc.lft.to/lastmile_qr_scan"}, "name": "569f931e5fffa5b514a019b192ddab2f", "is_reserved": 0}, {"is_disabled": 0, "fusion_lon": 0.0, "fusion_lat": 0.0, "lat": 38.923367166666665, "type": "electric_scooter", "lon": -77.04187366666666, "bike_id": "671e50853b37a747a3e62f1bdef4d420", "rental_uris": {"android": "https://dc.lft.to/lastmile_qr_scan", "ios": "https://dc.lft.to/lastmile_qr_scan"}, "name": "671e50853b37a747a3e62f1bdef4d420", "is_reserved": 0}, {"is_disabled": 0, "fusion_lon": 0.0, "fusion_lat": 0.0, "lat": 38.919345166666666, "type": "electric_bike", "lon": -76.97506116666666, "bike_id": "97c8859a4ab42ae2c5681e7eceb05054", "rental_uris": {"android": "https://dc.lft.to/lastmile_qr_scan", "ios": "https://dc.lft.to/lastmile_qr_scan"}, "name": "97c8859a4ab42ae2c5681e7eceb05054", "is_reserved": 0}, {"is_disabled": 0, "fusion_lon": 0.0, "fusion_lat": 0.0, "lat": 38.86958466666667, "type": "electric_scooter", "lon": -76.96033983333334, "bike_id": "eed0d3f0e818113893af4ade21bbbb67", "rental_uris": {"android": "https://dc.lft.to/lastmile_qr_scan", "ios": "https://dc.lft.to/lastmile_qr_scan"}, "name": "eed0d3f0e818113893af4ade21bbbb67", "is_reserved": 0}, {"is_disabled": 0, "fusion_lon": 0.0, "fusion_lat": 0.0, "lat": 38.9001435, "type": "electric_scooter", "lon": -77.03342166666667, "bike_id": "1445884fd069088c653c6aafab9592b8", "rental_uris": {"android": "https://dc.lft.to/lastmile_qr_scan", "ios": "https://dc.lft.to/lastmile_qr_scan"}, "name": "1445884fd069088c653c6aafab9592b8", "is_reserved": 0}, {"is_disabled": 0, "fusion_lon": 0.0, "fusion_lat": 0.0, "lat": 38.90960116666667, "type": "electric_scooter", "lon": -77.0237855, "bike_id": "b3eb2ba3f1a7743fc14c7803c596e797", "rental_uris": {"android": "https://dc.lft.to/lastmile_qr_scan", "ios": "https://dc.lft.to/lastmile_qr_scan"}, "name": "b3eb2ba3f1a7743fc14c7803c596e797", "is_reserved": 0}, {"is_disabled": 0, "fusion_lon": 0.0, "fusion_lat": 0.0, "lat": 38.90532316666667, "type": "electric_scooter", "lon": -77.065342, "bike_id": "c8091564afb51342c6b2fe0c6a834cc9", "rental_uris": {"android": "https://dc.lft.to/lastmile_qr_scan", "ios": "https://dc.lft.to/lastmile_qr_scan"}, "name": "c8091564afb51342c6b2fe0c6a834cc9", "is_reserved": 0}, {"is_disabled": 0, "fusion_lon": 0.0, "fusion_lat": 0.0, "lat": 38.9190455, "type": "electric_scooter", "lon": -77.071124, "bike_id": "fc5cf1324424af5d8bb7ecd8413efea1", "rental_uris": {"android": "https://dc.lft.to/lastmile_qr_scan", "ios": "https://dc.lft.to/lastmile_qr_scan"}, "name": "fc5cf1324424af5d8bb7ecd8413efea1", "is_reserved": 0}, {"is_disabled": 0, "fusion_lon": 0.0, "fusion_lat": 0.0, "lat": 38.9072595, "type": "electric_scooter", "lon": -77.03199083333334, "bike_id": "ed172359e70844de9c3a8fcd70f02dfb", "rental_uris": {"android": "https://dc.lft.to/lastmile_qr_scan", "ios": "https://dc.lft.to/lastmile_qr_scan"}, "name": "ed172359e70844de9c3a8fcd70f02dfb", "is_reserved": 0}, {"is_disabled": 0, "fusion_lon": 0.0, "fusion_lat": 0.0, "lat": 38.89736383333333, "type": "electric_scooter", "lon": -77.04805483333334, "bike_id": "94426b952bc6cbe20b1f56342d404ca1", "rental_uris": {"android": "https://dc.lft.to/lastmile_qr_scan", "ios": "https://dc.lft.to/lastmile_qr_scan"}, "name": "94426b952bc6cbe20b1f56342d404ca1", "is_reserved": 0}, {"is_disabled": 0, "fusion_lon": 0.0, "fusion_lat": 0.0, "lat": 38.915623333333336, "type": "electric_scooter", "lon": -77.03871316666667, "bike_id": "d8c21154a9ec440364b3d6bd72af8ef0", "rental_uris": {"android": "https://dc.lft.to/lastmile_qr_scan", "ios": "https://dc.lft.to/lastmile_qr_scan"}, "name": "d8c21154a9ec440364b3d6bd72af8ef0", "is_reserved": 0}, {"is_disabled": 0, "fusion_lon": 0.0, "fusion_lat": 0.0, "lat": 38.9297365, "type": "electric_scooter", "lon": -77.0070695, "bike_id": "9e8e19df018ea71428ff6cbf0d7ec79b", "rental_uris": {"android": "https://dc.lft.to/lastmile_qr_scan", "ios": "https://dc.lft.to/lastmile_qr_scan"}, "name": "9e8e19df018ea71428ff6cbf0d7ec79b", "is_reserved": 0}, {"is_disabled": 0, "fusion_lon": 0.0, "fusion_lat": 0.0, "lat": 38.903557, "type": "electric_scooter", "lon": -77.0049505, "bike_id": "7c1eab99d035d13b4c61d8cfc6898b2e", "rental_uris": {"android": "https://dc.lft.to/lastmile_qr_scan", "ios": "https://dc.lft.to/lastmile_qr_scan"}, "name": "7c1eab99d035d13b4c61d8cfc6898b2e", "is_reserved": 0}, {"is_disabled": 0, "fusion_lon": 0.0, "fusion_lat": 0.0, "lat": 38.9275615, "type": "electric_scooter", "lon": -77.0059695, "bike_id": "58f6a9af3a1adc8543353a4c3eddc60d", "rental_uris": {"android": "https://dc.lft.to/lastmile_qr_scan", "ios": "https://dc.lft.to/lastmile_qr_scan"}, "name": "58f6a9af3a1adc8543353a4c3eddc60d", "is_reserved": 0}, {"is_disabled": 0, "fusion_lon": 0.0, "fusion_lat": 0.0, "lat": 38.9248475, "type": "electric_scooter", "lon": -77.0348505, "bike_id": "b16a20d3b142399ae516fc45e56cb4a3", "rental_uris": {"android": "https://dc.lft.to/lastmile_qr_scan", "ios": "https://dc.lft.to/lastmile_qr_scan"}, "name": "b16a20d3b142399ae516fc45e56cb4a3", "is_reserved": 0}, {"is_disabled": 0, "fusion_lon": 0.0, "fusion_lat": 0.0, "lat": 38.903964, "type": "electric_scooter", "lon": -76.9900655, "bike_id": "3c176f12a759495a3bab078631afba94", "rental_uris": {"android": "https://dc.lft.to/lastmile_qr_scan", "ios": "https://dc.lft.to/lastmile_qr_scan"}, "name": "3c176f12a759495a3bab078631afba94", "is_reserved": 0}, {"is_disabled": 0, "fusion_lon": 0.0, "fusion_lat": 0.0, "lat": 38.9193345, "type": "electric_scooter", "lon": -76.980798, "bike_id": "acd5055b1d8161d3208c9ed41ba5a675", "rental_uris": {"android": "https://dc.lft.to/lastmile_qr_scan", "ios": "https://dc.lft.to/lastmile_qr_scan"}, "name": "acd5055b1d8161d3208c9ed41ba5a675", "is_reserved": 0}, {"is_disabled": 0, "fusion_lon": 0.0, "fusion_lat": 0.0, "lat": 38.92337166666667, "type": "electric_scooter", "lon": -77.04189833333334, "bike_id": "6f794d15b0288715bc517f59af25ca3f", "rental_uris": {"android": "https://dc.lft.to/lastmile_qr_scan", "ios": "https://dc.lft.to/lastmile_qr_scan"}, "name": "6f794d15b0288715bc517f59af25ca3f", "is_reserved": 0}, {"is_disabled": 0, "fusion_lon": 0.0, "fusion_lat": 0.0, "lat": 38.85511966666667, "type": "electric_bike", "lon": -76.95836516666667, "bike_id": "a70697c7526669482cc6d535de7b6520", "rental_uris": {"android": "https://dc.lft.to/lastmile_qr_scan", "ios": "https://dc.lft.to/lastmile_qr_scan"}, "name": "a70697c7526669482cc6d535de7b6520", "is_reserved": 0}, {"is_disabled": 0, "fusion_lon": 0.0, "fusion_lat": 0.0, "lat": 38.921291, "type": "electric_scooter", "lon": -77.017667, "bike_id": "726bfc9e80b269a63ee2d5f7569ba53a", "rental_uris": {"android": "https://dc.lft.to/lastmile_qr_scan", "ios": "https://dc.lft.to/lastmile_qr_scan"}, "name": "726bfc9e80b269a63ee2d5f7569ba53a", "is_reserved": 0}, {"is_disabled": 0, "fusion_lon": 0.0, "fusion_lat": 0.0, "lat": 38.930010333333335, "type": "electric_scooter", "lon": -77.02100266666666, "bike_id": "baf6edd36355d0760e20c7411b87da77", "rental_uris": {"android": "https://dc.lft.to/lastmile_qr_scan", "ios": "https://dc.lft.to/lastmile_qr_scan"}, "name": "baf6edd36355d0760e20c7411b87da77", "is_reserved": 0}, {"is_disabled": 0, "fusion_lon": 0.0, "fusion_lat": 0.0, "lat": 38.91555983333333, "type": "electric_scooter", "lon": -77.0076755, "bike_id": "f09277684ec6620740e8e271e380d913", "rental_uris": {"android": "https://dc.lft.to/lastmile_qr_scan", "ios": "https://dc.lft.to/lastmile_qr_scan"}, "name": "f09277684ec6620740e8e271e380d913", "is_reserved": 0}, {"is_disabled": 0, "fusion_lon": 0.0, "fusion_lat": 0.0, "lat": 38.90848483333333, "type": "electric_scooter", "lon": -77.02064633333333, "bike_id": "3dad471b44275da4f911654d045c3865", "rental_uris": {"android": "https://dc.lft.to/lastmile_qr_scan", "ios": "https://dc.lft.to/lastmile_qr_scan"}, "name": "3dad471b44275da4f911654d045c3865", "is_reserved": 0}, {"is_disabled": 0, "fusion_lon": 0.0, "fusion_lat": 0.0, "lat": 38.94590133333333, "type": "electric_bike", "lon": -77.344127, "bike_id": "dfbc6195c1a485c9bfae8463f0c09669", "rental_uris": {"android": "https://dc.lft.to/lastmile_qr_scan", "ios": "https://dc.lft.to/lastmile_qr_scan"}, "name": "dfbc6195c1a485c9bfae8463f0c09669", "is_reserved": 0}, {"is_disabled": 0, "fusion_lon": 0.0, "fusion_lat": 0.0, "lat": 38.91561333333333, "type": "electric_scooter", "lon": -77.038734, "bike_id": "5febe6b55234e5cc1f16b9689d1a169c", "rental_uris": {"android": "https://dc.lft.to/lastmile_qr_scan", "ios": "https://dc.lft.to/lastmile_qr_scan"}, "name": "5febe6b55234e5cc1f16b9689d1a169c", "is_reserved": 0}, {"is_disabled": 0, "fusion_lon": 0.0, "fusion_lat": 0.0, "lat": 38.908543, "type": "electric_scooter", "lon": -77.0551365, "bike_id": "1020e04b6ba55c70eec086c148fff846", "rental_uris": {"android": "https://dc.lft.to/lastmile_qr_scan", "ios": "https://dc.lft.to/lastmile_qr_scan"}, "name": "1020e04b6ba55c70eec086c148fff846", "is_reserved": 0}, {"is_disabled": 0, "fusion_lon": 0.0, "fusion_lat": 0.0, "lat": 38.88850216666667, "type": "electric_bike", "lon": -76.97701666666667, "bike_id": "b57fd5bb8b1358791908edfd1f8d63d0", "rental_uris": {"android": "https://dc.lft.to/lastmile_qr_scan", "ios": "https://dc.lft.to/lastmile_qr_scan"}, "name": "b57fd5bb8b1358791908edfd1f8d63d0", "is_reserved": 0}, {"is_disabled": 0, "fusion_lon": 0.0, "fusion_lat": 0.0, "lat": 39.05459183333333, "type": "electric_bike", "lon": -77.14327716666666, "bike_id": "c0997550efd85ec3af9c8f7790ee9bb6", "rental_uris": {"android": "https://dc.lft.to/lastmile_qr_scan", "ios": "https://dc.lft.to/lastmile_qr_scan"}, "name": "c0997550efd85ec3af9c8f7790ee9bb6", "is_reserved": 0}, {"is_disabled": 0, "fusion_lon": 0.0, "fusion_lat": 0.0, "lat": 38.88742583333333, "type": "electric_scooter", "lon": -77.014316, "bike_id": "aac952a60436c2d5b182249435915e99", "rental_uris": {"android": "https://dc.lft.to/lastmile_qr_scan", "ios": "https://dc.lft.to/lastmile_qr_scan"}, "name": "aac952a60436c2d5b182249435915e99", "is_reserved": 0}, {"is_disabled": 0, "fusion_lon": 0.0, "fusion_lat": 0.0, "lat": 38.90268416666667, "type": "electric_scooter", "lon": -77.00333166666667, "bike_id": "fc29c81cc0338a1763e043d6fce564ee", "rental_uris": {"android": "https://dc.lft.to/lastmile_qr_scan", "ios": "https://dc.lft.to/lastmile_qr_scan"}, "name": "fc29c81cc0338a1763e043d6fce564ee", "is_reserved": 0}, {"is_disabled": 0, "fusion_lon": 0.0, "fusion_lat": 0.0, "lat": 38.88446316666667, "type": "electric_scooter", "lon": -77.0296685, "bike_id": "0930b8c1d4186bc077d4262c133ae45b", "rental_uris": {"android": "https://dc.lft.to/lastmile_qr_scan", "ios": "https://dc.lft.to/lastmile_qr_scan"}, "name": "0930b8c1d4186bc077d4262c133ae45b", "is_reserved": 0}, {"is_disabled": 0, "fusion_lon": 0.0, "fusion_lat": 0.0, "lat": 38.89389233333333, "type": "electric_scooter", "lon": -76.95003, "bike_id": "1e2b4cbc55c9ed15dfeb9dfc4091984c", "rental_uris": {"android": "https://dc.lft.to/lastmile_qr_scan", "ios": "https://dc.lft.to/lastmile_qr_scan"}, "name": "1e2b4cbc55c9ed15dfeb9dfc4091984c", "is_reserved": 0}, {"is_disabled": 0, "fusion_lon": 0.0, "fusion_lat": 0.0, "lat": 38.90555033333333, "type": "electric_scooter", "lon": -76.9814695, "bike_id": "5ece8338edcced437339ca42797897da", "rental_uris": {"android": "https://dc.lft.to/lastmile_qr_scan", "ios": "https://dc.lft.to/lastmile_qr_scan"}, "name": "5ece8338edcced437339ca42797897da", "is_reserved": 0}, {"is_disabled": 0, "fusion_lon": 0.0, "fusion_lat": 0.0, "lat": 38.896033833333334, "type": "electric_scooter", "lon": -77.009313, "bike_id": "c74e782b9f0564bdd512cb078d78ba81", "rental_uris": {"android": "https://dc.lft.to/lastmile_qr_scan", "ios": "https://dc.lft.to/lastmile_qr_scan"}, "name": "c74e782b9f0564bdd512cb078d78ba81", "is_reserved": 0}, {"is_disabled": 0, "fusion_lon": 0.0, "fusion_lat": 0.0, "lat": 38.900309166666666, "type": "electric_scooter", "lon": -77.04659683333334, "bike_id": "efcd9b2e0f13288ebd3a82d66cfe2b06", "rental_uris": {"android": "https://dc.lft.to/lastmile_qr_scan", "ios": "https://dc.lft.to/lastmile_qr_scan"}, "name": "efcd9b2e0f13288ebd3a82d66cfe2b06", "is_reserved": 0}, {"is_disabled": 0, "fusion_lon": 0.0, "fusion_lat": 0.0, "lat": 38.9248125, "type": "electric_scooter", "lon": -77.037818, "bike_id": "acd1f31a263d968670c08f133945fca2", "rental_uris": {"android": "https://dc.lft.to/lastmile_qr_scan", "ios": "https://dc.lft.to/lastmile_qr_scan"}, "name": "acd1f31a263d968670c08f133945fca2", "is_reserved": 0}, {"is_disabled": 0, "fusion_lon": 0.0, "fusion_lat": 0.0, "lat": 38.9392575, "type": "electric_bike", "lon": -76.99520933333334, "bike_id": "2692051839f941a83692e2e97ea3b013", "rental_uris": {"android": "https://dc.lft.to/lastmile_qr_scan", "ios": "https://dc.lft.to/lastmile_qr_scan"}, "name": "2692051839f941a83692e2e97ea3b013", "is_reserved": 0}, {"is_disabled": 0, "fusion_lon": 0.0, "fusion_lat": 0.0, "lat": 38.932296666666666, "type": "electric_scooter", "lon": -76.9993535, "bike_id": "1bb8612ac05679e167242bdfd78eac91", "rental_uris": {"android": "https://dc.lft.to/lastmile_qr_scan", "ios": "https://dc.lft.to/lastmile_qr_scan"}, "name": "1bb8612ac05679e167242bdfd78eac91", "is_reserved": 0}, {"is_disabled": 0, "fusion_lon": 0.0, "fusion_lat": 0.0, "lat": 38.8996255, "type": "electric_scooter", "lon": -77.01619733333334, "bike_id": "4a757b9b2aa20fc613001b0cec7b1b22", "rental_uris": {"android": "https://dc.lft.to/lastmile_qr_scan", "ios": "https://dc.lft.to/lastmile_qr_scan"}, "name": "4a757b9b2aa20fc613001b0cec7b1b22", "is_reserved": 0}, {"is_disabled": 0, "fusion_lon": 0.0, "fusion_lat": 0.0, "lat": 38.888344333333336, "type": "electric_scooter", "lon": -76.91786316666666, "bike_id": "dc0a97a0a34beb021ab48556ac5212fc", "rental_uris": {"android": "https://dc.lft.to/lastmile_qr_scan", "ios": "https://dc.lft.to/lastmile_qr_scan"}, "name": "dc0a97a0a34beb021ab48556ac5212fc", "is_reserved": 0}, {"is_disabled": 0, "fusion_lon": 0.0, "fusion_lat": 0.0, "lat": 38.905864, "type": "electric_scooter", "lon": -77.04680233333333, "bike_id": "83ba959121f6f08339bf8cd416195610", "rental_uris": {"android": "https://dc.lft.to/lastmile_qr_scan", "ios": "https://dc.lft.to/lastmile_qr_scan"}, "name": "83ba959121f6f08339bf8cd416195610", "is_reserved": 0}, {"is_disabled": 0, "fusion_lon": 0.0, "fusion_lat": 0.0, "lat": 38.918263, "type": "electric_scooter", "lon": -77.04533583333334, "bike_id": "fd107c0a3a79b3f3abd01a0bc73a42b5", "rental_uris": {"android": "https://dc.lft.to/lastmile_qr_scan", "ios": "https://dc.lft.to/lastmile_qr_scan"}, "name": "fd107c0a3a79b3f3abd01a0bc73a42b5", "is_reserved": 0}, {"is_disabled": 0, "fusion_lon": 0.0, "fusion_lat": 0.0, "lat": 38.93668816666667, "type": "electric_scooter", "lon": -77.036339, "bike_id": "e9ec9d415c3889e7cb3c33e8f7718edd", "rental_uris": {"android": "https://dc.lft.to/lastmile_qr_scan", "ios": "https://dc.lft.to/lastmile_qr_scan"}, "name": "e9ec9d415c3889e7cb3c33e8f7718edd", "is_reserved": 0}, {"is_disabled": 0, "fusion_lon": 0.0, "fusion_lat": 0.0, "lat": 38.91702516666667, "type": "electric_scooter", "lon": -77.03444566666667, "bike_id": "115f6fb540a627c5607ff99fd7b2c94d", "rental_uris": {"android": "https://dc.lft.to/lastmile_qr_scan", "ios": "https://dc.lft.to/lastmile_qr_scan"}, "name": "115f6fb540a627c5607ff99fd7b2c94d", "is_reserved": 0}, {"is_disabled": 0, "fusion_lon": 0.0, "fusion_lat": 0.0, "lat": 38.89738933333334, "type": "electric_scooter", "lon": -77.04688733333333, "bike_id": "7ddcc2733ebc39aeffdfed710dac5607", "rental_uris": {"android": "https://dc.lft.to/lastmile_qr_scan", "ios": "https://dc.lft.to/lastmile_qr_scan"}, "name": "7ddcc2733ebc39aeffdfed710dac5607", "is_reserved": 0}, {"is_disabled": 0, "fusion_lon": 0.0, "fusion_lat": 0.0, "lat": 38.831209333333334, "type": "electric_bike", "lon": -77.04331183333333, "bike_id": "e2d4e76cf6ac11fe68ba29bed1e4942f", "rental_uris": {"android": "https://dc.lft.to/lastmile_qr_scan", "ios": "https://dc.lft.to/lastmile_qr_scan"}, "name": "e2d4e76cf6ac11fe68ba29bed1e4942f", "is_reserved": 0}, {"is_disabled": 0, "fusion_lon": 0.0, "fusion_lat": 0.0, "lat": 38.9111955, "type": "electric_scooter", "lon": -77.044029, "bike_id": "5845bd52b1ae42f7242f2e402792ff62", "rental_uris": {"android": "https://dc.lft.to/lastmile_qr_scan", "ios": "https://dc.lft.to/lastmile_qr_scan"}, "name": "5845bd52b1ae42f7242f2e402792ff62", "is_reserved": 0}, {"is_disabled": 0, "fusion_lon": 0.0, "fusion_lat": 0.0, "lat": 38.91819483333333, "type": "electric_scooter", "lon": -77.01213033333333, "bike_id": "e59c62fc2c6baf4d63c4f0de0bebf40e", "rental_uris": {"android": "https://dc.lft.to/lastmile_qr_scan", "ios": "https://dc.lft.to/lastmile_qr_scan"}, "name": "e59c62fc2c6baf4d63c4f0de0bebf40e", "is_reserved": 0}, {"is_disabled": 0, "fusion_lon": 0.0, "fusion_lat": 0.0, "lat": 38.94889883333333, "type": "electric_bike", "lon": -76.96375383333333, "bike_id": "0f7411cf8c2c4e3d78bc06aa5db53e0d", "rental_uris": {"android": "https://dc.lft.to/lastmile_qr_scan", "ios": "https://dc.lft.to/lastmile_qr_scan"}, "name": "0f7411cf8c2c4e3d78bc06aa5db53e0d", "is_reserved": 0}, {"is_disabled": 0, "fusion_lon": 0.0, "fusion_lat": 0.0, "lat": 38.911105, "type": "electric_scooter", "lon": -77.038276, "bike_id": "eeb12a3f8962889719eca59f15ea1a9a", "rental_uris": {"android": "https://dc.lft.to/lastmile_qr_scan", "ios": "https://dc.lft.to/lastmile_qr_scan"}, "name": "eeb12a3f8962889719eca59f15ea1a9a", "is_reserved": 0}, {"is_disabled": 0, "fusion_lon": 0.0, "fusion_lat": 0.0, "lat": 38.92747966666667, "type": "electric_scooter", "lon": -77.07594416666667, "bike_id": "3e9eba106cdb077f9305666df8131843", "rental_uris": {"android": "https://dc.lft.to/lastmile_qr_scan", "ios": "https://dc.lft.to/lastmile_qr_scan"}, "name": "3e9eba106cdb077f9305666df8131843", "is_reserved": 0}, {"is_disabled": 0, "fusion_lon": 0.0, "fusion_lat": 0.0, "lat": 38.959628333333335, "type": "electric_scooter", "lon": -77.02110016666667, "bike_id": "21a323fcca63340411db01cb754d9615", "rental_uris": {"android": "https://dc.lft.to/lastmile_qr_scan", "ios": "https://dc.lft.to/lastmile_qr_scan"}, "name": "21a323fcca63340411db01cb754d9615", "is_reserved": 0}, {"is_disabled": 0, "fusion_lon": 0.0, "fusion_lat": 0.0, "lat": 38.9355615, "type": "electric_scooter", "lon": -77.08200766666667, "bike_id": "23b7a49aef8678387e3c2224a63be500", "rental_uris": {"android": "https://dc.lft.to/lastmile_qr_scan", "ios": "https://dc.lft.to/lastmile_qr_scan"}, "name": "23b7a49aef8678387e3c2224a63be500", "is_reserved": 0}, {"is_disabled": 0, "fusion_lon": 0.0, "fusion_lat": 0.0, "lat": 38.90724783333334, "type": "electric_scooter", "lon": -77.03566933333333, "bike_id": "1d1866d9b753f9b998f556ae8bbe209f", "rental_uris": {"android": "https://dc.lft.to/lastmile_qr_scan", "ios": "https://dc.lft.to/lastmile_qr_scan"}, "name": "1d1866d9b753f9b998f556ae8bbe209f", "is_reserved": 0}, {"is_disabled": 0, "fusion_lon": 0.0, "fusion_lat": 0.0, "lat": 38.9563355, "type": "electric_scooter", "lon": -77.02976633333333, "bike_id": "eb54acd2cb261bb2ecbe79e8faf9aa1f", "rental_uris": {"android": "https://dc.lft.to/lastmile_qr_scan", "ios": "https://dc.lft.to/lastmile_qr_scan"}, "name": "eb54acd2cb261bb2ecbe79e8faf9aa1f", "is_reserved": 0}, {"is_disabled": 0, "fusion_lon": 0.0, "fusion_lat": 0.0, "lat": 38.8839035, "type": "electric_bike", "lon": -77.03072883333333, "bike_id": "5f6128fa18683e956a7730030f602d51", "rental_uris": {"android": "https://dc.lft.to/lastmile_qr_scan", "ios": "https://dc.lft.to/lastmile_qr_scan"}, "name": "5f6128fa18683e956a7730030f602d51", "is_reserved": 0}, {"is_disabled": 0, "fusion_lon": 0.0, "fusion_lat": 0.0, "lat": 38.895090833333335, "type": "electric_scooter", "lon": -77.01612716666666, "bike_id": "c1dbfd39dc69192ad43330154460adfa", "rental_uris": {"android": "https://dc.lft.to/lastmile_qr_scan", "ios": "https://dc.lft.to/lastmile_qr_scan"}, "name": "c1dbfd39dc69192ad43330154460adfa", "is_reserved": 0}, {"is_disabled": 0, "fusion_lon": 0.0, "fusion_lat": 0.0, "lat": 38.921226, "type": "electric_scooter", "lon": -77.01213833333334, "bike_id": "822984afbd57f7d31a15d4ee28dfbd62", "rental_uris": {"android": "https://dc.lft.to/lastmile_qr_scan", "ios": "https://dc.lft.to/lastmile_qr_scan"}, "name": "822984afbd57f7d31a15d4ee28dfbd62", "is_reserved": 0}, {"is_disabled": 0, "fusion_lon": 0.0, "fusion_lat": 0.0, "lat": 38.899080166666664, "type": "electric_scooter", "lon": -76.93390133333334, "bike_id": "5255390c470fb3e424b9f51902fd1ee1", "rental_uris": {"android": "https://dc.lft.to/lastmile_qr_scan", "ios": "https://dc.lft.to/lastmile_qr_scan"}, "name": "5255390c470fb3e424b9f51902fd1ee1", "is_reserved": 0}, {"is_disabled": 0, "fusion_lon": 0.0, "fusion_lat": 0.0, "lat": 38.84598666666667, "type": "electric_bike", "lon": -76.96878316666667, "bike_id": "296f8877a3ccce05227a02d16b77baf9", "rental_uris": {"android": "https://dc.lft.to/lastmile_qr_scan", "ios": "https://dc.lft.to/lastmile_qr_scan"}, "name": "296f8877a3ccce05227a02d16b77baf9", "is_reserved": 0}, {"is_disabled": 0, "fusion_lon": 0.0, "fusion_lat": 0.0, "lat": 38.86032183333333, "type": "electric_scooter", "lon": -76.99695633333333, "bike_id": "7fc5a282a0f3f26943f2b5f5a2a4308a", "rental_uris": {"android": "https://dc.lft.to/lastmile_qr_scan", "ios": "https://dc.lft.to/lastmile_qr_scan"}, "name": "7fc5a282a0f3f26943f2b5f5a2a4308a", "is_reserved": 0}, {"is_disabled": 0, "fusion_lon": 0.0, "fusion_lat": 0.0, "lat": 38.92255166666666, "type": "electric_scooter", "lon": -77.04298, "bike_id": "a2d472fd14f26b34c30a5b0b4ee8cf58", "rental_uris": {"android": "https://dc.lft.to/lastmile_qr_scan", "ios": "https://dc.lft.to/lastmile_qr_scan"}, "name": "a2d472fd14f26b34c30a5b0b4ee8cf58", "is_reserved": 0}, {"is_disabled": 0, "fusion_lon": 0.0, "fusion_lat": 0.0, "lat": 39.095887833333336, "type": "electric_bike", "lon": -77.1478085, "bike_id": "cdecd891ba64e120545f412c9fe5a828", "rental_uris": {"android": "https://dc.lft.to/lastmile_qr_scan", "ios": "https://dc.lft.to/lastmile_qr_scan"}, "name": "cdecd891ba64e120545f412c9fe5a828", "is_reserved": 0}, {"is_disabled": 0, "fusion_lon": 0.0, "fusion_lat": 0.0, "lat": 38.99935333333333, "type": "electric_bike", "lon": -77.00123316666667, "bike_id": "886f1dd5bb7abca7021ec3bfbb22d13b", "rental_uris": {"android": "https://dc.lft.to/lastmile_qr_scan", "ios": "https://dc.lft.to/lastmile_qr_scan"}, "name": "886f1dd5bb7abca7021ec3bfbb22d13b", "is_reserved": 0}, {"is_disabled": 0, "fusion_lon": 0.0, "fusion_lat": 0.0, "lat": 38.906363, "type": "electric_scooter", "lon": -77.02502833333334, "bike_id": "71a0815d313cdb22ec39a9e2ffb1916d", "rental_uris": {"android": "https://dc.lft.to/lastmile_qr_scan", "ios": "https://dc.lft.to/lastmile_qr_scan"}, "name": "71a0815d313cdb22ec39a9e2ffb1916d", "is_reserved": 0}, {"is_disabled": 0, "fusion_lon": 0.0, "fusion_lat": 0.0, "lat": 38.85529366666667, "type": "electric_bike", "lon": -77.10728566666667, "bike_id": "f01592020abcdbaefd25a1742bdd5b45", "rental_uris": {"android": "https://dc.lft.to/lastmile_qr_scan", "ios": "https://dc.lft.to/lastmile_qr_scan"}, "name": "f01592020abcdbaefd25a1742bdd5b45", "is_reserved": 0}, {"is_disabled": 0, "fusion_lon": 0.0, "fusion_lat": 0.0, "lat": 38.9193985, "type": "electric_scooter", "lon": -77.0813425, "bike_id": "483341b6e95ee01f2af184a5f38d68f8", "rental_uris": {"android": "https://dc.lft.to/lastmile_qr_scan", "ios": "https://dc.lft.to/lastmile_qr_scan"}, "name": "483341b6e95ee01f2af184a5f38d68f8", "is_reserved": 0}, {"is_disabled": 0, "fusion_lon": 0.0, "fusion_lat": 0.0, "lat": 38.895019166666664, "type": "electric_scooter", "lon": -76.948805, "bike_id": "28f3f261af4747014a44f473ce8cb39e", "rental_uris": {"android": "https://dc.lft.to/lastmile_qr_scan", "ios": "https://dc.lft.to/lastmile_qr_scan"}, "name": "28f3f261af4747014a44f473ce8cb39e", "is_reserved": 0}, {"is_disabled": 0, "fusion_lon": 0.0, "fusion_lat": 0.0, "lat": 38.898448333333334, "type": "electric_scooter", "lon": -76.94561866666666, "bike_id": "fe635d4623b7ae9404a4ab967dfac419", "rental_uris": {"android": "https://dc.lft.to/lastmile_qr_scan", "ios": "https://dc.lft.to/lastmile_qr_scan"}, "name": "fe635d4623b7ae9404a4ab967dfac419", "is_reserved": 0}, {"is_disabled": 0, "fusion_lon": 0.0, "fusion_lat": 0.0, "lat": 38.88917983333333, "type": "electric_scooter", "lon": -76.98004633333333, "bike_id": "52eaf640f5e41740c000ad8842f53590", "rental_uris": {"android": "https://dc.lft.to/lastmile_qr_scan", "ios": "https://dc.lft.to/lastmile_qr_scan"}, "name": "52eaf640f5e41740c000ad8842f53590", "is_reserved": 0}, {"is_disabled": 0, "fusion_lon": 0.0, "fusion_lat": 0.0, "lat": 38.9082315, "type": "electric_scooter", "lon": -77.0014175, "bike_id": "80518ae7c01464ef1c9d6887e19852fb", "rental_uris": {"android": "https://dc.lft.to/lastmile_qr_scan", "ios": "https://dc.lft.to/lastmile_qr_scan"}, "name": "80518ae7c01464ef1c9d6887e19852fb", "is_reserved": 0}, {"is_disabled": 0, "fusion_lon": 0.0, "fusion_lat": 0.0, "lat": 38.90539483333333, "type": "electric_scooter", "lon": -77.05007666666667, "bike_id": "e382f0ae32e06706f21b209ad3a25fe9", "rental_uris": {"android": "https://dc.lft.to/lastmile_qr_scan", "ios": "https://dc.lft.to/lastmile_qr_scan"}, "name": "e382f0ae32e06706f21b209ad3a25fe9", "is_reserved": 0}, {"is_disabled": 0, "fusion_lon": 0.0, "fusion_lat": 0.0, "lat": 38.900193, "type": "electric_scooter", "lon": -77.03412383333334, "bike_id": "b3ea3b2bfe3d7bc27c789d2393282f16", "rental_uris": {"android": "https://dc.lft.to/lastmile_qr_scan", "ios": "https://dc.lft.to/lastmile_qr_scan"}, "name": "b3ea3b2bfe3d7bc27c789d2393282f16", "is_reserved": 0}, {"is_disabled": 0, "fusion_lon": 0.0, "fusion_lat": 0.0, "lat": 38.9171225, "type": "electric_scooter", "lon": -77.02621616666667, "bike_id": "eb04c8ae9e85ff707befc2f05a0f481e", "rental_uris": {"android": "https://dc.lft.to/lastmile_qr_scan", "ios": "https://dc.lft.to/lastmile_qr_scan"}, "name": "eb04c8ae9e85ff707befc2f05a0f481e", "is_reserved": 0}, {"is_disabled": 0, "fusion_lon": 0.0, "fusion_lat": 0.0, "lat": 38.89677666666667, "type": "electric_scooter", "lon": -77.01177333333334, "bike_id": "5feea607bafbed17a1eb03f0dc90125d", "rental_uris": {"android": "https://dc.lft.to/lastmile_qr_scan", "ios": "https://dc.lft.to/lastmile_qr_scan"}, "name": "5feea607bafbed17a1eb03f0dc90125d", "is_reserved": 0}, {"is_disabled": 0, "fusion_lon": 0.0, "fusion_lat": 0.0, "lat": 38.917444333333336, "type": "electric_scooter", "lon": -77.04412266666667, "bike_id": "ec1634e6075ddc1157a091d0ae3ef9cf", "rental_uris": {"android": "https://dc.lft.to/lastmile_qr_scan", "ios": "https://dc.lft.to/lastmile_qr_scan"}, "name": "ec1634e6075ddc1157a091d0ae3ef9cf", "is_reserved": 0}, {"is_disabled": 0, "fusion_lon": 0.0, "fusion_lat": 0.0, "lat": 38.871951833333334, "type": "electric_scooter", "lon": -76.978218, "bike_id": "3bb5c910d0be109d3cf31e2c1297d7d6", "rental_uris": {"android": "https://dc.lft.to/lastmile_qr_scan", "ios": "https://dc.lft.to/lastmile_qr_scan"}, "name": "3bb5c910d0be109d3cf31e2c1297d7d6", "is_reserved": 0}, {"is_disabled": 0, "fusion_lon": 0.0, "fusion_lat": 0.0, "lat": 38.905920333333334, "type": "electric_scooter", "lon": -77.06918216666666, "bike_id": "67c4319ed92cef09932ccfd8097fadcb", "rental_uris": {"android": "https://dc.lft.to/lastmile_qr_scan", "ios": "https://dc.lft.to/lastmile_qr_scan"}, "name": "67c4319ed92cef09932ccfd8097fadcb", "is_reserved": 0}, {"is_disabled": 0, "fusion_lon": 0.0, "fusion_lat": 0.0, "lat": 38.92439133333333, "type": "electric_bike", "lon": -76.90760583333333, "bike_id": "7bbc5e80514ade96a4b3e7d22ea9791d", "rental_uris": {"android": "https://dc.lft.to/lastmile_qr_scan", "ios": "https://dc.lft.to/lastmile_qr_scan"}, "name": "7bbc5e80514ade96a4b3e7d22ea9791d", "is_reserved": 0}, {"is_disabled": 0, "fusion_lon": 0.0, "fusion_lat": 0.0, "lat": 38.96147933333334, "type": "electric_scooter", "lon": -77.02785916666667, "bike_id": "7b98d82f7cf535511152258dc26edb57", "rental_uris": {"android": "https://dc.lft.to/lastmile_qr_scan", "ios": "https://dc.lft.to/lastmile_qr_scan"}, "name": "7b98d82f7cf535511152258dc26edb57", "is_reserved": 0}, {"is_disabled": 0, "fusion_lon": 0.0, "fusion_lat": 0.0, "lat": 38.93355966666667, "type": "electric_scooter", "lon": -77.0737765, "bike_id": "7131f11cf8b553d20718295db7fd66a2", "rental_uris": {"android": "https://dc.lft.to/lastmile_qr_scan", "ios": "https://dc.lft.to/lastmile_qr_scan"}, "name": "7131f11cf8b553d20718295db7fd66a2", "is_reserved": 0}, {"is_disabled": 0, "fusion_lon": 0.0, "fusion_lat": 0.0, "lat": 38.90545, "type": "electric_scooter", "lon": -77.02705516666667, "bike_id": "f3b912252566294b3e023bfbde4ac706", "rental_uris": {"android": "https://dc.lft.to/lastmile_qr_scan", "ios": "https://dc.lft.to/lastmile_qr_scan"}, "name": "f3b912252566294b3e023bfbde4ac706", "is_reserved": 0}, {"is_disabled": 0, "fusion_lon": 0.0, "fusion_lat": 0.0, "lat": 38.909689166666666, "type": "electric_scooter", "lon": -77.0386815, "bike_id": "c95291883303804c218bfd34ff57cad7", "rental_uris": {"android": "https://dc.lft.to/lastmile_qr_scan", "ios": "https://dc.lft.to/lastmile_qr_scan"}, "name": "c95291883303804c218bfd34ff57cad7", "is_reserved": 0}, {"is_disabled": 0, "fusion_lon": 0.0, "fusion_lat": 0.0, "lat": 38.875390833333334, "type": "electric_scooter", "lon": -77.01377883333333, "bike_id": "88e8857f2ebd3e67b0d54cefab1b0ea1", "rental_uris": {"android": "https://dc.lft.to/lastmile_qr_scan", "ios": "https://dc.lft.to/lastmile_qr_scan"}, "name": "88e8857f2ebd3e67b0d54cefab1b0ea1", "is_reserved": 0}, {"is_disabled": 0, "fusion_lon": 0.0, "fusion_lat": 0.0, "lat": 38.89669116666666, "type": "electric_scooter", "lon": -77.04329183333333, "bike_id": "2de7f6e61cddc84f07f4ed8077b51615", "rental_uris": {"android": "https://dc.lft.to/lastmile_qr_scan", "ios": "https://dc.lft.to/lastmile_qr_scan"}, "name": "2de7f6e61cddc84f07f4ed8077b51615", "is_reserved": 0}, {"is_disabled": 0, "fusion_lon": 0.0, "fusion_lat": 0.0, "lat": 38.926211333333335, "type": "electric_scooter", "lon": -77.04195066666666, "bike_id": "939f1f5be70ec0e815befe85ff5dcad6", "rental_uris": {"android": "https://dc.lft.to/lastmile_qr_scan", "ios": "https://dc.lft.to/lastmile_qr_scan"}, "name": "939f1f5be70ec0e815befe85ff5dcad6", "is_reserved": 0}, {"is_disabled": 0, "fusion_lon": 0.0, "fusion_lat": 0.0, "lat": 38.944550166666666, "type": "electric_scooter", "lon": -77.0604145, "bike_id": "7bbb9b0ea69cec0b6f99ac99139deebe", "rental_uris": {"android": "https://dc.lft.to/lastmile_qr_scan", "ios": "https://dc.lft.to/lastmile_qr_scan"}, "name": "7bbb9b0ea69cec0b6f99ac99139deebe", "is_reserved": 0}, {"is_disabled": 0, "fusion_lon": 0.0, "fusion_lat": 0.0, "lat": 38.996689833333335, "type": "electric_bike", "lon": -76.9913745, "bike_id": "8454a115ee49578e6e33eaccd68f8872", "rental_uris": {"android": "https://dc.lft.to/lastmile_qr_scan", "ios": "https://dc.lft.to/lastmile_qr_scan"}, "name": "8454a115ee49578e6e33eaccd68f8872", "is_reserved": 0}, {"is_disabled": 0, "fusion_lon": 0.0, "fusion_lat": 0.0, "lat": 38.90733983333333, "type": "electric_scooter", "lon": -77.03208633333334, "bike_id": "f7ab68bd4ae3c9140ba1859d753095e3", "rental_uris": {"android": "https://dc.lft.to/lastmile_qr_scan", "ios": "https://dc.lft.to/lastmile_qr_scan"}, "name": "f7ab68bd4ae3c9140ba1859d753095e3", "is_reserved": 0}, {"is_disabled": 0, "fusion_lon": 0.0, "fusion_lat": 0.0, "lat": 38.90703466666667, "type": "electric_scooter", "lon": -76.98695433333333, "bike_id": "f49b551a0f150fe8b026b586bda9d6e8", "rental_uris": {"android": "https://dc.lft.to/lastmile_qr_scan", "ios": "https://dc.lft.to/lastmile_qr_scan"}, "name": "f49b551a0f150fe8b026b586bda9d6e8", "is_reserved": 0}, {"is_disabled": 0, "fusion_lon": 0.0, "fusion_lat": 0.0, "lat": 38.917774, "type": "electric_scooter", "lon": -77.043031, "bike_id": "ed0bde6d652437b21858987ee871cf1e", "rental_uris": {"android": "https://dc.lft.to/lastmile_qr_scan", "ios": "https://dc.lft.to/lastmile_qr_scan"}, "name": "ed0bde6d652437b21858987ee871cf1e", "is_reserved": 0}, {"is_disabled": 0, "fusion_lon": 0.0, "fusion_lat": 0.0, "lat": 38.919056833333336, "type": "electric_scooter", "lon": -77.02761933333333, "bike_id": "1781ab486e50f7a6ddaba539fb2f5d01", "rental_uris": {"android": "https://dc.lft.to/lastmile_qr_scan", "ios": "https://dc.lft.to/lastmile_qr_scan"}, "name": "1781ab486e50f7a6ddaba539fb2f5d01", "is_reserved": 0}, {"is_disabled": 0, "fusion_lon": 0.0, "fusion_lat": 0.0, "lat": 38.87348316666667, "type": "electric_scooter", "lon": -77.01736816666667, "bike_id": "2c7bd022d34eae6f1edae3e4f8b315e5", "rental_uris": {"android": "https://dc.lft.to/lastmile_qr_scan", "ios": "https://dc.lft.to/lastmile_qr_scan"}, "name": "2c7bd022d34eae6f1edae3e4f8b315e5", "is_reserved": 0}, {"is_disabled": 0, "fusion_lon": 0.0, "fusion_lat": 0.0, "lat": 38.901079833333334, "type": "electric_bike", "lon": -77.03457783333333, "bike_id": "b55e9c5e9f72e29e443a1e15542053c0", "rental_uris": {"android": "https://dc.lft.to/lastmile_qr_scan", "ios": "https://dc.lft.to/lastmile_qr_scan"}, "name": "b55e9c5e9f72e29e443a1e15542053c0", "is_reserved": 0}, {"is_disabled": 0, "fusion_lon": 0.0, "fusion_lat": 0.0, "lat": 38.9085195, "type": "electric_scooter", "lon": -77.060779, "bike_id": "9432141a270e1144c41c77aec1cf900a", "rental_uris": {"android": "https://dc.lft.to/lastmile_qr_scan", "ios": "https://dc.lft.to/lastmile_qr_scan"}, "name": "9432141a270e1144c41c77aec1cf900a", "is_reserved": 0}, {"is_disabled": 0, "fusion_lon": 0.0, "fusion_lat": 0.0, "lat": 38.897489, "type": "electric_scooter", "lon": -77.05134466666667, "bike_id": "999df7d6729ad0cb9e58df618c9a2f03", "rental_uris": {"android": "https://dc.lft.to/lastmile_qr_scan", "ios": "https://dc.lft.to/lastmile_qr_scan"}, "name": "999df7d6729ad0cb9e58df618c9a2f03", "is_reserved": 0}, {"is_disabled": 0, "fusion_lon": 0.0, "fusion_lat": 0.0, "lat": 38.936357, "type": "electric_scooter", "lon": -77.02691866666666, "bike_id": "2aacf0359398341e7b9184c7c492b651", "rental_uris": {"android": "https://dc.lft.to/lastmile_qr_scan", "ios": "https://dc.lft.to/lastmile_qr_scan"}, "name": "2aacf0359398341e7b9184c7c492b651", "is_reserved": 0}, {"is_disabled": 0, "fusion_lon": 0.0, "fusion_lat": 0.0, "lat": 38.921512666666665, "type": "electric_scooter", "lon": -77.0350655, "bike_id": "ddae652713f97160fc3c33ec47a9dc73", "rental_uris": {"android": "https://dc.lft.to/lastmile_qr_scan", "ios": "https://dc.lft.to/lastmile_qr_scan"}, "name": "ddae652713f97160fc3c33ec47a9dc73", "is_reserved": 0}, {"is_disabled": 0, "fusion_lon": 0.0, "fusion_lat": 0.0, "lat": 38.93522383333333, "type": "electric_scooter", "lon": -77.06638233333334, "bike_id": "60bf5655a37e280e80cab81f26142492", "rental_uris": {"android": "https://dc.lft.to/lastmile_qr_scan", "ios": "https://dc.lft.to/lastmile_qr_scan"}, "name": "60bf5655a37e280e80cab81f26142492", "is_reserved": 0}, {"is_disabled": 0, "fusion_lon": 0.0, "fusion_lat": 0.0, "lat": 38.9161075, "type": "electric_scooter", "lon": -77.04603433333334, "bike_id": "ed52d1e6c86f95da81a4c83dc9a262c9", "rental_uris": {"android": "https://dc.lft.to/lastmile_qr_scan", "ios": "https://dc.lft.to/lastmile_qr_scan"}, "name": "ed52d1e6c86f95da81a4c83dc9a262c9", "is_reserved": 0}, {"is_disabled": 0, "fusion_lon": 0.0, "fusion_lat": 0.0, "lat": 38.910429666666666, "type": "electric_scooter", "lon": -77.0428845, "bike_id": "bac4c0ba878b41ff5e9fb67897bca24f", "rental_uris": {"android": "https://dc.lft.to/lastmile_qr_scan", "ios": "https://dc.lft.to/lastmile_qr_scan"}, "name": "bac4c0ba878b41ff5e9fb67897bca24f", "is_reserved": 0}, {"is_disabled": 0, "fusion_lon": 0.0, "fusion_lat": 0.0, "lat": 38.941834, "type": "electric_scooter", "lon": -77.023895, "bike_id": "d25e7bff3c3e6b6b0eeee4973de9af0b", "rental_uris": {"android": "https://dc.lft.to/lastmile_qr_scan", "ios": "https://dc.lft.to/lastmile_qr_scan"}, "name": "d25e7bff3c3e6b6b0eeee4973de9af0b", "is_reserved": 0}, {"is_disabled": 0, "fusion_lon": 0.0, "fusion_lat": 0.0, "lat": 38.92060016666667, "type": "electric_scooter", "lon": -77.03394133333333, "bike_id": "631cf5d02b862dc4a39ec54219fd74db", "rental_uris": {"android": "https://dc.lft.to/lastmile_qr_scan", "ios": "https://dc.lft.to/lastmile_qr_scan"}, "name": "631cf5d02b862dc4a39ec54219fd74db", "is_reserved": 0}, {"is_disabled": 0, "fusion_lon": 0.0, "fusion_lat": 0.0, "lat": 38.93174116666667, "type": "electric_scooter", "lon": -77.02816433333334, "bike_id": "d5fda70710c64a6019be64019e4f39ff", "rental_uris": {"android": "https://dc.lft.to/lastmile_qr_scan", "ios": "https://dc.lft.to/lastmile_qr_scan"}, "name": "d5fda70710c64a6019be64019e4f39ff", "is_reserved": 0}, {"is_disabled": 0, "fusion_lon": 0.0, "fusion_lat": 0.0, "lat": 38.900931166666666, "type": "electric_scooter", "lon": -76.98847183333334, "bike_id": "ee055af590aed9c8b44f0ad1f6a0e8a4", "rental_uris": {"android": "https://dc.lft.to/lastmile_qr_scan", "ios": "https://dc.lft.to/lastmile_qr_scan"}, "name": "ee055af590aed9c8b44f0ad1f6a0e8a4", "is_reserved": 0}, {"is_disabled": 0, "fusion_lon": 0.0, "fusion_lat": 0.0, "lat": 38.91619933333333, "type": "electric_scooter", "lon": -77.04865833333334, "bike_id": "87b32992b793a66e2c1327c1b18f098d", "rental_uris": {"android": "https://dc.lft.to/lastmile_qr_scan", "ios": "https://dc.lft.to/lastmile_qr_scan"}, "name": "87b32992b793a66e2c1327c1b18f098d", "is_reserved": 0}, {"is_disabled": 0, "fusion_lon": 0.0, "fusion_lat": 0.0, "lat": 38.8338235, "type": "electric_scooter", "lon": -76.9930055, "bike_id": "b720d87a4f90a47bf3b158190ac539aa", "rental_uris": {"android": "https://dc.lft.to/lastmile_qr_scan", "ios": "https://dc.lft.to/lastmile_qr_scan"}, "name": "b720d87a4f90a47bf3b158190ac539aa", "is_reserved": 0}, {"is_disabled": 0, "fusion_lon": 0.0, "fusion_lat": 0.0, "lat": 38.90253516666667, "type": "electric_scooter", "lon": -77.03316216666667, "bike_id": "277e787a4cfd33f7578e6ae08d01262e", "rental_uris": {"android": "https://dc.lft.to/lastmile_qr_scan", "ios": "https://dc.lft.to/lastmile_qr_scan"}, "name": "277e787a4cfd33f7578e6ae08d01262e", "is_reserved": 0}, {"is_disabled": 0, "fusion_lon": 0.0, "fusion_lat": 0.0, "lat": 38.9190695, "type": "electric_scooter", "lon": -77.017748, "bike_id": "5de532ae6b519cd86837e9b5b1b271b0", "rental_uris": {"android": "https://dc.lft.to/lastmile_qr_scan", "ios": "https://dc.lft.to/lastmile_qr_scan"}, "name": "5de532ae6b519cd86837e9b5b1b271b0", "is_reserved": 0}, {"is_disabled": 0, "fusion_lon": 0.0, "fusion_lat": 0.0, "lat": 38.909877, "type": "electric_scooter", "lon": -77.03276, "bike_id": "a2466ccd328a03be92fd2859505c15de", "rental_uris": {"android": "https://dc.lft.to/lastmile_qr_scan", "ios": "https://dc.lft.to/lastmile_qr_scan"}, "name": "a2466ccd328a03be92fd2859505c15de", "is_reserved": 0}, {"is_disabled": 0, "fusion_lon": 0.0, "fusion_lat": 0.0, "lat": 38.892260666666665, "type": "electric_scooter", "lon": -77.03341033333334, "bike_id": "8dab93e3a6233955fc2bba1cc67e6698", "rental_uris": {"android": "https://dc.lft.to/lastmile_qr_scan", "ios": "https://dc.lft.to/lastmile_qr_scan"}, "name": "8dab93e3a6233955fc2bba1cc67e6698", "is_reserved": 0}, {"is_disabled": 0, "fusion_lon": 0.0, "fusion_lat": 0.0, "lat": 38.92689466666667, "type": "electric_scooter", "lon": -77.03780916666666, "bike_id": "4d0274479394e79a5de95da7248c2c99", "rental_uris": {"android": "https://dc.lft.to/lastmile_qr_scan", "ios": "https://dc.lft.to/lastmile_qr_scan"}, "name": "4d0274479394e79a5de95da7248c2c99", "is_reserved": 0}, {"is_disabled": 0, "fusion_lon": 0.0, "fusion_lat": 0.0, "lat": 38.93606066666667, "type": "electric_scooter", "lon": -77.05864516666666, "bike_id": "6c26a2dafd5862f6190257c01236f571", "rental_uris": {"android": "https://dc.lft.to/lastmile_qr_scan", "ios": "https://dc.lft.to/lastmile_qr_scan"}, "name": "6c26a2dafd5862f6190257c01236f571", "is_reserved": 0}, {"is_disabled": 0, "fusion_lon": 0.0, "fusion_lat": 0.0, "lat": 38.91694283333333, "type": "electric_scooter", "lon": -77.02598066666667, "bike_id": "a9f0ac60debac60321508262102cb8b5", "rental_uris": {"android": "https://dc.lft.to/lastmile_qr_scan", "ios": "https://dc.lft.to/lastmile_qr_scan"}, "name": "a9f0ac60debac60321508262102cb8b5", "is_reserved": 0}, {"is_disabled": 0, "fusion_lon": 0.0, "fusion_lat": 0.0, "lat": 38.89746916666667, "type": "electric_scooter", "lon": -77.05145816666666, "bike_id": "39c0471e336d83c4bfc17d9e80feb135", "rental_uris": {"android": "https://dc.lft.to/lastmile_qr_scan", "ios": "https://dc.lft.to/lastmile_qr_scan"}, "name": "39c0471e336d83c4bfc17d9e80feb135", "is_reserved": 0}, {"is_disabled": 0, "fusion_lon": 0.0, "fusion_lat": 0.0, "lat": 38.94493516666667, "type": "electric_bike", "lon": -77.00684583333333, "bike_id": "5d2ba67e50eeb32c28fd4441aaadfa19", "rental_uris": {"android": "https://dc.lft.to/lastmile_qr_scan", "ios": "https://dc.lft.to/lastmile_qr_scan"}, "name": "5d2ba67e50eeb32c28fd4441aaadfa19", "is_reserved": 0}, {"is_disabled": 0, "fusion_lon": 0.0, "fusion_lat": 0.0, "lat": 38.865967166666664, "type": "electric_bike", "lon": -76.93230616666666, "bike_id": "f148fac5d95c6a89f6daae4c46f1a01d", "rental_uris": {"android": "https://dc.lft.to/lastmile_qr_scan", "ios": "https://dc.lft.to/lastmile_qr_scan"}, "name": "f148fac5d95c6a89f6daae4c46f1a01d", "is_reserved": 0}, {"is_disabled": 0, "fusion_lon": 0.0, "fusion_lat": 0.0, "lat": 38.9142345, "type": "electric_scooter", "lon": -77.01426933333333, "bike_id": "f5a00ba0c55d6deef2cb1de5ee3f22eb", "rental_uris": {"android": "https://dc.lft.to/lastmile_qr_scan", "ios": "https://dc.lft.to/lastmile_qr_scan"}, "name": "f5a00ba0c55d6deef2cb1de5ee3f22eb", "is_reserved": 0}, {"is_disabled": 0, "fusion_lon": 0.0, "fusion_lat": 0.0, "lat": 38.9057995, "type": "electric_scooter", "lon": -77.02602866666666, "bike_id": "45fb870b1704af28fc729e8f27a467f9", "rental_uris": {"android": "https://dc.lft.to/lastmile_qr_scan", "ios": "https://dc.lft.to/lastmile_qr_scan"}, "name": "45fb870b1704af28fc729e8f27a467f9", "is_reserved": 0}, {"is_disabled": 0, "fusion_lon": 0.0, "fusion_lat": 0.0, "lat": 38.91114533333333, "type": "electric_scooter", "lon": -77.04503733333334, "bike_id": "48abaec89a5ecccfcffbabf724d430bb", "rental_uris": {"android": "https://dc.lft.to/lastmile_qr_scan", "ios": "https://dc.lft.to/lastmile_qr_scan"}, "name": "48abaec89a5ecccfcffbabf724d430bb", "is_reserved": 0}, {"is_disabled": 0, "fusion_lon": 0.0, "fusion_lat": 0.0, "lat": 38.85212683333334, "type": "electric_bike", "lon": -77.12769916666667, "bike_id": "751404a5b5302a632d209053ebc952f3", "rental_uris": {"android": "https://dc.lft.to/lastmile_qr_scan", "ios": "https://dc.lft.to/lastmile_qr_scan"}, "name": "751404a5b5302a632d209053ebc952f3", "is_reserved": 0}, {"is_disabled": 0, "fusion_lon": 0.0, "fusion_lat": 0.0, "lat": 38.89245833333333, "type": "electric_scooter", "lon": -76.998506, "bike_id": "25cc25e4b4ae43707ae9c0af3a9fab6b", "rental_uris": {"android": "https://dc.lft.to/lastmile_qr_scan", "ios": "https://dc.lft.to/lastmile_qr_scan"}, "name": "25cc25e4b4ae43707ae9c0af3a9fab6b", "is_reserved": 0}, {"is_disabled": 0, "fusion_lon": 0.0, "fusion_lat": 0.0, "lat": 38.949752333333336, "type": "electric_scooter", "lon": -77.067622, "bike_id": "dfd8a074fa34a87ad46efb00e0c75f7d", "rental_uris": {"android": "https://dc.lft.to/lastmile_qr_scan", "ios": "https://dc.lft.to/lastmile_qr_scan"}, "name": "dfd8a074fa34a87ad46efb00e0c75f7d", "is_reserved": 0}, {"is_disabled": 0, "fusion_lon": 0.0, "fusion_lat": 0.0, "lat": 38.933317333333335, "type": "electric_scooter", "lon": -77.02940083333333, "bike_id": "dd8a96dc513b891a9e65e21e95141d92", "rental_uris": {"android": "https://dc.lft.to/lastmile_qr_scan", "ios": "https://dc.lft.to/lastmile_qr_scan"}, "name": "dd8a96dc513b891a9e65e21e95141d92", "is_reserved": 0}, {"is_disabled": 0, "fusion_lon": 0.0, "fusion_lat": 0.0, "lat": 38.968318833333335, "type": "electric_scooter", "lon": -77.01514883333333, "bike_id": "f448a64f46c87ad540491f5f3155d3d0", "rental_uris": {"android": "https://dc.lft.to/lastmile_qr_scan", "ios": "https://dc.lft.to/lastmile_qr_scan"}, "name": "f448a64f46c87ad540491f5f3155d3d0", "is_reserved": 0}, {"is_disabled": 0, "fusion_lon": 0.0, "fusion_lat": 0.0, "lat": 38.924051, "type": "electric_scooter", "lon": -77.051736, "bike_id": "c92766079f7653b1b31ac320f5cd30ae", "rental_uris": {"android": "https://dc.lft.to/lastmile_qr_scan", "ios": "https://dc.lft.to/lastmile_qr_scan"}, "name": "c92766079f7653b1b31ac320f5cd30ae", "is_reserved": 0}, {"is_disabled": 0, "fusion_lon": 0.0, "fusion_lat": 0.0, "lat": 38.90567733333334, "type": "electric_scooter", "lon": -77.0240295, "bike_id": "8e20f5010eab87f2d430db03a44cd3bf", "rental_uris": {"android": "https://dc.lft.to/lastmile_qr_scan", "ios": "https://dc.lft.to/lastmile_qr_scan"}, "name": "8e20f5010eab87f2d430db03a44cd3bf", "is_reserved": 0}, {"is_disabled": 0, "fusion_lon": 0.0, "fusion_lat": 0.0, "lat": 38.91920183333333, "type": "electric_scooter", "lon": -77.02397133333334, "bike_id": "bc4d8f67752a3cce0e492a8c074ff3fe", "rental_uris": {"android": "https://dc.lft.to/lastmile_qr_scan", "ios": "https://dc.lft.to/lastmile_qr_scan"}, "name": "bc4d8f67752a3cce0e492a8c074ff3fe", "is_reserved": 0},