{"data": {"bikes": [{"fusion_lon": 0.0, "bike_id": "031f606aecdc91dcbc3bc2a0240ff783", "name": "031f606aecdc91dcbc3bc2a0240ff783", "type": "electric_scooter", "lon": -76.93744416666667, "rental_uris": {"android": "https://dc.lft.to/lastmile_qr_scan", "ios": "https://dc.lft.to/lastmile_qr_scan"}, "lat": 38.8900825, "is_reserved": 0, "is_disabled": 0, "fusion_lat": 0.0}, {"fusion_lon": 0.0, "bike_id": "1a25d64952d818f3c95cd4a0be1fdb2a", "name": "1a25d64952d818f3c95cd4a0be1fdb2a", "type": "electric_scooter", "lon": -77.05925583333334, "rental_uris": {"android": "https://dc.lft.to/lastmile_qr_scan", "ios": "https://dc.lft.to/lastmile_qr_scan"}, "lat": 38.93667283333333, "is_reserved": 0, "is_disabled": 0, "fusion_lat": 0.0}, {"fusion_lon": 0.0, "bike_id": "004eb2fda244efc4c67d47d43af793f4", "name": "004eb2fda244efc4c67d47d43af793f4", "type": "electric_scooter", "lon": -77.048736, "rental_uris": {"android": "https://dc.lft.to/lastmile_qr_scan", "ios": "https://dc.lft.to/lastmile_qr_scan"}, "lat": 38.8923075, "is_reserved": 0, "is_disabled": 0, "fusion_lat": 0.0}, {"fusion_lon": 0.0, "bike_id": "ce1414d6366d718f3bca7a7a12711f7b", "name": "ce1414d6366d718f3bca7a7a12711f7b", "type": "electric_scooter", "lon": -76.99021733333333, "rental_uris": {"android": "https://dc.lft.to/lastmile_qr_scan", "ios": "https://dc.lft.to/lastmile_qr_scan"}, "lat": 38.858664, "is_reserved": 0, "is_disabled": 0, "fusion_lat": 0.0}, {"fusion_lon": 0.0, "bike_id": "a8b62f5a4119f94277ab8e086a233376", "name": "a8b62f5a4119f94277ab8e086a233376", "type": "electric_scooter", "lon": -77.03478366666667, "rental_uris": {"android": "https://dc.lft.to/lastmile_qr_scan", "ios": "https://dc.lft.to/lastmile_qr_scan"}, "lat": 38.93537, "is_reserved": 0, "is_disabled": 0, "fusion_lat": 0.0}, {"fusion_lon": 0.0, "bike_id": "a4185c8b80ab48d9eaf79cd58b9f25ec", "name": "a4185c8b80ab48d9eaf79cd58b9f25ec", "type": "electric_scooter", "lon": -77.032773, "rental_uris": {"android": "https://dc.lft.to/lastmile_qr_scan", "ios": "https://dc.lft.to/lastmile_qr_scan"}, "lat": 38.932544166666666, "is_reserved": 0, "is_disabled": 0, "fusion_lat": 0.0}, {"fusion_lon": 0.0, "bike_id": "46878334f9d0e76e7aba66ab872b2517", "name": "46878334f9d0e76e7aba66ab872b2517", "type": "electric_scooter", "lon": -77.01707883333333, "rental_uris": {"android": "https://dc.lft.to/lastmile_qr_scan", "ios": "https://dc.lft.to/lastmile_qr_scan"}, "lat": 38.90738233333333, "is_reserved": 0, "is_disabled": 0, "fusion_lat": 0.0}, {"fusion_lon": 0.0, "bike_id": "def41a036b2810670811843c8d47b78d", "name": "def41a036b2810670811843c8d47b78d", "type": "electric_bike", "lon": -77.18294216666666, "rental_uris": {"android": "https://dc.lft.to/lastmile_qr_scan", "ios": "https://dc.lft.to/lastmile_qr_scan"}, "lat": 38.88341633333334, "is_reserved": 0, "is_disabled": 0, "fusion_lat": 0.0}, {"fusion_lon": 0.0, "bike_id": "43aacdb38f309e5f54c1c36a32452ef5", "name": "43aacdb38f309e5f54c1c36a32452ef5", "type": "electric_scooter", "lon": -77.02466866666667, "rental_uris": {"android": "https://dc.lft.to/lastmile_qr_scan", "ios": "https://dc.lft.to/lastmile_qr_scan"}, "lat": 38.93916816666667, "is_reserved": 0, "is_disabled": 0, "fusion_lat": 0.0}, {"fusion_lon": 0.0, "bike_id": "7a9e0517ba3de526a0dca165f4e85467", "name": "7a9e0517ba3de526a0dca165f4e85467", "type": "electric_scooter", "lon": -77.02782666666667, "rental_uris": {"android": "https://dc.lft.to/lastmile_qr_scan", "ios": "https://dc.lft.to/lastmile_qr_scan"}, "lat": 38.89223483333333, "is_reserved": 0, "is_disabled": 0, "fusion_lat": 0.0}, {"fusion_lon": 0.0, "bike_id": "6774c92464089cc38ac7aaa65c8fa2b6", "name": "6774c92464089cc38ac7aaa65c8fa2b6", "type": "electric_scooter", "lon": -77.048133, "rental_uris": {"android": "https://dc.lft.to/lastmile_qr_scan", "ios": "https://dc.lft.to/lastmile_qr_scan"}, "lat": 38.920314833333336, "is_reserved": 0, "is_disabled": 0, "fusion_lat": 0.0}, {"fusion_lon": 0.0, "bike_id": "3c79ff583ec23bd32dd7e6fbf981c8a6", "name": "3c79ff583ec23bd32dd7e6fbf981c8a6", "type": "electric_scooter", "lon": -77.0222305, "rental_uris": {"android": "https://dc.lft.to/lastmile_qr_scan", "ios": "https://dc.lft.to/lastmile_qr_scan"}, "lat": 38.89216583333334, "is_reserved": 0, "is_disabled": 0, "fusion_lat": 0.0}, {"fusion_lon": 0.0, "bike_id": "bb02e66a00dc4ba19f3fd840aed4ebd2", "name": "bb02e66a00dc4ba19f3fd840aed4ebd2", "type": "electric_scooter", "lon": -76.98091766666667, "rental_uris": {"android": "https://dc.lft.to/lastmile_qr_scan", "ios": "https://dc.lft.to/lastmile_qr_scan"}, "lat": 38.8571775, "is_reserved": 0, "is_disabled": 0, "fusion_lat": 0.0}, {"fusion_lon": 0.0, "bike_id": "de6ca08c99b21f843905f681c832b62f", "name": "de6ca08c99b21f843905f681c832b62f", "type": "electric_scooter", "lon": -77.00590066666666, "rental_uris": {"android": "https://dc.lft.to/lastmile_qr_scan", "ios": "https://dc.lft.to/lastmile_qr_scan"}, "lat": 38.876420833333334, "is_reserved": 0, "is_disabled": 0, "fusion_lat": 0.0}, {"fusion_lon": 0.0, "bike_id": "10cb432674355ad9737bc65971c87993", "name": "10cb432674355ad9737bc65971c87993", "type": "electric_bike", "lon": -77.08525266666666, "rental_uris": {"android": "https://dc.lft.to/lastmile_qr_scan", "ios": "https://dc.lft.to/lastmile_qr_scan"}, "lat": 38.85646583333333, "is_reserved": 0, "is_disabled": 0, "fusion_lat": 0.0}, {"fusion_lon": 0.0, "bike_id": "c8c5b5e1708ef214f316d20488c5890c", "name": "c8c5b5e1708ef214f316d20488c5890c", "type": "electric_scooter", "lon": -77.04835983333334, "rental_uris": {"android": "https://dc.lft.to/lastmile_qr_scan", "ios": "https://dc.lft.to/lastmile_qr_scan"}, "lat": 38.91342566666667, "is_reserved": 0, "is_disabled": 0, "fusion_lat": 0.0}, {"fusion_lon": 0.0, "bike_id": "346b46ecd8dfa72ebe8cc83489263de6", "name": "346b46ecd8dfa72ebe8cc83489263de6", "type": "electric_scooter", "lon": -77.03173016666666, "rental_uris": {"android": "https://dc.lft.to/lastmile_qr_scan", "ios": "https://dc.lft.to/lastmile_qr_scan"}, "lat": 38.887378166666664, "is_reserved": 0, "is_disabled": 0, "fusion_lat": 0.0}, {"fusion_lon": 0.0, "bike_id": "f56abc9403a798f64fc437b8887f8cdc", "name": "f56abc9403a798f64fc437b8887f8cdc", "type": "electric_scooter", "lon": -77.01113566666666, "rental_uris": {"android": "https://dc.lft.to/lastmile_qr_scan", "ios": "https://dc.lft.to/lastmile_qr_scan"}, "lat": 38.903640333333335, "is_reserved": 0, "is_disabled": 0, "fusion_lat": 0.0}, {"fusion_lon": 0.0, "bike_id": "0f67da123ec27d6a83d6be82bc9e3c17", "name": "0f67da123ec27d6a83d6be82bc9e3c17", "type": "electric_scooter", "lon": -77.00335333333334, "rental_uris": {"android": "https://dc.lft.to/lastmile_qr_scan", "ios": "https://dc.lft.to/lastmile_qr_scan"}, "lat": 38.89357716666667, "is_reserved": 0, "is_disabled": 0, "fusion_lat": 0.0}, {"fusion_lon": 0.0, "bike_id": "5af9b499b9868f617f975e7b2d458fdd", "name": "5af9b499b9868f617f975e7b2d458fdd", "type": "electric_scooter", "lon": -77.03440716666667, "rental_uris": {"android": "https://dc.lft.to/lastmile_qr_scan", "ios": "https://dc.lft.to/lastmile_qr_scan"}, "lat": 38.90316833333333, "is_reserved": 0, "is_disabled": 0, "fusion_lat": 0.0}, {"fusion_lon": 0.0, "bike_id": "8096869c9f489bb14082f931a29c7ad9", "name": "8096869c9f489bb14082f931a29c7ad9", "type": "electric_bike", "lon": -77.026283, "rental_uris": {"android": "https://dc.lft.to/lastmile_qr_scan", "ios": "https://dc.lft.to/lastmile_qr_scan"}, "lat": 38.962274, "is_reserved": 0, "is_disabled": 0, "fusion_lat": 0.0}, {"fusion_lon": 0.0, "bike_id": "cdd4e89a6b477e41680f636d283bd492", "name": "cdd4e89a6b477e41680f636d283bd492", "type": "electric_scooter", "lon": -76.94843166666666, "rental_uris": {"android": "https://dc.lft.to/lastmile_qr_scan", "ios": "https://dc.lft.to/lastmile_qr_scan"}, "lat": 38.8948745, "is_reserved": 0, "is_disabled": 0, "fusion_lat": 0.0}, {"fusion_lon": 0.0, "bike_id": "4905f4976c3acfdd45c8d89222443b30", "name": "4905f4976c3acfdd45c8d89222443b30", "type": "electric_scooter", "lon": -77.0222495, "rental_uris": {"android": "https://dc.lft.to/lastmile_qr_scan", "ios": "https://dc.lft.to/lastmile_qr_scan"}, "lat": 38.892134, "is_reserved": 0, "is_disabled": 0, "fusion_lat": 0.0}, {"fusion_lon": 0.0, "bike_id": "15dcada0bd129e1690be27ad6a56b8b9", "name": "15dcada0bd129e1690be27ad6a56b8b9", "type": "electric_scooter", "lon": -77.057592, "rental_uris": {"android": "https://dc.lft.to/lastmile_qr_scan", "ios": "https://dc.lft.to/lastmile_qr_scan"}, "lat": 38.924941833333335, "is_reserved": 0, "is_disabled": 0, "fusion_lat": 0.0}, {"fusion_lon": 0.0, "bike_id": "c9f64cb609582f40515ffdbedcdb57f8", "name": "c9f64cb609582f40515ffdbedcdb57f8", "type": "electric_scooter", "lon": -77.03282483333334, "rental_uris": {"android": "https://dc.lft.to/lastmile_qr_scan", "ios": "https://dc.lft.to/lastmile_qr_scan"}, "lat": 38.9470095, "is_reserved": 0, "is_disabled": 0, "fusion_lat": 0.0}, {"fusion_lon": 0.0, "bike_id": "742c05f0fba0ba6f5155d0ab3603f6c4", "name": "742c05f0fba0ba6f5155d0ab3603f6c4", "type": "electric_scooter", "lon": -77.04666866666666, "rental_uris": {"android": "https://dc.lft.to/lastmile_qr_scan", "ios": "https://dc.lft.to/lastmile_qr_scan"}, "lat": 38.900067166666666, "is_reserved": 0, "is_disabled": 0, "fusion_lat": 0.0}, {"fusion_lon": 0.0, "bike_id": "20fec593a813ce08e3c44d9113a05485", "name": "20fec593a813ce08e3c44d9113a05485", "type": "electric_scooter", "lon": -76.9936705, "rental_uris": {"android": "https://dc.lft.to/lastmile_qr_scan", "ios": "https://dc.lft.to/lastmile_qr_scan"}, "lat": 38.928375833333334, "is_reserved": 0, "is_disabled": 0, "fusion_lat": 0.0}, {"fusion_lon": 0.0, "bike_id": "c295b65876ddd81aaea31ddbb3c9bcf0", "name": "c295b65876ddd81aaea31ddbb3c9bcf0", "type": "electric_scooter", "lon": -77.0120645, "rental_uris": {"android": "https://dc.lft.to/lastmile_qr_scan", "ios": "https://dc.lft.to/lastmile_qr_scan"}, "lat": 38.925852, "is_reserved": 0, "is_disabled": 0, "fusion_lat": 0.0}, {"fusion_lon": 0.0, "bike_id": "97858600902d112446712a9f0a638f3a", "name": "97858600902d112446712a9f0a638f3a", "type": "electric_scooter", "lon": -76.9908115, "rental_uris": {"android": "https://dc.lft.to/lastmile_qr_scan", "ios": "https://dc.lft.to/lastmile_qr_scan"}, "lat": 38.860456, "is_reserved": 0, "is_disabled": 0, "fusion_lat": 0.0}, {"fusion_lon": 0.0, "bike_id": "4805cdd450d3dd19f59f137def440211", "name": "4805cdd450d3dd19f59f137def440211", "type": "electric_scooter", "lon": -77.0230165, "rental_uris": {"android": "https://dc.lft.to/lastmile_qr_scan", "ios": "https://dc.lft.to/lastmile_qr_scan"}, "lat": 38.91726033333333, "is_reserved": 0, "is_disabled": 0, "fusion_lat": 0.0}, {"fusion_lon": 0.0, "bike_id": "d6e6328983a508cee3c8bc6f074f390d", "name": "d6e6328983a508cee3c8bc6f074f390d", "type": "electric_scooter", "lon": -77.01997283333333, "rental_uris": {"android": "https://dc.lft.to/lastmile_qr_scan", "ios": "https://dc.lft.to/lastmile_qr_scan"}, "lat": 38.9663755, "is_reserved": 0, "is_disabled": 0, "fusion_lat": 0.0}, {"fusion_lon": 0.0, "bike_id": "7973649ae95c2c118a954ddd7396c10e", "name": "7973649ae95c2c118a954ddd7396c10e", "type": "electric_scooter", "lon": -77.06246316666666, "rental_uris": {"android": "https://dc.lft.to/lastmile_qr_scan", "ios": "https://dc.lft.to/lastmile_qr_scan"}, "lat": 38.913155333333336, "is_reserved": 0, "is_disabled": 0, "fusion_lat": 0.0}, {"fusion_lon": 0.0, "bike_id": "343ae274d6618076b57761c7aebe55f2", "name": "343ae274d6618076b57761c7aebe55f2", "type": "electric_scooter", "lon": -77.01757866666667, "rental_uris": {"android": "https://dc.lft.to/lastmile_qr_scan", "ios": "https://dc.lft.to/lastmile_qr_scan"}, "lat": 38.91669533333334, "is_reserved": 0, "is_disabled": 0, "fusion_lat": 0.0}, {"fusion_lon": 0.0, "bike_id": "89e3078b184b21e13240cd811d3ba2f3", "name": "89e3078b184b21e13240cd811d3ba2f3", "type": "electric_bike", "lon": -77.04307433333334, "rental_uris": {"android": "https://dc.lft.to/lastmile_qr_scan", "ios": "https://dc.lft.to/lastmile_qr_scan"}, "lat": 39.05446033333333, "is_reserved": 0, "is_disabled": 0, "fusion_lat": 0.0}, {"fusion_lon": 0.0, "bike_id": "83bc5043d4d7d966ecc8a27033cd3efe", "name": "83bc5043d4d7d966ecc8a27033cd3efe", "type": "electric_scooter", "lon": -76.998621, "rental_uris": {"android": "https://dc.lft.to/lastmile_qr_scan", "ios": "https://dc.lft.to/lastmile_qr_scan"}, "lat": 38.90894383333333, "is_reserved": 0, "is_disabled": 0, "fusion_lat": 0.0}, {"fusion_lon": 0.0, "bike_id": "967588d068899b616a4eff4af6ac0d28", "name": "967588d068899b616a4eff4af6ac0d28", "type": "electric_scooter", "lon": -77.03643766666667, "rental_uris": {"android": "https://dc.lft.to/lastmile_qr_scan", "ios": "https://dc.lft.to/lastmile_qr_scan"}, "lat": 38.90273283333333, "is_reserved": 0, "is_disabled": 0, "fusion_lat": 0.0}, {"fusion_lon": 0.0, "bike_id": "c08972972c92081da7af893294ba79eb", "name": "c08972972c92081da7af893294ba79eb", "type": "electric_scooter", "lon": -76.98657766666666, "rental_uris": {"android": "https://dc.lft.to/lastmile_qr_scan", "ios": "https://dc.lft.to/lastmile_qr_scan"}, "lat": 38.90141366666667, "is_reserved": 0, "is_disabled": 0, "fusion_lat": 0.0}, {"fusion_lon": 0.0, "bike_id": "5107ce3d1654cf583d107ab7c4de7f96", "name": "5107ce3d1654cf583d107ab7c4de7f96", "type": "electric_scooter", "lon": -77.03844033333333, "rental_uris": {"android": "https://dc.lft.to/lastmile_qr_scan", "ios": "https://dc.lft.to/lastmile_qr_scan"}, "lat": 38.91205266666667, "is_reserved": 0, "is_disabled": 0, "fusion_lat": 0.0}, {"fusion_lon": 0.0, "bike_id": "769c5aa843edf46e918b3ad74892b114", "name": "769c5aa843edf46e918b3ad74892b114", "type": "electric_bike", "lon": -77.1784355, "rental_uris": {"android": "https://dc.lft.to/lastmile_qr_scan", "ios": "https://dc.lft.to/lastmile_qr_scan"}, "lat": 39.089064, "is_reserved": 0, "is_disabled": 0, "fusion_lat": 0.0}, {"fusion_lon": 0.0, "bike_id": "f284b13d409287759a7b5e21ea968b77", "name": "f284b13d409287759a7b5e21ea968b77", "type": "electric_scooter", "lon": -77.0223425, "rental_uris": {"android": "https://dc.lft.to/lastmile_qr_scan", "ios": "https://dc.lft.to/lastmile_qr_scan"}, "lat": 38.911073, "is_reserved": 0, "is_disabled": 0, "fusion_lat": 0.0}, {"fusion_lon": 0.0, "bike_id": "de38dae194e2267d385db2d037ef2a09", "name": "de38dae194e2267d385db2d037ef2a09", "type": "electric_scooter", "lon": -77.0383295, "rental_uris": {"android": "https://dc.lft.to/lastmile_qr_scan", "ios": "https://dc.lft.to/lastmile_qr_scan"}, "lat": 38.911235166666664, "is_reserved": 0, "is_disabled": 0, "fusion_lat": 0.0}, {"fusion_lon": 0.0, "bike_id": "0feb0d23583debf44ea657c84209acd0", "name": "0feb0d23583debf44ea657c84209acd0", "type": "electric_scooter", "lon": -77.05790783333333, "rental_uris": {"android": "https://dc.lft.to/lastmile_qr_scan", "ios": "https://dc.lft.to/lastmile_qr_scan"}, "lat": 38.934765666666664, "is_reserved": 0, "is_disabled": 0, "fusion_lat": 0.0}, {"fusion_lon": 0.0, "bike_id": "551a8f7f0fe856a323cc71639f3f2c55", "name": "551a8f7f0fe856a323cc71639f3f2c55", "type": "electric_scooter", "lon": -77.03758816666667, "rental_uris": {"android": "https://dc.lft.to/lastmile_qr_scan", "ios": "https://dc.lft.to/lastmile_qr_scan"}, "lat": 38.929058, "is_reserved": 0, "is_disabled": 0, "fusion_lat": 0.0}, {"fusion_lon": 0.0, "bike_id": "5ba1025f94a9a835b8dfd6e628c035a1", "name": "5ba1025f94a9a835b8dfd6e628c035a1", "type": "electric_scooter", "lon": -77.01792283333333, "rental_uris": {"android": "https://dc.lft.to/lastmile_qr_scan", "ios": "https://dc.lft.to/lastmile_qr_scan"}, "lat": 38.90638916666666, "is_reserved": 0, "is_disabled": 0, "fusion_lat": 0.0}, {"fusion_lon": 0.0, "bike_id": "af8f235caddd9eabd1e9136d949ed91e", "name": "af8f235caddd9eabd1e9136d949ed91e", "type": "electric_scooter", "lon": -77.031087, "rental_uris": {"android": "https://dc.lft.to/lastmile_qr_scan", "ios": "https://dc.lft.to/lastmile_qr_scan"}, "lat": 38.91902233333333, "is_reserved": 0, "is_disabled": 0, "fusion_lat": 0.0}, {"fusion_lon": 0.0, "bike_id": "b794bb376b5dc282e7ba7e955d8b8764", "name": "b794bb376b5dc282e7ba7e955d8b8764", "type": "electric_scooter", "lon": -77.03222783333334, "rental_uris": {"android": "https://dc.lft.to/lastmile_qr_scan", "ios": "https://dc.lft.to/lastmile_qr_scan"}, "lat": 38.90354766666667, "is_reserved": 0, "is_disabled": 0, "fusion_lat": 0.0}, {"fusion_lon": 0.0, "bike_id": "e3f16dfb8db8267d7f3a71314406552e", "name": "e3f16dfb8db8267d7f3a71314406552e", "type": "electric_scooter", "lon": -76.96527333333333, "rental_uris": {"android": "https://dc.lft.to/lastmile_qr_scan", "ios": "https://dc.lft.to/lastmile_qr_scan"}, "lat": 38.87482283333333, "is_reserved": 0, "is_disabled": 0, "fusion_lat": 0.0}, {"fusion_lon": 0.0, "bike_id": "712c544f7aa536a06301eb1d3a7b2615", "name": "712c544f7aa536a06301eb1d3a7b2615", "type": "electric_scooter", "lon": -77.04540983333334, "rental_uris": {"android": "https://dc.lft.to/lastmile_qr_scan", "ios": "https://dc.lft.to/lastmile_qr_scan"}, "lat": 38.9036295, "is_reserved": 0, "is_disabled": 0, "fusion_lat": 0.0}, {"fusion_lon": 0.0, "bike_id": "d75ff402be098c474c63e905ce75ddc6", "name": "d75ff402be098c474c63e905ce75ddc6", "type": "electric_scooter", "lon": -77.04185116666666, "rental_uris": {"android": "https://dc.lft.to/lastmile_qr_scan", "ios": "https://dc.lft.to/lastmile_qr_scan"}, "lat": 38.91262416666667, "is_reserved": 0, "is_disabled": 0, "fusion_lat": 0.0}, {"fusion_lon": 0.0, "bike_id": "e9d749068971a8c557f827e7c6f41096", "name": "e9d749068971a8c557f827e7c6f41096", "type": "electric_scooter", "lon": -77.03250183333333, "rental_uris": {"android": "https://dc.lft.to/lastmile_qr_scan", "ios": "https://dc.lft.to/lastmile_qr_scan"}, "lat": 38.9002475, "is_reserved": 0, "is_disabled": 0, "fusion_lat": 0.0}, {"fusion_lon": 0.0, "bike_id": "5ad674eb6cf4ffbc07abdbbd1a412baf", "name": "5ad674eb6cf4ffbc07abdbbd1a412baf", "type": "electric_scooter", "lon": -77.04776516666666, "rental_uris": {"android": "https://dc.lft.to/lastmile_qr_scan", "ios": "https://dc.lft.to/lastmile_qr_scan"}, "lat": 38.902238833333335, "is_reserved": 0, "is_disabled": 0, "fusion_lat": 0.0}, {"fusion_lon": 0.0, "bike_id": "82ec03ecbb0a21e7efc3745fb7aea2fc", "name": "82ec03ecbb0a21e7efc3745fb7aea2fc", "type": "electric_scooter", "lon": -77.03032316666666, "rental_uris": {"android": "https://dc.lft.to/lastmile_qr_scan", "ios": "https://dc.lft.to/lastmile_qr_scan"}, "lat": 38.926596, "is_reserved": 0, "is_disabled": 0, "fusion_lat": 0.0}, {"fusion_lon": 0.0, "bike_id": "1199c38d0c8122be395a0822efc4d169", "name": "1199c38d0c8122be395a0822efc4d169", "type": "electric_bike", "lon": -77.12258216666666, "rental_uris": {"android": "https://dc.lft.to/lastmile_qr_scan", "ios": "https://dc.lft.to/lastmile_qr_scan"}, "lat": 38.887677833333335, "is_reserved": 0, "is_disabled": 0, "fusion_lat": 0.0}, {"fusion_lon": 0.0, "bike_id": "5c40b32d31ee418ff232c6fa820c16de", "name": "5c40b32d31ee418ff232c6fa820c16de", "type": "electric_scooter", "lon": -77.00598566666666, "rental_uris": {"android": "https://dc.lft.to/lastmile_qr_scan", "ios": "https://dc.lft.to/lastmile_qr_scan"}, "lat": 38.87636633333334, "is_reserved": 0, "is_disabled": 0, "fusion_lat": 0.0}, {"fusion_lon": 0.0, "bike_id": "aa63b6c56a33379825481ce95b040583", "name": "aa63b6c56a33379825481ce95b040583", "type": "electric_bike", "lon": -77.07683383333334, "rental_uris": {"android": "https://dc.lft.to/lastmile_qr_scan", "ios": "https://dc.lft.to/lastmile_qr_scan"}, "lat": 38.83192533333333, "is_reserved": 0, "is_disabled": 0, "fusion_lat": 0.0}, {"fusion_lon": 0.0, "bike_id": "38dd7ef12de57f0172405ffba0de3310", "name": "38dd7ef12de57f0172405ffba0de3310", "type": "electric_bike", "lon": -77.11221316666666, "rental_uris": {"android": "https://dc.lft.to/lastmile_qr_scan", "ios": "https://dc.lft.to/lastmile_qr_scan"}, "lat": 38.828746, "is_reserved": 0, "is_disabled": 0, "fusion_lat": 0.0}, {"fusion_lon": 0.0, "bike_id": "daa203316aca29ab16c3d1701f4a2107", "name": "daa203316aca29ab16c3d1701f4a2107", "type": "electric_scooter", "lon": -77.04186383333334, "rental_uris": {"android": "https://dc.lft.to/lastmile_qr_scan", "ios": "https://dc.lft.to/lastmile_qr_scan"}, "lat": 38.9072705, "is_reserved": 0, "is_disabled": 0, "fusion_lat": 0.0}, {"fusion_lon": 0.0, "bike_id": "afd81fc7d419ce54450943532c30beb4", "name": "afd81fc7d419ce54450943532c30beb4", "type": "electric_scooter", "lon": -76.99823133333334, "rental_uris": {"android": "https://dc.lft.to/lastmile_qr_scan", "ios": "https://dc.lft.to/lastmile_qr_scan"}, "lat": 38.907239833333335, "is_reserved": 0, "is_disabled": 0, "fusion_lat": 0.0}, {"fusion_lon": 0.0, "bike_id": "19b4ee2e00ae26bdeb65820adb71f676", "name": "19b4ee2e00ae26bdeb65820adb71f676", "type": "electric_scooter", "lon": -76.9916205, "rental_uris": {"android": "https://dc.lft.to/lastmile_qr_scan", "ios": "https://dc.lft.to/lastmile_qr_scan"}, "lat": 38.879202666666664, "is_reserved": 0, "is_disabled": 0, "fusion_lat": 0.0}, {"fusion_lon": 0.0, "bike_id": "f208876edcfcdd0ff4dd43330e632676", "name": "f208876edcfcdd0ff4dd43330e632676", "type": "electric_scooter", "lon": -76.99410833333333, "rental_uris": {"android": "https://dc.lft.to/lastmile_qr_scan", "ios": "https://dc.lft.to/lastmile_qr_scan"}, "lat": 38.877864833333334, "is_reserved": 0, "is_disabled": 0, "fusion_lat": 0.0}, {"fusion_lon": 0.0, "bike_id": "98ca1afb18efa6df5a0f4d1dd920ed26", "name": "98ca1afb18efa6df5a0f4d1dd920ed26", "type": "electric_bike", "lon": -76.93539733333333, "rental_uris": {"android": "https://dc.lft.to/lastmile_qr_scan", "ios": "https://dc.lft.to/lastmile_qr_scan"}, "lat": 38.9554905, "is_reserved": 0, "is_disabled": 0, "fusion_lat": 0.0}, {"fusion_lon": 0.0, "bike_id": "397509b03306e4e061778647dacd96d6", "name": "397509b03306e4e061778647dacd96d6", "type": "electric_scooter", "lon": -77.0450795, "rental_uris": {"android": "https://dc.lft.to/lastmile_qr_scan", "ios": "https://dc.lft.to/lastmile_qr_scan"}, "lat": 38.912803, "is_reserved": 0, "is_disabled": 0, "fusion_lat": 0.0}, {"fusion_lon": 0.0, "bike_id": "c33e724199d09987b3b8fd3b40b46e92", "name": "c33e724199d09987b3b8fd3b40b46e92", "type": "electric_scooter", "lon": -77.04738133333333, "rental_uris": {"android": "https://dc.lft.to/lastmile_qr_scan", "ios": "https://dc.lft.to/lastmile_qr_scan"}, "lat": 38.902144666666665, "is_reserved": 0, "is_disabled": 0, "fusion_lat": 0.0}, {"fusion_lon": 0.0, "bike_id": "27b6e91cfa28d02bbc6d0d7167c7b92b", "name": "27b6e91cfa28d02bbc6d0d7167c7b92b", "type": "electric_scooter", "lon": -77.0344925, "rental_uris": {"android": "https://dc.lft.to/lastmile_qr_scan", "ios": "https://dc.lft.to/lastmile_qr_scan"}, "lat": 38.905553166666664, "is_reserved": 0, "is_disabled": 0, "fusion_lat": 0.0}, {"fusion_lon": 0.0, "bike_id": "aa15d8d3788fe6e41331904821531992", "name": "aa15d8d3788fe6e41331904821531992", "type": "electric_scooter", "lon": -77.07864866666667, "rental_uris": {"android": "https://dc.lft.to/lastmile_qr_scan", "ios": "https://dc.lft.to/lastmile_qr_scan"}, "lat": 38.92466183333333, "is_reserved": 0, "is_disabled": 0, "fusion_lat": 0.0}, {"fusion_lon": 0.0, "bike_id": "21ac01d65a8d0732d196d0e38a4d9f1c", "name": "21ac01d65a8d0732d196d0e38a4d9f1c", "type": "electric_scooter", "lon": -77.00208816666667, "rental_uris": {"android": "https://dc.lft.to/lastmile_qr_scan", "ios": "https://dc.lft.to/lastmile_qr_scan"}, "lat": 38.90031333333334, "is_reserved": 0, "is_disabled": 0, "fusion_lat": 0.0}, {"fusion_lon": 0.0, "bike_id": "42464d0976f3b519c43ed337c2d04923", "name": "42464d0976f3b519c43ed337c2d04923", "type": "electric_scooter", "lon": -77.02851133333333, "rental_uris": {"android": "https://dc.lft.to/lastmile_qr_scan", "ios": "https://dc.lft.to/lastmile_qr_scan"}, "lat": 38.900082, "is_reserved": 0, "is_disabled": 0, "fusion_lat": 0.0}, {"fusion_lon": 0.0, "bike_id": "214cf029f171650ee25db831fb3fcf23", "name": "214cf029f171650ee25db831fb3fcf23", "type": "electric_scooter", "lon": -77.01096733333334, "rental_uris": {"android": "https://dc.lft.to/lastmile_qr_scan", "ios": "https://dc.lft.to/lastmile_qr_scan"}, "lat": 38.9055515, "is_reserved": 0, "is_disabled": 0, "fusion_lat": 0.0}, {"fusion_lon": 0.0, "bike_id": "9018ed356453bbb99c1872a6b19b815a", "name": "9018ed356453bbb99c1872a6b19b815a", "type": "electric_scooter", "lon": -77.04150016666667, "rental_uris": {"android": "https://dc.lft.to/lastmile_qr_scan", "ios": "https://dc.lft.to/lastmile_qr_scan"}, "lat": 38.91705233333333, "is_reserved": 0, "is_disabled": 0, "fusion_lat": 0.0}, {"fusion_lon": 0.0, "bike_id": "a8d129357ee8ba6d654ad85b12b2768b", "name": "a8d129357ee8ba6d654ad85b12b2768b", "type": "electric_bike", "lon": -77.06472633333334, "rental_uris": {"android": "https://dc.lft.to/lastmile_qr_scan", "ios": "https://dc.lft.to/lastmile_qr_scan"}, "lat": 38.97378966666667, "is_reserved": 0, "is_disabled": 0, "fusion_lat": 0.0}, {"fusion_lon": 0.0, "bike_id": "c74dfb19b53e554e233d27f7938b9745", "name": "c74dfb19b53e554e233d27f7938b9745", "type": "electric_bike", "lon": -76.9893805, "rental_uris": {"android": "https://dc.lft.to/lastmile_qr_scan", "ios": "https://dc.lft.to/lastmile_qr_scan"}, "lat": 38.928583333333336, "is_reserved": 0, "is_disabled": 0, "fusion_lat": 0.0}, {"fusion_lon": 0.0, "bike_id": "0441c3c7b134a32eb23973fef8e6eb84", "name": "0441c3c7b134a32eb23973fef8e6eb84", "type": "electric_scooter", "lon": -76.99607, "rental_uris": {"android": "https://dc.lft.to/lastmile_qr_scan", "ios": "https://dc.lft.to/lastmile_qr_scan"}, "lat": 38.9261495, "is_reserved": 0, "is_disabled": 0, "fusion_lat": 0.0}, {"fusion_lon": 0.0, "bike_id": "0262638f8109fefad7522ad65d895eaa", "name": "0262638f8109fefad7522ad65d895eaa", "type": "electric_scooter", "lon": -77.02461733333334, "rental_uris": {"android": "https://dc.lft.to/lastmile_qr_scan", "ios": "https://dc.lft.to/lastmile_qr_scan"}, "lat": 38.90852, "is_reserved": 0, "is_disabled": 0, "fusion_lat": 0.0}, {"fusion_lon": 0.0, "bike_id": "0fb96cc5f4df0b54ba789055eafd471d", "name": "0fb96cc5f4df0b54ba789055eafd471d", "type": "electric_scooter", "lon": -77.01049583333334, "rental_uris": {"android": "https://dc.lft.to/lastmile_qr_scan", "ios": "https://dc.lft.to/lastmile_qr_scan"}, "lat": 38.8714295, "is_reserved": 0, "is_disabled": 0, "fusion_lat": 0.0}, {"fusion_lon": 0.0, "bike_id": "070ecd1c49f219cbd0bc1e3859cbac0e", "name": "070ecd1c49f219cbd0bc1e3859cbac0e", "type": "electric_scooter", "lon": -77.0436825, "rental_uris": {"android": "https://dc.lft.to/lastmile_qr_scan", "ios": "https://dc.lft.to/lastmile_qr_scan"}, "lat": 38.911201166666665, "is_reserved": 0, "is_disabled": 0, "fusion_lat": 0.0}, {"fusion_lon": 0.0, "bike_id": "5ec95a0e51c42bf8b0febfcabc2890f5", "name": "5ec95a0e51c42bf8b0febfcabc2890f5", "type": "electric_scooter", "lon": -77.01057533333334, "rental_uris": {"android": "https://dc.lft.to/lastmile_qr_scan", "ios": "https://dc.lft.to/lastmile_qr_scan"}, "lat": 38.92987683333333, "is_reserved": 0, "is_disabled": 0, "fusion_lat": 0.0}, {"fusion_lon": 0.0, "bike_id": "90d73209013ecb1904eb6b4e41c80cd7", "name": "90d73209013ecb1904eb6b4e41c80cd7", "type": "electric_scooter", "lon": -77.01651583333333, "rental_uris": {"android": "https://dc.lft.to/lastmile_qr_scan", "ios": "https://dc.lft.to/lastmile_qr_scan"}, "lat": 38.88750366666667, "is_reserved": 0, "is_disabled": 0, "fusion_lat": 0.0}, {"fusion_lon": 0.0, "bike_id": "aeb1c1692b88287800176a7bbc8c3375", "name": "aeb1c1692b88287800176a7bbc8c3375", "type": "electric_scooter", "lon": -77.04124683333333, "rental_uris": {"android": "https://dc.lft.to/lastmile_qr_scan", "ios": "https://dc.lft.to/lastmile_qr_scan"}, "lat": 38.915567, "is_reserved": 0, "is_disabled": 0, "fusion_lat": 0.0}, {"fusion_lon": 0.0, "bike_id": "7a9e18bbe72f36ccd9ea401d450e28c9", "name": "7a9e18bbe72f36ccd9ea401d450e28c9", "type": "electric_scooter", "lon": -77.00370616666666, "rental_uris": {"android": "https://dc.lft.to/lastmile_qr_scan", "ios": "https://dc.lft.to/lastmile_qr_scan"}, "lat": 38.8972405, "is_reserved": 0, "is_disabled": 0, "fusion_lat": 0.0}, {"fusion_lon": 0.0, "bike_id": "3e6f896e89f25236a641f4b774eaaf21", "name": "3e6f896e89f25236a641f4b774eaaf21", "type": "electric_scooter", "lon": -77.02058066666666, "rental_uris": {"android": "https://dc.lft.to/lastmile_qr_scan", "ios": "https://dc.lft.to/lastmile_qr_scan"}, "lat": 38.894664166666665, "is_reserved": 0, "is_disabled": 0, "fusion_lat": 0.0}, {"fusion_lon": 0.0, "bike_id": "42c14e7a83d75da84ad9c63b62e70b0a", "name": "42c14e7a83d75da84ad9c63b62e70b0a", "type": "electric_bike", "lon": -77.00630916666667, "rental_uris": {"android": "https://dc.lft.to/lastmile_qr_scan", "ios": "https://dc.lft.to/lastmile_qr_scan"}, "lat": 38.98364083333333, "is_reserved": 0, "is_disabled": 0, "fusion_lat": 0.0}, {"fusion_lon": 0.0, "bike_id": "ff24be1770098a5b58a833a14a8eb48b", "name": "ff24be1770098a5b58a833a14a8eb48b", "type": "electric_scooter", "lon": -77.02953716666667, "rental_uris": {"android": "https://dc.lft.to/lastmile_qr_scan", "ios": "https://dc.lft.to/lastmile_qr_scan"}, "lat": 38.904994333333335, "is_reserved": 0, "is_disabled": 0, "fusion_lat": 0.0}, {"fusion_lon": 0.0, "bike_id": "66c233156346b3a9d284b87cfa31e113", "name": "66c233156346b3a9d284b87cfa31e113", "type": "electric_bike", "lon": -76.97995033333333, "rental_uris": {"android": "https://dc.lft.to/lastmile_qr_scan", "ios": "https://dc.lft.to/lastmile_qr_scan"}, "lat": 38.877515333333335, "is_reserved": 0, "is_disabled": 0, "fusion_lat": 0.0}, {"fusion_lon": 0.0, "bike_id": "0648a69e42cc79e38f5d045e10771461", "name": "0648a69e42cc79e38f5d045e10771461", "type": "electric_scooter", "lon": -77.04755233333333, "rental_uris": {"android": "https://dc.lft.to/lastmile_qr_scan", "ios": "https://dc.lft.to/lastmile_qr_scan"}, "lat": 38.9096975, "is_reserved": 0, "is_disabled": 0, "fusion_lat": 0.0}, {"fusion_lon": 0.0, "bike_id": "dda71a81532483f1fa130ca7e3b74814", "name": "dda71a81532483f1fa130ca7e3b74814", "type": "electric_scooter", "lon": -77.03784966666667, "rental_uris": {"android": "https://dc.lft.to/lastmile_qr_scan", "ios": "https://dc.lft.to/lastmile_qr_scan"}, "lat": 38.926238, "is_reserved": 0, "is_disabled": 0, "fusion_lat": 0.0}, {"fusion_lon": 0.0, "bike_id": "681171308b5f1debaeae64e66ceb93f1", "name": "681171308b5f1debaeae64e66ceb93f1", "type": "electric_scooter", "lon": -77.02274183333333, "rental_uris": {"android": "https://dc.lft.to/lastmile_qr_scan", "ios": "https://dc.lft.to/lastmile_qr_scan"}, "lat": 38.91649483333333, "is_reserved": 0, "is_disabled": 0, "fusion_lat": 0.0}, {"fusion_lon": 0.0, "bike_id": "a9efde882e393a285199ad217c0e4145", "name": "a9efde882e393a285199ad217c0e4145", "type": "electric_scooter", "lon": -77.01401283333334, "rental_uris": {"android": "https://dc.lft.to/lastmile_qr_scan", "ios": "https://dc.lft.to/lastmile_qr_scan"}, "lat": 38.87906733333333, "is_reserved": 0, "is_disabled": 0, "fusion_lat": 0.0}, {"fusion_lon": 0.0, "bike_id": "eb47140dc6794f6aaddd2eed244ade67", "name": "eb47140dc6794f6aaddd2eed244ade67", "type": "electric_scooter", "lon": -77.0316335, "rental_uris": {"android": "https://dc.lft.to/lastmile_qr_scan", "ios": "https://dc.lft.to/lastmile_qr_scan"}, "lat": 38.927138166666666, "is_reserved": 0, "is_disabled": 0, "fusion_lat": 0.0}, {"fusion_lon": 0.0, "bike_id": "bb4059955d181a87d6b0194dbd7011c8", "name": "bb4059955d181a87d6b0194dbd7011c8", "type": "electric_scooter", "lon": -77.02119383333333, "rental_uris": {"android": "https://dc.lft.to/lastmile_qr_scan", "ios": "https://dc.lft.to/lastmile_qr_scan"}, "lat": 38.917386666666665, "is_reserved": 0, "is_disabled": 0, "fusion_lat": 0.0}, {"fusion_lon": 0.0, "bike_id": "980e607b3a9a6e680175482e8017be07", "name": "980e607b3a9a6e680175482e8017be07", "type": "electric_scooter", "lon": -77.0362195, "rental_uris": {"android": "https://dc.lft.to/lastmile_qr_scan", "ios": "https://dc.lft.to/lastmile_qr_scan"}, "lat": 38.9285385, "is_reserved": 0, "is_disabled": 0, "fusion_lat": 0.0}, {"fusion_lon": 0.0, "bike_id": "e7fc314c36e6b0ebad22e65f91d0c830", "name": "e7fc314c36e6b0ebad22e65f91d0c830", "type": "electric_scooter", "lon": -76.98584233333334, "rental_uris": {"android": "https://dc.lft.to/lastmile_qr_scan", "ios": "https://dc.lft.to/lastmile_qr_scan"}, "lat": 38.884044, "is_reserved": 0, "is_disabled": 0, "fusion_lat": 0.0}, {"fusion_lon": 0.0, "bike_id": "a31805f1d2aa335a958470799640853d", "name": "a31805f1d2aa335a958470799640853d", "type": "electric_scooter", "lon": -77.03179416666667, "rental_uris": {"android": "https://dc.lft.to/lastmile_qr_scan", "ios": "https://dc.lft.to/lastmile_qr_scan"}, "lat": 38.89980283333333, "is_reserved": 0, "is_disabled": 0, "fusion_lat": 0.0}, {"fusion_lon": 0.0, "bike_id": "d74b79891480280abfb3d1395b3592e2", "name": "d74b79891480280abfb3d1395b3592e2", "type": "electric_scooter", "lon": -77.03323533333334, "rental_uris": {"android": "https://dc.lft.to/lastmile_qr_scan", "ios": "https://dc.lft.to/lastmile_qr_scan"}, "lat": 38.90012216666667, "is_reserved": 0, "is_disabled": 0, "fusion_lat": 0.0}, {"fusion_lon": 0.0, "bike_id": "a028df9b3275ddbf6440d11bc867ee13", "name": "a028df9b3275ddbf6440d11bc867ee13", "type": "electric_scooter", "lon": -77.0420745, "rental_uris": {"android": "https://dc.lft.to/lastmile_qr_scan", "ios": "https://dc.lft.to/lastmile_qr_scan"}, "lat": 38.923142, "is_reserved": 0, "is_disabled": 0, "fusion_lat": 0.0}, {"fusion_lon": 0.0, "bike_id": "51d0c81673dee0135075ebc1e788a3dd", "name": "51d0c81673dee0135075ebc1e788a3dd", "type": "electric_scooter", "lon": -76.99963, "rental_uris": {"android": "https://dc.lft.to/lastmile_qr_scan", "ios": "https://dc.lft.to/lastmile_qr_scan"}, "lat": 38.8932005, "is_reserved": 0, "is_disabled": 0, "fusion_lat": 0.0}, {"fusion_lon": 0.0, "bike_id": "fe90f0394b756626abc7ebd6c6dbdfab", "name": "fe90f0394b756626abc7ebd6c6dbdfab", "type": "electric_scooter", "lon": -77.0237725, "rental_uris": {"android": "https://dc.lft.to/lastmile_qr_scan", "ios": "https://dc.lft.to/lastmile_qr_scan"}, "lat": 38.8960155, "is_reserved": 0, "is_disabled": 0, "fusion_lat": 0.0}, {"fusion_lon": 0.0, "bike_id": "fd650cf553d1107aceed53a1af842056", "name": "fd650cf553d1107aceed53a1af842056", "type": "electric_bike", "lon": -77.36088416666666, "rental_uris": {"android": "https://dc.lft.to/lastmile_qr_scan", "ios": "https://dc.lft.to/lastmile_qr_scan"}, "lat": 38.939632833333334, "is_reserved": 0, "is_disabled": 0, "fusion_lat": 0.0}, {"fusion_lon": 0.0, "bike_id": "4e9b4efefe355c1dc8bde44f0b57888d", "name": "4e9b4efefe355c1dc8bde44f0b57888d", "type": "electric_scooter", "lon": -77.01695933333333, "rental_uris": {"android": "https://dc.lft.to/lastmile_qr_scan", "ios": "https://dc.lft.to/lastmile_qr_scan"}, "lat": 38.974994833333334, "is_reserved": 0, "is_disabled": 0, "fusion_lat": 0.0}, {"fusion_lon": 0.0, "bike_id": "a64eb6acef3dd676db6a1fb6370d1de5", "name": "a64eb6acef3dd676db6a1fb6370d1de5", "type": "electric_scooter", "lon": -77.0216825, "rental_uris": {"android": "https://dc.lft.to/lastmile_qr_scan", "ios": "https://dc.lft.to/lastmile_qr_scan"}, "lat": 38.942974166666666, "is_reserved": 0, "is_disabled": 0, "fusion_lat": 0.0}, {"fusion_lon": 0.0, "bike_id": "f60999efe6393b67f8c5abcaad5ca318", "name": "f60999efe6393b67f8c5abcaad5ca318", "type": "electric_scooter", "lon": -77.02223566666666, "rental_uris": {"android": "https://dc.lft.to/lastmile_qr_scan", "ios": "https://dc.lft.to/lastmile_qr_scan"}, "lat": 38.892207166666665, "is_reserved": 0, "is_disabled": 0, "fusion_lat": 0.0}, {"fusion_lon": 0.0, "bike_id": "457cafdd0158aac49d419894bb053d01", "name": "457cafdd0158aac49d419894bb053d01", "type": "electric_scooter", "lon": -77.03045983333334, "rental_uris": {"android": "https://dc.lft.to/lastmile_qr_scan", "ios": "https://dc.lft.to/lastmile_qr_scan"}, "lat": 38.939814, "is_reserved": 0, "is_disabled": 0, "fusion_lat": 0.0}, {"fusion_lon": 0.0, "bike_id": "b17a846e5cb04543b896b3046906ee51", "name": "b17a846e5cb04543b896b3046906ee51", "type": "electric_bike", "lon": -77.01079, "rental_uris": {"android": "https://dc.lft.to/lastmile_qr_scan", "ios": "https://dc.lft.to/lastmile_qr_scan"}, "lat": 38.9627975, "is_reserved": 0, "is_disabled": 0, "fusion_lat": 0.0}, {"fusion_lon": 0.0, "bike_id": "9e6cd3eccd6011a0e9a6946c63df7f2e", "name": "9e6cd3eccd6011a0e9a6946c63df7f2e", "type": "electric_scooter", "lon": -77.02780133333333, "rental_uris": {"android": "https://dc.lft.to/lastmile_qr_scan", "ios": "https://dc.lft.to/lastmile_qr_scan"}, "lat": 38.8974735, "is_reserved": 0, "is_disabled": 0, "fusion_lat": 0.0}, {"fusion_lon": 0.0, "bike_id": "0a1bc04c5ca3cc262021e9555f0f8564", "name": "0a1bc04c5ca3cc262021e9555f0f8564", "type": "electric_scooter", "lon": -77.01100683333334, "rental_uris": {"android": "https://dc.lft.to/lastmile_qr_scan", "ios": "https://dc.lft.to/lastmile_qr_scan"}, "lat": 38.909684, "is_reserved": 0, "is_disabled": 0, "fusion_lat": 0.0}, {"fusion_lon": 0.0, "bike_id": "34c7abf8e805b9fbc165a2b8a3665a0e", "name": "34c7abf8e805b9fbc165a2b8a3665a0e", "type": "electric_scooter", "lon": -77.03838766666667, "rental_uris": {"android": "https://dc.lft.to/lastmile_qr_scan", "ios": "https://dc.lft.to/lastmile_qr_scan"}, "lat": 38.9156815, "is_reserved": 0, "is_disabled": 0, "fusion_lat": 0.0}, {"fusion_lon": 0.0, "bike_id": "cf02fb36ff14e49faf8402731063ca3d", "name": "cf02fb36ff14e49faf8402731063ca3d", "type": "electric_scooter", "lon": -77.02376583333333, "rental_uris": {"android": "https://dc.lft.to/lastmile_qr_scan", "ios": "https://dc.lft.to/lastmile_qr_scan"}, "lat": 38.90200816666667, "is_reserved": 0, "is_disabled": 0, "fusion_lat": 0.0}, {"fusion_lon": 0.0, "bike_id": "6fa5385d0718dcdcc73b7204875ad6ac", "name": "6fa5385d0718dcdcc73b7204875ad6ac", "type": "electric_scooter", "lon": -77.0325995, "rental_uris": {"android": "https://dc.lft.to/lastmile_qr_scan", "ios": "https://dc.lft.to/lastmile_qr_scan"}, "lat": 38.932637, "is_reserved": 0, "is_disabled": 0, "fusion_lat": 0.0}, {"fusion_lon": 0.0, "bike_id": "c889326e2a5d4d0a2ff6ca589bc6793d", "name": "c889326e2a5d4d0a2ff6ca589bc6793d", "type": "electric_scooter", "lon": -77.02291216666667, "rental_uris": {"android": "https://dc.lft.to/lastmile_qr_scan", "ios": "https://dc.lft.to/lastmile_qr_scan"}, "lat": 38.91764833333333, "is_reserved": 0, "is_disabled": 0, "fusion_lat": 0.0}, {"fusion_lon": 0.0, "bike_id": "14d60babcc8bc2ea4ca1797b92e832bc", "name": "14d60babcc8bc2ea4ca1797b92e832bc", "type": "electric_scooter", "lon": -77.03183833333334, "rental_uris": {"android": "https://dc.lft.to/lastmile_qr_scan", "ios": "https://dc.lft.to/lastmile_qr_scan"}, "lat": 38.907948166666664, "is_reserved": 0, "is_disabled": 0, "fusion_lat": 0.0}, {"fusion_lon": 0.0, "bike_id": "7781145fd9bec55b0cb672d7e193d6d5", "name": "7781145fd9bec55b0cb672d7e193d6d5", "type": "electric_scooter", "lon": -77.03423766666667, "rental_uris": {"android": "https://dc.lft.to/lastmile_qr_scan", "ios": "https://dc.lft.to/lastmile_qr_scan"}, "lat": 38.907104, "is_reserved": 0, "is_disabled": 0, "fusion_lat": 0.0}, {"fusion_lon": 0.0, "bike_id": "688f576c128b0e0ef548e7743313b983", "name": "688f576c128b0e0ef548e7743313b983", "type": "electric_scooter", "lon": -77.041753, "rental_uris": {"android": "https://dc.lft.to/lastmile_qr_scan", "ios": "https://dc.lft.to/lastmile_qr_scan"}, "lat": 38.920040666666665, "is_reserved": 0, "is_disabled": 0, "fusion_lat": 0.0}, {"fusion_lon": 0.0, "bike_id": "a3901f6484e72a5d570ac5f11c073cd8", "name": "a3901f6484e72a5d570ac5f11c073cd8", "type": "electric_scooter", "lon": -77.0199805, "rental_uris": {"android": "https://dc.lft.to/lastmile_qr_scan", "ios": "https://dc.lft.to/lastmile_qr_scan"}, "lat": 38.966289333333336, "is_reserved": 0, "is_disabled": 0, "fusion_lat": 0.0}, {"fusion_lon": 0.0, "bike_id": "dcee4f613b9fa3869d6e7f8016702d77", "name": "dcee4f613b9fa3869d6e7f8016702d77", "type": "electric_scooter", "lon": -77.0463035, "rental_uris": {"android": "https://dc.lft.to/lastmile_qr_scan", "ios": "https://dc.lft.to/lastmile_qr_scan"}, "lat": 38.915707833333336, "is_reserved": 0, "is_disabled": 0, "fusion_lat": 0.0}, {"fusion_lon": 0.0, "bike_id": "97d59f6d0f6e012a4d5856b473b1957b", "name": "97d59f6d0f6e012a4d5856b473b1957b", "type": "electric_scooter", "lon": -77.0457585, "rental_uris": {"android": "https://dc.lft.to/lastmile_qr_scan", "ios": "https://dc.lft.to/lastmile_qr_scan"}, "lat": 38.9241465, "is_reserved": 0, "is_disabled": 0, "fusion_lat": 0.0}, {"fusion_lon": 0.0, "bike_id": "8116450da02b02241bae9bc6de0ac60d", "name": "8116450da02b02241bae9bc6de0ac60d", "type": "electric_scooter", "lon": -77.01443266666666, "rental_uris": {"android": "https://dc.lft.to/lastmile_qr_scan", "ios": "https://dc.lft.to/lastmile_qr_scan"}, "lat": 38.91311433333333, "is_reserved": 0, "is_disabled": 0, "fusion_lat": 0.0}, {"fusion_lon": 0.0, "bike_id": "1e26408b290e402fbec341d92fa9823c", "name": "1e26408b290e402fbec341d92fa9823c", "type": "electric_scooter", "lon": -77.02486783333333, "rental_uris": {"android": "https://dc.lft.to/lastmile_qr_scan", "ios": "https://dc.lft.to/lastmile_qr_scan"}, "lat": 38.916177, "is_reserved": 0, "is_disabled": 0, "fusion_lat": 0.0}, {"fusion_lon": 0.0, "bike_id": "c575a0c7501ae137be30544db2723a32", "name": "c575a0c7501ae137be30544db2723a32", "type": "electric_scooter", "lon": -77.03645583333333, "rental_uris": {"android": "https://dc.lft.to/lastmile_qr_scan", "ios": "https://dc.lft.to/lastmile_qr_scan"}, "lat": 38.90382666666667, "is_reserved": 0, "is_disabled": 0, "fusion_lat": 0.0}, {"fusion_lon": 0.0, "bike_id": "81ce56d83e73077acf61be60c0466ce7", "name": "81ce56d83e73077acf61be60c0466ce7", "type": "electric_scooter", "lon": -77.03958066666667, "rental_uris": {"android": "https://dc.lft.to/lastmile_qr_scan", "ios": "https://dc.lft.to/lastmile_qr_scan"}, "lat": 38.9060565, "is_reserved": 0, "is_disabled": 0, "fusion_lat": 0.0}, {"fusion_lon": 0.0, "bike_id": "9123b230ba3a69916d4983b21741f88f", "name": "9123b230ba3a69916d4983b21741f88f", "type": "electric_scooter", "lon": -77.0799075, "rental_uris": {"android": "https://dc.lft.to/lastmile_qr_scan", "ios": "https://dc.lft.to/lastmile_qr_scan"}, "lat": 38.92368666666667, "is_reserved": 0, "is_disabled": 0, "fusion_lat": 0.0}, {"fusion_lon": 0.0, "bike_id": "437d0d2cc3b3f1805597ecc24c87c137", "name": "437d0d2cc3b3f1805597ecc24c87c137", "type": "electric_scooter", "lon": -77.02637416666667, "rental_uris": {"android": "https://dc.lft.to/lastmile_qr_scan", "ios": "https://dc.lft.to/lastmile_qr_scan"}, "lat": 38.93274266666667, "is_reserved": 0, "is_disabled": 0, "fusion_lat": 0.0}, {"fusion_lon": 0.0, "bike_id": "72243cc6a1351b829cb0b24090963bbf", "name": "72243cc6a1351b829cb0b24090963bbf", "type": "electric_scooter", "lon": -77.05094416666667, "rental_uris": {"android": "https://dc.lft.to/lastmile_qr_scan", "ios": "https://dc.lft.to/lastmile_qr_scan"}, "lat": 38.92341966666667, "is_reserved": 0, "is_disabled": 0, "fusion_lat": 0.0}, {"fusion_lon": 0.0, "bike_id": "d08e88ece9260f2b9a19f30766bcf9ce", "name": "d08e88ece9260f2b9a19f30766bcf9ce", "type": "electric_bike", "lon": -77.0131235, "rental_uris": {"android": "https://dc.lft.to/lastmile_qr_scan", "ios": "https://dc.lft.to/lastmile_qr_scan"}, "lat": 38.881273166666666, "is_reserved": 0, "is_disabled": 0, "fusion_lat": 0.0}, {"fusion_lon": 0.0, "bike_id": "95300f7ef27cfe4da59ff3d81e5918b6", "name": "95300f7ef27cfe4da59ff3d81e5918b6", "type": "electric_scooter", "lon": -77.04658116666667, "rental_uris": {"android": "https://dc.lft.to/lastmile_qr_scan", "ios": "https://dc.lft.to/lastmile_qr_scan"}, "lat": 38.903588666666664, "is_reserved": 0, "is_disabled": 0, "fusion_lat": 0.0}, {"fusion_lon": 0.0, "bike_id": "d2229a8eefa2488f43027baf743f0831", "name": "d2229a8eefa2488f43027baf743f0831", "type": "electric_scooter", "lon": -77.02444566666667, "rental_uris": {"android": "https://dc.lft.to/lastmile_qr_scan", "ios": "https://dc.lft.to/lastmile_qr_scan"}, "lat": 38.9237135, "is_reserved": 0, "is_disabled": 0, "fusion_lat": 0.0}, {"fusion_lon": 0.0, "bike_id": "51ce06cf4619795d223a8addadd815f7", "name": "51ce06cf4619795d223a8addadd815f7", "type": "electric_scooter", "lon": -76.99481066666667, "rental_uris": {"android": "https://dc.lft.to/lastmile_qr_scan", "ios": "https://dc.lft.to/lastmile_qr_scan"}, "lat": 38.862161, "is_reserved": 0, "is_disabled": 0, "fusion_lat": 0.0}, {"fusion_lon": 0.0, "bike_id": "409ddf2d8b77b4ccee6ff73af1ae69e8", "name": "409ddf2d8b77b4ccee6ff73af1ae69e8", "type": "electric_scooter", "lon": -77.00860866666666, "rental_uris": {"android": "https://dc.lft.to/lastmile_qr_scan", "ios": "https://dc.lft.to/lastmile_qr_scan"}, "lat": 38.906434, "is_reserved": 0, "is_disabled": 0, "fusion_lat": 0.0}, {"fusion_lon": 0.0, "bike_id": "8fd6f4b8cb37191fb474de804b9f4129", "name": "8fd6f4b8cb37191fb474de804b9f4129", "type": "electric_scooter", "lon": -77.045981, "rental_uris": {"android": "https://dc.lft.to/lastmile_qr_scan", "ios": "https://dc.lft.to/lastmile_qr_scan"}, "lat": 38.909786, "is_reserved": 0, "is_disabled": 0, "fusion_lat": 0.0}, {"fusion_lon": 0.0, "bike_id": "6382b5dfe0026fadd31d1c6bd8c74f1e", "name": "6382b5dfe0026fadd31d1c6bd8c74f1e", "type": "electric_bike", "lon": -76.97330033333333, "rental_uris": {"android": "https://dc.lft.to/lastmile_qr_scan", "ios": "https://dc.lft.to/lastmile_qr_scan"}, "lat": 38.85064833333333, "is_reserved": 0, "is_disabled": 0, "fusion_lat": 0.0}, {"fusion_lon": 0.0, "bike_id": "c3083f78409ac65e59502031355bced8", "name": "c3083f78409ac65e59502031355bced8", "type": "electric_bike", "lon": -77.0894165, "rental_uris": {"android": "https://dc.lft.to/lastmile_qr_scan", "ios": "https://dc.lft.to/lastmile_qr_scan"}, "lat": 38.84091133333333, "is_reserved": 0, "is_disabled": 0, "fusion_lat": 0.0}, {"fusion_lon": 0.0, "bike_id": "b290f8256019fd9fadb86ac7615fde53", "name": "b290f8256019fd9fadb86ac7615fde53", "type": "electric_scooter", "lon": -76.98337033333334, "rental_uris": {"android": "https://dc.lft.to/lastmile_qr_scan", "ios": "https://dc.lft.to/lastmile_qr_scan"}, "lat": 38.86256216666666, "is_reserved": 0, "is_disabled": 0, "fusion_lat": 0.0}, {"fusion_lon": 0.0, "bike_id": "2d77e27509721fb9f0509562f455801c", "name": "2d77e27509721fb9f0509562f455801c", "type": "electric_scooter", "lon": -77.034598, "rental_uris": {"android": "https://dc.lft.to/lastmile_qr_scan", "ios": "https://dc.lft.to/lastmile_qr_scan"}, "lat": 38.9171105, "is_reserved": 0, "is_disabled": 0, "fusion_lat": 0.0}, {"fusion_lon": 0.0, "bike_id": "ead123a31a6714821d6f7c9c6d04baee", "name": "ead123a31a6714821d6f7c9c6d04baee", "type": "electric_scooter", "lon": -77.03869416666667, "rental_uris": {"android": "https://dc.lft.to/lastmile_qr_scan", "ios": "https://dc.lft.to/lastmile_qr_scan"}, "lat": 38.912674833333334, "is_reserved": 0, "is_disabled": 0, "fusion_lat": 0.0}, {"fusion_lon": 0.0, "bike_id": "1cf64c023536eb83baa8ebb7c9e1ba7e", "name": "1cf64c023536eb83baa8ebb7c9e1ba7e", "type": "electric_scooter", "lon": -76.94288683333333, "rental_uris": {"android": "https://dc.lft.to/lastmile_qr_scan", "ios": "https://dc.lft.to/lastmile_qr_scan"}, "lat": 38.88297983333333, "is_reserved": 0, "is_disabled": 0, "fusion_lat": 0.0}, {"fusion_lon": 0.0, "bike_id": "ec5f87c49876ae25209ce5a1186e9ff5", "name": "ec5f87c49876ae25209ce5a1186e9ff5", "type": "electric_scooter", "lon": -77.04371, "rental_uris": {"android": "https://dc.lft.to/lastmile_qr_scan", "ios": "https://dc.lft.to/lastmile_qr_scan"}, "lat": 38.90113083333333, "is_reserved": 0, "is_disabled": 0, "fusion_lat": 0.0}, {"fusion_lon": 0.0, "bike_id": "c8d92ad4a284e7f617f271d9ea37a1f7", "name": "c8d92ad4a284e7f617f271d9ea37a1f7", "type": "electric_scooter", "lon": -76.99874766666667, "rental_uris": {"android": "https://dc.lft.to/lastmile_qr_scan", "ios": "https://dc.lft.to/lastmile_qr_scan"}, "lat": 38.900072333333334, "is_reserved": 0, "is_disabled": 0, "fusion_lat": 0.0}, {"fusion_lon": 0.0, "bike_id": "5bd08b746f70f6efa4a693635b9927e6", "name": "5bd08b746f70f6efa4a693635b9927e6", "type": "electric_scooter", "lon": -77.069245, "rental_uris": {"android": "https://dc.lft.to/lastmile_qr_scan", "ios": "https://dc.lft.to/lastmile_qr_scan"}, "lat": 38.913354166666664, "is_reserved": 0, "is_disabled": 0, "fusion_lat": 0.0}, {"fusion_lon": 0.0, "bike_id": "ab992140429924a353fe3d21b86501d8", "name": "ab992140429924a353fe3d21b86501d8", "type": "electric_scooter", "lon": -77.038679, "rental_uris": {"android": "https://dc.lft.to/lastmile_qr_scan", "ios": "https://dc.lft.to/lastmile_qr_scan"}, "lat": 38.902420666666664, "is_reserved": 0, "is_disabled": 0, "fusion_lat": 0.0}, {"fusion_lon": 0.0, "bike_id": "12654fd2bfa9316f93ddb1e0ecb7973c", "name": "12654fd2bfa9316f93ddb1e0ecb7973c", "type": "electric_scooter", "lon": -77.04870966666667, "rental_uris": {"android": "https://dc.lft.to/lastmile_qr_scan", "ios": "https://dc.lft.to/lastmile_qr_scan"}, "lat": 38.90906116666667, "is_reserved": 0, "is_disabled": 0, "fusion_lat": 0.0}, {"fusion_lon": 0.0, "bike_id": "a030a30d88e33d020d1609d81089eb1c", "name": "a030a30d88e33d020d1609d81089eb1c", "type": "electric_scooter", "lon": -77.02857816666666, "rental_uris": {"android": "https://dc.lft.to/lastmile_qr_scan", "ios": "https://dc.lft.to/lastmile_qr_scan"}, "lat": 38.932675, "is_reserved": 0, "is_disabled": 0, "fusion_lat": 0.0}, {"fusion_lon": 0.0, "bike_id": "b9892558fc5b0f84e44673944d52e481", "name": "b9892558fc5b0f84e44673944d52e481", "type": "electric_scooter", "lon": -77.01993933333334, "rental_uris": {"android": "https://dc.lft.to/lastmile_qr_scan", "ios": "https://dc.lft.to/lastmile_qr_scan"}, "lat": 38.930449333333335, "is_reserved": 0, "is_disabled": 0, "fusion_lat": 0.0}, {"fusion_lon": 0.0, "bike_id": "8de37b1ed7a9f8a660bd6777bb6c5c05", "name": "8de37b1ed7a9f8a660bd6777bb6c5c05", "type": "electric_scooter", "lon": -77.01374966666667, "rental_uris": {"android": "https://dc.lft.to/lastmile_qr_scan", "ios": "https://dc.lft.to/lastmile_qr_scan"}, "lat": 38.89221716666667, "is_reserved": 0, "is_disabled": 0, "fusion_lat": 0.0}, {"fusion_lon": 0.0, "bike_id": "6a902c4441266d68784746e345e883e2", "name": "6a902c4441266d68784746e345e883e2", "type": "electric_bike", "lon": -76.90537033333334, "rental_uris": {"android": "https://dc.lft.to/lastmile_qr_scan", "ios": "https://dc.lft.to/lastmile_qr_scan"}, "lat": 38.8973105, "is_reserved": 0, "is_disabled": 0, "fusion_lat": 0.0}, {"fusion_lon": 0.0, "bike_id": "4fa495e063a1ceaad7ae9d883a591f7d", "name": "4fa495e063a1ceaad7ae9d883a591f7d", "type": "electric_bike", "lon": -77.0024115, "rental_uris": {"android": "https://dc.lft.to/lastmile_qr_scan", "ios": "https://dc.lft.to/lastmile_qr_scan"}, "lat": 38.89886533333333, "is_reserved": 0, "is_disabled": 0, "fusion_lat": 0.0}, {"fusion_lon": 0.0, "bike_id": "c2eecaafb2e3a5e010f3322f31289be8", "name": "c2eecaafb2e3a5e010f3322f31289be8", "type": "electric_scooter", "lon": -77.038427, "rental_uris": {"android": "https://dc.lft.to/lastmile_qr_scan", "ios": "https://dc.lft.to/lastmile_qr_scan"}, "lat": 38.91212866666667, "is_reserved": 0, "is_disabled": 0, "fusion_lat": 0.0}, {"fusion_lon": 0.0, "bike_id": "08e6e85e350c761f4decc4dc2d1e778f", "name": "08e6e85e350c761f4decc4dc2d1e778f", "type": "electric_scooter", "lon": -77.043609, "rental_uris": {"android": "https://dc.lft.to/lastmile_qr_scan", "ios": "https://dc.lft.to/lastmile_qr_scan"}, "lat": 38.90412166666667, "is_reserved": 0, "is_disabled": 0, "fusion_lat": 0.0}, {"fusion_lon": 0.0, "bike_id": "8d1e0fab824d46826980061ece84f6c0", "name": "8d1e0fab824d46826980061ece84f6c0", "type": "electric_scooter", "lon": -77.01873583333334, "rental_uris": {"android": "https://dc.lft.to/lastmile_qr_scan", "ios": "https://dc.lft.to/lastmile_qr_scan"}, "lat": 38.9003965, "is_reserved": 0, "is_disabled": 0, "fusion_lat": 0.0}, {"fusion_lon": 0.0, "bike_id": "d582013e2f4ee9218e62bd98afac56ec", "name": "d582013e2f4ee9218e62bd98afac56ec", "type": "electric_scooter", "lon": -77.021782, "rental_uris": {"android": "https://dc.lft.to/lastmile_qr_scan", "ios": "https://dc.lft.to/lastmile_qr_scan"}, "lat": 38.91885666666667, "is_reserved": 0, "is_disabled": 0, "fusion_lat": 0.0}, {"fusion_lon": 0.0, "bike_id": "84f31da6818c1c355747e0d113ef529b", "name": "84f31da6818c1c355747e0d113ef529b", "type": "electric_scooter", "lon": -77.01381516666666, "rental_uris": {"android": "https://dc.lft.to/lastmile_qr_scan", "ios": "https://dc.lft.to/lastmile_qr_scan"}, "lat": 38.8864175, "is_reserved": 0, "is_disabled": 0, "fusion_lat": 0.0}, {"fusion_lon": 0.0, "bike_id": "04747549baaafb10b155cdbad5825536", "name": "04747549baaafb10b155cdbad5825536", "type": "electric_scooter", "lon": -77.05765016666666, "rental_uris": {"android": "https://dc.lft.to/lastmile_qr_scan", "ios": "https://dc.lft.to/lastmile_qr_scan"}, "lat": 38.925014833333336, "is_reserved": 0, "is_disabled": 0, "fusion_lat": 0.0}, {"fusion_lon": 0.0, "bike_id": "b4feeac6660c6a6637aec018bc18aadf", "name": "b4feeac6660c6a6637aec018bc18aadf", "type": "electric_scooter", "lon": -76.92405983333333, "rental_uris": {"android": "https://dc.lft.to/lastmile_qr_scan", "ios": "https://dc.lft.to/lastmile_qr_scan"}, "lat": 38.88989083333333, "is_reserved": 0, "is_disabled": 0, "fusion_lat": 0.0}, {"fusion_lon": 0.0, "bike_id": "d63c270528970ba635cc532d1736f5c9", "name": "d63c270528970ba635cc532d1736f5c9", "type": "electric_scooter", "lon": -77.01224183333333, "rental_uris": {"android": "https://dc.lft.to/lastmile_qr_scan", "ios": "https://dc.lft.to/lastmile_qr_scan"}, "lat": 38.867217833333335, "is_reserved": 0, "is_disabled": 0, "fusion_lat": 0.0}, {"fusion_lon": 0.0, "bike_id": "a9029ebb21d34d63f220f0d46aab40b7", "name": "a9029ebb21d34d63f220f0d46aab40b7", "type": "electric_scooter", "lon": -77.03209333333334, "rental_uris": {"android": "https://dc.lft.to/lastmile_qr_scan", "ios": "https://dc.lft.to/lastmile_qr_scan"}, "lat": 38.89404566666666, "is_reserved": 0, "is_disabled": 0, "fusion_lat": 0.0}, {"fusion_lon": 0.0, "bike_id": "8f445a92bb2339737bde6ae047aa6ea0", "name": "8f445a92bb2339737bde6ae047aa6ea0", "type": "electric_bike", "lon": -76.934088, "rental_uris": {"android": "https://dc.lft.to/lastmile_qr_scan", "ios": "https://dc.lft.to/lastmile_qr_scan"}, "lat": 38.946224, "is_reserved": 0, "is_disabled": 0, "fusion_lat": 0.0}, {"fusion_lon": 0.0, "bike_id": "43c29eb586ae6bb9f891e295fd4dec14", "name": "43c29eb586ae6bb9f891e295fd4dec14", "type": "electric_scooter", "lon": -77.02980116666667, "rental_uris": {"android": "https://dc.lft.to/lastmile_qr_scan", "ios": "https://dc.lft.to/lastmile_qr_scan"}, "lat": 38.896239, "is_reserved": 0, "is_disabled": 0, "fusion_lat": 0.0}, {"fusion_lon": 0.0, "bike_id": "cae92c577dd2a1fcc6d77a6073d05da3", "name": "cae92c577dd2a1fcc6d77a6073d05da3", "type": "electric_scooter", "lon": -77.0210535, "rental_uris": {"android": "https://dc.lft.to/lastmile_qr_scan", "ios": "https://dc.lft.to/lastmile_qr_scan"}, "lat": 38.895994333333334, "is_reserved": 0, "is_disabled": 0, "fusion_lat": 0.0}, {"fusion_lon": 0.0, "bike_id": "3defd313510a5ddc61ce2b9e1ad57026", "name": "3defd313510a5ddc61ce2b9e1ad57026", "type": "electric_scooter", "lon": -76.96544433333334, "rental_uris": {"android": "https://dc.lft.to/lastmile_qr_scan", "ios": "https://dc.lft.to/lastmile_qr_scan"}, "lat": 38.918835666666666, "is_reserved": 0, "is_disabled": 0, "fusion_lat": 0.0}, {"fusion_lon": 0.0, "bike_id": "6c636facf92187a8f3a3eb171226d66c", "name": "6c636facf92187a8f3a3eb171226d66c", "type": "electric_scooter", "lon": -77.01253866666667, "rental_uris": {"android": "https://dc.lft.to/lastmile_qr_scan", "ios": "https://dc.lft.to/lastmile_qr_scan"}, "lat": 38.87630816666667, "is_reserved": 0, "is_disabled": 0, "fusion_lat": 0.0}, {"fusion_lon": 0.0, "bike_id": "995bed4f629e4dcc13f44b43edf6e51a", "name": "995bed4f629e4dcc13f44b43edf6e51a", "type": "electric_scooter", "lon": -77.0275465, "rental_uris": {"android": "https://dc.lft.to/lastmile_qr_scan", "ios": "https://dc.lft.to/lastmile_qr_scan"}, "lat": 38.9541155, "is_reserved": 0, "is_disabled": 0, "fusion_lat": 0.0}, {"fusion_lon": 0.0, "bike_id": "b07633881dd65d5ec66d8fafa570769b", "name": "b07633881dd65d5ec66d8fafa570769b", "type": "electric_scooter", "lon": -77.00573583333333, "rental_uris": {"android": "https://dc.lft.to/lastmile_qr_scan", "ios": "https://dc.lft.to/lastmile_qr_scan"}, "lat": 38.885297, "is_reserved": 0, "is_disabled": 0, "fusion_lat": 0.0}, {"fusion_lon": 0.0, "bike_id": "58e0a33173a8a8a47b37279635b5def5", "name": "58e0a33173a8a8a47b37279635b5def5", "type": "electric_scooter", "lon": -77.0058245, "rental_uris": {"android": "https://dc.lft.to/lastmile_qr_scan", "ios": "https://dc.lft.to/lastmile_qr_scan"}, "lat": 38.8852835, "is_reserved": 0, "is_disabled": 0, "fusion_lat": 0.0}, {"fusion_lon": 0.0, "bike_id": "9fff123b1c799440db7829a2bdd0dd86", "name": "9fff123b1c799440db7829a2bdd0dd86", "type": "electric_scooter", "lon": -77.02223383333333, "rental_uris": {"android": "https://dc.lft.to/lastmile_qr_scan", "ios": "https://dc.lft.to/lastmile_qr_scan"}, "lat": 38.935502166666666, "is_reserved": 0, "is_disabled": 0, "fusion_lat": 0.0}, {"fusion_lon": 0.0, "bike_id": "c6234da395411ec347ee4a6b0f524005", "name": "c6234da395411ec347ee4a6b0f524005", "type": "electric_scooter", "lon": -77.00971133333333, "rental_uris": {"android": "https://dc.lft.to/lastmile_qr_scan", "ios": "https://dc.lft.to/lastmile_qr_scan"}, "lat": 38.907901333333335, "is_reserved": 0, "is_disabled": 0, "fusion_lat": 0.0}, {"fusion_lon": 0.0, "bike_id": "a3b787bdc77f2c2b992cf20f64f26eec", "name": "a3b787bdc77f2c2b992cf20f64f26eec", "type": "electric_scooter", "lon": -77.03804933333333, "rental_uris": {"android": "https://dc.lft.to/lastmile_qr_scan", "ios": "https://dc.lft.to/lastmile_qr_scan"}, "lat": 38.906621666666666, "is_reserved": 0, "is_disabled": 0, "fusion_lat": 0.0}, {"fusion_lon": 0.0, "bike_id": "2583c01b046a4c050a0931f45a0b8bbb", "name": "2583c01b046a4c050a0931f45a0b8bbb", "type": "electric_scooter", "lon": -77.01929083333333, "rental_uris": {"android": "https://dc.lft.to/lastmile_qr_scan", "ios": "https://dc.lft.to/lastmile_qr_scan"}, "lat": 38.94475816666667, "is_reserved": 0, "is_disabled": 0, "fusion_lat": 0.0}, {"fusion_lon": 0.0, "bike_id": "8a50bb71dae6c972bc2c35fd53e4033d", "name": "8a50bb71dae6c972bc2c35fd53e4033d", "type": "electric_scooter", "lon": -77.0033985, "rental_uris": {"android": "https://dc.lft.to/lastmile_qr_scan", "ios": "https://dc.lft.to/lastmile_qr_scan"}, "lat": 38.89606883333333, "is_reserved": 0, "is_disabled": 0, "fusion_lat": 0.0}, {"fusion_lon": 0.0, "bike_id": "f39f37d68459784ddb125ad9548a9865", "name": "f39f37d68459784ddb125ad9548a9865", "type": "electric_scooter", "lon": -77.06843433333333, "rental_uris": {"android": "https://dc.lft.to/lastmile_qr_scan", "ios": "https://dc.lft.to/lastmile_qr_scan"}, "lat": 38.95200666666667, "is_reserved": 0, "is_disabled": 0, "fusion_lat": 0.0}, {"fusion_lon": 0.0, "bike_id": "ba9d627a42f59234d77d317c73986e6a", "name": "ba9d627a42f59234d77d317c73986e6a", "type": "electric_scooter", "lon": -76.97995666666667, "rental_uris": {"android": "https://dc.lft.to/lastmile_qr_scan", "ios": "https://dc.lft.to/lastmile_qr_scan"}, "lat": 38.88770733333333, "is_reserved": 0, "is_disabled": 0, "fusion_lat": 0.0}, {"fusion_lon": 0.0, "bike_id": "7ed2c70abc11c19aa42b65433d41d408", "name": "7ed2c70abc11c19aa42b65433d41d408", "type": "electric_scooter", "lon": -77.027299, "rental_uris": {"android": "https://dc.lft.to/lastmile_qr_scan", "ios": "https://dc.lft.to/lastmile_qr_scan"}, "lat": 38.896337333333335, "is_reserved": 0, "is_disabled": 0, "fusion_lat": 0.0}, {"fusion_lon": 0.0, "bike_id": "f2ca9921d1e464c3f2c6276a0b696bed", "name": "f2ca9921d1e464c3f2c6276a0b696bed", "type": "electric_scooter", "lon": -77.06176883333333, "rental_uris": {"android": "https://dc.lft.to/lastmile_qr_scan", "ios": "https://dc.lft.to/lastmile_qr_scan"}, "lat": 38.94088433333334, "is_reserved": 0, "is_disabled": 0, "fusion_lat": 0.0}, {"fusion_lon": 0.0, "bike_id": "d371c472fe47c0485ee424e9272ff936", "name": "d371c472fe47c0485ee424e9272ff936", "type": "electric_scooter", "lon": -77.02688616666667, "rental_uris": {"android": "https://dc.lft.to/lastmile_qr_scan", "ios": "https://dc.lft.to/lastmile_qr_scan"}, "lat": 38.89622633333333, "is_reserved": 0, "is_disabled": 0, "fusion_lat": 0.0}, {"fusion_lon": 0.0, "bike_id": "fd29ce427601e7ce1902c9f73d9fc9c2", "name": "fd29ce427601e7ce1902c9f73d9fc9c2", "type": "electric_scooter", "lon": -76.99903366666666, "rental_uris": {"android": "https://dc.lft.to/lastmile_qr_scan", "ios": "https://dc.lft.to/lastmile_qr_scan"}, "lat": 38.9565395, "is_reserved": 0, "is_disabled": 0, "fusion_lat": 0.0}, {"fusion_lon": 0.0, "bike_id": "4d0fd4b721ca8269a664385cac0cf3a3", "name": "4d0fd4b721ca8269a664385cac0cf3a3", "type": "electric_scooter", "lon": -77.0468245, "rental_uris": {"android": "https://dc.lft.to/lastmile_qr_scan", "ios": "https://dc.lft.to/lastmile_qr_scan"}, "lat": 38.898263666666665, "is_reserved": 0, "is_disabled": 0, "fusion_lat": 0.0}, {"fusion_lon": 0.0, "bike_id": "e8fe5be298a4590c42ea6143830fb68e", "name": "e8fe5be298a4590c42ea6143830fb68e", "type": "electric_scooter", "lon": -77.03152616666667, "rental_uris": {"android": "https://dc.lft.to/lastmile_qr_scan", "ios": "https://dc.lft.to/lastmile_qr_scan"}, "lat": 38.883080166666666, "is_reserved": 0, "is_disabled": 0, "fusion_lat": 0.0}, {"fusion_lon": 0.0, "bike_id": "940cec9ffbee44cedb11ece947ec4542", "name": "940cec9ffbee44cedb11ece947ec4542", "type": "electric_scooter", "lon": -76.9980965, "rental_uris": {"android": "https://dc.lft.to/lastmile_qr_scan", "ios": "https://dc.lft.to/lastmile_qr_scan"}, "lat": 38.87686183333334, "is_reserved": 0, "is_disabled": 0, "fusion_lat": 0.0}, {"fusion_lon": 0.0, "bike_id": "5bbcf81638cf2293bcaf8c148584408e", "name": "5bbcf81638cf2293bcaf8c148584408e", "type": "electric_scooter", "lon": -77.02408866666667, "rental_uris": {"android": "https://dc.lft.to/lastmile_qr_scan", "ios": "https://dc.lft.to/lastmile_qr_scan"}, "lat": 38.90976116666667, "is_reserved": 0, "is_disabled": 0, "fusion_lat": 0.0}, {"fusion_lon": 0.0, "bike_id": "2d090909f36823d1d0d510745689c285", "name": "2d090909f36823d1d0d510745689c285", "type": "electric_scooter", "lon": -77.00565783333333, "rental_uris": {"android": "https://dc.lft.to/lastmile_qr_scan", "ios": "https://dc.lft.to/lastmile_qr_scan"}, "lat": 38.90535633333333, "is_reserved": 0, "is_disabled": 0, "fusion_lat": 0.0}, {"fusion_lon": 0.0, "bike_id": "1dca5b57e3d19d09fe10915992db3feb", "name": "1dca5b57e3d19d09fe10915992db3feb", "type": "electric_scooter", "lon": -76.9489845, "rental_uris": {"android": "https://dc.lft.to/lastmile_qr_scan", "ios": "https://dc.lft.to/lastmile_qr_scan"}, "lat": 38.8952775, "is_reserved": 0, "is_disabled": 0, "fusion_lat": 0.0}, {"fusion_lon": 0.0, "bike_id": "acb212819f2c2c93af37469d257c63c3", "name": "acb212819f2c2c93af37469d257c63c3", "type": "electric_scooter", "lon": -77.06643983333333, "rental_uris": {"android": "https://dc.lft.to/lastmile_qr_scan", "ios": "https://dc.lft.to/lastmile_qr_scan"}, "lat": 38.90348783333334, "is_reserved": 0, "is_disabled": 0, "fusion_lat": 0.0}, {"fusion_lon": 0.0, "bike_id": "51071b6230096df60383b36f1a68c106", "name": "51071b6230096df60383b36f1a68c106", "type": "electric_bike", "lon": -76.95995966666666, "rental_uris": {"android": "https://dc.lft.to/lastmile_qr_scan", "ios": "https://dc.lft.to/lastmile_qr_scan"}, "lat": 38.870087, "is_reserved": 0, "is_disabled": 0, "fusion_lat": 0.0}, {"fusion_lon": 0.0, "bike_id": "aaa8fa79cb002eb7a8a12fe372224dda", "name": "aaa8fa79cb002eb7a8a12fe372224dda", "type": "electric_scooter", "lon": -77.03427266666667, "rental_uris": {"android": "https://dc.lft.to/lastmile_qr_scan", "ios": "https://dc.lft.to/lastmile_qr_scan"}, "lat": 38.9080255, "is_reserved": 0, "is_disabled": 0, "fusion_lat": 0.0}, {"fusion_lon": 0.0, "bike_id": "c20a81c0481cc99c44197d41c23a2159", "name": "c20a81c0481cc99c44197d41c23a2159", "type": "electric_scooter", "lon": -77.03720133333333, "rental_uris": {"android": "https://dc.lft.to/lastmile_qr_scan", "ios": "https://dc.lft.to/lastmile_qr_scan"}, "lat": 38.918038, "is_reserved": 0, "is_disabled": 0, "fusion_lat": 0.0}, {"fusion_lon": 0.0, "bike_id": "270b16f129717aea4284f33f0bd8bbe5", "name": "270b16f129717aea4284f33f0bd8bbe5", "type": "electric_scooter", "lon": -77.042961, "rental_uris": {"android": "https://dc.lft.to/lastmile_qr_scan", "ios": "https://dc.lft.to/lastmile_qr_scan"}, "lat": 38.9177445, "is_reserved": 0, "is_disabled": 0, "fusion_lat": 0.0}, {"fusion_lon": 0.0, "bike_id": "841460c6c45159c1afe3ba05f2289c5c", "name": "841460c6c45159c1afe3ba05f2289c5c", "type": "electric_scooter", "lon": -77.08618883333334, "rental_uris": {"android": "https://dc.lft.to/lastmile_qr_scan", "ios": "https://dc.lft.to/lastmile_qr_scan"}, "lat": 38.958687166666664, "is_reserved": 0, "is_disabled": 0, "fusion_lat": 0.0}, {"fusion_lon": 0.0, "bike_id": "5aea15489afa27e75ff2768bce8ba305", "name": "5aea15489afa27e75ff2768bce8ba305", "type": "electric_scooter", "lon": -77.00864, "rental_uris": {"android": "https://dc.lft.to/lastmile_qr_scan", "ios": "https://dc.lft.to/lastmile_qr_scan"}, "lat": 38.876292166666666, "is_reserved": 0, "is_disabled": 0, "fusion_lat": 0.0}, {"fusion_lon": 0.0, "bike_id": "be003c6ea1bd153afc79c01f0b3fe726", "name": "be003c6ea1bd153afc79c01f0b3fe726", "type": "electric_scooter", "lon": -77.0467805, "rental_uris": {"android": "https://dc.lft.to/lastmile_qr_scan", "ios": "https://dc.lft.to/lastmile_qr_scan"}, "lat": 38.89504383333333, "is_reserved": 0, "is_disabled": 0, "fusion_lat": 0.0}, {"fusion_lon": 0.0, "bike_id": "4e4d24ac61a5db66da31a0d3f5acda88", "name": "4e4d24ac61a5db66da31a0d3f5acda88", "type": "electric_scooter", "lon": -77.01119283333334, "rental_uris": {"android": "https://dc.lft.to/lastmile_qr_scan", "ios": "https://dc.lft.to/lastmile_qr_scan"}, "lat": 38.895143, "is_reserved": 0, "is_disabled": 0, "fusion_lat": 0.0}, {"fusion_lon": 0.0, "bike_id": "224f76c100080ec5d1d2c22950cce121", "name": "224f76c100080ec5d1d2c22950cce121", "type": "electric_scooter", "lon": -77.03051066666667, "rental_uris": {"android": "https://dc.lft.to/lastmile_qr_scan", "ios": "https://dc.lft.to/lastmile_qr_scan"}, "lat": 38.88406966666667, "is_reserved": 0, "is_disabled": 0, "fusion_lat": 0.0}, {"fusion_lon": 0.0, "bike_id": "0ed1ed7daf9dadd968af18bcc07788b6", "name": "0ed1ed7daf9dadd968af18bcc07788b6", "type": "electric_scooter", "lon": -77.02026116666667, "rental_uris": {"android": "https://dc.lft.to/lastmile_qr_scan", "ios": "https://dc.lft.to/lastmile_qr_scan"}, "lat": 38.92430233333333, "is_reserved": 0, "is_disabled": 0, "fusion_lat": 0.0}, {"fusion_lon": 0.0, "bike_id": "4673fb9b6c7a246cb1f44c83a2056dfc", "name": "4673fb9b6c7a246cb1f44c83a2056dfc", "type": "electric_scooter", "lon": -77.0325095, "rental_uris": {"android": "https://dc.lft.to/lastmile_qr_scan", "ios": "https://dc.lft.to/lastmile_qr_scan"}, "lat": 38.91817133333333, "is_reserved": 0, "is_disabled": 0, "fusion_lat": 0.0}, {"fusion_lon": 0.0, "bike_id": "362f717907e5a79ee919e615497ac369", "name": "362f717907e5a79ee919e615497ac369", "type": "electric_scooter", "lon": -77.00819366666667, "rental_uris": {"android": "https://dc.lft.to/lastmile_qr_scan", "ios": "https://dc.lft.to/lastmile_qr_scan"}, "lat": 38.91553666666667, "is_reserved": 0, "is_disabled": 0, "fusion_lat": 0.0}, {"fusion_lon": 0.0, "bike_id": "4e5da46605dbf615b1c08a24aa07d9cc", "name": "4e5da46605dbf615b1c08a24aa07d9cc", "type": "electric_scooter", "lon": -77.00528916666667, "rental_uris": {"android": "https://dc.lft.to/lastmile_qr_scan", "ios": "https://dc.lft.to/lastmile_qr_scan"}, "lat": 38.879101, "is_reserved": 0, "is_disabled": 0, "fusion_lat": 0.0}, {"fusion_lon": 0.0, "bike_id": "5c540d1301e5e6227c4c5ceba969a0bf", "name": "5c540d1301e5e6227c4c5ceba969a0bf", "type": "electric_scooter", "lon": -77.0614425, "rental_uris": {"android": "https://dc.lft.to/lastmile_qr_scan", "ios": "https://dc.lft.to/lastmile_qr_scan"}, "lat": 38.9436405, "is_reserved": 0, "is_disabled": 0, "fusion_lat": 0.0}, {"fusion_lon": 0.0, "bike_id": "e7b53cb832bfc35309fee523947cf0f2", "name": "e7b53cb832bfc35309fee523947cf0f2", "type": "electric_scooter", "lon": -77.04039616666667, "rental_uris": {"android": "https://dc.lft.to/lastmile_qr_scan", "ios": "https://dc.lft.to/lastmile_qr_scan"}, "lat": 38.90002916666667, "is_reserved": 0, "is_disabled": 0, "fusion_lat": 0.0}, {"fusion_lon": 0.0, "bike_id": "fa273352b6568ef41d08594a6f4d8b2b", "name": "fa273352b6568ef41d08594a6f4d8b2b", "type": "electric_scooter", "lon": -77.04158783333334, "rental_uris": {"android": "https://dc.lft.to/lastmile_qr_scan", "ios": "https://dc.lft.to/lastmile_qr_scan"}, "lat": 38.91348933333333, "is_reserved": 0, "is_disabled": 0, "fusion_lat": 0.0}, {"fusion_lon": 0.0, "bike_id": "0cc4a01e0879c6d73cfa270a3e72f6ba", "name": "0cc4a01e0879c6d73cfa270a3e72f6ba", "type": "electric_scooter", "lon": -77.03551883333333, "rental_uris": {"android": "https://dc.lft.to/lastmile_qr_scan", "ios": "https://dc.lft.to/lastmile_qr_scan"}, "lat": 38.935932666666666, "is_reserved": 0, "is_disabled": 0, "fusion_lat": 0.0}, {"fusion_lon": 0.0, "bike_id": "be82240f7ca896d031f364eaa385f007", "name": "be82240f7ca896d031f364eaa385f007", "type": "electric_scooter", "lon": -76.98464916666667, "rental_uris": {"android": "https://dc.lft.to/lastmile_qr_scan", "ios": "https://dc.lft.to/lastmile_qr_scan"}, "lat": 38.87997166666667, "is_reserved": 0, "is_disabled": 0, "fusion_lat": 0.0}, {"fusion_lon": 0.0, "bike_id": "fd05b1dfc02ed462ac4fa927adeae185", "name": "fd05b1dfc02ed462ac4fa927adeae185", "type": "electric_scooter", "lon": -77.01900583333334, "rental_uris": {"android": "https://dc.lft.to/lastmile_qr_scan", "ios": "https://dc.lft.to/lastmile_qr_scan"}, "lat": 38.94937933333333, "is_reserved": 0, "is_disabled": 0, "fusion_lat": 0.0}, {"fusion_lon": 0.0, "bike_id": "55c84941cbb131b578a8831faaa010ca", "name": "55c84941cbb131b578a8831faaa010ca", "type": "electric_scooter", "lon": -77.0416335, "rental_uris": {"android": "https://dc.lft.to/lastmile_qr_scan", "ios": "https://dc.lft.to/lastmile_qr_scan"}, "lat": 38.91103833333333, "is_reserved": 0, "is_disabled": 0, "fusion_lat": 0.0}, {"fusion_lon": 0.0, "bike_id": "a2f49da3ba019224eae0c299fc3585c9", "name": "a2f49da3ba019224eae0c299fc3585c9", "type": "electric_bike", "lon": -76.98174533333334, "rental_uris": {"android": "https://dc.lft.to/lastmile_qr_scan", "ios": "https://dc.lft.to/lastmile_qr_scan"}, "lat": 38.959641833333336, "is_reserved": 0, "is_disabled": 0, "fusion_lat": 0.0}, {"fusion_lon": 0.0, "bike_id": "24b18e4c2336025d55f0b3950599fe97", "name": "24b18e4c2336025d55f0b3950599fe97", "type": "electric_scooter", "lon": -77.03240016666666, "rental_uris": {"android": "https://dc.lft.to/lastmile_qr_scan", "ios": "https://dc.lft.to/lastmile_qr_scan"}, "lat": 38.92709516666667, "is_reserved": 0, "is_disabled": 0, "fusion_lat": 0.0}, {"fusion_lon": 0.0, "bike_id": "00ac2b319762c0cb0dfc1370b471076d", "name": "00ac2b319762c0cb0dfc1370b471076d", "type": "electric_scooter", "lon": -77.00211033333333, "rental_uris": {"android": "https://dc.lft.to/lastmile_qr_scan", "ios": "https://dc.lft.to/lastmile_qr_scan"}, "lat": 38.90022366666667, "is_reserved": 0, "is_disabled": 0, "fusion_lat": 0.0}, {"fusion_lon": 0.0, "bike_id": "fd8c3ec5b8c8700e6c9f70b1377140a1", "name": "fd8c3ec5b8c8700e6c9f70b1377140a1", "type": "electric_scooter", "lon": -77.01211116666667, "rental_uris": {"android": "https://dc.lft.to/lastmile_qr_scan", "ios": "https://dc.lft.to/lastmile_qr_scan"}, "lat": 38.893289833333334, "is_reserved": 0, "is_disabled": 0, "fusion_lat": 0.0}, {"fusion_lon": 0.0, "bike_id": "5302957abef13a6617138e6fef37c768", "name": "5302957abef13a6617138e6fef37c768", "type": "electric_scooter", "lon": -77.01765566666667, "rental_uris": {"android": "https://dc.lft.to/lastmile_qr_scan", "ios": "https://dc.lft.to/lastmile_qr_scan"}, "lat": 38.877013833333336, "is_reserved": 0, "is_disabled": 0, "fusion_lat": 0.0}, {"fusion_lon": 0.0, "bike_id": "4feae8df51ff69c4cb7bddbe410037ba", "name": "4feae8df51ff69c4cb7bddbe410037ba", "type": "electric_scooter", "lon": -77.02823516666666, "rental_uris": {"android": "https://dc.lft.to/lastmile_qr_scan", "ios": "https://dc.lft.to/lastmile_qr_scan"}, "lat": 38.89796333333334, "is_reserved": 0, "is_disabled": 0, "fusion_lat": 0.0}, {"fusion_lon": 0.0, "bike_id": "aa00913c7277b0f5b09817dc681b7e02", "name": "aa00913c7277b0f5b09817dc681b7e02", "type": "electric_scooter", "lon": -77.01509133333333, "rental_uris": {"android": "https://dc.lft.to/lastmile_qr_scan", "ios": "https://dc.lft.to/lastmile_qr_scan"}, "lat": 38.8949475, "is_reserved": 0, "is_disabled": 0, "fusion_lat": 0.0}, {"fusion_lon": 0.0, "bike_id": "e1c00b27ca6a3cd2aad225d19727deed", "name": "e1c00b27ca6a3cd2aad225d19727deed", "type": "electric_scooter", "lon": -76.9335435, "rental_uris": {"android": "https://dc.lft.to/lastmile_qr_scan", "ios": "https://dc.lft.to/lastmile_qr_scan"}, "lat": 38.898946333333335, "is_reserved": 0, "is_disabled": 0, "fusion_lat": 0.0}, {"fusion_lon": 0.0, "bike_id": "e6223687396ae4c60cbed27c9fec4ddb", "name": "e6223687396ae4c60cbed27c9fec4ddb", "type": "electric_scooter", "lon": -77.012017, "rental_uris": {"android": "https://dc.lft.to/lastmile_qr_scan", "ios": "https://dc.lft.to/lastmile_qr_scan"}, "lat": 38.96906233333333, "is_reserved": 0, "is_disabled": 0, "fusion_lat": 0.0}, {"fusion_lon": 0.0, "bike_id": "ffd34ac470f5fd75c4c1b14de3424d22", "name": "ffd34ac470f5fd75c4c1b14de3424d22", "type": "electric_bike", "lon": -76.9722095, "rental_uris": {"android": "https://dc.lft.to/lastmile_qr_scan", "ios": "https://dc.lft.to/lastmile_qr_scan"}, "lat": 38.844847, "is_reserved": 0, "is_disabled": 0, "fusion_lat": 0.0}, {"fusion_lon": 0.0, "bike_id": "f800ed7299858b6777bac2296240b32a", "name": "f800ed7299858b6777bac2296240b32a", "type": "electric_scooter", "lon": -77.0431435, "rental_uris": {"android": "https://dc.lft.to/lastmile_qr_scan", "ios": "https://dc.lft.to/lastmile_qr_scan"}, "lat": 38.915549166666665, "is_reserved": 0, "is_disabled": 0, "fusion_lat": 0.0}, {"fusion_lon": 0.0, "bike_id": "2c2f5c9b97d1b09e14fcb1eed684dfce", "name": "2c2f5c9b97d1b09e14fcb1eed684dfce", "type": "electric_scooter", "lon": -77.0675215, "rental_uris": {"android": "https://dc.lft.to/lastmile_qr_scan", "ios": "https://dc.lft.to/lastmile_qr_scan"}, "lat": 38.94959816666667, "is_reserved": 0, "is_disabled": 0, "fusion_lat": 0.0}, {"fusion_lon": 0.0, "bike_id": "3bb97212bb0ac1a56dcfc626b729cc0d", "name": "3bb97212bb0ac1a56dcfc626b729cc0d", "type": "electric_scooter", "lon": -77.02541833333333, "rental_uris": {"android": "https://dc.lft.to/lastmile_qr_scan", "ios": "https://dc.lft.to/lastmile_qr_scan"}, "lat": 38.907271333333334, "is_reserved": 0, "is_disabled": 0, "fusion_lat": 0.0}, {"fusion_lon": 0.0, "bike_id": "6b8fa2680d3ce614bde8349cd94407a7", "name": "6b8fa2680d3ce614bde8349cd94407a7", "type": "electric_bike", "lon": -77.00375683333333, "rental_uris": {"android": "https://dc.lft.to/lastmile_qr_scan", "ios": "https://dc.lft.to/lastmile_qr_scan"}, "lat": 38.8794815, "is_reserved": 0, "is_disabled": 0, "fusion_lat": 0.0}, {"fusion_lon": 0.0, "bike_id": "6c6e9a8dfe26e581c7402ce98621a9de", "name": "6c6e9a8dfe26e581c7402ce98621a9de", "type": "electric_scooter", "lon": -77.030383, "rental_uris": {"android": "https://dc.lft.to/lastmile_qr_scan", "ios": "https://dc.lft.to/lastmile_qr_scan"}, "lat": 38.939787, "is_reserved": 0, "is_disabled": 0, "fusion_lat": 0.0}, {"fusion_lon": 0.0, "bike_id": "1823cb9bbabedafce9a87b11f3947249", "name": "1823cb9bbabedafce9a87b11f3947249", "type": "electric_scooter", "lon": -77.02158866666667, "rental_uris": {"android": "https://dc.lft.to/lastmile_qr_scan", "ios": "https://dc.lft.to/lastmile_qr_scan"}, "lat": 38.926051333333334, "is_reserved": 0, "is_disabled": 0, "fusion_lat": 0.0}, {"fusion_lon": 0.0, "bike_id": "916edde1c3314f66b91d3c0c42dec1e7", "name": "916edde1c3314f66b91d3c0c42dec1e7", "type": "electric_scooter", "lon": -77.02155966666666, "rental_uris": {"android": "https://dc.lft.to/lastmile_qr_scan", "ios": "https://dc.lft.to/lastmile_qr_scan"}, "lat": 38.926025333333335, "is_reserved": 0, "is_disabled": 0, "fusion_lat": 0.0}, {"fusion_lon": 0.0, "bike_id": "f1b7e52a0f9f646ff3dbc293d24d2532", "name": "f1b7e52a0f9f646ff3dbc293d24d2532", "type": "electric_scooter", "lon": -77.0267965, "rental_uris": {"android": "https://dc.lft.to/lastmile_qr_scan", "ios": "https://dc.lft.to/lastmile_qr_scan"}, "lat": 38.90162766666667, "is_reserved": 0, "is_disabled": 0, "fusion_lat": 0.0}, {"fusion_lon": 0.0, "bike_id": "57e7a76661c18dfe56bac869d0e5ed80", "name": "57e7a76661c18dfe56bac869d0e5ed80", "type": "electric_bike", "lon": -76.99013233333334, "rental_uris": {"android": "https://dc.lft.to/lastmile_qr_scan", "ios": "https://dc.lft.to/lastmile_qr_scan"}, "lat": 38.8825075, "is_reserved": 0, "is_disabled": 0, "fusion_lat": 0.0}, {"fusion_lon": 0.0, "bike_id": "490f9accbe78be1d72b674cd879c82ec", "name": "490f9accbe78be1d72b674cd879c82ec", "type": "electric_scooter", "lon": -77.0467565, "rental_uris": {"android": "https://dc.lft.to/lastmile_qr_scan", "ios": "https://dc.lft.to/lastmile_qr_scan"}, "lat": 38.915784333333335, "is_reserved": 0, "is_disabled": 0, "fusion_lat": 0.0}, {"fusion_lon": 0.0, "bike_id": "57a5a048ca85e4719243338cdf74e90e", "name": "57a5a048ca85e4719243338cdf74e90e", "type": "electric_scooter", "lon": -76.99408633333333, "rental_uris": {"android": "https://dc.lft.to/lastmile_qr_scan", "ios": "https://dc.lft.to/lastmile_qr_scan"}, "lat": 38.877889833333334, "is_reserved": 0, "is_disabled": 0, "fusion_lat": 0.0}, {"fusion_lon": 0.0, "bike_id": "6e5a6e534ab77c2bdc8b1150b90af3a8", "name": "6e5a6e534ab77c2bdc8b1150b90af3a8", "type": "electric_bike", "lon": -77.04976783333333, "rental_uris": {"android": "https://dc.lft.to/lastmile_qr_scan", "ios": "https://dc.lft.to/lastmile_qr_scan"}, "lat": 38.9924415, "is_reserved": 0, "is_disabled": 0, "fusion_lat": 0.0}, {"fusion_lon": 0.0, "bike_id": "4a408ebd97c7d3011010daebbd7c53fb", "name": "4a408ebd97c7d3011010daebbd7c53fb", "type": "electric_scooter", "lon": -77.0698825, "rental_uris": {"android": "https://dc.lft.to/lastmile_qr_scan", "ios": "https://dc.lft.to/lastmile_qr_scan"}, "lat": 38.9469095, "is_reserved": 0, "is_disabled": 0, "fusion_lat": 0.0}, {"fusion_lon": 0.0, "bike_id": "5590d697b529103fd7344b60053ca103", "name": "5590d697b529103fd7344b60053ca103", "type": "electric_bike", "lon": -76.96691216666666, "rental_uris": {"android": "https://dc.lft.to/lastmile_qr_scan", "ios": "https://dc.lft.to/lastmile_qr_scan"}, "lat": 38.86856266666667, "is_reserved": 0, "is_disabled": 0, "fusion_lat": 0.0}, {"fusion_lon": 0.0, "bike_id": "c11e924a6bd68feb543a7bdd7766c611", "name": "c11e924a6bd68feb543a7bdd7766c611", "type": "electric_scooter", "lon": -77.02303916666666, "rental_uris": {"android": "https://dc.lft.to/lastmile_qr_scan", "ios": "https://dc.lft.to/lastmile_qr_scan"}, "lat": 38.87869, "is_reserved": 0, "is_disabled": 0, "fusion_lat": 0.0}, {"fusion_lon": 0.0, "bike_id": "b217f07a7857acadcc5889a76a4e06a5", "name": "b217f07a7857acadcc5889a76a4e06a5", "type": "electric_bike", "lon": -77.1954685, "rental_uris": {"android": "https://dc.lft.to/lastmile_qr_scan", "ios": "https://dc.lft.to/lastmile_qr_scan"}, "lat": 39.11508233333333, "is_reserved": 0, "is_disabled": 0, "fusion_lat": 0.0}, {"fusion_lon": 0.0, "bike_id": "694448c129aa6f92d4308aa0c8fadd02", "name": "694448c129aa6f92d4308aa0c8fadd02", "type": "electric_scooter", "lon": -76.94651266666666, "rental_uris": {"android": "https://dc.lft.to/lastmile_qr_scan", "ios": "https://dc.lft.to/lastmile_qr_scan"}, "lat": 38.89823483333333, "is_reserved": 0, "is_disabled": 0, "fusion_lat": 0.0}, {"fusion_lon": 0.0, "bike_id": "e2df36bf03e865a604cd47b3e40e036d", "name": "e2df36bf03e865a604cd47b3e40e036d", "type": "electric_scooter", "lon": -77.0033395, "rental_uris": {"android": "https://dc.lft.to/lastmile_qr_scan", "ios": "https://dc.lft.to/lastmile_qr_scan"}, "lat": 38.874946333333334, "is_reserved": 0, "is_disabled": 0, "fusion_lat": 0.0}, {"fusion_lon": 0.0, "bike_id": "4cd3607f8b9449120fead41aae56eb3c", "name": "4cd3607f8b9449120fead41aae56eb3c", "type": "electric_scooter", "lon": -77.0201245, "rental_uris": {"android": "https://dc.lft.to/lastmile_qr_scan", "ios": "https://dc.lft.to/lastmile_qr_scan"}, "lat": 38.924146666666665, "is_reserved": 0, "is_disabled": 0, "fusion_lat": 0.0}, {"fusion_lon": 0.0, "bike_id": "16ffb7e41ab9e07a4d4a6914ab1fe18c", "name": "16ffb7e41ab9e07a4d4a6914ab1fe18c", "type": "electric_scooter", "lon": -77.043907, "rental_uris": {"android": "https://dc.lft.to/lastmile_qr_scan", "ios": "https://dc.lft.to/lastmile_qr_scan"}, "lat": 38.91116366666667, "is_reserved": 0, "is_disabled": 0, "fusion_lat": 0.0}, {"fusion_lon": 0.0, "bike_id": "3b350713187b996860f5514b2934799c", "name": "3b350713187b996860f5514b2934799c", "type": "electric_scooter", "lon": -77.02780116666666, "rental_uris": {"android": "https://dc.lft.to/lastmile_qr_scan", "ios": "https://dc.lft.to/lastmile_qr_scan"}, "lat": 38.892170166666666, "is_reserved": 0, "is_disabled": 0, "fusion_lat": 0.0}, {"fusion_lon": 0.0, "bike_id": "d5b9ff62ba3e42da5a618705f9d97cf5", "name": "d5b9ff62ba3e42da5a618705f9d97cf5", "type": "electric_scooter", "lon": -77.03254483333333, "rental_uris": {"android": "https://dc.lft.to/lastmile_qr_scan", "ios": "https://dc.lft.to/lastmile_qr_scan"}, "lat": 38.90431683333333, "is_reserved": 0, "is_disabled": 0, "fusion_lat": 0.0}, {"fusion_lon": 0.0, "bike_id": "edbde76db4c77315c53f59306de16880", "name": "edbde76db4c77315c53f59306de16880", "type": "electric_scooter", "lon": -77.04345616666667, "rental_uris": {"android": "https://dc.lft.to/lastmile_qr_scan", "ios": "https://dc.lft.to/lastmile_qr_scan"}, "lat": 38.92204816666667, "is_reserved": 0, "is_disabled": 0, "fusion_lat": 0.0}, {"fusion_lon": 0.0, "bike_id": "5a368511d43338e5eac78891fe61f0fe", "name": "5a368511d43338e5eac78891fe61f0fe", "type": "electric_scooter", "lon": -77.02274133333333, "rental_uris": {"android": "https://dc.lft.to/lastmile_qr_scan", "ios": "https://dc.lft.to/lastmile_qr_scan"}, "lat": 38.92414933333333, "is_reserved": 0, "is_disabled": 0, "fusion_lat": 0.0}, {"fusion_lon": 0.0, "bike_id": "f2607ad03cd08bfba558eca1ad2d73a5", "name": "f2607ad03cd08bfba558eca1ad2d73a5", "type": "electric_scooter", "lon": -77.02548233333333, "rental_uris": {"android": "https://dc.lft.to/lastmile_qr_scan", "ios": "https://dc.lft.to/lastmile_qr_scan"}, "lat": 38.8971185, "is_reserved": 0, "is_disabled": 0, "fusion_lat": 0.0}, {"fusion_lon": 0.0, "bike_id": "41116ee760aadb5411e96a42f077e169", "name": "41116ee760aadb5411e96a42f077e169", "type": "electric_scooter", "lon": -77.02311933333333, "rental_uris": {"android": "https://dc.lft.to/lastmile_qr_scan", "ios": "https://dc.lft.to/lastmile_qr_scan"}, "lat": 38.9178625, "is_reserved": 0, "is_disabled": 0, "fusion_lat": 0.0}, {"fusion_lon": 0.0, "bike_id": "1dd87511afcf0bc9bc94facbcc6edd4b", "name": "1dd87511afcf0bc9bc94facbcc6edd4b", "type": "electric_scooter", "lon": -77.03868816666666, "rental_uris": {"android": "https://dc.lft.to/lastmile_qr_scan", "ios": "https://dc.lft.to/lastmile_qr_scan"}, "lat": 38.915521, "is_reserved": 0, "is_disabled": 0, "fusion_lat": 0.0}, {"fusion_lon": 0.0, "bike_id": "22a3820a947bcfb6f6d38f9b9556514f", "name": "22a3820a947bcfb6f6d38f9b9556514f", "type": "electric_scooter", "lon": -77.04239766666667, "rental_uris": {"android": "https://dc.lft.to/lastmile_qr_scan", "ios": "https://dc.lft.to/lastmile_qr_scan"}, "lat": 38.910618, "is_reserved": 0, "is_disabled": 0, "fusion_lat": 0.0}, {"fusion_lon": 0.0, "bike_id": "a31b2c0be2e2ba0df595201eb6becae0", "name": "a31b2c0be2e2ba0df595201eb6becae0", "type": "electric_bike", "lon": -77.10128133333333, "rental_uris": {"android": "https://dc.lft.to/lastmile_qr_scan", "ios": "https://dc.lft.to/lastmile_qr_scan"}, "lat": 38.85208, "is_reserved": 0, "is_disabled": 0, "fusion_lat": 0.0}, {"fusion_lon": 0.0, "bike_id": "8ed6b8a93f79e4ae696cf213b8bc28a7", "name": "8ed6b8a93f79e4ae696cf213b8bc28a7", "type": "electric_scooter", "lon": -76.990909, "rental_uris": {"android": "https://dc.lft.to/lastmile_qr_scan", "ios": "https://dc.lft.to/lastmile_qr_scan"}, "lat": 38.8635475, "is_reserved": 0, "is_disabled": 0, "fusion_lat": 0.0}, {"fusion_lon": 0.0, "bike_id": "a3f9fd52b7d4ac29321ed8870741c9b6", "name": "a3f9fd52b7d4ac29321ed8870741c9b6", "type": "electric_scooter", "lon": -77.04510666666667, "rental_uris": {"android": "https://dc.lft.to/lastmile_qr_scan", "ios": "https://dc.lft.to/lastmile_qr_scan"}, "lat": 38.886025, "is_reserved": 0, "is_disabled": 0, "fusion_lat": 0.0}, {"fusion_lon": 0.0, "bike_id": "9e8c8c239a103bd410db7fc34cd99e53", "name": "9e8c8c239a103bd410db7fc34cd99e53", "type": "electric_scooter", "lon": -77.02939766666667, "rental_uris": {"android": "https://dc.lft.to/lastmile_qr_scan", "ios": "https://dc.lft.to/lastmile_qr_scan"}, "lat": 38.899884, "is_reserved": 0, "is_disabled": 0, "fusion_lat": 0.0}, {"fusion_lon": 0.0, "bike_id": "591c60e408400806acbe0c6391e9949f", "name": "591c60e408400806acbe0c6391e9949f", "type": "electric_scooter", "lon": -77.03521666666667, "rental_uris": {"android": "https://dc.lft.to/lastmile_qr_scan", "ios": "https://dc.lft.to/lastmile_qr_scan"}, "lat": 38.9327525, "is_reserved": 0, "is_disabled": 0, "fusion_lat": 0.0}, {"fusion_lon": 0.0, "bike_id": "746f5f5b1e6323f0a555192984cd26aa", "name": "746f5f5b1e6323f0a555192984cd26aa", "type": "electric_scooter", "lon": -77.03801816666666, "rental_uris": {"android": "https://dc.lft.to/lastmile_qr_scan", "ios": "https://dc.lft.to/lastmile_qr_scan"}, "lat": 38.910334166666665, "is_reserved": 0, "is_disabled": 0, "fusion_lat": 0.0}, {"fusion_lon": 0.0, "bike_id": "7944fa41c9c739a0e290c5d8024ce8c6", "name": "7944fa41c9c739a0e290c5d8024ce8c6", "type": "electric_bike", "lon": -76.9638445, "rental_uris": {"android": "https://dc.lft.to/lastmile_qr_scan", "ios": "https://dc.lft.to/lastmile_qr_scan"}, "lat": 38.97579116666667, "is_reserved": 0, "is_disabled": 0, "fusion_lat": 0.0}, {"fusion_lon": 0.0, "bike_id": "4bf2cbcff4eabcc8cd88fa728b994e79", "name": "4bf2cbcff4eabcc8cd88fa728b994e79", "type": "electric_bike", "lon": -76.87769816666666, "rental_uris": {"android": "https://dc.lft.to/lastmile_qr_scan", "ios": "https://dc.lft.to/lastmile_qr_scan"}, "lat": 38.9923055, "is_reserved": 0, "is_disabled": 0, "fusion_lat": 0.0}, {"fusion_lon": 0.0, "bike_id": "8037b5d1c918363ccd6a97806f7b2479", "name": "8037b5d1c918363ccd6a97806f7b2479", "type": "electric_scooter", "lon": -76.99533983333333, "rental_uris": {"android": "https://dc.lft.to/lastmile_qr_scan", "ios": "https://dc.lft.to/lastmile_qr_scan"}, "lat": 38.9002185, "is_reserved": 0, "is_disabled": 0, "fusion_lat": 0.0}, {"fusion_lon": 0.0, "bike_id": "70c9c9f83d3622dbec9b02fb8c16d491", "name": "70c9c9f83d3622dbec9b02fb8c16d491", "type": "electric_bike", "lon": -76.94868366666667, "rental_uris": {"android": "https://dc.lft.to/lastmile_qr_scan", "ios": "https://dc.lft.to/lastmile_qr_scan"}, "lat": 38.88963283333333, "is_reserved": 0, "is_disabled": 0, "fusion_lat": 0.0}, {"fusion_lon": 0.0, "bike_id": "5d17c54b0ab9c02f0e4c4ee1fbf2b090", "name": "5d17c54b0ab9c02f0e4c4ee1fbf2b090", "type": "electric_scooter", "lon": -77.0327845, "rental_uris": {"android": "https://dc.lft.to/lastmile_qr_scan", "ios": "https://dc.lft.to/lastmile_qr_scan"}, "lat": 38.8985625, "is_reserved": 0, "is_disabled": 0, "fusion_lat": 0.0}, {"fusion_lon": 0.0, "bike_id": "3f10b0e10c11914f2505eac4877e5ac9", "name": "3f10b0e10c11914f2505eac4877e5ac9", "type": "electric_scooter", "lon": -77.022224, "rental_uris": {"android": "https://dc.lft.to/lastmile_qr_scan", "ios": "https://dc.lft.to/lastmile_qr_scan"}, "lat": 38.91267083333334, "is_reserved": 0, "is_disabled": 0, "fusion_lat": 0.0}, {"fusion_lon": 0.0, "bike_id": "8a7333f9d9efd8126ebf6cf1ea8527cf", "name": "8a7333f9d9efd8126ebf6cf1ea8527cf", "type": "electric_scooter", "lon": -77.04264716666667, "rental_uris": {"android": "https://dc.lft.to/lastmile_qr_scan", "ios": "https://dc.lft.to/lastmile_qr_scan"}, "lat": 38.897282833333335, "is_reserved": 0, "is_disabled": 0, "fusion_lat": 0.0}, {"fusion_lon": 0.0, "bike_id": "c80f584b4d0da5df4732f1703c2aa496", "name": "c80f584b4d0da5df4732f1703c2aa496", "type": "electric_scooter", "lon": -77.03635366666667, "rental_uris": {"android": "https://dc.lft.to/lastmile_qr_scan", "ios": "https://dc.lft.to/lastmile_qr_scan"}, "lat": 38.91226183333333, "is_reserved": 0, "is_disabled": 0, "fusion_lat": 0.0}, {"fusion_lon": 0.0, "bike_id": "261104ac69048bcb0c682061ac718e9b", "name": "261104ac69048bcb0c682061ac718e9b", "type": "electric_bike", "lon": -76.98521383333333, "rental_uris": {"android": "https://dc.lft.to/lastmile_qr_scan", "ios": "https://dc.lft.to/lastmile_qr_scan"}, "lat": 38.919938333333334, "is_reserved": 0, "is_disabled": 0, "fusion_lat": 0.0}, {"fusion_lon": 0.0, "bike_id": "ecdf401acaa1612d432605fb9f13500c", "name": "ecdf401acaa1612d432605fb9f13500c", "type": "electric_scooter", "lon": -76.97820316666666, "rental_uris": {"android": "https://dc.lft.to/lastmile_qr_scan", "ios": "https://dc.lft.to/lastmile_qr_scan"}, "lat": 38.84610416666666, "is_reserved": 0, "is_disabled": 0, "fusion_lat": 0.0}, {"fusion_lon": 0.0, "bike_id": "74c0dab2d9221173c3e42a6928c00c62", "name": "74c0dab2d9221173c3e42a6928c00c62", "type": "electric_bike", "lon": -77.10743183333334, "rental_uris": {"android": "https://dc.lft.to/lastmile_qr_scan", "ios": "https://dc.lft.to/lastmile_qr_scan"}, "lat": 38.85511616666667, "is_reserved": 0, "is_disabled": 0, "fusion_lat": 0.0}, {"fusion_lon": 0.0, "bike_id": "b449ee0fece0f44450a9d803ba9337cb", "name": "b449ee0fece0f44450a9d803ba9337cb", "type": "electric_bike", "lon": -77.0387775, "rental_uris": {"android": "https://dc.lft.to/lastmile_qr_scan", "ios": "https://dc.lft.to/lastmile_qr_scan"}, "lat": 38.92141783333334, "is_reserved": 0, "is_disabled": 0, "fusion_lat": 0.0}, {"fusion_lon": 0.0, "bike_id": "d5af60679420ace663bcd595b82c4b94", "name": "d5af60679420ace663bcd595b82c4b94", "type": "electric_scooter", "lon": -77.02601166666666, "rental_uris": {"android": "https://dc.lft.to/lastmile_qr_scan", "ios": "https://dc.lft.to/lastmile_qr_scan"}, "lat": 38.903433166666666, "is_reserved": 0, "is_disabled": 0, "fusion_lat": 0.0}, {"fusion_lon": 0.0, "bike_id": "dc3a724d1e862e62fcc83be61274b0df", "name": "dc3a724d1e862e62fcc83be61274b0df", "type": "electric_scooter", "lon": -77.03233083333333, "rental_uris": {"android": "https://dc.lft.to/lastmile_qr_scan", "ios": "https://dc.lft.to/lastmile_qr_scan"}, "lat": 38.92887966666667, "is_reserved": 0, "is_disabled": 0, "fusion_lat": 0.0}, {"fusion_lon": 0.0, "bike_id": "1f36404aa8e4d749153efc0826c031db", "name": "1f36404aa8e4d749153efc0826c031db", "type": "electric_scooter", "lon": -76.99516883333334, "rental_uris": {"android": "https://dc.lft.to/lastmile_qr_scan", "ios": "https://dc.lft.to/lastmile_qr_scan"}, "lat": 38.86257416666667, "is_reserved": 0, "is_disabled": 0, "fusion_lat": 0.0}, {"fusion_lon": 0.0, "bike_id": "52fdc0317c4e18c972a34e433dcf20a5", "name": "52fdc0317c4e18c972a34e433dcf20a5", "type": "electric_bike", "lon": -77.11414366666666, "rental_uris": {"android": "https://dc.lft.to/lastmile_qr_scan", "ios": "https://dc.lft.to/lastmile_qr_scan"}, "lat": 38.84264616666667, "is_reserved": 0, "is_disabled": 0, "fusion_lat": 0.0}, {"fusion_lon": 0.0, "bike_id": "df57c9b515e6391cb28e2c907f0f11d6", "name": "df57c9b515e6391cb28e2c907f0f11d6", "type": "electric_scooter", "lon": -77.032958, "rental_uris": {"android": "https://dc.lft.to/lastmile_qr_scan", "ios": "https://dc.lft.to/lastmile_qr_scan"}, "lat": 38.922561333333334, "is_reserved": 0, "is_disabled": 0, "fusion_lat": 0.0}, {"fusion_lon": 0.0, "bike_id": "498c953b23b017d3741a67dfb0b1735e", "name": "498c953b23b017d3741a67dfb0b1735e", "type": "electric_bike", "lon": -76.94471716666666, "rental_uris": {"android": "https://dc.lft.to/lastmile_qr_scan", "ios": "https://dc.lft.to/lastmile_qr_scan"}, "lat": 38.9455665, "is_reserved": 0, "is_disabled": 0, "fusion_lat": 0.0}, {"fusion_lon": 0.0, "bike_id": "f74fa8bddd2c4947372376c4e6b4bb1d", "name": "f74fa8bddd2c4947372376c4e6b4bb1d", "type": "electric_scooter", "lon": -77.0101255, "rental_uris": {"android": "https://dc.lft.to/lastmile_qr_scan", "ios": "https://dc.lft.to/lastmile_qr_scan"}, "lat": 38.8796815, "is_reserved": 0, "is_disabled": 0, "fusion_lat": 0.0}, {"fusion_lon": 0.0, "bike_id": "09e9bad5040a3184a17c37b7a17e4754", "name": "09e9bad5040a3184a17c37b7a17e4754", "type": "electric_bike", "lon": -77.061731, "rental_uris": {"android": "https://dc.lft.to/lastmile_qr_scan", "ios": "https://dc.lft.to/lastmile_qr_scan"}, "lat": 38.812697666666665, "is_reserved": 0, "is_disabled": 0, "fusion_lat": 0.0}, {"fusion_lon": 0.0, "bike_id": "e21966727d64ea8a4410dc971a2a5d78", "name": "e21966727d64ea8a4410dc971a2a5d78", "type": "electric_scooter", "lon": -77.03403916666667, "rental_uris": {"android": "https://dc.lft.to/lastmile_qr_scan", "ios": "https://dc.lft.to/lastmile_qr_scan"}, "lat": 38.919740833333336, "is_reserved": 0, "is_disabled": 0, "fusion_lat": 0.0}, {"fusion_lon": 0.0, "bike_id": "298de428e665f842caaae4b3795c059a", "name": "298de428e665f842caaae4b3795c059a", "type": "electric_bike", "lon": -77.07897716666666, "rental_uris": {"android": "https://dc.lft.to/lastmile_qr_scan", "ios": "https://dc.lft.to/lastmile_qr_scan"}, "lat": 38.83933783333333, "is_reserved": 0, "is_disabled": 0, "fusion_lat": 0.0}, {"fusion_lon": 0.0, "bike_id": "6b6700a365ee9d9889ef041c160db814", "name": "6b6700a365ee9d9889ef041c160db814", "type": "electric_scooter", "lon": -77.03947333333333, "rental_uris": {"android": "https://dc.lft.to/lastmile_qr_scan", "ios": "https://dc.lft.to/lastmile_qr_scan"}, "lat": 38.908126333333335, "is_reserved": 0, "is_disabled": 0, "fusion_lat": 0.0}, {"fusion_lon": 0.0, "bike_id": "9f258e3cbad421588d39c5d17c54e8c2", "name": "9f258e3cbad421588d39c5d17c54e8c2", "type": "electric_scooter", "lon": -77.02546133333334, "rental_uris": {"android": "https://dc.lft.to/lastmile_qr_scan", "ios": "https://dc.lft.to/lastmile_qr_scan"}, "lat": 38.907269, "is_reserved": 0, "is_disabled": 0, "fusion_lat": 0.0}, {"fusion_lon": 0.0, "bike_id": "b5ddc6029ccf926c0a60f3591de2f4ff", "name": "b5ddc6029ccf926c0a60f3591de2f4ff", "type": "electric_scooter", "lon": -77.00878, "rental_uris": {"android": "https://dc.lft.to/lastmile_qr_scan", "ios": "https://dc.lft.to/lastmile_qr_scan"}, "lat": 38.90567733333334, "is_reserved": 0, "is_disabled": 0, "fusion_lat": 0.0}, {"fusion_lon": 0.0, "bike_id": "414d8304cd6e0f5124a83a652628eba9", "name": "414d8304cd6e0f5124a83a652628eba9", "type": "electric_scooter", "lon": -77.0624335, "rental_uris": {"android": "https://dc.lft.to/lastmile_qr_scan", "ios": "https://dc.lft.to/lastmile_qr_scan"}, "lat": 38.905167, "is_reserved": 0, "is_disabled": 0, "fusion_lat": 0.0}, {"fusion_lon": 0.0, "bike_id": "d111c8c837d58efc78fff83a65c63531", "name": "d111c8c837d58efc78fff83a65c63531", "type": "electric_bike", "lon": -76.97897066666667, "rental_uris": {"android": "https://dc.lft.to/lastmile_qr_scan", "ios": "https://dc.lft.to/lastmile_qr_scan"}, "lat": 38.854915, "is_reserved": 0, "is_disabled": 0, "fusion_lat": 0.0}, {"fusion_lon": 0.0, "bike_id": "d1985a46b00e3e687e3c4dec7c405f82", "name": "d1985a46b00e3e687e3c4dec7c405f82", "type": "electric_scooter", "lon": -77.0509475, "rental_uris": {"android": "https://dc.lft.to/lastmile_qr_scan", "ios": "https://dc.lft.to/lastmile_qr_scan"}, "lat": 38.92341966666667, "is_reserved": 0, "is_disabled": 0, "fusion_lat": 0.0}, {"fusion_lon": 0.0, "bike_id": "cea52818b12e53caaafb1dcde9db3bd5", "name": "cea52818b12e53caaafb1dcde9db3bd5", "type": "electric_scooter", "lon": -77.0271775, "rental_uris": {"android": "https://dc.lft.to/lastmile_qr_scan", "ios": "https://dc.lft.to/lastmile_qr_scan"}, "lat": 38.90749183333333, "is_reserved": 0, "is_disabled": 0, "fusion_lat": 0.0}, {"fusion_lon": 0.0, "bike_id": "aab0160a2c0f6860bec6c7c6ac48a755", "name": "aab0160a2c0f6860bec6c7c6ac48a755", "type": "electric_scooter", "lon": -77.03761083333333, "rental_uris": {"android": "https://dc.lft.to/lastmile_qr_scan", "ios": "https://dc.lft.to/lastmile_qr_scan"}, "lat": 38.91687433333333, "is_reserved": 0, "is_disabled": 0, "fusion_lat": 0.0}, {"fusion_lon": 0.0, "bike_id": "935e0fd4d03d8acaf6e8629ba1809892", "name": "935e0fd4d03d8acaf6e8629ba1809892", "type": "electric_scooter", "lon": -76.98417566666667, "rental_uris": {"android": "https://dc.lft.to/lastmile_qr_scan", "ios": "https://dc.lft.to/lastmile_qr_scan"}, "lat": 38.85970433333333, "is_reserved": 0, "is_disabled": 0, "fusion_lat": 0.0}, {"fusion_lon": 0.0, "bike_id": "fb0984f0a3dc988a03a24b406321eb07", "name": "fb0984f0a3dc988a03a24b406321eb07", "type": "electric_scooter", "lon": -77.03321733333334, "rental_uris": {"android": "https://dc.lft.to/lastmile_qr_scan", "ios": "https://dc.lft.to/lastmile_qr_scan"}, "lat": 38.96015966666667, "is_reserved": 0, "is_disabled": 0, "fusion_lat": 0.0}, {"fusion_lon": 0.0, "bike_id": "4fca617c2b981b5e9a43b6fe7ddda172", "name": "4fca617c2b981b5e9a43b6fe7ddda172", "type": "electric_bike", "lon": -76.915968, "rental_uris": {"android": "https://dc.lft.to/lastmile_qr_scan", "ios": "https://dc.lft.to/lastmile_qr_scan"}, "lat": 38.880094166666666, "is_reserved": 0, "is_disabled": 0, "fusion_lat": 0.0}, {"fusion_lon": 0.0, "bike_id": "f08727ec3d481b7a89728fe690f99162", "name": "f08727ec3d481b7a89728fe690f99162", "type": "electric_scooter", "lon": -77.0190535, "rental_uris": {"android": "https://dc.lft.to/lastmile_qr_scan", "ios": "https://dc.lft.to/lastmile_qr_scan"}, "lat": 38.877401666666664, "is_reserved": 0, "is_disabled": 0, "fusion_lat": 0.0}, {"fusion_lon": 0.0, "bike_id": "9f2e627abd976d7cd8e83202e98b3d7d", "name": "9f2e627abd976d7cd8e83202e98b3d7d", "type": "electric_scooter", "lon": -76.984153, "rental_uris": {"android": "https://dc.lft.to/lastmile_qr_scan", "ios": "https://dc.lft.to/lastmile_qr_scan"}, "lat": 38.92001666666667, "is_reserved": 0, "is_disabled": 0, "fusion_lat": 0.0}, {"fusion_lon": 0.0, "bike_id": "daf8c41e3bcb7b51aff957661461f7ff", "name": "daf8c41e3bcb7b51aff957661461f7ff", "type": "electric_scooter", "lon": -77.005445, "rental_uris": {"android": "https://dc.lft.to/lastmile_qr_scan", "ios": "https://dc.lft.to/lastmile_qr_scan"}, "lat": 38.896140333333335, "is_reserved": 0, "is_disabled": 0, "fusion_lat": 0.0}, {"fusion_lon": 0.0, "bike_id": "dd780f7569367730810186dc2ddff233", "name": "dd780f7569367730810186dc2ddff233", "type": "electric_bike", "lon": -76.90815233333333, "rental_uris": {"android": "https://dc.lft.to/lastmile_qr_scan", "ios": "https://dc.lft.to/lastmile_qr_scan"}, "lat": 38.99452983333333, "is_reserved": 0, "is_disabled": 0, "fusion_lat": 0.0}, {"fusion_lon": 0.0, "bike_id": "56860e417a40b03da06fd47306adea6b", "name": "56860e417a40b03da06fd47306adea6b", "type": "electric_scooter", "lon": -77.10313216666667, "rental_uris": {"android": "https://dc.lft.to/lastmile_qr_scan", "ios": "https://dc.lft.to/lastmile_qr_scan"}, "lat": 38.9266775, "is_reserved": 0, "is_disabled": 0, "fusion_lat": 0.0}, {"fusion_lon": 0.0, "bike_id": "8841b9982226e9b81718d66aacdd9906", "name": "8841b9982226e9b81718d66aacdd9906", "type": "electric_scooter", "lon": -76.9553815, "rental_uris": {"android": "https://dc.lft.to/lastmile_qr_scan", "ios": "https://dc.lft.to/lastmile_qr_scan"}, "lat": 38.887638, "is_reserved": 0, "is_disabled": 0, "fusion_lat": 0.0}, {"fusion_lon": 0.0, "bike_id": "382a532fd5b289b4a7a58fb5b7adf23d", "name": "382a532fd5b289b4a7a58fb5b7adf23d", "type": "electric_scooter", "lon": -77.02205166666667, "rental_uris": {"android": "https://dc.lft.to/lastmile_qr_scan", "ios": "https://dc.lft.to/lastmile_qr_scan"}, "lat": 38.91534583333333, "is_reserved": 0, "is_disabled": 0, "fusion_lat": 0.0},