{"data": {"bikes": [{"is_reserved": 0, "type": "electric_scooter", "bike_id": "eec6ef55f5d95cdc232ebd4aafa8b009", "lat": 38.93283, "lon": -77.03938766666667, "rental_uris": {"android": "https://dc.lft.to/lastmile_qr_scan", "ios": "https://dc.lft.to/lastmile_qr_scan"}, "is_disabled": 0, "fusion_lat": 0.0, "name": "eec6ef55f5d95cdc232ebd4aafa8b009", "fusion_lon": 0.0}, {"is_reserved": 0, "type": "electric_scooter", "bike_id": "81947734f084100ac836eee1224e739a", "lat": 38.8794605, "lon": -77.00383666666667, "rental_uris": {"android": "https://dc.lft.to/lastmile_qr_scan", "ios": "https://dc.lft.to/lastmile_qr_scan"}, "is_disabled": 0, "fusion_lat": 0.0, "name": "81947734f084100ac836eee1224e739a", "fusion_lon": 0.0}, {"is_reserved": 0, "type": "electric_scooter", "bike_id": "b7eb73574419008dea11d1c0747c2763", "lat": 38.943126, "lon": -77.06178, "rental_uris": {"android": "https://dc.lft.to/lastmile_qr_scan", "ios": "https://dc.lft.to/lastmile_qr_scan"}, "is_disabled": 0, "fusion_lat": 0.0, "name": "b7eb73574419008dea11d1c0747c2763", "fusion_lon": 0.0}, {"is_reserved": 0, "type": "electric_scooter", "bike_id": "1f35b280ffe06f7bd4cf6d568fe7c7e9", "lat": 38.93094516666667, "lon": -77.0254555, "rental_uris": {"android": "https://dc.lft.to/lastmile_qr_scan", "ios": "https://dc.lft.to/lastmile_qr_scan"}, "is_disabled": 0, "fusion_lat": 0.0, "name": "1f35b280ffe06f7bd4cf6d568fe7c7e9", "fusion_lon": 0.0}, {"is_reserved": 0, "type": "electric_scooter", "bike_id": "fc227c479dd4c455137bea568204b556", "lat": 38.92240833333334, "lon": -77.04011533333333, "rental_uris": {"android": "https://dc.lft.to/lastmile_qr_scan", "ios": "https://dc.lft.to/lastmile_qr_scan"}, "is_disabled": 0, "fusion_lat": 0.0, "name": "fc227c479dd4c455137bea568204b556", "fusion_lon": 0.0}, {"is_reserved": 0, "type": "electric_scooter", "bike_id": "8f01d0e57a631d7eb4c71ea00edce098", "lat": 38.90780183333333, "lon": -77.01080566666667, "rental_uris": {"android": "https://dc.lft.to/lastmile_qr_scan", "ios": "https://dc.lft.to/lastmile_qr_scan"}, "is_disabled": 0, "fusion_lat": 0.0, "name": "8f01d0e57a631d7eb4c71ea00edce098", "fusion_lon": 0.0}, {"is_reserved": 0, "type": "electric_scooter", "bike_id": "02215fc530b6e451430eeeef7fa8c788", "lat": 38.934072666666665, "lon": -77.04545766666666, "rental_uris": {"android": "https://dc.lft.to/lastmile_qr_scan", "ios": "https://dc.lft.to/lastmile_qr_scan"}, "is_disabled": 0, "fusion_lat": 0.0, "name": "02215fc530b6e451430eeeef7fa8c788", "fusion_lon": 0.0}, {"is_reserved": 0, "type": "electric_scooter", "bike_id": "6636a5802a1b3c078e4f4cd197cec323", "lat": 38.8908105, "lon": -77.0404445, "rental_uris": {"android": "https://dc.lft.to/lastmile_qr_scan", "ios": "https://dc.lft.to/lastmile_qr_scan"}, "is_disabled": 0, "fusion_lat": 0.0, "name": "6636a5802a1b3c078e4f4cd197cec323", "fusion_lon": 0.0}, {"is_reserved": 0, "type": "electric_scooter", "bike_id": "78e10bf42e42e59b0ac8a5a768afdb61", "lat": 38.92058933333333, "lon": -77.0294425, "rental_uris": {"android": "https://dc.lft.to/lastmile_qr_scan", "ios": "https://dc.lft.to/lastmile_qr_scan"}, "is_disabled": 0, "fusion_lat": 0.0, "name": "78e10bf42e42e59b0ac8a5a768afdb61", "fusion_lon": 0.0}, {"is_reserved": 0, "type": "electric_scooter", "bike_id": "6c4cdaafec29aacdb5446d34286fde2d", "lat": 38.945111, "lon": -77.033645, "rental_uris": {"android": "https://dc.lft.to/lastmile_qr_scan", "ios": "https://dc.lft.to/lastmile_qr_scan"}, "is_disabled": 0, "fusion_lat": 0.0, "name": "6c4cdaafec29aacdb5446d34286fde2d", "fusion_lon": 0.0}, {"is_reserved": 0, "type": "electric_scooter", "bike_id": "2276505d74029ca2d1bde95233b50d39", "lat": 38.898706833333335, "lon": -77.03968983333333, "rental_uris": {"android": "https://dc.lft.to/lastmile_qr_scan", "ios": "https://dc.lft.to/lastmile_qr_scan"}, "is_disabled": 0, "fusion_lat": 0.0, "name": "2276505d74029ca2d1bde95233b50d39", "fusion_lon": 0.0}, {"is_reserved": 0, "type": "electric_bike", "bike_id": "d74a4639c993870e7e0e257a27d2c92f", "lat": 38.94915433333333, "lon": -77.00795233333334, "rental_uris": {"android": "https://dc.lft.to/lastmile_qr_scan", "ios": "https://dc.lft.to/lastmile_qr_scan"}, "is_disabled": 0, "fusion_lat": 0.0, "name": "d74a4639c993870e7e0e257a27d2c92f", "fusion_lon": 0.0}, {"is_reserved": 0, "type": "electric_bike", "bike_id": "c71d028016d6b5812432e6938b5f589e", "lat": 38.9624985, "lon": -76.99676933333333, "rental_uris": {"android": "https://dc.lft.to/lastmile_qr_scan", "ios": "https://dc.lft.to/lastmile_qr_scan"}, "is_disabled": 0, "fusion_lat": 0.0, "name": "c71d028016d6b5812432e6938b5f589e", "fusion_lon": 0.0}, {"is_reserved": 0, "type": "electric_scooter", "bike_id": "9e24ec61f6f78ce4d78df25f8ee747b9", "lat": 38.8953145, "lon": -77.01117766666667, "rental_uris": {"android": "https://dc.lft.to/lastmile_qr_scan", "ios": "https://dc.lft.to/lastmile_qr_scan"}, "is_disabled": 0, "fusion_lat": 0.0, "name": "9e24ec61f6f78ce4d78df25f8ee747b9", "fusion_lon": 0.0}, {"is_reserved": 0, "type": "electric_scooter", "bike_id": "620dd74838803d88c12a243721232a24", "lat": 38.9248195, "lon": -77.03483016666667, "rental_uris": {"android": "https://dc.lft.to/lastmile_qr_scan", "ios": "https://dc.lft.to/lastmile_qr_scan"}, "is_disabled": 0, "fusion_lat": 0.0, "name": "620dd74838803d88c12a243721232a24", "fusion_lon": 0.0}, {"is_reserved": 0, "type": "electric_scooter", "bike_id": "02b3918c13df033bbaffeec19a35e3a8", "lat": 38.91830816666667, "lon": -77.02594666666667, "rental_uris": {"android": "https://dc.lft.to/lastmile_qr_scan", "ios": "https://dc.lft.to/lastmile_qr_scan"}, "is_disabled": 0, "fusion_lat": 0.0, "name": "02b3918c13df033bbaffeec19a35e3a8", "fusion_lon": 0.0}, {"is_reserved": 0, "type": "electric_scooter", "bike_id": "f78c1f9ce4a98be34971f849adb40ce0", "lat": 38.903834, "lon": -77.031356, "rental_uris": {"android": "https://dc.lft.to/lastmile_qr_scan", "ios": "https://dc.lft.to/lastmile_qr_scan"}, "is_disabled": 0, "fusion_lat": 0.0, "name": "f78c1f9ce4a98be34971f849adb40ce0", "fusion_lon": 0.0}, {"is_reserved": 0, "type": "electric_scooter", "bike_id": "7a574dab577c27edde632b7484ec690d", "lat": 38.880387, "lon": -77.019807, "rental_uris": {"android": "https://dc.lft.to/lastmile_qr_scan", "ios": "https://dc.lft.to/lastmile_qr_scan"}, "is_disabled": 0, "fusion_lat": 0.0, "name": "7a574dab577c27edde632b7484ec690d", "fusion_lon": 0.0}, {"is_reserved": 0, "type": "electric_scooter", "bike_id": "f85915e09f84092a42fd6cbe45d54145", "lat": 38.9169225, "lon": -77.03144483333334, "rental_uris": {"android": "https://dc.lft.to/lastmile_qr_scan", "ios": "https://dc.lft.to/lastmile_qr_scan"}, "is_disabled": 0, "fusion_lat": 0.0, "name": "f85915e09f84092a42fd6cbe45d54145", "fusion_lon": 0.0}, {"is_reserved": 0, "type": "electric_scooter", "bike_id": "1da6390ef052436e0f56e8fac2b87377", "lat": 38.9139465, "lon": -77.01998733333333, "rental_uris": {"android": "https://dc.lft.to/lastmile_qr_scan", "ios": "https://dc.lft.to/lastmile_qr_scan"}, "is_disabled": 0, "fusion_lat": 0.0, "name": "1da6390ef052436e0f56e8fac2b87377", "fusion_lon": 0.0}, {"is_reserved": 0, "type": "electric_scooter", "bike_id": "b737470215b50bbfd084f7f612e1719d", "lat": 38.92015116666666, "lon": -77.03120816666667, "rental_uris": {"android": "https://dc.lft.to/lastmile_qr_scan", "ios": "https://dc.lft.to/lastmile_qr_scan"}, "is_disabled": 0, "fusion_lat": 0.0, "name": "b737470215b50bbfd084f7f612e1719d", "fusion_lon": 0.0}, {"is_reserved": 0, "type": "electric_scooter", "bike_id": "1a740d4d764e8d1ebc2e3d3164fd660a", "lat": 38.91579083333333, "lon": -77.0199865, "rental_uris": {"android": "https://dc.lft.to/lastmile_qr_scan", "ios": "https://dc.lft.to/lastmile_qr_scan"}, "is_disabled": 0, "fusion_lat": 0.0, "name": "1a740d4d764e8d1ebc2e3d3164fd660a", "fusion_lon": 0.0}, {"is_reserved": 0, "type": "electric_scooter", "bike_id": "f5509781c6a16d7e2b30b10771ff1840", "lat": 38.912685333333336, "lon": -77.038665, "rental_uris": {"android": "https://dc.lft.to/lastmile_qr_scan", "ios": "https://dc.lft.to/lastmile_qr_scan"}, "is_disabled": 0, "fusion_lat": 0.0, "name": "f5509781c6a16d7e2b30b10771ff1840", "fusion_lon": 0.0}, {"is_reserved": 0, "type": "electric_scooter", "bike_id": "d64970f837ea3be0b79cf13c466e7f27", "lat": 38.91637133333333, "lon": -77.04778233333333, "rental_uris": {"android": "https://dc.lft.to/lastmile_qr_scan", "ios": "https://dc.lft.to/lastmile_qr_scan"}, "is_disabled": 0, "fusion_lat": 0.0, "name": "d64970f837ea3be0b79cf13c466e7f27", "fusion_lon": 0.0}, {"is_reserved": 0, "type": "electric_scooter", "bike_id": "5b96cd9247229a8f7c83ed241601af37", "lat": 38.88412733333333, "lon": -77.03056683333334, "rental_uris": {"android": "https://dc.lft.to/lastmile_qr_scan", "ios": "https://dc.lft.to/lastmile_qr_scan"}, "is_disabled": 0, "fusion_lat": 0.0, "name": "5b96cd9247229a8f7c83ed241601af37", "fusion_lon": 0.0}, {"is_reserved": 0, "type": "electric_scooter", "bike_id": "ae4b72b1275989de26b615f66813cc12", "lat": 38.922440333333334, "lon": -77.03528183333333, "rental_uris": {"android": "https://dc.lft.to/lastmile_qr_scan", "ios": "https://dc.lft.to/lastmile_qr_scan"}, "is_disabled": 0, "fusion_lat": 0.0, "name": "ae4b72b1275989de26b615f66813cc12", "fusion_lon": 0.0}, {"is_reserved": 0, "type": "electric_scooter", "bike_id": "9eb808533e36ff5db4f43929ac0b9b59", "lat": 38.9231225, "lon": -77.03715483333333, "rental_uris": {"android": "https://dc.lft.to/lastmile_qr_scan", "ios": "https://dc.lft.to/lastmile_qr_scan"}, "is_disabled": 0, "fusion_lat": 0.0, "name": "9eb808533e36ff5db4f43929ac0b9b59", "fusion_lon": 0.0}, {"is_reserved": 0, "type": "electric_scooter", "bike_id": "e30c12ea5f8758609ab5ade2b6ac68ee", "lat": 38.92679066666667, "lon": -77.00738816666667, "rental_uris": {"android": "https://dc.lft.to/lastmile_qr_scan", "ios": "https://dc.lft.to/lastmile_qr_scan"}, "is_disabled": 0, "fusion_lat": 0.0, "name": "e30c12ea5f8758609ab5ade2b6ac68ee", "fusion_lon": 0.0}, {"is_reserved": 0, "type": "electric_scooter", "bike_id": "66493bf2910b31be9ccf62ebc0ba4241", "lat": 38.92155616666667, "lon": -77.03356933333333, "rental_uris": {"android": "https://dc.lft.to/lastmile_qr_scan", "ios": "https://dc.lft.to/lastmile_qr_scan"}, "is_disabled": 0, "fusion_lat": 0.0, "name": "66493bf2910b31be9ccf62ebc0ba4241", "fusion_lon": 0.0}, {"is_reserved": 0, "type": "electric_scooter", "bike_id": "8c2a3389a0c4e70f03096234edfe6e7f", "lat": 38.92698383333333, "lon": -77.0207385, "rental_uris": {"android": "https://dc.lft.to/lastmile_qr_scan", "ios": "https://dc.lft.to/lastmile_qr_scan"}, "is_disabled": 0, "fusion_lat": 0.0, "name": "8c2a3389a0c4e70f03096234edfe6e7f", "fusion_lon": 0.0}, {"is_reserved": 0, "type": "electric_scooter", "bike_id": "eb23a85b71b6a0e377b5c34675a72072", "lat": 38.89544716666666, "lon": -76.98334466666667, "rental_uris": {"android": "https://dc.lft.to/lastmile_qr_scan", "ios": "https://dc.lft.to/lastmile_qr_scan"}, "is_disabled": 0, "fusion_lat": 0.0, "name": "eb23a85b71b6a0e377b5c34675a72072", "fusion_lon": 0.0}, {"is_reserved": 0, "type": "electric_scooter", "bike_id": "b0b7b8eeffe47447b0bf172ee33567fc", "lat": 38.90563233333334, "lon": -77.0069735, "rental_uris": {"android": "https://dc.lft.to/lastmile_qr_scan", "ios": "https://dc.lft.to/lastmile_qr_scan"}, "is_disabled": 0, "fusion_lat": 0.0, "name": "b0b7b8eeffe47447b0bf172ee33567fc", "fusion_lon": 0.0}, {"is_reserved": 0, "type": "electric_scooter", "bike_id": "735a56c4e090935517bb2743cbcacfae", "lat": 38.94010016666667, "lon": -77.019053, "rental_uris": {"android": "https://dc.lft.to/lastmile_qr_scan", "ios": "https://dc.lft.to/lastmile_qr_scan"}, "is_disabled": 0, "fusion_lat": 0.0, "name": "735a56c4e090935517bb2743cbcacfae", "fusion_lon": 0.0}, {"is_reserved": 0, "type": "electric_scooter", "bike_id": "cb1f92baaefc3d8ca2283965ecfa399a", "lat": 38.908618833333335, "lon": -77.04659316666667, "rental_uris": {"android": "https://dc.lft.to/lastmile_qr_scan", "ios": "https://dc.lft.to/lastmile_qr_scan"}, "is_disabled": 0, "fusion_lat": 0.0, "name": "cb1f92baaefc3d8ca2283965ecfa399a", "fusion_lon": 0.0}, {"is_reserved": 0, "type": "electric_scooter", "bike_id": "df96df431b3394a44c028f83064927df", "lat": 38.905255833333335, "lon": -77.058276, "rental_uris": {"android": "https://dc.lft.to/lastmile_qr_scan", "ios": "https://dc.lft.to/lastmile_qr_scan"}, "is_disabled": 0, "fusion_lat": 0.0, "name": "df96df431b3394a44c028f83064927df", "fusion_lon": 0.0}, {"is_reserved": 0, "type": "electric_bike", "bike_id": "ee01a95e32064afef19aa52163f00d3e", "lat": 38.832354333333335, "lon": -76.94621783333334, "rental_uris": {"android": "https://dc.lft.to/lastmile_qr_scan", "ios": "https://dc.lft.to/lastmile_qr_scan"}, "is_disabled": 0, "fusion_lat": 0.0, "name": "ee01a95e32064afef19aa52163f00d3e", "fusion_lon": 0.0}, {"is_reserved": 0, "type": "electric_scooter", "bike_id": "999804e4fe8f682388c90ef95505995e", "lat": 38.90276033333333, "lon": -77.01626116666667, "rental_uris": {"android": "https://dc.lft.to/lastmile_qr_scan", "ios": "https://dc.lft.to/lastmile_qr_scan"}, "is_disabled": 0, "fusion_lat": 0.0, "name": "999804e4fe8f682388c90ef95505995e", "fusion_lon": 0.0}, {"is_reserved": 0, "type": "electric_bike", "bike_id": "d99895d53128c8a82b2e572a00bcb6e5", "lat": 38.82339266666666, "lon": -77.05822066666667, "rental_uris": {"android": "https://dc.lft.to/lastmile_qr_scan", "ios": "https://dc.lft.to/lastmile_qr_scan"}, "is_disabled": 0, "fusion_lat": 0.0, "name": "d99895d53128c8a82b2e572a00bcb6e5", "fusion_lon": 0.0}, {"is_reserved": 0, "type": "electric_scooter", "bike_id": "366c6530fde03e333383acfdb2aeb048", "lat": 38.9081465, "lon": -77.03466533333334, "rental_uris": {"android": "https://dc.lft.to/lastmile_qr_scan", "ios": "https://dc.lft.to/lastmile_qr_scan"}, "is_disabled": 0, "fusion_lat": 0.0, "name": "366c6530fde03e333383acfdb2aeb048", "fusion_lon": 0.0}, {"is_reserved": 0, "type": "electric_scooter", "bike_id": "cc29aa605c675fef179e4bd30e613653", "lat": 38.907515833333335, "lon": -76.99882033333333, "rental_uris": {"android": "https://dc.lft.to/lastmile_qr_scan", "ios": "https://dc.lft.to/lastmile_qr_scan"}, "is_disabled": 0, "fusion_lat": 0.0, "name": "cc29aa605c675fef179e4bd30e613653", "fusion_lon": 0.0}, {"is_reserved": 0, "type": "electric_scooter", "bike_id": "0a2669077c2a81dd4c987ac82e35adb8", "lat": 38.933461666666666, "lon": -77.02416466666666, "rental_uris": {"android": "https://dc.lft.to/lastmile_qr_scan", "ios": "https://dc.lft.to/lastmile_qr_scan"}, "is_disabled": 0, "fusion_lat": 0.0, "name": "0a2669077c2a81dd4c987ac82e35adb8", "fusion_lon": 0.0}, {"is_reserved": 0, "type": "electric_scooter", "bike_id": "774580ba756839300ee626e204917488", "lat": 38.90007266666667, "lon": -77.00679383333333, "rental_uris": {"android": "https://dc.lft.to/lastmile_qr_scan", "ios": "https://dc.lft.to/lastmile_qr_scan"}, "is_disabled": 0, "fusion_lat": 0.0, "name": "774580ba756839300ee626e204917488", "fusion_lon": 0.0}, {"is_reserved": 0, "type": "electric_bike", "bike_id": "578a3818b365f0161806356183f30ca8", "lat": 38.883899666666665, "lon": -76.95447033333333, "rental_uris": {"android": "https://dc.lft.to/lastmile_qr_scan", "ios": "https://dc.lft.to/lastmile_qr_scan"}, "is_disabled": 0, "fusion_lat": 0.0, "name": "578a3818b365f0161806356183f30ca8", "fusion_lon": 0.0}, {"is_reserved": 0, "type": "electric_scooter", "bike_id": "65b6a1fe63f98be1517fcb48839e9853", "lat": 38.93255033333333, "lon": -77.0323025, "rental_uris": {"android": "https://dc.lft.to/lastmile_qr_scan", "ios": "https://dc.lft.to/lastmile_qr_scan"}, "is_disabled": 0, "fusion_lat": 0.0, "name": "65b6a1fe63f98be1517fcb48839e9853", "fusion_lon": 0.0}, {"is_reserved": 0, "type": "electric_scooter", "bike_id": "39ec3b2ef4f4f3d6a6c51f7c69b5d0bd", "lat": 38.90427, "lon": -77.03271333333333, "rental_uris": {"android": "https://dc.lft.to/lastmile_qr_scan", "ios": "https://dc.lft.to/lastmile_qr_scan"}, "is_disabled": 0, "fusion_lat": 0.0, "name": "39ec3b2ef4f4f3d6a6c51f7c69b5d0bd", "fusion_lon": 0.0}, {"is_reserved": 0, "type": "electric_scooter", "bike_id": "7a8d1d10273cf8336dbd891fb4e87590", "lat": 38.91143783333333, "lon": -77.03849016666666, "rental_uris": {"android": "https://dc.lft.to/lastmile_qr_scan", "ios": "https://dc.lft.to/lastmile_qr_scan"}, "is_disabled": 0, "fusion_lat": 0.0, "name": "7a8d1d10273cf8336dbd891fb4e87590", "fusion_lon": 0.0}, {"is_reserved": 0, "type": "electric_scooter", "bike_id": "49fce75a6226210cd3ae289b8034bb4e", "lat": 38.89223833333333, "lon": -77.043356, "rental_uris": {"android": "https://dc.lft.to/lastmile_qr_scan", "ios": "https://dc.lft.to/lastmile_qr_scan"}, "is_disabled": 0, "fusion_lat": 0.0, "name": "49fce75a6226210cd3ae289b8034bb4e", "fusion_lon": 0.0}, {"is_reserved": 0, "type": "electric_bike", "bike_id": "dd680f2692b7c98f724ce9ead1acf394", "lat": 38.892891666666664, "lon": -76.97614866666666, "rental_uris": {"android": "https://dc.lft.to/lastmile_qr_scan", "ios": "https://dc.lft.to/lastmile_qr_scan"}, "is_disabled": 0, "fusion_lat": 0.0, "name": "dd680f2692b7c98f724ce9ead1acf394", "fusion_lon": 0.0}, {"is_reserved": 0, "type": "electric_scooter", "bike_id": "a5351c5d1751ad3675bf4e0a73a86229", "lat": 38.908546, "lon": -77.01014766666667, "rental_uris": {"android": "https://dc.lft.to/lastmile_qr_scan", "ios": "https://dc.lft.to/lastmile_qr_scan"}, "is_disabled": 0, "fusion_lat": 0.0, "name": "a5351c5d1751ad3675bf4e0a73a86229", "fusion_lon": 0.0}, {"is_reserved": 0, "type": "electric_scooter", "bike_id": "0797af4e8c4574ce44d902b817e30294", "lat": 38.90723466666667, "lon": -77.011425, "rental_uris": {"android": "https://dc.lft.to/lastmile_qr_scan", "ios": "https://dc.lft.to/lastmile_qr_scan"}, "is_disabled": 0, "fusion_lat": 0.0, "name": "0797af4e8c4574ce44d902b817e30294", "fusion_lon": 0.0}, {"is_reserved": 0, "type": "electric_scooter", "bike_id": "c4b2d3b60b2bf7b52b6a36c35a98bcb1", "lat": 38.904704833333334, "lon": -77.00716566666667, "rental_uris": {"android": "https://dc.lft.to/lastmile_qr_scan", "ios": "https://dc.lft.to/lastmile_qr_scan"}, "is_disabled": 0, "fusion_lat": 0.0, "name": "c4b2d3b60b2bf7b52b6a36c35a98bcb1", "fusion_lon": 0.0}, {"is_reserved": 0, "type": "electric_scooter", "bike_id": "daada62cdc052457032ffe6028aa0544", "lat": 38.930072333333335, "lon": -77.038007, "rental_uris": {"android": "https://dc.lft.to/lastmile_qr_scan", "ios": "https://dc.lft.to/lastmile_qr_scan"}, "is_disabled": 0, "fusion_lat": 0.0, "name": "daada62cdc052457032ffe6028aa0544", "fusion_lon": 0.0}, {"is_reserved": 0, "type": "electric_scooter", "bike_id": "69a8adf6fc6b3221004a81007a8332fe", "lat": 38.9214555, "lon": -77.03414166666667, "rental_uris": {"android": "https://dc.lft.to/lastmile_qr_scan", "ios": "https://dc.lft.to/lastmile_qr_scan"}, "is_disabled": 0, "fusion_lat": 0.0, "name": "69a8adf6fc6b3221004a81007a8332fe", "fusion_lon": 0.0}, {"is_reserved": 0, "type": "electric_scooter", "bike_id": "968c6c0ca922eba7bc67dc0ab90982b2", "lat": 38.9126865, "lon": -77.038669, "rental_uris": {"android": "https://dc.lft.to/lastmile_qr_scan", "ios": "https://dc.lft.to/lastmile_qr_scan"}, "is_disabled": 0, "fusion_lat": 0.0, "name": "968c6c0ca922eba7bc67dc0ab90982b2", "fusion_lon": 0.0}, {"is_reserved": 0, "type": "electric_scooter", "bike_id": "b111b9e8f36cf7625b9ed05777749cfd", "lat": 38.882496833333335, "lon": -77.00632583333334, "rental_uris": {"android": "https://dc.lft.to/lastmile_qr_scan", "ios": "https://dc.lft.to/lastmile_qr_scan"}, "is_disabled": 0, "fusion_lat": 0.0, "name": "b111b9e8f36cf7625b9ed05777749cfd", "fusion_lon": 0.0}, {"is_reserved": 0, "type": "electric_scooter", "bike_id": "99c9976ad3af4b73a8de1998448fc1cd", "lat": 38.921458666666666, "lon": -77.035104, "rental_uris": {"android": "https://dc.lft.to/lastmile_qr_scan", "ios": "https://dc.lft.to/lastmile_qr_scan"}, "is_disabled": 0, "fusion_lat": 0.0, "name": "99c9976ad3af4b73a8de1998448fc1cd", "fusion_lon": 0.0}, {"is_reserved": 0, "type": "electric_bike", "bike_id": "bf7d91288a85f5b3b727bc1fe4312cca", "lat": 39.00030066666667, "lon": -77.04746316666666, "rental_uris": {"android": "https://dc.lft.to/lastmile_qr_scan", "ios": "https://dc.lft.to/lastmile_qr_scan"}, "is_disabled": 0, "fusion_lat": 0.0, "name": "bf7d91288a85f5b3b727bc1fe4312cca", "fusion_lon": 0.0}, {"is_reserved": 0, "type": "electric_scooter", "bike_id": "93ec4ec70348e038b766546ec388a29c", "lat": 38.911788333333334, "lon": -77.02305266666667, "rental_uris": {"android": "https://dc.lft.to/lastmile_qr_scan", "ios": "https://dc.lft.to/lastmile_qr_scan"}, "is_disabled": 0, "fusion_lat": 0.0, "name": "93ec4ec70348e038b766546ec388a29c", "fusion_lon": 0.0}, {"is_reserved": 0, "type": "electric_scooter", "bike_id": "bc0367b7939bf202c2d58d66f0fc7dbc", "lat": 38.853148166666664, "lon": -76.98035883333333, "rental_uris": {"android": "https://dc.lft.to/lastmile_qr_scan", "ios": "https://dc.lft.to/lastmile_qr_scan"}, "is_disabled": 0, "fusion_lat": 0.0, "name": "bc0367b7939bf202c2d58d66f0fc7dbc", "fusion_lon": 0.0}, {"is_reserved": 0, "type": "electric_scooter", "bike_id": "3a26810834d3fe56a9957715a1d6811b", "lat": 38.906185, "lon": -77.06516416666666, "rental_uris": {"android": "https://dc.lft.to/lastmile_qr_scan", "ios": "https://dc.lft.to/lastmile_qr_scan"}, "is_disabled": 0, "fusion_lat": 0.0, "name": "3a26810834d3fe56a9957715a1d6811b", "fusion_lon": 0.0}, {"is_reserved": 0, "type": "electric_scooter", "bike_id": "6806f19f65ae58e5b7a047792ff6ecb8", "lat": 38.92197933333333, "lon": -77.03894116666666, "rental_uris": {"android": "https://dc.lft.to/lastmile_qr_scan", "ios": "https://dc.lft.to/lastmile_qr_scan"}, "is_disabled": 0, "fusion_lat": 0.0, "name": "6806f19f65ae58e5b7a047792ff6ecb8", "fusion_lon": 0.0}, {"is_reserved": 0, "type": "electric_scooter", "bike_id": "8a8217a1e33faf99627e7447e780ccac", "lat": 38.913085333333335, "lon": -77.03629916666667, "rental_uris": {"android": "https://dc.lft.to/lastmile_qr_scan", "ios": "https://dc.lft.to/lastmile_qr_scan"}, "is_disabled": 0, "fusion_lat": 0.0, "name": "8a8217a1e33faf99627e7447e780ccac", "fusion_lon": 0.0}, {"is_reserved": 0, "type": "electric_scooter", "bike_id": "38a3552c13bffb54764cbd088e2af4d5", "lat": 38.908638, "lon": -77.0459305, "rental_uris": {"android": "https://dc.lft.to/lastmile_qr_scan", "ios": "https://dc.lft.to/lastmile_qr_scan"}, "is_disabled": 0, "fusion_lat": 0.0, "name": "38a3552c13bffb54764cbd088e2af4d5", "fusion_lon": 0.0}, {"is_reserved": 0, "type": "electric_scooter", "bike_id": "d09b59985f8a9f89555b877a912e3e49", "lat": 38.90054283333333, "lon": -76.98552483333333, "rental_uris": {"android": "https://dc.lft.to/lastmile_qr_scan", "ios": "https://dc.lft.to/lastmile_qr_scan"}, "is_disabled": 0, "fusion_lat": 0.0, "name": "d09b59985f8a9f89555b877a912e3e49", "fusion_lon": 0.0}, {"is_reserved": 0, "type": "electric_scooter", "bike_id": "b4658567e18c46a26b41d36d6710dec0", "lat": 38.90725233333333, "lon": -77.04793616666667, "rental_uris": {"android": "https://dc.lft.to/lastmile_qr_scan", "ios": "https://dc.lft.to/lastmile_qr_scan"}, "is_disabled": 0, "fusion_lat": 0.0, "name": "b4658567e18c46a26b41d36d6710dec0", "fusion_lon": 0.0}, {"is_reserved": 0, "type": "electric_scooter", "bike_id": "3e80383219d875cb7ed66798d64ccff9", "lat": 38.92454583333333, "lon": -77.02031766666667, "rental_uris": {"android": "https://dc.lft.to/lastmile_qr_scan", "ios": "https://dc.lft.to/lastmile_qr_scan"}, "is_disabled": 0, "fusion_lat": 0.0, "name": "3e80383219d875cb7ed66798d64ccff9", "fusion_lon": 0.0}, {"is_reserved": 0, "type": "electric_scooter", "bike_id": "51eddf5a379f1f567cc9f77713efbb00", "lat": 38.941616, "lon": -77.01826483333333, "rental_uris": {"android": "https://dc.lft.to/lastmile_qr_scan", "ios": "https://dc.lft.to/lastmile_qr_scan"}, "is_disabled": 0, "fusion_lat": 0.0, "name": "51eddf5a379f1f567cc9f77713efbb00", "fusion_lon": 0.0}, {"is_reserved": 0, "type": "electric_scooter", "bike_id": "12740a9f8dc4ddce83ad489f3c30091e", "lat": 38.9332905, "lon": -77.02908166666667, "rental_uris": {"android": "https://dc.lft.to/lastmile_qr_scan", "ios": "https://dc.lft.to/lastmile_qr_scan"}, "is_disabled": 0, "fusion_lat": 0.0, "name": "12740a9f8dc4ddce83ad489f3c30091e", "fusion_lon": 0.0}, {"is_reserved": 0, "type": "electric_scooter", "bike_id": "d088aa9bc77a1b25fa5905296041d385", "lat": 38.89855266666667, "lon": -77.02211816666667, "rental_uris": {"android": "https://dc.lft.to/lastmile_qr_scan", "ios": "https://dc.lft.to/lastmile_qr_scan"}, "is_disabled": 0, "fusion_lat": 0.0, "name": "d088aa9bc77a1b25fa5905296041d385", "fusion_lon": 0.0}, {"is_reserved": 0, "type": "electric_scooter", "bike_id": "a8b646cab2d5d3bd2a57fd2992e25f2b", "lat": 38.919178333333335, "lon": -77.04806233333333, "rental_uris": {"android": "https://dc.lft.to/lastmile_qr_scan", "ios": "https://dc.lft.to/lastmile_qr_scan"}, "is_disabled": 0, "fusion_lat": 0.0, "name": "a8b646cab2d5d3bd2a57fd2992e25f2b", "fusion_lon": 0.0}, {"is_reserved": 0, "type": "electric_scooter", "bike_id": "65a4e1557537cd057fea2e331dfa6465", "lat": 38.9207215, "lon": -77.02394966666667, "rental_uris": {"android": "https://dc.lft.to/lastmile_qr_scan", "ios": "https://dc.lft.to/lastmile_qr_scan"}, "is_disabled": 0, "fusion_lat": 0.0, "name": "65a4e1557537cd057fea2e331dfa6465", "fusion_lon": 0.0}, {"is_reserved": 0, "type": "electric_scooter", "bike_id": "62bb0fde3cb2be92749ed7c2cd07ba99", "lat": 38.9050515, "lon": -77.02946883333334, "rental_uris": {"android": "https://dc.lft.to/lastmile_qr_scan", "ios": "https://dc.lft.to/lastmile_qr_scan"}, "is_disabled": 0, "fusion_lat": 0.0, "name": "62bb0fde3cb2be92749ed7c2cd07ba99", "fusion_lon": 0.0}, {"is_reserved": 0, "type": "electric_scooter", "bike_id": "c93e84ce033bd3dad2922b3a21992eff", "lat": 38.8873615, "lon": -77.01352483333334, "rental_uris": {"android": "https://dc.lft.to/lastmile_qr_scan", "ios": "https://dc.lft.to/lastmile_qr_scan"}, "is_disabled": 0, "fusion_lat": 0.0, "name": "c93e84ce033bd3dad2922b3a21992eff", "fusion_lon": 0.0}, {"is_reserved": 0, "type": "electric_scooter", "bike_id": "b3a2ca8ff7d0702713129633e610134f", "lat": 38.92382833333333, "lon": -77.03658733333333, "rental_uris": {"android": "https://dc.lft.to/lastmile_qr_scan", "ios": "https://dc.lft.to/lastmile_qr_scan"}, "is_disabled": 0, "fusion_lat": 0.0, "name": "b3a2ca8ff7d0702713129633e610134f", "fusion_lon": 0.0}, {"is_reserved": 0, "type": "electric_scooter", "bike_id": "c2952b08b11f028934474fc43386cf59", "lat": 38.944354833333335, "lon": -77.02916666666667, "rental_uris": {"android": "https://dc.lft.to/lastmile_qr_scan", "ios": "https://dc.lft.to/lastmile_qr_scan"}, "is_disabled": 0, "fusion_lat": 0.0, "name": "c2952b08b11f028934474fc43386cf59", "fusion_lon": 0.0}, {"is_reserved": 0, "type": "electric_scooter", "bike_id": "3fb962ba26798635f4d3cc19f9f72fd7", "lat": 38.90011583333333, "lon": -77.0069375, "rental_uris": {"android": "https://dc.lft.to/lastmile_qr_scan", "ios": "https://dc.lft.to/lastmile_qr_scan"}, "is_disabled": 0, "fusion_lat": 0.0, "name": "3fb962ba26798635f4d3cc19f9f72fd7", "fusion_lon": 0.0}, {"is_reserved": 0, "type": "electric_scooter", "bike_id": "e44395c83b3572921eef0c2c213873a9", "lat": 38.922413, "lon": -77.02237116666667, "rental_uris": {"android": "https://dc.lft.to/lastmile_qr_scan", "ios": "https://dc.lft.to/lastmile_qr_scan"}, "is_disabled": 0, "fusion_lat": 0.0, "name": "e44395c83b3572921eef0c2c213873a9", "fusion_lon": 0.0}, {"is_reserved": 0, "type": "electric_scooter", "bike_id": "0cf4321e5dcbdac3b36fa8655be78aa0", "lat": 38.91579433333333, "lon": -77.01233733333333, "rental_uris": {"android": "https://dc.lft.to/lastmile_qr_scan", "ios": "https://dc.lft.to/lastmile_qr_scan"}, "is_disabled": 0, "fusion_lat": 0.0, "name": "0cf4321e5dcbdac3b36fa8655be78aa0", "fusion_lon": 0.0}, {"is_reserved": 0, "type": "electric_scooter", "bike_id": "4e3038ea93ac6f199d30fa546521bd38", "lat": 38.885175833333335, "lon": -77.02111933333333, "rental_uris": {"android": "https://dc.lft.to/lastmile_qr_scan", "ios": "https://dc.lft.to/lastmile_qr_scan"}, "is_disabled": 0, "fusion_lat": 0.0, "name": "4e3038ea93ac6f199d30fa546521bd38", "fusion_lon": 0.0}, {"is_reserved": 0, "type": "electric_scooter", "bike_id": "04f2e77fd1a7bea7da077ea4e20ef621", "lat": 38.926510666666665, "lon": -77.04135366666667, "rental_uris": {"android": "https://dc.lft.to/lastmile_qr_scan", "ios": "https://dc.lft.to/lastmile_qr_scan"}, "is_disabled": 0, "fusion_lat": 0.0, "name": "04f2e77fd1a7bea7da077ea4e20ef621", "fusion_lon": 0.0}, {"is_reserved": 0, "type": "electric_scooter", "bike_id": "1fca8d8326baad32b2f9f16f9a763742", "lat": 38.8863385, "lon": -77.01284833333334, "rental_uris": {"android": "https://dc.lft.to/lastmile_qr_scan", "ios": "https://dc.lft.to/lastmile_qr_scan"}, "is_disabled": 0, "fusion_lat": 0.0, "name": "1fca8d8326baad32b2f9f16f9a763742", "fusion_lon": 0.0}, {"is_reserved": 0, "type": "electric_bike", "bike_id": "50fbd8b21e07f8e9d60de79b4817c7ff", "lat": 38.862808, "lon": -76.9800915, "rental_uris": {"android": "https://dc.lft.to/lastmile_qr_scan", "ios": "https://dc.lft.to/lastmile_qr_scan"}, "is_disabled": 0, "fusion_lat": 0.0, "name": "50fbd8b21e07f8e9d60de79b4817c7ff", "fusion_lon": 0.0}, {"is_reserved": 0, "type": "electric_scooter", "bike_id": "6782866ec2d63793229feb7a6eb716ca", "lat": 38.92998016666667, "lon": -77.02168983333334, "rental_uris": {"android": "https://dc.lft.to/lastmile_qr_scan", "ios": "https://dc.lft.to/lastmile_qr_scan"}, "is_disabled": 0, "fusion_lat": 0.0, "name": "6782866ec2d63793229feb7a6eb716ca", "fusion_lon": 0.0}, {"is_reserved": 0, "type": "electric_scooter", "bike_id": "45277a884120c956f8384778cf3c0935", "lat": 38.92930833333333, "lon": -77.0200945, "rental_uris": {"android": "https://dc.lft.to/lastmile_qr_scan", "ios": "https://dc.lft.to/lastmile_qr_scan"}, "is_disabled": 0, "fusion_lat": 0.0, "name": "45277a884120c956f8384778cf3c0935", "fusion_lon": 0.0}, {"is_reserved": 0, "type": "electric_scooter", "bike_id": "2268ac6f2332c0045017c9730ac540a8", "lat": 38.9296805, "lon": -77.0234415, "rental_uris": {"android": "https://dc.lft.to/lastmile_qr_scan", "ios": "https://dc.lft.to/lastmile_qr_scan"}, "is_disabled": 0, "fusion_lat": 0.0, "name": "2268ac6f2332c0045017c9730ac540a8", "fusion_lon": 0.0}, {"is_reserved": 0, "type": "electric_scooter", "bike_id": "a34cc2da405fbec7ea7fcd76d8cc9533", "lat": 38.89363133333333, "lon": -76.94108, "rental_uris": {"android": "https://dc.lft.to/lastmile_qr_scan", "ios": "https://dc.lft.to/lastmile_qr_scan"}, "is_disabled": 0, "fusion_lat": 0.0, "name": "a34cc2da405fbec7ea7fcd76d8cc9533", "fusion_lon": 0.0}, {"is_reserved": 0, "type": "electric_scooter", "bike_id": "8dcf54d098fe9f82cf309b0892a487ec", "lat": 38.92281216666667, "lon": -76.9977215, "rental_uris": {"android": "https://dc.lft.to/lastmile_qr_scan", "ios": "https://dc.lft.to/lastmile_qr_scan"}, "is_disabled": 0, "fusion_lat": 0.0, "name": "8dcf54d098fe9f82cf309b0892a487ec", "fusion_lon": 0.0}, {"is_reserved": 0, "type": "electric_scooter", "bike_id": "c2958a3793e71d785574c55604b38600", "lat": 38.9473015, "lon": -77.02461316666667, "rental_uris": {"android": "https://dc.lft.to/lastmile_qr_scan", "ios": "https://dc.lft.to/lastmile_qr_scan"}, "is_disabled": 0, "fusion_lat": 0.0, "name": "c2958a3793e71d785574c55604b38600", "fusion_lon": 0.0}, {"is_reserved": 0, "type": "electric_scooter", "bike_id": "01923f1f8ae64ee42ecfd4a617858b2a", "lat": 38.933674, "lon": -77.057301, "rental_uris": {"android": "https://dc.lft.to/lastmile_qr_scan", "ios": "https://dc.lft.to/lastmile_qr_scan"}, "is_disabled": 0, "fusion_lat": 0.0, "name": "01923f1f8ae64ee42ecfd4a617858b2a", "fusion_lon": 0.0}, {"is_reserved": 0, "type": "electric_scooter", "bike_id": "51cf0794cae448fc16342fff6fc8a215", "lat": 38.922384666666666, "lon": -77.021266, "rental_uris": {"android": "https://dc.lft.to/lastmile_qr_scan", "ios": "https://dc.lft.to/lastmile_qr_scan"}, "is_disabled": 0, "fusion_lat": 0.0, "name": "51cf0794cae448fc16342fff6fc8a215", "fusion_lon": 0.0}, {"is_reserved": 0, "type": "electric_scooter", "bike_id": "003384566e0f95118f8df0e6e20026be", "lat": 38.911923333333334, "lon": -77.005005, "rental_uris": {"android": "https://dc.lft.to/lastmile_qr_scan", "ios": "https://dc.lft.to/lastmile_qr_scan"}, "is_disabled": 0, "fusion_lat": 0.0, "name": "003384566e0f95118f8df0e6e20026be", "fusion_lon": 0.0}, {"is_reserved": 0, "type": "electric_scooter", "bike_id": "88e41ceb59d98c1dcd728d5f03fc3f1b", "lat": 38.925655666666664, "lon": -76.97006433333334, "rental_uris": {"android": "https://dc.lft.to/lastmile_qr_scan", "ios": "https://dc.lft.to/lastmile_qr_scan"}, "is_disabled": 0, "fusion_lat": 0.0, "name": "88e41ceb59d98c1dcd728d5f03fc3f1b", "fusion_lon": 0.0}, {"is_reserved": 0, "type": "electric_scooter", "bike_id": "3ac2af0eac7806c88a37619c52fdc16d", "lat": 38.92330166666667, "lon": -77.03618566666667, "rental_uris": {"android": "https://dc.lft.to/lastmile_qr_scan", "ios": "https://dc.lft.to/lastmile_qr_scan"}, "is_disabled": 0, "fusion_lat": 0.0, "name": "3ac2af0eac7806c88a37619c52fdc16d", "fusion_lon": 0.0}, {"is_reserved": 0, "type": "electric_bike", "bike_id": "8ff6849aa81ccbfc0abf834f00cd8a39", "lat": 38.95132383333333, "lon": -76.9660095, "rental_uris": {"android": "https://dc.lft.to/lastmile_qr_scan", "ios": "https://dc.lft.to/lastmile_qr_scan"}, "is_disabled": 0, "fusion_lat": 0.0, "name": "8ff6849aa81ccbfc0abf834f00cd8a39", "fusion_lon": 0.0}, {"is_reserved": 0, "type": "electric_scooter", "bike_id": "22afc3dcfe896d1714ebe8b94dfbe956", "lat": 38.9003645, "lon": -76.99152433333333, "rental_uris": {"android": "https://dc.lft.to/lastmile_qr_scan", "ios": "https://dc.lft.to/lastmile_qr_scan"}, "is_disabled": 0, "fusion_lat": 0.0, "name": "22afc3dcfe896d1714ebe8b94dfbe956", "fusion_lon": 0.0}, {"is_reserved": 0, "type": "electric_scooter", "bike_id": "bdabec4b5ad531bd2e694cf674446d3f", "lat": 38.89986733333333, "lon": -77.02275433333334, "rental_uris": {"android": "https://dc.lft.to/lastmile_qr_scan", "ios": "https://dc.lft.to/lastmile_qr_scan"}, "is_disabled": 0, "fusion_lat": 0.0, "name": "bdabec4b5ad531bd2e694cf674446d3f", "fusion_lon": 0.0}, {"is_reserved": 0, "type": "electric_scooter", "bike_id": "2442847cb3b3d894af07412dd44d164b", "lat": 38.89916916666667, "lon": -77.03201866666667, "rental_uris": {"android": "https://dc.lft.to/lastmile_qr_scan", "ios": "https://dc.lft.to/lastmile_qr_scan"}, "is_disabled": 0, "fusion_lat": 0.0, "name": "2442847cb3b3d894af07412dd44d164b", "fusion_lon": 0.0}, {"is_reserved": 0, "type": "electric_scooter", "bike_id": "b853ef7f1f2b14d99f6561b47100ac80", "lat": 38.93089716666667, "lon": -77.0344565, "rental_uris": {"android": "https://dc.lft.to/lastmile_qr_scan", "ios": "https://dc.lft.to/lastmile_qr_scan"}, "is_disabled": 0, "fusion_lat": 0.0, "name": "b853ef7f1f2b14d99f6561b47100ac80", "fusion_lon": 0.0}, {"is_reserved": 0, "type": "electric_scooter", "bike_id": "8b273ff3e9f26f11c8bfd85cee460edc", "lat": 38.8922265, "lon": -77.02316766666667, "rental_uris": {"android": "https://dc.lft.to/lastmile_qr_scan", "ios": "https://dc.lft.to/lastmile_qr_scan"}, "is_disabled": 0, "fusion_lat": 0.0, "name": "8b273ff3e9f26f11c8bfd85cee460edc", "fusion_lon": 0.0}, {"is_reserved": 0, "type": "electric_scooter", "bike_id": "7c478f19307440ffa2c66868b93241c5", "lat": 38.9181835, "lon": -77.03183816666666, "rental_uris": {"android": "https://dc.lft.to/lastmile_qr_scan", "ios": "https://dc.lft.to/lastmile_qr_scan"}, "is_disabled": 0, "fusion_lat": 0.0, "name": "7c478f19307440ffa2c66868b93241c5", "fusion_lon": 0.0}, {"is_reserved": 0, "type": "electric_scooter", "bike_id": "c7427c873b68a31b69611567c18df921", "lat": 38.89898066666667, "lon": -77.02713233333333, "rental_uris": {"android": "https://dc.lft.to/lastmile_qr_scan", "ios": "https://dc.lft.to/lastmile_qr_scan"}, "is_disabled": 0, "fusion_lat": 0.0, "name": "c7427c873b68a31b69611567c18df921", "fusion_lon": 0.0}, {"is_reserved": 0, "type": "electric_scooter", "bike_id": "4beee2580a4e34c5f6ab2b9170a2ce64", "lat": 38.92044333333333, "lon": -77.03399083333333, "rental_uris": {"android": "https://dc.lft.to/lastmile_qr_scan", "ios": "https://dc.lft.to/lastmile_qr_scan"}, "is_disabled": 0, "fusion_lat": 0.0, "name": "4beee2580a4e34c5f6ab2b9170a2ce64", "fusion_lon": 0.0}, {"is_reserved": 0, "type": "electric_scooter", "bike_id": "44fc1132ef5f5e867a370eebf3cb281b", "lat": 38.900364, "lon": -77.002048, "rental_uris": {"android": "https://dc.lft.to/lastmile_qr_scan", "ios": "https://dc.lft.to/lastmile_qr_scan"}, "is_disabled": 0, "fusion_lat": 0.0, "name": "44fc1132ef5f5e867a370eebf3cb281b", "fusion_lon": 0.0}, {"is_reserved": 0, "type": "electric_scooter", "bike_id": "54d286624d3e8e8089f83b75c0d59c89", "lat": 38.92295033333333, "lon": -77.05446, "rental_uris": {"android": "https://dc.lft.to/lastmile_qr_scan", "ios": "https://dc.lft.to/lastmile_qr_scan"}, "is_disabled": 0, "fusion_lat": 0.0, "name": "54d286624d3e8e8089f83b75c0d59c89", "fusion_lon": 0.0}, {"is_reserved": 0, "type": "electric_scooter", "bike_id": "72e5c81e5b039ff1249857ecd19673ca", "lat": 38.90550966666667, "lon": -77.04740116666666, "rental_uris": {"android": "https://dc.lft.to/lastmile_qr_scan", "ios": "https://dc.lft.to/lastmile_qr_scan"}, "is_disabled": 0, "fusion_lat": 0.0, "name": "72e5c81e5b039ff1249857ecd19673ca", "fusion_lon": 0.0}, {"is_reserved": 0, "type": "electric_scooter", "bike_id": "450fab92ee5be1d70bbc9e9943495db2", "lat": 38.920967833333336, "lon": -77.03174916666667, "rental_uris": {"android": "https://dc.lft.to/lastmile_qr_scan", "ios": "https://dc.lft.to/lastmile_qr_scan"}, "is_disabled": 0, "fusion_lat": 0.0, "name": "450fab92ee5be1d70bbc9e9943495db2", "fusion_lon": 0.0}, {"is_reserved": 0, "type": "electric_scooter", "bike_id": "b775ac283d83d0b79bd22e30bb789ffe", "lat": 38.8922305, "lon": -77.04640366666666, "rental_uris": {"android": "https://dc.lft.to/lastmile_qr_scan", "ios": "https://dc.lft.to/lastmile_qr_scan"}, "is_disabled": 0, "fusion_lat": 0.0, "name": "b775ac283d83d0b79bd22e30bb789ffe", "fusion_lon": 0.0}, {"is_reserved": 0, "type": "electric_scooter", "bike_id": "1fd0a0e9154f2a20d58a46c654591afe", "lat": 38.92022933333333, "lon": -77.010609, "rental_uris": {"android": "https://dc.lft.to/lastmile_qr_scan", "ios": "https://dc.lft.to/lastmile_qr_scan"}, "is_disabled": 0, "fusion_lat": 0.0, "name": "1fd0a0e9154f2a20d58a46c654591afe", "fusion_lon": 0.0}, {"is_reserved": 0, "type": "electric_scooter", "bike_id": "74a09846b2aed29de6cf03ee7396f4f4", "lat": 38.916189833333334, "lon": -77.02398466666666, "rental_uris": {"android": "https://dc.lft.to/lastmile_qr_scan", "ios": "https://dc.lft.to/lastmile_qr_scan"}, "is_disabled": 0, "fusion_lat": 0.0, "name": "74a09846b2aed29de6cf03ee7396f4f4", "fusion_lon": 0.0}, {"is_reserved": 0, "type": "electric_scooter", "bike_id": "d5800520f1d0b00a579304a4a8dcc139", "lat": 38.9387665, "lon": -77.030139, "rental_uris": {"android": "https://dc.lft.to/lastmile_qr_scan", "ios": "https://dc.lft.to/lastmile_qr_scan"}, "is_disabled": 0, "fusion_lat": 0.0, "name": "d5800520f1d0b00a579304a4a8dcc139", "fusion_lon": 0.0}, {"is_reserved": 0, "type": "electric_bike", "bike_id": "859d57f61813e143026b59581dc5a2f3", "lat": 38.957544, "lon": -76.980255, "rental_uris": {"android": "https://dc.lft.to/lastmile_qr_scan", "ios": "https://dc.lft.to/lastmile_qr_scan"}, "is_disabled": 0, "fusion_lat": 0.0, "name": "859d57f61813e143026b59581dc5a2f3", "fusion_lon": 0.0}, {"is_reserved": 0, "type": "electric_scooter", "bike_id": "3e397858177c99f55b0748cde95b3167", "lat": 38.90347583333333, "lon": -76.98611116666666, "rental_uris": {"android": "https://dc.lft.to/lastmile_qr_scan", "ios": "https://dc.lft.to/lastmile_qr_scan"}, "is_disabled": 0, "fusion_lat": 0.0, "name": "3e397858177c99f55b0748cde95b3167", "fusion_lon": 0.0}, {"is_reserved": 0, "type": "electric_scooter", "bike_id": "79cd0ad6089eac820a4b05b5f5fc2705", "lat": 38.925395333333334, "lon": -77.0326035, "rental_uris": {"android": "https://dc.lft.to/lastmile_qr_scan", "ios": "https://dc.lft.to/lastmile_qr_scan"}, "is_disabled": 0, "fusion_lat": 0.0, "name": "79cd0ad6089eac820a4b05b5f5fc2705", "fusion_lon": 0.0}, {"is_reserved": 0, "type": "electric_scooter", "bike_id": "961b8aebf85001fed75be75f15b6374a", "lat": 38.9299885, "lon": -77.03800783333334, "rental_uris": {"android": "https://dc.lft.to/lastmile_qr_scan", "ios": "https://dc.lft.to/lastmile_qr_scan"}, "is_disabled": 0, "fusion_lat": 0.0, "name": "961b8aebf85001fed75be75f15b6374a", "fusion_lon": 0.0}, {"is_reserved": 0, "type": "electric_scooter", "bike_id": "016e7d94b1f1cf9943be4697a9111d85", "lat": 38.923264333333336, "lon": -77.05395683333333, "rental_uris": {"android": "https://dc.lft.to/lastmile_qr_scan", "ios": "https://dc.lft.to/lastmile_qr_scan"}, "is_disabled": 0, "fusion_lat": 0.0, "name": "016e7d94b1f1cf9943be4697a9111d85", "fusion_lon": 0.0}, {"is_reserved": 0, "type": "electric_scooter", "bike_id": "3f08bbc7e224f598a25f6a7b5edf02bc", "lat": 38.902602333333334, "lon": -77.01759116666666, "rental_uris": {"android": "https://dc.lft.to/lastmile_qr_scan", "ios": "https://dc.lft.to/lastmile_qr_scan"}, "is_disabled": 0, "fusion_lat": 0.0, "name": "3f08bbc7e224f598a25f6a7b5edf02bc", "fusion_lon": 0.0}, {"is_reserved": 0, "type": "electric_scooter", "bike_id": "cdb378f81a986e9a85e61ed8069b726d", "lat": 38.935299666666666, "lon": -77.03652183333334, "rental_uris": {"android": "https://dc.lft.to/lastmile_qr_scan", "ios": "https://dc.lft.to/lastmile_qr_scan"}, "is_disabled": 0, "fusion_lat": 0.0, "name": "cdb378f81a986e9a85e61ed8069b726d", "fusion_lon": 0.0}, {"is_reserved": 0, "type": "electric_scooter", "bike_id": "0da1bc43b230aeafff88ffcac7fcb391", "lat": 38.918175, "lon": -77.04547233333334, "rental_uris": {"android": "https://dc.lft.to/lastmile_qr_scan", "ios": "https://dc.lft.to/lastmile_qr_scan"}, "is_disabled": 0, "fusion_lat": 0.0, "name": "0da1bc43b230aeafff88ffcac7fcb391", "fusion_lon": 0.0}, {"is_reserved": 0, "type": "electric_scooter", "bike_id": "930af54b473edd27176991942ccbed08", "lat": 38.930254, "lon": -77.03793916666666, "rental_uris": {"android": "https://dc.lft.to/lastmile_qr_scan", "ios": "https://dc.lft.to/lastmile_qr_scan"}, "is_disabled": 0, "fusion_lat": 0.0, "name": "930af54b473edd27176991942ccbed08", "fusion_lon": 0.0}, {"is_reserved": 0, "type": "electric_scooter", "bike_id": "e0f629068da3d0e7f8f1c32eae1c158c", "lat": 38.88458466666667, "lon": -76.92619866666666, "rental_uris": {"android": "https://dc.lft.to/lastmile_qr_scan", "ios": "https://dc.lft.to/lastmile_qr_scan"}, "is_disabled": 0, "fusion_lat": 0.0, "name": "e0f629068da3d0e7f8f1c32eae1c158c", "fusion_lon": 0.0}, {"is_reserved": 0, "type": "electric_scooter", "bike_id": "48123518d5de90db0b4d847d49f0a7dd", "lat": 38.92120083333333, "lon": -77.0177925, "rental_uris": {"android": "https://dc.lft.to/lastmile_qr_scan", "ios": "https://dc.lft.to/lastmile_qr_scan"}, "is_disabled": 0, "fusion_lat": 0.0, "name": "48123518d5de90db0b4d847d49f0a7dd", "fusion_lon": 0.0}, {"is_reserved": 0, "type": "electric_scooter", "bike_id": "41e8bac19f5a6a5c0348737a727a69e2", "lat": 38.919285, "lon": -77.01976816666667, "rental_uris": {"android": "https://dc.lft.to/lastmile_qr_scan", "ios": "https://dc.lft.to/lastmile_qr_scan"}, "is_disabled": 0, "fusion_lat": 0.0, "name": "41e8bac19f5a6a5c0348737a727a69e2", "fusion_lon": 0.0}, {"is_reserved": 0, "type": "electric_bike", "bike_id": "9644983487f7fe3216a862e382be402e", "lat": 38.89854066666667, "lon": -76.93190516666667, "rental_uris": {"android": "https://dc.lft.to/lastmile_qr_scan", "ios": "https://dc.lft.to/lastmile_qr_scan"}, "is_disabled": 0, "fusion_lat": 0.0, "name": "9644983487f7fe3216a862e382be402e", "fusion_lon": 0.0}, {"is_reserved": 0, "type": "electric_bike", "bike_id": "a7092a43b14c6187ba703c8d0de1877a", "lat": 39.094442666666666, "lon": -77.13459633333333, "rental_uris": {"android": "https://dc.lft.to/lastmile_qr_scan", "ios": "https://dc.lft.to/lastmile_qr_scan"}, "is_disabled": 0, "fusion_lat": 0.0, "name": "a7092a43b14c6187ba703c8d0de1877a", "fusion_lon": 0.0}, {"is_reserved": 0, "type": "electric_scooter", "bike_id": "9d9729aa4256f83a51717d47c4c17e85", "lat": 38.90429266666666, "lon": -77.0346325, "rental_uris": {"android": "https://dc.lft.to/lastmile_qr_scan", "ios": "https://dc.lft.to/lastmile_qr_scan"}, "is_disabled": 0, "fusion_lat": 0.0, "name": "9d9729aa4256f83a51717d47c4c17e85", "fusion_lon": 0.0}, {"is_reserved": 0, "type": "electric_scooter", "bike_id": "aba8d86552e9721766e253558b9298ac", "lat": 38.906551666666665, "lon": -77.04146733333333, "rental_uris": {"android": "https://dc.lft.to/lastmile_qr_scan", "ios": "https://dc.lft.to/lastmile_qr_scan"}, "is_disabled": 0, "fusion_lat": 0.0, "name": "aba8d86552e9721766e253558b9298ac", "fusion_lon": 0.0}, {"is_reserved": 0, "type": "electric_scooter", "bike_id": "7827501d117d88dc0fbd5e40beb96906", "lat": 38.930663, "lon": -77.04222166666666, "rental_uris": {"android": "https://dc.lft.to/lastmile_qr_scan", "ios": "https://dc.lft.to/lastmile_qr_scan"}, "is_disabled": 0, "fusion_lat": 0.0, "name": "7827501d117d88dc0fbd5e40beb96906", "fusion_lon": 0.0}, {"is_reserved": 0, "type": "electric_scooter", "bike_id": "964b4a7b8a03db40bb8fd8f6482c384c", "lat": 38.92784666666667, "lon": -77.03592633333334, "rental_uris": {"android": "https://dc.lft.to/lastmile_qr_scan", "ios": "https://dc.lft.to/lastmile_qr_scan"}, "is_disabled": 0, "fusion_lat": 0.0, "name": "964b4a7b8a03db40bb8fd8f6482c384c", "fusion_lon": 0.0}, {"is_reserved": 0, "type": "electric_scooter", "bike_id": "fa3e4956b8b49c99f573d16fe2c08fef", "lat": 38.92745983333333, "lon": -77.06957583333333, "rental_uris": {"android": "https://dc.lft.to/lastmile_qr_scan", "ios": "https://dc.lft.to/lastmile_qr_scan"}, "is_disabled": 0, "fusion_lat": 0.0, "name": "fa3e4956b8b49c99f573d16fe2c08fef", "fusion_lon": 0.0}, {"is_reserved": 0, "type": "electric_scooter", "bike_id": "6a331928ebdfdcad6334769fe3c57995", "lat": 38.87643883333333, "lon": -77.00261166666667, "rental_uris": {"android": "https://dc.lft.to/lastmile_qr_scan", "ios": "https://dc.lft.to/lastmile_qr_scan"}, "is_disabled": 0, "fusion_lat": 0.0, "name": "6a331928ebdfdcad6334769fe3c57995", "fusion_lon": 0.0}, {"is_reserved": 0, "type": "electric_scooter", "bike_id": "ce18578a78818e02b35fd45edd032674", "lat": 38.8644795, "lon": -76.99116983333333, "rental_uris": {"android": "https://dc.lft.to/lastmile_qr_scan", "ios": "https://dc.lft.to/lastmile_qr_scan"}, "is_disabled": 0, "fusion_lat": 0.0, "name": "ce18578a78818e02b35fd45edd032674", "fusion_lon": 0.0}, {"is_reserved": 0, "type": "electric_scooter", "bike_id": "0348fca7de8b357e4512ff3587b768ba", "lat": 38.921964, "lon": -77.01835166666666, "rental_uris": {"android": "https://dc.lft.to/lastmile_qr_scan", "ios": "https://dc.lft.to/lastmile_qr_scan"}, "is_disabled": 0, "fusion_lat": 0.0, "name": "0348fca7de8b357e4512ff3587b768ba", "fusion_lon": 0.0}, {"is_reserved": 0, "type": "electric_scooter", "bike_id": "72170b490b05cde6ed96835bb36c46b0", "lat": 38.905654, "lon": -77.05129, "rental_uris": {"android": "https://dc.lft.to/lastmile_qr_scan", "ios": "https://dc.lft.to/lastmile_qr_scan"}, "is_disabled": 0, "fusion_lat": 0.0, "name": "72170b490b05cde6ed96835bb36c46b0", "fusion_lon": 0.0}, {"is_reserved": 0, "type": "electric_scooter", "bike_id": "08edbd8de73063c8a13b5a1efafdca95", "lat": 38.90983416666667, "lon": -77.034691, "rental_uris": {"android": "https://dc.lft.to/lastmile_qr_scan", "ios": "https://dc.lft.to/lastmile_qr_scan"}, "is_disabled": 0, "fusion_lat": 0.0, "name": "08edbd8de73063c8a13b5a1efafdca95", "fusion_lon": 0.0}, {"is_reserved": 0, "type": "electric_scooter", "bike_id": "f586845444d6686171c79e8d0a3ae864", "lat": 38.972978166666664, "lon": -77.036285, "rental_uris": {"android": "https://dc.lft.to/lastmile_qr_scan", "ios": "https://dc.lft.to/lastmile_qr_scan"}, "is_disabled": 0, "fusion_lat": 0.0, "name": "f586845444d6686171c79e8d0a3ae864", "fusion_lon": 0.0}, {"is_reserved": 0, "type": "electric_scooter", "bike_id": "9372666781f2a8cc5b2b4e8b3894748a", "lat": 38.9147725, "lon": -77.01817966666667, "rental_uris": {"android": "https://dc.lft.to/lastmile_qr_scan", "ios": "https://dc.lft.to/lastmile_qr_scan"}, "is_disabled": 0, "fusion_lat": 0.0, "name": "9372666781f2a8cc5b2b4e8b3894748a", "fusion_lon": 0.0}, {"is_reserved": 0, "type": "electric_scooter", "bike_id": "0804c5cbcfe8cac86e5b51e8b107d28a", "lat": 38.90141233333333, "lon": -77.03204683333334, "rental_uris": {"android": "https://dc.lft.to/lastmile_qr_scan", "ios": "https://dc.lft.to/lastmile_qr_scan"}, "is_disabled": 0, "fusion_lat": 0.0, "name": "0804c5cbcfe8cac86e5b51e8b107d28a", "fusion_lon": 0.0}, {"is_reserved": 0, "type": "electric_bike", "bike_id": "37b3750fb5e46981f330b7a0d7cb02f8", "lat": 38.84561166666667, "lon": -76.97057333333333, "rental_uris": {"android": "https://dc.lft.to/lastmile_qr_scan", "ios": "https://dc.lft.to/lastmile_qr_scan"}, "is_disabled": 0, "fusion_lat": 0.0, "name": "37b3750fb5e46981f330b7a0d7cb02f8", "fusion_lon": 0.0}, {"is_reserved": 0, "type": "electric_scooter", "bike_id": "5217d0c6c76ee599f253c230be503c78", "lat": 38.940797, "lon": -77.02906083333333, "rental_uris": {"android": "https://dc.lft.to/lastmile_qr_scan", "ios": "https://dc.lft.to/lastmile_qr_scan"}, "is_disabled": 0, "fusion_lat": 0.0, "name": "5217d0c6c76ee599f253c230be503c78", "fusion_lon": 0.0}, {"is_reserved": 0, "type": "electric_scooter", "bike_id": "9a470a6f7f44b507f686425e58e9378b", "lat": 38.875859166666665, "lon": -77.00073583333334, "rental_uris": {"android": "https://dc.lft.to/lastmile_qr_scan", "ios": "https://dc.lft.to/lastmile_qr_scan"}, "is_disabled": 0, "fusion_lat": 0.0, "name": "9a470a6f7f44b507f686425e58e9378b", "fusion_lon": 0.0}, {"is_reserved": 0, "type": "electric_bike", "bike_id": "cbe639026e5d90ae4577e0b5f5256274", "lat": 38.8381385, "lon": -77.09528783333333, "rental_uris": {"android": "https://dc.lft.to/lastmile_qr_scan", "ios": "https://dc.lft.to/lastmile_qr_scan"}, "is_disabled": 0, "fusion_lat": 0.0, "name": "cbe639026e5d90ae4577e0b5f5256274", "fusion_lon": 0.0}, {"is_reserved": 0, "type": "electric_scooter", "bike_id": "820d3974a1ba948b878783990fac2a15", "lat": 38.876212, "lon": -77.0124905, "rental_uris": {"android": "https://dc.lft.to/lastmile_qr_scan", "ios": "https://dc.lft.to/lastmile_qr_scan"}, "is_disabled": 0, "fusion_lat": 0.0, "name": "820d3974a1ba948b878783990fac2a15", "fusion_lon": 0.0}, {"is_reserved": 0, "type": "electric_scooter", "bike_id": "ced542d5c53b06aa6dedf867f5be095a", "lat": 38.911714, "lon": -77.0110605, "rental_uris": {"android": "https://dc.lft.to/lastmile_qr_scan", "ios": "https://dc.lft.to/lastmile_qr_scan"}, "is_disabled": 0, "fusion_lat": 0.0, "name": "ced542d5c53b06aa6dedf867f5be095a", "fusion_lon": 0.0}, {"is_reserved": 0, "type": "electric_scooter", "bike_id": "179e5e6568e2a0d08ebb23896bce3114", "lat": 38.935082, "lon": -77.02007233333333, "rental_uris": {"android": "https://dc.lft.to/lastmile_qr_scan", "ios": "https://dc.lft.to/lastmile_qr_scan"}, "is_disabled": 0, "fusion_lat": 0.0, "name": "179e5e6568e2a0d08ebb23896bce3114", "fusion_lon": 0.0}, {"is_reserved": 0, "type": "electric_scooter", "bike_id": "7e44557feb43bc247e9366f7067505fb", "lat": 38.9008245, "lon": -77.0162455, "rental_uris": {"android": "https://dc.lft.to/lastmile_qr_scan", "ios": "https://dc.lft.to/lastmile_qr_scan"}, "is_disabled": 0, "fusion_lat": 0.0, "name": "7e44557feb43bc247e9366f7067505fb", "fusion_lon": 0.0}, {"is_reserved": 0, "type": "electric_scooter", "bike_id": "ae742755ef8d9f07670b65597898d5bb", "lat": 38.919492, "lon": -77.04456766666667, "rental_uris": {"android": "https://dc.lft.to/lastmile_qr_scan", "ios": "https://dc.lft.to/lastmile_qr_scan"}, "is_disabled": 0, "fusion_lat": 0.0, "name": "ae742755ef8d9f07670b65597898d5bb", "fusion_lon": 0.0}, {"is_reserved": 0, "type": "electric_scooter", "bike_id": "0b8d1aa001cc67b9c9acd1dc4dd98f7d", "lat": 38.892207666666664, "lon": -77.03156483333333, "rental_uris": {"android": "https://dc.lft.to/lastmile_qr_scan", "ios": "https://dc.lft.to/lastmile_qr_scan"}, "is_disabled": 0, "fusion_lat": 0.0, "name": "0b8d1aa001cc67b9c9acd1dc4dd98f7d", "fusion_lon": 0.0}, {"is_reserved": 0, "type": "electric_scooter", "bike_id": "62f4d0711e632db493bd3fa1821baec4", "lat": 38.8966925, "lon": -77.0120165, "rental_uris": {"android": "https://dc.lft.to/lastmile_qr_scan", "ios": "https://dc.lft.to/lastmile_qr_scan"}, "is_disabled": 0, "fusion_lat": 0.0, "name": "62f4d0711e632db493bd3fa1821baec4", "fusion_lon": 0.0}, {"is_reserved": 0, "type": "electric_scooter", "bike_id": "f8f1c1be338284b34ef4ca27362f1b37", "lat": 38.903786, "lon": -77.03142866666667, "rental_uris": {"android": "https://dc.lft.to/lastmile_qr_scan", "ios": "https://dc.lft.to/lastmile_qr_scan"}, "is_disabled": 0, "fusion_lat": 0.0, "name": "f8f1c1be338284b34ef4ca27362f1b37", "fusion_lon": 0.0}, {"is_reserved": 0, "type": "electric_scooter", "bike_id": "95cc3c4ae429bdb79d4117c22105bd6a", "lat": 38.92545233333333, "lon": -76.9995545, "rental_uris": {"android": "https://dc.lft.to/lastmile_qr_scan", "ios": "https://dc.lft.to/lastmile_qr_scan"}, "is_disabled": 0, "fusion_lat": 0.0, "name": "95cc3c4ae429bdb79d4117c22105bd6a", "fusion_lon": 0.0}, {"is_reserved": 0, "type": "electric_scooter", "bike_id": "b982333786d540d23f3f7d3955e6226d", "lat": 38.9201815, "lon": -77.032047, "rental_uris": {"android": "https://dc.lft.to/lastmile_qr_scan", "ios": "https://dc.lft.to/lastmile_qr_scan"}, "is_disabled": 0, "fusion_lat": 0.0, "name": "b982333786d540d23f3f7d3955e6226d", "fusion_lon": 0.0}, {"is_reserved": 0, "type": "electric_scooter", "bike_id": "5ad84250eb4f1ae5f619b47bf585754b", "lat": 38.920106, "lon": -77.0419115, "rental_uris": {"android": "https://dc.lft.to/lastmile_qr_scan", "ios": "https://dc.lft.to/lastmile_qr_scan"}, "is_disabled": 0, "fusion_lat": 0.0, "name": "5ad84250eb4f1ae5f619b47bf585754b", "fusion_lon": 0.0}, {"is_reserved": 0, "type": "electric_scooter", "bike_id": "32ab3eb251f4b76685adede1522b48f1", "lat": 38.89246283333333, "lon": -77.03958833333333, "rental_uris": {"android": "https://dc.lft.to/lastmile_qr_scan", "ios": "https://dc.lft.to/lastmile_qr_scan"}, "is_disabled": 0, "fusion_lat": 0.0, "name": "32ab3eb251f4b76685adede1522b48f1", "fusion_lon": 0.0}, {"is_reserved": 0, "type": "electric_scooter", "bike_id": "8338df9d49bc597ee210542bc5852649", "lat": 38.914952, "lon": -77.012236, "rental_uris": {"android": "https://dc.lft.to/lastmile_qr_scan", "ios": "https://dc.lft.to/lastmile_qr_scan"}, "is_disabled": 0, "fusion_lat": 0.0, "name": "8338df9d49bc597ee210542bc5852649", "fusion_lon": 0.0}, {"is_reserved": 0, "type": "electric_scooter", "bike_id": "b39aa791264c1885b6c08caaabe2a180", "lat": 38.91620483333333, "lon": -77.00196283333334, "rental_uris": {"android": "https://dc.lft.to/lastmile_qr_scan", "ios": "https://dc.lft.to/lastmile_qr_scan"}, "is_disabled": 0, "fusion_lat": 0.0, "name": "b39aa791264c1885b6c08caaabe2a180", "fusion_lon": 0.0}, {"is_reserved": 0, "type": "electric_scooter", "bike_id": "90f112ab068a37a00412a93eaf0b45bf", "lat": 38.8989715, "lon": -77.00366733333334, "rental_uris": {"android": "https://dc.lft.to/lastmile_qr_scan", "ios": "https://dc.lft.to/lastmile_qr_scan"}, "is_disabled": 0, "fusion_lat": 0.0, "name": "90f112ab068a37a00412a93eaf0b45bf", "fusion_lon": 0.0}, {"is_reserved": 0, "type": "electric_bike", "bike_id": "5ef85e3dfc6ea15ffbd5fb2873b6a972", "lat": 38.887859, "lon": -76.92344316666667, "rental_uris": {"android": "https://dc.lft.to/lastmile_qr_scan", "ios": "https://dc.lft.to/lastmile_qr_scan"}, "is_disabled": 0, "fusion_lat": 0.0, "name": "5ef85e3dfc6ea15ffbd5fb2873b6a972", "fusion_lon": 0.0}, {"is_reserved": 0, "type": "electric_scooter", "bike_id": "24eddea1edee900ef70f94963284bb51", "lat": 38.92075466666667, "lon": -77.02501516666666, "rental_uris": {"android": "https://dc.lft.to/lastmile_qr_scan", "ios": "https://dc.lft.to/lastmile_qr_scan"}, "is_disabled": 0, "fusion_lat": 0.0, "name": "24eddea1edee900ef70f94963284bb51", "fusion_lon": 0.0}, {"is_reserved": 0, "type": "electric_scooter", "bike_id": "9cd538b0571f89aaad912376edcb93e2", "lat": 38.898680166666665, "lon": -77.03972016666667, "rental_uris": {"android": "https://dc.lft.to/lastmile_qr_scan", "ios": "https://dc.lft.to/lastmile_qr_scan"}, "is_disabled": 0, "fusion_lat": 0.0, "name": "9cd538b0571f89aaad912376edcb93e2", "fusion_lon": 0.0}, {"is_reserved": 0, "type": "electric_scooter", "bike_id": "4e6160f34ea3fd002e1fc012981d1c8b", "lat": 38.92622566666667, "lon": -77.07714066666666, "rental_uris": {"android": "https://dc.lft.to/lastmile_qr_scan", "ios": "https://dc.lft.to/lastmile_qr_scan"}, "is_disabled": 0, "fusion_lat": 0.0, "name": "4e6160f34ea3fd002e1fc012981d1c8b", "fusion_lon": 0.0}, {"is_reserved": 0, "type": "electric_scooter", "bike_id": "2a4c6ce54bc794ff2210789535c6d6d5", "lat": 38.923519166666665, "lon": -76.99088383333333, "rental_uris": {"android": "https://dc.lft.to/lastmile_qr_scan", "ios": "https://dc.lft.to/lastmile_qr_scan"}, "is_disabled": 0, "fusion_lat": 0.0, "name": "2a4c6ce54bc794ff2210789535c6d6d5", "fusion_lon": 0.0}, {"is_reserved": 0, "type": "electric_scooter", "bike_id": "2df63cfa060a649cbffb6ad150f8c825", "lat": 38.91334883333333, "lon": -77.04801933333333, "rental_uris": {"android": "https://dc.lft.to/lastmile_qr_scan", "ios": "https://dc.lft.to/lastmile_qr_scan"}, "is_disabled": 0, "fusion_lat": 0.0, "name": "2df63cfa060a649cbffb6ad150f8c825", "fusion_lon": 0.0}, {"is_reserved": 0, "type": "electric_scooter", "bike_id": "833d64fbfa8c0c01b5e79a6c18962de5", "lat": 38.902308166666664, "lon": -77.05317766666667, "rental_uris": {"android": "https://dc.lft.to/lastmile_qr_scan", "ios": "https://dc.lft.to/lastmile_qr_scan"}, "is_disabled": 0, "fusion_lat": 0.0, "name": "833d64fbfa8c0c01b5e79a6c18962de5", "fusion_lon": 0.0}, {"is_reserved": 0, "type": "electric_bike", "bike_id": "de2190c8ef99ca4828464383af6eaeaf", "lat": 38.97306233333333, "lon": -76.994925, "rental_uris": {"android": "https://dc.lft.to/lastmile_qr_scan", "ios": "https://dc.lft.to/lastmile_qr_scan"}, "is_disabled": 0, "fusion_lat": 0.0, "name": "de2190c8ef99ca4828464383af6eaeaf", "fusion_lon": 0.0}, {"is_reserved": 0, "type": "electric_scooter", "bike_id": "9a3010896bec14a736dcfcb64628602c", "lat": 38.903017, "lon": -76.976513, "rental_uris": {"android": "https://dc.lft.to/lastmile_qr_scan", "ios": "https://dc.lft.to/lastmile_qr_scan"}, "is_disabled": 0, "fusion_lat": 0.0, "name": "9a3010896bec14a736dcfcb64628602c", "fusion_lon": 0.0}, {"is_reserved": 0, "type": "electric_scooter", "bike_id": "c199b6d5382b921f76ce121fae5c13cd", "lat": 38.914150666666664, "lon": -77.0224735, "rental_uris": {"android": "https://dc.lft.to/lastmile_qr_scan", "ios": "https://dc.lft.to/lastmile_qr_scan"}, "is_disabled": 0, "fusion_lat": 0.0, "name": "c199b6d5382b921f76ce121fae5c13cd", "fusion_lon": 0.0}, {"is_reserved": 0, "type": "electric_scooter", "bike_id": "e94c52401bb420060f9cf711a6160b4a", "lat": 38.93591966666666, "lon": -77.033619, "rental_uris": {"android": "https://dc.lft.to/lastmile_qr_scan", "ios": "https://dc.lft.to/lastmile_qr_scan"}, "is_disabled": 0, "fusion_lat": 0.0, "name": "e94c52401bb420060f9cf711a6160b4a", "fusion_lon": 0.0}, {"is_reserved": 0, "type": "electric_scooter", "bike_id": "fb226a19762c7428851f6124686e3413", "lat": 38.91711733333333, "lon": -77.04033183333334, "rental_uris": {"android": "https://dc.lft.to/lastmile_qr_scan", "ios": "https://dc.lft.to/lastmile_qr_scan"}, "is_disabled": 0, "fusion_lat": 0.0, "name": "fb226a19762c7428851f6124686e3413", "fusion_lon": 0.0}, {"is_reserved": 0, "type": "electric_scooter", "bike_id": "7852d634ad33817a55498a44d4f613e7", "lat": 38.923320833333335, "lon": -77.05674966666666, "rental_uris": {"android": "https://dc.lft.to/lastmile_qr_scan", "ios": "https://dc.lft.to/lastmile_qr_scan"}, "is_disabled": 0, "fusion_lat": 0.0, "name": "7852d634ad33817a55498a44d4f613e7", "fusion_lon": 0.0}, {"is_reserved": 0, "type": "electric_scooter", "bike_id": "908af728d9b904ad99bc26e5a32f2011", "lat": 38.899029666666664, "lon": -76.98003533333333, "rental_uris": {"android": "https://dc.lft.to/lastmile_qr_scan", "ios": "https://dc.lft.to/lastmile_qr_scan"}, "is_disabled": 0, "fusion_lat": 0.0, "name": "908af728d9b904ad99bc26e5a32f2011", "fusion_lon": 0.0}, {"is_reserved": 0, "type": "electric_scooter", "bike_id": "ed2afc8df26e2c8072539a93bf355fe7", "lat": 38.874681333333335, "lon": -77.003381, "rental_uris": {"android": "https://dc.lft.to/lastmile_qr_scan", "ios": "https://dc.lft.to/lastmile_qr_scan"}, "is_disabled": 0, "fusion_lat": 0.0, "name": "ed2afc8df26e2c8072539a93bf355fe7", "fusion_lon": 0.0}, {"is_reserved": 0, "type": "electric_scooter", "bike_id": "8e73dc6994cbaeceb161ae5ac736ae92", "lat": 38.9085835, "lon": -77.04743316666666, "rental_uris": {"android": "https://dc.lft.to/lastmile_qr_scan", "ios": "https://dc.lft.to/lastmile_qr_scan"}, "is_disabled": 0, "fusion_lat": 0.0, "name": "8e73dc6994cbaeceb161ae5ac736ae92", "fusion_lon": 0.0}, {"is_reserved": 0, "type": "electric_bike", "bike_id": "e72a9096ac6cb01276ab1078f16b0947", "lat": 38.81940616666667, "lon": -77.00202366666667, "rental_uris": {"android": "https://dc.lft.to/lastmile_qr_scan", "ios": "https://dc.lft.to/lastmile_qr_scan"}, "is_disabled": 0, "fusion_lat": 0.0, "name": "e72a9096ac6cb01276ab1078f16b0947", "fusion_lon": 0.0}, {"is_reserved": 0, "type": "electric_scooter", "bike_id": "dae7f8937f7d803c271bcebfbbd5ffe1", "lat": 38.934576166666666, "lon": -77.020907, "rental_uris": {"android": "https://dc.lft.to/lastmile_qr_scan", "ios": "https://dc.lft.to/lastmile_qr_scan"}, "is_disabled": 0, "fusion_lat": 0.0, "name": "dae7f8937f7d803c271bcebfbbd5ffe1", "fusion_lon": 0.0}, {"is_reserved": 0, "type": "electric_scooter", "bike_id": "58b421219e55838763aca96d0c3c5ece", "lat": 38.907968, "lon": -77.044908, "rental_uris": {"android": "https://dc.lft.to/lastmile_qr_scan", "ios": "https://dc.lft.to/lastmile_qr_scan"}, "is_disabled": 0, "fusion_lat": 0.0, "name": "58b421219e55838763aca96d0c3c5ece", "fusion_lon": 0.0}, {"is_reserved": 0, "type": "electric_scooter", "bike_id": "0f551c81a425627cb04cd28208fb1497", "lat": 38.88988783333333, "lon": -76.99298766666666, "rental_uris": {"android": "https://dc.lft.to/lastmile_qr_scan", "ios": "https://dc.lft.to/lastmile_qr_scan"}, "is_disabled": 0, "fusion_lat": 0.0, "name": "0f551c81a425627cb04cd28208fb1497", "fusion_lon": 0.0}, {"is_reserved": 0, "type": "electric_scooter", "bike_id": "e96812ef7177f1903777431f1a468bb9", "lat": 38.88662933333333, "lon": -76.936747, "rental_uris": {"android": "https://dc.lft.to/lastmile_qr_scan", "ios": "https://dc.lft.to/lastmile_qr_scan"}, "is_disabled": 0, "fusion_lat": 0.0, "name": "e96812ef7177f1903777431f1a468bb9", "fusion_lon": 0.0}, {"is_reserved": 0, "type": "electric_scooter", "bike_id": "d5eaaba82892f1101319d7414d05350c", "lat": 38.88280783333333, "lon": -76.99485283333334, "rental_uris": {"android": "https://dc.lft.to/lastmile_qr_scan", "ios": "https://dc.lft.to/lastmile_qr_scan"}, "is_disabled": 0, "fusion_lat": 0.0, "name": "d5eaaba82892f1101319d7414d05350c", "fusion_lon": 0.0}, {"is_reserved": 0, "type": "electric_bike", "bike_id": "4e768267d6a258c019cb7aa56daf906a", "lat": 38.9453995, "lon": -77.34457966666666, "rental_uris": {"android": "https://dc.lft.to/lastmile_qr_scan", "ios": "https://dc.lft.to/lastmile_qr_scan"}, "is_disabled": 0, "fusion_lat": 0.0, "name": "4e768267d6a258c019cb7aa56daf906a", "fusion_lon": 0.0}, {"is_reserved": 0, "type": "electric_bike", "bike_id": "fccbe3c3681d0f9b474cc465162ee179", "lat": 39.08430233333333, "lon": -76.95147616666667, "rental_uris": {"android": "https://dc.lft.to/lastmile_qr_scan", "ios": "https://dc.lft.to/lastmile_qr_scan"}, "is_disabled": 0, "fusion_lat": 0.0, "name": "fccbe3c3681d0f9b474cc465162ee179", "fusion_lon": 0.0}, {"is_reserved": 0, "type": "electric_scooter", "bike_id": "e75989eec98c2e0da7fa5d36c78d83d6", "lat": 38.900813, "lon": -76.925727, "rental_uris": {"android": "https://dc.lft.to/lastmile_qr_scan", "ios": "https://dc.lft.to/lastmile_qr_scan"}, "is_disabled": 0, "fusion_lat": 0.0, "name": "e75989eec98c2e0da7fa5d36c78d83d6", "fusion_lon": 0.0}, {"is_reserved": 0, "type": "electric_scooter", "bike_id": "c7f703d2666f05cb3e0382d936dbd106", "lat": 38.93637433333333, "lon": -77.0831925, "rental_uris": {"android": "https://dc.lft.to/lastmile_qr_scan", "ios": "https://dc.lft.to/lastmile_qr_scan"}, "is_disabled": 0, "fusion_lat": 0.0, "name": "c7f703d2666f05cb3e0382d936dbd106", "fusion_lon": 0.0}, {"is_reserved": 0, "type": "electric_scooter", "bike_id": "95e7b6b01b65b2b5f94681803745a916", "lat": 38.90786466666667, "lon": -77.04798216666667, "rental_uris": {"android": "https://dc.lft.to/lastmile_qr_scan", "ios": "https://dc.lft.to/lastmile_qr_scan"}, "is_disabled": 0, "fusion_lat": 0.0, "name": "95e7b6b01b65b2b5f94681803745a916", "fusion_lon": 0.0}, {"is_reserved": 0, "type": "electric_scooter", "bike_id": "955839920a3c1b5202539db3b39f3a6a", "lat": 38.892739166666665, "lon": -77.031971, "rental_uris": {"android": "https://dc.lft.to/lastmile_qr_scan", "ios": "https://dc.lft.to/lastmile_qr_scan"}, "is_disabled": 0, "fusion_lat": 0.0, "name": "955839920a3c1b5202539db3b39f3a6a", "fusion_lon": 0.0}, {"is_reserved": 0, "type": "electric_scooter", "bike_id": "0f68c90091e73dc9f5e0ef3d1467f6d3", "lat": 38.928737166666664, "lon": -77.05384633333334, "rental_uris": {"android": "https://dc.lft.to/lastmile_qr_scan", "ios": "https://dc.lft.to/lastmile_qr_scan"}, "is_disabled": 0, "fusion_lat": 0.0, "name": "0f68c90091e73dc9f5e0ef3d1467f6d3", "fusion_lon": 0.0}, {"is_reserved": 0, "type": "electric_scooter", "bike_id": "113a66ea4d3b5e754dd36368c7083a52", "lat": 38.905374333333334, "lon": -77.05811383333334, "rental_uris": {"android": "https://dc.lft.to/lastmile_qr_scan", "ios": "https://dc.lft.to/lastmile_qr_scan"}, "is_disabled": 0, "fusion_lat": 0.0, "name": "113a66ea4d3b5e754dd36368c7083a52", "fusion_lon": 0.0}, {"is_reserved": 0, "type": "electric_scooter", "bike_id": "c5c11280307dfb4da5672c57c8bbebce", "lat": 38.91123566666667, "lon": -77.04358133333334, "rental_uris": {"android": "https://dc.lft.to/lastmile_qr_scan", "ios": "https://dc.lft.to/lastmile_qr_scan"}, "is_disabled": 0, "fusion_lat": 0.0, "name": "c5c11280307dfb4da5672c57c8bbebce", "fusion_lon": 0.0}, {"is_reserved": 0, "type": "electric_scooter", "bike_id": "e29789531e9eee27a4f270325abb889c", "lat": 38.90543616666667, "lon": -77.05920433333333, "rental_uris": {"android": "https://dc.lft.to/lastmile_qr_scan", "ios": "https://dc.lft.to/lastmile_qr_scan"}, "is_disabled": 0, "fusion_lat": 0.0, "name": "e29789531e9eee27a4f270325abb889c", "fusion_lon": 0.0}, {"is_reserved": 0, "type": "electric_scooter", "bike_id": "c708ddc1f606247c986d955d263dd401", "lat": 38.92748133333333, "lon": -77.03424866666667, "rental_uris": {"android": "https://dc.lft.to/lastmile_qr_scan", "ios": "https://dc.lft.to/lastmile_qr_scan"}, "is_disabled": 0, "fusion_lat": 0.0, "name": "c708ddc1f606247c986d955d263dd401", "fusion_lon": 0.0}, {"is_reserved": 0, "type": "electric_scooter", "bike_id": "33508d3e3288918b4f429d66e094b2ee", "lat": 38.920770166666664, "lon": -77.02337816666666, "rental_uris": {"android": "https://dc.lft.to/lastmile_qr_scan", "ios": "https://dc.lft.to/lastmile_qr_scan"}, "is_disabled": 0, "fusion_lat": 0.0, "name": "33508d3e3288918b4f429d66e094b2ee", "fusion_lon": 0.0}, {"is_reserved": 0, "type": "electric_scooter", "bike_id": "f291fea5fae4b2263a6710626f305f61", "lat": 38.91511583333333, "lon": -77.00340283333334, "rental_uris": {"android": "https://dc.lft.to/lastmile_qr_scan", "ios": "https://dc.lft.to/lastmile_qr_scan"}, "is_disabled": 0, "fusion_lat": 0.0, "name": "f291fea5fae4b2263a6710626f305f61", "fusion_lon": 0.0}, {"is_reserved": 0, "type": "electric_scooter", "bike_id": "258e9e10344da8ed9fb1a2dbae4c3577", "lat": 38.895961, "lon": -76.92986616666667, "rental_uris": {"android": "https://dc.lft.to/lastmile_qr_scan", "ios": "https://dc.lft.to/lastmile_qr_scan"}, "is_disabled": 0, "fusion_lat": 0.0, "name": "258e9e10344da8ed9fb1a2dbae4c3577", "fusion_lon": 0.0}, {"is_reserved": 0, "type": "electric_scooter", "bike_id": "486653e2919d670f1eb1b68183168e2c", "lat": 38.905367, "lon": -76.98830133333334, "rental_uris": {"android": "https://dc.lft.to/lastmile_qr_scan", "ios": "https://dc.lft.to/lastmile_qr_scan"}, "is_disabled": 0, "fusion_lat": 0.0, "name": "486653e2919d670f1eb1b68183168e2c", "fusion_lon": 0.0}, {"is_reserved": 0, "type": "electric_scooter", "bike_id": "fbfa4d898e50cdfcc08182c1677102c9", "lat": 38.902744, "lon": -77.01727683333333, "rental_uris": {"android": "https://dc.lft.to/lastmile_qr_scan", "ios": "https://dc.lft.to/lastmile_qr_scan"}, "is_disabled": 0, "fusion_lat": 0.0, "name": "fbfa4d898e50cdfcc08182c1677102c9", "fusion_lon": 0.0}, {"is_reserved": 0, "type": "electric_scooter", "bike_id": "d13dbfb4dcf7ae2ba3bd9b736ffa1dcd", "lat": 38.918162333333335, "lon": -77.04529116666667, "rental_uris": {"android": "https://dc.lft.to/lastmile_qr_scan", "ios": "https://dc.lft.to/lastmile_qr_scan"}, "is_disabled": 0, "fusion_lat": 0.0, "name": "d13dbfb4dcf7ae2ba3bd9b736ffa1dcd", "fusion_lon": 0.0}, {"is_reserved": 0, "type": "electric_scooter", "bike_id": "9e2500d9a49683444fbdc10f4d392240", "lat": 38.899637166666665, "lon": -77.02640733333334, "rental_uris": {"android": "https://dc.lft.to/lastmile_qr_scan", "ios": "https://dc.lft.to/lastmile_qr_scan"}, "is_disabled": 0, "fusion_lat": 0.0, "name": "9e2500d9a49683444fbdc10f4d392240", "fusion_lon": 0.0}, {"is_reserved": 0, "type": "electric_bike", "bike_id": "d9136d51cba9a937ba4593e15e83ba98", "lat": 38.949139, "lon": -77.02420383333333, "rental_uris": {"android": "https://dc.lft.to/lastmile_qr_scan", "ios": "https://dc.lft.to/lastmile_qr_scan"}, "is_disabled": 0, "fusion_lat": 0.0, "name": "d9136d51cba9a937ba4593e15e83ba98", "fusion_lon": 0.0}, {"is_reserved": 0, "type": "electric_scooter", "bike_id": "ce37c47ce562c3504939d296a51810c2", "lat": 38.91416666666667, "lon": -77.0188045, "rental_uris": {"android": "https://dc.lft.to/lastmile_qr_scan", "ios": "https://dc.lft.to/lastmile_qr_scan"}, "is_disabled": 0, "fusion_lat": 0.0, "name": "ce37c47ce562c3504939d296a51810c2", "fusion_lon": 0.0}, {"is_reserved": 0, "type": "electric_bike", "bike_id": "a58ad797f90cae68faa21f8141bf6021", "lat": 38.909799, "lon": -76.98520533333334, "rental_uris": {"android": "https://dc.lft.to/lastmile_qr_scan", "ios": "https://dc.lft.to/lastmile_qr_scan"}, "is_disabled": 0, "fusion_lat": 0.0, "name": "a58ad797f90cae68faa21f8141bf6021", "fusion_lon": 0.0}, {"is_reserved": 0, "type": "electric_scooter", "bike_id": "21cbf65320af7101abb0a6441d1127e3", "lat": 38.925094666666666, "lon": -77.0216665, "rental_uris": {"android": "https://dc.lft.to/lastmile_qr_scan", "ios": "https://dc.lft.to/lastmile_qr_scan"}, "is_disabled": 0, "fusion_lat": 0.0, "name": "21cbf65320af7101abb0a6441d1127e3", "fusion_lon": 0.0}, {"is_reserved": 0, "type": "electric_scooter", "bike_id": "d06ffe894b883e2f5291f143bba79055", "lat": 38.9122695, "lon": -77.0456225, "rental_uris": {"android": "https://dc.lft.to/lastmile_qr_scan", "ios": "https://dc.lft.to/lastmile_qr_scan"}, "is_disabled": 0, "fusion_lat": 0.0, "name": "d06ffe894b883e2f5291f143bba79055", "fusion_lon": 0.0}, {"is_reserved": 0, "type": "electric_scooter", "bike_id": "dda7c62022a55592ee6de7d9bb113d76", "lat": 38.9212685, "lon": -77.04590266666666, "rental_uris": {"android": "https://dc.lft.to/lastmile_qr_scan", "ios": "https://dc.lft.to/lastmile_qr_scan"}, "is_disabled": 0, "fusion_lat": 0.0, "name": "dda7c62022a55592ee6de7d9bb113d76", "fusion_lon": 0.0}, {"is_reserved": 0, "type": "electric_scooter", "bike_id": "8bce1221b043018022265a46f0b0df3c", "lat": 38.946609333333335, "lon": -77.032865, "rental_uris": {"android": "https://dc.lft.to/lastmile_qr_scan", "ios": "https://dc.lft.to/lastmile_qr_scan"}, "is_disabled": 0, "fusion_lat": 0.0, "name": "8bce1221b043018022265a46f0b0df3c", "fusion_lon": 0.0}, {"is_reserved": 0, "type": "electric_scooter", "bike_id": "618d91f6f911bdf3e0643bbc07abd930", "lat": 38.93656466666667, "lon": -77.036773, "rental_uris": {"android": "https://dc.lft.to/lastmile_qr_scan", "ios": "https://dc.lft.to/lastmile_qr_scan"}, "is_disabled": 0, "fusion_lat": 0.0, "name": "618d91f6f911bdf3e0643bbc07abd930", "fusion_lon": 0.0}, {"is_reserved": 0, "type": "electric_scooter", "bike_id": "70312f163b793cd51a2bede52fb4745a", "lat": 38.900321166666664, "lon": -76.99149166666666, "rental_uris": {"android": "https://dc.lft.to/lastmile_qr_scan", "ios": "https://dc.lft.to/lastmile_qr_scan"}, "is_disabled": 0, "fusion_lat": 0.0, "name": "70312f163b793cd51a2bede52fb4745a", "fusion_lon": 0.0}, {"is_reserved": 0, "type": "electric_scooter", "bike_id": "f27864f394d9a36015d4db4e16ffcdb4", "lat": 38.9389885, "lon": -77.03339483333333, "rental_uris": {"android": "https://dc.lft.to/lastmile_qr_scan", "ios": "https://dc.lft.to/lastmile_qr_scan"}, "is_disabled": 0, "fusion_lat": 0.0, "name": "f27864f394d9a36015d4db4e16ffcdb4", "fusion_lon": 0.0}, {"is_reserved": 0, "type": "electric_scooter", "bike_id": "d7d1fbbf6de015b72ab294669579014a", "lat": 38.902961166666664, "lon": -77.002132, "rental_uris": {"android": "https://dc.lft.to/lastmile_qr_scan", "ios": "https://dc.lft.to/lastmile_qr_scan"}, "is_disabled": 0, "fusion_lat": 0.0, "name": "d7d1fbbf6de015b72ab294669579014a", "fusion_lon": 0.0}, {"is_reserved": 0, "type": "electric_scooter", "bike_id": "ef02078da3f262d1bada956da22e1fa7", "lat": 38.899101, "lon": -76.93369216666666, "rental_uris": {"android": "https://dc.lft.to/lastmile_qr_scan", "ios": "https://dc.lft.to/lastmile_qr_scan"}, "is_disabled": 0, "fusion_lat": 0.0, "name": "ef02078da3f262d1bada956da22e1fa7", "fusion_lon": 0.0}, {"is_reserved": 0, "type": "electric_scooter", "bike_id": "f4608034faff4674c6c3f02a01426091", "lat": 38.89988533333333, "lon": -77.02283566666667, "rental_uris": {"android": "https://dc.lft.to/lastmile_qr_scan", "ios": "https://dc.lft.to/lastmile_qr_scan"}, "is_disabled": 0, "fusion_lat": 0.0, "name": "f4608034faff4674c6c3f02a01426091", "fusion_lon": 0.0}, {"is_reserved": 0, "type": "electric_bike", "bike_id": "77b8f2f887108f4152e2c9e5501a52b4", "lat": 38.94259383333333, "lon": -76.99070283333333, "rental_uris": {"android": "https://dc.lft.to/lastmile_qr_scan", "ios": "https://dc.lft.to/lastmile_qr_scan"}, "is_disabled": 0, "fusion_lat": 0.0, "name": "77b8f2f887108f4152e2c9e5501a52b4", "fusion_lon": 0.0}, {"is_reserved": 0, "type": "electric_scooter", "bike_id": "b3451fad561a08b5fc801379b1e61a6c", "lat": 38.893909, "lon": -77.022609, "rental_uris": {"android": "https://dc.lft.to/lastmile_qr_scan", "ios": "https://dc.lft.to/lastmile_qr_scan"}, "is_disabled": 0, "fusion_lat": 0.0, "name": "b3451fad561a08b5fc801379b1e61a6c", "fusion_lon": 0.0}, {"is_reserved": 0, "type": "electric_scooter", "bike_id": "2798d0fe088e3621715f713c56adb463", "lat": 38.9160005, "lon": -77.02005516666667, "rental_uris": {"android": "https://dc.lft.to/lastmile_qr_scan", "ios": "https://dc.lft.to/lastmile_qr_scan"}, "is_disabled": 0, "fusion_lat": 0.0, "name": "2798d0fe088e3621715f713c56adb463", "fusion_lon": 0.0}, {"is_reserved": 0, "type": "electric_scooter", "bike_id": "63964ebc61a9649c91f4092348e21b37", "lat": 38.9162235, "lon": -77.00764133333334, "rental_uris": {"android": "https://dc.lft.to/lastmile_qr_scan", "ios": "https://dc.lft.to/lastmile_qr_scan"}, "is_disabled": 0, "fusion_lat": 0.0, "name": "63964ebc61a9649c91f4092348e21b37", "fusion_lon": 0.0}, {"is_reserved": 0, "type": "electric_scooter", "bike_id": "860fe12a43d66cd75d820ad106495d56", "lat": 38.88510983333333, "lon": -77.02169883333333, "rental_uris": {"android": "https://dc.lft.to/lastmile_qr_scan", "ios": "https://dc.lft.to/lastmile_qr_scan"}, "is_disabled": 0, "fusion_lat": 0.0, "name": "860fe12a43d66cd75d820ad106495d56", "fusion_lon": 0.0}, {"is_reserved": 0, "type": "electric_scooter", "bike_id": "dd43d6d1d94618389dfee307a4b120aa", "lat": 38.925829, "lon": -77.0294345, "rental_uris": {"android": "https://dc.lft.to/lastmile_qr_scan", "ios": "https://dc.lft.to/lastmile_qr_scan"}, "is_disabled": 0, "fusion_lat": 0.0, "name": "dd43d6d1d94618389dfee307a4b120aa", "fusion_lon": 0.0}, {"is_reserved": 0, "type": "electric_scooter", "bike_id": "b9c71f6b918c26e8e5fcb73aa4cb3b6a", "lat": 38.921155, "lon": -77.03207416666666, "rental_uris": {"android": "https://dc.lft.to/lastmile_qr_scan", "ios": "https://dc.lft.to/lastmile_qr_scan"}, "is_disabled": 0, "fusion_lat": 0.0, "name": "b9c71f6b918c26e8e5fcb73aa4cb3b6a", "fusion_lon": 0.0}, {"is_reserved": 0, "type": "electric_scooter", "bike_id": "50d28ff7c32ad2b91f47320a5e2b8dbd", "lat": 38.91269366666667, "lon": -77.0373705, "rental_uris": {"android": "https://dc.lft.to/lastmile_qr_scan", "ios": "https://dc.lft.to/lastmile_qr_scan"}, "is_disabled": 0, "fusion_lat": 0.0, "name": "50d28ff7c32ad2b91f47320a5e2b8dbd", "fusion_lon": 0.0}, {"is_reserved": 0, "type": "electric_scooter", "bike_id": "7ff419ca7c083fc2cb3954b8c478d19c", "lat": 38.8948345, "lon": -77.04997966666667, "rental_uris": {"android": "https://dc.lft.to/lastmile_qr_scan", "ios": "https://dc.lft.to/lastmile_qr_scan"}, "is_disabled": 0, "fusion_lat": 0.0, "name": "7ff419ca7c083fc2cb3954b8c478d19c", "fusion_lon": 0.0}, {"is_reserved": 0, "type": "electric_scooter", "bike_id": "53dfa97218c5b074bfc026118bc8751c", "lat": 38.919949, "lon": -77.02529016666666, "rental_uris": {"android": "https://dc.lft.to/lastmile_qr_scan", "ios": "https://dc.lft.to/lastmile_qr_scan"}, "is_disabled": 0, "fusion_lat": 0.0, "name": "53dfa97218c5b074bfc026118bc8751c", "fusion_lon": 0.0}, {"is_reserved": 0, "type": "electric_scooter", "bike_id": "2290e8fd57a69d0585dcd1fa1b9cb471", "lat": 38.913487, "lon": -77.0434805, "rental_uris": {"android": "https://dc.lft.to/lastmile_qr_scan", "ios": "https://dc.lft.to/lastmile_qr_scan"}, "is_disabled": 0, "fusion_lat": 0.0, "name": "2290e8fd57a69d0585dcd1fa1b9cb471", "fusion_lon": 0.0}, {"is_reserved": 0, "type": "electric_scooter", "bike_id": "360d2b140ee5c6294c4fd6bd00c2cba9", "lat": 38.94322833333333, "lon": -77.0758145, "rental_uris": {"android": "https://dc.lft.to/lastmile_qr_scan", "ios": "https://dc.lft.to/lastmile_qr_scan"}, "is_disabled": 0, "fusion_lat": 0.0, "name": "360d2b140ee5c6294c4fd6bd00c2cba9", "fusion_lon": 0.0}, {"is_reserved": 0, "type": "electric_scooter", "bike_id": "173c9d50ef5d58347f75e2dc1d6743f2", "lat": 38.90408733333334, "lon": -77.0275045, "rental_uris": {"android": "https://dc.lft.to/lastmile_qr_scan", "ios": "https://dc.lft.to/lastmile_qr_scan"}, "is_disabled": 0, "fusion_lat": 0.0, "name": "173c9d50ef5d58347f75e2dc1d6743f2", "fusion_lon": 0.0}, {"is_reserved": 0, "type": "electric_scooter", "bike_id": "2fff36b22157921cd2d49185bd119d9e", "lat": 38.901672833333336, "lon": -77.01906283333334, "rental_uris": {"android": "https://dc.lft.to/lastmile_qr_scan", "ios": "https://dc.lft.to/lastmile_qr_scan"}, "is_disabled": 0, "fusion_lat": 0.0, "name": "2fff36b22157921cd2d49185bd119d9e", "fusion_lon": 0.0}, {"is_reserved": 0, "type": "electric_scooter", "bike_id": "52d91a6b54fe9b7a180cfc39b84d2dc1", "lat": 38.90793016666667, "lon": -77.00943516666666, "rental_uris": {"android": "https://dc.lft.to/lastmile_qr_scan", "ios": "https://dc.lft.to/lastmile_qr_scan"}, "is_disabled": 0, "fusion_lat": 0.0, "name": "52d91a6b54fe9b7a180cfc39b84d2dc1", "fusion_lon": 0.0}, {"is_reserved": 0, "type": "electric_scooter", "bike_id": "504095029049014a97603fc889198704", "lat": 38.92661616666667, "lon": -77.03622016666667, "rental_uris": {"android": "https://dc.lft.to/lastmile_qr_scan", "ios": "https://dc.lft.to/lastmile_qr_scan"}, "is_disabled": 0, "fusion_lat": 0.0, "name": "504095029049014a97603fc889198704", "fusion_lon": 0.0}, {"is_reserved": 0, "type": "electric_scooter", "bike_id": "aa25e5f7114af28dd156302c7d9021da", "lat": 38.90059733333333, "lon": -77.0177545, "rental_uris": {"android": "https://dc.lft.to/lastmile_qr_scan", "ios": "https://dc.lft.to/lastmile_qr_scan"}, "is_disabled": 0, "fusion_lat": 0.0, "name": "aa25e5f7114af28dd156302c7d9021da", "fusion_lon": 0.0}, {"is_reserved": 0, "type": "electric_scooter", "bike_id": "867ffc32796b965a37dda0e66fd448af", "lat": 38.91695166666667, "lon": -77.052978, "rental_uris": {"android": "https://dc.lft.to/lastmile_qr_scan", "ios": "https://dc.lft.to/lastmile_qr_scan"}, "is_disabled": 0, "fusion_lat": 0.0, "name": "867ffc32796b965a37dda0e66fd448af", "fusion_lon": 0.0}, {"is_reserved": 0, "type": "electric_scooter", "bike_id": "6714993e1342eb60fee5aee51d1e17bb", "lat": 38.93382166666667, "lon": -77.0203365, "rental_uris": {"android": "https://dc.lft.to/lastmile_qr_scan", "ios": "https://dc.lft.to/lastmile_qr_scan"}, "is_disabled": 0, "fusion_lat": 0.0, "name": "6714993e1342eb60fee5aee51d1e17bb", "fusion_lon": 0.0}, {"is_reserved": 0, "type": "electric_scooter", "bike_id": "01b5f27a9263d7beb6d09537cabc321f", "lat": 38.932586, "lon": -77.03281416666667, "rental_uris": {"android": "https://dc.lft.to/lastmile_qr_scan", "ios": "https://dc.lft.to/lastmile_qr_scan"}, "is_disabled": 0, "fusion_lat": 0.0, "name": "01b5f27a9263d7beb6d09537cabc321f", "fusion_lon": 0.0}, {"is_reserved": 0, "type": "electric_scooter", "bike_id": "58e3679e014b48fd88d6de8e73274661", "lat": 38.906854833333334, "lon": -77.0271585, "rental_uris": {"android": "https://dc.lft.to/lastmile_qr_scan", "ios": "https://dc.lft.to/lastmile_qr_scan"}, "is_disabled": 0, "fusion_lat": 0.0, "name": "58e3679e014b48fd88d6de8e73274661", "fusion_lon": 0.0}, {"is_reserved": 0, "type": "electric_scooter", "bike_id": "b422bc14efd76ab3c57cbd349a550292", "lat": 38.95152516666667, "lon": -77.01867333333334, "rental_uris": {"android": "https://dc.lft.to/lastmile_qr_scan", "ios": "https://dc.lft.to/lastmile_qr_scan"}, "is_disabled": 0, "fusion_lat": 0.0, "name": "b422bc14efd76ab3c57cbd349a550292", "fusion_lon": 0.0}, {"is_reserved": 0, "type": "electric_scooter", "bike_id": "9c9ba7f948e0d8cf8c97553c1ee22115", "lat": 38.9233835, "lon": -77.056732, "rental_uris": {"android": "https://dc.lft.to/lastmile_qr_scan", "ios": "https://dc.lft.to/lastmile_qr_scan"}, "is_disabled": 0, "fusion_lat": 0.0, "name": "9c9ba7f948e0d8cf8c97553c1ee22115", "fusion_lon": 0.0}, {"is_reserved": 0, "type": "electric_scooter", "bike_id": "4025025725c3d4456560f150c6b9942e", "lat": 38.933560666666665, "lon": -77.03425016666667, "rental_uris": {"android": "https://dc.lft.to/lastmile_qr_scan", "ios": "https://dc.lft.to/lastmile_qr_scan"}, "is_disabled": 0, "fusion_lat": 0.0, "name": "4025025725c3d4456560f150c6b9942e", "fusion_lon": 0.0}, {"is_reserved": 0, "type": "electric_bike", "bike_id": "227f5db0ca5b137902d7c1947066bacd", "lat": 38.94474816666666, "lon": -76.9868845, "rental_uris": {"android": "https://dc.lft.to/lastmile_qr_scan", "ios": "https://dc.lft.to/lastmile_qr_scan"}, "is_disabled": 0, "fusion_lat": 0.0, "name": "227f5db0ca5b137902d7c1947066bacd", "fusion_lon": 0.0}, {"is_reserved": 0, "type": "electric_scooter", "bike_id": "0fa5ab634f47f547d095bf770ea980f7", "lat": 38.91916416666667, "lon": -77.04806733333334, "rental_uris": {"android": "https://dc.lft.to/lastmile_qr_scan", "ios": "https://dc.lft.to/lastmile_qr_scan"}, "is_disabled": 0, "fusion_lat": 0.0, "name": "0fa5ab634f47f547d095bf770ea980f7", "fusion_lon": 0.0}, {"is_reserved": 0, "type": "electric_scooter", "bike_id": "429dda52ee0d9aaf90cea0d48dfd448e", "lat": 38.89813683333333, "lon": -77.0237545, "rental_uris": {"android": "https://dc.lft.to/lastmile_qr_scan", "ios": "https://dc.lft.to/lastmile_qr_scan"}, "is_disabled": 0, "fusion_lat": 0.0, "name": "429dda52ee0d9aaf90cea0d48dfd448e", "fusion_lon": 0.0}, {"is_reserved": 0, "type": "electric_bike", "bike_id": "3df386b4ee08eac34b565179ebeaec51", "lat": 38.8363015, "lon": -77.0028255, "rental_uris": {"android": "https://dc.lft.to/lastmile_qr_scan", "ios": "https://dc.lft.to/lastmile_qr_scan"}, "is_disabled": 0, "fusion_lat": 0.0, "name": "3df386b4ee08eac34b565179ebeaec51", "fusion_lon": 0.0}, {"is_reserved": 0, "type": "electric_scooter", "bike_id": "ebac9b4ad629637c402a06fa579f81b4", "lat": 38.90406383333333, "lon": -77.0162365, "rental_uris": {"android": "https://dc.lft.to/lastmile_qr_scan", "ios": "https://dc.lft.to/lastmile_qr_scan"}, "is_disabled": 0, "fusion_lat": 0.0, "name": "ebac9b4ad629637c402a06fa579f81b4", "fusion_lon": 0.0}, {"is_reserved": 0, "type": "electric_scooter", "bike_id": "81ecdac8b2c76cdee10e60df96960e16", "lat": 38.93126566666667, "lon": -77.0231005, "rental_uris": {"android": "https://dc.lft.to/lastmile_qr_scan", "ios": "https://dc.lft.to/lastmile_qr_scan"}, "is_disabled": 0, "fusion_lat": 0.0, "name": "81ecdac8b2c76cdee10e60df96960e16", "fusion_lon": 0.0}, {"is_reserved": 0, "type": "electric_scooter", "bike_id": "c926632bd85bd277d3e34719b3693dc6", "lat": 38.9602145, "lon": -77.0715735, "rental_uris": {"android": "https://dc.lft.to/lastmile_qr_scan", "ios": "https://dc.lft.to/lastmile_qr_scan"}, "is_disabled": 0, "fusion_lat": 0.0, "name": "c926632bd85bd277d3e34719b3693dc6", "fusion_lon": 0.0}, {"is_reserved": 0, "type": "electric_scooter", "bike_id": "aefc98b48441598dd4f6868ba0df8d52", "lat": 38.92887966666667, "lon": -77.0327605, "rental_uris": {"android": "https://dc.lft.to/lastmile_qr_scan", "ios": "https://dc.lft.to/lastmile_qr_scan"}, "is_disabled": 0, "fusion_lat": 0.0, "name": "aefc98b48441598dd4f6868ba0df8d52", "fusion_lon": 0.0}, {"is_reserved": 0, "type": "electric_bike", "bike_id": "6ccb57deaf37566ea04bb365e0121b19", "lat": 38.877310333333334, "lon": -77.11851183333333, "rental_uris": {"android": "https://dc.lft.to/lastmile_qr_scan", "ios": "https://dc.lft.to/lastmile_qr_scan"}, "is_disabled": 0, "fusion_lat": 0.0, "name": "6ccb57deaf37566ea04bb365e0121b19", "fusion_lon": 0.0}, {"is_reserved": 0, "type": "electric_scooter", "bike_id": "62e18b692e4826b69b1332e7f1856b8d", "lat": 38.9340125, "lon": -77.0284335, "rental_uris": {"android": "https://dc.lft.to/lastmile_qr_scan", "ios": "https://dc.lft.to/lastmile_qr_scan"}, "is_disabled": 0, "fusion_lat": 0.0, "name": "62e18b692e4826b69b1332e7f1856b8d", "fusion_lon": 0.0}, {"is_reserved": 0, "type": "electric_scooter", "bike_id": "33ed1ce314fc84675be3c97704642230", "lat": 38.89241466666667, "lon": -77.04490516666667, "rental_uris": {"android": "https://dc.lft.to/lastmile_qr_scan", "ios": "https://dc.lft.to/lastmile_qr_scan"}, "is_disabled": 0, "fusion_lat": 0.0, "name": "33ed1ce314fc84675be3c97704642230", "fusion_lon": 0.0}, {"is_reserved": 0, "type": "electric_scooter", "bike_id": "76087c8fbfd925e10a709eff3c393115", "lat": 38.9337175, "lon": -77.03465066666666, "rental_uris": {"android": "https://dc.lft.to/lastmile_qr_scan", "ios": "https://dc.lft.to/lastmile_qr_scan"}, "is_disabled": 0, "fusion_lat": 0.0, "name": "76087c8fbfd925e10a709eff3c393115", "fusion_lon": 0.0}, {"is_reserved": 0, "type": "electric_scooter", "bike_id": "6ddecaf67a7d747957aa29bac21d7aa4", "lat": 38.920603, "lon": -77.02316816666666, "rental_uris": {"android": "https://dc.lft.to/lastmile_qr_scan", "ios": "https://dc.lft.to/lastmile_qr_scan"}, "is_disabled": 0, "fusion_lat": 0.0, "name": "6ddecaf67a7d747957aa29bac21d7aa4", "fusion_lon": 0.0}, {"is_reserved": 0, "type": "electric_scooter", "bike_id": "e723556ef6f2d169655c223b0ff73323", "lat": 38.9022585, "lon": -77.02865033333333, "rental_uris": {"android": "https://dc.lft.to/lastmile_qr_scan", "ios": "https://dc.lft.to/lastmile_qr_scan"}, "is_disabled": 0, "fusion_lat": 0.0, "name": "e723556ef6f2d169655c223b0ff73323", "fusion_lon": 0.0}, {"is_reserved": 0, "type": "electric_scooter", "bike_id": "00ed93181e365e681994606cfb16c9ba", "lat": 38.8988705, "lon": -76.99361833333333, "rental_uris": {"android": "https://dc.lft.to/lastmile_qr_scan", "ios": "https://dc.lft.to/lastmile_qr_scan"}, "is_disabled": 0, "fusion_lat": 0.0, "name": "00ed93181e365e681994606cfb16c9ba", "fusion_lon": 0.0}, {"is_reserved": 0, "type": "electric_scooter", "bike_id": "4c86782c2dab675b354c0773da282a21", "lat": 38.88385666666667, "lon": -77.0298195, "rental_uris": {"android": "https://dc.lft.to/lastmile_qr_scan", "ios": "https://dc.lft.to/lastmile_qr_scan"}, "is_disabled": 0, "fusion_lat": 0.0, "name": "4c86782c2dab675b354c0773da282a21", "fusion_lon": 0.0}, {"is_reserved": 0, "type": "electric_bike", "bike_id": "60f14111ca175fefebb61a7c4fd70d38", "lat": 38.94510783333333, "lon": -77.00672966666667, "rental_uris": {"android": "https://dc.lft.to/lastmile_qr_scan", "ios": "https://dc.lft.to/lastmile_qr_scan"}, "is_disabled": 0, "fusion_lat": 0.0, "name": "60f14111ca175fefebb61a7c4fd70d38", "fusion_lon": 0.0}, {"is_reserved": 0, "type": "electric_scooter", "bike_id": "919e775b5280f048e3bfe299776a8351", "lat": 38.90578283333333, "lon": -77.07284783333333, "rental_uris": {"android": "https://dc.lft.to/lastmile_qr_scan", "ios": "https://dc.lft.to/lastmile_qr_scan"}, "is_disabled": 0, "fusion_lat": 0.0, "name": "919e775b5280f048e3bfe299776a8351", "fusion_lon": 0.0}, {"is_reserved": 0, "type": "electric_scooter", "bike_id": "187fa177fbe6c592ccbff94f8f9db221", "lat": 38.89831083333333, "lon": -77.02803883333333, "rental_uris": {"android": "https://dc.lft.to/lastmile_qr_scan", "ios": "https://dc.lft.to/lastmile_qr_scan"}, "is_disabled": 0, "fusion_lat": 0.0, "name": "187fa177fbe6c592ccbff94f8f9db221", "fusion_lon": 0.0}, {"is_reserved": 0, "type": "electric_scooter", "bike_id": "6537f73385a092057eee42bac2623705", "lat": 38.909969, "lon": -77.04004283333333, "rental_uris": {"android": "https://dc.lft.to/lastmile_qr_scan", "ios": "https://dc.lft.to/lastmile_qr_scan"}, "is_disabled": 0, "fusion_lat": 0.0, "name": "6537f73385a092057eee42bac2623705", "fusion_lon": 0.0}, {"is_reserved": 0, "type": "electric_scooter", "bike_id": "ff43b0f96d34905e0c6c6e49f9a64e8e", "lat": 38.90429316666667, "lon": -77.0270675, "rental_uris": {"android": "https://dc.lft.to/lastmile_qr_scan", "ios": "https://dc.lft.to/lastmile_qr_scan"}, "is_disabled": 0, "fusion_lat": 0.0, "name": "ff43b0f96d34905e0c6c6e49f9a64e8e", "fusion_lon": 0.0}, {"is_reserved": 0, "type": "electric_bike", "bike_id": "5fd40915d96d3bf4b2638cfa9196e81c", "lat": 38.899099, "lon": -76.93347, "rental_uris": {"android": "https://dc.lft.to/lastmile_qr_scan", "ios": "https://dc.lft.to/lastmile_qr_scan"}, "is_disabled": 0, "fusion_lat": 0.0, "name": "5fd40915d96d3bf4b2638cfa9196e81c", "fusion_lon": 0.0}, {"is_reserved": 0, "type": "electric_scooter", "bike_id": "e1b424738574a845fc0387effaff4c69", "lat": 38.8975255, "lon": -77.001982, "rental_uris": {"android": "https://dc.lft.to/lastmile_qr_scan", "ios": "https://dc.lft.to/lastmile_qr_scan"}, "is_disabled": 0, "fusion_lat": 0.0, "name": "e1b424738574a845fc0387effaff4c69", "fusion_lon": 0.0}, {"is_reserved": 0, "type": "electric_scooter", "bike_id": "a5659df73d295fcee7e028f454b11211", "lat": 38.87840716666667, "lon": -77.01968266666667, "rental_uris": {"android": "https://dc.lft.to/lastmile_qr_scan", "ios": "https://dc.lft.to/lastmile_qr_scan"}, "is_disabled": 0, "fusion_lat": 0.0, "name": "a5659df73d295fcee7e028f454b11211", "fusion_lon": 0.0}, {"is_reserved": 0, "type": "electric_bike", "bike_id": "cdac729529bdc0b58c027b430d362e40", "lat": 38.937620833333334, "lon": -77.03637716666667, "rental_uris": {"android": "https://dc.lft.to/lastmile_qr_scan", "ios": "https://dc.lft.to/lastmile_qr_scan"}, "is_disabled": 0, "fusion_lat": 0.0, "name": "cdac729529bdc0b58c027b430d362e40", "fusion_lon": 0.0}, {"is_reserved": 0, "type": "electric_scooter", "bike_id": "8454fa4e321847738e6e0e23936844f6", "lat": 38.89480016666667, "lon": -76.99571, "rental_uris": {"android": "https://dc.lft.to/lastmile_qr_scan", "ios": "https://dc.lft.to/lastmile_qr_scan"}, "is_disabled": 0, "fusion_lat": 0.0, "name": "8454fa4e321847738e6e0e23936844f6", "fusion_lon": 0.0}, {"is_reserved": 0, "type": "electric_scooter", "bike_id": "9692c85bab06cb82ccfaa9e41a59e791", "lat": 38.90403766666667, "lon": -77.02675516666666, "rental_uris": {"android": "https://dc.lft.to/lastmile_qr_scan", "ios": "https://dc.lft.to/lastmile_qr_scan"}, "is_disabled": 0, "fusion_lat": 0.0, "name": "9692c85bab06cb82ccfaa9e41a59e791", "fusion_lon": 0.0}, {"is_reserved": 0, "type": "electric_scooter", "bike_id": "6bb68402e9375d4a408f10fa1d198adf", "lat": 38.89269683333333, "lon": -76.93007066666667, "rental_uris": {"android": "https://dc.lft.to/lastmile_qr_scan", "ios": "https://dc.lft.to/lastmile_qr_scan"}, "is_disabled": 0, "fusion_lat": 0.0, "name": "6bb68402e9375d4a408f10fa1d198adf", "fusion_lon": 0.0}, {"is_reserved": 0, "type": "electric_scooter", "bike_id": "e9f66c5069a2a2c81ca7a59d4b88fc65", "lat": 38.903107, "lon": -77.05333583333334, "rental_uris": {"android": "https://dc.lft.to/lastmile_qr_scan", "ios": "https://dc.lft.to/lastmile_qr_scan"}, "is_disabled": 0, "fusion_lat": 0.0, "name": "e9f66c5069a2a2c81ca7a59d4b88fc65", "fusion_lon": 0.0}, {"is_reserved": 0, "type": "electric_scooter", "bike_id": "dfc8ebe53534ebc7d0e640f0f6e8285d", "lat": 38.913286166666666, "lon": -77.024443, "rental_uris": {"android": "https://dc.lft.to/lastmile_qr_scan", "ios": "https://dc.lft.to/lastmile_qr_scan"}, "is_disabled": 0, "fusion_lat": 0.0, "name": "dfc8ebe53534ebc7d0e640f0f6e8285d", "fusion_lon": 0.0}, {"is_reserved": 0, "type": "electric_scooter", "bike_id": "b34da15d66fd25e260298ef03144e43f", "lat": 38.92139433333333, "lon": -77.01781883333334, "rental_uris": {"android": "https://dc.lft.to/lastmile_qr_scan", "ios": "https://dc.lft.to/lastmile_qr_scan"}, "is_disabled": 0, "fusion_lat": 0.0, "name": "b34da15d66fd25e260298ef03144e43f", "fusion_lon": 0.0}, {"is_reserved": 0, "type": "electric_scooter", "bike_id": "3c335adf6c64b43f0349847fde0c463c", "lat": 38.88402683333333, "lon": -76.93042833333334, "rental_uris": {"android": "https://dc.lft.to/lastmile_qr_scan", "ios": "https://dc.lft.to/lastmile_qr_scan"}, "is_disabled": 0, "fusion_lat": 0.0, "name": "3c335adf6c64b43f0349847fde0c463c", "fusion_lon": 0.0}, {"is_reserved": 0, "type": "electric_scooter", "bike_id": "ec1062797f9bb362b03c580482359ec8", "lat": 38.89642283333333, "lon": -76.990348, "rental_uris": {"android": "https://dc.lft.to/lastmile_qr_scan", "ios": "https://dc.lft.to/lastmile_qr_scan"}, "is_disabled": 0, "fusion_lat": 0.0, "name": "ec1062797f9bb362b03c580482359ec8", "fusion_lon": 0.0}, {"is_reserved": 0, "type": "electric_scooter", "bike_id": "e9b841b26add215ef7ba184c5d718277", "lat": 38.89757916666667, "lon": -77.03033383333333, "rental_uris": {"android": "https://dc.lft.to/lastmile_qr_scan", "ios": "https://dc.lft.to/lastmile_qr_scan"}, "is_disabled": 0, "fusion_lat": 0.0, "name": "e9b841b26add215ef7ba184c5d718277", "fusion_lon": 0.0}, {"is_reserved": 0, "type": "electric_scooter", "bike_id": "edf3033cfb639c4137d57464b04866f5", "lat": 38.90087233333333, "lon": -77.05737383333333, "rental_uris": {"android": "https://dc.lft.to/lastmile_qr_scan", "ios": "https://dc.lft.to/lastmile_qr_scan"}, "is_disabled": 0, "fusion_lat": 0.0, "name": "edf3033cfb639c4137d57464b04866f5", "fusion_lon": 0.0}, {"is_reserved": 0, "type": "electric_scooter", "bike_id": "41cfdff9d66bfe324c07c85de2303d71", "lat": 38.92967733333333, "lon": -77.03929283333333, "rental_uris": {"android": "https://dc.lft.to/lastmile_qr_scan", "ios": "https://dc.lft.to/lastmile_qr_scan"}, "is_disabled": 0, "fusion_lat": 0.0, "name": "41cfdff9d66bfe324c07c85de2303d71", "fusion_lon": 0.0}, {"is_reserved": 0, "type": "electric_scooter", "bike_id": "795b95d610bfa8b701204111d25b73c4", "lat": 38.9087735, "lon": -76.9913125, "rental_uris": {"android": "https://dc.lft.to/lastmile_qr_scan", "ios": "https://dc.lft.to/lastmile_qr_scan"}, "is_disabled": 0, "fusion_lat": 0.0, "name": "795b95d610bfa8b701204111d25b73c4", "fusion_lon": 0.0}, {"is_reserved": 0, "type": "electric_scooter", "bike_id": "12360baece421416e703b9503d4c7ee5", "lat": 38.89683566666667, "lon": -76.93533766666667, "rental_uris": {"android": "https://dc.lft.to/lastmile_qr_scan", "ios": "https://dc.lft.to/lastmile_qr_scan"}, "is_disabled": 0, "fusion_lat": 0.0, "name": "12360baece421416e703b9503d4c7ee5", "fusion_lon": 0.0}, {"is_reserved": 0, "type": "electric_scooter", "bike_id": "9758b6ca45b1358c7b9b0a7668c90c5d", "lat": 38.8961625, "lon": -76.97683833333333, "rental_uris": {"android": "https://dc.lft.to/lastmile_qr_scan", "ios": "https://dc.lft.to/lastmile_qr_scan"}, "is_disabled": 0, "fusion_lat": 0.0, "name": "9758b6ca45b1358c7b9b0a7668c90c5d", "fusion_lon": 0.0}, {"is_reserved": 0, "type": "electric_scooter", "bike_id": "adb4d3f25db067e6f306c9c84db39113", "lat": 38.9184495, "lon": -77.02423283333333, "rental_uris": {"android": "https://dc.lft.to/lastmile_qr_scan", "ios": "https://dc.lft.to/lastmile_qr_scan"}, "is_disabled": 0, "fusion_lat": 0.0, "name": "adb4d3f25db067e6f306c9c84db39113", "fusion_lon": 0.0}, {"is_reserved": 0, "type": "electric_scooter", "bike_id": "472e56d17d4b19011a7e49dc65dbae33", "lat": 38.887225666666666, "lon": -77.01978783333334, "rental_uris": {"android": "https://dc.lft.to/lastmile_qr_scan", "ios": "https://dc.lft.to/lastmile_qr_scan"}, "is_disabled": 0, "fusion_lat": 0.0, "name": "472e56d17d4b19011a7e49dc65dbae33", "fusion_lon": 0.0}, {"is_reserved": 0, "type": "electric_scooter", "bike_id": "1c0c66c43599c0591c9f84d70c870ae1", "lat": 38.9208075, "lon": -77.07697916666666, "rental_uris": {"android": "https://dc.lft.to/lastmile_qr_scan", "ios": "https://dc.lft.to/lastmile_qr_scan"}, "is_disabled": 0, "fusion_lat": 0.0, "name": "1c0c66c43599c0591c9f84d70c870ae1", "fusion_lon": 0.0}, {"is_reserved": 0, "type": "electric_scooter", "bike_id": "fc86c40f89a7992de3e6bd0c7503bc60", "lat": 38.926502666666664, "lon": -77.040548, "rental_uris": {"android": "https://dc.lft.to/lastmile_qr_scan", "ios": "https://dc.lft.to/lastmile_qr_scan"}, "is_disabled": 0, "fusion_lat": 0.0, "name": "fc86c40f89a7992de3e6bd0c7503bc60", "fusion_lon": 0.0}, {"is_reserved": 0, "type": "electric_scooter", "bike_id": "98722e358797c7c46cf4c72615fb0b0d", "lat": 38.89386016666667, "lon": -76.97821616666667, "rental_uris": {"android": "https://dc.lft.to/lastmile_qr_scan", "ios": "https://dc.lft.to/lastmile_qr_scan"}, "is_disabled": 0, "fusion_lat": 0.0, "name": "98722e358797c7c46cf4c72615fb0b0d", "fusion_lon": 0.0}, {"is_reserved": 0, "type": "electric_scooter", "bike_id": "f6b81c3a56d123a7082be059d0446e9a", "lat": 38.92152866666667, "lon": -77.03868133333333, "rental_uris": {"android": "https://dc.lft.to/lastmile_qr_scan", "ios": "https://dc.lft.to/lastmile_qr_scan"}, "is_disabled": 0, "fusion_lat": 0.0, "name": "f6b81c3a56d123a7082be059d0446e9a", "fusion_lon": 0.0}, {"is_reserved": 0, "type": "electric_scooter", "bike_id": "45ce146ae554d07a36f6148748370a06", "lat": 38.897321166666664, "lon": -77.02373033333333, "rental_uris": {"android": "https://dc.lft.to/lastmile_qr_scan", "ios": "https://dc.lft.to/lastmile_qr_scan"}, "is_disabled": 0, "fusion_lat": 0.0, "name": "45ce146ae554d07a36f6148748370a06", "fusion_lon": 0.0}, {"is_reserved": 0, "type": "electric_scooter", "bike_id": "cc37ef507ed0cd5d2254a53695858f60", "lat": 38.901009, "lon": -77.0486585, "rental_uris": {"android": "https://dc.lft.to/lastmile_qr_scan", "ios": "https://dc.lft.to/lastmile_qr_scan"}, "is_disabled": 0, "fusion_lat": 0.0, "name": "cc37ef507ed0cd5d2254a53695858f60", "fusion_lon": 0.0}, {"is_reserved": 0, "type": "electric_scooter", "bike_id": "3245b5b5bbe5dd962d1056654e98bb91", "lat": 38.91950716666667, "lon": -77.0135475, "rental_uris": {"android": "https://dc.lft.to/lastmile_qr_scan", "ios": "https://dc.lft.to/lastmile_qr_scan"}, "is_disabled": 0, "fusion_lat": 0.0, "name": "3245b5b5bbe5dd962d1056654e98bb91", "fusion_lon": 0.0}, {"is_reserved": 0, "type": "electric_scooter", "bike_id": "99689b54cc50bbe8e305937d764d1fcf", "lat": 38.923328833333336, "lon": -77.0355835, "rental_uris": {"android": "https://dc.lft.to/lastmile_qr_scan", "ios": "https://dc.lft.to/lastmile_qr_scan"}, "is_disabled": 0, "fusion_lat": 0.0, "name": "99689b54cc50bbe8e305937d764d1fcf", "fusion_lon": 0.0}, {"is_reserved": 0, "type": "electric_scooter", "bike_id": "a044c6ba2f25e68461516a08cd668bab", "lat": 38.940781666666666, "lon": -77.054933, "rental_uris": {"android": "https://dc.lft.to/lastmile_qr_scan", "ios": "https://dc.lft.to/lastmile_qr_scan"},