{"data": {"bikes": [{"lat": 38.806823, "is_disabled": 0, "type": "electric_bike", "lon": -77.08120783333334, "bike_id": "4ec93f5259dc73395fcd60a32745bde4", "fusion_lat": 0.0, "name": "4ec93f5259dc73395fcd60a32745bde4", "is_reserved": 0, "rental_uris": {"android": "https://dc.lft.to/lastmile_qr_scan", "ios": "https://dc.lft.to/lastmile_qr_scan"}, "fusion_lon": 0.0}, {"lat": 38.90987533333333, "is_disabled": 0, "type": "electric_scooter", "lon": -77.03192966666667, "bike_id": "42ba27294b423474e72d30c02863ad5b", "fusion_lat": 0.0, "name": "42ba27294b423474e72d30c02863ad5b", "is_reserved": 0, "rental_uris": {"android": "https://dc.lft.to/lastmile_qr_scan", "ios": "https://dc.lft.to/lastmile_qr_scan"}, "fusion_lon": 0.0}, {"lat": 38.9076405, "is_disabled": 0, "type": "electric_scooter", "lon": -77.07032066666666, "bike_id": "85f644983b7685803e523deed6254509", "fusion_lat": 0.0, "name": "85f644983b7685803e523deed6254509", "is_reserved": 0, "rental_uris": {"android": "https://dc.lft.to/lastmile_qr_scan", "ios": "https://dc.lft.to/lastmile_qr_scan"}, "fusion_lon": 0.0}, {"lat": 38.903334666666666, "is_disabled": 0, "type": "electric_scooter", "lon": -76.97597316666666, "bike_id": "7ca7ca97a3fe2e8a815967dc61aa044b", "fusion_lat": 0.0, "name": "7ca7ca97a3fe2e8a815967dc61aa044b", "is_reserved": 0, "rental_uris": {"android": "https://dc.lft.to/lastmile_qr_scan", "ios": "https://dc.lft.to/lastmile_qr_scan"}, "fusion_lon": 0.0}, {"lat": 38.907326, "is_disabled": 0, "type": "electric_scooter", "lon": -76.93549733333333, "bike_id": "c7d30e02f2b673577409d796770e34b9", "fusion_lat": 0.0, "name": "c7d30e02f2b673577409d796770e34b9", "is_reserved": 0, "rental_uris": {"android": "https://dc.lft.to/lastmile_qr_scan", "ios": "https://dc.lft.to/lastmile_qr_scan"}, "fusion_lon": 0.0}, {"lat": 38.8665565, "is_disabled": 0, "type": "electric_scooter", "lon": -76.98885783333333, "bike_id": "de2c87638cd483118c00a77cc535a04e", "fusion_lat": 0.0, "name": "de2c87638cd483118c00a77cc535a04e", "is_reserved": 0, "rental_uris": {"android": "https://dc.lft.to/lastmile_qr_scan", "ios": "https://dc.lft.to/lastmile_qr_scan"}, "fusion_lon": 0.0}, {"lat": 38.9234285, "is_disabled": 0, "type": "electric_scooter", "lon": -77.03526983333333, "bike_id": "9f23da8575a13efd79ecd4ad14565c6a", "fusion_lat": 0.0, "name": "9f23da8575a13efd79ecd4ad14565c6a", "is_reserved": 0, "rental_uris": {"android": "https://dc.lft.to/lastmile_qr_scan", "ios": "https://dc.lft.to/lastmile_qr_scan"}, "fusion_lon": 0.0}, {"lat": 38.9177825, "is_disabled": 0, "type": "electric_scooter", "lon": -77.04354183333334, "bike_id": "7f22989d543cf32513726f00a1c8b4f0", "fusion_lat": 0.0, "name": "7f22989d543cf32513726f00a1c8b4f0", "is_reserved": 0, "rental_uris": {"android": "https://dc.lft.to/lastmile_qr_scan", "ios": "https://dc.lft.to/lastmile_qr_scan"}, "fusion_lon": 0.0}, {"lat": 38.9095935, "is_disabled": 0, "type": "electric_scooter", "lon": -77.0238475, "bike_id": "f14f5b0a2a7223ff0283041d32051ef4", "fusion_lat": 0.0, "name": "f14f5b0a2a7223ff0283041d32051ef4", "is_reserved": 0, "rental_uris": {"android": "https://dc.lft.to/lastmile_qr_scan", "ios": "https://dc.lft.to/lastmile_qr_scan"}, "fusion_lon": 0.0}, {"lat": 38.92582683333333, "is_disabled": 0, "type": "electric_scooter", "lon": -77.05741966666666, "bike_id": "d878ca380f7b4feb2a755f80815a26ab", "fusion_lat": 0.0, "name": "d878ca380f7b4feb2a755f80815a26ab", "is_reserved": 0, "rental_uris": {"android": "https://dc.lft.to/lastmile_qr_scan", "ios": "https://dc.lft.to/lastmile_qr_scan"}, "fusion_lon": 0.0}, {"lat": 38.90949083333334, "is_disabled": 0, "type": "electric_scooter", "lon": -77.03445733333334, "bike_id": "9b8178519496d203dc77b5c27852981a", "fusion_lat": 0.0, "name": "9b8178519496d203dc77b5c27852981a", "is_reserved": 0, "rental_uris": {"android": "https://dc.lft.to/lastmile_qr_scan", "ios": "https://dc.lft.to/lastmile_qr_scan"}, "fusion_lon": 0.0}, {"lat": 38.88203716666666, "is_disabled": 0, "type": "electric_scooter", "lon": -76.98925733333333, "bike_id": "97f256ea2f912ae8f582f0afcb97e83e", "fusion_lat": 0.0, "name": "97f256ea2f912ae8f582f0afcb97e83e", "is_reserved": 0, "rental_uris": {"android": "https://dc.lft.to/lastmile_qr_scan", "ios": "https://dc.lft.to/lastmile_qr_scan"}, "fusion_lon": 0.0}, {"lat": 38.914536, "is_disabled": 0, "type": "electric_bike", "lon": -76.97269766666666, "bike_id": "bf37f74f69557ee9ebbb03377673acba", "fusion_lat": 0.0, "name": "bf37f74f69557ee9ebbb03377673acba", "is_reserved": 0, "rental_uris": {"android": "https://dc.lft.to/lastmile_qr_scan", "ios": "https://dc.lft.to/lastmile_qr_scan"}, "fusion_lon": 0.0}, {"lat": 38.870687333333336, "is_disabled": 0, "type": "electric_bike", "lon": -76.978336, "bike_id": "d209980577627b1fbb3daabd88020352", "fusion_lat": 0.0, "name": "d209980577627b1fbb3daabd88020352", "is_reserved": 0, "rental_uris": {"android": "https://dc.lft.to/lastmile_qr_scan", "ios": "https://dc.lft.to/lastmile_qr_scan"}, "fusion_lon": 0.0}, {"lat": 38.892232, "is_disabled": 0, "type": "electric_scooter", "lon": -77.02211466666667, "bike_id": "2261c6a6b145d523643c3d3d80729ff3", "fusion_lat": 0.0, "name": "2261c6a6b145d523643c3d3d80729ff3", "is_reserved": 0, "rental_uris": {"android": "https://dc.lft.to/lastmile_qr_scan", "ios": "https://dc.lft.to/lastmile_qr_scan"}, "fusion_lon": 0.0}, {"lat": 38.87856033333333, "is_disabled": 0, "type": "electric_scooter", "lon": -77.01764783333333, "bike_id": "ec5ffd534d9d990594d6cd192e05259a", "fusion_lat": 0.0, "name": "ec5ffd534d9d990594d6cd192e05259a", "is_reserved": 0, "rental_uris": {"android": "https://dc.lft.to/lastmile_qr_scan", "ios": "https://dc.lft.to/lastmile_qr_scan"}, "fusion_lon": 0.0}, {"lat": 38.890349, "is_disabled": 0, "type": "electric_scooter", "lon": -76.9376145, "bike_id": "1f085bc3eb93fa9b93baff80c2cfe82a", "fusion_lat": 0.0, "name": "1f085bc3eb93fa9b93baff80c2cfe82a", "is_reserved": 0, "rental_uris": {"android": "https://dc.lft.to/lastmile_qr_scan", "ios": "https://dc.lft.to/lastmile_qr_scan"}, "fusion_lon": 0.0}, {"lat": 38.92861966666667, "is_disabled": 0, "type": "electric_scooter", "lon": -77.03697883333334, "bike_id": "f295d6cea2e4c8b309e7769e4536784d", "fusion_lat": 0.0, "name": "f295d6cea2e4c8b309e7769e4536784d", "is_reserved": 0, "rental_uris": {"android": "https://dc.lft.to/lastmile_qr_scan", "ios": "https://dc.lft.to/lastmile_qr_scan"}, "fusion_lon": 0.0}, {"lat": 38.9311435, "is_disabled": 0, "type": "electric_bike", "lon": -77.02727066666667, "bike_id": "dce2dc5a2e19340d4548dcd864aa4439", "fusion_lat": 0.0, "name": "dce2dc5a2e19340d4548dcd864aa4439", "is_reserved": 0, "rental_uris": {"android": "https://dc.lft.to/lastmile_qr_scan", "ios": "https://dc.lft.to/lastmile_qr_scan"}, "fusion_lon": 0.0}, {"lat": 38.9329545, "is_disabled": 0, "type": "electric_scooter", "lon": -77.04531166666666, "bike_id": "cf499da78278c76088caf9a081f11328", "fusion_lat": 0.0, "name": "cf499da78278c76088caf9a081f11328", "is_reserved": 0, "rental_uris": {"android": "https://dc.lft.to/lastmile_qr_scan", "ios": "https://dc.lft.to/lastmile_qr_scan"}, "fusion_lon": 0.0}, {"lat": 38.914618, "is_disabled": 0, "type": "electric_scooter", "lon": -77.01436283333334, "bike_id": "5477b84a04e88b2c512f59189c3cbfb5", "fusion_lat": 0.0, "name": "5477b84a04e88b2c512f59189c3cbfb5", "is_reserved": 0, "rental_uris": {"android": "https://dc.lft.to/lastmile_qr_scan", "ios": "https://dc.lft.to/lastmile_qr_scan"}, "fusion_lon": 0.0}, {"lat": 38.900329166666666, "is_disabled": 0, "type": "electric_scooter", "lon": -77.03296, "bike_id": "42b1fb00cf83813fd9626f76a6ae1f74", "fusion_lat": 0.0, "name": "42b1fb00cf83813fd9626f76a6ae1f74", "is_reserved": 0, "rental_uris": {"android": "https://dc.lft.to/lastmile_qr_scan", "ios": "https://dc.lft.to/lastmile_qr_scan"}, "fusion_lon": 0.0}, {"lat": 38.9023445, "is_disabled": 0, "type": "electric_scooter", "lon": -77.0176375, "bike_id": "05dba47c73aaa92173dce708c6cd2ed9", "fusion_lat": 0.0, "name": "05dba47c73aaa92173dce708c6cd2ed9", "is_reserved": 0, "rental_uris": {"android": "https://dc.lft.to/lastmile_qr_scan", "ios": "https://dc.lft.to/lastmile_qr_scan"}, "fusion_lon": 0.0}, {"lat": 38.90303883333333, "is_disabled": 0, "type": "electric_scooter", "lon": -77.00896983333334, "bike_id": "5bfcc00f86667445d99a83fcb37aa5d8", "fusion_lat": 0.0, "name": "5bfcc00f86667445d99a83fcb37aa5d8", "is_reserved": 0, "rental_uris": {"android": "https://dc.lft.to/lastmile_qr_scan", "ios": "https://dc.lft.to/lastmile_qr_scan"}, "fusion_lon": 0.0}, {"lat": 38.90454716666667, "is_disabled": 0, "type": "electric_scooter", "lon": -77.03903233333334, "bike_id": "c1f8fc1da3e19a69350becb7a33307e4", "fusion_lat": 0.0, "name": "c1f8fc1da3e19a69350becb7a33307e4", "is_reserved": 0, "rental_uris": {"android": "https://dc.lft.to/lastmile_qr_scan", "ios": "https://dc.lft.to/lastmile_qr_scan"}, "fusion_lon": 0.0}, {"lat": 38.91940683333333, "is_disabled": 0, "type": "electric_scooter", "lon": -77.02589183333333, "bike_id": "80acf37ac307b3d3e68f12607bfa285c", "fusion_lat": 0.0, "name": "80acf37ac307b3d3e68f12607bfa285c", "is_reserved": 0, "rental_uris": {"android": "https://dc.lft.to/lastmile_qr_scan", "ios": "https://dc.lft.to/lastmile_qr_scan"}, "fusion_lon": 0.0}, {"lat": 38.86365466666667, "is_disabled": 0, "type": "electric_scooter", "lon": -76.99035183333334, "bike_id": "3c8cf56eb97e75954868619c65943325", "fusion_lat": 0.0, "name": "3c8cf56eb97e75954868619c65943325", "is_reserved": 0, "rental_uris": {"android": "https://dc.lft.to/lastmile_qr_scan", "ios": "https://dc.lft.to/lastmile_qr_scan"}, "fusion_lon": 0.0}, {"lat": 38.922368166666665, "is_disabled": 0, "type": "electric_scooter", "lon": -77.04361383333334, "bike_id": "add64e98ab19caaf1d05d8a46c2bbde6", "fusion_lat": 0.0, "name": "add64e98ab19caaf1d05d8a46c2bbde6", "is_reserved": 0, "rental_uris": {"android": "https://dc.lft.to/lastmile_qr_scan", "ios": "https://dc.lft.to/lastmile_qr_scan"}, "fusion_lon": 0.0}, {"lat": 38.884882833333336, "is_disabled": 0, "type": "electric_scooter", "lon": -77.03475316666666, "bike_id": "56c546da21dbf67be6a52a4cca1c5362", "fusion_lat": 0.0, "name": "56c546da21dbf67be6a52a4cca1c5362", "is_reserved": 0, "rental_uris": {"android": "https://dc.lft.to/lastmile_qr_scan", "ios": "https://dc.lft.to/lastmile_qr_scan"}, "fusion_lon": 0.0}, {"lat": 38.80226616666667, "is_disabled": 0, "type": "electric_bike", "lon": -77.079206, "bike_id": "d6b0db91e84cde793039730d3ec3c700", "fusion_lat": 0.0, "name": "d6b0db91e84cde793039730d3ec3c700", "is_reserved": 0, "rental_uris": {"android": "https://dc.lft.to/lastmile_qr_scan", "ios": "https://dc.lft.to/lastmile_qr_scan"}, "fusion_lon": 0.0}, {"lat": 38.90244716666667, "is_disabled": 0, "type": "electric_scooter", "lon": -77.04352283333333, "bike_id": "c30c78cc9b3bdc85c77de64e2a041eac", "fusion_lat": 0.0, "name": "c30c78cc9b3bdc85c77de64e2a041eac", "is_reserved": 0, "rental_uris": {"android": "https://dc.lft.to/lastmile_qr_scan", "ios": "https://dc.lft.to/lastmile_qr_scan"}, "fusion_lon": 0.0}, {"lat": 38.9271335, "is_disabled": 0, "type": "electric_scooter", "lon": -77.02290866666667, "bike_id": "99c4eef27117c4854b32b14cbe963c63", "fusion_lat": 0.0, "name": "99c4eef27117c4854b32b14cbe963c63", "is_reserved": 0, "rental_uris": {"android": "https://dc.lft.to/lastmile_qr_scan", "ios": "https://dc.lft.to/lastmile_qr_scan"}, "fusion_lon": 0.0}, {"lat": 38.919308, "is_disabled": 0, "type": "electric_scooter", "lon": -76.97014516666667, "bike_id": "df1ca6e333919abc4d6cf047b801dbaa", "fusion_lat": 0.0, "name": "df1ca6e333919abc4d6cf047b801dbaa", "is_reserved": 0, "rental_uris": {"android": "https://dc.lft.to/lastmile_qr_scan", "ios": "https://dc.lft.to/lastmile_qr_scan"}, "fusion_lon": 0.0}, {"lat": 38.87152483333333, "is_disabled": 0, "type": "electric_scooter", "lon": -77.01189166666667, "bike_id": "f1dd308ca4edf43400d17fdf378952e8", "fusion_lat": 0.0, "name": "f1dd308ca4edf43400d17fdf378952e8", "is_reserved": 0, "rental_uris": {"android": "https://dc.lft.to/lastmile_qr_scan", "ios": "https://dc.lft.to/lastmile_qr_scan"}, "fusion_lon": 0.0}, {"lat": 38.94138616666667, "is_disabled": 0, "type": "electric_bike", "lon": -77.03282283333333, "bike_id": "78707d5a9dfe62e55ec0905769cebd31", "fusion_lat": 0.0, "name": "78707d5a9dfe62e55ec0905769cebd31", "is_reserved": 0, "rental_uris": {"android": "https://dc.lft.to/lastmile_qr_scan", "ios": "https://dc.lft.to/lastmile_qr_scan"}, "fusion_lon": 0.0}, {"lat": 38.9540075, "is_disabled": 0, "type": "electric_bike", "lon": -76.97868866666667, "bike_id": "33f045d98028a7a9374bc294ef4b7fd2", "fusion_lat": 0.0, "name": "33f045d98028a7a9374bc294ef4b7fd2", "is_reserved": 0, "rental_uris": {"android": "https://dc.lft.to/lastmile_qr_scan", "ios": "https://dc.lft.to/lastmile_qr_scan"}, "fusion_lon": 0.0}, {"lat": 38.92871233333334, "is_disabled": 0, "type": "electric_scooter", "lon": -77.01413133333334, "bike_id": "27d0d338206146e49f2e36e354ef7711", "fusion_lat": 0.0, "name": "27d0d338206146e49f2e36e354ef7711", "is_reserved": 0, "rental_uris": {"android": "https://dc.lft.to/lastmile_qr_scan", "ios": "https://dc.lft.to/lastmile_qr_scan"}, "fusion_lon": 0.0}, {"lat": 38.9193285, "is_disabled": 0, "type": "electric_scooter", "lon": -77.02307016666667, "bike_id": "4fafb42460bd434da0c58e13bc587a61", "fusion_lat": 0.0, "name": "4fafb42460bd434da0c58e13bc587a61", "is_reserved": 0, "rental_uris": {"android": "https://dc.lft.to/lastmile_qr_scan", "ios": "https://dc.lft.to/lastmile_qr_scan"}, "fusion_lon": 0.0}, {"lat": 38.919163833333336, "is_disabled": 0, "type": "electric_scooter", "lon": -77.0706375, "bike_id": "72c0559638b0cd6557226c59c074ca50", "fusion_lat": 0.0, "name": "72c0559638b0cd6557226c59c074ca50", "is_reserved": 0, "rental_uris": {"android": "https://dc.lft.to/lastmile_qr_scan", "ios": "https://dc.lft.to/lastmile_qr_scan"}, "fusion_lon": 0.0}, {"lat": 38.850341666666665, "is_disabled": 0, "type": "electric_bike", "lon": -76.97293683333334, "bike_id": "3a04f8f1a5b1479b5a9c878024465131", "fusion_lat": 0.0, "name": "3a04f8f1a5b1479b5a9c878024465131", "is_reserved": 0, "rental_uris": {"android": "https://dc.lft.to/lastmile_qr_scan", "ios": "https://dc.lft.to/lastmile_qr_scan"}, "fusion_lon": 0.0}, {"lat": 38.899608, "is_disabled": 0, "type": "electric_scooter", "lon": -77.00722016666667, "bike_id": "3f92b42dd776ab299321b262e81d0725", "fusion_lat": 0.0, "name": "3f92b42dd776ab299321b262e81d0725", "is_reserved": 0, "rental_uris": {"android": "https://dc.lft.to/lastmile_qr_scan", "ios": "https://dc.lft.to/lastmile_qr_scan"}, "fusion_lon": 0.0}, {"lat": 38.9052225, "is_disabled": 0, "type": "electric_scooter", "lon": -77.05760183333334, "bike_id": "fd03f4b703967ec33d26005fd6277bd8", "fusion_lat": 0.0, "name": "fd03f4b703967ec33d26005fd6277bd8", "is_reserved": 0, "rental_uris": {"android": "https://dc.lft.to/lastmile_qr_scan", "ios": "https://dc.lft.to/lastmile_qr_scan"}, "fusion_lon": 0.0}, {"lat": 38.892213166666664, "is_disabled": 0, "type": "electric_scooter", "lon": -77.04368616666666, "bike_id": "334a8e202fadde17497ffa226c1f6d7e", "fusion_lat": 0.0, "name": "334a8e202fadde17497ffa226c1f6d7e", "is_reserved": 0, "rental_uris": {"android": "https://dc.lft.to/lastmile_qr_scan", "ios": "https://dc.lft.to/lastmile_qr_scan"}, "fusion_lon": 0.0}, {"lat": 38.89222983333333, "is_disabled": 0, "type": "electric_scooter", "lon": -77.04198933333333, "bike_id": "0693f3f12001a9bd34703b8d18c8e3a4", "fusion_lat": 0.0, "name": "0693f3f12001a9bd34703b8d18c8e3a4", "is_reserved": 0, "rental_uris": {"android": "https://dc.lft.to/lastmile_qr_scan", "ios": "https://dc.lft.to/lastmile_qr_scan"}, "fusion_lon": 0.0}, {"lat": 38.89719566666667, "is_disabled": 0, "type": "electric_scooter", "lon": -77.0079785, "bike_id": "e5c093f07adba1a1939b1d86f39f1fc3", "fusion_lat": 0.0, "name": "e5c093f07adba1a1939b1d86f39f1fc3", "is_reserved": 0, "rental_uris": {"android": "https://dc.lft.to/lastmile_qr_scan", "ios": "https://dc.lft.to/lastmile_qr_scan"}, "fusion_lon": 0.0}, {"lat": 38.926127666666666, "is_disabled": 0, "type": "electric_scooter", "lon": -77.02163316666666, "bike_id": "00d82815d023e44652829130f1f785ce", "fusion_lat": 0.0, "name": "00d82815d023e44652829130f1f785ce", "is_reserved": 0, "rental_uris": {"android": "https://dc.lft.to/lastmile_qr_scan", "ios": "https://dc.lft.to/lastmile_qr_scan"}, "fusion_lon": 0.0}, {"lat": 38.90821016666666, "is_disabled": 0, "type": "electric_scooter", "lon": -77.01844516666667, "bike_id": "12ac97253284b466aa7f35bdf183d3af", "fusion_lat": 0.0, "name": "12ac97253284b466aa7f35bdf183d3af", "is_reserved": 0, "rental_uris": {"android": "https://dc.lft.to/lastmile_qr_scan", "ios": "https://dc.lft.to/lastmile_qr_scan"}, "fusion_lon": 0.0}, {"lat": 38.9024795, "is_disabled": 0, "type": "electric_scooter", "lon": -77.05263883333333, "bike_id": "bc827f655edecf8fb70587a654f5c5a2", "fusion_lat": 0.0, "name": "bc827f655edecf8fb70587a654f5c5a2", "is_reserved": 0, "rental_uris": {"android": "https://dc.lft.to/lastmile_qr_scan", "ios": "https://dc.lft.to/lastmile_qr_scan"}, "fusion_lon": 0.0}, {"lat": 38.91762516666667, "is_disabled": 0, "type": "electric_scooter", "lon": -77.04430233333333, "bike_id": "4742fa10bb54120f5c4b381b140148ca", "fusion_lat": 0.0, "name": "4742fa10bb54120f5c4b381b140148ca", "is_reserved": 0, "rental_uris": {"android": "https://dc.lft.to/lastmile_qr_scan", "ios": "https://dc.lft.to/lastmile_qr_scan"}, "fusion_lon": 0.0}, {"lat": 38.9224205, "is_disabled": 0, "type": "electric_scooter", "lon": -77.0457845, "bike_id": "93f0ae7e36b6c53829a62f50d5d1fd2c", "fusion_lat": 0.0, "name": "93f0ae7e36b6c53829a62f50d5d1fd2c", "is_reserved": 0, "rental_uris": {"android": "https://dc.lft.to/lastmile_qr_scan", "ios": "https://dc.lft.to/lastmile_qr_scan"}, "fusion_lon": 0.0}, {"lat": 38.91818333333333, "is_disabled": 0, "type": "electric_scooter", "lon": -77.02955783333333, "bike_id": "ffab9ce0467c385163366f546e244045", "fusion_lat": 0.0, "name": "ffab9ce0467c385163366f546e244045", "is_reserved": 0, "rental_uris": {"android": "https://dc.lft.to/lastmile_qr_scan", "ios": "https://dc.lft.to/lastmile_qr_scan"}, "fusion_lon": 0.0}, {"lat": 38.924645, "is_disabled": 0, "type": "electric_scooter", "lon": -77.05233033333333, "bike_id": "1f6b6863a3bf4c2f8cfc95907d48d1dd", "fusion_lat": 0.0, "name": "1f6b6863a3bf4c2f8cfc95907d48d1dd", "is_reserved": 0, "rental_uris": {"android": "https://dc.lft.to/lastmile_qr_scan", "ios": "https://dc.lft.to/lastmile_qr_scan"}, "fusion_lon": 0.0}, {"lat": 38.925566333333336, "is_disabled": 0, "type": "electric_scooter", "lon": -77.0321995, "bike_id": "f8b3b4780e04cd3dd8c2e3751bfdf29f", "fusion_lat": 0.0, "name": "f8b3b4780e04cd3dd8c2e3751bfdf29f", "is_reserved": 0, "rental_uris": {"android": "https://dc.lft.to/lastmile_qr_scan", "ios": "https://dc.lft.to/lastmile_qr_scan"}, "fusion_lon": 0.0}, {"lat": 38.907100166666666, "is_disabled": 0, "type": "electric_scooter", "lon": -77.00085733333333, "bike_id": "39892267e6b2001c345e710709cdc25e", "fusion_lat": 0.0, "name": "39892267e6b2001c345e710709cdc25e", "is_reserved": 0, "rental_uris": {"android": "https://dc.lft.to/lastmile_qr_scan", "ios": "https://dc.lft.to/lastmile_qr_scan"}, "fusion_lon": 0.0}, {"lat": 38.932340833333335, "is_disabled": 0, "type": "electric_scooter", "lon": -77.03889316666667, "bike_id": "ec8c33c0437a3a269ff504df0e94a9a8", "fusion_lat": 0.0, "name": "ec8c33c0437a3a269ff504df0e94a9a8", "is_reserved": 0, "rental_uris": {"android": "https://dc.lft.to/lastmile_qr_scan", "ios": "https://dc.lft.to/lastmile_qr_scan"}, "fusion_lon": 0.0}, {"lat": 38.844307666666666, "is_disabled": 0, "type": "electric_scooter", "lon": -76.99812733333333, "bike_id": "8d3386cccf2c55a45a808dd8225e9ee7", "fusion_lat": 0.0, "name": "8d3386cccf2c55a45a808dd8225e9ee7", "is_reserved": 0, "rental_uris": {"android": "https://dc.lft.to/lastmile_qr_scan", "ios": "https://dc.lft.to/lastmile_qr_scan"}, "fusion_lon": 0.0}, {"lat": 38.90565616666667, "is_disabled": 0, "type": "electric_scooter", "lon": -76.981485, "bike_id": "039c349547bfaa76aea2b1ff979e7a13", "fusion_lat": 0.0, "name": "039c349547bfaa76aea2b1ff979e7a13", "is_reserved": 0, "rental_uris": {"android": "https://dc.lft.to/lastmile_qr_scan", "ios": "https://dc.lft.to/lastmile_qr_scan"}, "fusion_lon": 0.0}, {"lat": 38.85431633333334, "is_disabled": 0, "type": "electric_bike", "lon": -76.909666, "bike_id": "c8891478703cefd2fdec94e29d3368d6", "fusion_lat": 0.0, "name": "c8891478703cefd2fdec94e29d3368d6", "is_reserved": 0, "rental_uris": {"android": "https://dc.lft.to/lastmile_qr_scan", "ios": "https://dc.lft.to/lastmile_qr_scan"}, "fusion_lon": 0.0}, {"lat": 38.902637, "is_disabled": 0, "type": "electric_scooter", "lon": -77.04364966666667, "bike_id": "729969d77611ba5b2c53a67b7e9e6aa7", "fusion_lat": 0.0, "name": "729969d77611ba5b2c53a67b7e9e6aa7", "is_reserved": 0, "rental_uris": {"android": "https://dc.lft.to/lastmile_qr_scan", "ios": "https://dc.lft.to/lastmile_qr_scan"}, "fusion_lon": 0.0}, {"lat": 38.92312233333333, "is_disabled": 0, "type": "electric_scooter", "lon": -77.04654116666667, "bike_id": "8f4affe9992d3cc974536dd097acdc85", "fusion_lat": 0.0, "name": "8f4affe9992d3cc974536dd097acdc85", "is_reserved": 0, "rental_uris": {"android": "https://dc.lft.to/lastmile_qr_scan", "ios": "https://dc.lft.to/lastmile_qr_scan"}, "fusion_lon": 0.0}, {"lat": 38.912204333333335, "is_disabled": 0, "type": "electric_scooter", "lon": -77.02801883333333, "bike_id": "4308b7d328cf138266542ca10a383ebb", "fusion_lat": 0.0, "name": "4308b7d328cf138266542ca10a383ebb", "is_reserved": 0, "rental_uris": {"android": "https://dc.lft.to/lastmile_qr_scan", "ios": "https://dc.lft.to/lastmile_qr_scan"}, "fusion_lon": 0.0}, {"lat": 38.902413333333335, "is_disabled": 0, "type": "electric_scooter", "lon": -77.017911, "bike_id": "f8396b1c5b1b5978c1f9612be22ec005", "fusion_lat": 0.0, "name": "f8396b1c5b1b5978c1f9612be22ec005", "is_reserved": 0, "rental_uris": {"android": "https://dc.lft.to/lastmile_qr_scan", "ios": "https://dc.lft.to/lastmile_qr_scan"}, "fusion_lon": 0.0}, {"lat": 38.89224733333333, "is_disabled": 0, "type": "electric_bike", "lon": -77.0344705, "bike_id": "1d38e686a3f3b6f9d7f401086e78323f", "fusion_lat": 0.0, "name": "1d38e686a3f3b6f9d7f401086e78323f", "is_reserved": 0, "rental_uris": {"android": "https://dc.lft.to/lastmile_qr_scan", "ios": "https://dc.lft.to/lastmile_qr_scan"}, "fusion_lon": 0.0}, {"lat": 38.91617816666667, "is_disabled": 0, "type": "electric_scooter", "lon": -77.02306233333333, "bike_id": "a5217d13bfd4825347e97709aa0d8e89", "fusion_lat": 0.0, "name": "a5217d13bfd4825347e97709aa0d8e89", "is_reserved": 0, "rental_uris": {"android": "https://dc.lft.to/lastmile_qr_scan", "ios": "https://dc.lft.to/lastmile_qr_scan"}, "fusion_lon": 0.0}, {"lat": 38.906423, "is_disabled": 0, "type": "electric_scooter", "lon": -77.03410016666666, "bike_id": "62adc6ce580c1bc08400fdeba351ba34", "fusion_lat": 0.0, "name": "62adc6ce580c1bc08400fdeba351ba34", "is_reserved": 0, "rental_uris": {"android": "https://dc.lft.to/lastmile_qr_scan", "ios": "https://dc.lft.to/lastmile_qr_scan"}, "fusion_lon": 0.0}, {"lat": 38.920400666666666, "is_disabled": 0, "type": "electric_scooter", "lon": -77.04192416666666, "bike_id": "577f585d20b36dde9ca584a91bbbaeed", "fusion_lat": 0.0, "name": "577f585d20b36dde9ca584a91bbbaeed", "is_reserved": 0, "rental_uris": {"android": "https://dc.lft.to/lastmile_qr_scan", "ios": "https://dc.lft.to/lastmile_qr_scan"}, "fusion_lon": 0.0}, {"lat": 38.9180775, "is_disabled": 0, "type": "electric_scooter", "lon": -77.01387466666667, "bike_id": "edc2d6c0d378347b7b434bfafb784449", "fusion_lat": 0.0, "name": "edc2d6c0d378347b7b434bfafb784449", "is_reserved": 0, "rental_uris": {"android": "https://dc.lft.to/lastmile_qr_scan", "ios": "https://dc.lft.to/lastmile_qr_scan"}, "fusion_lon": 0.0}, {"lat": 38.897443833333334, "is_disabled": 0, "type": "electric_scooter", "lon": -77.0217935, "bike_id": "d19a71c1233283941fba53f91118d366", "fusion_lat": 0.0, "name": "d19a71c1233283941fba53f91118d366", "is_reserved": 0, "rental_uris": {"android": "https://dc.lft.to/lastmile_qr_scan", "ios": "https://dc.lft.to/lastmile_qr_scan"}, "fusion_lon": 0.0}, {"lat": 38.807122166666666, "is_disabled": 0, "type": "electric_bike", "lon": -77.0617425, "bike_id": "bab464c1ebf20b7679c637f87a52b18e", "fusion_lat": 0.0, "name": "bab464c1ebf20b7679c637f87a52b18e", "is_reserved": 0, "rental_uris": {"android": "https://dc.lft.to/lastmile_qr_scan", "ios": "https://dc.lft.to/lastmile_qr_scan"}, "fusion_lon": 0.0}, {"lat": 38.865545166666664, "is_disabled": 0, "type": "electric_scooter", "lon": -76.97396633333334, "bike_id": "cac0acf6e9fbf83c4e11238ff5ff3462", "fusion_lat": 0.0, "name": "cac0acf6e9fbf83c4e11238ff5ff3462", "is_reserved": 0, "rental_uris": {"android": "https://dc.lft.to/lastmile_qr_scan", "ios": "https://dc.lft.to/lastmile_qr_scan"}, "fusion_lon": 0.0}, {"lat": 38.953554, "is_disabled": 0, "type": "electric_bike", "lon": -76.98093883333334, "bike_id": "45d9df1948dbf6547b73d6dbb651c24f", "fusion_lat": 0.0, "name": "45d9df1948dbf6547b73d6dbb651c24f", "is_reserved": 0, "rental_uris": {"android": "https://dc.lft.to/lastmile_qr_scan", "ios": "https://dc.lft.to/lastmile_qr_scan"}, "fusion_lon": 0.0}, {"lat": 38.89767833333333, "is_disabled": 0, "type": "electric_scooter", "lon": -77.026876, "bike_id": "f77c31c9c3c4ded76f41f805e0f9661c", "fusion_lat": 0.0, "name": "f77c31c9c3c4ded76f41f805e0f9661c", "is_reserved": 0, "rental_uris": {"android": "https://dc.lft.to/lastmile_qr_scan", "ios": "https://dc.lft.to/lastmile_qr_scan"}, "fusion_lon": 0.0}, {"lat": 38.910992, "is_disabled": 0, "type": "electric_scooter", "lon": -77.0318515, "bike_id": "0dd01174a6278a6340fb9d3b62fcb4c2", "fusion_lat": 0.0, "name": "0dd01174a6278a6340fb9d3b62fcb4c2", "is_reserved": 0, "rental_uris": {"android": "https://dc.lft.to/lastmile_qr_scan", "ios": "https://dc.lft.to/lastmile_qr_scan"}, "fusion_lon": 0.0}, {"lat": 38.941701333333334, "is_disabled": 0, "type": "electric_scooter", "lon": -77.04141016666667, "bike_id": "52be3ca4731479c7aac19e935073a03e", "fusion_lat": 0.0, "name": "52be3ca4731479c7aac19e935073a03e", "is_reserved": 0, "rental_uris": {"android": "https://dc.lft.to/lastmile_qr_scan", "ios": "https://dc.lft.to/lastmile_qr_scan"}, "fusion_lon": 0.0}, {"lat": 38.908067333333335, "is_disabled": 0, "type": "electric_scooter", "lon": -77.04320566666667, "bike_id": "a6b7b974cf80a47b80a6e06e4a7fd4cd", "fusion_lat": 0.0, "name": "a6b7b974cf80a47b80a6e06e4a7fd4cd", "is_reserved": 0, "rental_uris": {"android": "https://dc.lft.to/lastmile_qr_scan", "ios": "https://dc.lft.to/lastmile_qr_scan"}, "fusion_lon": 0.0}, {"lat": 38.917990333333336, "is_disabled": 0, "type": "electric_scooter", "lon": -77.0229335, "bike_id": "bacfacf8b661ece81f55bdd6339423ba", "fusion_lat": 0.0, "name": "bacfacf8b661ece81f55bdd6339423ba", "is_reserved": 0, "rental_uris": {"android": "https://dc.lft.to/lastmile_qr_scan", "ios": "https://dc.lft.to/lastmile_qr_scan"}, "fusion_lon": 0.0}, {"lat": 38.892261, "is_disabled": 0, "type": "electric_scooter", "lon": -77.02780983333334, "bike_id": "e2d315582ad55bae3a2db344fdad3eb5", "fusion_lat": 0.0, "name": "e2d315582ad55bae3a2db344fdad3eb5", "is_reserved": 0, "rental_uris": {"android": "https://dc.lft.to/lastmile_qr_scan", "ios": "https://dc.lft.to/lastmile_qr_scan"}, "fusion_lon": 0.0}, {"lat": 38.9346455, "is_disabled": 0, "type": "electric_scooter", "lon": -77.0619345, "bike_id": "873288d9afc87fd03585b621691a23c4", "fusion_lat": 0.0, "name": "873288d9afc87fd03585b621691a23c4", "is_reserved": 0, "rental_uris": {"android": "https://dc.lft.to/lastmile_qr_scan", "ios": "https://dc.lft.to/lastmile_qr_scan"}, "fusion_lon": 0.0}, {"lat": 39.0000675, "is_disabled": 0, "type": "electric_bike", "lon": -76.91085616666666, "bike_id": "c8f68a65dde51a98114a46d6e86357c5", "fusion_lat": 0.0, "name": "c8f68a65dde51a98114a46d6e86357c5", "is_reserved": 0, "rental_uris": {"android": "https://dc.lft.to/lastmile_qr_scan", "ios": "https://dc.lft.to/lastmile_qr_scan"}, "fusion_lon": 0.0}, {"lat": 38.86391116666667, "is_disabled": 0, "type": "electric_bike", "lon": -76.9899075, "bike_id": "e5c4c765eeb8460cfefb8124039bcf61", "fusion_lat": 0.0, "name": "e5c4c765eeb8460cfefb8124039bcf61", "is_reserved": 0, "rental_uris": {"android": "https://dc.lft.to/lastmile_qr_scan", "ios": "https://dc.lft.to/lastmile_qr_scan"}, "fusion_lon": 0.0}, {"lat": 38.91116366666667, "is_disabled": 0, "type": "electric_scooter", "lon": -77.033019, "bike_id": "8fa8f2347334582dea1ae59448e742c8", "fusion_lat": 0.0, "name": "8fa8f2347334582dea1ae59448e742c8", "is_reserved": 0, "rental_uris": {"android": "https://dc.lft.to/lastmile_qr_scan", "ios": "https://dc.lft.to/lastmile_qr_scan"}, "fusion_lon": 0.0}, {"lat": 38.88754316666667, "is_disabled": 0, "type": "electric_scooter", "lon": -77.03230466666666, "bike_id": "3eee23bf5c91b5b990d67eede3dd98a7", "fusion_lat": 0.0, "name": "3eee23bf5c91b5b990d67eede3dd98a7", "is_reserved": 0, "rental_uris": {"android": "https://dc.lft.to/lastmile_qr_scan", "ios": "https://dc.lft.to/lastmile_qr_scan"}, "fusion_lon": 0.0}, {"lat": 38.92109283333333, "is_disabled": 0, "type": "electric_scooter", "lon": -77.04584516666667, "bike_id": "9ac37ab9a7f3190f367d879ce894415f", "fusion_lat": 0.0, "name": "9ac37ab9a7f3190f367d879ce894415f", "is_reserved": 0, "rental_uris": {"android": "https://dc.lft.to/lastmile_qr_scan", "ios": "https://dc.lft.to/lastmile_qr_scan"}, "fusion_lon": 0.0}, {"lat": 39.0750295, "is_disabled": 0, "type": "electric_bike", "lon": -77.11906266666666, "bike_id": "11c3ad80fd3f95de662d542c988704a7", "fusion_lat": 0.0, "name": "11c3ad80fd3f95de662d542c988704a7", "is_reserved": 0, "rental_uris": {"android": "https://dc.lft.to/lastmile_qr_scan", "ios": "https://dc.lft.to/lastmile_qr_scan"}, "fusion_lon": 0.0}, {"lat": 38.912715166666665, "is_disabled": 0, "type": "electric_scooter", "lon": -77.02250883333333, "bike_id": "aac83a0c2c98dbb3659334e15fb80964", "fusion_lat": 0.0, "name": "aac83a0c2c98dbb3659334e15fb80964", "is_reserved": 0, "rental_uris": {"android": "https://dc.lft.to/lastmile_qr_scan", "ios": "https://dc.lft.to/lastmile_qr_scan"}, "fusion_lon": 0.0}, {"lat": 38.886712333333335, "is_disabled": 0, "type": "electric_scooter", "lon": -76.990371, "bike_id": "609219edd98a9d6a4f9b936442f118b8", "fusion_lat": 0.0, "name": "609219edd98a9d6a4f9b936442f118b8", "is_reserved": 0, "rental_uris": {"android": "https://dc.lft.to/lastmile_qr_scan", "ios": "https://dc.lft.to/lastmile_qr_scan"}, "fusion_lon": 0.0}, {"lat": 38.92346166666667, "is_disabled": 0, "type": "electric_scooter", "lon": -77.03538783333333, "bike_id": "c3a4b8a97b409745430a467d9cc1da20", "fusion_lat": 0.0, "name": "c3a4b8a97b409745430a467d9cc1da20", "is_reserved": 0, "rental_uris": {"android": "https://dc.lft.to/lastmile_qr_scan", "ios": "https://dc.lft.to/lastmile_qr_scan"}, "fusion_lon": 0.0}, {"lat": 38.90412466666667, "is_disabled": 0, "type": "electric_scooter", "lon": -77.0432965, "bike_id": "8fe3650dd874b00197df25e6e35bc527", "fusion_lat": 0.0, "name": "8fe3650dd874b00197df25e6e35bc527", "is_reserved": 0, "rental_uris": {"android": "https://dc.lft.to/lastmile_qr_scan", "ios": "https://dc.lft.to/lastmile_qr_scan"}, "fusion_lon": 0.0}, {"lat": 38.902051166666666, "is_disabled": 0, "type": "electric_scooter", "lon": -77.02178466666666, "bike_id": "dacdef01f04b45172497c1b21beae195", "fusion_lat": 0.0, "name": "dacdef01f04b45172497c1b21beae195", "is_reserved": 0, "rental_uris": {"android": "https://dc.lft.to/lastmile_qr_scan", "ios": "https://dc.lft.to/lastmile_qr_scan"}, "fusion_lon": 0.0}, {"lat": 38.92721433333333, "is_disabled": 0, "type": "electric_scooter", "lon": -77.02080316666667, "bike_id": "948cc64000ad84f2583a58ae57e3440c", "fusion_lat": 0.0, "name": "948cc64000ad84f2583a58ae57e3440c", "is_reserved": 0, "rental_uris": {"android": "https://dc.lft.to/lastmile_qr_scan", "ios": "https://dc.lft.to/lastmile_qr_scan"}, "fusion_lon": 0.0}, {"lat": 38.908137333333336, "is_disabled": 0, "type": "electric_scooter", "lon": -77.03452516666667, "bike_id": "420a729ced3993611dc9e7c1c09a410b", "fusion_lat": 0.0, "name": "420a729ced3993611dc9e7c1c09a410b", "is_reserved": 0, "rental_uris": {"android": "https://dc.lft.to/lastmile_qr_scan", "ios": "https://dc.lft.to/lastmile_qr_scan"}, "fusion_lon": 0.0}, {"lat": 38.9081395, "is_disabled": 0, "type": "electric_scooter", "lon": -77.043294, "bike_id": "353e978b0be7f8dd8c063e63531ea666", "fusion_lat": 0.0, "name": "353e978b0be7f8dd8c063e63531ea666", "is_reserved": 0, "rental_uris": {"android": "https://dc.lft.to/lastmile_qr_scan", "ios": "https://dc.lft.to/lastmile_qr_scan"}, "fusion_lon": 0.0}, {"lat": 38.870668, "is_disabled": 0, "type": "electric_scooter", "lon": -77.00845166666667, "bike_id": "873057f8d854663e75b519b7bac72949", "fusion_lat": 0.0, "name": "873057f8d854663e75b519b7bac72949", "is_reserved": 0, "rental_uris": {"android": "https://dc.lft.to/lastmile_qr_scan", "ios": "https://dc.lft.to/lastmile_qr_scan"}, "fusion_lon": 0.0}, {"lat": 38.895013166666665, "is_disabled": 0, "type": "electric_scooter", "lon": -77.0032605, "bike_id": "360a0e4a0d802831aaca5e6a6aff2dae", "fusion_lat": 0.0, "name": "360a0e4a0d802831aaca5e6a6aff2dae", "is_reserved": 0, "rental_uris": {"android": "https://dc.lft.to/lastmile_qr_scan", "ios": "https://dc.lft.to/lastmile_qr_scan"}, "fusion_lon": 0.0}, {"lat": 38.9180105, "is_disabled": 0, "type": "electric_scooter", "lon": -77.02294083333334, "bike_id": "ec2f904a580cc5c78e14678ca70db885", "fusion_lat": 0.0, "name": "ec2f904a580cc5c78e14678ca70db885", "is_reserved": 0, "rental_uris": {"android": "https://dc.lft.to/lastmile_qr_scan", "ios": "https://dc.lft.to/lastmile_qr_scan"}, "fusion_lon": 0.0}, {"lat": 38.8819695, "is_disabled": 0, "type": "electric_scooter", "lon": -76.99627, "bike_id": "6d5f28eaa9d77ae913d8908845f45d33", "fusion_lat": 0.0, "name": "6d5f28eaa9d77ae913d8908845f45d33", "is_reserved": 0, "rental_uris": {"android": "https://dc.lft.to/lastmile_qr_scan", "ios": "https://dc.lft.to/lastmile_qr_scan"}, "fusion_lon": 0.0}, {"lat": 38.905456666666666, "is_disabled": 0, "type": "electric_scooter", "lon": -77.0500275, "bike_id": "858612aeac4a98ce39b45da2d71f08cb", "fusion_lat": 0.0, "name": "858612aeac4a98ce39b45da2d71f08cb", "is_reserved": 0, "rental_uris": {"android": "https://dc.lft.to/lastmile_qr_scan", "ios": "https://dc.lft.to/lastmile_qr_scan"}, "fusion_lon": 0.0}, {"lat": 38.931122333333334, "is_disabled": 0, "type": "electric_scooter", "lon": -77.03072083333333, "bike_id": "2323f5685b1d25c09bd38d6b94b497f0", "fusion_lat": 0.0, "name": "2323f5685b1d25c09bd38d6b94b497f0", "is_reserved": 0, "rental_uris": {"android": "https://dc.lft.to/lastmile_qr_scan", "ios": "https://dc.lft.to/lastmile_qr_scan"}, "fusion_lon": 0.0}, {"lat": 38.937447666666664, "is_disabled": 0, "type": "electric_scooter", "lon": -77.034554, "bike_id": "2c3f4a75a62d8ec384a55d02c379b826", "fusion_lat": 0.0, "name": "2c3f4a75a62d8ec384a55d02c379b826", "is_reserved": 0, "rental_uris": {"android": "https://dc.lft.to/lastmile_qr_scan", "ios": "https://dc.lft.to/lastmile_qr_scan"}, "fusion_lon": 0.0}, {"lat": 38.90752416666667, "is_disabled": 0, "type": "electric_scooter", "lon": -76.99905183333334, "bike_id": "2e4b7e6884b2614fa36938d11cc63326", "fusion_lat": 0.0, "name": "2e4b7e6884b2614fa36938d11cc63326", "is_reserved": 0, "rental_uris": {"android": "https://dc.lft.to/lastmile_qr_scan", "ios": "https://dc.lft.to/lastmile_qr_scan"}, "fusion_lon": 0.0}, {"lat": 38.927183666666664, "is_disabled": 0, "type": "electric_bike", "lon": -77.0297245, "bike_id": "12086a220c9c4533b74eeaaac059746f", "fusion_lat": 0.0, "name": "12086a220c9c4533b74eeaaac059746f", "is_reserved": 0, "rental_uris": {"android": "https://dc.lft.to/lastmile_qr_scan", "ios": "https://dc.lft.to/lastmile_qr_scan"}, "fusion_lon": 0.0}, {"lat": 38.896229166666664, "is_disabled": 0, "type": "electric_scooter", "lon": -77.04491816666666, "bike_id": "44ef0782a92b19faf2762b38b0b3f9d7", "fusion_lat": 0.0, "name": "44ef0782a92b19faf2762b38b0b3f9d7", "is_reserved": 0, "rental_uris": {"android": "https://dc.lft.to/lastmile_qr_scan", "ios": "https://dc.lft.to/lastmile_qr_scan"}, "fusion_lon": 0.0}, {"lat": 38.944245333333335, "is_disabled": 0, "type": "electric_scooter", "lon": -77.06253516666666, "bike_id": "7b226cd192686cf95c8b33521fc72212", "fusion_lat": 0.0, "name": "7b226cd192686cf95c8b33521fc72212", "is_reserved": 0, "rental_uris": {"android": "https://dc.lft.to/lastmile_qr_scan", "ios": "https://dc.lft.to/lastmile_qr_scan"}, "fusion_lon": 0.0}, {"lat": 38.920285166666666, "is_disabled": 0, "type": "electric_scooter", "lon": -77.01325833333334, "bike_id": "945129bd5cc9e9811e3d2d59d2a8f7f8", "fusion_lat": 0.0, "name": "945129bd5cc9e9811e3d2d59d2a8f7f8", "is_reserved": 0, "rental_uris": {"android": "https://dc.lft.to/lastmile_qr_scan", "ios": "https://dc.lft.to/lastmile_qr_scan"}, "fusion_lon": 0.0}, {"lat": 38.912594, "is_disabled": 0, "type": "electric_scooter", "lon": -77.03876416666667, "bike_id": "35f28b8144d6ec7a3a7a65dba5ee7b30", "fusion_lat": 0.0, "name": "35f28b8144d6ec7a3a7a65dba5ee7b30", "is_reserved": 0, "rental_uris": {"android": "https://dc.lft.to/lastmile_qr_scan", "ios": "https://dc.lft.to/lastmile_qr_scan"}, "fusion_lon": 0.0}, {"lat": 38.894974166666664, "is_disabled": 0, "type": "electric_scooter", "lon": -77.002178, "bike_id": "46027fad7e9b76b76368ef84a0c3489c", "fusion_lat": 0.0, "name": "46027fad7e9b76b76368ef84a0c3489c", "is_reserved": 0, "rental_uris": {"android": "https://dc.lft.to/lastmile_qr_scan", "ios": "https://dc.lft.to/lastmile_qr_scan"}, "fusion_lon": 0.0}, {"lat": 38.926261333333336, "is_disabled": 0, "type": "electric_scooter", "lon": -77.0419645, "bike_id": "0ba39a1d3ef6ca191695cd5fb50e5a01", "fusion_lat": 0.0, "name": "0ba39a1d3ef6ca191695cd5fb50e5a01", "is_reserved": 0, "rental_uris": {"android": "https://dc.lft.to/lastmile_qr_scan", "ios": "https://dc.lft.to/lastmile_qr_scan"}, "fusion_lon": 0.0}, {"lat": 38.93486016666667, "is_disabled": 0, "type": "electric_scooter", "lon": -77.07279816666667, "bike_id": "d8e96f72fe7f7460ed74cb3bd37cb52d", "fusion_lat": 0.0, "name": "d8e96f72fe7f7460ed74cb3bd37cb52d", "is_reserved": 0, "rental_uris": {"android": "https://dc.lft.to/lastmile_qr_scan", "ios": "https://dc.lft.to/lastmile_qr_scan"}, "fusion_lon": 0.0}, {"lat": 38.915663333333335, "is_disabled": 0, "type": "electric_scooter", "lon": -77.03853266666667, "bike_id": "7f245142c4dcef4909309a62ea924b26", "fusion_lat": 0.0, "name": "7f245142c4dcef4909309a62ea924b26", "is_reserved": 0, "rental_uris": {"android": "https://dc.lft.to/lastmile_qr_scan", "ios": "https://dc.lft.to/lastmile_qr_scan"}, "fusion_lon": 0.0}, {"lat": 38.9052885, "is_disabled": 0, "type": "electric_scooter", "lon": -77.021986, "bike_id": "ca78af1ab2f81dfc7a95bba5d9d7d053", "fusion_lat": 0.0, "name": "ca78af1ab2f81dfc7a95bba5d9d7d053", "is_reserved": 0, "rental_uris": {"android": "https://dc.lft.to/lastmile_qr_scan", "ios": "https://dc.lft.to/lastmile_qr_scan"}, "fusion_lon": 0.0}, {"lat": 38.91802783333333, "is_disabled": 0, "type": "electric_scooter", "lon": -77.04169933333333, "bike_id": "6160fdda486c854f7d695bba7c7e1c8b", "fusion_lat": 0.0, "name": "6160fdda486c854f7d695bba7c7e1c8b", "is_reserved": 0, "rental_uris": {"android": "https://dc.lft.to/lastmile_qr_scan", "ios": "https://dc.lft.to/lastmile_qr_scan"}, "fusion_lon": 0.0}, {"lat": 38.93691366666667, "is_disabled": 0, "type": "electric_bike", "lon": -77.05645816666667, "bike_id": "e55874bbaadefd683cab13247977af2a", "fusion_lat": 0.0, "name": "e55874bbaadefd683cab13247977af2a", "is_reserved": 0, "rental_uris": {"android": "https://dc.lft.to/lastmile_qr_scan", "ios": "https://dc.lft.to/lastmile_qr_scan"}, "fusion_lon": 0.0}, {"lat": 38.911031666666666, "is_disabled": 0, "type": "electric_scooter", "lon": -77.04210183333333, "bike_id": "9a42098eaaebbcbeb34af616bfaf077f", "fusion_lat": 0.0, "name": "9a42098eaaebbcbeb34af616bfaf077f", "is_reserved": 0, "rental_uris": {"android": "https://dc.lft.to/lastmile_qr_scan", "ios": "https://dc.lft.to/lastmile_qr_scan"}, "fusion_lon": 0.0}, {"lat": 38.916716, "is_disabled": 0, "type": "electric_scooter", "lon": -77.04717366666667, "bike_id": "b4c37ad81000408788775220b4613459", "fusion_lat": 0.0, "name": "b4c37ad81000408788775220b4613459", "is_reserved": 0, "rental_uris": {"android": "https://dc.lft.to/lastmile_qr_scan", "ios": "https://dc.lft.to/lastmile_qr_scan"}, "fusion_lon": 0.0}, {"lat": 38.89546433333334, "is_disabled": 0, "type": "electric_scooter", "lon": -77.0044205, "bike_id": "9cbd6923e85e709fa5e09f3720ea6d3b", "fusion_lat": 0.0, "name": "9cbd6923e85e709fa5e09f3720ea6d3b", "is_reserved": 0, "rental_uris": {"android": "https://dc.lft.to/lastmile_qr_scan", "ios": "https://dc.lft.to/lastmile_qr_scan"}, "fusion_lon": 0.0}, {"lat": 38.93529566666667, "is_disabled": 0, "type": "electric_scooter", "lon": -77.02349383333333, "bike_id": "aba9c0ead4509f79204ad0ccba536cfc", "fusion_lat": 0.0, "name": "aba9c0ead4509f79204ad0ccba536cfc", "is_reserved": 0, "rental_uris": {"android": "https://dc.lft.to/lastmile_qr_scan", "ios": "https://dc.lft.to/lastmile_qr_scan"}, "fusion_lon": 0.0}, {"lat": 38.902769, "is_disabled": 0, "type": "electric_scooter", "lon": -77.00334983333333, "bike_id": "ebd24b9b43d0b8c00d25fb8524f31e32", "fusion_lat": 0.0, "name": "ebd24b9b43d0b8c00d25fb8524f31e32", "is_reserved": 0, "rental_uris": {"android": "https://dc.lft.to/lastmile_qr_scan", "ios": "https://dc.lft.to/lastmile_qr_scan"}, "fusion_lon": 0.0}, {"lat": 38.86507816666666, "is_disabled": 0, "type": "electric_scooter", "lon": -76.99008283333333, "bike_id": "9a71c6f86c219929bbf6203b0c34f80c", "fusion_lat": 0.0, "name": "9a71c6f86c219929bbf6203b0c34f80c", "is_reserved": 0, "rental_uris": {"android": "https://dc.lft.to/lastmile_qr_scan", "ios": "https://dc.lft.to/lastmile_qr_scan"}, "fusion_lon": 0.0}, {"lat": 38.929337333333336, "is_disabled": 0, "type": "electric_scooter", "lon": -77.037474, "bike_id": "6470a4aad80379d82c55769f18c3950c", "fusion_lat": 0.0, "name": "6470a4aad80379d82c55769f18c3950c", "is_reserved": 0, "rental_uris": {"android": "https://dc.lft.to/lastmile_qr_scan", "ios": "https://dc.lft.to/lastmile_qr_scan"}, "fusion_lon": 0.0}, {"lat": 38.837411, "is_disabled": 0, "type": "electric_bike", "lon": -76.99768533333334, "bike_id": "ba93b9bc8b8982759647f009799ee967", "fusion_lat": 0.0, "name": "ba93b9bc8b8982759647f009799ee967", "is_reserved": 0, "rental_uris": {"android": "https://dc.lft.to/lastmile_qr_scan", "ios": "https://dc.lft.to/lastmile_qr_scan"}, "fusion_lon": 0.0}, {"lat": 38.91735666666667, "is_disabled": 0, "type": "electric_scooter", "lon": -77.03669016666667, "bike_id": "faeb8ee105a04e27238fee2e86df80e2", "fusion_lat": 0.0, "name": "faeb8ee105a04e27238fee2e86df80e2", "is_reserved": 0, "rental_uris": {"android": "https://dc.lft.to/lastmile_qr_scan", "ios": "https://dc.lft.to/lastmile_qr_scan"}, "fusion_lon": 0.0}, {"lat": 38.917694, "is_disabled": 0, "type": "electric_scooter", "lon": -77.01878333333333, "bike_id": "75dcae0d43f027408d8bc81d6f7a2c52", "fusion_lat": 0.0, "name": "75dcae0d43f027408d8bc81d6f7a2c52", "is_reserved": 0, "rental_uris": {"android": "https://dc.lft.to/lastmile_qr_scan", "ios": "https://dc.lft.to/lastmile_qr_scan"}, "fusion_lon": 0.0}, {"lat": 38.899792, "is_disabled": 0, "type": "electric_scooter", "lon": -77.02069233333333, "bike_id": "9b3bce653afab97eb7ff20d8a71cbf18", "fusion_lat": 0.0, "name": "9b3bce653afab97eb7ff20d8a71cbf18", "is_reserved": 0, "rental_uris": {"android": "https://dc.lft.to/lastmile_qr_scan", "ios": "https://dc.lft.to/lastmile_qr_scan"}, "fusion_lon": 0.0}, {"lat": 38.856745, "is_disabled": 0, "type": "electric_scooter", "lon": -76.98174866666666, "bike_id": "122beeac3dc9b7f50e377af8914fed8b", "fusion_lat": 0.0, "name": "122beeac3dc9b7f50e377af8914fed8b", "is_reserved": 0, "rental_uris": {"android": "https://dc.lft.to/lastmile_qr_scan", "ios": "https://dc.lft.to/lastmile_qr_scan"}, "fusion_lon": 0.0}, {"lat": 38.93699616666667, "is_disabled": 0, "type": "electric_scooter", "lon": -77.02401366666666, "bike_id": "32c658cf05e647fbada1da9056fed485", "fusion_lat": 0.0, "name": "32c658cf05e647fbada1da9056fed485", "is_reserved": 0, "rental_uris": {"android": "https://dc.lft.to/lastmile_qr_scan", "ios": "https://dc.lft.to/lastmile_qr_scan"}, "fusion_lon": 0.0}, {"lat": 38.91999, "is_disabled": 0, "type": "electric_scooter", "lon": -77.032365, "bike_id": "c08cdaba3e7653ffd951c1b29ee6df8f", "fusion_lat": 0.0, "name": "c08cdaba3e7653ffd951c1b29ee6df8f", "is_reserved": 0, "rental_uris": {"android": "https://dc.lft.to/lastmile_qr_scan", "ios": "https://dc.lft.to/lastmile_qr_scan"}, "fusion_lon": 0.0}, {"lat": 38.88449466666667, "is_disabled": 0, "type": "electric_scooter", "lon": -76.95095916666666, "bike_id": "1fd9f8a6dfee675b141c5510b960d831", "fusion_lat": 0.0, "name": "1fd9f8a6dfee675b141c5510b960d831", "is_reserved": 0, "rental_uris": {"android": "https://dc.lft.to/lastmile_qr_scan", "ios": "https://dc.lft.to/lastmile_qr_scan"}, "fusion_lon": 0.0}, {"lat": 38.944595666666665, "is_disabled": 0, "type": "electric_scooter", "lon": -77.06025466666667, "bike_id": "15b507cf439c6fbbaa893bb002171985", "fusion_lat": 0.0, "name": "15b507cf439c6fbbaa893bb002171985", "is_reserved": 0, "rental_uris": {"android": "https://dc.lft.to/lastmile_qr_scan", "ios": "https://dc.lft.to/lastmile_qr_scan"}, "fusion_lon": 0.0}, {"lat": 38.896828166666666, "is_disabled": 0, "type": "electric_scooter", "lon": -76.93611133333333, "bike_id": "8a9a8025fa693e5f0d07055ae571121e", "fusion_lat": 0.0, "name": "8a9a8025fa693e5f0d07055ae571121e", "is_reserved": 0, "rental_uris": {"android": "https://dc.lft.to/lastmile_qr_scan", "ios": "https://dc.lft.to/lastmile_qr_scan"}, "fusion_lon": 0.0}, {"lat": 38.91745233333333, "is_disabled": 0, "type": "electric_scooter", "lon": -77.031864, "bike_id": "c072b986884aea2f8bd99429e4aa631f", "fusion_lat": 0.0, "name": "c072b986884aea2f8bd99429e4aa631f", "is_reserved": 0, "rental_uris": {"android": "https://dc.lft.to/lastmile_qr_scan", "ios": "https://dc.lft.to/lastmile_qr_scan"}, "fusion_lon": 0.0}, {"lat": 38.948243, "is_disabled": 0, "type": "electric_scooter", "lon": -76.99908033333334, "bike_id": "2ee484d7f05784fd1e8c7629596e375b", "fusion_lat": 0.0, "name": "2ee484d7f05784fd1e8c7629596e375b", "is_reserved": 0, "rental_uris": {"android": "https://dc.lft.to/lastmile_qr_scan", "ios": "https://dc.lft.to/lastmile_qr_scan"}, "fusion_lon": 0.0}, {"lat": 38.924947333333336, "is_disabled": 0, "type": "electric_scooter", "lon": -77.05237216666667, "bike_id": "ad798fa131c110405a3de0c0d2de9c12", "fusion_lat": 0.0, "name": "ad798fa131c110405a3de0c0d2de9c12", "is_reserved": 0, "rental_uris": {"android": "https://dc.lft.to/lastmile_qr_scan", "ios": "https://dc.lft.to/lastmile_qr_scan"}, "fusion_lon": 0.0}, {"lat": 38.921216, "is_disabled": 0, "type": "electric_scooter", "lon": -77.041763, "bike_id": "bda2bbb50a77941ceadc529cfdc1a98e", "fusion_lat": 0.0, "name": "bda2bbb50a77941ceadc529cfdc1a98e", "is_reserved": 0, "rental_uris": {"android": "https://dc.lft.to/lastmile_qr_scan", "ios": "https://dc.lft.to/lastmile_qr_scan"}, "fusion_lon": 0.0}, {"lat": 38.93070816666667, "is_disabled": 0, "type": "electric_scooter", "lon": -77.03378516666666, "bike_id": "cd18e1be6e92988b96c11c30278aa9a2", "fusion_lat": 0.0, "name": "cd18e1be6e92988b96c11c30278aa9a2", "is_reserved": 0, "rental_uris": {"android": "https://dc.lft.to/lastmile_qr_scan", "ios": "https://dc.lft.to/lastmile_qr_scan"}, "fusion_lon": 0.0}, {"lat": 38.90851333333333, "is_disabled": 0, "type": "electric_scooter", "lon": -77.020627, "bike_id": "8213ada22087f2d9f183311f50bde5b1", "fusion_lat": 0.0, "name": "8213ada22087f2d9f183311f50bde5b1", "is_reserved": 0, "rental_uris": {"android": "https://dc.lft.to/lastmile_qr_scan", "ios": "https://dc.lft.to/lastmile_qr_scan"}, "fusion_lon": 0.0}, {"lat": 38.902266833333336, "is_disabled": 0, "type": "electric_scooter", "lon": -77.0606515, "bike_id": "b53d2166770219d725069c34a5fde7c1", "fusion_lat": 0.0, "name": "b53d2166770219d725069c34a5fde7c1", "is_reserved": 0, "rental_uris": {"android": "https://dc.lft.to/lastmile_qr_scan", "ios": "https://dc.lft.to/lastmile_qr_scan"}, "fusion_lon": 0.0}, {"lat": 38.9245285, "is_disabled": 0, "type": "electric_scooter", "lon": -77.042084, "bike_id": "2d1c832e4e60c538f829f5e0bec0c9f5", "fusion_lat": 0.0, "name": "2d1c832e4e60c538f829f5e0bec0c9f5", "is_reserved": 0, "rental_uris": {"android": "https://dc.lft.to/lastmile_qr_scan", "ios": "https://dc.lft.to/lastmile_qr_scan"}, "fusion_lon": 0.0}, {"lat": 38.887407833333334, "is_disabled": 0, "type": "electric_scooter", "lon": -77.0220905, "bike_id": "47bf9d3536df249ca75ac3492b3e8c01", "fusion_lat": 0.0, "name": "47bf9d3536df249ca75ac3492b3e8c01", "is_reserved": 0, "rental_uris": {"android": "https://dc.lft.to/lastmile_qr_scan", "ios": "https://dc.lft.to/lastmile_qr_scan"}, "fusion_lon": 0.0}, {"lat": 38.86834866666667, "is_disabled": 0, "type": "electric_scooter", "lon": -76.97745133333333, "bike_id": "d8661070bdfddf76383239d2bfb90071", "fusion_lat": 0.0, "name": "d8661070bdfddf76383239d2bfb90071", "is_reserved": 0, "rental_uris": {"android": "https://dc.lft.to/lastmile_qr_scan", "ios": "https://dc.lft.to/lastmile_qr_scan"}, "fusion_lon": 0.0}, {"lat": 38.892235666666664, "is_disabled": 0, "type": "electric_scooter", "lon": -77.04370233333333, "bike_id": "5ed162136f163cd8ed76d19f388e397f", "fusion_lat": 0.0, "name": "5ed162136f163cd8ed76d19f388e397f", "is_reserved": 0, "rental_uris": {"android": "https://dc.lft.to/lastmile_qr_scan", "ios": "https://dc.lft.to/lastmile_qr_scan"}, "fusion_lon": 0.0}, {"lat": 38.916216166666665, "is_disabled": 0, "type": "electric_scooter", "lon": -77.0486515, "bike_id": "85ae4c53c9e6b86513b9627106350d65", "fusion_lat": 0.0, "name": "85ae4c53c9e6b86513b9627106350d65", "is_reserved": 0, "rental_uris": {"android": "https://dc.lft.to/lastmile_qr_scan", "ios": "https://dc.lft.to/lastmile_qr_scan"}, "fusion_lon": 0.0}, {"lat": 38.924691833333334, "is_disabled": 0, "type": "electric_scooter", "lon": -77.027132, "bike_id": "482bea7191fab392d18d38cf2a28cade", "fusion_lat": 0.0, "name": "482bea7191fab392d18d38cf2a28cade", "is_reserved": 0, "rental_uris": {"android": "https://dc.lft.to/lastmile_qr_scan", "ios": "https://dc.lft.to/lastmile_qr_scan"}, "fusion_lon": 0.0}, {"lat": 38.90069883333334, "is_disabled": 0, "type": "electric_scooter", "lon": -77.05065016666667, "bike_id": "c97440e11b477810e61139cda96ab1e4", "fusion_lat": 0.0, "name": "c97440e11b477810e61139cda96ab1e4", "is_reserved": 0, "rental_uris": {"android": "https://dc.lft.to/lastmile_qr_scan", "ios": "https://dc.lft.to/lastmile_qr_scan"}, "fusion_lon": 0.0}, {"lat": 38.9063515, "is_disabled": 0, "type": "electric_scooter", "lon": -77.02500766666667, "bike_id": "a4dbce9a2c9dc6e0d013f854770f68a6", "fusion_lat": 0.0, "name": "a4dbce9a2c9dc6e0d013f854770f68a6", "is_reserved": 0, "rental_uris": {"android": "https://dc.lft.to/lastmile_qr_scan", "ios": "https://dc.lft.to/lastmile_qr_scan"}, "fusion_lon": 0.0}, {"lat": 38.912585, "is_disabled": 0, "type": "electric_scooter", "lon": -77.03871483333333, "bike_id": "0630dd96694ba13896e625237fa0dd6e", "fusion_lat": 0.0, "name": "0630dd96694ba13896e625237fa0dd6e", "is_reserved": 0, "rental_uris": {"android": "https://dc.lft.to/lastmile_qr_scan", "ios": "https://dc.lft.to/lastmile_qr_scan"}, "fusion_lon": 0.0}, {"lat": 38.92851666666667, "is_disabled": 0, "type": "electric_scooter", "lon": -77.03311066666667, "bike_id": "c6cb08c8d7056dd4845de66edbb0025b", "fusion_lat": 0.0, "name": "c6cb08c8d7056dd4845de66edbb0025b", "is_reserved": 0, "rental_uris": {"android": "https://dc.lft.to/lastmile_qr_scan", "ios": "https://dc.lft.to/lastmile_qr_scan"}, "fusion_lon": 0.0}, {"lat": 38.914205, "is_disabled": 0, "type": "electric_scooter", "lon": -77.0464005, "bike_id": "c38a1bb048a400782a7d609039820933", "fusion_lat": 0.0, "name": "c38a1bb048a400782a7d609039820933", "is_reserved": 0, "rental_uris": {"android": "https://dc.lft.to/lastmile_qr_scan", "ios": "https://dc.lft.to/lastmile_qr_scan"}, "fusion_lon": 0.0}, {"lat": 38.916021, "is_disabled": 0, "type": "electric_scooter", "lon": -77.032659, "bike_id": "84337471de17d1e3f74428fac58e492d", "fusion_lat": 0.0, "name": "84337471de17d1e3f74428fac58e492d", "is_reserved": 0, "rental_uris": {"android": "https://dc.lft.to/lastmile_qr_scan", "ios": "https://dc.lft.to/lastmile_qr_scan"}, "fusion_lon": 0.0}, {"lat": 38.9161115, "is_disabled": 0, "type": "electric_bike", "lon": -77.0028925, "bike_id": "8e48dee95b21cff6c1ca17243993c14b", "fusion_lat": 0.0, "name": "8e48dee95b21cff6c1ca17243993c14b", "is_reserved": 0, "rental_uris": {"android": "https://dc.lft.to/lastmile_qr_scan", "ios": "https://dc.lft.to/lastmile_qr_scan"}, "fusion_lon": 0.0}, {"lat": 38.87140433333333, "is_disabled": 0, "type": "electric_bike", "lon": -76.9370615, "bike_id": "3efa1e3ce22132f18304bf76aacb801e", "fusion_lat": 0.0, "name": "3efa1e3ce22132f18304bf76aacb801e", "is_reserved": 0, "rental_uris": {"android": "https://dc.lft.to/lastmile_qr_scan", "ios": "https://dc.lft.to/lastmile_qr_scan"}, "fusion_lon": 0.0}, {"lat": 38.89224466666667, "is_disabled": 0, "type": "electric_scooter", "lon": -77.0316745, "bike_id": "728753cef1b6c3635e58aeddbd1f5d23", "fusion_lat": 0.0, "name": "728753cef1b6c3635e58aeddbd1f5d23", "is_reserved": 0, "rental_uris": {"android": "https://dc.lft.to/lastmile_qr_scan", "ios": "https://dc.lft.to/lastmile_qr_scan"}, "fusion_lon": 0.0}, {"lat": 38.924153, "is_disabled": 0, "type": "electric_scooter", "lon": -77.04448333333333, "bike_id": "bb652d842daf62735cebeeeb27a1eda8", "fusion_lat": 0.0, "name": "bb652d842daf62735cebeeeb27a1eda8", "is_reserved": 0, "rental_uris": {"android": "https://dc.lft.to/lastmile_qr_scan", "ios": "https://dc.lft.to/lastmile_qr_scan"}, "fusion_lon": 0.0}, {"lat": 38.895453833333335, "is_disabled": 0, "type": "electric_scooter", "lon": -77.0092645, "bike_id": "1f5d67a409706caa96acc44f012543f4", "fusion_lat": 0.0, "name": "1f5d67a409706caa96acc44f012543f4", "is_reserved": 0, "rental_uris": {"android": "https://dc.lft.to/lastmile_qr_scan", "ios": "https://dc.lft.to/lastmile_qr_scan"}, "fusion_lon": 0.0}, {"lat": 38.93525533333333, "is_disabled": 0, "type": "electric_scooter", "lon": -77.07298916666667, "bike_id": "8ab22da0c4591262049b7c1b0095f37b", "fusion_lat": 0.0, "name": "8ab22da0c4591262049b7c1b0095f37b", "is_reserved": 0, "rental_uris": {"android": "https://dc.lft.to/lastmile_qr_scan", "ios": "https://dc.lft.to/lastmile_qr_scan"}, "fusion_lon": 0.0}, {"lat": 38.90374333333333, "is_disabled": 0, "type": "electric_scooter", "lon": -76.992344, "bike_id": "d885b32ae77bc4eb9fefe12b4c9b7d74", "fusion_lat": 0.0, "name": "d885b32ae77bc4eb9fefe12b4c9b7d74", "is_reserved": 0, "rental_uris": {"android": "https://dc.lft.to/lastmile_qr_scan", "ios": "https://dc.lft.to/lastmile_qr_scan"}, "fusion_lon": 0.0}, {"lat": 38.9085665, "is_disabled": 0, "type": "electric_scooter", "lon": -77.01969883333334, "bike_id": "9a2c1163759494727c2adb9a1349f0cf", "fusion_lat": 0.0, "name": "9a2c1163759494727c2adb9a1349f0cf", "is_reserved": 0, "rental_uris": {"android": "https://dc.lft.to/lastmile_qr_scan", "ios": "https://dc.lft.to/lastmile_qr_scan"}, "fusion_lon": 0.0}, {"lat": 38.89744483333333, "is_disabled": 0, "type": "electric_scooter", "lon": -77.02393433333333, "bike_id": "4311a8783a40ad063fcce3e557a3686a", "fusion_lat": 0.0, "name": "4311a8783a40ad063fcce3e557a3686a", "is_reserved": 0, "rental_uris": {"android": "https://dc.lft.to/lastmile_qr_scan", "ios": "https://dc.lft.to/lastmile_qr_scan"}, "fusion_lon": 0.0}, {"lat": 38.934720166666665, "is_disabled": 0, "type": "electric_scooter", "lon": -77.041165, "bike_id": "2743342b5de3f30202a2877f40b3c1fa", "fusion_lat": 0.0, "name": "2743342b5de3f30202a2877f40b3c1fa", "is_reserved": 0, "rental_uris": {"android": "https://dc.lft.to/lastmile_qr_scan", "ios": "https://dc.lft.to/lastmile_qr_scan"}, "fusion_lon": 0.0}, {"lat": 38.90962066666667, "is_disabled": 0, "type": "electric_scooter", "lon": -77.0383395, "bike_id": "786c1a04734d9aadef8ff68495c6a26b", "fusion_lat": 0.0, "name": "786c1a04734d9aadef8ff68495c6a26b", "is_reserved": 0, "rental_uris": {"android": "https://dc.lft.to/lastmile_qr_scan", "ios": "https://dc.lft.to/lastmile_qr_scan"}, "fusion_lon": 0.0}, {"lat": 38.917431666666666, "is_disabled": 0, "type": "electric_scooter", "lon": -77.03204916666667, "bike_id": "579507599e17ef365e465384ecbe9424", "fusion_lat": 0.0, "name": "579507599e17ef365e465384ecbe9424", "is_reserved": 0, "rental_uris": {"android": "https://dc.lft.to/lastmile_qr_scan", "ios": "https://dc.lft.to/lastmile_qr_scan"}, "fusion_lon": 0.0}, {"lat": 38.9181825, "is_disabled": 0, "type": "electric_scooter", "lon": -77.02486266666666, "bike_id": "896429e9d3f8cbb1dbe832491e5b06fc", "fusion_lat": 0.0, "name": "896429e9d3f8cbb1dbe832491e5b06fc", "is_reserved": 0, "rental_uris": {"android": "https://dc.lft.to/lastmile_qr_scan", "ios": "https://dc.lft.to/lastmile_qr_scan"}, "fusion_lon": 0.0}, {"lat": 38.892225, "is_disabled": 0, "type": "electric_scooter", "lon": -77.02211316666667, "bike_id": "e0e97fdece2f3e688292a3fda9686ecf", "fusion_lat": 0.0, "name": "e0e97fdece2f3e688292a3fda9686ecf", "is_reserved": 0, "rental_uris": {"android": "https://dc.lft.to/lastmile_qr_scan", "ios": "https://dc.lft.to/lastmile_qr_scan"}, "fusion_lon": 0.0}, {"lat": 38.91987133333333, "is_disabled": 0, "type": "electric_scooter", "lon": -77.02529583333333, "bike_id": "2a1b16119bac754c0405e3faefe6bd1b", "fusion_lat": 0.0, "name": "2a1b16119bac754c0405e3faefe6bd1b", "is_reserved": 0, "rental_uris": {"android": "https://dc.lft.to/lastmile_qr_scan", "ios": "https://dc.lft.to/lastmile_qr_scan"}, "fusion_lon": 0.0}, {"lat": 38.909896833333335, "is_disabled": 0, "type": "electric_scooter", "lon": -77.041605, "bike_id": "70408f0830167d344abf2fa938685af6", "fusion_lat": 0.0, "name": "70408f0830167d344abf2fa938685af6", "is_reserved": 0, "rental_uris": {"android": "https://dc.lft.to/lastmile_qr_scan", "ios": "https://dc.lft.to/lastmile_qr_scan"}, "fusion_lon": 0.0}, {"lat": 38.9827185, "is_disabled": 0, "type": "electric_bike", "lon": -77.01774166666667, "bike_id": "ef85f36ca3c2ef73cc0ca8550efc0bd5", "fusion_lat": 0.0, "name": "ef85f36ca3c2ef73cc0ca8550efc0bd5", "is_reserved": 0, "rental_uris": {"android": "https://dc.lft.to/lastmile_qr_scan", "ios": "https://dc.lft.to/lastmile_qr_scan"}, "fusion_lon": 0.0}, {"lat": 38.91677033333333, "is_disabled": 0, "type": "electric_scooter", "lon": -77.022884, "bike_id": "507aeb11ade3325abd60a5f08eb16200", "fusion_lat": 0.0, "name": "507aeb11ade3325abd60a5f08eb16200", "is_reserved": 0, "rental_uris": {"android": "https://dc.lft.to/lastmile_qr_scan", "ios": "https://dc.lft.to/lastmile_qr_scan"}, "fusion_lon": 0.0}, {"lat": 38.985074, "is_disabled": 0, "type": "electric_bike", "lon": -76.98218216666666, "bike_id": "dcb2bed9336f6f8aaf24ffb7c34e1714", "fusion_lat": 0.0, "name": "dcb2bed9336f6f8aaf24ffb7c34e1714", "is_reserved": 0, "rental_uris": {"android": "https://dc.lft.to/lastmile_qr_scan", "ios": "https://dc.lft.to/lastmile_qr_scan"}, "fusion_lon": 0.0}, {"lat": 38.8057815, "is_disabled": 0, "type": "electric_bike", "lon": -77.068621, "bike_id": "fb4a3054317b0b5867b7954f57663c06", "fusion_lat": 0.0, "name": "fb4a3054317b0b5867b7954f57663c06", "is_reserved": 0, "rental_uris": {"android": "https://dc.lft.to/lastmile_qr_scan", "ios": "https://dc.lft.to/lastmile_qr_scan"}, "fusion_lon": 0.0}, {"lat": 38.90254983333333, "is_disabled": 0, "type": "electric_scooter", "lon": -77.02646783333333, "bike_id": "77d922da66c7cd58fd664d9a98ad35dc", "fusion_lat": 0.0, "name": "77d922da66c7cd58fd664d9a98ad35dc", "is_reserved": 0, "rental_uris": {"android": "https://dc.lft.to/lastmile_qr_scan", "ios": "https://dc.lft.to/lastmile_qr_scan"}, "fusion_lon": 0.0}, {"lat": 38.88831883333334, "is_disabled": 0, "type": "electric_scooter", "lon": -76.994142, "bike_id": "5aaba9cd029fc764ad03f69fe72aade1", "fusion_lat": 0.0, "name": "5aaba9cd029fc764ad03f69fe72aade1", "is_reserved": 0, "rental_uris": {"android": "https://dc.lft.to/lastmile_qr_scan", "ios": "https://dc.lft.to/lastmile_qr_scan"}, "fusion_lon": 0.0}, {"lat": 38.90113083333333, "is_disabled": 0, "type": "electric_bike", "lon": -77.048882, "bike_id": "de1c9d4823628d277f87e38ba542a137", "fusion_lat": 0.0, "name": "de1c9d4823628d277f87e38ba542a137", "is_reserved": 0, "rental_uris": {"android": "https://dc.lft.to/lastmile_qr_scan", "ios": "https://dc.lft.to/lastmile_qr_scan"}, "fusion_lon": 0.0}, {"lat": 38.8768805, "is_disabled": 0, "type": "electric_bike", "lon": -77.0175735, "bike_id": "13f5860fff36c36f55b1e56f517f9d87", "fusion_lat": 0.0, "name": "13f5860fff36c36f55b1e56f517f9d87", "is_reserved": 0, "rental_uris": {"android": "https://dc.lft.to/lastmile_qr_scan", "ios": "https://dc.lft.to/lastmile_qr_scan"}, "fusion_lon": 0.0}, {"lat": 38.90671616666667, "is_disabled": 0, "type": "electric_scooter", "lon": -77.03827816666667, "bike_id": "447460a454ed3a4935bfbc7def7c6e2a", "fusion_lat": 0.0, "name": "447460a454ed3a4935bfbc7def7c6e2a", "is_reserved": 0, "rental_uris": {"android": "https://dc.lft.to/lastmile_qr_scan", "ios": "https://dc.lft.to/lastmile_qr_scan"}, "fusion_lon": 0.0}, {"lat": 38.909885333333335, "is_disabled": 0, "type": "electric_scooter", "lon": -76.98466783333333, "bike_id": "fc571fb7e296bcb4539a3d378d2da817", "fusion_lat": 0.0, "name": "fc571fb7e296bcb4539a3d378d2da817", "is_reserved": 0, "rental_uris": {"android": "https://dc.lft.to/lastmile_qr_scan", "ios": "https://dc.lft.to/lastmile_qr_scan"}, "fusion_lon": 0.0}, {"lat": 38.90851466666667, "is_disabled": 0, "type": "electric_scooter", "lon": -76.99965, "bike_id": "8f13845fd897bc5d2448cb042eb0c603", "fusion_lat": 0.0, "name": "8f13845fd897bc5d2448cb042eb0c603", "is_reserved": 0, "rental_uris": {"android": "https://dc.lft.to/lastmile_qr_scan", "ios": "https://dc.lft.to/lastmile_qr_scan"}, "fusion_lon": 0.0}, {"lat": 38.9203385, "is_disabled": 0, "type": "electric_scooter", "lon": -77.03402766666666, "bike_id": "019d69372155e1eec5b95a1778c8efec", "fusion_lat": 0.0, "name": "019d69372155e1eec5b95a1778c8efec", "is_reserved": 0, "rental_uris": {"android": "https://dc.lft.to/lastmile_qr_scan", "ios": "https://dc.lft.to/lastmile_qr_scan"}, "fusion_lon": 0.0}, {"lat": 38.83977616666667, "is_disabled": 0, "type": "electric_bike", "lon": -77.00572166666667, "bike_id": "d2cbe75b4a4969600746428d1dffad95", "fusion_lat": 0.0, "name": "d2cbe75b4a4969600746428d1dffad95", "is_reserved": 0, "rental_uris": {"android": "https://dc.lft.to/lastmile_qr_scan", "ios": "https://dc.lft.to/lastmile_qr_scan"}, "fusion_lon": 0.0}, {"lat": 38.924042166666666, "is_disabled": 0, "type": "electric_scooter", "lon": -77.05250716666667, "bike_id": "e0dad3c67e1753f2a14f00c1dfb9b99c", "fusion_lat": 0.0, "name": "e0dad3c67e1753f2a14f00c1dfb9b99c", "is_reserved": 0, "rental_uris": {"android": "https://dc.lft.to/lastmile_qr_scan", "ios": "https://dc.lft.to/lastmile_qr_scan"}, "fusion_lon": 0.0}, {"lat": 38.90039016666667, "is_disabled": 0, "type": "electric_scooter", "lon": -76.99509183333333, "bike_id": "7d59cedfa15b8a8da3bc71f5e3a61ba9", "fusion_lat": 0.0, "name": "7d59cedfa15b8a8da3bc71f5e3a61ba9", "is_reserved": 0, "rental_uris": {"android": "https://dc.lft.to/lastmile_qr_scan", "ios": "https://dc.lft.to/lastmile_qr_scan"}, "fusion_lon": 0.0}, {"lat": 38.88813016666667, "is_disabled": 0, "type": "electric_scooter", "lon": -76.933464, "bike_id": "ec8dba451d8dbe21537ee9f9bb632891", "fusion_lat": 0.0, "name": "ec8dba451d8dbe21537ee9f9bb632891", "is_reserved": 0, "rental_uris": {"android": "https://dc.lft.to/lastmile_qr_scan", "ios": "https://dc.lft.to/lastmile_qr_scan"}, "fusion_lon": 0.0}, {"lat": 38.90623566666667, "is_disabled": 0, "type": "electric_scooter", "lon": -77.02184266666667, "bike_id": "8bdea7b2073399c14cd2809b376075ae", "fusion_lat": 0.0, "name": "8bdea7b2073399c14cd2809b376075ae", "is_reserved": 0, "rental_uris": {"android": "https://dc.lft.to/lastmile_qr_scan", "ios": "https://dc.lft.to/lastmile_qr_scan"}, "fusion_lon": 0.0}, {"lat": 38.8873775, "is_disabled": 0, "type": "electric_scooter", "lon": -77.0220515, "bike_id": "64ea21324d925d5a622b369cfaacc17c", "fusion_lat": 0.0, "name": "64ea21324d925d5a622b369cfaacc17c", "is_reserved": 0, "rental_uris": {"android": "https://dc.lft.to/lastmile_qr_scan", "ios": "https://dc.lft.to/lastmile_qr_scan"}, "fusion_lon": 0.0}, {"lat": 38.9236225, "is_disabled": 0, "type": "electric_scooter", "lon": -77.05126933333334, "bike_id": "d2f987622045ef193e0804ea27d56f84", "fusion_lat": 0.0, "name": "d2f987622045ef193e0804ea27d56f84", "is_reserved": 0, "rental_uris": {"android": "https://dc.lft.to/lastmile_qr_scan", "ios": "https://dc.lft.to/lastmile_qr_scan"}, "fusion_lon": 0.0}, {"lat": 38.8939165, "is_disabled": 0, "type": "electric_scooter", "lon": -76.949989, "bike_id": "888ea313ad02b49c2d336fd12ce409a6", "fusion_lat": 0.0, "name": "888ea313ad02b49c2d336fd12ce409a6", "is_reserved": 0, "rental_uris": {"android": "https://dc.lft.to/lastmile_qr_scan", "ios": "https://dc.lft.to/lastmile_qr_scan"}, "fusion_lon": 0.0}, {"lat": 38.91564833333333, "is_disabled": 0, "type": "electric_scooter", "lon": -77.02003116666667, "bike_id": "e3ed85313a1caf787a4d1ff0dc4c3b86", "fusion_lat": 0.0, "name": "e3ed85313a1caf787a4d1ff0dc4c3b86", "is_reserved": 0, "rental_uris": {"android": "https://dc.lft.to/lastmile_qr_scan", "ios": "https://dc.lft.to/lastmile_qr_scan"}, "fusion_lon": 0.0}, {"lat": 38.9540995, "is_disabled": 0, "type": "electric_bike", "lon": -76.98064766666667, "bike_id": "f8ad735a40d5a539874e24c5acb0aad2", "fusion_lat": 0.0, "name": "f8ad735a40d5a539874e24c5acb0aad2", "is_reserved": 0, "rental_uris": {"android": "https://dc.lft.to/lastmile_qr_scan", "ios": "https://dc.lft.to/lastmile_qr_scan"}, "fusion_lon": 0.0}, {"lat": 38.94429816666667, "is_disabled": 0, "type": "electric_scooter", "lon": -77.0634215, "bike_id": "14ca3aa3ef8f2fa42ff20131b3d2c6ac", "fusion_lat": 0.0, "name": "14ca3aa3ef8f2fa42ff20131b3d2c6ac", "is_reserved": 0, "rental_uris": {"android": "https://dc.lft.to/lastmile_qr_scan", "ios": "https://dc.lft.to/lastmile_qr_scan"}, "fusion_lon": 0.0}, {"lat": 38.90095266666667, "is_disabled": 0, "type": "electric_scooter", "lon": -77.000713, "bike_id": "239fa4d468034d5a3ffb213d704ebbb3", "fusion_lat": 0.0, "name": "239fa4d468034d5a3ffb213d704ebbb3", "is_reserved": 0, "rental_uris": {"android": "https://dc.lft.to/lastmile_qr_scan", "ios": "https://dc.lft.to/lastmile_qr_scan"}, "fusion_lon": 0.0}, {"lat": 38.919124333333336, "is_disabled": 0, "type": "electric_scooter", "lon": -77.02596166666666, "bike_id": "c8be18cf89db6e01f38bbcf3f8c24b8e", "fusion_lat": 0.0, "name": "c8be18cf89db6e01f38bbcf3f8c24b8e", "is_reserved": 0, "rental_uris": {"android": "https://dc.lft.to/lastmile_qr_scan", "ios": "https://dc.lft.to/lastmile_qr_scan"}, "fusion_lon": 0.0}, {"lat": 38.8734645, "is_disabled": 0, "type": "electric_scooter", "lon": -76.99169666666667, "bike_id": "406bb3d409616747c33bc6ced34c739b", "fusion_lat": 0.0, "name": "406bb3d409616747c33bc6ced34c739b", "is_reserved": 0, "rental_uris": {"android": "https://dc.lft.to/lastmile_qr_scan", "ios": "https://dc.lft.to/lastmile_qr_scan"}, "fusion_lon": 0.0}, {"lat": 38.905029, "is_disabled": 0, "type": "electric_scooter", "lon": -77.02947183333333, "bike_id": "4c27b00a95a833b07f96ca82535b9ae2", "fusion_lat": 0.0, "name": "4c27b00a95a833b07f96ca82535b9ae2", "is_reserved": 0, "rental_uris": {"android": "https://dc.lft.to/lastmile_qr_scan", "ios": "https://dc.lft.to/lastmile_qr_scan"}, "fusion_lon": 0.0}, {"lat": 38.90674766666667, "is_disabled": 0, "type": "electric_scooter", "lon": -77.03825016666667, "bike_id": "f459c7e2665988381bc44289af3f1c52", "fusion_lat": 0.0, "name": "f459c7e2665988381bc44289af3f1c52", "is_reserved": 0, "rental_uris": {"android": "https://dc.lft.to/lastmile_qr_scan", "ios": "https://dc.lft.to/lastmile_qr_scan"}, "fusion_lon": 0.0}, {"lat": 38.88335083333333, "is_disabled": 0, "type": "electric_scooter", "lon": -77.00939183333334, "bike_id": "71359ffd9a6e255bd229dcfd323be5c2", "fusion_lat": 0.0, "name": "71359ffd9a6e255bd229dcfd323be5c2", "is_reserved": 0, "rental_uris": {"android": "https://dc.lft.to/lastmile_qr_scan", "ios": "https://dc.lft.to/lastmile_qr_scan"}, "fusion_lon": 0.0}, {"lat": 38.91546366666667, "is_disabled": 0, "type": "electric_scooter", "lon": -77.03856533333334, "bike_id": "57fd4dd294f5d1b92c550b29c5536a91", "fusion_lat": 0.0, "name": "57fd4dd294f5d1b92c550b29c5536a91", "is_reserved": 0, "rental_uris": {"android": "https://dc.lft.to/lastmile_qr_scan", "ios": "https://dc.lft.to/lastmile_qr_scan"}, "fusion_lon": 0.0}, {"lat": 38.793235, "is_disabled": 0, "type": "electric_bike", "lon": -77.04020783333333, "bike_id": "04f828c64d9ef5cf22fa682b95b066a8", "fusion_lat": 0.0, "name": "04f828c64d9ef5cf22fa682b95b066a8", "is_reserved": 0, "rental_uris": {"android": "https://dc.lft.to/lastmile_qr_scan", "ios": "https://dc.lft.to/lastmile_qr_scan"}, "fusion_lon": 0.0}, {"lat": 38.94905966666666, "is_disabled": 0, "type": "electric_bike", "lon": -76.97239166666667, "bike_id": "35da8c751f3fdf643125e35f6c328788", "fusion_lat": 0.0, "name": "35da8c751f3fdf643125e35f6c328788", "is_reserved": 0, "rental_uris": {"android": "https://dc.lft.to/lastmile_qr_scan", "ios": "https://dc.lft.to/lastmile_qr_scan"}, "fusion_lon": 0.0}, {"lat": 38.926833333333335, "is_disabled": 0, "type": "electric_scooter", "lon": -77.01575716666666, "bike_id": "a93ad473b437457cbfc847693aa389a2", "fusion_lat": 0.0, "name": "a93ad473b437457cbfc847693aa389a2", "is_reserved": 0, "rental_uris": {"android": "https://dc.lft.to/lastmile_qr_scan", "ios": "https://dc.lft.to/lastmile_qr_scan"}, "fusion_lon": 0.0}, {"lat": 38.87371233333333, "is_disabled": 0, "type": "electric_bike", "lon": -77.11804733333334, "bike_id": "9001818b3f7ba071c6018d14e9149fb3", "fusion_lat": 0.0, "name": "9001818b3f7ba071c6018d14e9149fb3", "is_reserved": 0, "rental_uris": {"android": "https://dc.lft.to/lastmile_qr_scan", "ios": "https://dc.lft.to/lastmile_qr_scan"}, "fusion_lon": 0.0}, {"lat": 38.89220516666666, "is_disabled": 0, "type": "electric_scooter", "lon": -77.0262475, "bike_id": "4ce8e6ef743e334d749aa37418dbca8f", "fusion_lat": 0.0, "name": "4ce8e6ef743e334d749aa37418dbca8f", "is_reserved": 0, "rental_uris": {"android": "https://dc.lft.to/lastmile_qr_scan", "ios": "https://dc.lft.to/lastmile_qr_scan"}, "fusion_lon": 0.0}, {"lat": 38.90150216666667, "is_disabled": 0, "type": "electric_scooter", "lon": -77.0150075, "bike_id": "2618e8ed1402dcc29c8e578808a0fa73", "fusion_lat": 0.0, "name": "2618e8ed1402dcc29c8e578808a0fa73", "is_reserved": 0, "rental_uris": {"android": "https://dc.lft.to/lastmile_qr_scan", "ios": "https://dc.lft.to/lastmile_qr_scan"}, "fusion_lon": 0.0}, {"lat": 38.887519833333336, "is_disabled": 0, "type": "electric_scooter", "lon": -77.0322885, "bike_id": "43694d889c34f6436c8869b89828da17", "fusion_lat": 0.0, "name": "43694d889c34f6436c8869b89828da17", "is_reserved": 0, "rental_uris": {"android": "https://dc.lft.to/lastmile_qr_scan", "ios": "https://dc.lft.to/lastmile_qr_scan"}, "fusion_lon": 0.0}, {"lat": 38.898852166666664, "is_disabled": 0, "type": "electric_scooter", "lon": -77.03234966666666, "bike_id": "4f936c1abf4263c5dab8119c9c985b1e", "fusion_lat": 0.0, "name": "4f936c1abf4263c5dab8119c9c985b1e", "is_reserved": 0, "rental_uris": {"android": "https://dc.lft.to/lastmile_qr_scan", "ios": "https://dc.lft.to/lastmile_qr_scan"}, "fusion_lon": 0.0}, {"lat": 38.9660875, "is_disabled": 0, "type": "electric_scooter", "lon": -77.020588, "bike_id": "d9aa25dfe93481b25e6cf71e3523aad1", "fusion_lat": 0.0, "name": "d9aa25dfe93481b25e6cf71e3523aad1", "is_reserved": 0, "rental_uris": {"android": "https://dc.lft.to/lastmile_qr_scan", "ios": "https://dc.lft.to/lastmile_qr_scan"}, "fusion_lon": 0.0}, {"lat": 38.896120833333335, "is_disabled": 0, "type": "electric_scooter", "lon": -77.03160416666667, "bike_id": "6b8b11e68571c8144beb67d3d3912544", "fusion_lat": 0.0, "name": "6b8b11e68571c8144beb67d3d3912544", "is_reserved": 0, "rental_uris": {"android": "https://dc.lft.to/lastmile_qr_scan", "ios": "https://dc.lft.to/lastmile_qr_scan"}, "fusion_lon": 0.0}, {"lat": 38.905007, "is_disabled": 0, "type": "electric_scooter", "lon": -77.029455, "bike_id": "98589389fe9142b2c4bc1b51804b89b5", "fusion_lat": 0.0, "name": "98589389fe9142b2c4bc1b51804b89b5", "is_reserved": 0, "rental_uris": {"android": "https://dc.lft.to/lastmile_qr_scan", "ios": "https://dc.lft.to/lastmile_qr_scan"}, "fusion_lon": 0.0}, {"lat": 38.896178, "is_disabled": 0, "type": "electric_scooter", "lon": -77.031658, "bike_id": "a0dab772c1caba03a8b36fa119ee7b2e", "fusion_lat": 0.0, "name": "a0dab772c1caba03a8b36fa119ee7b2e", "is_reserved": 0, "rental_uris": {"android": "https://dc.lft.to/lastmile_qr_scan", "ios": "https://dc.lft.to/lastmile_qr_scan"}, "fusion_lon": 0.0}, {"lat": 38.9207935, "is_disabled": 0, "type": "electric_scooter", "lon": -77.0250685, "bike_id": "c9d13ace51b70b6480bffcaf85e62115", "fusion_lat": 0.0, "name": "c9d13ace51b70b6480bffcaf85e62115", "is_reserved": 0, "rental_uris": {"android": "https://dc.lft.to/lastmile_qr_scan", "ios": "https://dc.lft.to/lastmile_qr_scan"}, "fusion_lon": 0.0}, {"lat": 38.901320166666665, "is_disabled": 0, "type": "electric_scooter", "lon": -77.03271983333333, "bike_id": "2644e8dee51a9f93158cd8d7f9be8e11", "fusion_lat": 0.0, "name": "2644e8dee51a9f93158cd8d7f9be8e11", "is_reserved": 0, "rental_uris": {"android": "https://dc.lft.to/lastmile_qr_scan", "ios": "https://dc.lft.to/lastmile_qr_scan"}, "fusion_lon": 0.0}, {"lat": 38.907325, "is_disabled": 0, "type": "electric_bike", "lon": -77.01067866666666, "bike_id": "18aa0bb9b36aede125c99f242c3b6e11", "fusion_lat": 0.0, "name": "18aa0bb9b36aede125c99f242c3b6e11", "is_reserved": 0, "rental_uris": {"android": "https://dc.lft.to/lastmile_qr_scan", "ios": "https://dc.lft.to/lastmile_qr_scan"}, "fusion_lon": 0.0}, {"lat": 38.90732216666667, "is_disabled": 0, "type": "electric_scooter", "lon": -77.02954333333334, "bike_id": "22cfc8ca82b60132a004aee245cf86a8", "fusion_lat": 0.0, "name": "22cfc8ca82b60132a004aee245cf86a8", "is_reserved": 0, "rental_uris": {"android": "https://dc.lft.to/lastmile_qr_scan", "ios": "https://dc.lft.to/lastmile_qr_scan"}, "fusion_lon": 0.0}, {"lat": 38.90378583333333, "is_disabled": 0, "type": "electric_scooter", "lon": -77.02008283333333, "bike_id": "3177316a37fa46ced444a0e9feeaffad", "fusion_lat": 0.0, "name": "3177316a37fa46ced444a0e9feeaffad", "is_reserved": 0, "rental_uris": {"android": "https://dc.lft.to/lastmile_qr_scan", "ios": "https://dc.lft.to/lastmile_qr_scan"}, "fusion_lon": 0.0}, {"lat": 38.861089666666665, "is_disabled": 0, "type": "electric_scooter", "lon": -76.98882233333333, "bike_id": "92c5209025e3dcbf63bf426556a4d2c8", "fusion_lat": 0.0, "name": "92c5209025e3dcbf63bf426556a4d2c8", "is_reserved": 0, "rental_uris": {"android": "https://dc.lft.to/lastmile_qr_scan", "ios": "https://dc.lft.to/lastmile_qr_scan"}, "fusion_lon": 0.0}, {"lat": 38.906730333333336, "is_disabled": 0, "type": "electric_scooter", "lon": -77.03829666666667, "bike_id": "202db84fdc8c1340e5825c9d0882a6b2", "fusion_lat": 0.0, "name": "202db84fdc8c1340e5825c9d0882a6b2", "is_reserved": 0, "rental_uris": {"android": "https://dc.lft.to/lastmile_qr_scan", "ios": "https://dc.lft.to/lastmile_qr_scan"}, "fusion_lon": 0.0}, {"lat": 38.90231383333333, "is_disabled": 0, "type": "electric_scooter", "lon": -77.03952666666666, "bike_id": "f85d1f10729250418f20e2c86b20f94f", "fusion_lat": 0.0, "name": "f85d1f10729250418f20e2c86b20f94f", "is_reserved": 0, "rental_uris": {"android": "https://dc.lft.to/lastmile_qr_scan", "ios": "https://dc.lft.to/lastmile_qr_scan"}, "fusion_lon": 0.0}, {"lat": 38.91561566666667, "is_disabled": 0, "type": "electric_scooter", "lon": -77.02006266666666, "bike_id": "aedb3ea1b6a81e01e71b1caa6a8d558a", "fusion_lat": 0.0, "name": "aedb3ea1b6a81e01e71b1caa6a8d558a", "is_reserved": 0, "rental_uris": {"android": "https://dc.lft.to/lastmile_qr_scan", "ios": "https://dc.lft.to/lastmile_qr_scan"}, "fusion_lon": 0.0}, {"lat": 38.89971833333333, "is_disabled": 0, "type": "electric_scooter", "lon": -76.9273605, "bike_id": "424867a4bd69d6d1fc66cd623714d556", "fusion_lat": 0.0, "name": "424867a4bd69d6d1fc66cd623714d556", "is_reserved": 0, "rental_uris": {"android": "https://dc.lft.to/lastmile_qr_scan", "ios": "https://dc.lft.to/lastmile_qr_scan"}, "fusion_lon": 0.0}, {"lat": 38.91674966666667, "is_disabled": 0, "type": "electric_scooter", "lon": -77.02719783333333, "bike_id": "33725d074a1d72c3d5d4c5c976299d30", "fusion_lat": 0.0, "name": "33725d074a1d72c3d5d4c5c976299d30", "is_reserved": 0, "rental_uris": {"android": "https://dc.lft.to/lastmile_qr_scan", "ios": "https://dc.lft.to/lastmile_qr_scan"}, "fusion_lon": 0.0}, {"lat": 38.90738983333333, "is_disabled": 0, "type": "electric_scooter", "lon": -77.02713616666666, "bike_id": "cf656a244eaa22c07942ef1a5ad32d3a", "fusion_lat": 0.0, "name": "cf656a244eaa22c07942ef1a5ad32d3a", "is_reserved": 0, "rental_uris": {"android": "https://dc.lft.to/lastmile_qr_scan", "ios": "https://dc.lft.to/lastmile_qr_scan"}, "fusion_lon": 0.0}, {"lat": 38.88434183333333, "is_disabled": 0, "type": "electric_scooter", "lon": -76.95758166666667, "bike_id": "366ae8045d5f244eaa42514f7be087a9", "fusion_lat": 0.0, "name": "366ae8045d5f244eaa42514f7be087a9", "is_reserved": 0, "rental_uris": {"android": "https://dc.lft.to/lastmile_qr_scan", "ios": "https://dc.lft.to/lastmile_qr_scan"}, "fusion_lon": 0.0}, {"lat": 38.929910666666665, "is_disabled": 0, "type": "electric_scooter", "lon": -77.02634383333333, "bike_id": "a97f70943543803a40fd9c72a382e675", "fusion_lat": 0.0, "name": "a97f70943543803a40fd9c72a382e675", "is_reserved": 0, "rental_uris": {"android": "https://dc.lft.to/lastmile_qr_scan", "ios": "https://dc.lft.to/lastmile_qr_scan"}, "fusion_lon": 0.0}, {"lat": 38.9170725, "is_disabled": 0, "type": "electric_scooter", "lon": -77.0387375, "bike_id": "b4c5939b0382a7cd31623af62e934c36", "fusion_lat": 0.0, "name": "b4c5939b0382a7cd31623af62e934c36", "is_reserved": 0, "rental_uris": {"android": "https://dc.lft.to/lastmile_qr_scan", "ios": "https://dc.lft.to/lastmile_qr_scan"}, "fusion_lon": 0.0}, {"lat": 38.9075845, "is_disabled": 0, "type": "electric_scooter", "lon": -77.03457133333333, "bike_id": "a619ebcbc208d6fff8cdcd21dff51c9c", "fusion_lat": 0.0, "name": "a619ebcbc208d6fff8cdcd21dff51c9c", "is_reserved": 0, "rental_uris": {"android": "https://dc.lft.to/lastmile_qr_scan", "ios": "https://dc.lft.to/lastmile_qr_scan"}, "fusion_lon": 0.0}, {"lat": 38.9024815, "is_disabled": 0, "type": "electric_scooter", "lon": -77.043546, "bike_id": "7009afc6c3ba6dc9eea4fbf0ea933004", "fusion_lat": 0.0, "name": "7009afc6c3ba6dc9eea4fbf0ea933004", "is_reserved": 0, "rental_uris": {"android": "https://dc.lft.to/lastmile_qr_scan", "ios": "https://dc.lft.to/lastmile_qr_scan"}, "fusion_lon": 0.0}, {"lat": 38.92347383333333, "is_disabled": 0, "type": "electric_scooter", "lon": -77.0353415, "bike_id": "63062626d26f01f82a15a5ccc152a672", "fusion_lat": 0.0, "name": "63062626d26f01f82a15a5ccc152a672", "is_reserved": 0, "rental_uris": {"android": "https://dc.lft.to/lastmile_qr_scan", "ios": "https://dc.lft.to/lastmile_qr_scan"}, "fusion_lon": 0.0}, {"lat": 38.903023, "is_disabled": 0, "type": "electric_scooter", "lon": -77.01182966666667, "bike_id": "b5df8eb39a57429302d4217aa90282da", "fusion_lat": 0.0, "name": "b5df8eb39a57429302d4217aa90282da", "is_reserved": 0, "rental_uris": {"android": "https://dc.lft.to/lastmile_qr_scan", "ios": "https://dc.lft.to/lastmile_qr_scan"}, "fusion_lon": 0.0}, {"lat": 38.901627, "is_disabled": 0, "type": "electric_scooter", "lon": -77.0250325, "bike_id": "b07245959936f8aadd4e1b12acb030f7", "fusion_lat": 0.0, "name": "b07245959936f8aadd4e1b12acb030f7", "is_reserved": 0, "rental_uris": {"android": "https://dc.lft.to/lastmile_qr_scan", "ios": "https://dc.lft.to/lastmile_qr_scan"}, "fusion_lon": 0.0}, {"lat": 38.9188175, "is_disabled": 0, "type": "electric_scooter", "lon": -77.04448366666666, "bike_id": "559addf017a43b8e1d6d279d16369eda", "fusion_lat": 0.0, "name": "559addf017a43b8e1d6d279d16369eda", "is_reserved": 0, "rental_uris": {"android": "https://dc.lft.to/lastmile_qr_scan", "ios": "https://dc.lft.to/lastmile_qr_scan"}, "fusion_lon": 0.0}, {"lat": 38.92233516666667, "is_disabled": 0, "type": "electric_scooter", "lon": -77.0424925, "bike_id": "dfcb2a9d3504e71ef0b99a762a5f64a6", "fusion_lat": 0.0, "name": "dfcb2a9d3504e71ef0b99a762a5f64a6", "is_reserved": 0, "rental_uris": {"android": "https://dc.lft.to/lastmile_qr_scan", "ios": "https://dc.lft.to/lastmile_qr_scan"}, "fusion_lon": 0.0}, {"lat": 39.034231, "is_disabled": 0, "type": "electric_bike", "lon": -77.04255566666667, "bike_id": "631e621f27ec430533ac6d47fe3ca19e", "fusion_lat": 0.0, "name": "631e621f27ec430533ac6d47fe3ca19e", "is_reserved": 0, "rental_uris": {"android": "https://dc.lft.to/lastmile_qr_scan", "ios": "https://dc.lft.to/lastmile_qr_scan"}, "fusion_lon": 0.0}, {"lat": 38.932038666666664, "is_disabled": 0, "type": "electric_scooter", "lon": -77.0442555, "bike_id": "16ea6095a7a6eb47da1ee00b2d5c3266", "fusion_lat": 0.0, "name": "16ea6095a7a6eb47da1ee00b2d5c3266", "is_reserved": 0, "rental_uris": {"android": "https://dc.lft.to/lastmile_qr_scan", "ios": "https://dc.lft.to/lastmile_qr_scan"}, "fusion_lon": 0.0}, {"lat": 38.917073333333335, "is_disabled": 0, "type": "electric_scooter", "lon": -77.02949966666667, "bike_id": "9f403585a8cf8e70db122637d3377f09", "fusion_lat": 0.0, "name": "9f403585a8cf8e70db122637d3377f09", "is_reserved": 0, "rental_uris": {"android": "https://dc.lft.to/lastmile_qr_scan", "ios": "https://dc.lft.to/lastmile_qr_scan"}, "fusion_lon": 0.0}, {"lat": 38.933027, "is_disabled": 0, "type": "electric_scooter", "lon": -77.03592783333333, "bike_id": "7e22af132cb19c1755b97755b7c68341", "fusion_lat": 0.0, "name": "7e22af132cb19c1755b97755b7c68341", "is_reserved": 0, "rental_uris": {"android": "https://dc.lft.to/lastmile_qr_scan", "ios": "https://dc.lft.to/lastmile_qr_scan"}, "fusion_lon": 0.0}, {"lat": 38.92211983333333, "is_disabled": 0, "type": "electric_bike", "lon": -76.987989, "bike_id": "581e2419997aab63f39431f8f7df7281", "fusion_lat": 0.0, "name": "581e2419997aab63f39431f8f7df7281", "is_reserved": 0, "rental_uris": {"android": "https://dc.lft.to/lastmile_qr_scan", "ios": "https://dc.lft.to/lastmile_qr_scan"}, "fusion_lon": 0.0}, {"lat": 38.897553333333335, "is_disabled": 0, "type": "electric_scooter", "lon": -77.05497083333333, "bike_id": "198501326e70963bb66486df8ace934c", "fusion_lat": 0.0, "name": "198501326e70963bb66486df8ace934c", "is_reserved": 0, "rental_uris": {"android": "https://dc.lft.to/lastmile_qr_scan", "ios": "https://dc.lft.to/lastmile_qr_scan"}, "fusion_lon": 0.0}, {"lat": 38.87630383333333, "is_disabled": 0, "type": "electric_scooter", "lon": -76.965273, "bike_id": "24cea704624b50ff458e5058bef898bc", "fusion_lat": 0.0, "name": "24cea704624b50ff458e5058bef898bc", "is_reserved": 0, "rental_uris": {"android": "https://dc.lft.to/lastmile_qr_scan", "ios": "https://dc.lft.to/lastmile_qr_scan"}, "fusion_lon": 0.0}, {"lat": 38.9156325, "is_disabled": 0, "type": "electric_scooter", "lon": -77.03151483333333, "bike_id": "e042eeaa2793de2f2dd8cb59c01d6ad8", "fusion_lat": 0.0, "name": "e042eeaa2793de2f2dd8cb59c01d6ad8", "is_reserved": 0, "rental_uris": {"android": "https://dc.lft.to/lastmile_qr_scan", "ios": "https://dc.lft.to/lastmile_qr_scan"}, "fusion_lon": 0.0}, {"lat": 38.901940833333335, "is_disabled": 0, "type": "electric_scooter", "lon": -77.02187683333334, "bike_id": "a7d4e6cb47c7269adff628767f2adbcc", "fusion_lat": 0.0, "name": "a7d4e6cb47c7269adff628767f2adbcc", "is_reserved": 0, "rental_uris": {"android": "https://dc.lft.to/lastmile_qr_scan", "ios": "https://dc.lft.to/lastmile_qr_scan"}, "fusion_lon": 0.0}, {"lat": 38.877893666666665, "is_disabled": 0, "type": "electric_scooter", "lon": -76.99418433333334, "bike_id": "b62f3640ed237262e7fcf71e865b851e", "fusion_lat": 0.0, "name": "b62f3640ed237262e7fcf71e865b851e", "is_reserved": 0, "rental_uris": {"android": "https://dc.lft.to/lastmile_qr_scan", "ios": "https://dc.lft.to/lastmile_qr_scan"}, "fusion_lon": 0.0}, {"lat": 38.92246433333333, "is_disabled": 0, "type": "electric_scooter", "lon": -77.0219195, "bike_id": "f8262b23c271ca3ea2ea6e1726ebe91d", "fusion_lat": 0.0, "name": "f8262b23c271ca3ea2ea6e1726ebe91d", "is_reserved": 0, "rental_uris": {"android": "https://dc.lft.to/lastmile_qr_scan", "ios": "https://dc.lft.to/lastmile_qr_scan"}, "fusion_lon": 0.0}, {"lat": 38.9978105, "is_disabled": 0, "type": "electric_bike", "lon": -77.00762616666667, "bike_id": "7deed60f1968053af5b1730c99cf32a0", "fusion_lat": 0.0, "name": "7deed60f1968053af5b1730c99cf32a0", "is_reserved": 0, "rental_uris": {"android": "https://dc.lft.to/lastmile_qr_scan", "ios": "https://dc.lft.to/lastmile_qr_scan"}, "fusion_lon": 0.0}, {"lat": 38.924685, "is_disabled": 0, "type": "electric_scooter", "lon": -77.052357, "bike_id": "c2b2d3ca12af4c15410e62a520d17bd1", "fusion_lat": 0.0, "name": "c2b2d3ca12af4c15410e62a520d17bd1", "is_reserved": 0, "rental_uris": {"android": "https://dc.lft.to/lastmile_qr_scan", "ios": "https://dc.lft.to/lastmile_qr_scan"}, "fusion_lon": 0.0}, {"lat": 38.89220066666667, "is_disabled": 0, "type": "electric_scooter", "lon": -77.03214816666667, "bike_id": "d7b7b60334fc1e1e113e59e639ef17ef", "fusion_lat": 0.0, "name": "d7b7b60334fc1e1e113e59e639ef17ef", "is_reserved": 0, "rental_uris": {"android": "https://dc.lft.to/lastmile_qr_scan", "ios": "https://dc.lft.to/lastmile_qr_scan"}, "fusion_lon": 0.0}, {"lat": 38.9236585, "is_disabled": 0, "type": "electric_scooter", "lon": -77.0513075, "bike_id": "71fd405ba7b2526522aeebcb3b3dc4c9", "fusion_lat": 0.0, "name": "71fd405ba7b2526522aeebcb3b3dc4c9", "is_reserved": 0, "rental_uris": {"android": "https://dc.lft.to/lastmile_qr_scan", "ios": "https://dc.lft.to/lastmile_qr_scan"}, "fusion_lon": 0.0}, {"lat": 38.95779683333333, "is_disabled": 0, "type": "electric_scooter", "lon": -77.02753616666666, "bike_id": "21634dd5a95e8c4a8127573ac8e1f2cc", "fusion_lat": 0.0, "name": "21634dd5a95e8c4a8127573ac8e1f2cc", "is_reserved": 0, "rental_uris": {"android": "https://dc.lft.to/lastmile_qr_scan", "ios": "https://dc.lft.to/lastmile_qr_scan"}, "fusion_lon": 0.0}, {"lat": 38.88430483333333, "is_disabled": 0, "type": "electric_scooter", "lon": -76.9575615, "bike_id": "81a4228a2c9e998d28577536bc23a278", "fusion_lat": 0.0, "name": "81a4228a2c9e998d28577536bc23a278", "is_reserved": 0, "rental_uris": {"android": "https://dc.lft.to/lastmile_qr_scan", "ios": "https://dc.lft.to/lastmile_qr_scan"}, "fusion_lon": 0.0}, {"lat": 38.9073535, "is_disabled": 0, "type": "electric_scooter", "lon": -77.0345385, "bike_id": "7238e80fa456efe2760b0bb7737adfbd", "fusion_lat": 0.0, "name": "7238e80fa456efe2760b0bb7737adfbd", "is_reserved": 0, "rental_uris": {"android": "https://dc.lft.to/lastmile_qr_scan", "ios": "https://dc.lft.to/lastmile_qr_scan"}, "fusion_lon": 0.0}, {"lat": 38.91979333333333, "is_disabled": 0, "type": "electric_scooter", "lon": -77.0238505, "bike_id": "e1a9f58748b318b95d325b9b233ef550", "fusion_lat": 0.0, "name": "e1a9f58748b318b95d325b9b233ef550", "is_reserved": 0, "rental_uris": {"android": "https://dc.lft.to/lastmile_qr_scan", "ios": "https://dc.lft.to/lastmile_qr_scan"}, "fusion_lon": 0.0}, {"lat": 38.9005935, "is_disabled": 0, "type": "electric_scooter", "lon": -77.049203, "bike_id": "276ce0f0e68a81e1d9965553aa39acf6", "fusion_lat": 0.0, "name": "276ce0f0e68a81e1d9965553aa39acf6", "is_reserved": 0, "rental_uris": {"android": "https://dc.lft.to/lastmile_qr_scan", "ios": "https://dc.lft.to/lastmile_qr_scan"}, "fusion_lon": 0.0}, {"lat": 38.91779916666667, "is_disabled": 0, "type": "electric_scooter", "lon": -77.04343483333334, "bike_id": "94819142c432bf3d54808d8468499b53", "fusion_lat": 0.0, "name": "94819142c432bf3d54808d8468499b53", "is_reserved": 0, "rental_uris": {"android": "https://dc.lft.to/lastmile_qr_scan", "ios": "https://dc.lft.to/lastmile_qr_scan"}, "fusion_lon": 0.0}, {"lat": 38.956501, "is_disabled": 0, "type": "electric_scooter", "lon": -77.02403183333334, "bike_id": "673bc3739f1acd629e5c6af170d23224", "fusion_lat": 0.0, "name": "673bc3739f1acd629e5c6af170d23224", "is_reserved": 0, "rental_uris": {"android": "https://dc.lft.to/lastmile_qr_scan", "ios": "https://dc.lft.to/lastmile_qr_scan"}, "fusion_lon": 0.0}, {"lat": 38.871965333333335, "is_disabled": 0, "type": "electric_bike", "lon": -77.0122235, "bike_id": "db324f8e2b79d49d94eae37af29e68cf", "fusion_lat": 0.0, "name": "db324f8e2b79d49d94eae37af29e68cf", "is_reserved": 0, "rental_uris": {"android": "https://dc.lft.to/lastmile_qr_scan", "ios": "https://dc.lft.to/lastmile_qr_scan"}, "fusion_lon": 0.0}, {"lat": 38.98128533333333, "is_disabled": 0, "type": "electric_bike", "lon": -77.00777583333333, "bike_id": "157874bd3bbe5adfc98672c2fa0d94b1", "fusion_lat": 0.0, "name": "157874bd3bbe5adfc98672c2fa0d94b1", "is_reserved": 0, "rental_uris": {"android": "https://dc.lft.to/lastmile_qr_scan", "ios": "https://dc.lft.to/lastmile_qr_scan"}, "fusion_lon": 0.0}, {"lat": 38.92248416666666, "is_disabled": 0, "type": "electric_scooter", "lon": -77.03469116666666, "bike_id": "5a2f8f1273440b7c7a9797edd3926d6a", "fusion_lat": 0.0, "name": "5a2f8f1273440b7c7a9797edd3926d6a", "is_reserved": 0, "rental_uris": {"android": "https://dc.lft.to/lastmile_qr_scan", "ios": "https://dc.lft.to/lastmile_qr_scan"}, "fusion_lon": 0.0}, {"lat": 38.912422666666664, "is_disabled": 0, "type": "electric_scooter", "lon": -77.047617, "bike_id": "0a6ec093eccbd302d474a99492396cd3", "fusion_lat": 0.0, "name": "0a6ec093eccbd302d474a99492396cd3", "is_reserved": 0, "rental_uris": {"android": "https://dc.lft.to/lastmile_qr_scan", "ios": "https://dc.lft.to/lastmile_qr_scan"}, "fusion_lon": 0.0}, {"lat": 38.935102666666666, "is_disabled": 0, "type": "electric_scooter", "lon": -77.033512, "bike_id": "fb5cf2ab4487bf668529faa8712f6c0d", "fusion_lat": 0.0, "name": "fb5cf2ab4487bf668529faa8712f6c0d", "is_reserved": 0, "rental_uris": {"android": "https://dc.lft.to/lastmile_qr_scan", "ios": "https://dc.lft.to/lastmile_qr_scan"}, "fusion_lon": 0.0}, {"lat": 38.91261133333333, "is_disabled": 0, "type": "electric_scooter", "lon": -77.038753, "bike_id": "074b7963ee55d8de9b1bb59e8acb03fe", "fusion_lat": 0.0, "name": "074b7963ee55d8de9b1bb59e8acb03fe", "is_reserved": 0, "rental_uris": {"android": "https://dc.lft.to/lastmile_qr_scan", "ios": "https://dc.lft.to/lastmile_qr_scan"}, "fusion_lon": 0.0}, {"lat": 38.904578666666666, "is_disabled": 0, "type": "electric_scooter", "lon": -77.062919, "bike_id": "abdce46219d7731b8324f15e0f035c1c", "fusion_lat": 0.0, "name": "abdce46219d7731b8324f15e0f035c1c", "is_reserved": 0, "rental_uris": {"android": "https://dc.lft.to/lastmile_qr_scan", "ios": "https://dc.lft.to/lastmile_qr_scan"}, "fusion_lon": 0.0}, {"lat": 38.927682833333336, "is_disabled": 0, "type": "electric_scooter", "lon": -77.02627216666667, "bike_id": "5f3dca13b6f6bb5a419be614233fec8a", "fusion_lat": 0.0, "name": "5f3dca13b6f6bb5a419be614233fec8a", "is_reserved": 0, "rental_uris": {"android": "https://dc.lft.to/lastmile_qr_scan", "ios": "https://dc.lft.to/lastmile_qr_scan"}, "fusion_lon": 0.0}, {"lat": 38.922920833333336, "is_disabled": 0, "type": "electric_scooter", "lon": -77.031875, "bike_id": "4cf172857d3f1aec0a233fd4e1d6e862", "fusion_lat": 0.0, "name": "4cf172857d3f1aec0a233fd4e1d6e862", "is_reserved": 0, "rental_uris": {"android": "https://dc.lft.to/lastmile_qr_scan", "ios": "https://dc.lft.to/lastmile_qr_scan"}, "fusion_lon": 0.0}, {"lat": 38.90895833333333, "is_disabled": 0, "type": "electric_scooter", "lon": -77.03139866666666, "bike_id": "cf259736c957a023a2bc223ff08413a0", "fusion_lat": 0.0, "name": "cf259736c957a023a2bc223ff08413a0", "is_reserved": 0, "rental_uris": {"android": "https://dc.lft.to/lastmile_qr_scan", "ios": "https://dc.lft.to/lastmile_qr_scan"}, "fusion_lon": 0.0}, {"lat": 38.9003765, "is_disabled": 0, "type": "electric_scooter", "lon": -76.9938505, "bike_id": "4c4e005fb729fe0e1777b95196e44020", "fusion_lat": 0.0, "name": "4c4e005fb729fe0e1777b95196e44020", "is_reserved": 0, "rental_uris": {"android": "https://dc.lft.to/lastmile_qr_scan", "ios": "https://dc.lft.to/lastmile_qr_scan"}, "fusion_lon": 0.0}, {"lat": 38.925347333333335, "is_disabled": 0, "type": "electric_scooter", "lon": -77.044243, "bike_id": "50cb90ddc54c262300e4d0f09de05400", "fusion_lat": 0.0, "name": "50cb90ddc54c262300e4d0f09de05400", "is_reserved": 0, "rental_uris": {"android": "https://dc.lft.to/lastmile_qr_scan", "ios": "https://dc.lft.to/lastmile_qr_scan"}, "fusion_lon": 0.0}, {"lat": 38.91771133333334, "is_disabled": 0, "type": "electric_scooter", "lon": -77.02299616666667, "bike_id": "dd5123cb683fc2019bc14ad03184a0e9", "fusion_lat": 0.0, "name": "dd5123cb683fc2019bc14ad03184a0e9", "is_reserved": 0, "rental_uris": {"android": "https://dc.lft.to/lastmile_qr_scan", "ios": "https://dc.lft.to/lastmile_qr_scan"}, "fusion_lon": 0.0}, {"lat": 38.877076, "is_disabled": 0, "type": "electric_scooter", "lon": -77.01753616666667, "bike_id": "b91141055cf4904d72146cb6bcdf5e50", "fusion_lat": 0.0, "name": "b91141055cf4904d72146cb6bcdf5e50", "is_reserved": 0, "rental_uris": {"android": "https://dc.lft.to/lastmile_qr_scan", "ios": "https://dc.lft.to/lastmile_qr_scan"}, "fusion_lon": 0.0}, {"lat": 38.922569333333335, "is_disabled": 0, "type": "electric_scooter", "lon": -77.04304066666667, "bike_id": "e37fb49d7b9856404eb4518716eab78d", "fusion_lat": 0.0, "name": "e37fb49d7b9856404eb4518716eab78d", "is_reserved": 0, "rental_uris": {"android": "https://dc.lft.to/lastmile_qr_scan", "ios": "https://dc.lft.to/lastmile_qr_scan"}, "fusion_lon": 0.0}, {"lat": 38.93640383333333, "is_disabled": 0, "type": "electric_scooter", "lon": -77.02491, "bike_id": "8163711319c11484c0d862341b1046cb", "fusion_lat": 0.0, "name": "8163711319c11484c0d862341b1046cb", "is_reserved": 0, "rental_uris": {"android": "https://dc.lft.to/lastmile_qr_scan", "ios": "https://dc.lft.to/lastmile_qr_scan"}, "fusion_lon": 0.0}, {"lat": 38.9006565, "is_disabled": 0, "type": "electric_scooter", "lon": -77.01824533333334, "bike_id": "92467fd12087aa596c23c3d8682ecd48", "fusion_lat": 0.0, "name": "92467fd12087aa596c23c3d8682ecd48", "is_reserved": 0, "rental_uris": {"android": "https://dc.lft.to/lastmile_qr_scan", "ios": "https://dc.lft.to/lastmile_qr_scan"}, "fusion_lon": 0.0}, {"lat": 38.91792916666667, "is_disabled": 0, "type": "electric_scooter", "lon": -77.04043166666666, "bike_id": "6dbb5a98488ea1083b9e17d7bec1f8a7", "fusion_lat": 0.0, "name": "6dbb5a98488ea1083b9e17d7bec1f8a7", "is_reserved": 0, "rental_uris": {"android": "https://dc.lft.to/lastmile_qr_scan", "ios": "https://dc.lft.to/lastmile_qr_scan"}, "fusion_lon": 0.0}, {"lat": 38.916391833333336, "is_disabled": 0, "type": "electric_scooter", "lon": -77.0478185, "bike_id": "1d2825d871dde453d4de7f271fd1036c", "fusion_lat": 0.0, "name": "1d2825d871dde453d4de7f271fd1036c", "is_reserved": 0, "rental_uris": {"android": "https://dc.lft.to/lastmile_qr_scan", "ios": "https://dc.lft.to/lastmile_qr_scan"}, "fusion_lon": 0.0}, {"lat": 38.911280166666664, "is_disabled": 0, "type": "electric_scooter", "lon": -77.03836316666667, "bike_id": "7b0f80e4c06ff67c2a2ad4951b33ae34", "fusion_lat": 0.0, "name": "7b0f80e4c06ff67c2a2ad4951b33ae34", "is_reserved": 0, "rental_uris": {"android": "https://dc.lft.to/lastmile_qr_scan", "ios": "https://dc.lft.to/lastmile_qr_scan"}, "fusion_lon": 0.0}, {"lat": 38.930833, "is_disabled": 0, "type": "electric_scooter", "lon": -77.03745066666667, "bike_id": "c6b2445887f01d4d4fe7fba649a51cf4", "fusion_lat": 0.0, "name": "c6b2445887f01d4d4fe7fba649a51cf4", "is_reserved": 0, "rental_uris": {"android": "https://dc.lft.to/lastmile_qr_scan", "ios": "https://dc.lft.to/lastmile_qr_scan"}, "fusion_lon": 0.0}, {"lat": 38.89353416666667, "is_disabled": 0, "type": "electric_scooter", "lon": -77.0414265, "bike_id": "324def8f5dfc49740c3b931636a74ca9", "fusion_lat": 0.0, "name": "324def8f5dfc49740c3b931636a74ca9", "is_reserved": 0, "rental_uris": {"android": "https://dc.lft.to/lastmile_qr_scan", "ios": "https://dc.lft.to/lastmile_qr_scan"}, "fusion_lon": 0.0}, {"lat": 38.910425000000004, "is_disabled": 0, "type": "electric_scooter", "lon": -77.0386855, "bike_id": "226de30f0d142f01656055a2436db755", "fusion_lat": 0.0, "name": "226de30f0d142f01656055a2436db755", "is_reserved": 0, "rental_uris": {"android": "https://dc.lft.to/lastmile_qr_scan", "ios": "https://dc.lft.to/lastmile_qr_scan"}, "fusion_lon": 0.0}, {"lat": 38.88742233333333, "is_disabled": 0, "type": "electric_scooter", "lon": -77.02206816666667, "bike_id": "0eae832ee609c7cf4b01f7125b701660", "fusion_lat": 0.0, "name": "0eae832ee609c7cf4b01f7125b701660", "is_reserved": 0, "rental_uris": {"android": "https://dc.lft.to/lastmile_qr_scan", "ios": "https://dc.lft.to/lastmile_qr_scan"}, "fusion_lon": 0.0}, {"lat": 38.917691166666664, "is_disabled": 0, "type": "electric_scooter", "lon": -77.0229955, "bike_id": "e326875b27bc345269bcaa65cd14bbdd", "fusion_lat": 0.0, "name": "e326875b27bc345269bcaa65cd14bbdd", "is_reserved": 0, "rental_uris": {"android": "https://dc.lft.to/lastmile_qr_scan", "ios": "https://dc.lft.to/lastmile_qr_scan"}, "fusion_lon": 0.0}, {"lat": 38.944294166666666, "is_disabled": 0, "type": "electric_scooter", "lon": -77.06336933333333, "bike_id": "8f3cd5d78f7c8b6757065016192dd5c6", "fusion_lat": 0.0, "name": "8f3cd5d78f7c8b6757065016192dd5c6", "is_reserved": 0, "rental_uris": {"android": "https://dc.lft.to/lastmile_qr_scan", "ios": "https://dc.lft.to/lastmile_qr_scan"}, "fusion_lon": 0.0}, {"lat": 38.89963983333333, "is_disabled": 0, "type": "electric_scooter", "lon": -77.02590516666666, "bike_id": "2f486116f086e355dad2c8bcb00a78d0", "fusion_lat": 0.0, "name": "2f486116f086e355dad2c8bcb00a78d0", "is_reserved": 0, "rental_uris": {"android": "https://dc.lft.to/lastmile_qr_scan", "ios": "https://dc.lft.to/lastmile_qr_scan"}, "fusion_lon": 0.0}, {"lat": 38.89605483333333, "is_disabled": 0, "type": "electric_scooter", "lon": -77.05469216666667, "bike_id": "ea09388c72fe072b35908f49fbc273ae", "fusion_lat": 0.0, "name": "ea09388c72fe072b35908f49fbc273ae", "is_reserved": 0, "rental_uris": {"android": "https://dc.lft.to/lastmile_qr_scan", "ios": "https://dc.lft.to/lastmile_qr_scan"}, "fusion_lon": 0.0}, {"lat": 38.91803266666667, "is_disabled": 0, "type": "electric_scooter", "lon": -77.03421516666667, "bike_id": "4434d80c53b0487046bb7ce103f72649", "fusion_lat": 0.0, "name": "4434d80c53b0487046bb7ce103f72649", "is_reserved": 0, "rental_uris": {"android": "https://dc.lft.to/lastmile_qr_scan", "ios": "https://dc.lft.to/lastmile_qr_scan"}, "fusion_lon": 0.0}, {"lat": 38.908621, "is_disabled": 0, "type": "electric_scooter", "lon": -77.01269883333333, "bike_id": "82dc7707cb63b125a5a646b5d980d0da", "fusion_lat": 0.0, "name": "82dc7707cb63b125a5a646b5d980d0da", "is_reserved": 0, "rental_uris": {"android": "https://dc.lft.to/lastmile_qr_scan", "ios": "https://dc.lft.to/lastmile_qr_scan"}, "fusion_lon": 0.0}, {"lat": 38.911025, "is_disabled": 0, "type": "electric_scooter", "lon": -77.04837316666666, "bike_id": "47997234e262baf9745d3271099e35d3", "fusion_lat": 0.0, "name": "47997234e262baf9745d3271099e35d3", "is_reserved": 0, "rental_uris": {"android": "https://dc.lft.to/lastmile_qr_scan", "ios": "https://dc.lft.to/lastmile_qr_scan"}, "fusion_lon": 0.0}, {"lat": 38.9143195, "is_disabled": 0, "type": "electric_scooter", "lon": -77.02346116666666, "bike_id": "23c553d2b5866972977fb3d0813de7c8", "fusion_lat": 0.0, "name": "23c553d2b5866972977fb3d0813de7c8", "is_reserved": 0, "rental_uris": {"android": "https://dc.lft.to/lastmile_qr_scan", "ios": "https://dc.lft.to/lastmile_qr_scan"}, "fusion_lon": 0.0},