{"data": {"bikes": [{"fusion_lat": 0.0, "name": "a06d395660f709620e2f0350587ccc68", "is_disabled": 0, "rental_uris": {"android": "https://dc.lft.to/lastmile_qr_scan", "ios": "https://dc.lft.to/lastmile_qr_scan"}, "fusion_lon": 0.0, "lat": 38.927657833333335, "bike_id": "a06d395660f709620e2f0350587ccc68", "type": "electric_scooter", "is_reserved": 0, "lon": -77.016178}, {"fusion_lat": 0.0, "name": "2a87cf0ac99aec0c07dd329be7e11d06", "is_disabled": 0, "rental_uris": {"android": "https://dc.lft.to/lastmile_qr_scan", "ios": "https://dc.lft.to/lastmile_qr_scan"}, "fusion_lon": 0.0, "lat": 38.906490166666664, "bike_id": "2a87cf0ac99aec0c07dd329be7e11d06", "type": "electric_scooter", "is_reserved": 0, "lon": -77.05330166666667}, {"fusion_lat": 0.0, "name": "51f7a01deca1ee2d0b9fd9d845962f19", "is_disabled": 0, "rental_uris": {"android": "https://dc.lft.to/lastmile_qr_scan", "ios": "https://dc.lft.to/lastmile_qr_scan"}, "fusion_lon": 0.0, "lat": 38.89529316666667, "bike_id": "51f7a01deca1ee2d0b9fd9d845962f19", "type": "electric_scooter", "is_reserved": 0, "lon": -76.93409733333333}, {"fusion_lat": 0.0, "name": "c5f6ab9cca397933dd87e98080575a03", "is_disabled": 0, "rental_uris": {"android": "https://dc.lft.to/lastmile_qr_scan", "ios": "https://dc.lft.to/lastmile_qr_scan"}, "fusion_lon": 0.0, "lat": 38.91974416666667, "bike_id": "c5f6ab9cca397933dd87e98080575a03", "type": "electric_scooter", "is_reserved": 0, "lon": -77.07089716666667}, {"fusion_lat": 0.0, "name": "2c4326baf295213b05e641d9d06dd837", "is_disabled": 0, "rental_uris": {"android": "https://dc.lft.to/lastmile_qr_scan", "ios": "https://dc.lft.to/lastmile_qr_scan"}, "fusion_lon": 0.0, "lat": 38.9072225, "bike_id": "2c4326baf295213b05e641d9d06dd837", "type": "electric_scooter", "is_reserved": 0, "lon": -77.04732}, {"fusion_lat": 0.0, "name": "8724ddee4458b718b54e57bf0279e943", "is_disabled": 0, "rental_uris": {"android": "https://dc.lft.to/lastmile_qr_scan", "ios": "https://dc.lft.to/lastmile_qr_scan"}, "fusion_lon": 0.0, "lat": 38.9260155, "bike_id": "8724ddee4458b718b54e57bf0279e943", "type": "electric_scooter", "is_reserved": 0, "lon": -77.02154033333333}, {"fusion_lat": 0.0, "name": "a2e0e97d6bdee3e3c6eca675400fb236", "is_disabled": 0, "rental_uris": {"android": "https://dc.lft.to/lastmile_qr_scan", "ios": "https://dc.lft.to/lastmile_qr_scan"}, "fusion_lon": 0.0, "lat": 38.92481266666667, "bike_id": "a2e0e97d6bdee3e3c6eca675400fb236", "type": "electric_scooter", "is_reserved": 0, "lon": -77.0254515}, {"fusion_lat": 0.0, "name": "ea7cca5b333105968607b6c55ba71008", "is_disabled": 0, "rental_uris": {"android": "https://dc.lft.to/lastmile_qr_scan", "ios": "https://dc.lft.to/lastmile_qr_scan"}, "fusion_lon": 0.0, "lat": 38.90867516666667, "bike_id": "ea7cca5b333105968607b6c55ba71008", "type": "electric_scooter", "is_reserved": 0, "lon": -77.02343033333334}, {"fusion_lat": 0.0, "name": "80e2ec482d5f0de5921864820565331b", "is_disabled": 0, "rental_uris": {"android": "https://dc.lft.to/lastmile_qr_scan", "ios": "https://dc.lft.to/lastmile_qr_scan"}, "fusion_lon": 0.0, "lat": 38.87900966666667, "bike_id": "80e2ec482d5f0de5921864820565331b", "type": "electric_scooter", "is_reserved": 0, "lon": -77.01357966666667}, {"fusion_lat": 0.0, "name": "52d04e97927788c536c50f3a65f74afa", "is_disabled": 0, "rental_uris": {"android": "https://dc.lft.to/lastmile_qr_scan", "ios": "https://dc.lft.to/lastmile_qr_scan"}, "fusion_lon": 0.0, "lat": 38.905064333333335, "bike_id": "52d04e97927788c536c50f3a65f74afa", "type": "electric_scooter", "is_reserved": 0, "lon": -77.02944433333333}, {"fusion_lat": 0.0, "name": "2dbdf49c1995943b3c5333fb26520133", "is_disabled": 0, "rental_uris": {"android": "https://dc.lft.to/lastmile_qr_scan", "ios": "https://dc.lft.to/lastmile_qr_scan"}, "fusion_lon": 0.0, "lat": 38.90796016666667, "bike_id": "2dbdf49c1995943b3c5333fb26520133", "type": "electric_scooter", "is_reserved": 0, "lon": -77.04355333333334}, {"fusion_lat": 0.0, "name": "f72035e635ccd160c76b022694570e3e", "is_disabled": 0, "rental_uris": {"android": "https://dc.lft.to/lastmile_qr_scan", "ios": "https://dc.lft.to/lastmile_qr_scan"}, "fusion_lon": 0.0, "lat": 38.8952615, "bike_id": "f72035e635ccd160c76b022694570e3e", "type": "electric_scooter", "is_reserved": 0, "lon": -77.01105233333334}, {"fusion_lat": 0.0, "name": "568217d558bb9536c120b6dd535220bb", "is_disabled": 0, "rental_uris": {"android": "https://dc.lft.to/lastmile_qr_scan", "ios": "https://dc.lft.to/lastmile_qr_scan"}, "fusion_lon": 0.0, "lat": 38.836095666666665, "bike_id": "568217d558bb9536c120b6dd535220bb", "type": "electric_bike", "is_reserved": 0, "lon": -77.0037865}, {"fusion_lat": 0.0, "name": "25080cc07c5ab73e60f6e372d9aada98", "is_disabled": 0, "rental_uris": {"android": "https://dc.lft.to/lastmile_qr_scan", "ios": "https://dc.lft.to/lastmile_qr_scan"}, "fusion_lon": 0.0, "lat": 38.91408233333333, "bike_id": "25080cc07c5ab73e60f6e372d9aada98", "type": "electric_scooter", "is_reserved": 0, "lon": -77.03419566666666}, {"fusion_lat": 0.0, "name": "c4da1c491ba5a0c7527cbe0c4d61466c", "is_disabled": 0, "rental_uris": {"android": "https://dc.lft.to/lastmile_qr_scan", "ios": "https://dc.lft.to/lastmile_qr_scan"}, "fusion_lon": 0.0, "lat": 38.857020166666665, "bike_id": "c4da1c491ba5a0c7527cbe0c4d61466c", "type": "electric_scooter", "is_reserved": 0, "lon": -76.9959335}, {"fusion_lat": 0.0, "name": "425c928a6897d8de8c3ea026a7bd4755", "is_disabled": 0, "rental_uris": {"android": "https://dc.lft.to/lastmile_qr_scan", "ios": "https://dc.lft.to/lastmile_qr_scan"}, "fusion_lon": 0.0, "lat": 38.92169416666667, "bike_id": "425c928a6897d8de8c3ea026a7bd4755", "type": "electric_scooter", "is_reserved": 0, "lon": -77.04219033333334}, {"fusion_lat": 0.0, "name": "ef7a434825e3c421932ca41fb228f2e9", "is_disabled": 0, "rental_uris": {"android": "https://dc.lft.to/lastmile_qr_scan", "ios": "https://dc.lft.to/lastmile_qr_scan"}, "fusion_lon": 0.0, "lat": 38.906272, "bike_id": "ef7a434825e3c421932ca41fb228f2e9", "type": "electric_scooter", "is_reserved": 0, "lon": -77.04135633333334}, {"fusion_lat": 0.0, "name": "665d51eebff4e88f1185b2cd70359311", "is_disabled": 0, "rental_uris": {"android": "https://dc.lft.to/lastmile_qr_scan", "ios": "https://dc.lft.to/lastmile_qr_scan"}, "fusion_lon": 0.0, "lat": 38.88796683333333, "bike_id": "665d51eebff4e88f1185b2cd70359311", "type": "electric_bike", "is_reserved": 0, "lon": -76.92991816666667}, {"fusion_lat": 0.0, "name": "dc1cb233faba33818bc3cb7bd28213b0", "is_disabled": 0, "rental_uris": {"android": "https://dc.lft.to/lastmile_qr_scan", "ios": "https://dc.lft.to/lastmile_qr_scan"}, "fusion_lon": 0.0, "lat": 38.92515516666667, "bike_id": "dc1cb233faba33818bc3cb7bd28213b0", "type": "electric_scooter", "is_reserved": 0, "lon": -77.02380683333334}, {"fusion_lat": 0.0, "name": "974569f208f573a08287d1cf7d4207e0", "is_disabled": 0, "rental_uris": {"android": "https://dc.lft.to/lastmile_qr_scan", "ios": "https://dc.lft.to/lastmile_qr_scan"}, "fusion_lon": 0.0, "lat": 38.921619166666666, "bike_id": "974569f208f573a08287d1cf7d4207e0", "type": "electric_scooter", "is_reserved": 0, "lon": -77.04019466666666}, {"fusion_lat": 0.0, "name": "70008e5028cead12fe5efdb3afd1471d", "is_disabled": 0, "rental_uris": {"android": "https://dc.lft.to/lastmile_qr_scan", "ios": "https://dc.lft.to/lastmile_qr_scan"}, "fusion_lon": 0.0, "lat": 38.913584166666666, "bike_id": "70008e5028cead12fe5efdb3afd1471d", "type": "electric_bike", "is_reserved": 0, "lon": -77.0161555}, {"fusion_lat": 0.0, "name": "3d79a570fd312e4c895386bcd4038d46", "is_disabled": 0, "rental_uris": {"android": "https://dc.lft.to/lastmile_qr_scan", "ios": "https://dc.lft.to/lastmile_qr_scan"}, "fusion_lon": 0.0, "lat": 38.9029165, "bike_id": "3d79a570fd312e4c895386bcd4038d46", "type": "electric_scooter", "is_reserved": 0, "lon": -76.9763415}, {"fusion_lat": 0.0, "name": "7a19ea87fac1f08d985c649e44930e39", "is_disabled": 0, "rental_uris": {"android": "https://dc.lft.to/lastmile_qr_scan", "ios": "https://dc.lft.to/lastmile_qr_scan"}, "fusion_lon": 0.0, "lat": 38.918175833333336, "bike_id": "7a19ea87fac1f08d985c649e44930e39", "type": "electric_scooter", "is_reserved": 0, "lon": -77.02483566666666}, {"fusion_lat": 0.0, "name": "7c1b8adfaabe4a12d29814344229a77e", "is_disabled": 0, "rental_uris": {"android": "https://dc.lft.to/lastmile_qr_scan", "ios": "https://dc.lft.to/lastmile_qr_scan"}, "fusion_lon": 0.0, "lat": 38.90141233333333, "bike_id": "7c1b8adfaabe4a12d29814344229a77e", "type": "electric_scooter", "is_reserved": 0, "lon": -77.030495}, {"fusion_lat": 0.0, "name": "f31e54839a7a94c8cbe9f53cc0c72993", "is_disabled": 0, "rental_uris": {"android": "https://dc.lft.to/lastmile_qr_scan", "ios": "https://dc.lft.to/lastmile_qr_scan"}, "fusion_lon": 0.0, "lat": 38.8812515, "bike_id": "f31e54839a7a94c8cbe9f53cc0c72993", "type": "electric_scooter", "is_reserved": 0, "lon": -77.01655016666666}, {"fusion_lat": 0.0, "name": "a0d00c1b168518b61224221411dc4808", "is_disabled": 0, "rental_uris": {"android": "https://dc.lft.to/lastmile_qr_scan", "ios": "https://dc.lft.to/lastmile_qr_scan"}, "fusion_lon": 0.0, "lat": 38.92639116666667, "bike_id": "a0d00c1b168518b61224221411dc4808", "type": "electric_scooter", "is_reserved": 0, "lon": -77.03230983333333}, {"fusion_lat": 0.0, "name": "fb30a0241540cd930678cf33101f5b8f", "is_disabled": 0, "rental_uris": {"android": "https://dc.lft.to/lastmile_qr_scan", "ios": "https://dc.lft.to/lastmile_qr_scan"}, "fusion_lon": 0.0, "lat": 38.924114, "bike_id": "fb30a0241540cd930678cf33101f5b8f", "type": "electric_scooter", "is_reserved": 0, "lon": -77.021088}, {"fusion_lat": 0.0, "name": "58974a5528e04aae7f3ab1063c79d98f", "is_disabled": 0, "rental_uris": {"android": "https://dc.lft.to/lastmile_qr_scan", "ios": "https://dc.lft.to/lastmile_qr_scan"}, "fusion_lon": 0.0, "lat": 38.9377105, "bike_id": "58974a5528e04aae7f3ab1063c79d98f", "type": "electric_scooter", "is_reserved": 0, "lon": -77.0206715}, {"fusion_lat": 0.0, "name": "ba1f20343e2d55f854aed946da9ab907", "is_disabled": 0, "rental_uris": {"android": "https://dc.lft.to/lastmile_qr_scan", "ios": "https://dc.lft.to/lastmile_qr_scan"}, "fusion_lon": 0.0, "lat": 38.9052335, "bike_id": "ba1f20343e2d55f854aed946da9ab907", "type": "electric_scooter", "is_reserved": 0, "lon": -77.06498633333334}, {"fusion_lat": 0.0, "name": "ed38d611c755488ab97c4b33e346d9ea", "is_disabled": 0, "rental_uris": {"android": "https://dc.lft.to/lastmile_qr_scan", "ios": "https://dc.lft.to/lastmile_qr_scan"}, "fusion_lon": 0.0, "lat": 38.80762433333334, "bike_id": "ed38d611c755488ab97c4b33e346d9ea", "type": "electric_bike", "is_reserved": 0, "lon": -77.094678}, {"fusion_lat": 0.0, "name": "39e1147cea3cabc18514726223943761", "is_disabled": 0, "rental_uris": {"android": "https://dc.lft.to/lastmile_qr_scan", "ios": "https://dc.lft.to/lastmile_qr_scan"}, "fusion_lon": 0.0, "lat": 38.91649566666667, "bike_id": "39e1147cea3cabc18514726223943761", "type": "electric_scooter", "is_reserved": 0, "lon": -77.03161466666667}, {"fusion_lat": 0.0, "name": "aded7169a148337266ed6eedbadb68c2", "is_disabled": 0, "rental_uris": {"android": "https://dc.lft.to/lastmile_qr_scan", "ios": "https://dc.lft.to/lastmile_qr_scan"}, "fusion_lon": 0.0, "lat": 38.9413015, "bike_id": "aded7169a148337266ed6eedbadb68c2", "type": "electric_scooter", "is_reserved": 0, "lon": -77.02648066666667}, {"fusion_lat": 0.0, "name": "098aac6b69922f62fb031846e075bf84", "is_disabled": 0, "rental_uris": {"android": "https://dc.lft.to/lastmile_qr_scan", "ios": "https://dc.lft.to/lastmile_qr_scan"}, "fusion_lon": 0.0, "lat": 38.99779, "bike_id": "098aac6b69922f62fb031846e075bf84", "type": "electric_bike", "is_reserved": 0, "lon": -77.04714666666666}, {"fusion_lat": 0.0, "name": "4a1691abe91ec061f9e4673f31282180", "is_disabled": 0, "rental_uris": {"android": "https://dc.lft.to/lastmile_qr_scan", "ios": "https://dc.lft.to/lastmile_qr_scan"}, "fusion_lon": 0.0, "lat": 38.866278666666666, "bike_id": "4a1691abe91ec061f9e4673f31282180", "type": "electric_scooter", "is_reserved": 0, "lon": -76.9871545}, {"fusion_lat": 0.0, "name": "062d62ffbb754c2a90fb7e739487a851", "is_disabled": 0, "rental_uris": {"android": "https://dc.lft.to/lastmile_qr_scan", "ios": "https://dc.lft.to/lastmile_qr_scan"}, "fusion_lon": 0.0, "lat": 38.924171666666666, "bike_id": "062d62ffbb754c2a90fb7e739487a851", "type": "electric_scooter", "is_reserved": 0, "lon": -77.02002533333334}, {"fusion_lat": 0.0, "name": "867aaef69ad035ace6040669812b85c5", "is_disabled": 0, "rental_uris": {"android": "https://dc.lft.to/lastmile_qr_scan", "ios": "https://dc.lft.to/lastmile_qr_scan"}, "fusion_lon": 0.0, "lat": 38.95955683333333, "bike_id": "867aaef69ad035ace6040669812b85c5", "type": "electric_bike", "is_reserved": 0, "lon": -77.0305505}, {"fusion_lat": 0.0, "name": "04f688a1cd34c0b2a14b9d7dfd572328", "is_disabled": 0, "rental_uris": {"android": "https://dc.lft.to/lastmile_qr_scan", "ios": "https://dc.lft.to/lastmile_qr_scan"}, "fusion_lon": 0.0, "lat": 38.89186133333333, "bike_id": "04f688a1cd34c0b2a14b9d7dfd572328", "type": "electric_scooter", "is_reserved": 0, "lon": -76.999446}, {"fusion_lat": 0.0, "name": "8948412097728e632101e73a6dddb210", "is_disabled": 0, "rental_uris": {"android": "https://dc.lft.to/lastmile_qr_scan", "ios": "https://dc.lft.to/lastmile_qr_scan"}, "fusion_lon": 0.0, "lat": 38.9025685, "bike_id": "8948412097728e632101e73a6dddb210", "type": "electric_scooter", "is_reserved": 0, "lon": -77.04352866666666}, {"fusion_lat": 0.0, "name": "67e24a8f1844bdcc18e9c40199099dd3", "is_disabled": 0, "rental_uris": {"android": "https://dc.lft.to/lastmile_qr_scan", "ios": "https://dc.lft.to/lastmile_qr_scan"}, "fusion_lon": 0.0, "lat": 38.944512333333336, "bike_id": "67e24a8f1844bdcc18e9c40199099dd3", "type": "electric_scooter", "is_reserved": 0, "lon": -77.02340333333333}, {"fusion_lat": 0.0, "name": "3c23ec7121f53d8ea49e047b22711430", "is_disabled": 0, "rental_uris": {"android": "https://dc.lft.to/lastmile_qr_scan", "ios": "https://dc.lft.to/lastmile_qr_scan"}, "fusion_lon": 0.0, "lat": 38.920634166666666, "bike_id": "3c23ec7121f53d8ea49e047b22711430", "type": "electric_scooter", "is_reserved": 0, "lon": -77.02367766666667}, {"fusion_lat": 0.0, "name": "f5ee4304ed7e836865613264f4ff824b", "is_disabled": 0, "rental_uris": {"android": "https://dc.lft.to/lastmile_qr_scan", "ios": "https://dc.lft.to/lastmile_qr_scan"}, "fusion_lon": 0.0, "lat": 38.93151616666667, "bike_id": "f5ee4304ed7e836865613264f4ff824b", "type": "electric_scooter", "is_reserved": 0, "lon": -77.07829433333333}, {"fusion_lat": 0.0, "name": "8c63cc209d60eeb0b5a19cb850b14edc", "is_disabled": 0, "rental_uris": {"android": "https://dc.lft.to/lastmile_qr_scan", "ios": "https://dc.lft.to/lastmile_qr_scan"}, "fusion_lon": 0.0, "lat": 38.907289666666664, "bike_id": "8c63cc209d60eeb0b5a19cb850b14edc", "type": "electric_scooter", "is_reserved": 0, "lon": -77.04813166666666}, {"fusion_lat": 0.0, "name": "6dcd2f0fe9c502aff439b7218046d7b2", "is_disabled": 0, "rental_uris": {"android": "https://dc.lft.to/lastmile_qr_scan", "ios": "https://dc.lft.to/lastmile_qr_scan"}, "fusion_lon": 0.0, "lat": 38.9167365, "bike_id": "6dcd2f0fe9c502aff439b7218046d7b2", "type": "electric_scooter", "is_reserved": 0, "lon": -77.02791533333334}, {"fusion_lat": 0.0, "name": "fc6c79f2344b1febf8caced34b5e9b33", "is_disabled": 0, "rental_uris": {"android": "https://dc.lft.to/lastmile_qr_scan", "ios": "https://dc.lft.to/lastmile_qr_scan"}, "fusion_lon": 0.0, "lat": 38.83862033333333, "bike_id": "fc6c79f2344b1febf8caced34b5e9b33", "type": "electric_scooter", "is_reserved": 0, "lon": -76.99701}, {"fusion_lat": 0.0, "name": "5d5744c4f1ef2b1e85e661485ee6b124", "is_disabled": 0, "rental_uris": {"android": "https://dc.lft.to/lastmile_qr_scan", "ios": "https://dc.lft.to/lastmile_qr_scan"}, "fusion_lon": 0.0, "lat": 38.916945166666665, "bike_id": "5d5744c4f1ef2b1e85e661485ee6b124", "type": "electric_scooter", "is_reserved": 0, "lon": -77.02690783333334}, {"fusion_lat": 0.0, "name": "3ce55c3dd2fb455f4062f8ac6f597b10", "is_disabled": 0, "rental_uris": {"android": "https://dc.lft.to/lastmile_qr_scan", "ios": "https://dc.lft.to/lastmile_qr_scan"}, "fusion_lon": 0.0, "lat": 38.878296666666664, "bike_id": "3ce55c3dd2fb455f4062f8ac6f597b10", "type": "electric_scooter", "is_reserved": 0, "lon": -76.99016316666666}, {"fusion_lat": 0.0, "name": "48c5a929a8c94ff263224a32d0fb9a81", "is_disabled": 0, "rental_uris": {"android": "https://dc.lft.to/lastmile_qr_scan", "ios": "https://dc.lft.to/lastmile_qr_scan"}, "fusion_lon": 0.0, "lat": 38.853631666666665, "bike_id": "48c5a929a8c94ff263224a32d0fb9a81", "type": "electric_bike", "is_reserved": 0, "lon": -77.115038}, {"fusion_lat": 0.0, "name": "cbf9c7b51dba45642e60937711d2abf8", "is_disabled": 0, "rental_uris": {"android": "https://dc.lft.to/lastmile_qr_scan", "ios": "https://dc.lft.to/lastmile_qr_scan"}, "fusion_lon": 0.0, "lat": 39.03429, "bike_id": "cbf9c7b51dba45642e60937711d2abf8", "type": "electric_bike", "is_reserved": 0, "lon": -77.04315183333334}, {"fusion_lat": 0.0, "name": "d10114afea002598488340c27064b8ae", "is_disabled": 0, "rental_uris": {"android": "https://dc.lft.to/lastmile_qr_scan", "ios": "https://dc.lft.to/lastmile_qr_scan"}, "fusion_lon": 0.0, "lat": 38.93013933333334, "bike_id": "d10114afea002598488340c27064b8ae", "type": "electric_scooter", "is_reserved": 0, "lon": -77.02070266666666}, {"fusion_lat": 0.0, "name": "66e45f7ca3a823f3668ad03be73d2bfb", "is_disabled": 0, "rental_uris": {"android": "https://dc.lft.to/lastmile_qr_scan", "ios": "https://dc.lft.to/lastmile_qr_scan"}, "fusion_lon": 0.0, "lat": 38.9170725, "bike_id": "66e45f7ca3a823f3668ad03be73d2bfb", "type": "electric_scooter", "is_reserved": 0, "lon": -77.0248505}, {"fusion_lat": 0.0, "name": "fee0b9e87284e0d11bc4249e20aa19e0", "is_disabled": 0, "rental_uris": {"android": "https://dc.lft.to/lastmile_qr_scan", "ios": "https://dc.lft.to/lastmile_qr_scan"}, "fusion_lon": 0.0, "lat": 38.924800166666664, "bike_id": "fee0b9e87284e0d11bc4249e20aa19e0", "type": "electric_scooter", "is_reserved": 0, "lon": -77.02714983333334}, {"fusion_lat": 0.0, "name": "06fd37512a0ff84a604aa138f0ccad11", "is_disabled": 0, "rental_uris": {"android": "https://dc.lft.to/lastmile_qr_scan", "ios": "https://dc.lft.to/lastmile_qr_scan"}, "fusion_lon": 0.0, "lat": 38.907311, "bike_id": "06fd37512a0ff84a604aa138f0ccad11", "type": "electric_scooter", "is_reserved": 0, "lon": -77.0281345}, {"fusion_lat": 0.0, "name": "2aaf6b00502b65ede461eb1a37e05aa0", "is_disabled": 0, "rental_uris": {"android": "https://dc.lft.to/lastmile_qr_scan", "ios": "https://dc.lft.to/lastmile_qr_scan"}, "fusion_lon": 0.0, "lat": 38.927507166666665, "bike_id": "2aaf6b00502b65ede461eb1a37e05aa0", "type": "electric_scooter", "is_reserved": 0, "lon": -77.0329775}, {"fusion_lat": 0.0, "name": "a0136bdf2e709fa0628dbc0441c8b956", "is_disabled": 0, "rental_uris": {"android": "https://dc.lft.to/lastmile_qr_scan", "ios": "https://dc.lft.to/lastmile_qr_scan"}, "fusion_lon": 0.0, "lat": 38.907355, "bike_id": "a0136bdf2e709fa0628dbc0441c8b956", "type": "electric_scooter", "is_reserved": 0, "lon": -77.02601716666666}, {"fusion_lat": 0.0, "name": "cb96cf7e65d2a9efdc8ab5a4b874bda0", "is_disabled": 0, "rental_uris": {"android": "https://dc.lft.to/lastmile_qr_scan", "ios": "https://dc.lft.to/lastmile_qr_scan"}, "fusion_lon": 0.0, "lat": 38.9099415, "bike_id": "cb96cf7e65d2a9efdc8ab5a4b874bda0", "type": "electric_scooter", "is_reserved": 0, "lon": -77.047325}, {"fusion_lat": 0.0, "name": "f9965b97482e88cbbce2d16977099224", "is_disabled": 0, "rental_uris": {"android": "https://dc.lft.to/lastmile_qr_scan", "ios": "https://dc.lft.to/lastmile_qr_scan"}, "fusion_lon": 0.0, "lat": 38.938651166666666, "bike_id": "f9965b97482e88cbbce2d16977099224", "type": "electric_scooter", "is_reserved": 0, "lon": -77.0320245}, {"fusion_lat": 0.0, "name": "928cfed013e0838db8e64d2c38a21adc", "is_disabled": 0, "rental_uris": {"android": "https://dc.lft.to/lastmile_qr_scan", "ios": "https://dc.lft.to/lastmile_qr_scan"}, "fusion_lon": 0.0, "lat": 38.9142755, "bike_id": "928cfed013e0838db8e64d2c38a21adc", "type": "electric_scooter", "is_reserved": 0, "lon": -76.984401}, {"fusion_lat": 0.0, "name": "c16b0bdfdb222da7c62002886fa49d27", "is_disabled": 0, "rental_uris": {"android": "https://dc.lft.to/lastmile_qr_scan", "ios": "https://dc.lft.to/lastmile_qr_scan"}, "fusion_lon": 0.0, "lat": 38.91564733333333, "bike_id": "c16b0bdfdb222da7c62002886fa49d27", "type": "electric_scooter", "is_reserved": 0, "lon": -77.03147116666666}, {"fusion_lat": 0.0, "name": "03891cc39c68f826908af960a41ca1d2", "is_disabled": 0, "rental_uris": {"android": "https://dc.lft.to/lastmile_qr_scan", "ios": "https://dc.lft.to/lastmile_qr_scan"}, "fusion_lon": 0.0, "lat": 38.900443333333335, "bike_id": "03891cc39c68f826908af960a41ca1d2", "type": "electric_scooter", "is_reserved": 0, "lon": -77.044793}, {"fusion_lat": 0.0, "name": "34b10eebca2fbf174bc45b71f861d250", "is_disabled": 0, "rental_uris": {"android": "https://dc.lft.to/lastmile_qr_scan", "ios": "https://dc.lft.to/lastmile_qr_scan"}, "fusion_lon": 0.0, "lat": 38.914567, "bike_id": "34b10eebca2fbf174bc45b71f861d250", "type": "electric_scooter", "is_reserved": 0, "lon": -77.01280816666667}, {"fusion_lat": 0.0, "name": "c73500cab2d2262eab928e6ac71edabc", "is_disabled": 0, "rental_uris": {"android": "https://dc.lft.to/lastmile_qr_scan", "ios": "https://dc.lft.to/lastmile_qr_scan"}, "fusion_lon": 0.0, "lat": 38.91697083333333, "bike_id": "c73500cab2d2262eab928e6ac71edabc", "type": "electric_scooter", "is_reserved": 0, "lon": -77.04036}, {"fusion_lat": 0.0, "name": "f18790f7843fee5cb6ce65d264dfffcb", "is_disabled": 0, "rental_uris": {"android": "https://dc.lft.to/lastmile_qr_scan", "ios": "https://dc.lft.to/lastmile_qr_scan"}, "fusion_lon": 0.0, "lat": 38.893009166666666, "bike_id": "f18790f7843fee5cb6ce65d264dfffcb", "type": "electric_scooter", "is_reserved": 0, "lon": -77.04653316666666}, {"fusion_lat": 0.0, "name": "ca7152380fa6ccb91f8d4be64fd6f84e", "is_disabled": 0, "rental_uris": {"android": "https://dc.lft.to/lastmile_qr_scan", "ios": "https://dc.lft.to/lastmile_qr_scan"}, "fusion_lon": 0.0, "lat": 38.931156666666666, "bike_id": "ca7152380fa6ccb91f8d4be64fd6f84e", "type": "electric_scooter", "is_reserved": 0, "lon": -77.036353}, {"fusion_lat": 0.0, "name": "56be89e942a6cd231071c93d229ea5b5", "is_disabled": 0, "rental_uris": {"android": "https://dc.lft.to/lastmile_qr_scan", "ios": "https://dc.lft.to/lastmile_qr_scan"}, "fusion_lon": 0.0, "lat": 38.92903283333333, "bike_id": "56be89e942a6cd231071c93d229ea5b5", "type": "electric_scooter", "is_reserved": 0, "lon": -77.0374335}, {"fusion_lat": 0.0, "name": "cb0842db6e4f8a5a2882ef2b7f4ad54a", "is_disabled": 0, "rental_uris": {"android": "https://dc.lft.to/lastmile_qr_scan", "ios": "https://dc.lft.to/lastmile_qr_scan"}, "fusion_lon": 0.0, "lat": 38.917784166666664, "bike_id": "cb0842db6e4f8a5a2882ef2b7f4ad54a", "type": "electric_scooter", "is_reserved": 0, "lon": -77.043595}, {"fusion_lat": 0.0, "name": "374a1cc47ebb4319de615c43434f21bc", "is_disabled": 0, "rental_uris": {"android": "https://dc.lft.to/lastmile_qr_scan", "ios": "https://dc.lft.to/lastmile_qr_scan"}, "fusion_lon": 0.0, "lat": 38.93575966666667, "bike_id": "374a1cc47ebb4319de615c43434f21bc", "type": "electric_scooter", "is_reserved": 0, "lon": -77.01923416666666}, {"fusion_lat": 0.0, "name": "54f8309127461075d75f06aa924fbd72", "is_disabled": 0, "rental_uris": {"android": "https://dc.lft.to/lastmile_qr_scan", "ios": "https://dc.lft.to/lastmile_qr_scan"}, "fusion_lon": 0.0, "lat": 38.894672, "bike_id": "54f8309127461075d75f06aa924fbd72", "type": "electric_scooter", "is_reserved": 0, "lon": -77.01031466666667}, {"fusion_lat": 0.0, "name": "5cccd42141deaf6065aa4a2fe819b2d4", "is_disabled": 0, "rental_uris": {"android": "https://dc.lft.to/lastmile_qr_scan", "ios": "https://dc.lft.to/lastmile_qr_scan"}, "fusion_lon": 0.0, "lat": 38.933682, "bike_id": "5cccd42141deaf6065aa4a2fe819b2d4", "type": "electric_scooter", "is_reserved": 0, "lon": -77.0386945}, {"fusion_lat": 0.0, "name": "0aff06b62b77ff88542ebdb0240512ef", "is_disabled": 0, "rental_uris": {"android": "https://dc.lft.to/lastmile_qr_scan", "ios": "https://dc.lft.to/lastmile_qr_scan"}, "fusion_lon": 0.0, "lat": 38.897360666666664, "bike_id": "0aff06b62b77ff88542ebdb0240512ef", "type": "electric_scooter", "is_reserved": 0, "lon": -77.032034}, {"fusion_lat": 0.0, "name": "3307bb7a43ebe8215e385c2a8af22f07", "is_disabled": 0, "rental_uris": {"android": "https://dc.lft.to/lastmile_qr_scan", "ios": "https://dc.lft.to/lastmile_qr_scan"}, "fusion_lon": 0.0, "lat": 38.83942666666667, "bike_id": "3307bb7a43ebe8215e385c2a8af22f07", "type": "electric_bike", "is_reserved": 0, "lon": -77.07895933333333}, {"fusion_lat": 0.0, "name": "e3cda86893d897814abc4181a3381cf3", "is_disabled": 0, "rental_uris": {"android": "https://dc.lft.to/lastmile_qr_scan", "ios": "https://dc.lft.to/lastmile_qr_scan"}, "fusion_lon": 0.0, "lat": 38.905787333333336, "bike_id": "e3cda86893d897814abc4181a3381cf3", "type": "electric_scooter", "is_reserved": 0, "lon": -77.00882933333334}, {"fusion_lat": 0.0, "name": "d57b4a0e2312cf8494e535d5a00a687b", "is_disabled": 0, "rental_uris": {"android": "https://dc.lft.to/lastmile_qr_scan", "ios": "https://dc.lft.to/lastmile_qr_scan"}, "fusion_lon": 0.0, "lat": 38.9036575, "bike_id": "d57b4a0e2312cf8494e535d5a00a687b", "type": "electric_scooter", "is_reserved": 0, "lon": -76.97247483333334}, {"fusion_lat": 0.0, "name": "9f14ab811e8d0aeb203205da0a155543", "is_disabled": 0, "rental_uris": {"android": "https://dc.lft.to/lastmile_qr_scan", "ios": "https://dc.lft.to/lastmile_qr_scan"}, "fusion_lon": 0.0, "lat": 38.9098645, "bike_id": "9f14ab811e8d0aeb203205da0a155543", "type": "electric_scooter", "is_reserved": 0, "lon": -77.008826}, {"fusion_lat": 0.0, "name": "92ec04fbd961eb09981b7c47f320df03", "is_disabled": 0, "rental_uris": {"android": "https://dc.lft.to/lastmile_qr_scan", "ios": "https://dc.lft.to/lastmile_qr_scan"}, "fusion_lon": 0.0, "lat": 38.939633, "bike_id": "92ec04fbd961eb09981b7c47f320df03", "type": "electric_bike", "is_reserved": 0, "lon": -76.99381266666667}, {"fusion_lat": 0.0, "name": "ea63ca0f400dfd5d07972648de2f91a8", "is_disabled": 0, "rental_uris": {"android": "https://dc.lft.to/lastmile_qr_scan", "ios": "https://dc.lft.to/lastmile_qr_scan"}, "fusion_lon": 0.0, "lat": 38.928419833333336, "bike_id": "ea63ca0f400dfd5d07972648de2f91a8", "type": "electric_scooter", "is_reserved": 0, "lon": -77.032866}, {"fusion_lat": 0.0, "name": "771c32d9145cf9234c349b9a5e144595", "is_disabled": 0, "rental_uris": {"android": "https://dc.lft.to/lastmile_qr_scan", "ios": "https://dc.lft.to/lastmile_qr_scan"}, "fusion_lon": 0.0, "lat": 38.900921, "bike_id": "771c32d9145cf9234c349b9a5e144595", "type": "electric_scooter", "is_reserved": 0, "lon": -77.05138866666667}, {"fusion_lat": 0.0, "name": "8d30aca445ef594dd53bd973c5a6ee47", "is_disabled": 0, "rental_uris": {"android": "https://dc.lft.to/lastmile_qr_scan", "ios": "https://dc.lft.to/lastmile_qr_scan"}, "fusion_lon": 0.0, "lat": 38.94133433333333, "bike_id": "8d30aca445ef594dd53bd973c5a6ee47", "type": "electric_scooter", "is_reserved": 0, "lon": -77.00612583333333}, {"fusion_lat": 0.0, "name": "f1c3047b349e46eeacd5e2521a51826f", "is_disabled": 0, "rental_uris": {"android": "https://dc.lft.to/lastmile_qr_scan", "ios": "https://dc.lft.to/lastmile_qr_scan"}, "fusion_lon": 0.0, "lat": 38.911859, "bike_id": "f1c3047b349e46eeacd5e2521a51826f", "type": "electric_scooter", "is_reserved": 0, "lon": -77.03176416666666}, {"fusion_lat": 0.0, "name": "b1f4d8a0210f9570eeaf2f969bcb00b9", "is_disabled": 0, "rental_uris": {"android": "https://dc.lft.to/lastmile_qr_scan", "ios": "https://dc.lft.to/lastmile_qr_scan"}, "fusion_lon": 0.0, "lat": 38.90139683333334, "bike_id": "b1f4d8a0210f9570eeaf2f969bcb00b9", "type": "electric_scooter", "is_reserved": 0, "lon": -76.986524}, {"fusion_lat": 0.0, "name": "fbf084f41a320960a3bbe2e0b283aa0c", "is_disabled": 0, "rental_uris": {"android": "https://dc.lft.to/lastmile_qr_scan", "ios": "https://dc.lft.to/lastmile_qr_scan"}, "fusion_lon": 0.0, "lat": 38.910670333333336, "bike_id": "fbf084f41a320960a3bbe2e0b283aa0c", "type": "electric_scooter", "is_reserved": 0, "lon": -77.0366395}, {"fusion_lat": 0.0, "name": "622f1587f4013fafaa53c1189b5ddf44", "is_disabled": 0, "rental_uris": {"android": "https://dc.lft.to/lastmile_qr_scan", "ios": "https://dc.lft.to/lastmile_qr_scan"}, "fusion_lon": 0.0, "lat": 38.92745933333333, "bike_id": "622f1587f4013fafaa53c1189b5ddf44", "type": "electric_scooter", "is_reserved": 0, "lon": -77.03636483333334}, {"fusion_lat": 0.0, "name": "b243c10a4ce481a2dc589497ed61c54d", "is_disabled": 0, "rental_uris": {"android": "https://dc.lft.to/lastmile_qr_scan", "ios": "https://dc.lft.to/lastmile_qr_scan"}, "fusion_lon": 0.0, "lat": 38.95332916666667, "bike_id": "b243c10a4ce481a2dc589497ed61c54d", "type": "electric_bike", "is_reserved": 0, "lon": -76.98246033333334}, {"fusion_lat": 0.0, "name": "2c47347ef3c4d6fc3cc8ed8d99e5ae73", "is_disabled": 0, "rental_uris": {"android": "https://dc.lft.to/lastmile_qr_scan", "ios": "https://dc.lft.to/lastmile_qr_scan"}, "fusion_lon": 0.0, "lat": 38.978831, "bike_id": "2c47347ef3c4d6fc3cc8ed8d99e5ae73", "type": "electric_bike", "is_reserved": 0, "lon": -77.06025083333333}, {"fusion_lat": 0.0, "name": "8534d9633eef071d2701782202d13d6d", "is_disabled": 0, "rental_uris": {"android": "https://dc.lft.to/lastmile_qr_scan", "ios": "https://dc.lft.to/lastmile_qr_scan"}, "fusion_lon": 0.0, "lat": 38.839402, "bike_id": "8534d9633eef071d2701782202d13d6d", "type": "electric_bike", "is_reserved": 0, "lon": -77.07910716666666}, {"fusion_lat": 0.0, "name": "32abcf0efaff9fc38b193ee85bd7aab1", "is_disabled": 0, "rental_uris": {"android": "https://dc.lft.to/lastmile_qr_scan", "ios": "https://dc.lft.to/lastmile_qr_scan"}, "fusion_lon": 0.0, "lat": 38.9154805, "bike_id": "32abcf0efaff9fc38b193ee85bd7aab1", "type": "electric_scooter", "is_reserved": 0, "lon": -77.038527}, {"fusion_lat": 0.0, "name": "f90413974e1a631294115b4c8afc6b66", "is_disabled": 0, "rental_uris": {"android": "https://dc.lft.to/lastmile_qr_scan", "ios": "https://dc.lft.to/lastmile_qr_scan"}, "fusion_lon": 0.0, "lat": 38.94202516666667, "bike_id": "f90413974e1a631294115b4c8afc6b66", "type": "electric_scooter", "is_reserved": 0, "lon": -77.02589666666667}, {"fusion_lat": 0.0, "name": "c1e524250b6b25815330153287c3f901", "is_disabled": 0, "rental_uris": {"android": "https://dc.lft.to/lastmile_qr_scan", "ios": "https://dc.lft.to/lastmile_qr_scan"}, "fusion_lon": 0.0, "lat": 38.90920783333333, "bike_id": "c1e524250b6b25815330153287c3f901", "type": "electric_scooter", "is_reserved": 0, "lon": -77.03189216666667}, {"fusion_lat": 0.0, "name": "0e6d5770c7b57e47e8470642e2cbbdec", "is_disabled": 0, "rental_uris": {"android": "https://dc.lft.to/lastmile_qr_scan", "ios": "https://dc.lft.to/lastmile_qr_scan"}, "fusion_lon": 0.0, "lat": 38.87460383333333, "bike_id": "0e6d5770c7b57e47e8470642e2cbbdec", "type": "electric_scooter", "is_reserved": 0, "lon": -77.000278}, {"fusion_lat": 0.0, "name": "5dc767798e752a3b7906b48080cfc1a7", "is_disabled": 0, "rental_uris": {"android": "https://dc.lft.to/lastmile_qr_scan", "ios": "https://dc.lft.to/lastmile_qr_scan"}, "fusion_lon": 0.0, "lat": 38.8951965, "bike_id": "5dc767798e752a3b7906b48080cfc1a7", "type": "electric_scooter", "is_reserved": 0, "lon": -76.999538}, {"fusion_lat": 0.0, "name": "68e4588c6e1efad820268228032e37da", "is_disabled": 0, "rental_uris": {"android": "https://dc.lft.to/lastmile_qr_scan", "ios": "https://dc.lft.to/lastmile_qr_scan"}, "fusion_lon": 0.0, "lat": 38.917213833333335, "bike_id": "68e4588c6e1efad820268228032e37da", "type": "electric_scooter", "is_reserved": 0, "lon": -77.0385725}, {"fusion_lat": 0.0, "name": "0399a09a9f43ca381c60b65efc0d2a2d", "is_disabled": 0, "rental_uris": {"android": "https://dc.lft.to/lastmile_qr_scan", "ios": "https://dc.lft.to/lastmile_qr_scan"}, "fusion_lon": 0.0, "lat": 38.90733183333333, "bike_id": "0399a09a9f43ca381c60b65efc0d2a2d", "type": "electric_scooter", "is_reserved": 0, "lon": -77.04180133333334}, {"fusion_lat": 0.0, "name": "92962bc51cbde93e1641f1e47869b1b0", "is_disabled": 0, "rental_uris": {"android": "https://dc.lft.to/lastmile_qr_scan", "ios": "https://dc.lft.to/lastmile_qr_scan"}, "fusion_lon": 0.0, "lat": 38.936131, "bike_id": "92962bc51cbde93e1641f1e47869b1b0", "type": "electric_scooter", "is_reserved": 0, "lon": -77.03192883333334}, {"fusion_lat": 0.0, "name": "6dcaefe0ce18a53704a775b958d2ab61", "is_disabled": 0, "rental_uris": {"android": "https://dc.lft.to/lastmile_qr_scan", "ios": "https://dc.lft.to/lastmile_qr_scan"}, "fusion_lon": 0.0, "lat": 38.90552533333333, "bike_id": "6dcaefe0ce18a53704a775b958d2ab61", "type": "electric_scooter", "is_reserved": 0, "lon": -77.04666366666666}, {"fusion_lat": 0.0, "name": "7936c6d2be4028e45b168a78da5831c1", "is_disabled": 0, "rental_uris": {"android": "https://dc.lft.to/lastmile_qr_scan", "ios": "https://dc.lft.to/lastmile_qr_scan"}, "fusion_lon": 0.0, "lat": 38.959681, "bike_id": "7936c6d2be4028e45b168a78da5831c1", "type": "electric_bike", "is_reserved": 0, "lon": -76.98161366666666}, {"fusion_lat": 0.0, "name": "0198efc78345055c13e9fd20c13fc282", "is_disabled": 0, "rental_uris": {"android": "https://dc.lft.to/lastmile_qr_scan", "ios": "https://dc.lft.to/lastmile_qr_scan"}, "fusion_lon": 0.0, "lat": 38.9507175, "bike_id": "0198efc78345055c13e9fd20c13fc282", "type": "electric_bike", "is_reserved": 0, "lon": -77.01199316666667}, {"fusion_lat": 0.0, "name": "d21c045976b2f5ca36b0ff327f2f8896", "is_disabled": 0, "rental_uris": {"android": "https://dc.lft.to/lastmile_qr_scan", "ios": "https://dc.lft.to/lastmile_qr_scan"}, "fusion_lon": 0.0, "lat": 38.90235966666667, "bike_id": "d21c045976b2f5ca36b0ff327f2f8896", "type": "electric_scooter", "is_reserved": 0, "lon": -77.04907083333333}, {"fusion_lat": 0.0, "name": "fb56d3ba8ca0bd95fbd6f267cb78ec50", "is_disabled": 0, "rental_uris": {"android": "https://dc.lft.to/lastmile_qr_scan", "ios": "https://dc.lft.to/lastmile_qr_scan"}, "fusion_lon": 0.0, "lat": 38.957384833333336, "bike_id": "fb56d3ba8ca0bd95fbd6f267cb78ec50", "type": "electric_bike", "is_reserved": 0, "lon": -76.98080316666666}, {"fusion_lat": 0.0, "name": "286737fa7de901f1883ab900cbc0be06", "is_disabled": 0, "rental_uris": {"android": "https://dc.lft.to/lastmile_qr_scan", "ios": "https://dc.lft.to/lastmile_qr_scan"}, "fusion_lon": 0.0, "lat": 38.92702166666667, "bike_id": "286737fa7de901f1883ab900cbc0be06", "type": "electric_scooter", "is_reserved": 0, "lon": -77.02431233333333}, {"fusion_lat": 0.0, "name": "1515579af644a58f4db2ec9a1f833347", "is_disabled": 0, "rental_uris": {"android": "https://dc.lft.to/lastmile_qr_scan", "ios": "https://dc.lft.to/lastmile_qr_scan"}, "fusion_lon": 0.0, "lat": 38.932542, "bike_id": "1515579af644a58f4db2ec9a1f833347", "type": "electric_scooter", "is_reserved": 0, "lon": -77.0327865}, {"fusion_lat": 0.0, "name": "c53ed1a1cdfe04376e2ce96de42d38d5", "is_disabled": 0, "rental_uris": {"android": "https://dc.lft.to/lastmile_qr_scan", "ios": "https://dc.lft.to/lastmile_qr_scan"}, "fusion_lon": 0.0, "lat": 38.8990585, "bike_id": "c53ed1a1cdfe04376e2ce96de42d38d5", "type": "electric_scooter", "is_reserved": 0, "lon": -76.93353416666666}, {"fusion_lat": 0.0, "name": "f47049ead29733ada4659f9acc92b26c", "is_disabled": 0, "rental_uris": {"android": "https://dc.lft.to/lastmile_qr_scan", "ios": "https://dc.lft.to/lastmile_qr_scan"}, "fusion_lon": 0.0, "lat": 38.921985, "bike_id": "f47049ead29733ada4659f9acc92b26c", "type": "electric_scooter", "is_reserved": 0, "lon": -77.08076866666667}, {"fusion_lat": 0.0, "name": "76525d40cb8733529d0790c1e0c8c22a", "is_disabled": 0, "rental_uris": {"android": "https://dc.lft.to/lastmile_qr_scan", "ios": "https://dc.lft.to/lastmile_qr_scan"}, "fusion_lon": 0.0, "lat": 38.905728833333335, "bike_id": "76525d40cb8733529d0790c1e0c8c22a", "type": "electric_scooter", "is_reserved": 0, "lon": -77.02608133333334}, {"fusion_lat": 0.0, "name": "97abb8c1a3e79db7d29e11f3f4579cdc", "is_disabled": 0, "rental_uris": {"android": "https://dc.lft.to/lastmile_qr_scan", "ios": "https://dc.lft.to/lastmile_qr_scan"}, "fusion_lon": 0.0, "lat": 38.94922366666667, "bike_id": "97abb8c1a3e79db7d29e11f3f4579cdc", "type": "electric_scooter", "is_reserved": 0, "lon": -77.01856233333334}, {"fusion_lat": 0.0, "name": "1753681c13afe7fa34553d6329a73935", "is_disabled": 0, "rental_uris": {"android": "https://dc.lft.to/lastmile_qr_scan", "ios": "https://dc.lft.to/lastmile_qr_scan"}, "fusion_lon": 0.0, "lat": 38.92475666666667, "bike_id": "1753681c13afe7fa34553d6329a73935", "type": "electric_scooter", "is_reserved": 0, "lon": -77.02668333333334}, {"fusion_lat": 0.0, "name": "186cf67555ad4233a4af27c9ad3b59ea", "is_disabled": 0, "rental_uris": {"android": "https://dc.lft.to/lastmile_qr_scan", "ios": "https://dc.lft.to/lastmile_qr_scan"}, "fusion_lon": 0.0, "lat": 38.90510916666667, "bike_id": "186cf67555ad4233a4af27c9ad3b59ea", "type": "electric_scooter", "is_reserved": 0, "lon": -77.0703205}, {"fusion_lat": 0.0, "name": "412854c118db97b4c7d6b0d248b857d2", "is_disabled": 0, "rental_uris": {"android": "https://dc.lft.to/lastmile_qr_scan", "ios": "https://dc.lft.to/lastmile_qr_scan"}, "fusion_lon": 0.0, "lat": 38.98818133333333, "bike_id": "412854c118db97b4c7d6b0d248b857d2", "type": "electric_bike", "is_reserved": 0, "lon": -77.0266205}, {"fusion_lat": 0.0, "name": "ca909aaff0147d3d6a184f15703c7a39", "is_disabled": 0, "rental_uris": {"android": "https://dc.lft.to/lastmile_qr_scan", "ios": "https://dc.lft.to/lastmile_qr_scan"}, "fusion_lon": 0.0, "lat": 38.927944833333335, "bike_id": "ca909aaff0147d3d6a184f15703c7a39", "type": "electric_scooter", "is_reserved": 0, "lon": -76.95554383333334}, {"fusion_lat": 0.0, "name": "c9975cc4c2083edcf0def8efc0700c05", "is_disabled": 0, "rental_uris": {"android": "https://dc.lft.to/lastmile_qr_scan", "ios": "https://dc.lft.to/lastmile_qr_scan"}, "fusion_lon": 0.0, "lat": 38.90488283333333, "bike_id": "c9975cc4c2083edcf0def8efc0700c05", "type": "electric_scooter", "is_reserved": 0, "lon": -76.949618}, {"fusion_lat": 0.0, "name": "804e581afee15b5fd8929b21aa714ddc", "is_disabled": 0, "rental_uris": {"android": "https://dc.lft.to/lastmile_qr_scan", "ios": "https://dc.lft.to/lastmile_qr_scan"}, "fusion_lon": 0.0, "lat": 38.92397483333333, "bike_id": "804e581afee15b5fd8929b21aa714ddc", "type": "electric_scooter", "is_reserved": 0, "lon": -77.0427675}, {"fusion_lat": 0.0, "name": "3bba9890afe38fcbe3c89f4639eae120", "is_disabled": 0, "rental_uris": {"android": "https://dc.lft.to/lastmile_qr_scan", "ios": "https://dc.lft.to/lastmile_qr_scan"}, "fusion_lon": 0.0, "lat": 38.930560666666665, "bike_id": "3bba9890afe38fcbe3c89f4639eae120", "type": "electric_scooter", "is_reserved": 0, "lon": -77.03937083333334}, {"fusion_lat": 0.0, "name": "5412b2a7c93a0a3330a4626f3ba3e81f", "is_disabled": 0, "rental_uris": {"android": "https://dc.lft.to/lastmile_qr_scan", "ios": "https://dc.lft.to/lastmile_qr_scan"}, "fusion_lon": 0.0, "lat": 38.916644833333336, "bike_id": "5412b2a7c93a0a3330a4626f3ba3e81f", "type": "electric_scooter", "is_reserved": 0, "lon": -77.0385615}, {"fusion_lat": 0.0, "name": "f6e96757439806bd730c1a2d11dc2676", "is_disabled": 0, "rental_uris": {"android": "https://dc.lft.to/lastmile_qr_scan", "ios": "https://dc.lft.to/lastmile_qr_scan"}, "fusion_lon": 0.0, "lat": 38.966706333333335, "bike_id": "f6e96757439806bd730c1a2d11dc2676", "type": "electric_bike", "is_reserved": 0, "lon": -76.974427}, {"fusion_lat": 0.0, "name": "88beabeb4a1f74accbe95e6a8c249390", "is_disabled": 0, "rental_uris": {"android": "https://dc.lft.to/lastmile_qr_scan", "ios": "https://dc.lft.to/lastmile_qr_scan"}, "fusion_lon": 0.0, "lat": 38.90764766666667, "bike_id": "88beabeb4a1f74accbe95e6a8c249390", "type": "electric_scooter", "is_reserved": 0, "lon": -77.04255166666667}, {"fusion_lat": 0.0, "name": "ab716bda96dc68b2d178cb56f9a3bfd8", "is_disabled": 0, "rental_uris": {"android": "https://dc.lft.to/lastmile_qr_scan", "ios": "https://dc.lft.to/lastmile_qr_scan"}, "fusion_lon": 0.0, "lat": 38.92001833333333, "bike_id": "ab716bda96dc68b2d178cb56f9a3bfd8", "type": "electric_scooter", "is_reserved": 0, "lon": -77.07140116666666}, {"fusion_lat": 0.0, "name": "3156d90a6e477f3700d91625407340c6", "is_disabled": 0, "rental_uris": {"android": "https://dc.lft.to/lastmile_qr_scan", "ios": "https://dc.lft.to/lastmile_qr_scan"}, "fusion_lon": 0.0, "lat": 38.931156333333334, "bike_id": "3156d90a6e477f3700d91625407340c6", "type": "electric_scooter", "is_reserved": 0, "lon": -77.02094383333333}, {"fusion_lat": 0.0, "name": "b4b83ae6e205aea50cefe3610351b7d9", "is_disabled": 0, "rental_uris": {"android": "https://dc.lft.to/lastmile_qr_scan", "ios": "https://dc.lft.to/lastmile_qr_scan"}, "fusion_lon": 0.0, "lat": 38.840860166666666, "bike_id": "b4b83ae6e205aea50cefe3610351b7d9", "type": "electric_bike", "is_reserved": 0, "lon": -76.97029816666667}, {"fusion_lat": 0.0, "name": "2503b4e271d7dff57e27e60648e0754d", "is_disabled": 0, "rental_uris": {"android": "https://dc.lft.to/lastmile_qr_scan", "ios": "https://dc.lft.to/lastmile_qr_scan"}, "fusion_lon": 0.0, "lat": 38.900088333333336, "bike_id": "2503b4e271d7dff57e27e60648e0754d", "type": "electric_scooter", "is_reserved": 0, "lon": -77.000321}, {"fusion_lat": 0.0, "name": "a7a4b41b10821a9fa12e64a23c0fdbea", "is_disabled": 0, "rental_uris": {"android": "https://dc.lft.to/lastmile_qr_scan", "ios": "https://dc.lft.to/lastmile_qr_scan"}, "fusion_lon": 0.0, "lat": 38.938478833333335, "bike_id": "a7a4b41b10821a9fa12e64a23c0fdbea", "type": "electric_scooter", "is_reserved": 0, "lon": -77.06244183333334}, {"fusion_lat": 0.0, "name": "0374e886a13742fb995f08b0ca8bb395", "is_disabled": 0, "rental_uris": {"android": "https://dc.lft.to/lastmile_qr_scan", "ios": "https://dc.lft.to/lastmile_qr_scan"}, "fusion_lon": 0.0, "lat": 38.92988016666666, "bike_id": "0374e886a13742fb995f08b0ca8bb395", "type": "electric_scooter", "is_reserved": 0, "lon": -77.03239116666667}, {"fusion_lat": 0.0, "name": "d231bece6132e1dc7e3323d84c6d4093", "is_disabled": 0, "rental_uris": {"android": "https://dc.lft.to/lastmile_qr_scan", "ios": "https://dc.lft.to/lastmile_qr_scan"}, "fusion_lon": 0.0, "lat": 38.89646583333333, "bike_id": "d231bece6132e1dc7e3323d84c6d4093", "type": "electric_bike", "is_reserved": 0, "lon": -77.087061}, {"fusion_lat": 0.0, "name": "3e982ab26481d3db598cda53d5615875", "is_disabled": 0, "rental_uris": {"android": "https://dc.lft.to/lastmile_qr_scan", "ios": "https://dc.lft.to/lastmile_qr_scan"}, "fusion_lon": 0.0, "lat": 38.855113, "bike_id": "3e982ab26481d3db598cda53d5615875", "type": "electric_bike", "is_reserved": 0, "lon": -77.1053705}, {"fusion_lat": 0.0, "name": "cf363762eba60d08a0106c54efd75c6c", "is_disabled": 0, "rental_uris": {"android": "https://dc.lft.to/lastmile_qr_scan", "ios": "https://dc.lft.to/lastmile_qr_scan"}, "fusion_lon": 0.0, "lat": 38.88868333333333, "bike_id": "cf363762eba60d08a0106c54efd75c6c", "type": "electric_scooter", "is_reserved": 0, "lon": -76.9845395}, {"fusion_lat": 0.0, "name": "2bca9e10982d3d3faee88ed8657ec431", "is_disabled": 0, "rental_uris": {"android": "https://dc.lft.to/lastmile_qr_scan", "ios": "https://dc.lft.to/lastmile_qr_scan"}, "fusion_lon": 0.0, "lat": 38.894792833333334, "bike_id": "2bca9e10982d3d3faee88ed8657ec431", "type": "electric_scooter", "is_reserved": 0, "lon": -76.99736983333334}, {"fusion_lat": 0.0, "name": "a01fd4ef4b4fd46c4c701b61e834e759", "is_disabled": 0, "rental_uris": {"android": "https://dc.lft.to/lastmile_qr_scan", "ios": "https://dc.lft.to/lastmile_qr_scan"}, "fusion_lon": 0.0, "lat": 38.9019615, "bike_id": "a01fd4ef4b4fd46c4c701b61e834e759", "type": "electric_scooter", "is_reserved": 0, "lon": -76.92895916666667}, {"fusion_lat": 0.0, "name": "c08abfec851fbcdadafabc12f90c8c7c", "is_disabled": 0, "rental_uris": {"android": "https://dc.lft.to/lastmile_qr_scan", "ios": "https://dc.lft.to/lastmile_qr_scan"}, "fusion_lon": 0.0, "lat": 38.914751333333335, "bike_id": "c08abfec851fbcdadafabc12f90c8c7c", "type": "electric_scooter", "is_reserved": 0, "lon": -77.04507183333334}, {"fusion_lat": 0.0, "name": "9430c6b8664ece374036a64167cc0581", "is_disabled": 0, "rental_uris": {"android": "https://dc.lft.to/lastmile_qr_scan", "ios": "https://dc.lft.to/lastmile_qr_scan"}, "fusion_lon": 0.0, "lat": 38.887448166666665, "bike_id": "9430c6b8664ece374036a64167cc0581", "type": "electric_scooter", "is_reserved": 0, "lon": -76.99626283333333}, {"fusion_lat": 0.0, "name": "55f97876bf9af6b268c8c54d5ed486a6", "is_disabled": 0, "rental_uris": {"android": "https://dc.lft.to/lastmile_qr_scan", "ios": "https://dc.lft.to/lastmile_qr_scan"}, "fusion_lon": 0.0, "lat": 38.919794333333336, "bike_id": "55f97876bf9af6b268c8c54d5ed486a6", "type": "electric_scooter", "is_reserved": 0, "lon": -77.02176366666667}, {"fusion_lat": 0.0, "name": "eb15b1e94253394debedd1d41ed1a10e", "is_disabled": 0, "rental_uris": {"android": "https://dc.lft.to/lastmile_qr_scan", "ios": "https://dc.lft.to/lastmile_qr_scan"}, "fusion_lon": 0.0, "lat": 38.903114, "bike_id": "eb15b1e94253394debedd1d41ed1a10e", "type": "electric_scooter", "is_reserved": 0, "lon": -76.97797133333333}, {"fusion_lat": 0.0, "name": "caa0674c24ad3e9fd50029d021ed0957", "is_disabled": 0, "rental_uris": {"android": "https://dc.lft.to/lastmile_qr_scan", "ios": "https://dc.lft.to/lastmile_qr_scan"}, "fusion_lon": 0.0, "lat": 38.914541, "bike_id": "caa0674c24ad3e9fd50029d021ed0957", "type": "electric_scooter", "is_reserved": 0, "lon": -77.026385}, {"fusion_lat": 0.0, "name": "858818d9d743912d3b37fa2f6af062cf", "is_disabled": 0, "rental_uris": {"android": "https://dc.lft.to/lastmile_qr_scan", "ios": "https://dc.lft.to/lastmile_qr_scan"}, "fusion_lon": 0.0, "lat": 38.92428066666667, "bike_id": "858818d9d743912d3b37fa2f6af062cf", "type": "electric_scooter", "is_reserved": 0, "lon": -76.98595266666666}, {"fusion_lat": 0.0, "name": "185266705fce5b6d751de45fc385c180", "is_disabled": 0, "rental_uris": {"android": "https://dc.lft.to/lastmile_qr_scan", "ios": "https://dc.lft.to/lastmile_qr_scan"}, "fusion_lon": 0.0, "lat": 38.942261, "bike_id": "185266705fce5b6d751de45fc385c180", "type": "electric_scooter", "is_reserved": 0, "lon": -77.02341883333334}, {"fusion_lat": 0.0, "name": "fe020515a46d393f7df4f82e9b10eecd", "is_disabled": 0, "rental_uris": {"android": "https://dc.lft.to/lastmile_qr_scan", "ios": "https://dc.lft.to/lastmile_qr_scan"}, "fusion_lon": 0.0, "lat": 38.907761, "bike_id": "fe020515a46d393f7df4f82e9b10eecd", "type": "electric_scooter", "is_reserved": 0, "lon": -77.03175983333334}, {"fusion_lat": 0.0, "name": "f3042c63a5b1aec698568b59e7bfb362", "is_disabled": 0, "rental_uris": {"android": "https://dc.lft.to/lastmile_qr_scan", "ios": "https://dc.lft.to/lastmile_qr_scan"}, "fusion_lon": 0.0, "lat": 38.9304835, "bike_id": "f3042c63a5b1aec698568b59e7bfb362", "type": "electric_scooter", "is_reserved": 0, "lon": -77.040569}, {"fusion_lat": 0.0, "name": "75f8bca40e8530a3c0de1e2c82f59e97", "is_disabled": 0, "rental_uris": {"android": "https://dc.lft.to/lastmile_qr_scan", "ios": "https://dc.lft.to/lastmile_qr_scan"}, "fusion_lon": 0.0, "lat": 39.01077983333333, "bike_id": "75f8bca40e8530a3c0de1e2c82f59e97", "type": "electric_bike", "is_reserved": 0, "lon": -76.91065966666666}, {"fusion_lat": 0.0, "name": "6eeae284fa310c8533fb008fcc8f0813", "is_disabled": 0, "rental_uris": {"android": "https://dc.lft.to/lastmile_qr_scan", "ios": "https://dc.lft.to/lastmile_qr_scan"}, "fusion_lon": 0.0, "lat": 38.922019666666664, "bike_id": "6eeae284fa310c8533fb008fcc8f0813", "type": "electric_scooter", "is_reserved": 0, "lon": -77.04123233333334}, {"fusion_lat": 0.0, "name": "9cad0183163754588dbae37d59f05e5d", "is_disabled": 0, "rental_uris": {"android": "https://dc.lft.to/lastmile_qr_scan", "ios": "https://dc.lft.to/lastmile_qr_scan"}, "fusion_lon": 0.0, "lat": 38.8996515, "bike_id": "9cad0183163754588dbae37d59f05e5d", "type": "electric_scooter", "is_reserved": 0, "lon": -77.015069}, {"fusion_lat": 0.0, "name": "c4a507cbd22896407a874c0d3238675d", "is_disabled": 0, "rental_uris": {"android": "https://dc.lft.to/lastmile_qr_scan", "ios": "https://dc.lft.to/lastmile_qr_scan"}, "fusion_lon": 0.0, "lat": 38.91422133333333, "bike_id": "c4a507cbd22896407a874c0d3238675d", "type": "electric_scooter", "is_reserved": 0, "lon": -77.0415665}, {"fusion_lat": 0.0, "name": "136660587e9b5c2566dd812c5a3d70b8", "is_disabled": 0, "rental_uris": {"android": "https://dc.lft.to/lastmile_qr_scan", "ios": "https://dc.lft.to/lastmile_qr_scan"}, "fusion_lon": 0.0, "lat": 38.92411466666667, "bike_id": "136660587e9b5c2566dd812c5a3d70b8", "type": "electric_scooter", "is_reserved": 0, "lon": -77.0200585}, {"fusion_lat": 0.0, "name": "de6cc1c4c691de7869b38ced5c74e93d", "is_disabled": 0, "rental_uris": {"android": "https://dc.lft.to/lastmile_qr_scan", "ios": "https://dc.lft.to/lastmile_qr_scan"}, "fusion_lon": 0.0, "lat": 38.956589666666666, "bike_id": "de6cc1c4c691de7869b38ced5c74e93d", "type": "electric_scooter", "is_reserved": 0, "lon": -77.03326716666666}, {"fusion_lat": 0.0, "name": "3dff19e810c5d1d409a0803c1caf387e", "is_disabled": 0, "rental_uris": {"android": "https://dc.lft.to/lastmile_qr_scan", "ios": "https://dc.lft.to/lastmile_qr_scan"}, "fusion_lon": 0.0, "lat": 38.8768955, "bike_id": "3dff19e810c5d1d409a0803c1caf387e", "type": "electric_scooter", "is_reserved": 0, "lon": -77.01756266666666}, {"fusion_lat": 0.0, "name": "fb0e44fd773d8f7a2639311153eb4a47", "is_disabled": 0, "rental_uris": {"android": "https://dc.lft.to/lastmile_qr_scan", "ios": "https://dc.lft.to/lastmile_qr_scan"}, "fusion_lon": 0.0, "lat": 38.91106516666667, "bike_id": "fb0e44fd773d8f7a2639311153eb4a47", "type": "electric_scooter", "is_reserved": 0, "lon": -77.0382705}, {"fusion_lat": 0.0, "name": "1c90a71d9e89bc8c587e440dda5cd0a9", "is_disabled": 0, "rental_uris": {"android": "https://dc.lft.to/lastmile_qr_scan", "ios": "https://dc.lft.to/lastmile_qr_scan"}, "fusion_lon": 0.0, "lat": 38.90787133333333, "bike_id": "1c90a71d9e89bc8c587e440dda5cd0a9", "type": "electric_scooter", "is_reserved": 0, "lon": -77.03856866666666}, {"fusion_lat": 0.0, "name": "fca8e090e14eca1bc54e1263471473de", "is_disabled": 0, "rental_uris": {"android": "https://dc.lft.to/lastmile_qr_scan", "ios": "https://dc.lft.to/lastmile_qr_scan"}, "fusion_lon": 0.0, "lat": 38.91959266666667, "bike_id": "fca8e090e14eca1bc54e1263471473de", "type": "electric_scooter", "is_reserved": 0, "lon": -77.01785233333334}, {"fusion_lat": 0.0, "name": "b129f3b1910dc3bc3f63aa142e576fd4", "is_disabled": 0, "rental_uris": {"android": "https://dc.lft.to/lastmile_qr_scan", "ios": "https://dc.lft.to/lastmile_qr_scan"}, "fusion_lon": 0.0, "lat": 38.900720666666665, "bike_id": "b129f3b1910dc3bc3f63aa142e576fd4", "type": "electric_scooter", "is_reserved": 0, "lon": -77.048141}, {"fusion_lat": 0.0, "name": "0b66932af05dee98bc851f6c3dff07a3", "is_disabled": 0, "rental_uris": {"android": "https://dc.lft.to/lastmile_qr_scan", "ios": "https://dc.lft.to/lastmile_qr_scan"}, "fusion_lon": 0.0, "lat": 38.916269666666665, "bike_id": "0b66932af05dee98bc851f6c3dff07a3", "type": "electric_scooter", "is_reserved": 0, "lon": -77.03852}, {"fusion_lat": 0.0, "name": "2f8309775be7787753c4cec778dda94d", "is_disabled": 0, "rental_uris": {"android": "https://dc.lft.to/lastmile_qr_scan", "ios": "https://dc.lft.to/lastmile_qr_scan"}, "fusion_lon": 0.0, "lat": 38.93113983333333, "bike_id": "2f8309775be7787753c4cec778dda94d", "type": "electric_scooter", "is_reserved": 0, "lon": -77.0384045}, {"fusion_lat": 0.0, "name": "a8a04359170d810640b94004b229969e", "is_disabled": 0, "rental_uris": {"android": "https://dc.lft.to/lastmile_qr_scan", "ios": "https://dc.lft.to/lastmile_qr_scan"}, "fusion_lon": 0.0, "lat": 38.934641666666664, "bike_id": "a8a04359170d810640b94004b229969e", "type": "electric_scooter", "is_reserved": 0, "lon": -77.02338466666667}, {"fusion_lat": 0.0, "name": "a47082d494eece07a621f15b6d3ec295", "is_disabled": 0, "rental_uris": {"android": "https://dc.lft.to/lastmile_qr_scan", "ios": "https://dc.lft.to/lastmile_qr_scan"}, "fusion_lon": 0.0, "lat": 38.91742033333333, "bike_id": "a47082d494eece07a621f15b6d3ec295", "type": "electric_scooter", "is_reserved": 0, "lon": -77.03181366666666}, {"fusion_lat": 0.0, "name": "9b345d5f5e0b5542498e84116182c0cb", "is_disabled": 0, "rental_uris": {"android": "https://dc.lft.to/lastmile_qr_scan", "ios": "https://dc.lft.to/lastmile_qr_scan"}, "fusion_lon": 0.0, "lat": 38.900454333333336, "bike_id": "9b345d5f5e0b5542498e84116182c0cb", "type": "electric_scooter", "is_reserved": 0, "lon": -77.01692566666667}, {"fusion_lat": 0.0, "name": "83d9f7b1fe2206c9a4dd31cf71d04f31", "is_disabled": 0, "rental_uris": {"android": "https://dc.lft.to/lastmile_qr_scan", "ios": "https://dc.lft.to/lastmile_qr_scan"}, "fusion_lon": 0.0, "lat": 38.902135, "bike_id": "83d9f7b1fe2206c9a4dd31cf71d04f31", "type": "electric_scooter", "is_reserved": 0, "lon": -77.0220425}, {"fusion_lat": 0.0, "name": "195dede3ed33e208d0d3e6259e092e67", "is_disabled": 0, "rental_uris": {"android": "https://dc.lft.to/lastmile_qr_scan", "ios": "https://dc.lft.to/lastmile_qr_scan"}, "fusion_lon": 0.0, "lat": 38.84634666666667, "bike_id": "195dede3ed33e208d0d3e6259e092e67", "type": "electric_scooter", "is_reserved": 0, "lon": -76.96918916666667}, {"fusion_lat": 0.0, "name": "7ffe22cbf16270e73609d59178e2c54c", "is_disabled": 0, "rental_uris": {"android": "https://dc.lft.to/lastmile_qr_scan", "ios": "https://dc.lft.to/lastmile_qr_scan"}, "fusion_lon": 0.0, "lat": 38.917079333333334, "bike_id": "7ffe22cbf16270e73609d59178e2c54c", "type": "electric_scooter", "is_reserved": 0, "lon": -77.02745033333333}, {"fusion_lat": 0.0, "name": "51d810fd7bf26c1f238c9ec3846f7386", "is_disabled": 0, "rental_uris": {"android": "https://dc.lft.to/lastmile_qr_scan", "ios": "https://dc.lft.to/lastmile_qr_scan"}, "fusion_lon": 0.0, "lat": 38.922134, "bike_id": "51d810fd7bf26c1f238c9ec3846f7386", "type": "electric_scooter", "is_reserved": 0, "lon": -77.018233}, {"fusion_lat": 0.0, "name": "4de30cd889b2e10101a9122a749cbd6f", "is_disabled": 0, "rental_uris": {"android": "https://dc.lft.to/lastmile_qr_scan", "ios": "https://dc.lft.to/lastmile_qr_scan"}, "fusion_lon": 0.0, "lat": 38.93750883333333, "bike_id": "4de30cd889b2e10101a9122a749cbd6f", "type": "electric_scooter", "is_reserved": 0, "lon": -77.02526516666667}, {"fusion_lat": 0.0, "name": "818803084fe5b70cbd0208ff4750fb89", "is_disabled": 0, "rental_uris": {"android": "https://dc.lft.to/lastmile_qr_scan", "ios": "https://dc.lft.to/lastmile_qr_scan"}, "fusion_lon": 0.0, "lat": 38.9613415, "bike_id": "818803084fe5b70cbd0208ff4750fb89", "type": "electric_scooter", "is_reserved": 0, "lon": -77.028062}, {"fusion_lat": 0.0, "name": "b4ee39b0ad013384954a11593a4a4669", "is_disabled": 0, "rental_uris": {"android": "https://dc.lft.to/lastmile_qr_scan", "ios": "https://dc.lft.to/lastmile_qr_scan"}, "fusion_lon": 0.0, "lat": 38.900631833333335, "bike_id": "b4ee39b0ad013384954a11593a4a4669", "type": "electric_scooter", "is_reserved": 0, "lon": -76.93383766666666}, {"fusion_lat": 0.0, "name": "3b7fdd41fa56151ad5d4340fbee82dee", "is_disabled": 0, "rental_uris": {"android": "https://dc.lft.to/lastmile_qr_scan", "ios": "https://dc.lft.to/lastmile_qr_scan"}, "fusion_lon": 0.0, "lat": 38.903817, "bike_id": "3b7fdd41fa56151ad5d4340fbee82dee", "type": "electric_scooter", "is_reserved": 0, "lon": -77.06133233333334}, {"fusion_lat": 0.0, "name": "fefceb2d32368c5736efae5aa9dcfdce", "is_disabled": 0, "rental_uris": {"android": "https://dc.lft.to/lastmile_qr_scan", "ios": "https://dc.lft.to/lastmile_qr_scan"}, "fusion_lon": 0.0, "lat": 38.895674166666666, "bike_id": "fefceb2d32368c5736efae5aa9dcfdce", "type": "electric_bike", "is_reserved": 0, "lon": -77.1273855}, {"fusion_lat": 0.0, "name": "f9597f7a9b5755e4bff2bde8cc16aec8", "is_disabled": 0, "rental_uris": {"android": "https://dc.lft.to/lastmile_qr_scan", "ios": "https://dc.lft.to/lastmile_qr_scan"}, "fusion_lon": 0.0, "lat": 38.896104, "bike_id": "f9597f7a9b5755e4bff2bde8cc16aec8", "type": "electric_scooter", "is_reserved": 0, "lon": -77.0497185}, {"fusion_lat": 0.0, "name": "a0d87bce7c746c7bc035e8f2f8804239", "is_disabled": 0, "rental_uris": {"android": "https://dc.lft.to/lastmile_qr_scan", "ios": "https://dc.lft.to/lastmile_qr_scan"}, "fusion_lon": 0.0, "lat": 38.941847833333334, "bike_id": "a0d87bce7c746c7bc035e8f2f8804239", "type": "electric_scooter", "is_reserved": 0, "lon": -77.02488516666666}, {"fusion_lat": 0.0, "name": "9674d914f8b46431c7a90334900ddb1c", "is_disabled": 0, "rental_uris": {"android": "https://dc.lft.to/lastmile_qr_scan", "ios": "https://dc.lft.to/lastmile_qr_scan"}, "fusion_lon": 0.0, "lat": 38.904091333333334, "bike_id": "9674d914f8b46431c7a90334900ddb1c", "type": "electric_scooter", "is_reserved": 0, "lon": -76.973284}, {"fusion_lat": 0.0, "name": "a171b8b7597210273196a71b12e9d868", "is_disabled": 0, "rental_uris": {"android": "https://dc.lft.to/lastmile_qr_scan", "ios": "https://dc.lft.to/lastmile_qr_scan"}, "fusion_lon": 0.0, "lat": 38.93027766666667, "bike_id": "a171b8b7597210273196a71b12e9d868", "type": "electric_scooter", "is_reserved": 0, "lon": -77.037784}, {"fusion_lat": 0.0, "name": "1668203409a3240697d5defb38792265", "is_disabled": 0, "rental_uris": {"android": "https://dc.lft.to/lastmile_qr_scan", "ios": "https://dc.lft.to/lastmile_qr_scan"}, "fusion_lon": 0.0, "lat": 38.9013275, "bike_id": "1668203409a3240697d5defb38792265", "type": "electric_scooter", "is_reserved": 0, "lon": -77.033794}, {"fusion_lat": 0.0, "name": "d4cec10b081de13ca8c170bd7499cea5", "is_disabled": 0, "rental_uris": {"android": "https://dc.lft.to/lastmile_qr_scan", "ios": "https://dc.lft.to/lastmile_qr_scan"}, "fusion_lon": 0.0, "lat": 38.902580666666665, "bike_id": "d4cec10b081de13ca8c170bd7499cea5", "type": "electric_scooter", "is_reserved": 0, "lon": -76.97450683333334}, {"fusion_lat": 0.0, "name": "9b3bf8255ac7ffea7e56579d9fdc6db0", "is_disabled": 0, "rental_uris": {"android": "https://dc.lft.to/lastmile_qr_scan", "ios": "https://dc.lft.to/lastmile_qr_scan"}, "fusion_lon": 0.0, "lat": 38.92928633333333, "bike_id": "9b3bf8255ac7ffea7e56579d9fdc6db0", "type": "electric_scooter", "is_reserved": 0, "lon": -77.02336033333333}, {"fusion_lat": 0.0, "name": "276d681ff626d8a6b77009335c8279a9", "is_disabled": 0, "rental_uris": {"android": "https://dc.lft.to/lastmile_qr_scan", "ios": "https://dc.lft.to/lastmile_qr_scan"}, "fusion_lon": 0.0, "lat": 38.923195, "bike_id": "276d681ff626d8a6b77009335c8279a9", "type": "electric_scooter", "is_reserved": 0, "lon": -77.01993283333333}, {"fusion_lat": 0.0, "name": "94965a6bcc119ff2b5f20b1aace16157", "is_disabled": 0, "rental_uris": {"android": "https://dc.lft.to/lastmile_qr_scan", "ios": "https://dc.lft.to/lastmile_qr_scan"}, "fusion_lon": 0.0, "lat": 38.93078933333334, "bike_id": "94965a6bcc119ff2b5f20b1aace16157", "type": "electric_scooter", "is_reserved": 0, "lon": -77.077632}, {"fusion_lat": 0.0, "name": "4f1b4f192780937071816aeeb10c8430", "is_disabled": 0, "rental_uris": {"android": "https://dc.lft.to/lastmile_qr_scan", "ios": "https://dc.lft.to/lastmile_qr_scan"}, "fusion_lon": 0.0, "lat": 38.90720183333333, "bike_id": "4f1b4f192780937071816aeeb10c8430", "type": "electric_scooter", "is_reserved": 0, "lon": -77.028885}, {"fusion_lat": 0.0, "name": "e202c6d6ee665935266b8831bfc0d556", "is_disabled": 0, "rental_uris": {"android": "https://dc.lft.to/lastmile_qr_scan", "ios": "https://dc.lft.to/lastmile_qr_scan"}, "fusion_lon": 0.0, "lat": 38.86022783333333, "bike_id": "e202c6d6ee665935266b8831bfc0d556", "type": "electric_bike", "is_reserved": 0, "lon": -77.12804066666666}, {"fusion_lat": 0.0, "name": "6a14003b9defaf6001fff76bb7c70d80", "is_disabled": 0, "rental_uris": {"android": "https://dc.lft.to/lastmile_qr_scan", "ios": "https://dc.lft.to/lastmile_qr_scan"}, "fusion_lon": 0.0, "lat": 38.92202433333333, "bike_id": "6a14003b9defaf6001fff76bb7c70d80", "type": "electric_scooter", "is_reserved": 0, "lon": -77.04243083333333}, {"fusion_lat": 0.0, "name": "c0d4148b71c50ca265be2df2a8cab2ff", "is_disabled": 0, "rental_uris": {"android": "https://dc.lft.to/lastmile_qr_scan", "ios": "https://dc.lft.to/lastmile_qr_scan"}, "fusion_lon": 0.0, "lat": 38.952337, "bike_id": "c0d4148b71c50ca265be2df2a8cab2ff", "type": "electric_scooter", "is_reserved": 0, "lon": -76.99003333333333}, {"fusion_lat": 0.0, "name": "5e1e83741077f054800efd3a8f086533", "is_disabled": 0, "rental_uris": {"android": "https://dc.lft.to/lastmile_qr_scan", "ios": "https://dc.lft.to/lastmile_qr_scan"}, "fusion_lon": 0.0, "lat": 38.903984, "bike_id": "5e1e83741077f054800efd3a8f086533", "type": "electric_scooter", "is_reserved": 0, "lon": -76.99005533333333}, {"fusion_lat": 0.0, "name": "fe2c573f56ebd0eadcaa60583eef368d", "is_disabled": 0, "rental_uris": {"android": "https://dc.lft.to/lastmile_qr_scan", "ios": "https://dc.lft.to/lastmile_qr_scan"}, "fusion_lon": 0.0, "lat": 38.907292, "bike_id": "fe2c573f56ebd0eadcaa60583eef368d", "type": "electric_scooter", "is_reserved": 0, "lon": -77.0121765}, {"fusion_lat": 0.0, "name": "8174f19a99faeaee23e86a6a2e7c060d", "is_disabled": 0, "rental_uris": {"android": "https://dc.lft.to/lastmile_qr_scan", "ios": "https://dc.lft.to/lastmile_qr_scan"}, "fusion_lon": 0.0, "lat": 38.9132515, "bike_id": "8174f19a99faeaee23e86a6a2e7c060d", "type": "electric_scooter", "is_reserved": 0, "lon": -77.04708216666667}, {"fusion_lat": 0.0, "name": "eca6efddc0b054aa85eb419ee91e8a36", "is_disabled": 0, "rental_uris": {"android": "https://dc.lft.to/lastmile_qr_scan", "ios": "https://dc.lft.to/lastmile_qr_scan"}, "fusion_lon": 0.0, "lat": 38.9358245, "bike_id": "eca6efddc0b054aa85eb419ee91e8a36", "type": "electric_scooter", "is_reserved": 0, "lon": -77.0236415}, {"fusion_lat": 0.0, "name": "d5a2a4890f4853b88e393f1f5fd0ecb4", "is_disabled": 0, "rental_uris": {"android": "https://dc.lft.to/lastmile_qr_scan", "ios": "https://dc.lft.to/lastmile_qr_scan"}, "fusion_lon": 0.0, "lat": 38.940198333333335, "bike_id": "d5a2a4890f4853b88e393f1f5fd0ecb4", "type": "electric_scooter", "is_reserved": 0, "lon": -77.02779733333334}, {"fusion_lat": 0.0, "name": "d25773a43b81de2580949fd1dea4019a", "is_disabled": 0, "rental_uris": {"android": "https://dc.lft.to/lastmile_qr_scan", "ios": "https://dc.lft.to/lastmile_qr_scan"}, "fusion_lon": 0.0, "lat": 38.887549166666666, "bike_id": "d25773a43b81de2580949fd1dea4019a", "type": "electric_scooter", "is_reserved": 0, "lon": -77.00171533333334}, {"fusion_lat": 0.0, "name": "8d8020e443d9136583a6a26a7eff7cae", "is_disabled": 0, "rental_uris": {"android": "https://dc.lft.to/lastmile_qr_scan", "ios": "https://dc.lft.to/lastmile_qr_scan"}, "fusion_lon": 0.0, "lat": 38.910288666666666, "bike_id": "8d8020e443d9136583a6a26a7eff7cae", "type": "electric_scooter", "is_reserved": 0, "lon": -77.0075815}, {"fusion_lat": 0.0, "name": "ad3f573ddf841a0f5959b0bcbcdf8666", "is_disabled": 0, "rental_uris": {"android": "https://dc.lft.to/lastmile_qr_scan", "ios": "https://dc.lft.to/lastmile_qr_scan"}, "fusion_lon": 0.0, "lat": 38.8763285, "bike_id": "ad3f573ddf841a0f5959b0bcbcdf8666", "type": "electric_scooter", "is_reserved": 0, "lon": -77.01643016666667}, {"fusion_lat": 0.0, "name": "5ec9ea4017a5110e0c018df7857528f3", "is_disabled": 0, "rental_uris": {"android": "https://dc.lft.to/lastmile_qr_scan", "ios": "https://dc.lft.to/lastmile_qr_scan"}, "fusion_lon": 0.0, "lat": 38.916821666666664, "bike_id": "5ec9ea4017a5110e0c018df7857528f3", "type": "electric_scooter", "is_reserved": 0, "lon": -77.02381966666667}, {"fusion_lat": 0.0, "name": "fc13daf6770497b4913632e41b8a3c80", "is_disabled": 0, "rental_uris": {"android": "https://dc.lft.to/lastmile_qr_scan", "ios": "https://dc.lft.to/lastmile_qr_scan"}, "fusion_lon": 0.0, "lat": 38.92610216666667, "bike_id": "fc13daf6770497b4913632e41b8a3c80", "type": "electric_scooter", "is_reserved": 0, "lon": -77.02214966666666}, {"fusion_lat": 0.0, "name": "a593ff526478814c5beb89dde4396960", "is_disabled": 0, "rental_uris": {"android": "https://dc.lft.to/lastmile_qr_scan", "ios": "https://dc.lft.to/lastmile_qr_scan"}, "fusion_lon": 0.0, "lat": 38.91198333333333, "bike_id": "a593ff526478814c5beb89dde4396960", "type": "electric_scooter", "is_reserved": 0, "lon": -77.03854916666667}, {"fusion_lat": 0.0, "name": "410edb52d0ffa81710c0db658fedc2d8", "is_disabled": 0, "rental_uris": {"android": "https://dc.lft.to/lastmile_qr_scan", "ios": "https://dc.lft.to/lastmile_qr_scan"}, "fusion_lon": 0.0, "lat": 38.907829166666666, "bike_id": "410edb52d0ffa81710c0db658fedc2d8", "type": "electric_scooter", "is_reserved": 0, "lon": -77.03526933333333}, {"fusion_lat": 0.0, "name": "3755eef504688bd560c6a286863f6562", "is_disabled": 0, "rental_uris": {"android": "https://dc.lft.to/lastmile_qr_scan", "ios": "https://dc.lft.to/lastmile_qr_scan"}, "fusion_lon": 0.0, "lat": 38.9313635, "bike_id": "3755eef504688bd560c6a286863f6562", "type": "electric_scooter", "is_reserved": 0, "lon": -77.03257066666667}, {"fusion_lat": 0.0, "name": "56d7c5a2196f08e5e4f482841069752c", "is_disabled": 0, "rental_uris": {"android": "https://dc.lft.to/lastmile_qr_scan", "ios": "https://dc.lft.to/lastmile_qr_scan"}, "fusion_lon": 0.0, "lat": 38.90904666666667, "bike_id": "56d7c5a2196f08e5e4f482841069752c", "type": "electric_scooter", "is_reserved": 0, "lon": -77.0327555}, {"fusion_lat": 0.0, "name": "d06446ccdc47d8cfa2c1b4d20467a93f", "is_disabled": 0, "rental_uris": {"android": "https://dc.lft.to/lastmile_qr_scan", "ios": "https://dc.lft.to/lastmile_qr_scan"}, "fusion_lon": 0.0, "lat": 38.918102166666664, "bike_id": "d06446ccdc47d8cfa2c1b4d20467a93f", "type": "electric_scooter", "is_reserved": 0, "lon": -77.01135416666666}, {"fusion_lat": 0.0, "name": "1078967ba582326bf9a6c4b0dd74cbdd", "is_disabled": 0, "rental_uris": {"android": "https://dc.lft.to/lastmile_qr_scan", "ios": "https://dc.lft.to/lastmile_qr_scan"}, "fusion_lon": 0.0, "lat": 38.89281016666666, "bike_id": "1078967ba582326bf9a6c4b0dd74cbdd", "type": "electric_scooter", "is_reserved": 0, "lon": -76.9831435}, {"fusion_lat": 0.0, "name": "970d76b7025cdbd13eb603319dd400b1", "is_disabled": 0, "rental_uris": {"android": "https://dc.lft.to/lastmile_qr_scan", "ios": "https://dc.lft.to/lastmile_qr_scan"}, "fusion_lon": 0.0, "lat": 38.91986516666667, "bike_id": "970d76b7025cdbd13eb603319dd400b1", "type": "electric_scooter", "is_reserved": 0, "lon": -77.04177333333334}, {"fusion_lat": 0.0, "name": "7217f2bf898860e57b74a10daa163c92", "is_disabled": 0, "rental_uris": {"android": "https://dc.lft.to/lastmile_qr_scan", "ios": "https://dc.lft.to/lastmile_qr_scan"}, "fusion_lon": 0.0, "lat": 38.93632083333333, "bike_id": "7217f2bf898860e57b74a10daa163c92", "type": "electric_scooter", "is_reserved": 0, "lon": -77.03654383333334}, {"fusion_lat": 0.0, "name": "f3f62ee62dbdc174a9e4c9efb271fd71", "is_disabled": 0, "rental_uris": {"android": "https://dc.lft.to/lastmile_qr_scan", "ios": "https://dc.lft.to/lastmile_qr_scan"}, "fusion_lon": 0.0, "lat": 38.94892566666667, "bike_id": "f3f62ee62dbdc174a9e4c9efb271fd71", "type": "electric_bike", "is_reserved": 0, "lon": -76.96361883333333}, {"fusion_lat": 0.0, "name": "77c2df048cca3aa857c2a6c71de4d889", "is_disabled": 0, "rental_uris": {"android": "https://dc.lft.to/lastmile_qr_scan", "ios": "https://dc.lft.to/lastmile_qr_scan"}, "fusion_lon": 0.0, "lat": 38.927893, "bike_id": "77c2df048cca3aa857c2a6c71de4d889", "type": "electric_scooter", "is_reserved": 0, "lon": -77.03216266666666}, {"fusion_lat": 0.0, "name": "f68215a756c3666b85a284dcfcb33f35", "is_disabled": 0, "rental_uris": {"android": "https://dc.lft.to/lastmile_qr_scan", "ios": "https://dc.lft.to/lastmile_qr_scan"}, "fusion_lon": 0.0, "lat": 38.911138666666666, "bike_id": "f68215a756c3666b85a284dcfcb33f35", "type": "electric_scooter", "is_reserved": 0, "lon": -76.997698}, {"fusion_lat": 0.0, "name": "1fe901acaf50d3ccf3ea22a850f13308", "is_disabled": 0, "rental_uris": {"android": "https://dc.lft.to/lastmile_qr_scan", "ios": "https://dc.lft.to/lastmile_qr_scan"}, "fusion_lon": 0.0, "lat": 38.913004, "bike_id": "1fe901acaf50d3ccf3ea22a850f13308", "type": "electric_scooter", "is_reserved": 0, "lon": -77.04866666666666}, {"fusion_lat": 0.0, "name": "e6e56fb227220cc130f8148d664a69fb", "is_disabled": 0, "rental_uris": {"android": "https://dc.lft.to/lastmile_qr_scan", "ios": "https://dc.lft.to/lastmile_qr_scan"}, "fusion_lon": 0.0, "lat": 38.91115533333333, "bike_id": "e6e56fb227220cc130f8148d664a69fb", "type": "electric_scooter", "is_reserved": 0, "lon": -77.02058233333334}, {"fusion_lat": 0.0, "name": "738bff9a38c59e086a0405159197516a", "is_disabled": 0, "rental_uris": {"android": "https://dc.lft.to/lastmile_qr_scan", "ios": "https://dc.lft.to/lastmile_qr_scan"}, "fusion_lon": 0.0, "lat": 38.919682333333334, "bike_id": "738bff9a38c59e086a0405159197516a", "type": "electric_scooter", "is_reserved": 0, "lon": -77.070817}, {"fusion_lat": 0.0, "name": "84e5d5303e173a2f857c8c95a622bb45", "is_disabled": 0, "rental_uris": {"android": "https://dc.lft.to/lastmile_qr_scan", "ios": "https://dc.lft.to/lastmile_qr_scan"}, "fusion_lon": 0.0, "lat": 38.819166833333334, "bike_id": "84e5d5303e173a2f857c8c95a622bb45", "type": "electric_bike", "is_reserved": 0, "lon": -77.1266315}, {"fusion_lat": 0.0, "name": "250a7a4ffaf1a56dc82005aa3e7430ff", "is_disabled": 0, "rental_uris": {"android": "https://dc.lft.to/lastmile_qr_scan", "ios": "https://dc.lft.to/lastmile_qr_scan"}, "fusion_lon": 0.0, "lat": 38.9278035, "bike_id": "250a7a4ffaf1a56dc82005aa3e7430ff", "type": "electric_scooter", "is_reserved": 0, "lon": -77.03145433333333}, {"fusion_lat": 0.0, "name": "0609a188f683a2bc6e2876ec88cf2a42", "is_disabled": 0, "rental_uris": {"android": "https://dc.lft.to/lastmile_qr_scan", "ios": "https://dc.lft.to/lastmile_qr_scan"}, "fusion_lon": 0.0, "lat": 38.9183445, "bike_id": "0609a188f683a2bc6e2876ec88cf2a42", "type": "electric_scooter", "is_reserved": 0, "lon": -77.024601}, {"fusion_lat": 0.0, "name": "a7f659f4ef230c74b7ec59618d1c4e14", "is_disabled": 0, "rental_uris": {"android": "https://dc.lft.to/lastmile_qr_scan", "ios": "https://dc.lft.to/lastmile_qr_scan"}, "fusion_lon": 0.0, "lat": 38.93369583333333, "bike_id": "a7f659f4ef230c74b7ec59618d1c4e14", "type": "electric_scooter", "is_reserved": 0, "lon": -77.02428366666666}, {"fusion_lat": 0.0, "name": "d599bfd4dd3f15cf0fa317d0f7f63e65", "is_disabled": 0, "rental_uris": {"android": "https://dc.lft.to/lastmile_qr_scan", "ios": "https://dc.lft.to/lastmile_qr_scan"}, "fusion_lon": 0.0, "lat": 38.924520666666666, "bike_id": "d599bfd4dd3f15cf0fa317d0f7f63e65", "type": "electric_scooter", "is_reserved": 0, "lon": -77.033201}, {"fusion_lat": 0.0, "name": "e15d8e0caf022cd4b48d145af7d0c1e8", "is_disabled": 0, "rental_uris": {"android": "https://dc.lft.to/lastmile_qr_scan", "ios": "https://dc.lft.to/lastmile_qr_scan"}, "fusion_lon": 0.0, "lat": 38.97127666666667, "bike_id": "e15d8e0caf022cd4b48d145af7d0c1e8", "type": "electric_bike", "is_reserved": 0, "lon": -77.02084633333334}, {"fusion_lat": 0.0, "name": "90bc84db484ab5e8e1ebf22646c86547", "is_disabled": 0, "rental_uris": {"android": "https://dc.lft.to/lastmile_qr_scan", "ios": "https://dc.lft.to/lastmile_qr_scan"}, "fusion_lon": 0.0, "lat": 38.889924, "bike_id": "90bc84db484ab5e8e1ebf22646c86547", "type": "electric_scooter", "is_reserved": 0, "lon": -76.982257}, {"fusion_lat": 0.0, "name": "1265fdeacbdcf865e35653037ba52652", "is_disabled": 0, "rental_uris": {"android": "https://dc.lft.to/lastmile_qr_scan", "ios": "https://dc.lft.to/lastmile_qr_scan"}, "fusion_lon": 0.0, "lat": 38.933762, "bike_id": "1265fdeacbdcf865e35653037ba52652", "type": "electric_scooter", "is_reserved": 0, "lon": -77.02413083333333}, {"fusion_lat": 0.0, "name": "3266f2f1b16b3383a8ffcd003ea83d9b", "is_disabled": 0, "rental_uris": {"android": "https://dc.lft.to/lastmile_qr_scan", "ios": "https://dc.lft.to/lastmile_qr_scan"}, "fusion_lon": 0.0, "lat": 38.9389505, "bike_id": "3266f2f1b16b3383a8ffcd003ea83d9b", "type": "electric_scooter", "is_reserved": 0, "lon": -77.03318916666667}, {"fusion_lat": 0.0, "name": "5a2c6692283ba29a5b094b208345ec5d", "is_disabled": 0, "rental_uris": {"android": "https://dc.lft.to/lastmile_qr_scan", "ios": "https://dc.lft.to/lastmile_qr_scan"}, "fusion_lon": 0.0, "lat": 38.902346666666666, "bike_id": "5a2c6692283ba29a5b094b208345ec5d", "type": "electric_scooter", "is_reserved": 0, "lon": -77.02605933333334}, {"fusion_lat": 0.0, "name": "4e0579f2f832c09fed1a0b7fab694430", "is_disabled": 0, "rental_uris": {"android": "https://dc.lft.to/lastmile_qr_scan", "ios": "https://dc.lft.to/lastmile_qr_scan"}, "fusion_lon": 0.0, "lat": 38.935298333333336, "bike_id": "4e0579f2f832c09fed1a0b7fab694430", "type": "electric_scooter", "is_reserved": 0, "lon": -77.0451755}, {"fusion_lat": 0.0, "name": "35c56002ba467fcfe621f720224fdfe2", "is_disabled": 0, "rental_uris": {"android": "https://dc.lft.to/lastmile_qr_scan", "ios": "https://dc.lft.to/lastmile_qr_scan"}, "fusion_lon": 0.0, "lat": 38.9091295, "bike_id": "35c56002ba467fcfe621f720224fdfe2", "type": "electric_scooter", "is_reserved": 0, "lon": -77.04421716666667}, {"fusion_lat": 0.0, "name": "995f52ca6acb9542cf4922960cf4f5d1", "is_disabled": 0, "rental_uris": {"android": "https://dc.lft.to/lastmile_qr_scan", "ios": "https://dc.lft.to/lastmile_qr_scan"}, "fusion_lon": 0.0, "lat": 38.92463133333333, "bike_id": "995f52ca6acb9542cf4922960cf4f5d1", "type": "electric_scooter", "is_reserved": 0, "lon": -77.03788533333334}, {"fusion_lat": 0.0, "name": "b151dca7c54b38444d6ca50f0b91820b", "is_disabled": 0, "rental_uris": {"android": "https://dc.lft.to/lastmile_qr_scan", "ios": "https://dc.lft.to/lastmile_qr_scan"}, "fusion_lon": 0.0, "lat": 38.888978, "bike_id": "b151dca7c54b38444d6ca50f0b91820b", "type": "electric_bike", "is_reserved": 0, "lon": -77.115259}, {"fusion_lat": 0.0, "name": "7a1b8cdcd542b1a822d3894814ca43f0", "is_disabled": 0, "rental_uris": {"android": "https://dc.lft.to/lastmile_qr_scan", "ios": "https://dc.lft.to/lastmile_qr_scan"}, "fusion_lon": 0.0, "lat": 38.89851383333333, "bike_id": "7a1b8cdcd542b1a822d3894814ca43f0", "type": "electric_scooter", "is_reserved": 0, "lon": -76.99271866666666}, {"fusion_lat": 0.0, "name": "7c532a4bb81f6699d1ca34bdf08aaf32", "is_disabled": 0, "rental_uris": {"android": "https://dc.lft.to/lastmile_qr_scan", "ios": "https://dc.lft.to/lastmile_qr_scan"}, "fusion_lon": 0.0, "lat": 38.9348575, "bike_id": "7c532a4bb81f6699d1ca34bdf08aaf32", "type": "electric_scooter", "is_reserved": 0, "lon": -77.03071033333333}, {"fusion_lat": 0.0, "name": "34c5e8087ef636f9ce4b0eaafc75f200", "is_disabled": 0, "rental_uris": {"android": "https://dc.lft.to/lastmile_qr_scan", "ios": "https://dc.lft.to/lastmile_qr_scan"}, "fusion_lon": 0.0, "lat": 38.9026675, "bike_id": "34c5e8087ef636f9ce4b0eaafc75f200", "type": "electric_scooter", "is_reserved": 0, "lon": -77.03943783333334}, {"fusion_lat": 0.0, "name": "ade8fc5539e51726d88889e5bb0bee7d", "is_disabled": 0, "rental_uris": {"android": "https://dc.lft.to/lastmile_qr_scan", "ios": "https://dc.lft.to/lastmile_qr_scan"}, "fusion_lon": 0.0, "lat": 38.9080735, "bike_id": "ade8fc5539e51726d88889e5bb0bee7d", "type": "electric_scooter", "is_reserved": 0, "lon": -77.03188183333333}, {"fusion_lat": 0.0, "name": "992ddbcce7a5a5cac3eaafac9c4d2101", "is_disabled": 0, "rental_uris": {"android": "https://dc.lft.to/lastmile_qr_scan", "ios": "https://dc.lft.to/lastmile_qr_scan"}, "fusion_lon": 0.0, "lat": 38.9156435, "bike_id": "992ddbcce7a5a5cac3eaafac9c4d2101", "type": "electric_scooter", "is_reserved": 0, "lon": -77.0322085}, {"fusion_lat": 0.0, "name": "cc2fe81ff22b07d055d96984a7d0b3d0", "is_disabled": 0, "rental_uris": {"android": "https://dc.lft.to/lastmile_qr_scan", "ios": "https://dc.lft.to/lastmile_qr_scan"}, "fusion_lon": 0.0, "lat": 38.9255715, "bike_id": "cc2fe81ff22b07d055d96984a7d0b3d0", "type": "electric_scooter", "is_reserved": 0, "lon": -77.02286666666667}, {"fusion_lat": 0.0, "name": "eb90966e13527aa816b68fe88eb04f93", "is_disabled": 0, "rental_uris": {"android": "https://dc.lft.to/lastmile_qr_scan", "ios": "https://dc.lft.to/lastmile_qr_scan"}, "fusion_lon": 0.0, "lat": 38.897341833333336, "bike_id": "eb90966e13527aa816b68fe88eb04f93", "type": "electric_scooter", "is_reserved": 0, "lon": -77.027103}, {"fusion_lat": 0.0, "name": "37faa5618590dea9f94abe3e27bf6753", "is_disabled": 0, "rental_uris": {"android": "https://dc.lft.to/lastmile_qr_scan", "ios": "https://dc.lft.to/lastmile_qr_scan"}, "fusion_lon": 0.0, "lat": 38.874553, "bike_id": "37faa5618590dea9f94abe3e27bf6753", "type": "electric_bike", "is_reserved": 0, "lon": -76.99941466666667}, {"fusion_lat": 0.0, "name": "ba51a1106b9baab06aabd84da408f75e", "is_disabled": 0, "rental_uris": {"android": "https://dc.lft.to/lastmile_qr_scan", "ios": "https://dc.lft.to/lastmile_qr_scan"}, "fusion_lon": 0.0, "lat": 38.87975316666667, "bike_id": "ba51a1106b9baab06aabd84da408f75e", "type": "electric_bike", "is_reserved": 0, "lon": -77.178386}, {"fusion_lat": 0.0, "name": "21991c361b10598e3a324f31aed73560", "is_disabled": 0, "rental_uris": {"android": "https://dc.lft.to/lastmile_qr_scan", "ios": "https://dc.lft.to/lastmile_qr_scan"}, "fusion_lon": 0.0, "lat": 38.86623983333333, "bike_id": "21991c361b10598e3a324f31aed73560", "type": "electric_scooter", "is_reserved": 0, "lon": -76.98714183333334}, {"fusion_lat": 0.0, "name": "5d3dde109b988e833ef4f8b13b9f1c41", "is_disabled": 0, "rental_uris": {"android": "https://dc.lft.to/lastmile_qr_scan", "ios": "https://dc.lft.to/lastmile_qr_scan"}, "fusion_lon": 0.0, "lat": 38.91003966666667, "bike_id": "5d3dde109b988e833ef4f8b13b9f1c41", "type": "electric_scooter", "is_reserved": 0, "lon": -77.07366866666666}, {"fusion_lat": 0.0, "name": "cfaeeb19797c883e37f7c712cb52dea3", "is_disabled": 0, "rental_uris": {"android": "https://dc.lft.to/lastmile_qr_scan", "ios": "https://dc.lft.to/lastmile_qr_scan"}, "fusion_lon": 0.0, "lat": 38.91691016666667, "bike_id": "cfaeeb19797c883e37f7c712cb52dea3", "type": "electric_scooter", "is_reserved": 0, "lon": -77.03724383333333}, {"fusion_lat": 0.0, "name": "55456e4ba9ce64b29a41d1ef5451b302", "is_disabled": 0, "rental_uris": {"android": "https://dc.lft.to/lastmile_qr_scan", "ios": "https://dc.lft.to/lastmile_qr_scan"}, "fusion_lon": 0.0, "lat": 38.95478583333333, "bike_id": "55456e4ba9ce64b29a41d1ef5451b302", "type": "electric_scooter", "is_reserved": 0, "lon": -77.07774016666667}, {"fusion_lat": 0.0, "name": "1e4707e85c96e3bfa0c0a8ce16a6d3e4", "is_disabled": 0, "rental_uris": {"android": "https://dc.lft.to/lastmile_qr_scan", "ios": "https://dc.lft.to/lastmile_qr_scan"}, "fusion_lon": 0.0, "lat": 38.95115783333333, "bike_id": "1e4707e85c96e3bfa0c0a8ce16a6d3e4", "type": "electric_scooter", "is_reserved": 0, "lon": -77.0586155}, {"fusion_lat": 0.0, "name": "72f9956846194ca85178273f30513ba9", "is_disabled": 0, "rental_uris": {"android": "https://dc.lft.to/lastmile_qr_scan", "ios": "https://dc.lft.to/lastmile_qr_scan"}, "fusion_lon": 0.0, "lat": 38.908540333333335, "bike_id": "72f9956846194ca85178273f30513ba9", "type": "electric_scooter", "is_reserved": 0, "lon": -77.0271995}, {"fusion_lat": 0.0, "name": "bb0ea2b398e9579a9fec2a1553246470", "is_disabled": 0, "rental_uris": {"android": "https://dc.lft.to/lastmile_qr_scan", "ios": "https://dc.lft.to/lastmile_qr_scan"}, "fusion_lon": 0.0, "lat": 38.91411633333333, "bike_id": "bb0ea2b398e9579a9fec2a1553246470", "type": "electric_scooter", "is_reserved": 0, "lon": -77.03831483333333}, {"fusion_lat": 0.0, "name": "375d53b56d9f13508c9f80c4b2a74580", "is_disabled": 0, "rental_uris": {"android": "https://dc.lft.to/lastmile_qr_scan", "ios": "https://dc.lft.to/lastmile_qr_scan"}, "fusion_lon": 0.0, "lat": 38.93241866666666, "bike_id": "375d53b56d9f13508c9f80c4b2a74580", "type": "electric_bike", "is_reserved": 0, "lon": -76.97426183333333}, {"fusion_lat": 0.0, "name": "e8a52328adcd48547358caa2e03dda39", "is_disabled": 0, "rental_uris": {"android": "https://dc.lft.to/lastmile_qr_scan", "ios": "https://dc.lft.to/lastmile_qr_scan"}, "fusion_lon": 0.0, "lat": 38.96142183333333, "bike_id": "e8a52328adcd48547358caa2e03dda39", "type": "electric_bike", "is_reserved": 0, "lon": -77.032415}, {"fusion_lat": 0.0, "name": "263d8d0b3e3aff798cc9ad00414f6366", "is_disabled": 0, "rental_uris": {"android": "https://dc.lft.to/lastmile_qr_scan", "ios": "https://dc.lft.to/lastmile_qr_scan"}, "fusion_lon": 0.0, "lat": 38.923435, "bike_id": "263d8d0b3e3aff798cc9ad00414f6366", "type": "electric_scooter", "is_reserved": 0, "lon": -77.001854}, {"fusion_lat": 0.0, "name": "07072cdd9d032853235c6e0c173da73a", "is_disabled": 0, "rental_uris": {"android": "https://dc.lft.to/lastmile_qr_scan", "ios": "https://dc.lft.to/lastmile_qr_scan"}, "fusion_lon": 0.0, "lat": 38.939182, "bike_id": "07072cdd9d032853235c6e0c173da73a", "type": "electric_scooter", "is_reserved": 0, "lon": -77.02797916666667}, {"fusion_lat": 0.0, "name": "84cc3838c548a9ccb85c68d7bcec5aa7", "is_disabled": 0, "rental_uris": {"android": "https://dc.lft.to/lastmile_qr_scan", "ios": "https://dc.lft.to/lastmile_qr_scan"}, "fusion_lon": 0.0, "lat": 38.884118, "bike_id": "84cc3838c548a9ccb85c68d7bcec5aa7", "type": "electric_scooter", "is_reserved": 0, "lon": -77.01977383333333}, {"fusion_lat": 0.0, "name": "25d36fa46ca4ca6050d2d665548768ff", "is_disabled": 0, "rental_uris": {"android": "https://dc.lft.to/lastmile_qr_scan", "ios": "https://dc.lft.to/lastmile_qr_scan"}, "fusion_lon": 0.0, "lat": 38.91035333333333, "bike_id": "25d36fa46ca4ca6050d2d665548768ff", "type": "electric_scooter", "is_reserved": 0, "lon": -77.00755316666667}, {"fusion_lat": 0.0, "name": "8b6c0a0f7d5f6e25d131c885f2700ee7", "is_disabled": 0, "rental_uris": {"android": "https://dc.lft.to/lastmile_qr_scan", "ios": "https://dc.lft.to/lastmile_qr_scan"}, "fusion_lon": 0.0, "lat": 38.90673916666667, "bike_id": "8b6c0a0f7d5f6e25d131c885f2700ee7", "type": "electric_scooter", "is_reserved": 0, "lon": -77.02211983333333}, {"fusion_lat": 0.0, "name": "be6f362b4fa1c8e409d84f0050c67ad0", "is_disabled": 0, "rental_uris": {"android": "https://dc.lft.to/lastmile_qr_scan", "ios": "https://dc.lft.to/lastmile_qr_scan"}, "fusion_lon": 0.0, "lat": 38.9001985, "bike_id": "be6f362b4fa1c8e409d84f0050c67ad0", "type": "electric_scooter", "is_reserved": 0, "lon": -77.0433955}, {"fusion_lat": 0.0, "name": "7a1a83905206d1626346caea77209952", "is_disabled": 0, "rental_uris": {"android": "https://dc.lft.to/lastmile_qr_scan", "ios": "https://dc.lft.to/lastmile_qr_scan"}, "fusion_lon": 0.0, "lat": 38.9055445, "bike_id": "7a1a83905206d1626346caea77209952", "type": "electric_scooter", "is_reserved": 0, "lon": -77.03115016666666}, {"fusion_lat": 0.0, "name": "17f6c5253c90051419a769735fdc8b89", "is_disabled": 0, "rental_uris": {"android": "https://dc.lft.to/lastmile_qr_scan", "ios": "https://dc.lft.to/lastmile_qr_scan"}, "fusion_lon": 0.0, "lat": 38.917320833333335, "bike_id": "17f6c5253c90051419a769735fdc8b89", "type": "electric_scooter", "is_reserved": 0, "lon": -77.03655233333333}, {"fusion_lat": 0.0, "name": "cede53ed228e0ef1d95afda0a1d4dfb5", "is_disabled": 0, "rental_uris": {"android": "https://dc.lft.to/lastmile_qr_scan", "ios": "https://dc.lft.to/lastmile_qr_scan"}, "fusion_lon": 0.0, "lat": 38.84914766666667, "bike_id": "cede53ed228e0ef1d95afda0a1d4dfb5", "type": "electric_bike", "is_reserved": 0, "lon": -77.0998065}, {"fusion_lat": 0.0, "name": "f9f48d8079b293376a336dd486a45997", "is_disabled": 0, "rental_uris": {"android": "https://dc.lft.to/lastmile_qr_scan", "ios": "https://dc.lft.to/lastmile_qr_scan"}, "fusion_lon": 0.0, "lat": 38.876849666666665, "bike_id": "f9f48d8079b293376a336dd486a45997", "type": "electric_scooter", "is_reserved": 0, "lon": -77.01757016666667}, {"fusion_lat": 0.0, "name": "a2f264875f7e8f28cd39bd5eacaf2948", "is_disabled": 0, "rental_uris": {"android": "https://dc.lft.to/lastmile_qr_scan", "ios": "https://dc.lft.to/lastmile_qr_scan"}, "fusion_lon": 0.0, "lat": 38.9035825, "bike_id": "a2f264875f7e8f28cd39bd5eacaf2948", "type": "electric_scooter", "is_reserved": 0, "lon": -77.0626895}, {"fusion_lat": 0.0, "name": "8c29b0843a380dc798277b409c64bbd6", "is_disabled": 0, "rental_uris": {"android": "https://dc.lft.to/lastmile_qr_scan", "ios": "https://dc.lft.to/lastmile_qr_scan"}, "fusion_lon": 0.0, "lat": 38.914182, "bike_id": "8c29b0843a380dc798277b409c64bbd6", "type": "electric_scooter", "is_reserved": 0, "lon": -77.03144916666666}, {"fusion_lat": 0.0, "name": "5f6a88cbe43a2e0bac2fe598fdef3b08", "is_disabled": 0, "rental_uris": {"android": "https://dc.lft.to/lastmile_qr_scan", "ios": "https://dc.lft.to/lastmile_qr_scan"}, "fusion_lon": 0.0, "lat": 38.865096333333334, "bike_id": "5f6a88cbe43a2e0bac2fe598fdef3b08", "type": "electric_scooter", "is_reserved": 0, "lon": -76.99005}, {"fusion_lat": 0.0, "name": "11ee6e355c863960b226ebf17bc5a936", "is_disabled": 0, "rental_uris": {"android": "https://dc.lft.to/lastmile_qr_scan", "ios": "https://dc.lft.to/lastmile_qr_scan"}, "fusion_lon": 0.0, "lat": 38.92879833333333, "bike_id": "11ee6e355c863960b226ebf17bc5a936", "type": "electric_scooter", "is_reserved": 0, "lon": -77.03476916666666}, {"fusion_lat": 0.0, "name": "7df310622c949efd8d4be9663b4308d5", "is_disabled": 0, "rental_uris": {"android": "https://dc.lft.to/lastmile_qr_scan", "ios": "https://dc.lft.to/lastmile_qr_scan"}, "fusion_lon": 0.0, "lat": 38.86515266666667, "bike_id": "7df310622c949efd8d4be9663b4308d5", "type": "electric_bike", "is_reserved": 0, "lon": -76.97327333333334}, {"fusion_lat": 0.0, "name": "e89220ce4602dec35b01f6dc7e117e8f", "is_disabled": 0, "rental_uris": {"android": "https://dc.lft.to/lastmile_qr_scan", "ios": "https://dc.lft.to/lastmile_qr_scan"}, "fusion_lon": 0.0, "lat": 38.938827833333335, "bike_id": "e89220ce4602dec35b01f6dc7e117e8f", "type": "electric_scooter", "is_reserved": 0, "lon": -77.02469033333334}, {"fusion_lat": 0.0, "name": "f872e6df79b90f62104769ba2c6baa9b", "is_disabled": 0, "rental_uris": {"android": "https://dc.lft.to/lastmile_qr_scan", "ios": "https://dc.lft.to/lastmile_qr_scan"}, "fusion_lon": 0.0, "lat": 38.89347466666667, "bike_id": "f872e6df79b90f62104769ba2c6baa9b", "type": "electric_scooter", "is_reserved": 0, "lon": -76.99382183333333}, {"fusion_lat": 0.0, "name": "b4650302774e5abc0cad51d9408add03", "is_disabled": 0, "rental_uris": {"android": "https://dc.lft.to/lastmile_qr_scan", "ios": "https://dc.lft.to/lastmile_qr_scan"}, "fusion_lon": 0.0, "lat": 38.93430016666667, "bike_id": "b4650302774e5abc0cad51d9408add03", "type": "electric_scooter", "is_reserved": 0, "lon": -77.03457616666667}, {"fusion_lat": 0.0, "name": "b2ceac0db7c12b4bddb9363ca92738aa", "is_disabled": 0, "rental_uris": {"android": "https://dc.lft.to/lastmile_qr_scan", "ios": "https://dc.lft.to/lastmile_qr_scan"}, "fusion_lon": 0.0, "lat": 38.8961285, "bike_id": "b2ceac0db7c12b4bddb9363ca92738aa", "type": "electric_scooter", "is_reserved": 0, "lon": -76.94813433333333}, {"fusion_lat": 0.0, "name": "0ea5803a8d09808b897ec593d98a713d", "is_disabled": 0, "rental_uris": {"android": "https://dc.lft.to/lastmile_qr_scan", "ios": "https://dc.lft.to/lastmile_qr_scan"}, "fusion_lon": 0.0, "lat": 38.918178166666664, "bike_id": "0ea5803a8d09808b897ec593d98a713d", "type": "electric_scooter", "is_reserved": 0, "lon": -77.026083}, {"fusion_lat": 0.0, "name": "838e1bfe081a3f0ddbd21f597d504898", "is_disabled": 0, "rental_uris": {"android": "https://dc.lft.to/lastmile_qr_scan", "ios": "https://dc.lft.to/lastmile_qr_scan"}, "fusion_lon": 0.0, "lat": 38.91729933333333, "bike_id": "838e1bfe081a3f0ddbd21f597d504898", "type": "electric_scooter", "is_reserved": 0, "lon": -77.036578}, {"fusion_lat": 0.0, "name": "ee569241aadaf76cd9fd25be81ad63e1", "is_disabled": 0, "rental_uris": {"android": "https://dc.lft.to/lastmile_qr_scan", "ios": "https://dc.lft.to/lastmile_qr_scan"}, "fusion_lon": 0.0, "lat": 38.92385816666667, "bike_id": "ee569241aadaf76cd9fd25be81ad63e1", "type": "electric_scooter", "is_reserved": 0, "lon": -77.0402105}, {"fusion_lat": 0.0, "name": "bf28d13676fac794afb8d558e7a5ff3e", "is_disabled": 0, "rental_uris": {"android": "https://dc.lft.to/lastmile_qr_scan", "ios": "https://dc.lft.to/lastmile_qr_scan"}, "fusion_lon": 0.0, "lat": 38.905932666666665, "bike_id": "bf28d13676fac794afb8d558e7a5ff3e", "type": "electric_scooter", "is_reserved": 0, "lon": -77.070093}, {"fusion_lat": 0.0, "name": "2491bbf2c44892763293fa0dc0bb3ed1", "is_disabled": 0, "rental_uris": {"android": "https://dc.lft.to/lastmile_qr_scan", "ios": "https://dc.lft.to/lastmile_qr_scan"}, "fusion_lon": 0.0, "lat": 38.804461, "bike_id": "2491bbf2c44892763293fa0dc0bb3ed1", "type": "electric_bike", "is_reserved": 0, "lon": -77.13225433333334}, {"fusion_lat": 0.0, "name": "5c850bfbe086475c0437fa9be7fd95ff", "is_disabled": 0, "rental_uris": {"android": "https://dc.lft.to/lastmile_qr_scan", "ios": "https://dc.lft.to/lastmile_qr_scan"}, "fusion_lon": 0.0, "lat": 38.90958233333333, "bike_id": "5c850bfbe086475c0437fa9be7fd95ff", "type": "electric_scooter", "is_reserved": 0, "lon": -77.0485945}, {"fusion_lat": 0.0, "name": "da7bd2bfc512598496e0e9d578a8ff74", "is_disabled": 0, "rental_uris": {"android": "https://dc.lft.to/lastmile_qr_scan", "ios": "https://dc.lft.to/lastmile_qr_scan"}, "fusion_lon": 0.0, "lat": 38.88674866666667, "bike_id": "da7bd2bfc512598496e0e9d578a8ff74", "type": "electric_scooter", "is_reserved": 0, "lon": -77.01364166666667}, {"fusion_lat": 0.0, "name": "fb01f339baff6fe049c52e2fa66cdf44", "is_disabled": 0, "rental_uris": {"android": "https://dc.lft.to/lastmile_qr_scan", "ios": "https://dc.lft.to/lastmile_qr_scan"}, "fusion_lon": 0.0, "lat": 38.896672833333334, "bike_id": "fb01f339baff6fe049c52e2fa66cdf44", "type": "electric_scooter", "is_reserved": 0, "lon": -77.03347916666667}, {"fusion_lat": 0.0, "name": "d8cff9c8b11410ea9543f10b9526bf46", "is_disabled": 0, "rental_uris": {"android": "https://dc.lft.to/lastmile_qr_scan", "ios": "https://dc.lft.to/lastmile_qr_scan"}, "fusion_lon": 0.0, "lat": 38.91133416666667, "bike_id": "d8cff9c8b11410ea9543f10b9526bf46", "type": "electric_scooter", "is_reserved": 0, "lon": -77.01048633333333}, {"fusion_lat": 0.0, "name": "a03ffc88159c0683a88f7a101368dde3", "is_disabled": 0, "rental_uris": {"android": "https://dc.lft.to/lastmile_qr_scan", "ios": "https://dc.lft.to/lastmile_qr_scan"}, "fusion_lon": 0.0, "lat": 38.8840785, "bike_id": "a03ffc88159c0683a88f7a101368dde3", "type": "electric_scooter", "is_reserved": 0, "lon": -76.98585033333333}, {"fusion_lat": 0.0, "name": "3d6220a2ab8dc60ad6357793201b5296", "is_disabled": 0, "rental_uris": {"android": "https://dc.lft.to/lastmile_qr_scan", "ios": "https://dc.lft.to/lastmile_qr_scan"}, "fusion_lon": 0.0, "lat": 38.93778916666667, "bike_id": "3d6220a2ab8dc60ad6357793201b5296", "type": "electric_scooter", "is_reserved": 0, "lon": -77.0325795}, {"fusion_lat": 0.0, "name": "06e2bee45fdd9b51d262f80914059f10", "is_disabled": 0, "rental_uris": {"android": "https://dc.lft.to/lastmile_qr_scan", "ios": "https://dc.lft.to/lastmile_qr_scan"}, "fusion_lon": 0.0, "lat": 38.92451033333333, "bike_id": "06e2bee45fdd9b51d262f80914059f10", "type": "electric_scooter", "is_reserved": 0, "lon": -77.03422133333333}, {"fusion_lat": 0.0, "name": "22cf95e79f89bb02e37c4c2955ae76b2", "is_disabled": 0, "rental_uris": {"android": "https://dc.lft.to/lastmile_qr_scan", "ios": "https://dc.lft.to/lastmile_qr_scan"}, "fusion_lon": 0.0, "lat": 38.931714666666664, "bike_id": "22cf95e79f89bb02e37c4c2955ae76b2", "type": "electric_bike", "is_reserved": 0, "lon": -77.03541783333333}, {"fusion_lat": 0.0, "name": "48e92d637d5ed24c77fd8bacf9793d00", "is_disabled": 0, "rental_uris": {"android": "https://dc.lft.to/lastmile_qr_scan", "ios": "https://dc.lft.to/lastmile_qr_scan"}, "fusion_lon": 0.0, "lat": 38.900622166666665, "bike_id": "48e92d637d5ed24c77fd8bacf9793d00", "type": "electric_scooter", "is_reserved": 0, "lon": -76.93380766666667}, {"fusion_lat": 0.0, "name": "c1cda84f3900e010b5a20f54c4dba278", "is_disabled": 0, "rental_uris": {"android": "https://dc.lft.to/lastmile_qr_scan", "ios": "https://dc.lft.to/lastmile_qr_scan"}, "fusion_lon": 0.0, "lat": 38.9325065, "bike_id": "c1cda84f3900e010b5a20f54c4dba278", "type": "electric_scooter", "is_reserved": 0, "lon": -77.03454433333333}, {"fusion_lat": 0.0, "name": "746cc876e2eb07c41fc5bf35b9ac77f3", "is_disabled": 0, "rental_uris": {"android": "https://dc.lft.to/lastmile_qr_scan", "ios": "https://dc.lft.to/lastmile_qr_scan"}, "fusion_lon": 0.0, "lat": 38.94567033333333, "bike_id": "746cc876e2eb07c41fc5bf35b9ac77f3", "type": "electric_scooter", "is_reserved": 0, "lon": -77.0783125}, {"fusion_lat": 0.0, "name": "effb0a0e38a938a5b641bba152ddbf04", "is_disabled": 0, "rental_uris": {"android": "https://dc.lft.to/lastmile_qr_scan", "ios": "https://dc.lft.to/lastmile_qr_scan"}, "fusion_lon": 0.0, "lat": 38.91108233333333, "bike_id": "effb0a0e38a938a5b641bba152ddbf04", "type": "electric_scooter", "is_reserved": 0, "lon": -77.04498783333334}, {"fusion_lat": 0.0, "name": "1125d0d8c68a2db902abdfb37f573f80", "is_disabled": 0, "rental_uris": {"android": "https://dc.lft.to/lastmile_qr_scan", "ios": "https://dc.lft.to/lastmile_qr_scan"}, "fusion_lon": 0.0, "lat": 38.94859983333333, "bike_id": "1125d0d8c68a2db902abdfb37f573f80", "type": "electric_scooter", "is_reserved": 0, "lon": -77.02571266666666}, {"fusion_lat": 0.0, "name": "b270f12f92201f1b28393ca8ea119028", "is_disabled": 0, "rental_uris": {"android": "https://dc.lft.to/lastmile_qr_scan", "ios": "https://dc.lft.to/lastmile_qr_scan"}, "fusion_lon": 0.0, "lat": 38.8351355, "bike_id": "b270f12f92201f1b28393ca8ea119028", "type": "electric_bike", "is_reserved": 0, "lon": -76.986668}, {"fusion_lat": 0.0, "name": "e2b1fea950e9206c613d7427e6a795bb", "is_disabled": 0, "rental_uris": {"android": "https://dc.lft.to/lastmile_qr_scan", "ios": "https://dc.lft.to/lastmile_qr_scan"}, "fusion_lon": 0.0, "lat": 38.90769616666667, "bike_id": "e2b1fea950e9206c613d7427e6a795bb", "type": "electric_scooter", "is_reserved": 0, "lon": -77.055872}, {"fusion_lat": 0.0, "name": "6cf102db57adee06760067ad0f04e53b", "is_disabled": 0, "rental_uris": {"android": "https://dc.lft.to/lastmile_qr_scan", "ios": "https://dc.lft.to/lastmile_qr_scan"}, "fusion_lon": 0.0, "lat": 38.91550083333333, "bike_id": "6cf102db57adee06760067ad0f04e53b", "type": "electric_scooter", "is_reserved": 0, "lon": -77.01129933333333}, {"fusion_lat": 0.0, "name": "1dd362ead0a6111673c9ee6c20607eeb", "is_disabled": 0, "rental_uris": {"android": "https://dc.lft.to/lastmile_qr_scan", "ios": "https://dc.lft.to/lastmile_qr_scan"}, "fusion_lon": 0.0, "lat": 38.903616, "bike_id": "1dd362ead0a6111673c9ee6c20607eeb", "type": "electric_scooter", "is_reserved": 0, "lon": -77.0548005}, {"fusion_lat": 0.0, "name": "676de124ca2f8b3c9795d3c6721f173c", "is_disabled": 0, "rental_uris": {"android": "https://dc.lft.to/lastmile_qr_scan", "ios": "https://dc.lft.to/lastmile_qr_scan"}, "fusion_lon": 0.0, "lat": 38.900319, "bike_id": "676de124ca2f8b3c9795d3c6721f173c", "type": "electric_scooter", "is_reserved": 0, "lon": -77.00196116666666}, {"fusion_lat": 0.0, "name": "e462b224098cdaf6ca28f08d158f2c67", "is_disabled": 0, "rental_uris": {"android": "https://dc.lft.to/lastmile_qr_scan", "ios": "https://dc.lft.to/lastmile_qr_scan"}, "fusion_lon": 0.0, "lat": 39.014168, "bike_id": "e462b224098cdaf6ca28f08d158f2c67", "type": "electric_bike", "is_reserved": 0, "lon": -77.04495566666667}, {"fusion_lat": 0.0, "name": "0ff9c46915a8585354ed674ea39f14fe", "is_disabled": 0, "rental_uris": {"android": "https://dc.lft.to/lastmile_qr_scan", "ios": "https://dc.lft.to/lastmile_qr_scan"}, "fusion_lon": 0.0, "lat": 38.9085115, "bike_id": "0ff9c46915a8585354ed674ea39f14fe", "type": "electric_scooter", "is_reserved": 0, "lon": -77.04738383333333}, {"fusion_lat": 0.0, "name": "d843c1a0329095d49a92bbe8c4a4cfec", "is_disabled": 0, "rental_uris": {"android": "https://dc.lft.to/lastmile_qr_scan", "ios": "https://dc.lft.to/lastmile_qr_scan"}, "fusion_lon": 0.0, "lat": 38.900546166666665, "bike_id": "d843c1a0329095d49a92bbe8c4a4cfec", "type": "electric_scooter", "is_reserved": 0, "lon": -76.98686783333333}, {"fusion_lat": 0.0, "name": "cadc5381536ef30081346ebee574c54f", "is_disabled": 0, "rental_uris": {"android": "https://dc.lft.to/lastmile_qr_scan", "ios": "https://dc.lft.to/lastmile_qr_scan"}, "fusion_lon": 0.0, "lat": 38.917177333333335, "bike_id": "cadc5381536ef30081346ebee574c54f", "type": "electric_scooter", "is_reserved": 0, "lon": -77.02802833333334}, {"fusion_lat": 0.0, "name": "a8d7d7cdded5e613b7158b0fc18c3579", "is_disabled": 0, "rental_uris": {"android": "https://dc.lft.to/lastmile_qr_scan", "ios": "https://dc.lft.to/lastmile_qr_scan"}, "fusion_lon": 0.0, "lat": 38.895618999999996, "bike_id": "a8d7d7cdded5e613b7158b0fc18c3579", "type": "electric_scooter", "is_reserved": 0, "lon": -76.9942185}, {"fusion_lat": 0.0, "name": "b3867d6142f02655861c0aa5c14efde0", "is_disabled": 0, "rental_uris": {"android": "https://dc.lft.to/lastmile_qr_scan", "ios": "https://dc.lft.to/lastmile_qr_scan"}, "fusion_lon": 0.0, "lat": 38.9216005, "bike_id": "b3867d6142f02655861c0aa5c14efde0", "type": "electric_scooter", "is_reserved": 0, "lon": -77.02088416666666}, {"fusion_lat": 0.0, "name": "f7271711c683c4b2f3826924b025a37a", "is_disabled": 0, "rental_uris": {"android": "https://dc.lft.to/lastmile_qr_scan", "ios": "https://dc.lft.to/lastmile_qr_scan"}, "fusion_lon": 0.0, "lat": 38.88505166666667, "bike_id": "f7271711c683c4b2f3826924b025a37a", "type": "electric_scooter", "is_reserved": 0, "lon": -76.99751783333333}, {"fusion_lat": 0.0, "name": "e9dcfa1f571b159712e5b37c9a4ec69f", "is_disabled": 0, "rental_uris": {"android": "https://dc.lft.to/lastmile_qr_scan", "ios": "https://dc.lft.to/lastmile_qr_scan"}, "fusion_lon": 0.0, "lat": 38.9115495, "bike_id": "e9dcfa1f571b159712e5b37c9a4ec69f", "type": "electric_scooter", "is_reserved": 0, "lon": -77.019899}, {"fusion_lat": 0.0, "name": "9854a068a36920deb9aaf9cf34cd10c5", "is_disabled": 0, "rental_uris": {"android": "https://dc.lft.to/lastmile_qr_scan", "ios": "https://dc.lft.to/lastmile_qr_scan"}, "fusion_lon": 0.0, "lat": 38.885178833333335, "bike_id": "9854a068a36920deb9aaf9cf34cd10c5", "type": "electric_scooter", "is_reserved": 0, "lon": -77.01516216666667}, {"fusion_lat": 0.0, "name": "6f3e6bfbc95c01b8e13bcae26dd9306e", "is_disabled": 0, "rental_uris": {"android": "https://dc.lft.to/lastmile_qr_scan", "ios": "https://dc.lft.to/lastmile_qr_scan"}, "fusion_lon": 0.0, "lat": 38.90009, "bike_id": "6f3e6bfbc95c01b8e13bcae26dd9306e", "type": "electric_scooter", "is_reserved": 0, "lon": -77.00711816666667}, {"fusion_lat": 0.0, "name": "d9be90fa2690eb165b6ec4773c625047", "is_disabled": 0, "rental_uris": {"android": "https://dc.lft.to/lastmile_qr_scan", "ios": "https://dc.lft.to/lastmile_qr_scan"}, "fusion_lon": 0.0, "lat": 38.89589816666667, "bike_id": "d9be90fa2690eb165b6ec4773c625047", "type": "electric_scooter", "is_reserved": 0, "lon": -77.02499}, {"fusion_lat": 0.0, "name": "625212c55181a77c0c7004598800d67f", "is_disabled": 0, "rental_uris": {"android": "https://dc.lft.to/lastmile_qr_scan", "ios": "https://dc.lft.to/lastmile_qr_scan"}, "fusion_lon": 0.0, "lat": 38.89682, "bike_id": "625212c55181a77c0c7004598800d67f", "type": "electric_scooter", "is_reserved": 0, "lon": -77.00788733333333}, {"fusion_lat": 0.0, "name": "27785dfe9a613cfd54558a573202928f", "is_disabled": 0, "rental_uris": {"android": "https://dc.lft.to/lastmile_qr_scan", "ios": "https://dc.lft.to/lastmile_qr_scan"}, "fusion_lon": 0.0, "lat": 38.904242333333336, "bike_id": "27785dfe9a613cfd54558a573202928f", "type": "electric_scooter", "is_reserved": 0, "lon": -76.949715}, {"fusion_lat": 0.0, "name": "f49999d1d945d148308ec2a8f6aa4617", "is_disabled": 0, "rental_uris": {"android": "https://dc.lft.to/lastmile_qr_scan", "ios": "https://dc.lft.to/lastmile_qr_scan"},