{"data": {"bikes": [{"lon": -77.02483816666667, "lat": 38.93882283333333, "name": "9b5ef92b0628bce5712bb0d1370929b1", "fusion_lat": 0.0, "fusion_lon": 0.0, "rental_uris": {"android": "https://dc.lft.to/lastmile_qr_scan", "ios": "https://dc.lft.to/lastmile_qr_scan"}, "is_reserved": 0, "is_disabled": 0, "type": "electric_scooter", "bike_id": "9b5ef92b0628bce5712bb0d1370929b1"}, {"lon": -77.03433283333334, "lat": 38.918036666666666, "name": "5e4a863f151c2313d72ea5d91775ef2d", "fusion_lat": 0.0, "fusion_lon": 0.0, "rental_uris": {"android": "https://dc.lft.to/lastmile_qr_scan", "ios": "https://dc.lft.to/lastmile_qr_scan"}, "is_reserved": 0, "is_disabled": 0, "type": "electric_scooter", "bike_id": "5e4a863f151c2313d72ea5d91775ef2d"}, {"lon": -77.03855, "lat": 38.91713433333334, "name": "afc450b250f788f44fcae9671fd9b0ac", "fusion_lat": 0.0, "fusion_lon": 0.0, "rental_uris": {"android": "https://dc.lft.to/lastmile_qr_scan", "ios": "https://dc.lft.to/lastmile_qr_scan"}, "is_reserved": 0, "is_disabled": 0, "type": "electric_scooter", "bike_id": "afc450b250f788f44fcae9671fd9b0ac"}, {"lon": -77.03934783333334, "lat": 38.91415216666667, "name": "1248d9c674b15e2f28eb4cdaa858f027", "fusion_lat": 0.0, "fusion_lon": 0.0, "rental_uris": {"android": "https://dc.lft.to/lastmile_qr_scan", "ios": "https://dc.lft.to/lastmile_qr_scan"}, "is_reserved": 0, "is_disabled": 0, "type": "electric_scooter", "bike_id": "1248d9c674b15e2f28eb4cdaa858f027"}, {"lon": -77.0789025, "lat": 38.919205833333336, "name": "e8fb18be9e51ac8308ee79bab58fb28c", "fusion_lat": 0.0, "fusion_lon": 0.0, "rental_uris": {"android": "https://dc.lft.to/lastmile_qr_scan", "ios": "https://dc.lft.to/lastmile_qr_scan"}, "is_reserved": 0, "is_disabled": 0, "type": "electric_scooter", "bike_id": "e8fb18be9e51ac8308ee79bab58fb28c"}, {"lon": -77.00567166666667, "lat": 38.90556866666667, "name": "df4b7f52cadc108aad8d34f3171ba23e", "fusion_lat": 0.0, "fusion_lon": 0.0, "rental_uris": {"android": "https://dc.lft.to/lastmile_qr_scan", "ios": "https://dc.lft.to/lastmile_qr_scan"}, "is_reserved": 0, "is_disabled": 0, "type": "electric_scooter", "bike_id": "df4b7f52cadc108aad8d34f3171ba23e"}, {"lon": -76.97614333333334, "lat": 38.89576483333333, "name": "0270ee44bd33f4e68b728b64c79c061a", "fusion_lat": 0.0, "fusion_lon": 0.0, "rental_uris": {"android": "https://dc.lft.to/lastmile_qr_scan", "ios": "https://dc.lft.to/lastmile_qr_scan"}, "is_reserved": 0, "is_disabled": 0, "type": "electric_bike", "bike_id": "0270ee44bd33f4e68b728b64c79c061a"}, {"lon": -77.0370415, "lat": 38.926419, "name": "0fe65d4672e657ccc258012ece659fbd", "fusion_lat": 0.0, "fusion_lon": 0.0, "rental_uris": {"android": "https://dc.lft.to/lastmile_qr_scan", "ios": "https://dc.lft.to/lastmile_qr_scan"}, "is_reserved": 0, "is_disabled": 0, "type": "electric_scooter", "bike_id": "0fe65d4672e657ccc258012ece659fbd"}, {"lon": -77.00794233333333, "lat": 38.91702133333333, "name": "ad346dc07acefbf64fc20854db7246d7", "fusion_lat": 0.0, "fusion_lon": 0.0, "rental_uris": {"android": "https://dc.lft.to/lastmile_qr_scan", "ios": "https://dc.lft.to/lastmile_qr_scan"}, "is_reserved": 0, "is_disabled": 0, "type": "electric_scooter", "bike_id": "ad346dc07acefbf64fc20854db7246d7"}, {"lon": -77.0297145, "lat": 38.9167995, "name": "55a6bd5df3ce38026b32d454eb7a90ad", "fusion_lat": 0.0, "fusion_lon": 0.0, "rental_uris": {"android": "https://dc.lft.to/lastmile_qr_scan", "ios": "https://dc.lft.to/lastmile_qr_scan"}, "is_reserved": 0, "is_disabled": 0, "type": "electric_scooter", "bike_id": "55a6bd5df3ce38026b32d454eb7a90ad"}, {"lon": -77.01058966666666, "lat": 38.87244966666667, "name": "eb86b84401fc646532c5454f400ed5f4", "fusion_lat": 0.0, "fusion_lon": 0.0, "rental_uris": {"android": "https://dc.lft.to/lastmile_qr_scan", "ios": "https://dc.lft.to/lastmile_qr_scan"}, "is_reserved": 0, "is_disabled": 0, "type": "electric_scooter", "bike_id": "eb86b84401fc646532c5454f400ed5f4"}, {"lon": -77.01592283333333, "lat": 38.928428, "name": "c6a0c171b3ced9e348285906f3cf918c", "fusion_lat": 0.0, "fusion_lon": 0.0, "rental_uris": {"android": "https://dc.lft.to/lastmile_qr_scan", "ios": "https://dc.lft.to/lastmile_qr_scan"}, "is_reserved": 0, "is_disabled": 0, "type": "electric_scooter", "bike_id": "c6a0c171b3ced9e348285906f3cf918c"}, {"lon": -77.005259, "lat": 38.916946333333335, "name": "4b3fb47588271fc02062dd5dd6c26ce1", "fusion_lat": 0.0, "fusion_lon": 0.0, "rental_uris": {"android": "https://dc.lft.to/lastmile_qr_scan", "ios": "https://dc.lft.to/lastmile_qr_scan"}, "is_reserved": 0, "is_disabled": 0, "type": "electric_scooter", "bike_id": "4b3fb47588271fc02062dd5dd6c26ce1"}, {"lon": -76.985999, "lat": 38.86096833333333, "name": "184d3a778d3002c39d66c27c8796975c", "fusion_lat": 0.0, "fusion_lon": 0.0, "rental_uris": {"android": "https://dc.lft.to/lastmile_qr_scan", "ios": "https://dc.lft.to/lastmile_qr_scan"}, "is_reserved": 0, "is_disabled": 0, "type": "electric_scooter", "bike_id": "184d3a778d3002c39d66c27c8796975c"}, {"lon": -77.00147533333333, "lat": 38.899970333333336, "name": "6b963ac7eed3cd34ed8a120dd0cafdb7", "fusion_lat": 0.0, "fusion_lon": 0.0, "rental_uris": {"android": "https://dc.lft.to/lastmile_qr_scan", "ios": "https://dc.lft.to/lastmile_qr_scan"}, "is_reserved": 0, "is_disabled": 0, "type": "electric_scooter", "bike_id": "6b963ac7eed3cd34ed8a120dd0cafdb7"}, {"lon": -76.9756295, "lat": 38.904472166666665, "name": "f3c76cda9c8b39bc93eaac9279912ffb", "fusion_lat": 0.0, "fusion_lon": 0.0, "rental_uris": {"android": "https://dc.lft.to/lastmile_qr_scan", "ios": "https://dc.lft.to/lastmile_qr_scan"}, "is_reserved": 0, "is_disabled": 0, "type": "electric_scooter", "bike_id": "f3c76cda9c8b39bc93eaac9279912ffb"}, {"lon": -77.04600016666667, "lat": 38.91941666666666, "name": "0b40e0381e4697be35addec84cb3bb0f", "fusion_lat": 0.0, "fusion_lon": 0.0, "rental_uris": {"android": "https://dc.lft.to/lastmile_qr_scan", "ios": "https://dc.lft.to/lastmile_qr_scan"}, "is_reserved": 0, "is_disabled": 0, "type": "electric_scooter", "bike_id": "0b40e0381e4697be35addec84cb3bb0f"}, {"lon": -77.0383685, "lat": 38.915573333333334, "name": "0d6eba013dfcad9ce8347eff68e77a9b", "fusion_lat": 0.0, "fusion_lon": 0.0, "rental_uris": {"android": "https://dc.lft.to/lastmile_qr_scan", "ios": "https://dc.lft.to/lastmile_qr_scan"}, "is_reserved": 0, "is_disabled": 0, "type": "electric_scooter", "bike_id": "0d6eba013dfcad9ce8347eff68e77a9b"}, {"lon": -76.9837355, "lat": 38.860290166666665, "name": "54fd110eae29d4903d0526f4875d3de9", "fusion_lat": 0.0, "fusion_lon": 0.0, "rental_uris": {"android": "https://dc.lft.to/lastmile_qr_scan", "ios": "https://dc.lft.to/lastmile_qr_scan"}, "is_reserved": 0, "is_disabled": 0, "type": "electric_scooter", "bike_id": "54fd110eae29d4903d0526f4875d3de9"}, {"lon": -77.08369366666666, "lat": 38.808489, "name": "05bd06577ab9088f485e27e37deb1ae9", "fusion_lat": 0.0, "fusion_lon": 0.0, "rental_uris": {"android": "https://dc.lft.to/lastmile_qr_scan", "ios": "https://dc.lft.to/lastmile_qr_scan"}, "is_reserved": 0, "is_disabled": 0, "type": "electric_bike", "bike_id": "05bd06577ab9088f485e27e37deb1ae9"}, {"lon": -76.98225983333333, "lat": 38.91646083333333, "name": "1dfb166b780bb61d5fdf91aac87123b2", "fusion_lat": 0.0, "fusion_lon": 0.0, "rental_uris": {"android": "https://dc.lft.to/lastmile_qr_scan", "ios": "https://dc.lft.to/lastmile_qr_scan"}, "is_reserved": 0, "is_disabled": 0, "type": "electric_scooter", "bike_id": "1dfb166b780bb61d5fdf91aac87123b2"}, {"lon": -76.97507083333333, "lat": 38.9193175, "name": "e87a691fca7f2fcbbd350460cc2ab311", "fusion_lat": 0.0, "fusion_lon": 0.0, "rental_uris": {"android": "https://dc.lft.to/lastmile_qr_scan", "ios": "https://dc.lft.to/lastmile_qr_scan"}, "is_reserved": 0, "is_disabled": 0, "type": "electric_bike", "bike_id": "e87a691fca7f2fcbbd350460cc2ab311"}, {"lon": -77.017486, "lat": 38.902405333333334, "name": "af6e260730698f42f5d4974dc5fa5772", "fusion_lat": 0.0, "fusion_lon": 0.0, "rental_uris": {"android": "https://dc.lft.to/lastmile_qr_scan", "ios": "https://dc.lft.to/lastmile_qr_scan"}, "is_reserved": 0, "is_disabled": 0, "type": "electric_scooter", "bike_id": "af6e260730698f42f5d4974dc5fa5772"}, {"lon": -77.0322005, "lat": 38.91404933333333, "name": "1ce494abee45ed75b4c6bf5ff77070cd", "fusion_lat": 0.0, "fusion_lon": 0.0, "rental_uris": {"android": "https://dc.lft.to/lastmile_qr_scan", "ios": "https://dc.lft.to/lastmile_qr_scan"}, "is_reserved": 0, "is_disabled": 0, "type": "electric_scooter", "bike_id": "1ce494abee45ed75b4c6bf5ff77070cd"}, {"lon": -77.03175983333334, "lat": 38.919184666666666, "name": "fca2151c53e85ee8cd38f12f211e57f5", "fusion_lat": 0.0, "fusion_lon": 0.0, "rental_uris": {"android": "https://dc.lft.to/lastmile_qr_scan", "ios": "https://dc.lft.to/lastmile_qr_scan"}, "is_reserved": 0, "is_disabled": 0, "type": "electric_scooter", "bike_id": "fca2151c53e85ee8cd38f12f211e57f5"}, {"lon": -77.01073483333333, "lat": 38.8711405, "name": "60bac821a3417b77b3154b8c7cce6af3", "fusion_lat": 0.0, "fusion_lon": 0.0, "rental_uris": {"android": "https://dc.lft.to/lastmile_qr_scan", "ios": "https://dc.lft.to/lastmile_qr_scan"}, "is_reserved": 0, "is_disabled": 0, "type": "electric_scooter", "bike_id": "60bac821a3417b77b3154b8c7cce6af3"}, {"lon": -76.98776816666667, "lat": 38.900285833333335, "name": "90e8dd2948cea86c1a61a77f5c8620fe", "fusion_lat": 0.0, "fusion_lon": 0.0, "rental_uris": {"android": "https://dc.lft.to/lastmile_qr_scan", "ios": "https://dc.lft.to/lastmile_qr_scan"}, "is_reserved": 0, "is_disabled": 0, "type": "electric_scooter", "bike_id": "90e8dd2948cea86c1a61a77f5c8620fe"}, {"lon": -77.03067866666666, "lat": 38.880441, "name": "56d2fa29cc089c9ac1f7957bb943dc63", "fusion_lat": 0.0, "fusion_lon": 0.0, "rental_uris": {"android": "https://dc.lft.to/lastmile_qr_scan", "ios": "https://dc.lft.to/lastmile_qr_scan"}, "is_reserved": 0, "is_disabled": 0, "type": "electric_scooter", "bike_id": "56d2fa29cc089c9ac1f7957bb943dc63"}, {"lon": -77.02412116666666, "lat": 38.90960483333333, "name": "47e2852dd3a89176f1ec0925bb50c90e", "fusion_lat": 0.0, "fusion_lon": 0.0, "rental_uris": {"android": "https://dc.lft.to/lastmile_qr_scan", "ios": "https://dc.lft.to/lastmile_qr_scan"}, "is_reserved": 0, "is_disabled": 0, "type": "electric_scooter", "bike_id": "47e2852dd3a89176f1ec0925bb50c90e"}, {"lon": -76.94778283333333, "lat": 38.8944495, "name": "fec7fa40e9376bbf2641f993f3b18eb2", "fusion_lat": 0.0, "fusion_lon": 0.0, "rental_uris": {"android": "https://dc.lft.to/lastmile_qr_scan", "ios": "https://dc.lft.to/lastmile_qr_scan"}, "is_reserved": 0, "is_disabled": 0, "type": "electric_scooter", "bike_id": "fec7fa40e9376bbf2641f993f3b18eb2"}, {"lon": -77.13189066666666, "lat": 38.869109333333334, "name": "83caf4c725cb3568a831bf92522dd141", "fusion_lat": 0.0, "fusion_lon": 0.0, "rental_uris": {"android": "https://dc.lft.to/lastmile_qr_scan", "ios": "https://dc.lft.to/lastmile_qr_scan"}, "is_reserved": 0, "is_disabled": 0, "type": "electric_bike", "bike_id": "83caf4c725cb3568a831bf92522dd141"}, {"lon": -77.02589, "lat": 38.88360866666667, "name": "e943238b23a9501d61d28140c15d2fce", "fusion_lat": 0.0, "fusion_lon": 0.0, "rental_uris": {"android": "https://dc.lft.to/lastmile_qr_scan", "ios": "https://dc.lft.to/lastmile_qr_scan"}, "is_reserved": 0, "is_disabled": 0, "type": "electric_scooter", "bike_id": "e943238b23a9501d61d28140c15d2fce"}, {"lon": -77.04286, "lat": 38.90729, "name": "d5636c7d84b3bbe375cc612b72d68526", "fusion_lat": 0.0, "fusion_lon": 0.0, "rental_uris": {"android": "https://dc.lft.to/lastmile_qr_scan", "ios": "https://dc.lft.to/lastmile_qr_scan"}, "is_reserved": 0, "is_disabled": 0, "type": "electric_scooter", "bike_id": "d5636c7d84b3bbe375cc612b72d68526"}, {"lon": -77.0383775, "lat": 38.9119225, "name": "51ff55f177bf839dbffc1e5a85fde375", "fusion_lat": 0.0, "fusion_lon": 0.0, "rental_uris": {"android": "https://dc.lft.to/lastmile_qr_scan", "ios": "https://dc.lft.to/lastmile_qr_scan"}, "is_reserved": 0, "is_disabled": 0, "type": "electric_scooter", "bike_id": "51ff55f177bf839dbffc1e5a85fde375"}, {"lon": -77.01922983333333, "lat": 38.916612, "name": "4995a0a511492e1c16c18feb5affc1ec", "fusion_lat": 0.0, "fusion_lon": 0.0, "rental_uris": {"android": "https://dc.lft.to/lastmile_qr_scan", "ios": "https://dc.lft.to/lastmile_qr_scan"}, "is_reserved": 0, "is_disabled": 0, "type": "electric_scooter", "bike_id": "4995a0a511492e1c16c18feb5affc1ec"}, {"lon": -77.03798283333333, "lat": 38.99686633333334, "name": "e43e72c9ae2484d24751eaeb24d41c7e", "fusion_lat": 0.0, "fusion_lon": 0.0, "rental_uris": {"android": "https://dc.lft.to/lastmile_qr_scan", "ios": "https://dc.lft.to/lastmile_qr_scan"}, "is_reserved": 0, "is_disabled": 0, "type": "electric_bike", "bike_id": "e43e72c9ae2484d24751eaeb24d41c7e"}, {"lon": -77.03216883333333, "lat": 38.92008583333333, "name": "9675d219edd4150c03658b9bde05be71", "fusion_lat": 0.0, "fusion_lon": 0.0, "rental_uris": {"android": "https://dc.lft.to/lastmile_qr_scan", "ios": "https://dc.lft.to/lastmile_qr_scan"}, "is_reserved": 0, "is_disabled": 0, "type": "electric_scooter", "bike_id": "9675d219edd4150c03658b9bde05be71"}, {"lon": -77.03412583333333, "lat": 38.92949733333333, "name": "60c3e8df68be31fa543ff9ef6a08bcc3", "fusion_lat": 0.0, "fusion_lon": 0.0, "rental_uris": {"android": "https://dc.lft.to/lastmile_qr_scan", "ios": "https://dc.lft.to/lastmile_qr_scan"}, "is_reserved": 0, "is_disabled": 0, "type": "electric_scooter", "bike_id": "60c3e8df68be31fa543ff9ef6a08bcc3"}, {"lon": -77.02632066666666, "lat": 38.915496166666664, "name": "784c4f4c5108a22802cd4115d8167c17", "fusion_lat": 0.0, "fusion_lon": 0.0, "rental_uris": {"android": "https://dc.lft.to/lastmile_qr_scan", "ios": "https://dc.lft.to/lastmile_qr_scan"}, "is_reserved": 0, "is_disabled": 0, "type": "electric_scooter", "bike_id": "784c4f4c5108a22802cd4115d8167c17"}, {"lon": -77.04814716666667, "lat": 38.91099666666667, "name": "292893d20d86715aae72083be202c7ea", "fusion_lat": 0.0, "fusion_lon": 0.0, "rental_uris": {"android": "https://dc.lft.to/lastmile_qr_scan", "ios": "https://dc.lft.to/lastmile_qr_scan"}, "is_reserved": 0, "is_disabled": 0, "type": "electric_scooter", "bike_id": "292893d20d86715aae72083be202c7ea"}, {"lon": -77.0296295, "lat": 38.92272466666667, "name": "9c7fe5532d981ff0a2af8280384658b6", "fusion_lat": 0.0, "fusion_lon": 0.0, "rental_uris": {"android": "https://dc.lft.to/lastmile_qr_scan", "ios": "https://dc.lft.to/lastmile_qr_scan"}, "is_reserved": 0, "is_disabled": 0, "type": "electric_scooter", "bike_id": "9c7fe5532d981ff0a2af8280384658b6"}, {"lon": -77.046501, "lat": 38.91547883333333, "name": "e2a3419f7a326ceb3933f3795a0dfaef", "fusion_lat": 0.0, "fusion_lon": 0.0, "rental_uris": {"android": "https://dc.lft.to/lastmile_qr_scan", "ios": "https://dc.lft.to/lastmile_qr_scan"}, "is_reserved": 0, "is_disabled": 0, "type": "electric_scooter", "bike_id": "e2a3419f7a326ceb3933f3795a0dfaef"}, {"lon": -77.0035175, "lat": 38.88184066666667, "name": "cad91070d26bc915686b9b2f23016d30", "fusion_lat": 0.0, "fusion_lon": 0.0, "rental_uris": {"android": "https://dc.lft.to/lastmile_qr_scan", "ios": "https://dc.lft.to/lastmile_qr_scan"}, "is_reserved": 0, "is_disabled": 0, "type": "electric_scooter", "bike_id": "cad91070d26bc915686b9b2f23016d30"}, {"lon": -77.02415133333334, "lat": 38.90561783333333, "name": "07efe0f184d02026de6b76d112e569d8", "fusion_lat": 0.0, "fusion_lon": 0.0, "rental_uris": {"android": "https://dc.lft.to/lastmile_qr_scan", "ios": "https://dc.lft.to/lastmile_qr_scan"}, "is_reserved": 0, "is_disabled": 0, "type": "electric_scooter", "bike_id": "07efe0f184d02026de6b76d112e569d8"}, {"lon": -76.99874433333333, "lat": 38.90029416666667, "name": "c0511c2bffa31c206e4f47452fed4128", "fusion_lat": 0.0, "fusion_lon": 0.0, "rental_uris": {"android": "https://dc.lft.to/lastmile_qr_scan", "ios": "https://dc.lft.to/lastmile_qr_scan"}, "is_reserved": 0, "is_disabled": 0, "type": "electric_scooter", "bike_id": "c0511c2bffa31c206e4f47452fed4128"}, {"lon": -77.0531425, "lat": 38.820437166666665, "name": "4bced9f06943e7fa3f6ec5f2eb3e4174", "fusion_lat": 0.0, "fusion_lon": 0.0, "rental_uris": {"android": "https://dc.lft.to/lastmile_qr_scan", "ios": "https://dc.lft.to/lastmile_qr_scan"}, "is_reserved": 0, "is_disabled": 0, "type": "electric_bike", "bike_id": "4bced9f06943e7fa3f6ec5f2eb3e4174"}, {"lon": -77.02819716666667, "lat": 38.916168166666665, "name": "cf7c37d3367e7efb6804891a44c410ec", "fusion_lat": 0.0, "fusion_lon": 0.0, "rental_uris": {"android": "https://dc.lft.to/lastmile_qr_scan", "ios": "https://dc.lft.to/lastmile_qr_scan"}, "is_reserved": 0, "is_disabled": 0, "type": "electric_scooter", "bike_id": "cf7c37d3367e7efb6804891a44c410ec"}, {"lon": -77.02901066666666, "lat": 38.884176833333335, "name": "883c6beabce0abf75446edd229abe054", "fusion_lat": 0.0, "fusion_lon": 0.0, "rental_uris": {"android": "https://dc.lft.to/lastmile_qr_scan", "ios": "https://dc.lft.to/lastmile_qr_scan"}, "is_reserved": 0, "is_disabled": 0, "type": "electric_scooter", "bike_id": "883c6beabce0abf75446edd229abe054"}, {"lon": -77.114166, "lat": 38.842791166666665, "name": "8a6cd25359d016786d32ba7ac6a394cd", "fusion_lat": 0.0, "fusion_lon": 0.0, "rental_uris": {"android": "https://dc.lft.to/lastmile_qr_scan", "ios": "https://dc.lft.to/lastmile_qr_scan"}, "is_reserved": 0, "is_disabled": 0, "type": "electric_bike", "bike_id": "8a6cd25359d016786d32ba7ac6a394cd"}, {"lon": -77.00858, "lat": 38.86945683333333, "name": "3775890f91fa0d5c43013320a108013c", "fusion_lat": 0.0, "fusion_lon": 0.0, "rental_uris": {"android": "https://dc.lft.to/lastmile_qr_scan", "ios": "https://dc.lft.to/lastmile_qr_scan"}, "is_reserved": 0, "is_disabled": 0, "type": "electric_scooter", "bike_id": "3775890f91fa0d5c43013320a108013c"}, {"lon": -77.01322683333333, "lat": 38.91480716666667, "name": "0d374df30f9b07802984260ec4d5382b", "fusion_lat": 0.0, "fusion_lon": 0.0, "rental_uris": {"android": "https://dc.lft.to/lastmile_qr_scan", "ios": "https://dc.lft.to/lastmile_qr_scan"}, "is_reserved": 0, "is_disabled": 0, "type": "electric_scooter", "bike_id": "0d374df30f9b07802984260ec4d5382b"}, {"lon": -77.02943733333333, "lat": 38.905044333333336, "name": "fee203e9338f570eed2e787a2e93c7bc", "fusion_lat": 0.0, "fusion_lon": 0.0, "rental_uris": {"android": "https://dc.lft.to/lastmile_qr_scan", "ios": "https://dc.lft.to/lastmile_qr_scan"}, "is_reserved": 0, "is_disabled": 0, "type": "electric_scooter", "bike_id": "fee203e9338f570eed2e787a2e93c7bc"}, {"lon": -77.03163183333334, "lat": 38.91412566666666, "name": "18908bbd1887f2fcb8789b1ceee33f0c", "fusion_lat": 0.0, "fusion_lon": 0.0, "rental_uris": {"android": "https://dc.lft.to/lastmile_qr_scan", "ios": "https://dc.lft.to/lastmile_qr_scan"}, "is_reserved": 0, "is_disabled": 0, "type": "electric_scooter", "bike_id": "18908bbd1887f2fcb8789b1ceee33f0c"}, {"lon": -77.04062766666667, "lat": 38.9176645, "name": "8e1ea973aaee4d68165ce30a8b2b7504", "fusion_lat": 0.0, "fusion_lon": 0.0, "rental_uris": {"android": "https://dc.lft.to/lastmile_qr_scan", "ios": "https://dc.lft.to/lastmile_qr_scan"}, "is_reserved": 0, "is_disabled": 0, "type": "electric_scooter", "bike_id": "8e1ea973aaee4d68165ce30a8b2b7504"}, {"lon": -77.01530566666666, "lat": 38.887358166666665, "name": "03e05d7422777ed255e2cb63172c9b64", "fusion_lat": 0.0, "fusion_lon": 0.0, "rental_uris": {"android": "https://dc.lft.to/lastmile_qr_scan", "ios": "https://dc.lft.to/lastmile_qr_scan"}, "is_reserved": 0, "is_disabled": 0, "type": "electric_scooter", "bike_id": "03e05d7422777ed255e2cb63172c9b64"}, {"lon": -77.07904733333334, "lat": 38.839296166666664, "name": "898c3f438e8239668c30f0af1b962c3e", "fusion_lat": 0.0, "fusion_lon": 0.0, "rental_uris": {"android": "https://dc.lft.to/lastmile_qr_scan", "ios": "https://dc.lft.to/lastmile_qr_scan"}, "is_reserved": 0, "is_disabled": 0, "type": "electric_bike", "bike_id": "898c3f438e8239668c30f0af1b962c3e"}, {"lon": -77.038644, "lat": 38.914834166666665, "name": "64fec90c4f32bad31c912c70626ae3ba", "fusion_lat": 0.0, "fusion_lon": 0.0, "rental_uris": {"android": "https://dc.lft.to/lastmile_qr_scan", "ios": "https://dc.lft.to/lastmile_qr_scan"}, "is_reserved": 0, "is_disabled": 0, "type": "electric_scooter", "bike_id": "64fec90c4f32bad31c912c70626ae3ba"}, {"lon": -77.00827816666667, "lat": 38.913742, "name": "bf50660fc00d8b2be5b438b95cb97a47", "fusion_lat": 0.0, "fusion_lon": 0.0, "rental_uris": {"android": "https://dc.lft.to/lastmile_qr_scan", "ios": "https://dc.lft.to/lastmile_qr_scan"}, "is_reserved": 0, "is_disabled": 0, "type": "electric_scooter", "bike_id": "bf50660fc00d8b2be5b438b95cb97a47"}, {"lon": -77.03441616666667, "lat": 38.9027415, "name": "28282cbd24b7242015ce2f23759fed5e", "fusion_lat": 0.0, "fusion_lon": 0.0, "rental_uris": {"android": "https://dc.lft.to/lastmile_qr_scan", "ios": "https://dc.lft.to/lastmile_qr_scan"}, "is_reserved": 0, "is_disabled": 0, "type": "electric_scooter", "bike_id": "28282cbd24b7242015ce2f23759fed5e"}, {"lon": -77.01999866666667, "lat": 38.96021666666667, "name": "0e63ebf4d69dc4b8c960f658e5fcc733", "fusion_lat": 0.0, "fusion_lon": 0.0, "rental_uris": {"android": "https://dc.lft.to/lastmile_qr_scan", "ios": "https://dc.lft.to/lastmile_qr_scan"}, "is_reserved": 0, "is_disabled": 0, "type": "electric_bike", "bike_id": "0e63ebf4d69dc4b8c960f658e5fcc733"}, {"lon": -77.00753683333333, "lat": 38.8711525, "name": "20e2494192a551731a2db25bf7d05bcb", "fusion_lat": 0.0, "fusion_lon": 0.0, "rental_uris": {"android": "https://dc.lft.to/lastmile_qr_scan", "ios": "https://dc.lft.to/lastmile_qr_scan"}, "is_reserved": 0, "is_disabled": 0, "type": "electric_scooter", "bike_id": "20e2494192a551731a2db25bf7d05bcb"}, {"lon": -77.02726516666667, "lat": 38.95132516666666, "name": "014d93dc71b88941ef68277732557873", "fusion_lat": 0.0, "fusion_lon": 0.0, "rental_uris": {"android": "https://dc.lft.to/lastmile_qr_scan", "ios": "https://dc.lft.to/lastmile_qr_scan"}, "is_reserved": 0, "is_disabled": 0, "type": "electric_scooter", "bike_id": "014d93dc71b88941ef68277732557873"}, {"lon": -77.35311983333334, "lat": 38.9500045, "name": "64ad2da21614ba58bc8fc6ce8d35ba9b", "fusion_lat": 0.0, "fusion_lon": 0.0, "rental_uris": {"android": "https://dc.lft.to/lastmile_qr_scan", "ios": "https://dc.lft.to/lastmile_qr_scan"}, "is_reserved": 0, "is_disabled": 0, "type": "electric_bike", "bike_id": "64ad2da21614ba58bc8fc6ce8d35ba9b"}, {"lon": -77.0092805, "lat": 38.896091, "name": "4441815f16422dd41e40dd9c37a1bae2", "fusion_lat": 0.0, "fusion_lon": 0.0, "rental_uris": {"android": "https://dc.lft.to/lastmile_qr_scan", "ios": "https://dc.lft.to/lastmile_qr_scan"}, "is_reserved": 0, "is_disabled": 0, "type": "electric_scooter", "bike_id": "4441815f16422dd41e40dd9c37a1bae2"}, {"lon": -77.02488816666667, "lat": 38.93859633333334, "name": "6424480b948df52c158a722f023edc11", "fusion_lat": 0.0, "fusion_lon": 0.0, "rental_uris": {"android": "https://dc.lft.to/lastmile_qr_scan", "ios": "https://dc.lft.to/lastmile_qr_scan"}, "is_reserved": 0, "is_disabled": 0, "type": "electric_scooter", "bike_id": "6424480b948df52c158a722f023edc11"}, {"lon": -77.0155235, "lat": 38.891973666666665, "name": "a90aeff3167cd24bb656da2a0b6ca678", "fusion_lat": 0.0, "fusion_lon": 0.0, "rental_uris": {"android": "https://dc.lft.to/lastmile_qr_scan", "ios": "https://dc.lft.to/lastmile_qr_scan"}, "is_reserved": 0, "is_disabled": 0, "type": "electric_scooter", "bike_id": "a90aeff3167cd24bb656da2a0b6ca678"}, {"lon": -77.03228066666667, "lat": 38.89220066666667, "name": "4b0eaf407e29b6c5e3f24fd70eb3328e", "fusion_lat": 0.0, "fusion_lon": 0.0, "rental_uris": {"android": "https://dc.lft.to/lastmile_qr_scan", "ios": "https://dc.lft.to/lastmile_qr_scan"}, "is_reserved": 0, "is_disabled": 0, "type": "electric_scooter", "bike_id": "4b0eaf407e29b6c5e3f24fd70eb3328e"}, {"lon": -77.0230925, "lat": 38.896974, "name": "f0579b345c66e4cc1eea4263d2cbf4ff", "fusion_lat": 0.0, "fusion_lon": 0.0, "rental_uris": {"android": "https://dc.lft.to/lastmile_qr_scan", "ios": "https://dc.lft.to/lastmile_qr_scan"}, "is_reserved": 0, "is_disabled": 0, "type": "electric_scooter", "bike_id": "f0579b345c66e4cc1eea4263d2cbf4ff"}, {"lon": -77.03034216666667, "lat": 38.94644483333333, "name": "2633506320732db1f296729c4e7b462f", "fusion_lat": 0.0, "fusion_lon": 0.0, "rental_uris": {"android": "https://dc.lft.to/lastmile_qr_scan", "ios": "https://dc.lft.to/lastmile_qr_scan"}, "is_reserved": 0, "is_disabled": 0, "type": "electric_scooter", "bike_id": "2633506320732db1f296729c4e7b462f"}, {"lon": -76.94567033333334, "lat": 38.866213, "name": "6bda4ba3220a5379923cf331d806fdd4", "fusion_lat": 0.0, "fusion_lon": 0.0, "rental_uris": {"android": "https://dc.lft.to/lastmile_qr_scan", "ios": "https://dc.lft.to/lastmile_qr_scan"}, "is_reserved": 0, "is_disabled": 0, "type": "electric_bike", "bike_id": "6bda4ba3220a5379923cf331d806fdd4"}, {"lon": -76.93344466666667, "lat": 38.89904883333333, "name": "bf653da47809645a59e519d64727982c", "fusion_lat": 0.0, "fusion_lon": 0.0, "rental_uris": {"android": "https://dc.lft.to/lastmile_qr_scan", "ios": "https://dc.lft.to/lastmile_qr_scan"}, "is_reserved": 0, "is_disabled": 0, "type": "electric_scooter", "bike_id": "bf653da47809645a59e519d64727982c"}, {"lon": -77.0619175, "lat": 38.94164516666667, "name": "45cdc491289b21eda21a20f2dbe5c789", "fusion_lat": 0.0, "fusion_lon": 0.0, "rental_uris": {"android": "https://dc.lft.to/lastmile_qr_scan", "ios": "https://dc.lft.to/lastmile_qr_scan"}, "is_reserved": 0, "is_disabled": 0, "type": "electric_scooter", "bike_id": "45cdc491289b21eda21a20f2dbe5c789"}, {"lon": -76.97302466666666, "lat": 38.91986133333333, "name": "f81ef7224bd7646f56dbfde92bd0625c", "fusion_lat": 0.0, "fusion_lon": 0.0, "rental_uris": {"android": "https://dc.lft.to/lastmile_qr_scan", "ios": "https://dc.lft.to/lastmile_qr_scan"}, "is_reserved": 0, "is_disabled": 0, "type": "electric_scooter", "bike_id": "f81ef7224bd7646f56dbfde92bd0625c"}, {"lon": -77.03511116666667, "lat": 38.935944, "name": "1bd1796b9eebf0218bcbdbea10f44311", "fusion_lat": 0.0, "fusion_lon": 0.0, "rental_uris": {"android": "https://dc.lft.to/lastmile_qr_scan", "ios": "https://dc.lft.to/lastmile_qr_scan"}, "is_reserved": 0, "is_disabled": 0, "type": "electric_scooter", "bike_id": "1bd1796b9eebf0218bcbdbea10f44311"}, {"lon": -77.178451, "lat": 39.088560333333334, "name": "f300291775e4fded17d4dffef47f8882", "fusion_lat": 0.0, "fusion_lon": 0.0, "rental_uris": {"android": "https://dc.lft.to/lastmile_qr_scan", "ios": "https://dc.lft.to/lastmile_qr_scan"}, "is_reserved": 0, "is_disabled": 0, "type": "electric_bike", "bike_id": "f300291775e4fded17d4dffef47f8882"}, {"lon": -77.04303783333333, "lat": 39.0544755, "name": "b72e2f45405a95f014aa2603771234c1", "fusion_lat": 0.0, "fusion_lon": 0.0, "rental_uris": {"android": "https://dc.lft.to/lastmile_qr_scan", "ios": "https://dc.lft.to/lastmile_qr_scan"}, "is_reserved": 0, "is_disabled": 0, "type": "electric_bike", "bike_id": "b72e2f45405a95f014aa2603771234c1"}, {"lon": -77.042043, "lat": 38.914139166666665, "name": "a728403c9ed8e0187e5c0b600e04558f", "fusion_lat": 0.0, "fusion_lon": 0.0, "rental_uris": {"android": "https://dc.lft.to/lastmile_qr_scan", "ios": "https://dc.lft.to/lastmile_qr_scan"}, "is_reserved": 0, "is_disabled": 0, "type": "electric_scooter", "bike_id": "a728403c9ed8e0187e5c0b600e04558f"}, {"lon": -77.027068, "lat": 38.95001233333333, "name": "9189086a907cba3de7fcb297d94bab0e", "fusion_lat": 0.0, "fusion_lon": 0.0, "rental_uris": {"android": "https://dc.lft.to/lastmile_qr_scan", "ios": "https://dc.lft.to/lastmile_qr_scan"}, "is_reserved": 0, "is_disabled": 0, "type": "electric_scooter", "bike_id": "9189086a907cba3de7fcb297d94bab0e"}, {"lon": -77.003513, "lat": 38.894603000000004, "name": "8560c7d27293a2b8335de52ad686aa57", "fusion_lat": 0.0, "fusion_lon": 0.0, "rental_uris": {"android": "https://dc.lft.to/lastmile_qr_scan", "ios": "https://dc.lft.to/lastmile_qr_scan"}, "is_reserved": 0, "is_disabled": 0, "type": "electric_scooter", "bike_id": "8560c7d27293a2b8335de52ad686aa57"}, {"lon": -77.08219116666666, "lat": 38.9354665, "name": "7ac63bf4ce6d8b39296a4009a242783c", "fusion_lat": 0.0, "fusion_lon": 0.0, "rental_uris": {"android": "https://dc.lft.to/lastmile_qr_scan", "ios": "https://dc.lft.to/lastmile_qr_scan"}, "is_reserved": 0, "is_disabled": 0, "type": "electric_scooter", "bike_id": "7ac63bf4ce6d8b39296a4009a242783c"}, {"lon": -77.02780533333333, "lat": 38.8936345, "name": "8c6a9660593010bf42f550978c15ef54", "fusion_lat": 0.0, "fusion_lon": 0.0, "rental_uris": {"android": "https://dc.lft.to/lastmile_qr_scan", "ios": "https://dc.lft.to/lastmile_qr_scan"}, "is_reserved": 0, "is_disabled": 0, "type": "electric_scooter", "bike_id": "8c6a9660593010bf42f550978c15ef54"}, {"lon": -77.09518016666667, "lat": 38.83810033333334, "name": "9e9069c43313d6851ce3db883eb1a662", "fusion_lat": 0.0, "fusion_lon": 0.0, "rental_uris": {"android": "https://dc.lft.to/lastmile_qr_scan", "ios": "https://dc.lft.to/lastmile_qr_scan"}, "is_reserved": 0, "is_disabled": 0, "type": "electric_bike", "bike_id": "9e9069c43313d6851ce3db883eb1a662"}, {"lon": -77.02813033333334, "lat": 38.92370583333334, "name": "6d26896a0827609fd6c880741b57e2f3", "fusion_lat": 0.0, "fusion_lon": 0.0, "rental_uris": {"android": "https://dc.lft.to/lastmile_qr_scan", "ios": "https://dc.lft.to/lastmile_qr_scan"}, "is_reserved": 0, "is_disabled": 0, "type": "electric_scooter", "bike_id": "6d26896a0827609fd6c880741b57e2f3"}, {"lon": -77.05595766666667, "lat": 38.92782833333333, "name": "04a37f8a81a35b1a50df356e7eef44e8", "fusion_lat": 0.0, "fusion_lon": 0.0, "rental_uris": {"android": "https://dc.lft.to/lastmile_qr_scan", "ios": "https://dc.lft.to/lastmile_qr_scan"}, "is_reserved": 0, "is_disabled": 0, "type": "electric_scooter", "bike_id": "04a37f8a81a35b1a50df356e7eef44e8"}, {"lon": -77.0469815, "lat": 38.920985333333334, "name": "3d1c0376d8186761ee225b1ceff23208", "fusion_lat": 0.0, "fusion_lon": 0.0, "rental_uris": {"android": "https://dc.lft.to/lastmile_qr_scan", "ios": "https://dc.lft.to/lastmile_qr_scan"}, "is_reserved": 0, "is_disabled": 0, "type": "electric_scooter", "bike_id": "3d1c0376d8186761ee225b1ceff23208"}, {"lon": -77.04336516666666, "lat": 38.904301333333336, "name": "1cb75a0daf6249e128a43b771145d8ab", "fusion_lat": 0.0, "fusion_lon": 0.0, "rental_uris": {"android": "https://dc.lft.to/lastmile_qr_scan", "ios": "https://dc.lft.to/lastmile_qr_scan"}, "is_reserved": 0, "is_disabled": 0, "type": "electric_scooter", "bike_id": "1cb75a0daf6249e128a43b771145d8ab"}, {"lon": -76.9496785, "lat": 38.8937385, "name": "4c1d0bd038619b0b25b14b3e1c999e31", "fusion_lat": 0.0, "fusion_lon": 0.0, "rental_uris": {"android": "https://dc.lft.to/lastmile_qr_scan", "ios": "https://dc.lft.to/lastmile_qr_scan"}, "is_reserved": 0, "is_disabled": 0, "type": "electric_scooter", "bike_id": "4c1d0bd038619b0b25b14b3e1c999e31"}, {"lon": -77.0384995, "lat": 38.915428166666665, "name": "d285a0484494aa160b383bb1b35361e5", "fusion_lat": 0.0, "fusion_lon": 0.0, "rental_uris": {"android": "https://dc.lft.to/lastmile_qr_scan", "ios": "https://dc.lft.to/lastmile_qr_scan"}, "is_reserved": 0, "is_disabled": 0, "type": "electric_scooter", "bike_id": "d285a0484494aa160b383bb1b35361e5"}, {"lon": -77.033541, "lat": 38.885093, "name": "da248a3c7a0ecadc775a9c51b44d02c0", "fusion_lat": 0.0, "fusion_lon": 0.0, "rental_uris": {"android": "https://dc.lft.to/lastmile_qr_scan", "ios": "https://dc.lft.to/lastmile_qr_scan"}, "is_reserved": 0, "is_disabled": 0, "type": "electric_scooter", "bike_id": "da248a3c7a0ecadc775a9c51b44d02c0"}, {"lon": -77.0440255, "lat": 38.929468666666665, "name": "1d157ab5363e82eb430785fb9cb72dc8", "fusion_lat": 0.0, "fusion_lon": 0.0, "rental_uris": {"android": "https://dc.lft.to/lastmile_qr_scan", "ios": "https://dc.lft.to/lastmile_qr_scan"}, "is_reserved": 0, "is_disabled": 0, "type": "electric_scooter", "bike_id": "1d157ab5363e82eb430785fb9cb72dc8"}, {"lon": -77.05538833333334, "lat": 38.899868833333336, "name": "1d167bca41e71c261919bd6ab25b552a", "fusion_lat": 0.0, "fusion_lon": 0.0, "rental_uris": {"android": "https://dc.lft.to/lastmile_qr_scan", "ios": "https://dc.lft.to/lastmile_qr_scan"}, "is_reserved": 0, "is_disabled": 0, "type": "electric_scooter", "bike_id": "1d167bca41e71c261919bd6ab25b552a"}, {"lon": -76.96525766666667, "lat": 38.87627666666667, "name": "10137a4c6bda5d0799b1594479e8888f", "fusion_lat": 0.0, "fusion_lon": 0.0, "rental_uris": {"android": "https://dc.lft.to/lastmile_qr_scan", "ios": "https://dc.lft.to/lastmile_qr_scan"}, "is_reserved": 0, "is_disabled": 0, "type": "electric_scooter", "bike_id": "10137a4c6bda5d0799b1594479e8888f"}, {"lon": -77.03933183333334, "lat": 38.9141425, "name": "3c97c1d704174ac5122782ffa6df0cc4", "fusion_lat": 0.0, "fusion_lon": 0.0, "rental_uris": {"android": "https://dc.lft.to/lastmile_qr_scan", "ios": "https://dc.lft.to/lastmile_qr_scan"}, "is_reserved": 0, "is_disabled": 0, "type": "electric_scooter", "bike_id": "3c97c1d704174ac5122782ffa6df0cc4"}, {"lon": -76.98164283333334, "lat": 38.959610166666664, "name": "f78ed0d9b92e8b76a71a7b59a75c7bcf", "fusion_lat": 0.0, "fusion_lon": 0.0, "rental_uris": {"android": "https://dc.lft.to/lastmile_qr_scan", "ios": "https://dc.lft.to/lastmile_qr_scan"}, "is_reserved": 0, "is_disabled": 0, "type": "electric_bike", "bike_id": "f78ed0d9b92e8b76a71a7b59a75c7bcf"}, {"lon": -77.02929983333334, "lat": 38.88218216666667, "name": "01e080279888007be4e00ce083decb70", "fusion_lat": 0.0, "fusion_lon": 0.0, "rental_uris": {"android": "https://dc.lft.to/lastmile_qr_scan", "ios": "https://dc.lft.to/lastmile_qr_scan"}, "is_reserved": 0, "is_disabled": 0, "type": "electric_scooter", "bike_id": "01e080279888007be4e00ce083decb70"}, {"lon": -77.01871566666667, "lat": 38.94898233333333, "name": "7e8d88086e45fbd58a53490803a16605", "fusion_lat": 0.0, "fusion_lon": 0.0, "rental_uris": {"android": "https://dc.lft.to/lastmile_qr_scan", "ios": "https://dc.lft.to/lastmile_qr_scan"}, "is_reserved": 0, "is_disabled": 0, "type": "electric_scooter", "bike_id": "7e8d88086e45fbd58a53490803a16605"}, {"lon": -77.01100483333333, "lat": 38.905741166666665, "name": "6dd1ba52662a093d31a9f70dc2b7ac86", "fusion_lat": 0.0, "fusion_lon": 0.0, "rental_uris": {"android": "https://dc.lft.to/lastmile_qr_scan", "ios": "https://dc.lft.to/lastmile_qr_scan"}, "is_reserved": 0, "is_disabled": 0, "type": "electric_scooter", "bike_id": "6dd1ba52662a093d31a9f70dc2b7ac86"}, {"lon": -77.02413466666667, "lat": 38.909700666666666, "name": "0176e055d9f4a00eeaacf863a4353ab3", "fusion_lat": 0.0, "fusion_lon": 0.0, "rental_uris": {"android": "https://dc.lft.to/lastmile_qr_scan", "ios": "https://dc.lft.to/lastmile_qr_scan"}, "is_reserved": 0, "is_disabled": 0, "type": "electric_scooter", "bike_id": "0176e055d9f4a00eeaacf863a4353ab3"}, {"lon": -77.033841, "lat": 38.91923533333333, "name": "c427cc773538ef076edb185afb1468c0", "fusion_lat": 0.0, "fusion_lon": 0.0, "rental_uris": {"android": "https://dc.lft.to/lastmile_qr_scan", "ios": "https://dc.lft.to/lastmile_qr_scan"}, "is_reserved": 0, "is_disabled": 0, "type": "electric_scooter", "bike_id": "c427cc773538ef076edb185afb1468c0"}, {"lon": -77.12961366666667, "lat": 38.852189, "name": "e12a3c9e70e2d5a5a7117562548c659c", "fusion_lat": 0.0, "fusion_lon": 0.0, "rental_uris": {"android": "https://dc.lft.to/lastmile_qr_scan", "ios": "https://dc.lft.to/lastmile_qr_scan"}, "is_reserved": 0, "is_disabled": 0, "type": "electric_bike", "bike_id": "e12a3c9e70e2d5a5a7117562548c659c"}, {"lon": -76.93226, "lat": 38.865962833333334, "name": "4137f0a628ebf8e51b0202076d38f994", "fusion_lat": 0.0, "fusion_lon": 0.0, "rental_uris": {"android": "https://dc.lft.to/lastmile_qr_scan", "ios": "https://dc.lft.to/lastmile_qr_scan"}, "is_reserved": 0, "is_disabled": 0, "type": "electric_bike", "bike_id": "4137f0a628ebf8e51b0202076d38f994"}, {"lon": -77.027323, "lat": 38.927982166666666, "name": "93ec87ca3b983c110f19a79f96b3adaf", "fusion_lat": 0.0, "fusion_lon": 0.0, "rental_uris": {"android": "https://dc.lft.to/lastmile_qr_scan", "ios": "https://dc.lft.to/lastmile_qr_scan"}, "is_reserved": 0, "is_disabled": 0, "type": "electric_scooter", "bike_id": "93ec87ca3b983c110f19a79f96b3adaf"}, {"lon": -76.99517683333333, "lat": 38.89483666666667, "name": "5c5447ee4205e926acb22bef0f69e83a", "fusion_lat": 0.0, "fusion_lon": 0.0, "rental_uris": {"android": "https://dc.lft.to/lastmile_qr_scan", "ios": "https://dc.lft.to/lastmile_qr_scan"}, "is_reserved": 0, "is_disabled": 0, "type": "electric_scooter", "bike_id": "5c5447ee4205e926acb22bef0f69e83a"}, {"lon": -77.03517666666667, "lat": 38.9234535, "name": "8d41acc3ef34b2a76dacbe9ca7189bb5", "fusion_lat": 0.0, "fusion_lon": 0.0, "rental_uris": {"android": "https://dc.lft.to/lastmile_qr_scan", "ios": "https://dc.lft.to/lastmile_qr_scan"}, "is_reserved": 0, "is_disabled": 0, "type": "electric_scooter", "bike_id": "8d41acc3ef34b2a76dacbe9ca7189bb5"}, {"lon": -77.02223733333334, "lat": 38.91255616666667, "name": "558112d6a9b6a959bec430fb450ca5f9", "fusion_lat": 0.0, "fusion_lon": 0.0, "rental_uris": {"android": "https://dc.lft.to/lastmile_qr_scan", "ios": "https://dc.lft.to/lastmile_qr_scan"}, "is_reserved": 0, "is_disabled": 0, "type": "electric_scooter", "bike_id": "558112d6a9b6a959bec430fb450ca5f9"}, {"lon": -77.00204, "lat": 38.900733333333335, "name": "878ac229bd3e196d9922a87e4eff63d3", "fusion_lat": 0.0, "fusion_lon": 0.0, "rental_uris": {"android": "https://dc.lft.to/lastmile_qr_scan", "ios": "https://dc.lft.to/lastmile_qr_scan"}, "is_reserved": 0, "is_disabled": 0, "type": "electric_scooter", "bike_id": "878ac229bd3e196d9922a87e4eff63d3"}, {"lon": -77.00602016666667, "lat": 38.905920333333334, "name": "22d5778ae5079960d8221919fbfba4d5", "fusion_lat": 0.0, "fusion_lon": 0.0, "rental_uris": {"android": "https://dc.lft.to/lastmile_qr_scan", "ios": "https://dc.lft.to/lastmile_qr_scan"}, "is_reserved": 0, "is_disabled": 0, "type": "electric_scooter", "bike_id": "22d5778ae5079960d8221919fbfba4d5"}, {"lon": -77.09207133333334, "lat": 38.941325, "name": "4c9ea10fc353b92fd1361340a3bf0f94", "fusion_lat": 0.0, "fusion_lon": 0.0, "rental_uris": {"android": "https://dc.lft.to/lastmile_qr_scan", "ios": "https://dc.lft.to/lastmile_qr_scan"}, "is_reserved": 0, "is_disabled": 0, "type": "electric_scooter", "bike_id": "4c9ea10fc353b92fd1361340a3bf0f94"}, {"lon": -77.006307, "lat": 38.955641, "name": "a5c2b7b46a756a617d67a1ca37c8dfcd", "fusion_lat": 0.0, "fusion_lon": 0.0, "rental_uris": {"android": "https://dc.lft.to/lastmile_qr_scan", "ios": "https://dc.lft.to/lastmile_qr_scan"}, "is_reserved": 0, "is_disabled": 0, "type": "electric_scooter", "bike_id": "a5c2b7b46a756a617d67a1ca37c8dfcd"}, {"lon": -77.017713, "lat": 38.9037215, "name": "e0150b6b51486ecf6be1e3d9bba36657", "fusion_lat": 0.0, "fusion_lon": 0.0, "rental_uris": {"android": "https://dc.lft.to/lastmile_qr_scan", "ios": "https://dc.lft.to/lastmile_qr_scan"}, "is_reserved": 0, "is_disabled": 0, "type": "electric_bike", "bike_id": "e0150b6b51486ecf6be1e3d9bba36657"}, {"lon": -77.0407455, "lat": 38.90499716666667, "name": "277629cb5910ce0767d5718f7651642c", "fusion_lat": 0.0, "fusion_lon": 0.0, "rental_uris": {"android": "https://dc.lft.to/lastmile_qr_scan", "ios": "https://dc.lft.to/lastmile_qr_scan"}, "is_reserved": 0, "is_disabled": 0, "type": "electric_scooter", "bike_id": "277629cb5910ce0767d5718f7651642c"}, {"lon": -77.02483883333333, "lat": 38.91756733333333, "name": "bde912296fd13050004f506aff742fe9", "fusion_lat": 0.0, "fusion_lon": 0.0, "rental_uris": {"android": "https://dc.lft.to/lastmile_qr_scan", "ios": "https://dc.lft.to/lastmile_qr_scan"}, "is_reserved": 0, "is_disabled": 0, "type": "electric_scooter", "bike_id": "bde912296fd13050004f506aff742fe9"}, {"lon": -77.014137, "lat": 38.913226333333334, "name": "281f014beea5820e443f131ef4d2faf9", "fusion_lat": 0.0, "fusion_lon": 0.0, "rental_uris": {"android": "https://dc.lft.to/lastmile_qr_scan", "ios": "https://dc.lft.to/lastmile_qr_scan"}, "is_reserved": 0, "is_disabled": 0, "type": "electric_scooter", "bike_id": "281f014beea5820e443f131ef4d2faf9"}, {"lon": -77.00931216666666, "lat": 38.9125555, "name": "3c6d6bae353df318254b8442ddf0fdc1", "fusion_lat": 0.0, "fusion_lon": 0.0, "rental_uris": {"android": "https://dc.lft.to/lastmile_qr_scan", "ios": "https://dc.lft.to/lastmile_qr_scan"}, "is_reserved": 0, "is_disabled": 0, "type": "electric_scooter", "bike_id": "3c6d6bae353df318254b8442ddf0fdc1"}, {"lon": -76.94218783333334, "lat": 38.896755166666665, "name": "9d3bb4c13be12bfbf2fb72553791ff03", "fusion_lat": 0.0, "fusion_lon": 0.0, "rental_uris": {"android": "https://dc.lft.to/lastmile_qr_scan", "ios": "https://dc.lft.to/lastmile_qr_scan"}, "is_reserved": 0, "is_disabled": 0, "type": "electric_scooter", "bike_id": "9d3bb4c13be12bfbf2fb72553791ff03"}, {"lon": -77.03032516666667, "lat": 38.91557183333333, "name": "dd8706ea730194dc33c4ce4a8acbe027", "fusion_lat": 0.0, "fusion_lon": 0.0, "rental_uris": {"android": "https://dc.lft.to/lastmile_qr_scan", "ios": "https://dc.lft.to/lastmile_qr_scan"}, "is_reserved": 0, "is_disabled": 0, "type": "electric_scooter", "bike_id": "dd8706ea730194dc33c4ce4a8acbe027"}, {"lon": -76.95751283333334, "lat": 38.88428, "name": "ef1a3ed91d2e309e1fed5436bc53dc3b", "fusion_lat": 0.0, "fusion_lon": 0.0, "rental_uris": {"android": "https://dc.lft.to/lastmile_qr_scan", "ios": "https://dc.lft.to/lastmile_qr_scan"}, "is_reserved": 0, "is_disabled": 0, "type": "electric_scooter", "bike_id": "ef1a3ed91d2e309e1fed5436bc53dc3b"}, {"lon": -77.03145316666667, "lat": 38.91416516666666, "name": "7dbd732b8047da5ce2a1a4aff7ff3014", "fusion_lat": 0.0, "fusion_lon": 0.0, "rental_uris": {"android": "https://dc.lft.to/lastmile_qr_scan", "ios": "https://dc.lft.to/lastmile_qr_scan"}, "is_reserved": 0, "is_disabled": 0, "type": "electric_scooter", "bike_id": "7dbd732b8047da5ce2a1a4aff7ff3014"}, {"lon": -77.05298733333333, "lat": 38.925514666666665, "name": "c7782273b46c89b679b6a87f321f9dd8", "fusion_lat": 0.0, "fusion_lon": 0.0, "rental_uris": {"android": "https://dc.lft.to/lastmile_qr_scan", "ios": "https://dc.lft.to/lastmile_qr_scan"}, "is_reserved": 0, "is_disabled": 0, "type": "electric_scooter", "bike_id": "c7782273b46c89b679b6a87f321f9dd8"}, {"lon": -77.0346355, "lat": 38.91813366666667, "name": "f37338727d7f3704303c2922d51cc9b9", "fusion_lat": 0.0, "fusion_lon": 0.0, "rental_uris": {"android": "https://dc.lft.to/lastmile_qr_scan", "ios": "https://dc.lft.to/lastmile_qr_scan"}, "is_reserved": 0, "is_disabled": 0, "type": "electric_scooter", "bike_id": "f37338727d7f3704303c2922d51cc9b9"}, {"lon": -77.03201583333333, "lat": 38.90773866666667, "name": "e652bece408284cffde9f0bd96642dbb", "fusion_lat": 0.0, "fusion_lon": 0.0, "rental_uris": {"android": "https://dc.lft.to/lastmile_qr_scan", "ios": "https://dc.lft.to/lastmile_qr_scan"}, "is_reserved": 0, "is_disabled": 0, "type": "electric_scooter", "bike_id": "e652bece408284cffde9f0bd96642dbb"}, {"lon": -77.023585, "lat": 38.9251075, "name": "d0a86013993577e88880142107eefe5f", "fusion_lat": 0.0, "fusion_lon": 0.0, "rental_uris": {"android": "https://dc.lft.to/lastmile_qr_scan", "ios": "https://dc.lft.to/lastmile_qr_scan"}, "is_reserved": 0, "is_disabled": 0, "type": "electric_scooter", "bike_id": "d0a86013993577e88880142107eefe5f"}, {"lon": -76.96505616666667, "lat": 38.876503166666666, "name": "178b40cf7d25e3f0200234afc4e1cb7e", "fusion_lat": 0.0, "fusion_lon": 0.0, "rental_uris": {"android": "https://dc.lft.to/lastmile_qr_scan", "ios": "https://dc.lft.to/lastmile_qr_scan"}, "is_reserved": 0, "is_disabled": 0, "type": "electric_scooter", "bike_id": "178b40cf7d25e3f0200234afc4e1cb7e"}, {"lon": -77.0405185, "lat": 38.927116833333336, "name": "6b73dc92e5cf4639c1ed476aed8d426c", "fusion_lat": 0.0, "fusion_lon": 0.0, "rental_uris": {"android": "https://dc.lft.to/lastmile_qr_scan", "ios": "https://dc.lft.to/lastmile_qr_scan"}, "is_reserved": 0, "is_disabled": 0, "type": "electric_scooter", "bike_id": "6b73dc92e5cf4639c1ed476aed8d426c"}, {"lon": -77.04153, "lat": 38.9189745, "name": "1b02a3957b26413549dc963c869073a5", "fusion_lat": 0.0, "fusion_lon": 0.0, "rental_uris": {"android": "https://dc.lft.to/lastmile_qr_scan", "ios": "https://dc.lft.to/lastmile_qr_scan"}, "is_reserved": 0, "is_disabled": 0, "type": "electric_scooter", "bike_id": "1b02a3957b26413549dc963c869073a5"}, {"lon": -77.15266466666667, "lat": 39.105651, "name": "18652722fa243d1eea9f9f4319817960", "fusion_lat": 0.0, "fusion_lon": 0.0, "rental_uris": {"android": "https://dc.lft.to/lastmile_qr_scan", "ios": "https://dc.lft.to/lastmile_qr_scan"}, "is_reserved": 0, "is_disabled": 0, "type": "electric_bike", "bike_id": "18652722fa243d1eea9f9f4319817960"}, {"lon": -76.97455683333334, "lat": 38.903589833333335, "name": "ffac6be864b962c5e6ff2f1bf2eec134", "fusion_lat": 0.0, "fusion_lon": 0.0, "rental_uris": {"android": "https://dc.lft.to/lastmile_qr_scan", "ios": "https://dc.lft.to/lastmile_qr_scan"}, "is_reserved": 0, "is_disabled": 0, "type": "electric_scooter", "bike_id": "ffac6be864b962c5e6ff2f1bf2eec134"}, {"lon": -76.98608633333333, "lat": 38.906217, "name": "e87231247ca18f4315cb9d0ddf581757", "fusion_lat": 0.0, "fusion_lon": 0.0, "rental_uris": {"android": "https://dc.lft.to/lastmile_qr_scan", "ios": "https://dc.lft.to/lastmile_qr_scan"}, "is_reserved": 0, "is_disabled": 0, "type": "electric_bike", "bike_id": "e87231247ca18f4315cb9d0ddf581757"}, {"lon": -77.02514233333333, "lat": 38.92638016666667, "name": "c36207d1f765f47e82fd248c3bb48eb4", "fusion_lat": 0.0, "fusion_lon": 0.0, "rental_uris": {"android": "https://dc.lft.to/lastmile_qr_scan", "ios": "https://dc.lft.to/lastmile_qr_scan"}, "is_reserved": 0, "is_disabled": 0, "type": "electric_scooter", "bike_id": "c36207d1f765f47e82fd248c3bb48eb4"}, {"lon": -77.03301483333334, "lat": 38.918166666666664, "name": "bab3a6b64dca94bc030f938a9f6a1f8c", "fusion_lat": 0.0, "fusion_lon": 0.0, "rental_uris": {"android": "https://dc.lft.to/lastmile_qr_scan", "ios": "https://dc.lft.to/lastmile_qr_scan"}, "is_reserved": 0, "is_disabled": 0, "type": "electric_scooter", "bike_id": "bab3a6b64dca94bc030f938a9f6a1f8c"}, {"lon": -76.93762066666666, "lat": 38.89970983333333, "name": "20233971b95771351cc749f073bdf55f", "fusion_lat": 0.0, "fusion_lon": 0.0, "rental_uris": {"android": "https://dc.lft.to/lastmile_qr_scan", "ios": "https://dc.lft.to/lastmile_qr_scan"}, "is_reserved": 0, "is_disabled": 0, "type": "electric_scooter", "bike_id": "20233971b95771351cc749f073bdf55f"}, {"lon": -77.03049283333333, "lat": 38.907886500000004, "name": "cb1bf6c6cb144f1e60260ea46c825116", "fusion_lat": 0.0, "fusion_lon": 0.0, "rental_uris": {"android": "https://dc.lft.to/lastmile_qr_scan", "ios": "https://dc.lft.to/lastmile_qr_scan"}, "is_reserved": 0, "is_disabled": 0, "type": "electric_scooter", "bike_id": "cb1bf6c6cb144f1e60260ea46c825116"}, {"lon": -76.99017883333333, "lat": 38.90152483333333, "name": "3afd400b8beb5aa8ea5230bea50b3d66", "fusion_lat": 0.0, "fusion_lon": 0.0, "rental_uris": {"android": "https://dc.lft.to/lastmile_qr_scan", "ios": "https://dc.lft.to/lastmile_qr_scan"}, "is_reserved": 0, "is_disabled": 0, "type": "electric_scooter", "bike_id": "3afd400b8beb5aa8ea5230bea50b3d66"}, {"lon": -77.02946483333334, "lat": 38.9050275, "name": "ad3cb75c4e4430990e884e64bf5b5e7f", "fusion_lat": 0.0, "fusion_lon": 0.0, "rental_uris": {"android": "https://dc.lft.to/lastmile_qr_scan", "ios": "https://dc.lft.to/lastmile_qr_scan"}, "is_reserved": 0, "is_disabled": 0, "type": "electric_scooter", "bike_id": "ad3cb75c4e4430990e884e64bf5b5e7f"}, {"lon": -77.04734916666666, "lat": 38.91116183333333, "name": "06f894cb2c4475a08b2bfec9fef8dbe3", "fusion_lat": 0.0, "fusion_lon": 0.0, "rental_uris": {"android": "https://dc.lft.to/lastmile_qr_scan", "ios": "https://dc.lft.to/lastmile_qr_scan"}, "is_reserved": 0, "is_disabled": 0, "type": "electric_scooter", "bike_id": "06f894cb2c4475a08b2bfec9fef8dbe3"}, {"lon": -77.02590116666667, "lat": 38.90427533333333, "name": "896e1496515a265f373da042904c98fe", "fusion_lat": 0.0, "fusion_lon": 0.0, "rental_uris": {"android": "https://dc.lft.to/lastmile_qr_scan", "ios": "https://dc.lft.to/lastmile_qr_scan"}, "is_reserved": 0, "is_disabled": 0, "type": "electric_scooter", "bike_id": "896e1496515a265f373da042904c98fe"}, {"lon": -77.06949933333334, "lat": 38.990413833333335, "name": "560aac4fe22579211bfdd0cc5ea14567", "fusion_lat": 0.0, "fusion_lon": 0.0, "rental_uris": {"android": "https://dc.lft.to/lastmile_qr_scan", "ios": "https://dc.lft.to/lastmile_qr_scan"}, "is_reserved": 0, "is_disabled": 0, "type": "electric_bike", "bike_id": "560aac4fe22579211bfdd0cc5ea14567"}, {"lon": -77.03825666666667, "lat": 38.912647666666665, "name": "19a4bd0d07bac73493c5f4b7e9062b54", "fusion_lat": 0.0, "fusion_lon": 0.0, "rental_uris": {"android": "https://dc.lft.to/lastmile_qr_scan", "ios": "https://dc.lft.to/lastmile_qr_scan"}, "is_reserved": 0, "is_disabled": 0, "type": "electric_scooter", "bike_id": "19a4bd0d07bac73493c5f4b7e9062b54"}, {"lon": -77.005326, "lat": 38.8746925, "name": "e5ac628c2d8ff0c94b7ca733554c48d0", "fusion_lat": 0.0, "fusion_lon": 0.0, "rental_uris": {"android": "https://dc.lft.to/lastmile_qr_scan", "ios": "https://dc.lft.to/lastmile_qr_scan"}, "is_reserved": 0, "is_disabled": 0, "type": "electric_scooter", "bike_id": "e5ac628c2d8ff0c94b7ca733554c48d0"}, {"lon": -77.05523483333333, "lat": 38.899221833333335, "name": "be25f1fed98c84e7b3b76e5e9f56c1fc", "fusion_lat": 0.0, "fusion_lon": 0.0, "rental_uris": {"android": "https://dc.lft.to/lastmile_qr_scan", "ios": "https://dc.lft.to/lastmile_qr_scan"}, "is_reserved": 0, "is_disabled": 0, "type": "electric_scooter", "bike_id": "be25f1fed98c84e7b3b76e5e9f56c1fc"}, {"lon": -76.981744, "lat": 38.900390333333334, "name": "876c104e58c463d050c834d15e5b827a", "fusion_lat": 0.0, "fusion_lon": 0.0, "rental_uris": {"android": "https://dc.lft.to/lastmile_qr_scan", "ios": "https://dc.lft.to/lastmile_qr_scan"}, "is_reserved": 0, "is_disabled": 0, "type": "electric_scooter", "bike_id": "876c104e58c463d050c834d15e5b827a"}, {"lon": -76.87815883333333, "lat": 38.9922745, "name": "77570c813659604bdfd1f47f5f37bceb", "fusion_lat": 0.0, "fusion_lon": 0.0, "rental_uris": {"android": "https://dc.lft.to/lastmile_qr_scan", "ios": "https://dc.lft.to/lastmile_qr_scan"}, "is_reserved": 0, "is_disabled": 0, "type": "electric_bike", "bike_id": "77570c813659604bdfd1f47f5f37bceb"}, {"lon": -77.107366, "lat": 38.85558483333333, "name": "66ce762f9a2019635d3da4fc47db48c9", "fusion_lat": 0.0, "fusion_lon": 0.0, "rental_uris": {"android": "https://dc.lft.to/lastmile_qr_scan", "ios": "https://dc.lft.to/lastmile_qr_scan"}, "is_reserved": 0, "is_disabled": 0, "type": "electric_bike", "bike_id": "66ce762f9a2019635d3da4fc47db48c9"}, {"lon": -76.98232, "lat": 38.925090833333336, "name": "bf3622de10fa3180f0c607de33db141e", "fusion_lat": 0.0, "fusion_lon": 0.0, "rental_uris": {"android": "https://dc.lft.to/lastmile_qr_scan", "ios": "https://dc.lft.to/lastmile_qr_scan"}, "is_reserved": 0, "is_disabled": 0, "type": "electric_bike", "bike_id": "bf3622de10fa3180f0c607de33db141e"}, {"lon": -76.98775416666666, "lat": 38.900305333333336, "name": "34b6a0c20337aad19ad99fdde33b1aa4", "fusion_lat": 0.0, "fusion_lon": 0.0, "rental_uris": {"android": "https://dc.lft.to/lastmile_qr_scan", "ios": "https://dc.lft.to/lastmile_qr_scan"}, "is_reserved": 0, "is_disabled": 0, "type": "electric_scooter", "bike_id": "34b6a0c20337aad19ad99fdde33b1aa4"}, {"lon": -76.97747766666667, "lat": 38.900103, "name": "f8ae323ad2e60110c194a464b6e53da7", "fusion_lat": 0.0, "fusion_lon": 0.0, "rental_uris": {"android": "https://dc.lft.to/lastmile_qr_scan", "ios": "https://dc.lft.to/lastmile_qr_scan"}, "is_reserved": 0, "is_disabled": 0, "type": "electric_scooter", "bike_id": "f8ae323ad2e60110c194a464b6e53da7"}, {"lon": -76.94872133333334, "lat": 38.88960616666667, "name": "7f5401b68263a316ed0965e4912105b2", "fusion_lat": 0.0, "fusion_lon": 0.0, "rental_uris": {"android": "https://dc.lft.to/lastmile_qr_scan", "ios": "https://dc.lft.to/lastmile_qr_scan"}, "is_reserved": 0, "is_disabled": 0, "type": "electric_bike", "bike_id": "7f5401b68263a316ed0965e4912105b2"}, {"lon": -77.02033566666667, "lat": 38.8994235, "name": "1e44642d2feee50dbdb8cc01dda83fa7", "fusion_lat": 0.0, "fusion_lon": 0.0, "rental_uris": {"android": "https://dc.lft.to/lastmile_qr_scan", "ios": "https://dc.lft.to/lastmile_qr_scan"}, "is_reserved": 0, "is_disabled": 0, "type": "electric_scooter", "bike_id": "1e44642d2feee50dbdb8cc01dda83fa7"}, {"lon": -77.0378605, "lat": 38.92624683333333, "name": "ff5535de9d647fd7f435d8e7b4f1904d", "fusion_lat": 0.0, "fusion_lon": 0.0, "rental_uris": {"android": "https://dc.lft.to/lastmile_qr_scan", "ios": "https://dc.lft.to/lastmile_qr_scan"}, "is_reserved": 0, "is_disabled": 0, "type": "electric_scooter", "bike_id": "ff5535de9d647fd7f435d8e7b4f1904d"}, {"lon": -77.041853, "lat": 38.918766833333336, "name": "61b7786ad7ce048178fd2856e741a97b", "fusion_lat": 0.0, "fusion_lon": 0.0, "rental_uris": {"android": "https://dc.lft.to/lastmile_qr_scan", "ios": "https://dc.lft.to/lastmile_qr_scan"}, "is_reserved": 0, "is_disabled": 0, "type": "electric_scooter", "bike_id": "61b7786ad7ce048178fd2856e741a97b"}, {"lon": -76.96554366666666, "lat": 38.918493166666664, "name": "797d16fd7791212bdca9ae3fc718a7bd", "fusion_lat": 0.0, "fusion_lon": 0.0, "rental_uris": {"android": "https://dc.lft.to/lastmile_qr_scan", "ios": "https://dc.lft.to/lastmile_qr_scan"}, "is_reserved": 0, "is_disabled": 0, "type": "electric_scooter", "bike_id": "797d16fd7791212bdca9ae3fc718a7bd"}, {"lon": -77.03281116666666, "lat": 38.91037816666667, "name": "e6d516a74b3aed67f91b6a4d56af3503", "fusion_lat": 0.0, "fusion_lon": 0.0, "rental_uris": {"android": "https://dc.lft.to/lastmile_qr_scan", "ios": "https://dc.lft.to/lastmile_qr_scan"}, "is_reserved": 0, "is_disabled": 0, "type": "electric_scooter", "bike_id": "e6d516a74b3aed67f91b6a4d56af3503"}, {"lon": -77.028538, "lat": 38.965029, "name": "66b13a4f1c4a7fe2aaa1380c5c8ea59c", "fusion_lat": 0.0, "fusion_lon": 0.0, "rental_uris": {"android": "https://dc.lft.to/lastmile_qr_scan", "ios": "https://dc.lft.to/lastmile_qr_scan"}, "is_reserved": 0, "is_disabled": 0, "type": "electric_scooter", "bike_id": "66b13a4f1c4a7fe2aaa1380c5c8ea59c"}, {"lon": -77.0328645, "lat": 38.939896166666664, "name": "6419552a1121f0dd28506b80645365f2", "fusion_lat": 0.0, "fusion_lon": 0.0, "rental_uris": {"android": "https://dc.lft.to/lastmile_qr_scan", "ios": "https://dc.lft.to/lastmile_qr_scan"}, "is_reserved": 0, "is_disabled": 0, "type": "electric_scooter", "bike_id": "6419552a1121f0dd28506b80645365f2"}, {"lon": -76.97629, "lat": 38.90575533333333, "name": "4e10488fc780a2c5e50bf932d18343fa", "fusion_lat": 0.0, "fusion_lon": 0.0, "rental_uris": {"android": "https://dc.lft.to/lastmile_qr_scan", "ios": "https://dc.lft.to/lastmile_qr_scan"}, "is_reserved": 0, "is_disabled": 0, "type": "electric_scooter", "bike_id": "4e10488fc780a2c5e50bf932d18343fa"}, {"lon": -77.01116266666666, "lat": 38.895089, "name": "77e83e2f0eba1e6a62212217201ad0cf", "fusion_lat": 0.0, "fusion_lon": 0.0, "rental_uris": {"android": "https://dc.lft.to/lastmile_qr_scan", "ios": "https://dc.lft.to/lastmile_qr_scan"}, "is_reserved": 0, "is_disabled": 0, "type": "electric_scooter", "bike_id": "77e83e2f0eba1e6a62212217201ad0cf"}, {"lon": -76.9868125, "lat": 38.88214333333333, "name": "ed58b1b73a0f74cdbe4e1d8a0918b90d", "fusion_lat": 0.0, "fusion_lon": 0.0, "rental_uris": {"android": "https://dc.lft.to/lastmile_qr_scan", "ios": "https://dc.lft.to/lastmile_qr_scan"}, "is_reserved": 0, "is_disabled": 0, "type": "electric_scooter", "bike_id": "ed58b1b73a0f74cdbe4e1d8a0918b90d"}, {"lon": -77.135939, "lat": 39.053454, "name": "0aad812cac4d19b9cd9f9fbbf1aad440", "fusion_lat": 0.0, "fusion_lon": 0.0, "rental_uris": {"android": "https://dc.lft.to/lastmile_qr_scan", "ios": "https://dc.lft.to/lastmile_qr_scan"}, "is_reserved": 0, "is_disabled": 0, "type": "electric_bike", "bike_id": "0aad812cac4d19b9cd9f9fbbf1aad440"}, {"lon": -77.0347275, "lat": 38.928747333333334, "name": "f4448e66bf8b587dca403d569f976db7", "fusion_lat": 0.0, "fusion_lon": 0.0, "rental_uris": {"android": "https://dc.lft.to/lastmile_qr_scan", "ios": "https://dc.lft.to/lastmile_qr_scan"}, "is_reserved": 0, "is_disabled": 0, "type": "electric_scooter", "bike_id": "f4448e66bf8b587dca403d569f976db7"}, {"lon": -77.06424766666666, "lat": 38.84333383333333, "name": "416d7c64a464c901f7f7838750b90992", "fusion_lat": 0.0, "fusion_lon": 0.0, "rental_uris": {"android": "https://dc.lft.to/lastmile_qr_scan", "ios": "https://dc.lft.to/lastmile_qr_scan"}, "is_reserved": 0, "is_disabled": 0, "type": "electric_bike", "bike_id": "416d7c64a464c901f7f7838750b90992"}, {"lon": -77.02366183333334, "lat": 38.9019025, "name": "81ef382a0cb75513768f9501334a9680", "fusion_lat": 0.0, "fusion_lon": 0.0, "rental_uris": {"android": "https://dc.lft.to/lastmile_qr_scan", "ios": "https://dc.lft.to/lastmile_qr_scan"}, "is_reserved": 0, "is_disabled": 0, "type": "electric_scooter", "bike_id": "81ef382a0cb75513768f9501334a9680"}, {"lon": -77.014407, "lat": 38.8777805, "name": "a2f978e1373a7eee9f0cf794d66735b9", "fusion_lat": 0.0, "fusion_lon": 0.0, "rental_uris": {"android": "https://dc.lft.to/lastmile_qr_scan", "ios": "https://dc.lft.to/lastmile_qr_scan"}, "is_reserved": 0, "is_disabled": 0, "type": "electric_scooter", "bike_id": "a2f978e1373a7eee9f0cf794d66735b9"}, {"lon": -76.9485585, "lat": 38.883016, "name": "b2bbb66738cd49723836ac6d7a489b06", "fusion_lat": 0.0, "fusion_lon": 0.0, "rental_uris": {"android": "https://dc.lft.to/lastmile_qr_scan", "ios": "https://dc.lft.to/lastmile_qr_scan"}, "is_reserved": 0, "is_disabled": 0, "type": "electric_scooter", "bike_id": "b2bbb66738cd49723836ac6d7a489b06"}, {"lon": -76.98756383333334, "lat": 38.84501216666666, "name": "1ea051c97317a07c89130d356671513b", "fusion_lat": 0.0, "fusion_lon": 0.0, "rental_uris": {"android": "https://dc.lft.to/lastmile_qr_scan", "ios": "https://dc.lft.to/lastmile_qr_scan"}, "is_reserved": 0, "is_disabled": 0, "type": "electric_scooter", "bike_id": "1ea051c97317a07c89130d356671513b"}, {"lon": -77.03617883333334, "lat": 38.929151, "name": "d7e3300bd9c666aec0fac57a3b770c5f", "fusion_lat": 0.0, "fusion_lon": 0.0, "rental_uris": {"android": "https://dc.lft.to/lastmile_qr_scan", "ios": "https://dc.lft.to/lastmile_qr_scan"}, "is_reserved": 0, "is_disabled": 0, "type": "electric_scooter", "bike_id": "d7e3300bd9c666aec0fac57a3b770c5f"}, {"lon": -77.03659133333333, "lat": 38.911745, "name": "0a194468f630718e5d00836551b1ff83", "fusion_lat": 0.0, "fusion_lon": 0.0, "rental_uris": {"android": "https://dc.lft.to/lastmile_qr_scan", "ios": "https://dc.lft.to/lastmile_qr_scan"}, "is_reserved": 0, "is_disabled": 0, "type": "electric_scooter", "bike_id": "0a194468f630718e5d00836551b1ff83"}, {"lon": -77.02632066666666, "lat": 38.89219883333333, "name": "f09f9327096367f75da953364a7c349d", "fusion_lat": 0.0, "fusion_lon": 0.0, "rental_uris": {"android": "https://dc.lft.to/lastmile_qr_scan", "ios": "https://dc.lft.to/lastmile_qr_scan"}, "is_reserved": 0, "is_disabled": 0, "type": "electric_scooter", "bike_id": "f09f9327096367f75da953364a7c349d"}, {"lon": -77.02382, "lat": 38.91156466666666, "name": "6e7bf4f09b3cddfdb1f4f0d2a49de54e", "fusion_lat": 0.0, "fusion_lon": 0.0, "rental_uris": {"android": "https://dc.lft.to/lastmile_qr_scan", "ios": "https://dc.lft.to/lastmile_qr_scan"}, "is_reserved": 0, "is_disabled": 0, "type": "electric_scooter", "bike_id": "6e7bf4f09b3cddfdb1f4f0d2a49de54e"}, {"lon": -76.94898116666667, "lat": 38.89523366666667, "name": "89ba62cdf0616c381f62ee8f75701e22", "fusion_lat": 0.0, "fusion_lon": 0.0, "rental_uris": {"android": "https://dc.lft.to/lastmile_qr_scan", "ios": "https://dc.lft.to/lastmile_qr_scan"}, "is_reserved": 0, "is_disabled": 0, "type": "electric_scooter", "bike_id": "89ba62cdf0616c381f62ee8f75701e22"}, {"lon": -77.02364466666667, "lat": 38.90190833333333, "name": "e7b2b71f8c949ac0be7cda71d4f148d6", "fusion_lat": 0.0, "fusion_lon": 0.0, "rental_uris": {"android": "https://dc.lft.to/lastmile_qr_scan", "ios": "https://dc.lft.to/lastmile_qr_scan"}, "is_reserved": 0, "is_disabled": 0, "type": "electric_scooter", "bike_id": "e7b2b71f8c949ac0be7cda71d4f148d6"}, {"lon": -77.0269795, "lat": 38.91596966666667, "name": "e5b0c8bdf3519a76eb7df3eeed3d1d22", "fusion_lat": 0.0, "fusion_lon": 0.0, "rental_uris": {"android": "https://dc.lft.to/lastmile_qr_scan", "ios": "https://dc.lft.to/lastmile_qr_scan"}, "is_reserved": 0, "is_disabled": 0, "type": "electric_scooter", "bike_id": "e5b0c8bdf3519a76eb7df3eeed3d1d22"}, {"lon": -77.02477283333333, "lat": 38.92649983333333, "name": "201d0910877e22071c0875db6afc269f", "fusion_lat": 0.0, "fusion_lon": 0.0, "rental_uris": {"android": "https://dc.lft.to/lastmile_qr_scan", "ios": "https://dc.lft.to/lastmile_qr_scan"}, "is_reserved": 0, "is_disabled": 0, "type": "electric_scooter", "bike_id": "201d0910877e22071c0875db6afc269f"}, {"lon": -77.041912, "lat": 38.90150516666667, "name": "0167fea395a1c40359046d3981ed79ae", "fusion_lat": 0.0, "fusion_lon": 0.0, "rental_uris": {"android": "https://dc.lft.to/lastmile_qr_scan", "ios": "https://dc.lft.to/lastmile_qr_scan"}, "is_reserved": 0, "is_disabled": 0, "type": "electric_scooter", "bike_id": "0167fea395a1c40359046d3981ed79ae"}, {"lon": -77.03365633333334, "lat": 38.88755666666667, "name": "e075ffa576b2321b3014e772bd52a23f", "fusion_lat": 0.0, "fusion_lon": 0.0, "rental_uris": {"android": "https://dc.lft.to/lastmile_qr_scan", "ios": "https://dc.lft.to/lastmile_qr_scan"}, "is_reserved": 0, "is_disabled": 0, "type": "electric_scooter", "bike_id": "e075ffa576b2321b3014e772bd52a23f"}, {"lon": -77.00918716666666, "lat": 38.9105065, "name": "085143fee38b0a61aa6c728b6bbe7023", "fusion_lat": 0.0, "fusion_lon": 0.0, "rental_uris": {"android": "https://dc.lft.to/lastmile_qr_scan", "ios": "https://dc.lft.to/lastmile_qr_scan"}, "is_reserved": 0, "is_disabled": 0, "type": "electric_scooter", "bike_id": "085143fee38b0a61aa6c728b6bbe7023"}, {"lon": -77.010787, "lat": 38.96257966666667, "name": "947e04f1145ad2c3432cbf5239b120e7", "fusion_lat": 0.0, "fusion_lon": 0.0, "rental_uris": {"android": "https://dc.lft.to/lastmile_qr_scan", "ios": "https://dc.lft.to/lastmile_qr_scan"}, "is_reserved": 0, "is_disabled": 0, "type": "electric_bike", "bike_id": "947e04f1145ad2c3432cbf5239b120e7"}, {"lon": -77.017, "lat": 38.90573583333333, "name": "c85be95dc6a7a3db211d8c2db8a4fcad", "fusion_lat": 0.0, "fusion_lon": 0.0, "rental_uris": {"android": "https://dc.lft.to/lastmile_qr_scan", "ios": "https://dc.lft.to/lastmile_qr_scan"}, "is_reserved": 0, "is_disabled": 0, "type": "electric_bike", "bike_id": "c85be95dc6a7a3db211d8c2db8a4fcad"}, {"lon": -77.0347455, "lat": 38.91706516666667, "name": "300ed5fdea537da56b0819130df82d91", "fusion_lat": 0.0, "fusion_lon": 0.0, "rental_uris": {"android": "https://dc.lft.to/lastmile_qr_scan", "ios": "https://dc.lft.to/lastmile_qr_scan"}, "is_reserved": 0, "is_disabled": 0, "type": "electric_scooter", "bike_id": "300ed5fdea537da56b0819130df82d91"}, {"lon": -77.02828666666667, "lat": 38.88740933333333, "name": "7121bc1a20e311fcf12abcaa6ee4be19", "fusion_lat": 0.0, "fusion_lon": 0.0, "rental_uris": {"android": "https://dc.lft.to/lastmile_qr_scan", "ios": "https://dc.lft.to/lastmile_qr_scan"}, "is_reserved": 0, "is_disabled": 0, "type": "electric_scooter", "bike_id": "7121bc1a20e311fcf12abcaa6ee4be19"}, {"lon": -77.01680083333333, "lat": 38.90564083333334, "name": "33756b83c8f599039deb98c1d25e0194", "fusion_lat": 0.0, "fusion_lon": 0.0, "rental_uris": {"android": "https://dc.lft.to/lastmile_qr_scan", "ios": "https://dc.lft.to/lastmile_qr_scan"}, "is_reserved": 0, "is_disabled": 0, "type": "electric_scooter", "bike_id": "33756b83c8f599039deb98c1d25e0194"}, {"lon": -76.99834983333334, "lat": 38.83913916666667, "name": "cd4fbeaee13c39ac3759f9c941c72001", "fusion_lat": 0.0, "fusion_lon": 0.0, "rental_uris": {"android": "https://dc.lft.to/lastmile_qr_scan", "ios": "https://dc.lft.to/lastmile_qr_scan"}, "is_reserved": 0, "is_disabled": 0, "type": "electric_bike", "bike_id": "cd4fbeaee13c39ac3759f9c941c72001"}, {"lon": -76.9802375, "lat": 38.9037955, "name": "605b06ea14024c98d1d6ffa563e2d887", "fusion_lat": 0.0, "fusion_lon": 0.0, "rental_uris": {"android": "https://dc.lft.to/lastmile_qr_scan", "ios": "https://dc.lft.to/lastmile_qr_scan"}, "is_reserved": 0, "is_disabled": 0, "type": "electric_scooter", "bike_id": "605b06ea14024c98d1d6ffa563e2d887"}, {"lon": -77.03858966666667, "lat": 38.915442666666664, "name": "5458849fd5460de050914c88f95f9021", "fusion_lat": 0.0, "fusion_lon": 0.0, "rental_uris": {"android": "https://dc.lft.to/lastmile_qr_scan", "ios": "https://dc.lft.to/lastmile_qr_scan"}, "is_reserved": 0, "is_disabled": 0, "type": "electric_scooter", "bike_id": "5458849fd5460de050914c88f95f9021"}, {"lon": -77.03852533333334, "lat": 38.915436166666666, "name": "6a02ad5f7b6d49dac6d3e7487f1c3b3b", "fusion_lat": 0.0, "fusion_lon": 0.0, "rental_uris": {"android": "https://dc.lft.to/lastmile_qr_scan", "ios": "https://dc.lft.to/lastmile_qr_scan"}, "is_reserved": 0, "is_disabled": 0, "type": "electric_scooter", "bike_id": "6a02ad5f7b6d49dac6d3e7487f1c3b3b"}, {"lon": -77.03079533333333, "lat": 38.92789233333333, "name": "7fde8887399911a216731e8cb653d175", "fusion_lat": 0.0, "fusion_lon": 0.0, "rental_uris": {"android": "https://dc.lft.to/lastmile_qr_scan", "ios": "https://dc.lft.to/lastmile_qr_scan"}, "is_reserved": 0, "is_disabled": 0, "type": "electric_scooter", "bike_id": "7fde8887399911a216731e8cb653d175"}, {"lon": -77.04057683333333, "lat": 38.91767516666667, "name": "4a4bf7c02a673ed4ceacc0433b0158fc", "fusion_lat": 0.0, "fusion_lon": 0.0, "rental_uris": {"android": "https://dc.lft.to/lastmile_qr_scan", "ios": "https://dc.lft.to/lastmile_qr_scan"}, "is_reserved": 0, "is_disabled": 0, "type": "electric_scooter", "bike_id": "4a4bf7c02a673ed4ceacc0433b0158fc"}, {"lon": -77.031074, "lat": 38.9338175, "name": "650554d8c311155b1e757c26cd50dfcc", "fusion_lat": 0.0, "fusion_lon": 0.0, "rental_uris": {"android": "https://dc.lft.to/lastmile_qr_scan", "ios": "https://dc.lft.to/lastmile_qr_scan"}, "is_reserved": 0, "is_disabled": 0, "type": "electric_scooter", "bike_id": "650554d8c311155b1e757c26cd50dfcc"}, {"lon": -77.02938733333333, "lat": 38.902313666666664, "name": "98d26485f18916f29afbcb0646de6ef0", "fusion_lat": 0.0, "fusion_lon": 0.0, "rental_uris": {"android": "https://dc.lft.to/lastmile_qr_scan", "ios": "https://dc.lft.to/lastmile_qr_scan"}, "is_reserved": 0, "is_disabled": 0, "type": "electric_scooter", "bike_id": "98d26485f18916f29afbcb0646de6ef0"}, {"lon": -77.037332, "lat": 38.933536333333336, "name": "18ef7550b0a2b500b49525d4b8386e61", "fusion_lat": 0.0, "fusion_lon": 0.0, "rental_uris": {"android": "https://dc.lft.to/lastmile_qr_scan", "ios": "https://dc.lft.to/lastmile_qr_scan"}, "is_reserved": 0, "is_disabled": 0, "type": "electric_scooter", "bike_id": "18ef7550b0a2b500b49525d4b8386e61"}, {"lon": -76.986157, "lat": 38.854605, "name": "d5b1c8cb0f35a0b2058d5dbaa777b1a1", "fusion_lat": 0.0, "fusion_lon": 0.0, "rental_uris": {"android": "https://dc.lft.to/lastmile_qr_scan", "ios": "https://dc.lft.to/lastmile_qr_scan"}, "is_reserved": 0, "is_disabled": 0, "type": "electric_scooter", "bike_id": "d5b1c8cb0f35a0b2058d5dbaa777b1a1"}, {"lon": -77.04474716666667, "lat": 38.90035316666667, "name": "9c3c729a527cfa9773498b07492423db", "fusion_lat": 0.0, "fusion_lon": 0.0, "rental_uris": {"android": "https://dc.lft.to/lastmile_qr_scan", "ios": "https://dc.lft.to/lastmile_qr_scan"}, "is_reserved": 0, "is_disabled": 0, "type": "electric_scooter", "bike_id": "9c3c729a527cfa9773498b07492423db"}, {"lon": -77.05280516666667, "lat": 38.910111, "name": "616b6574357669cdefcffd4b92809cf6", "fusion_lat": 0.0, "fusion_lon": 0.0, "rental_uris": {"android": "https://dc.lft.to/lastmile_qr_scan", "ios": "https://dc.lft.to/lastmile_qr_scan"}, "is_reserved": 0, "is_disabled": 0, "type": "electric_scooter", "bike_id": "616b6574357669cdefcffd4b92809cf6"}, {"lon": -76.9732715, "lat": 38.8506435, "name": "29062fa4e152ef35e66c33c299971b1e", "fusion_lat": 0.0, "fusion_lon": 0.0, "rental_uris": {"android": "https://dc.lft.to/lastmile_qr_scan", "ios": "https://dc.lft.to/lastmile_qr_scan"}, "is_reserved": 0, "is_disabled": 0, "type": "electric_bike", "bike_id": "29062fa4e152ef35e66c33c299971b1e"}, {"lon": -77.03659533333334, "lat": 38.92100333333333, "name": "fd7b94432d3341386582f02c4ec242af", "fusion_lat": 0.0, "fusion_lon": 0.0, "rental_uris": {"android": "https://dc.lft.to/lastmile_qr_scan", "ios": "https://dc.lft.to/lastmile_qr_scan"}, "is_reserved": 0, "is_disabled": 0, "type": "electric_scooter", "bike_id": "fd7b94432d3341386582f02c4ec242af"}, {"lon": -77.0219215, "lat": 38.91127016666667, "name": "60e902e9bc5517c79fedd7e541be95ab", "fusion_lat": 0.0, "fusion_lon": 0.0, "rental_uris": {"android": "https://dc.lft.to/lastmile_qr_scan", "ios": "https://dc.lft.to/lastmile_qr_scan"}, "is_reserved": 0, "is_disabled": 0, "type": "electric_scooter", "bike_id": "60e902e9bc5517c79fedd7e541be95ab"}, {"lon": -77.02348816666667, "lat": 38.93211933333333, "name": "89d1bba2e08291f29126745ed36d5c47", "fusion_lat": 0.0, "fusion_lon": 0.0, "rental_uris": {"android": "https://dc.lft.to/lastmile_qr_scan", "ios": "https://dc.lft.to/lastmile_qr_scan"}, "is_reserved": 0, "is_disabled": 0, "type": "electric_bike", "bike_id": "89d1bba2e08291f29126745ed36d5c47"}, {"lon": -77.0381765, "lat": 38.914176833333336, "name": "50e1317f29fbe18533bfea687d5a3bfb", "fusion_lat": 0.0, "fusion_lon": 0.0, "rental_uris": {"android": "https://dc.lft.to/lastmile_qr_scan", "ios": "https://dc.lft.to/lastmile_qr_scan"}, "is_reserved": 0, "is_disabled": 0, "type": "electric_scooter", "bike_id": "50e1317f29fbe18533bfea687d5a3bfb"}, {"lon": -77.02709733333333, "lat": 38.928801666666665, "name": "20f31b4a9a4765715d1111ba8948057a", "fusion_lat": 0.0, "fusion_lon": 0.0, "rental_uris": {"android": "https://dc.lft.to/lastmile_qr_scan", "ios": "https://dc.lft.to/lastmile_qr_scan"}, "is_reserved": 0, "is_disabled": 0, "type": "electric_scooter", "bike_id": "20f31b4a9a4765715d1111ba8948057a"}, {"lon": -77.03770766666666, "lat": 38.9187925, "name": "3f8f4a5e838d5a05d0a122bf2271a34b", "fusion_lat": 0.0, "fusion_lon": 0.0, "rental_uris": {"android": "https://dc.lft.to/lastmile_qr_scan", "ios": "https://dc.lft.to/lastmile_qr_scan"}, "is_reserved": 0, "is_disabled": 0, "type": "electric_scooter", "bike_id": "3f8f4a5e838d5a05d0a122bf2271a34b"}, {"lon": -76.992743, "lat": 38.899811666666665, "name": "3d318dbafeca1dc064ff7a3ee713cc4d", "fusion_lat": 0.0, "fusion_lon": 0.0, "rental_uris": {"android": "https://dc.lft.to/lastmile_qr_scan", "ios": "https://dc.lft.to/lastmile_qr_scan"}, "is_reserved": 0, "is_disabled": 0, "type": "electric_scooter", "bike_id": "3d318dbafeca1dc064ff7a3ee713cc4d"}, {"lon": -77.03736483333333, "lat": 38.928997333333335, "name": "e07da142c356551c80bddd24045e7ace", "fusion_lat": 0.0, "fusion_lon": 0.0, "rental_uris": {"android": "https://dc.lft.to/lastmile_qr_scan", "ios": "https://dc.lft.to/lastmile_qr_scan"}, "is_reserved": 0, "is_disabled": 0, "type": "electric_scooter", "bike_id": "e07da142c356551c80bddd24045e7ace"}, {"lon": -76.9880025, "lat": 38.89232466666667, "name": "9263e24110f05c4c3ae2cd1895ac2866", "fusion_lat": 0.0, "fusion_lon": 0.0, "rental_uris": {"android": "https://dc.lft.to/lastmile_qr_scan", "ios": "https://dc.lft.to/lastmile_qr_scan"}, "is_reserved": 0, "is_disabled": 0, "type": "electric_scooter", "bike_id": "9263e24110f05c4c3ae2cd1895ac2866"}, {"lon": -77.04579016666666, "lat": 38.9000705, "name": "0111701dc35ae2c79690e89e8ab45528", "fusion_lat": 0.0, "fusion_lon": 0.0, "rental_uris": {"android": "https://dc.lft.to/lastmile_qr_scan", "ios": "https://dc.lft.to/lastmile_qr_scan"}, "is_reserved": 0, "is_disabled": 0, "type": "electric_scooter", "bike_id": "0111701dc35ae2c79690e89e8ab45528"}, {"lon": -77.04033783333334, "lat": 38.9171325, "name": "5d4eb7d8b4ffa9d0ea0b1598fa2fa8bc", "fusion_lat": 0.0, "fusion_lon": 0.0, "rental_uris": {"android": "https://dc.lft.to/lastmile_qr_scan", "ios": "https://dc.lft.to/lastmile_qr_scan"}, "is_reserved": 0, "is_disabled": 0, "type": "electric_scooter", "bike_id": "5d4eb7d8b4ffa9d0ea0b1598fa2fa8bc"}, {"lon": -77.039336, "lat": 38.91414733333333, "name": "218c484a33300ecfce93561238782043", "fusion_lat": 0.0, "fusion_lon": 0.0, "rental_uris": {"android": "https://dc.lft.to/lastmile_qr_scan", "ios": "https://dc.lft.to/lastmile_qr_scan"}, "is_reserved": 0, "is_disabled": 0, "type": "electric_scooter", "bike_id": "218c484a33300ecfce93561238782043"}, {"lon": -76.96552416666667, "lat": 38.950978, "name": "09d3936a0506a09cc65c1a4e6c327818", "fusion_lat": 0.0, "fusion_lon": 0.0, "rental_uris": {"android": "https://dc.lft.to/lastmile_qr_scan", "ios": "https://dc.lft.to/lastmile_qr_scan"}, "is_reserved": 0, "is_disabled": 0, "type": "electric_bike", "bike_id": "09d3936a0506a09cc65c1a4e6c327818"}, {"lon": -77.07842716666667, "lat": 38.931402, "name": "928161ad6033e8346dba61a165c793b7", "fusion_lat": 0.0, "fusion_lon": 0.0, "rental_uris": {"android": "https://dc.lft.to/lastmile_qr_scan", "ios": "https://dc.lft.to/lastmile_qr_scan"}, "is_reserved": 0, "is_disabled": 0, "type": "electric_scooter", "bike_id": "928161ad6033e8346dba61a165c793b7"}, {"lon": -77.03211333333333, "lat": 38.914842666666665, "name": "c5fb19dce2d00a440d93649c365be1a0", "fusion_lat": 0.0, "fusion_lon": 0.0, "rental_uris": {"android": "https://dc.lft.to/lastmile_qr_scan", "ios": "https://dc.lft.to/lastmile_qr_scan"}, "is_reserved": 0, "is_disabled": 0, "type": "electric_scooter", "bike_id": "c5fb19dce2d00a440d93649c365be1a0"}, {"lon": -76.96505316666666, "lat": 38.87646633333333, "name": "d556d5ca12c1d0e86f1121631d192ea2", "fusion_lat": 0.0, "fusion_lon": 0.0, "rental_uris": {"android": "https://dc.lft.to/lastmile_qr_scan", "ios": "https://dc.lft.to/lastmile_qr_scan"}, "is_reserved": 0, "is_disabled": 0, "type": "electric_scooter", "bike_id": "d556d5ca12c1d0e86f1121631d192ea2"}, {"lon": -77.01082233333334, "lat": 38.871014, "name": "283a1b0efb4e7ab90099c89d39ac8226", "fusion_lat": 0.0, "fusion_lon": 0.0, "rental_uris": {"android": "https://dc.lft.to/lastmile_qr_scan", "ios": "https://dc.lft.to/lastmile_qr_scan"}, "is_reserved": 0, "is_disabled": 0, "type": "electric_scooter", "bike_id": "283a1b0efb4e7ab90099c89d39ac8226"}, {"lon": -77.10915183333333, "lat": 39.05208416666667, "name": "987a7ef71c754c48b6fef6eeb432750b", "fusion_lat": 0.0, "fusion_lon": 0.0, "rental_uris": {"android": "https://dc.lft.to/lastmile_qr_scan", "ios": "https://dc.lft.to/lastmile_qr_scan"}, "is_reserved": 0, "is_disabled": 0, "type": "electric_bike", "bike_id": "987a7ef71c754c48b6fef6eeb432750b"}, {"lon": -77.023637, "lat": 38.90867, "name": "31bb946a343160b01a5c7d82cd35db1d", "fusion_lat": 0.0, "fusion_lon": 0.0, "rental_uris": {"android": "https://dc.lft.to/lastmile_qr_scan", "ios": "https://dc.lft.to/lastmile_qr_scan"}, "is_reserved": 0, "is_disabled": 0, "type": "electric_scooter", "bike_id": "31bb946a343160b01a5c7d82cd35db1d"}, {"lon": -76.96554933333333, "lat": 38.9184955, "name": "b678db37f9fd982c2593863d709fb6b5", "fusion_lat": 0.0, "fusion_lon": 0.0, "rental_uris": {"android": "https://dc.lft.to/lastmile_qr_scan", "ios": "https://dc.lft.to/lastmile_qr_scan"}, "is_reserved": 0, "is_disabled": 0, "type": "electric_scooter", "bike_id": "b678db37f9fd982c2593863d709fb6b5"}, {"lon": -77.031963, "lat": 38.90031583333333, "name": "f762a78b99c542fba810e5fbc6d8257d", "fusion_lat": 0.0, "fusion_lon": 0.0, "rental_uris": {"android": "https://dc.lft.to/lastmile_qr_scan", "ios": "https://dc.lft.to/lastmile_qr_scan"}, "is_reserved": 0, "is_disabled": 0, "type": "electric_scooter", "bike_id": "f762a78b99c542fba810e5fbc6d8257d"}, {"lon": -77.0056315, "lat": 38.905616, "name": "d67a3169c11418248e35ca6a3a205998", "fusion_lat": 0.0, "fusion_lon": 0.0, "rental_uris": {"android": "https://dc.lft.to/lastmile_qr_scan", "ios": "https://dc.lft.to/lastmile_qr_scan"}, "is_reserved": 0, "is_disabled": 0, "type": "electric_scooter", "bike_id": "d67a3169c11418248e35ca6a3a205998"}, {"lon": -76.99033983333334, "lat": 38.8586975, "name": "1c653d5e26c1ad20616f36ee7daaaa17", "fusion_lat": 0.0, "fusion_lon": 0.0, "rental_uris": {"android": "https://dc.lft.to/lastmile_qr_scan", "ios": "https://dc.lft.to/lastmile_qr_scan"}, "is_reserved": 0, "is_disabled": 0, "type": "electric_scooter", "bike_id": "1c653d5e26c1ad20616f36ee7daaaa17"}, {"lon": -77.02399883333334, "lat": 38.88740216666667, "name": "c803676da71f51e569be68d9c99bcfbb", "fusion_lat": 0.0, "fusion_lon": 0.0, "rental_uris": {"android": "https://dc.lft.to/lastmile_qr_scan", "ios": "https://dc.lft.to/lastmile_qr_scan"}, "is_reserved": 0, "is_disabled": 0, "type": "electric_scooter", "bike_id": "c803676da71f51e569be68d9c99bcfbb"}, {"lon": -77.0438765, "lat": 38.922756166666666, "name": "4ddf492c02ed666ee8233c97494e0c36", "fusion_lat": 0.0, "fusion_lon": 0.0, "rental_uris": {"android": "https://dc.lft.to/lastmile_qr_scan", "ios": "https://dc.lft.to/lastmile_qr_scan"}, "is_reserved": 0, "is_disabled": 0, "type": "electric_scooter", "bike_id": "4ddf492c02ed666ee8233c97494e0c36"}, {"lon": -77.018218, "lat": 38.90814366666667, "name": "b813f6951fd708ffd3a30175e0c7b8f8", "fusion_lat": 0.0, "fusion_lon": 0.0, "rental_uris": {"android": "https://dc.lft.to/lastmile_qr_scan", "ios": "https://dc.lft.to/lastmile_qr_scan"}, "is_reserved": 0, "is_disabled": 0, "type": "electric_scooter", "bike_id": "b813f6951fd708ffd3a30175e0c7b8f8"}, {"lon": -77.03639983333333, "lat": 38.949131333333334, "name": "33d7911219f5ad0ca2e305d1ad7f4462", "fusion_lat": 0.0, "fusion_lon": 0.0, "rental_uris": {"android": "https://dc.lft.to/lastmile_qr_scan", "ios": "https://dc.lft.to/lastmile_qr_scan"}, "is_reserved": 0, "is_disabled": 0, "type": "electric_scooter", "bike_id": "33d7911219f5ad0ca2e305d1ad7f4462"}, {"lon": -77.0034565, "lat": 38.891577166666664, "name": "e1a67bb15471f122a8399bcdfc40c423", "fusion_lat": 0.0, "fusion_lon": 0.0, "rental_uris": {"android": "https://dc.lft.to/lastmile_qr_scan", "ios": "https://dc.lft.to/lastmile_qr_scan"}, "is_reserved": 0, "is_disabled": 0, "type": "electric_scooter", "bike_id": "e1a67bb15471f122a8399bcdfc40c423"}, {"lon": -77.03331216666666, "lat": 38.92749366666666, "name": "906943932663b7e67b1179deca6d80e5", "fusion_lat": 0.0, "fusion_lon": 0.0, "rental_uris": {"android": "https://dc.lft.to/lastmile_qr_scan", "ios": "https://dc.lft.to/lastmile_qr_scan"}, "is_reserved": 0, "is_disabled": 0, "type": "electric_scooter", "bike_id": "906943932663b7e67b1179deca6d80e5"}, {"lon": -77.19905783333333, "lat": 38.875287666666665, "name": "49a0d46ce72f1c613033d0626d83ecaa", "fusion_lat": 0.0, "fusion_lon": 0.0, "rental_uris": {"android": "https://dc.lft.to/lastmile_qr_scan", "ios": "https://dc.lft.to/lastmile_qr_scan"}, "is_reserved": 0, "is_disabled": 0, "type": "electric_bike", "bike_id": "49a0d46ce72f1c613033d0626d83ecaa"}, {"lon": -77.04173933333334, "lat": 38.919109666666664, "name": "1b9481a79138de95c3c0c8bc1d4c24db", "fusion_lat": 0.0, "fusion_lon": 0.0, "rental_uris": {"android": "https://dc.lft.to/lastmile_qr_scan", "ios": "https://dc.lft.to/lastmile_qr_scan"}, "is_reserved": 0, "is_disabled": 0, "type": "electric_scooter", "bike_id": "1b9481a79138de95c3c0c8bc1d4c24db"}, {"lon": -77.07479316666667, "lat": 38.90665283333333, "name": "669902f51fcd31b0a92290834ee33c68", "fusion_lat": 0.0, "fusion_lon": 0.0, "rental_uris": {"android": "https://dc.lft.to/lastmile_qr_scan", "ios": "https://dc.lft.to/lastmile_qr_scan"}, "is_reserved": 0, "is_disabled": 0, "type": "electric_scooter", "bike_id": "669902f51fcd31b0a92290834ee33c68"}, {"lon": -77.01758866666667, "lat": 38.902711, "name": "35b72806f1730e883b76c94b3b3838b5", "fusion_lat": 0.0, "fusion_lon": 0.0, "rental_uris": {"android": "https://dc.lft.to/lastmile_qr_scan", "ios": "https://dc.lft.to/lastmile_qr_scan"}, "is_reserved": 0, "is_disabled": 0, "type": "electric_scooter", "bike_id": "35b72806f1730e883b76c94b3b3838b5"}, {"lon": -77.09028466666666, "lat": 38.84118483333334, "name": "948b8a2aa3cb5e2de2a0fffb3a76b1ed", "fusion_lat": 0.0, "fusion_lon": 0.0, "rental_uris": {"android": "https://dc.lft.to/lastmile_qr_scan", "ios": "https://dc.lft.to/lastmile_qr_scan"}, "is_reserved": 0, "is_disabled": 0, "type": "electric_bike", "bike_id": "948b8a2aa3cb5e2de2a0fffb3a76b1ed"}, {"lon": -77.06656633333333, "lat": 38.905189, "name": "39377b9a14547b015cd9d8792750e6b4", "fusion_lat": 0.0, "fusion_lon": 0.0, "rental_uris": {"android": "https://dc.lft.to/lastmile_qr_scan", "ios": "https://dc.lft.to/lastmile_qr_scan"}, "is_reserved": 0, "is_disabled": 0, "type": "electric_scooter", "bike_id": "39377b9a14547b015cd9d8792750e6b4"}, {"lon": -77.04174316666666, "lat": 38.917323333333336, "name": "af08396a4c6b7bdeb6fe80f746ccab80", "fusion_lat": 0.0, "fusion_lon": 0.0, "rental_uris": {"android": "https://dc.lft.to/lastmile_qr_scan", "ios": "https://dc.lft.to/lastmile_qr_scan"}, "is_reserved": 0, "is_disabled": 0, "type": "electric_scooter", "bike_id": "af08396a4c6b7bdeb6fe80f746ccab80"}, {"lon": -77.149837, "lat": 39.09459583333334, "name": "e75872f0e4fd1cded81a18dfa60b3020", "fusion_lat": 0.0, "fusion_lon": 0.0, "rental_uris": {"android": "https://dc.lft.to/lastmile_qr_scan", "ios": "https://dc.lft.to/lastmile_qr_scan"}, "is_reserved": 0, "is_disabled": 0, "type": "electric_bike", "bike_id": "e75872f0e4fd1cded81a18dfa60b3020"}, {"lon": -77.02303433333333, "lat": 38.917814, "name": "d6274c7566e42b0ccaaf95df12c245ac", "fusion_lat": 0.0, "fusion_lon": 0.0, "rental_uris": {"android": "https://dc.lft.to/lastmile_qr_scan", "ios": "https://dc.lft.to/lastmile_qr_scan"}, "is_reserved": 0, "is_disabled": 0, "type": "electric_scooter", "bike_id": "d6274c7566e42b0ccaaf95df12c245ac"}, {"lon": -77.0198755, "lat": 38.90476066666667, "name": "18e71e5b138641a323306cba042cfb17", "fusion_lat": 0.0, "fusion_lon": 0.0, "rental_uris": {"android": "https://dc.lft.to/lastmile_qr_scan", "ios": "https://dc.lft.to/lastmile_qr_scan"}, "is_reserved": 0, "is_disabled": 0, "type": "electric_scooter", "bike_id": "18e71e5b138641a323306cba042cfb17"}, {"lon": -76.99868416666666, "lat": 38.9002845, "name": "18a2e43c037a80c2c13bfa879261ee78", "fusion_lat": 0.0, "fusion_lon": 0.0, "rental_uris": {"android": "https://dc.lft.to/lastmile_qr_scan", "ios": "https://dc.lft.to/lastmile_qr_scan"}, "is_reserved": 0, "is_disabled": 0, "type": "electric_scooter", "bike_id": "18a2e43c037a80c2c13bfa879261ee78"}, {"lon": -76.990018, "lat": 38.865048, "name": "5b68d5bba81c17ed33c44c55ebaa9ddf", "fusion_lat": 0.0, "fusion_lon": 0.0, "rental_uris": {"android": "https://dc.lft.to/lastmile_qr_scan", "ios": "https://dc.lft.to/lastmile_qr_scan"}, "is_reserved": 0, "is_disabled": 0, "type": "electric_scooter", "bike_id": "5b68d5bba81c17ed33c44c55ebaa9ddf"}, {"lon": -76.99416266666667, "lat": 38.90139, "name": "653931b687c823f2e1f155e3f0b45da4", "fusion_lat": 0.0, "fusion_lon": 0.0, "rental_uris": {"android": "https://dc.lft.to/lastmile_qr_scan", "ios": "https://dc.lft.to/lastmile_qr_scan"}, "is_reserved": 0, "is_disabled": 0, "type": "electric_scooter", "bike_id": "653931b687c823f2e1f155e3f0b45da4"}, {"lon": -76.976594, "lat": 38.89854483333333, "name": "32b52da9e4b128c3203175190b7a32e1", "fusion_lat": 0.0, "fusion_lon": 0.0, "rental_uris": {"android": "https://dc.lft.to/lastmile_qr_scan", "ios": "https://dc.lft.to/lastmile_qr_scan"}, "is_reserved": 0, "is_disabled": 0, "type": "electric_scooter", "bike_id": "32b52da9e4b128c3203175190b7a32e1"}, {"lon": -77.024198, "lat": 38.934843, "name": "7bde294ddcba58151e3b87c25366d815", "fusion_lat": 0.0, "fusion_lon": 0.0, "rental_uris": {"android": "https://dc.lft.to/lastmile_qr_scan", "ios": "https://dc.lft.to/lastmile_qr_scan"}, "is_reserved": 0, "is_disabled": 0, "type": "electric_scooter", "bike_id": "7bde294ddcba58151e3b87c25366d815"}, {"lon": -76.9343145, "lat": 38.89963866666667, "name": "82dc8b1b84a2ecffde010446894d3fe2", "fusion_lat": 0.0, "fusion_lon": 0.0, "rental_uris": {"android": "https://dc.lft.to/lastmile_qr_scan", "ios": "https://dc.lft.to/lastmile_qr_scan"}, "is_reserved": 0, "is_disabled": 0, "type": "electric_scooter", "bike_id": "82dc8b1b84a2ecffde010446894d3fe2"}, {"lon": -77.0514455, "lat": 38.90801366666667, "name": "e496a2c4449a29aead5fb45462199bbe", "fusion_lat": 0.0, "fusion_lon": 0.0, "rental_uris": {"android": "https://dc.lft.to/lastmile_qr_scan", "ios": "https://dc.lft.to/lastmile_qr_scan"}, "is_reserved": 0, "is_disabled": 0, "type": "electric_scooter", "bike_id": "e496a2c4449a29aead5fb45462199bbe"}, {"lon": -77.01455666666666, "lat": 38.914752166666666, "name": "d495f52b0cb1b120a9fe3361bd948cd2", "fusion_lat": 0.0, "fusion_lon": 0.0, "rental_uris": {"android": "https://dc.lft.to/lastmile_qr_scan", "ios": "https://dc.lft.to/lastmile_qr_scan"}, "is_reserved": 0, "is_disabled": 0, "type": "electric_scooter", "bike_id": "d495f52b0cb1b120a9fe3361bd948cd2"}, {"lon": -77.02647366666666, "lat": 38.90237166666667, "name": "9984c35689edfe2bc35155a97cdf15c2", "fusion_lat": 0.0, "fusion_lon": 0.0, "rental_uris": {"android": "https://dc.lft.to/lastmile_qr_scan", "ios": "https://dc.lft.to/lastmile_qr_scan"}, "is_reserved": 0, "is_disabled": 0, "type": "electric_scooter", "bike_id": "9984c35689edfe2bc35155a97cdf15c2"}, {"lon": -77.0283675, "lat": 38.89243333333334, "name": "9527c3baaf0244054f365fbae3d13fc1", "fusion_lat": 0.0, "fusion_lon": 0.0, "rental_uris": {"android": "https://dc.lft.to/lastmile_qr_scan", "ios": "https://dc.lft.to/lastmile_qr_scan"}, "is_reserved": 0, "is_disabled": 0, "type": "electric_scooter", "bike_id": "9527c3baaf0244054f365fbae3d13fc1"}, {"lon": -77.06474966666667, "lat": 38.97382416666667, "name": "482cd33738ba13d9d2e345aee15f4a27", "fusion_lat": 0.0, "fusion_lon": 0.0, "rental_uris": {"android": "https://dc.lft.to/lastmile_qr_scan", "ios": "https://dc.lft.to/lastmile_qr_scan"}, "is_reserved": 0, "is_disabled": 0, "type": "electric_bike", "bike_id": "482cd33738ba13d9d2e345aee15f4a27"}, {"lon": -76.99170716666667, "lat": 38.8792735, "name": "5c4d9061de198d943fc2b26d37667c63", "fusion_lat": 0.0, "fusion_lon": 0.0, "rental_uris": {"android": "https://dc.lft.to/lastmile_qr_scan", "ios": "https://dc.lft.to/lastmile_qr_scan"}, "is_reserved": 0, "is_disabled": 0, "type": "electric_scooter", "bike_id": "5c4d9061de198d943fc2b26d37667c63"}, {"lon": -77.03864933333334, "lat": 38.912537, "name": "8da67b6fcae7b0607352914483afa025", "fusion_lat": 0.0, "fusion_lon": 0.0, "rental_uris": {"android": "https://dc.lft.to/lastmile_qr_scan", "ios": "https://dc.lft.to/lastmile_qr_scan"}, "is_reserved": 0, "is_disabled": 0, "type": "electric_scooter", "bike_id": "8da67b6fcae7b0607352914483afa025"}, {"lon": -76.99877016666667, "lat": 38.90752883333333, "name": "eff13523777e9dbddde22b9f3ff80ddf", "fusion_lat": 0.0, "fusion_lon": 0.0, "rental_uris": {"android": "https://dc.lft.to/lastmile_qr_scan", "ios": "https://dc.lft.to/lastmile_qr_scan"}, "is_reserved": 0, "is_disabled": 0, "type": "electric_scooter", "bike_id": "eff13523777e9dbddde22b9f3ff80ddf"}, {"lon": -77.03862616666666, "lat": 38.912502833333335, "name": "c95e36499211c6ee95629060e6d43ad4", "fusion_lat": 0.0, "fusion_lon": 0.0, "rental_uris": {"android": "https://dc.lft.to/lastmile_qr_scan", "ios": "https://dc.lft.to/lastmile_qr_scan"}, "is_reserved": 0, "is_disabled": 0, "type": "electric_scooter", "bike_id": "c95e36499211c6ee95629060e6d43ad4"}, {"lon": -77.0292445, "lat": 38.910303666666664, "name": "a3a34ee1b613c7c9e8699b1fefb68945", "fusion_lat": 0.0, "fusion_lon": 0.0, "rental_uris": {"android": "https://dc.lft.to/lastmile_qr_scan", "ios": "https://dc.lft.to/lastmile_qr_scan"}, "is_reserved": 0, "is_disabled": 0, "type": "electric_scooter", "bike_id": "a3a34ee1b613c7c9e8699b1fefb68945"}, {"lon": -76.99869699999999, "lat": 38.900296, "name": "eefe12e91be36c2716cf9cf9375b1c11", "fusion_lat": 0.0, "fusion_lon": 0.0, "rental_uris": {"android": "https://dc.lft.to/lastmile_qr_scan", "ios": "https://dc.lft.to/lastmile_qr_scan"}, "is_reserved": 0, "is_disabled": 0, "type": "electric_scooter", "bike_id": "eefe12e91be36c2716cf9cf9375b1c11"}, {"lon": -77.03449366666666, "lat": 38.904799833333335, "name": "c292d9c266ae22a1849cbc5594e57b71", "fusion_lat": 0.0, "fusion_lon": 0.0, "rental_uris": {"android": "https://dc.lft.to/lastmile_qr_scan", "ios": "https://dc.lft.to/lastmile_qr_scan"}, "is_reserved": 0, "is_disabled": 0, "type": "electric_scooter", "bike_id": "c292d9c266ae22a1849cbc5594e57b71"}, {"lon": -76.96553266666666, "lat": 38.918441, "name": "c8ce1fdeaff5d45653ded3de5158ae23", "fusion_lat": 0.0, "fusion_lon": 0.0, "rental_uris": {"android": "https://dc.lft.to/lastmile_qr_scan", "ios": "https://dc.lft.to/lastmile_qr_scan"}, "is_reserved": 0, "is_disabled": 0, "type": "electric_scooter", "bike_id": "c8ce1fdeaff5d45653ded3de5158ae23"}, {"lon": -77.03166133333333, "lat": 38.9141555, "name": "3313947cd199b2fdad238349ed34e578", "fusion_lat": 0.0, "fusion_lon": 0.0, "rental_uris": {"android": "https://dc.lft.to/lastmile_qr_scan", "ios": "https://dc.lft.to/lastmile_qr_scan"}, "is_reserved": 0, "is_disabled": 0, "type": "electric_scooter", "bike_id": "3313947cd199b2fdad238349ed34e578"}, {"lon": -77.03382333333333, "lat": 38.92148916666667, "name": "d624e6683e34bc4b63959f62a3e79308", "fusion_lat": 0.0, "fusion_lon": 0.0, "rental_uris": {"android": "https://dc.lft.to/lastmile_qr_scan", "ios": "https://dc.lft.to/lastmile_qr_scan"}, "is_reserved": 0, "is_disabled": 0, "type": "electric_scooter", "bike_id": "d624e6683e34bc4b63959f62a3e79308"}, {"lon": -77.01507233333334, "lat": 38.91346, "name": "f299a729e27616838c4fa403caf5ea82", "fusion_lat": 0.0, "fusion_lon": 0.0, "rental_uris": {"android": "https://dc.lft.to/lastmile_qr_scan", "ios": "https://dc.lft.to/lastmile_qr_scan"}, "is_reserved": 0, "is_disabled": 0, "type": "electric_scooter", "bike_id": "f299a729e27616838c4fa403caf5ea82"}, {"lon": -76.998708, "lat": 38.900317666666666, "name": "d04494ed7c02f3563dd36788e3c0d226", "fusion_lat": 0.0, "fusion_lon": 0.0, "rental_uris": {"android": "https://dc.lft.to/lastmile_qr_scan", "ios": "https://dc.lft.to/lastmile_qr_scan"}, "is_reserved": 0, "is_disabled": 0, "type": "electric_scooter", "bike_id": "d04494ed7c02f3563dd36788e3c0d226"}, {"lon": -76.99412583333333, "lat": 38.87781233333333, "name": "c165fedfd476df37d0d80f0144b2d51a", "fusion_lat": 0.0, "fusion_lon": 0.0, "rental_uris": {"android": "https://dc.lft.to/lastmile_qr_scan", "ios": "https://dc.lft.to/lastmile_qr_scan"}, "is_reserved": 0, "is_disabled": 0, "type": "electric_scooter", "bike_id": "c165fedfd476df37d0d80f0144b2d51a"}, {"lon": -77.05294566666667, "lat": 38.8988385, "name": "35a36ba9b64ff1e739148003c7c64d02", "fusion_lat": 0.0, "fusion_lon": 0.0, "rental_uris": {"android": "https://dc.lft.to/lastmile_qr_scan", "ios": "https://dc.lft.to/lastmile_qr_scan"}, "is_reserved": 0, "is_disabled": 0, "type": "electric_scooter", "bike_id": "35a36ba9b64ff1e739148003c7c64d02"}, {"lon": -77.04151666666667, "lat": 38.9196535, "name": "5a2d1e226f75c64609352cce25dc80a7", "fusion_lat": 0.0, "fusion_lon": 0.0, "rental_uris": {"android": "https://dc.lft.to/lastmile_qr_scan", "ios": "https://dc.lft.to/lastmile_qr_scan"}, "is_reserved": 0, "is_disabled": 0, "type": "electric_scooter", "bike_id": "5a2d1e226f75c64609352cce25dc80a7"}, {"lon": -77.0373475, "lat": 38.933690166666665, "name": "dcd85659eed3639f00fa0995c9a21d38", "fusion_lat": 0.0, "fusion_lon": 0.0, "rental_uris": {"android": "https://dc.lft.to/lastmile_qr_scan", "ios": "https://dc.lft.to/lastmile_qr_scan"}, "is_reserved": 0, "is_disabled": 0, "type": "electric_scooter", "bike_id": "dcd85659eed3639f00fa0995c9a21d38"}, {"lon": -77.02702933333333, "lat": 38.91820716666667, "name": "1748aa8dc97394cb483a79dd1e4120e4", "fusion_lat": 0.0, "fusion_lon": 0.0, "rental_uris": {"android": "https://dc.lft.to/lastmile_qr_scan", "ios": "https://dc.lft.to/lastmile_qr_scan"}, "is_reserved": 0, "is_disabled": 0, "type": "electric_scooter", "bike_id": "1748aa8dc97394cb483a79dd1e4120e4"}, {"lon": -76.97625466666666, "lat": 38.89283983333333, "name": "666181859eaee4f2cd3d64c29db09982", "fusion_lat": 0.0, "fusion_lon": 0.0, "rental_uris": {"android": "https://dc.lft.to/lastmile_qr_scan", "ios": "https://dc.lft.to/lastmile_qr_scan"}, "is_reserved": 0, "is_disabled": 0, "type": "electric_bike", "bike_id": "666181859eaee4f2cd3d64c29db09982"}, {"lon": -77.03205266666667, "lat": 38.90762383333333, "name": "c9e9b11a57bc7b9bb316b1d19b1fe654", "fusion_lat": 0.0, "fusion_lon": 0.0, "rental_uris": {"android": "https://dc.lft.to/lastmile_qr_scan", "ios": "https://dc.lft.to/lastmile_qr_scan"}, "is_reserved": 0, "is_disabled": 0, "type": "electric_scooter", "bike_id": "c9e9b11a57bc7b9bb316b1d19b1fe654"}, {"lon": -77.01767966666667, "lat": 38.900312166666666, "name": "ad60b7295ad4c8e2c65240e09c0c72a4", "fusion_lat": 0.0, "fusion_lon": 0.0, "rental_uris": {"android": "https://dc.lft.to/lastmile_qr_scan", "ios": "https://dc.lft.to/lastmile_qr_scan"}, "is_reserved": 0, "is_disabled": 0, "type": "electric_scooter", "bike_id": "ad60b7295ad4c8e2c65240e09c0c72a4"}, {"lon": -77.0097965, "lat": 38.95348166666667, "name": "d8c43d2fcc44e31dfac0a547ba756d31", "fusion_lat": 0.0, "fusion_lon": 0.0, "rental_uris": {"android": "https://dc.lft.to/lastmile_qr_scan", "ios": "https://dc.lft.to/lastmile_qr_scan"}, "is_reserved": 0, "is_disabled": 0, "type": "electric_bike", "bike_id": "d8c43d2fcc44e31dfac0a547ba756d31"}, {"lon": -76.98077716666667, "lat": 38.901750666666665, "name": "5f713d66bb717c2512b9c64960a3a8f3", "fusion_lat": 0.0, "fusion_lon": 0.0, "rental_uris": {"android": "https://dc.lft.to/lastmile_qr_scan", "ios": "https://dc.lft.to/lastmile_qr_scan"}, "is_reserved": 0, "is_disabled": 0, "type": "electric_scooter", "bike_id": "5f713d66bb717c2512b9c64960a3a8f3"}, {"lon": -76.98607016666666, "lat": 38.899190833333336, "name": "5ab6225dcded8918120a244ed0cdad9d", "fusion_lat": 0.0, "fusion_lon": 0.0, "rental_uris": {"android": "https://dc.lft.to/lastmile_qr_scan", "ios": "https://dc.lft.to/lastmile_qr_scan"}, "is_reserved": 0, "is_disabled": 0, "type": "electric_scooter", "bike_id": "5ab6225dcded8918120a244ed0cdad9d"}, {"lon": -77.0639195, "lat": 38.92906983333334, "name": "188fa73f64a5bbf0f27ecd369cd632d9", "fusion_lat": 0.0, "fusion_lon": 0.0, "rental_uris": {"android": "https://dc.lft.to/lastmile_qr_scan", "ios": "https://dc.lft.to/lastmile_qr_scan"}, "is_reserved": 0, "is_disabled": 0, "type": "electric_scooter", "bike_id": "188fa73f64a5bbf0f27ecd369cd632d9"}, {"lon": -77.03078783333333, "lat": 38.90998366666667, "name": "57a59ef610766c121366e0c705f7e3e1", "fusion_lat": 0.0, "fusion_lon": 0.0, "rental_uris": {"android": "https://dc.lft.to/lastmile_qr_scan", "ios": "https://dc.lft.to/lastmile_qr_scan"}, "is_reserved": 0, "is_disabled": 0, "type": "electric_scooter", "bike_id": "57a59ef610766c121366e0c705f7e3e1"}, {"lon": -77.01981516666666, "lat": 38.90475083333333, "name": "0b4535f0a8141ff29829b171d0c097d9", "fusion_lat": 0.0, "fusion_lon": 0.0, "rental_uris": {"android": "https://dc.lft.to/lastmile_qr_scan", "ios": "https://dc.lft.to/lastmile_qr_scan"}, "is_reserved": 0, "is_disabled": 0, "type": "electric_scooter", "bike_id": "0b4535f0a8141ff29829b171d0c097d9"}, {"lon": -77.03695483333334, "lat": 38.916939666666664, "name": "354031999bed33f2d9feea8a7f1a2252", "fusion_lat": 0.0, "fusion_lon": 0.0, "rental_uris": {"android": "https://dc.lft.to/lastmile_qr_scan", "ios": "https://dc.lft.to/lastmile_qr_scan"}, "is_reserved": 0, "is_disabled": 0, "type": "electric_scooter", "bike_id": "354031999bed33f2d9feea8a7f1a2252"}, {"lon": -77.03524083333333, "lat": 38.92729683333334, "name": "3706765824802b34010b523f92ce2428", "fusion_lat": 0.0, "fusion_lon": 0.0, "rental_uris": {"android": "https://dc.lft.to/lastmile_qr_scan", "ios": "https://dc.lft.to/lastmile_qr_scan"}, "is_reserved": 0, "is_disabled": 0, "type": "electric_scooter", "bike_id": "3706765824802b34010b523f92ce2428"}, {"lon": -77.02120433333333, "lat": 38.937001333333335, "name": "465f364dba9242149d8fcf77a2f5122e", "fusion_lat": 0.0, "fusion_lon": 0.0, "rental_uris": {"android": "https://dc.lft.to/lastmile_qr_scan", "ios": "https://dc.lft.to/lastmile_qr_scan"}, "is_reserved": 0, "is_disabled": 0, "type": "electric_scooter", "bike_id": "465f364dba9242149d8fcf77a2f5122e"}, {"lon": -77.02614833333334, "lat": 38.892904, "name": "ba3baabaab584ea9d14a5f9ce59aed3d", "fusion_lat": 0.0, "fusion_lon": 0.0, "rental_uris": {"android": "https://dc.lft.to/lastmile_qr_scan", "ios": "https://dc.lft.to/lastmile_qr_scan"}, "is_reserved": 0, "is_disabled": 0, "type": "electric_scooter", "bike_id": "ba3baabaab584ea9d14a5f9ce59aed3d"}, {"lon": -77.0370085, "lat": 38.926438166666664, "name": "f4f7651e793c833e96b75d91eaf75ebc", "fusion_lat": 0.0, "fusion_lon": 0.0, "rental_uris": {"android": "https://dc.lft.to/lastmile_qr_scan", "ios": "https://dc.lft.to/lastmile_qr_scan"}, "is_reserved": 0, "is_disabled": 0, "type": "electric_scooter", "bike_id": "f4f7651e793c833e96b75d91eaf75ebc"}, {"lon": -77.040396, "lat": 38.92308883333333, "name": "7265f86e867ac88069939af337693514", "fusion_lat": 0.0, "fusion_lon": 0.0, "rental_uris": {"android": "https://dc.lft.to/lastmile_qr_scan", "ios": "https://dc.lft.to/lastmile_qr_scan"}, "is_reserved": 0, "is_disabled": 0, "type": "electric_scooter", "bike_id": "7265f86e867ac88069939af337693514"}, {"lon": -77.0084205, "lat": 38.915537666666665, "name": "a5bbc7579f663fd3209c214b66028b44", "fusion_lat": 0.0, "fusion_lon": 0.0, "rental_uris": {"android": "https://dc.lft.to/lastmile_qr_scan", "ios": "https://dc.lft.to/lastmile_qr_scan"}, "is_reserved": 0, "is_disabled": 0, "type": "electric_scooter", "bike_id": "a5bbc7579f663fd3209c214b66028b44"}, {"lon": -76.9053545, "lat": 38.89733783333333, "name": "f940d04b8201e97cc85c5bb1764f3984", "fusion_lat": 0.0, "fusion_lon": 0.0, "rental_uris": {"android": "https://dc.lft.to/lastmile_qr_scan", "ios": "https://dc.lft.to/lastmile_qr_scan"}, "is_reserved": 0, "is_disabled": 0, "type": "electric_bike", "bike_id": "f940d04b8201e97cc85c5bb1764f3984"}, {"lon": -76.96102866666666, "lat": 38.94961033333333, "name": "518511d8e710b81d8e147e1231949e5a", "fusion_lat": 0.0, "fusion_lon": 0.0, "rental_uris": {"android": "https://dc.lft.to/lastmile_qr_scan", "ios": "https://dc.lft.to/lastmile_qr_scan"}, "is_reserved": 0, "is_disabled": 0, "type": "electric_bike", "bike_id": "518511d8e710b81d8e147e1231949e5a"}, {"lon": -77.04690766666667, "lat": 38.921021833333334, "name": "1d099034b6b85113ded4c57609c20f93", "fusion_lat": 0.0, "fusion_lon": 0.0, "rental_uris": {"android": "https://dc.lft.to/lastmile_qr_scan", "ios": "https://dc.lft.to/lastmile_qr_scan"}, "is_reserved": 0, "is_disabled": 0, "type": "electric_scooter", "bike_id": "1d099034b6b85113ded4c57609c20f93"}, {"lon": -77.03869783333333, "lat": 38.90978483333333, "name": "f82da297f740970be536b5372a447906", "fusion_lat": 0.0, "fusion_lon": 0.0, "rental_uris": {"android": "https://dc.lft.to/lastmile_qr_scan", "ios": "https://dc.lft.to/lastmile_qr_scan"}, "is_reserved": 0, "is_disabled": 0, "type": "electric_scooter", "bike_id": "f82da297f740970be536b5372a447906"}, {"lon": -76.909569, "lat": 38.85412916666667, "name": "fdfe6d5a3f4e0f0a0e1788d560b776ce", "fusion_lat": 0.0, "fusion_lon": 0.0, "rental_uris": {"android": "https://dc.lft.to/lastmile_qr_scan", "ios": "https://dc.lft.to/lastmile_qr_scan"}, "is_reserved": 0, "is_disabled": 0, "type": "electric_bike", "bike_id": "fdfe6d5a3f4e0f0a0e1788d560b776ce"}, {"lon": -77.01869083333334, "lat": 38.887441833333334, "name": "20d35a21fc9e0fca80646c568abfe35a", "fusion_lat": 0.0, "fusion_lon": 0.0, "rental_uris": {"android": "https://dc.lft.to/lastmile_qr_scan", "ios": "https://dc.lft.to/lastmile_qr_scan"}, "is_reserved": 0, "is_disabled": 0, "type": "electric_scooter", "bike_id": "20d35a21fc9e0fca80646c568abfe35a"},