{"data": {"bikes": [{"fusion_lat": 0.0, "type": "electric_scooter", "name": "bda377d77a3e4e512c24f064d9643c48", "fusion_lon": 0.0, "bike_id": "bda377d77a3e4e512c24f064d9643c48", "is_reserved": 0, "rental_uris": {"android": "https://dc.lft.to/lastmile_qr_scan", "ios": "https://dc.lft.to/lastmile_qr_scan"}, "lat": 38.89241216666667, "is_disabled": 0, "lon": -77.033523}, {"fusion_lat": 0.0, "type": "electric_scooter", "name": "c8db1780d9fc4609c9e4ac86764a58bc", "fusion_lon": 0.0, "bike_id": "c8db1780d9fc4609c9e4ac86764a58bc", "is_reserved": 0, "rental_uris": {"android": "https://dc.lft.to/lastmile_qr_scan", "ios": "https://dc.lft.to/lastmile_qr_scan"}, "lat": 38.9408915, "is_disabled": 0, "lon": -77.027556}, {"fusion_lat": 0.0, "type": "electric_scooter", "name": "2c9aec81b613b76bc1833546fe06072b", "fusion_lon": 0.0, "bike_id": "2c9aec81b613b76bc1833546fe06072b", "is_reserved": 0, "rental_uris": {"android": "https://dc.lft.to/lastmile_qr_scan", "ios": "https://dc.lft.to/lastmile_qr_scan"}, "lat": 38.95275916666667, "is_disabled": 0, "lon": -77.06974766666667}, {"fusion_lat": 0.0, "type": "electric_scooter", "name": "a3d72e0df7b21260afe4527c2d124164", "fusion_lon": 0.0, "bike_id": "a3d72e0df7b21260afe4527c2d124164", "is_reserved": 0, "rental_uris": {"android": "https://dc.lft.to/lastmile_qr_scan", "ios": "https://dc.lft.to/lastmile_qr_scan"}, "lat": 38.9432695, "is_disabled": 0, "lon": -77.0268185}, {"fusion_lat": 0.0, "type": "electric_scooter", "name": "bb0aba5a2f34a7adf78885bcac1009b7", "fusion_lon": 0.0, "bike_id": "bb0aba5a2f34a7adf78885bcac1009b7", "is_reserved": 0, "rental_uris": {"android": "https://dc.lft.to/lastmile_qr_scan", "ios": "https://dc.lft.to/lastmile_qr_scan"}, "lat": 38.9195485, "is_disabled": 0, "lon": -77.02359533333333}, {"fusion_lat": 0.0, "type": "electric_scooter", "name": "3b2b880ddee5a9901309f186ee503fba", "fusion_lon": 0.0, "bike_id": "3b2b880ddee5a9901309f186ee503fba", "is_reserved": 0, "rental_uris": {"android": "https://dc.lft.to/lastmile_qr_scan", "ios": "https://dc.lft.to/lastmile_qr_scan"}, "lat": 38.90616133333333, "is_disabled": 0, "lon": -76.986843}, {"fusion_lat": 0.0, "type": "electric_scooter", "name": "5c2cabd4d02fabf625624fa6d3a66cf9", "fusion_lon": 0.0, "bike_id": "5c2cabd4d02fabf625624fa6d3a66cf9", "is_reserved": 0, "rental_uris": {"android": "https://dc.lft.to/lastmile_qr_scan", "ios": "https://dc.lft.to/lastmile_qr_scan"}, "lat": 38.9032305, "is_disabled": 0, "lon": -76.991161}, {"fusion_lat": 0.0, "type": "electric_scooter", "name": "3c24b86f51c228bb04d7c564dce5230e", "fusion_lon": 0.0, "bike_id": "3c24b86f51c228bb04d7c564dce5230e", "is_reserved": 0, "rental_uris": {"android": "https://dc.lft.to/lastmile_qr_scan", "ios": "https://dc.lft.to/lastmile_qr_scan"}, "lat": 38.924775333333336, "is_disabled": 0, "lon": -77.04156566666667}, {"fusion_lat": 0.0, "type": "electric_scooter", "name": "a671aca57e2a673f4f797bd65da4e571", "fusion_lon": 0.0, "bike_id": "a671aca57e2a673f4f797bd65da4e571", "is_reserved": 0, "rental_uris": {"android": "https://dc.lft.to/lastmile_qr_scan", "ios": "https://dc.lft.to/lastmile_qr_scan"}, "lat": 38.874654, "is_disabled": 0, "lon": -77.018929}, {"fusion_lat": 0.0, "type": "electric_bike", "name": "ee50b9663a8d2150ece82ede250e1a21", "fusion_lon": 0.0, "bike_id": "ee50b9663a8d2150ece82ede250e1a21", "is_reserved": 0, "rental_uris": {"android": "https://dc.lft.to/lastmile_qr_scan", "ios": "https://dc.lft.to/lastmile_qr_scan"}, "lat": 38.9002905, "is_disabled": 0, "lon": -76.97220733333333}, {"fusion_lat": 0.0, "type": "electric_scooter", "name": "efd35dff096fc22aab6982dd3698806d", "fusion_lon": 0.0, "bike_id": "efd35dff096fc22aab6982dd3698806d", "is_reserved": 0, "rental_uris": {"android": "https://dc.lft.to/lastmile_qr_scan", "ios": "https://dc.lft.to/lastmile_qr_scan"}, "lat": 38.91678133333333, "is_disabled": 0, "lon": -77.02302216666666}, {"fusion_lat": 0.0, "type": "electric_scooter", "name": "0aaa3195ef9d556e004cdfa8694273fc", "fusion_lon": 0.0, "bike_id": "0aaa3195ef9d556e004cdfa8694273fc", "is_reserved": 0, "rental_uris": {"android": "https://dc.lft.to/lastmile_qr_scan", "ios": "https://dc.lft.to/lastmile_qr_scan"}, "lat": 38.91413633333333, "is_disabled": 0, "lon": -77.04911966666667}, {"fusion_lat": 0.0, "type": "electric_scooter", "name": "52e9c7bfa9818187ca625dccbbd599b1", "fusion_lon": 0.0, "bike_id": "52e9c7bfa9818187ca625dccbbd599b1", "is_reserved": 0, "rental_uris": {"android": "https://dc.lft.to/lastmile_qr_scan", "ios": "https://dc.lft.to/lastmile_qr_scan"}, "lat": 38.8728775, "is_disabled": 0, "lon": -77.00983483333333}, {"fusion_lat": 0.0, "type": "electric_scooter", "name": "9652b541fd2efbadd365ce1e95c3be78", "fusion_lon": 0.0, "bike_id": "9652b541fd2efbadd365ce1e95c3be78", "is_reserved": 0, "rental_uris": {"android": "https://dc.lft.to/lastmile_qr_scan", "ios": "https://dc.lft.to/lastmile_qr_scan"}, "lat": 38.876264, "is_disabled": 0, "lon": -77.01253683333333}, {"fusion_lat": 0.0, "type": "electric_scooter", "name": "433353f57e7de4a06a22e76112633dfb", "fusion_lon": 0.0, "bike_id": "433353f57e7de4a06a22e76112633dfb", "is_reserved": 0, "rental_uris": {"android": "https://dc.lft.to/lastmile_qr_scan", "ios": "https://dc.lft.to/lastmile_qr_scan"}, "lat": 38.880826666666664, "is_disabled": 0, "lon": -76.99838483333333}, {"fusion_lat": 0.0, "type": "electric_scooter", "name": "f4b3ad50dff6120d2a4c2c32c0aedc75", "fusion_lon": 0.0, "bike_id": "f4b3ad50dff6120d2a4c2c32c0aedc75", "is_reserved": 0, "rental_uris": {"android": "https://dc.lft.to/lastmile_qr_scan", "ios": "https://dc.lft.to/lastmile_qr_scan"}, "lat": 38.88529883333333, "is_disabled": 0, "lon": -77.00577166666666}, {"fusion_lat": 0.0, "type": "electric_scooter", "name": "c6cb1037884012e26690c281ef378f45", "fusion_lon": 0.0, "bike_id": "c6cb1037884012e26690c281ef378f45", "is_reserved": 0, "rental_uris": {"android": "https://dc.lft.to/lastmile_qr_scan", "ios": "https://dc.lft.to/lastmile_qr_scan"}, "lat": 38.860107166666666, "is_disabled": 0, "lon": -76.98522266666667}, {"fusion_lat": 0.0, "type": "electric_scooter", "name": "944d87a4a3ee4731510153778a9f0dd2", "fusion_lon": 0.0, "bike_id": "944d87a4a3ee4731510153778a9f0dd2", "is_reserved": 0, "rental_uris": {"android": "https://dc.lft.to/lastmile_qr_scan", "ios": "https://dc.lft.to/lastmile_qr_scan"}, "lat": 38.941823666666664, "is_disabled": 0, "lon": -77.025333}, {"fusion_lat": 0.0, "type": "electric_scooter", "name": "daf1c73912696ae72d8ec6001e0e06d1", "fusion_lon": 0.0, "bike_id": "daf1c73912696ae72d8ec6001e0e06d1", "is_reserved": 0, "rental_uris": {"android": "https://dc.lft.to/lastmile_qr_scan", "ios": "https://dc.lft.to/lastmile_qr_scan"}, "lat": 38.908104333333334, "is_disabled": 0, "lon": -77.038578}, {"fusion_lat": 0.0, "type": "electric_scooter", "name": "a9267ddbe13cf152e104e248f1a9e4a2", "fusion_lon": 0.0, "bike_id": "a9267ddbe13cf152e104e248f1a9e4a2", "is_reserved": 0, "rental_uris": {"android": "https://dc.lft.to/lastmile_qr_scan", "ios": "https://dc.lft.to/lastmile_qr_scan"}, "lat": 38.92607866666667, "is_disabled": 0, "lon": -77.02156983333333}, {"fusion_lat": 0.0, "type": "electric_scooter", "name": "9e9f77e587c75d60a1f59b5e2feafd61", "fusion_lon": 0.0, "bike_id": "9e9f77e587c75d60a1f59b5e2feafd61", "is_reserved": 0, "rental_uris": {"android": "https://dc.lft.to/lastmile_qr_scan", "ios": "https://dc.lft.to/lastmile_qr_scan"}, "lat": 38.891925666666666, "is_disabled": 0, "lon": -77.026262}, {"fusion_lat": 0.0, "type": "electric_scooter", "name": "542a46eaa54f9c8ed394c622bcd9dafd", "fusion_lon": 0.0, "bike_id": "542a46eaa54f9c8ed394c622bcd9dafd", "is_reserved": 0, "rental_uris": {"android": "https://dc.lft.to/lastmile_qr_scan", "ios": "https://dc.lft.to/lastmile_qr_scan"}, "lat": 38.91722216666667, "is_disabled": 0, "lon": -77.02972283333334}, {"fusion_lat": 0.0, "type": "electric_scooter", "name": "ef32c6a3c895f433c854b97c1ad8ea92", "fusion_lon": 0.0, "bike_id": "ef32c6a3c895f433c854b97c1ad8ea92", "is_reserved": 0, "rental_uris": {"android": "https://dc.lft.to/lastmile_qr_scan", "ios": "https://dc.lft.to/lastmile_qr_scan"}, "lat": 38.92368033333333, "is_disabled": 0, "lon": -77.019229}, {"fusion_lat": 0.0, "type": "electric_scooter", "name": "f6b5e7080f66d432e55b840b99a6987f", "fusion_lon": 0.0, "bike_id": "f6b5e7080f66d432e55b840b99a6987f", "is_reserved": 0, "rental_uris": {"android": "https://dc.lft.to/lastmile_qr_scan", "ios": "https://dc.lft.to/lastmile_qr_scan"}, "lat": 38.8876495, "is_disabled": 0, "lon": -76.95576416666667}, {"fusion_lat": 0.0, "type": "electric_scooter", "name": "0e6f8bdb3bb85e2b9c49b99257c10c78", "fusion_lon": 0.0, "bike_id": "0e6f8bdb3bb85e2b9c49b99257c10c78", "is_reserved": 0, "rental_uris": {"android": "https://dc.lft.to/lastmile_qr_scan", "ios": "https://dc.lft.to/lastmile_qr_scan"}, "lat": 38.935348, "is_disabled": 0, "lon": -77.058287}, {"fusion_lat": 0.0, "type": "electric_scooter", "name": "034327e63e01d61c68b4382da8809983", "fusion_lon": 0.0, "bike_id": "034327e63e01d61c68b4382da8809983", "is_reserved": 0, "rental_uris": {"android": "https://dc.lft.to/lastmile_qr_scan", "ios": "https://dc.lft.to/lastmile_qr_scan"}, "lat": 38.9147235, "is_disabled": 0, "lon": -77.03200116666666}, {"fusion_lat": 0.0, "type": "electric_scooter", "name": "0e2f17a17918b6ea9d7510c2cdd4c052", "fusion_lon": 0.0, "bike_id": "0e2f17a17918b6ea9d7510c2cdd4c052", "is_reserved": 0, "rental_uris": {"android": "https://dc.lft.to/lastmile_qr_scan", "ios": "https://dc.lft.to/lastmile_qr_scan"}, "lat": 38.905597, "is_disabled": 0, "lon": -77.04275116666666}, {"fusion_lat": 0.0, "type": "electric_scooter", "name": "1d3abaf0d09f2f55a33c67b130eb67a4", "fusion_lon": 0.0, "bike_id": "1d3abaf0d09f2f55a33c67b130eb67a4", "is_reserved": 0, "rental_uris": {"android": "https://dc.lft.to/lastmile_qr_scan", "ios": "https://dc.lft.to/lastmile_qr_scan"}, "lat": 38.895000333333336, "is_disabled": 0, "lon": -77.0095125}, {"fusion_lat": 0.0, "type": "electric_scooter", "name": "f2f4c72c8c0b74e24985b0a189602b8e", "fusion_lon": 0.0, "bike_id": "f2f4c72c8c0b74e24985b0a189602b8e", "is_reserved": 0, "rental_uris": {"android": "https://dc.lft.to/lastmile_qr_scan", "ios": "https://dc.lft.to/lastmile_qr_scan"}, "lat": 38.92576733333333, "is_disabled": 0, "lon": -77.02843333333334}, {"fusion_lat": 0.0, "type": "electric_scooter", "name": "9c070ff26f3cb5b6afdb6549d64b0a0f", "fusion_lon": 0.0, "bike_id": "9c070ff26f3cb5b6afdb6549d64b0a0f", "is_reserved": 0, "rental_uris": {"android": "https://dc.lft.to/lastmile_qr_scan", "ios": "https://dc.lft.to/lastmile_qr_scan"}, "lat": 38.90082533333333, "is_disabled": 0, "lon": -76.99366633333334}, {"fusion_lat": 0.0, "type": "electric_scooter", "name": "8bf9b635c2b9b01d909d3f60da9ef2a3", "fusion_lon": 0.0, "bike_id": "8bf9b635c2b9b01d909d3f60da9ef2a3", "is_reserved": 0, "rental_uris": {"android": "https://dc.lft.to/lastmile_qr_scan", "ios": "https://dc.lft.to/lastmile_qr_scan"}, "lat": 38.91805166666666, "is_disabled": 0, "lon": -77.02495783333333}, {"fusion_lat": 0.0, "type": "electric_scooter", "name": "abdd6a255df59f0aac663c0c19806646", "fusion_lon": 0.0, "bike_id": "abdd6a255df59f0aac663c0c19806646", "is_reserved": 0, "rental_uris": {"android": "https://dc.lft.to/lastmile_qr_scan", "ios": "https://dc.lft.to/lastmile_qr_scan"}, "lat": 38.89500316666667, "is_disabled": 0, "lon": -77.04657133333333}, {"fusion_lat": 0.0, "type": "electric_bike", "name": "d84a6185bbe313a53ef2933c473d4dc5", "fusion_lon": 0.0, "bike_id": "d84a6185bbe313a53ef2933c473d4dc5", "is_reserved": 0, "rental_uris": {"android": "https://dc.lft.to/lastmile_qr_scan", "ios": "https://dc.lft.to/lastmile_qr_scan"}, "lat": 38.95324683333333, "is_disabled": 0, "lon": -76.95431183333334}, {"fusion_lat": 0.0, "type": "electric_scooter", "name": "df605aba64ea1de55fea94bdda9bbd11", "fusion_lon": 0.0, "bike_id": "df605aba64ea1de55fea94bdda9bbd11", "is_reserved": 0, "rental_uris": {"android": "https://dc.lft.to/lastmile_qr_scan", "ios": "https://dc.lft.to/lastmile_qr_scan"}, "lat": 38.892220333333334, "is_disabled": 0, "lon": -77.03223183333333}, {"fusion_lat": 0.0, "type": "electric_scooter", "name": "abc89cc89fd13026a78a057bcaac2b04", "fusion_lon": 0.0, "bike_id": "abc89cc89fd13026a78a057bcaac2b04", "is_reserved": 0, "rental_uris": {"android": "https://dc.lft.to/lastmile_qr_scan", "ios": "https://dc.lft.to/lastmile_qr_scan"}, "lat": 38.9275785, "is_disabled": 0, "lon": -77.03256133333333}, {"fusion_lat": 0.0, "type": "electric_scooter", "name": "e3ad422d74ec24ea45efaacc23f737f0", "fusion_lon": 0.0, "bike_id": "e3ad422d74ec24ea45efaacc23f737f0", "is_reserved": 0, "rental_uris": {"android": "https://dc.lft.to/lastmile_qr_scan", "ios": "https://dc.lft.to/lastmile_qr_scan"}, "lat": 38.90387966666667, "is_disabled": 0, "lon": -77.04466716666667}, {"fusion_lat": 0.0, "type": "electric_scooter", "name": "2cd855e6b82439e62f3511d03780b074", "fusion_lon": 0.0, "bike_id": "2cd855e6b82439e62f3511d03780b074", "is_reserved": 0, "rental_uris": {"android": "https://dc.lft.to/lastmile_qr_scan", "ios": "https://dc.lft.to/lastmile_qr_scan"}, "lat": 38.913335333333336, "is_disabled": 0, "lon": -77.045643}, {"fusion_lat": 0.0, "type": "electric_scooter", "name": "61c7feb9a906741014ddcc12793789c7", "fusion_lon": 0.0, "bike_id": "61c7feb9a906741014ddcc12793789c7", "is_reserved": 0, "rental_uris": {"android": "https://dc.lft.to/lastmile_qr_scan", "ios": "https://dc.lft.to/lastmile_qr_scan"}, "lat": 38.920520333333336, "is_disabled": 0, "lon": -77.02198966666667}, {"fusion_lat": 0.0, "type": "electric_scooter", "name": "3f7dc3013e97140d25b7b651151dd200", "fusion_lon": 0.0, "bike_id": "3f7dc3013e97140d25b7b651151dd200", "is_reserved": 0, "rental_uris": {"android": "https://dc.lft.to/lastmile_qr_scan", "ios": "https://dc.lft.to/lastmile_qr_scan"}, "lat": 38.90259233333333, "is_disabled": 0, "lon": -77.00737083333334}, {"fusion_lat": 0.0, "type": "electric_scooter", "name": "0f1dc3faeb10f33ab451e3535325e8d6", "fusion_lon": 0.0, "bike_id": "0f1dc3faeb10f33ab451e3535325e8d6", "is_reserved": 0, "rental_uris": {"android": "https://dc.lft.to/lastmile_qr_scan", "ios": "https://dc.lft.to/lastmile_qr_scan"}, "lat": 38.89235333333333, "is_disabled": 0, "lon": -77.03210983333334}, {"fusion_lat": 0.0, "type": "electric_scooter", "name": "e03cd8247c3d4ec93c54bcfc4e086218", "fusion_lon": 0.0, "bike_id": "e03cd8247c3d4ec93c54bcfc4e086218", "is_reserved": 0, "rental_uris": {"android": "https://dc.lft.to/lastmile_qr_scan", "ios": "https://dc.lft.to/lastmile_qr_scan"}, "lat": 38.967766, "is_disabled": 0, "lon": -77.01513183333333}, {"fusion_lat": 0.0, "type": "electric_scooter", "name": "28bec3f840551531430c877860eed142", "fusion_lon": 0.0, "bike_id": "28bec3f840551531430c877860eed142", "is_reserved": 0, "rental_uris": {"android": "https://dc.lft.to/lastmile_qr_scan", "ios": "https://dc.lft.to/lastmile_qr_scan"}, "lat": 38.921116833333336, "is_disabled": 0, "lon": -77.0219705}, {"fusion_lat": 0.0, "type": "electric_scooter", "name": "0d560f9346ce37ac82ad9d7729ad17e5", "fusion_lon": 0.0, "bike_id": "0d560f9346ce37ac82ad9d7729ad17e5", "is_reserved": 0, "rental_uris": {"android": "https://dc.lft.to/lastmile_qr_scan", "ios": "https://dc.lft.to/lastmile_qr_scan"}, "lat": 38.90573916666666, "is_disabled": 0, "lon": -77.04243266666667}, {"fusion_lat": 0.0, "type": "electric_scooter", "name": "dffb5deeb44ee2a11e6a41fe288c3322", "fusion_lon": 0.0, "bike_id": "dffb5deeb44ee2a11e6a41fe288c3322", "is_reserved": 0, "rental_uris": {"android": "https://dc.lft.to/lastmile_qr_scan", "ios": "https://dc.lft.to/lastmile_qr_scan"}, "lat": 38.90194983333333, "is_disabled": 0, "lon": -77.04676816666667}, {"fusion_lat": 0.0, "type": "electric_bike", "name": "d54218296615bc1b5f9aa126f60e2c61", "fusion_lon": 0.0, "bike_id": "d54218296615bc1b5f9aa126f60e2c61", "is_reserved": 0, "rental_uris": {"android": "https://dc.lft.to/lastmile_qr_scan", "ios": "https://dc.lft.to/lastmile_qr_scan"}, "lat": 38.858916, "is_disabled": 0, "lon": -77.11860283333333}, {"fusion_lat": 0.0, "type": "electric_scooter", "name": "e76948abb8bf5c611976b45e1a0431a7", "fusion_lon": 0.0, "bike_id": "e76948abb8bf5c611976b45e1a0431a7", "is_reserved": 0, "rental_uris": {"android": "https://dc.lft.to/lastmile_qr_scan", "ios": "https://dc.lft.to/lastmile_qr_scan"}, "lat": 38.919801, "is_disabled": 0, "lon": -77.0396375}, {"fusion_lat": 0.0, "type": "electric_scooter", "name": "dcbf30a05f9dc3efd70643fba9fb2885", "fusion_lon": 0.0, "bike_id": "dcbf30a05f9dc3efd70643fba9fb2885", "is_reserved": 0, "rental_uris": {"android": "https://dc.lft.to/lastmile_qr_scan", "ios": "https://dc.lft.to/lastmile_qr_scan"}, "lat": 38.911148, "is_disabled": 0, "lon": -77.03157883333333}, {"fusion_lat": 0.0, "type": "electric_scooter", "name": "a1e7d25ff4d41842f6c68abc74e79450", "fusion_lon": 0.0, "bike_id": "a1e7d25ff4d41842f6c68abc74e79450", "is_reserved": 0, "rental_uris": {"android": "https://dc.lft.to/lastmile_qr_scan", "ios": "https://dc.lft.to/lastmile_qr_scan"}, "lat": 38.925596166666665, "is_disabled": 0, "lon": -77.02281633333334}, {"fusion_lat": 0.0, "type": "electric_scooter", "name": "5c20c2484cd1f3e732c35e5f31f04821", "fusion_lon": 0.0, "bike_id": "5c20c2484cd1f3e732c35e5f31f04821", "is_reserved": 0, "rental_uris": {"android": "https://dc.lft.to/lastmile_qr_scan", "ios": "https://dc.lft.to/lastmile_qr_scan"}, "lat": 38.904085333333335, "is_disabled": 0, "lon": -76.9808655}, {"fusion_lat": 0.0, "type": "electric_scooter", "name": "d2a983bc642df972c4ca93673c03bd09", "fusion_lon": 0.0, "bike_id": "d2a983bc642df972c4ca93673c03bd09", "is_reserved": 0, "rental_uris": {"android": "https://dc.lft.to/lastmile_qr_scan", "ios": "https://dc.lft.to/lastmile_qr_scan"}, "lat": 38.927943666666664, "is_disabled": 0, "lon": -77.026039}, {"fusion_lat": 0.0, "type": "electric_scooter", "name": "8c082fb198ecf6150cc23d30173be7b2", "fusion_lon": 0.0, "bike_id": "8c082fb198ecf6150cc23d30173be7b2", "is_reserved": 0, "rental_uris": {"android": "https://dc.lft.to/lastmile_qr_scan", "ios": "https://dc.lft.to/lastmile_qr_scan"}, "lat": 38.892336, "is_disabled": 0, "lon": -77.03185966666666}, {"fusion_lat": 0.0, "type": "electric_scooter", "name": "f2cb23caf523b4ce79f0a49fb827eec6", "fusion_lon": 0.0, "bike_id": "f2cb23caf523b4ce79f0a49fb827eec6", "is_reserved": 0, "rental_uris": {"android": "https://dc.lft.to/lastmile_qr_scan", "ios": "https://dc.lft.to/lastmile_qr_scan"}, "lat": 38.908217666666665, "is_disabled": 0, "lon": -76.99204816666666}, {"fusion_lat": 0.0, "type": "electric_scooter", "name": "b8cafc5c6328251f6e5aef030ebde867", "fusion_lon": 0.0, "bike_id": "b8cafc5c6328251f6e5aef030ebde867", "is_reserved": 0, "rental_uris": {"android": "https://dc.lft.to/lastmile_qr_scan", "ios": "https://dc.lft.to/lastmile_qr_scan"}, "lat": 38.94507766666667, "is_disabled": 0, "lon": -77.03319916666666}, {"fusion_lat": 0.0, "type": "electric_scooter", "name": "a168f4323307980e44c12eb36c161889", "fusion_lon": 0.0, "bike_id": "a168f4323307980e44c12eb36c161889", "is_reserved": 0, "rental_uris": {"android": "https://dc.lft.to/lastmile_qr_scan", "ios": "https://dc.lft.to/lastmile_qr_scan"}, "lat": 38.862346333333335, "is_disabled": 0, "lon": -76.99485933333334}, {"fusion_lat": 0.0, "type": "electric_scooter", "name": "ac08d7105f005bd5a4bc7d6f64f6c0c6", "fusion_lon": 0.0, "bike_id": "ac08d7105f005bd5a4bc7d6f64f6c0c6", "is_reserved": 0, "rental_uris": {"android": "https://dc.lft.to/lastmile_qr_scan", "ios": "https://dc.lft.to/lastmile_qr_scan"}, "lat": 38.9208845, "is_disabled": 0, "lon": -77.0437565}, {"fusion_lat": 0.0, "type": "electric_scooter", "name": "a1f540e0277e8d6e6cd9cbbe102526ec", "fusion_lon": 0.0, "bike_id": "a1f540e0277e8d6e6cd9cbbe102526ec", "is_reserved": 0, "rental_uris": {"android": "https://dc.lft.to/lastmile_qr_scan", "ios": "https://dc.lft.to/lastmile_qr_scan"}, "lat": 38.950858833333335, "is_disabled": 0, "lon": -77.02321866666666}, {"fusion_lat": 0.0, "type": "electric_scooter", "name": "2b5cfe29de85ff9da280304e2c376b9a", "fusion_lon": 0.0, "bike_id": "2b5cfe29de85ff9da280304e2c376b9a", "is_reserved": 0, "rental_uris": {"android": "https://dc.lft.to/lastmile_qr_scan", "ios": "https://dc.lft.to/lastmile_qr_scan"}, "lat": 38.934358833333334, "is_disabled": 0, "lon": -76.99877833333333}, {"fusion_lat": 0.0, "type": "electric_scooter", "name": "de3c0a566d6a5faa49f63be57fc04192", "fusion_lon": 0.0, "bike_id": "de3c0a566d6a5faa49f63be57fc04192", "is_reserved": 0, "rental_uris": {"android": "https://dc.lft.to/lastmile_qr_scan", "ios": "https://dc.lft.to/lastmile_qr_scan"}, "lat": 38.89220566666667, "is_disabled": 0, "lon": -77.0263155}, {"fusion_lat": 0.0, "type": "electric_scooter", "name": "fca87f6702ec72cacd0da83838c2d379", "fusion_lon": 0.0, "bike_id": "fca87f6702ec72cacd0da83838c2d379", "is_reserved": 0, "rental_uris": {"android": "https://dc.lft.to/lastmile_qr_scan", "ios": "https://dc.lft.to/lastmile_qr_scan"}, "lat": 38.90069366666667, "is_disabled": 0, "lon": -77.0488635}, {"fusion_lat": 0.0, "type": "electric_scooter", "name": "482281795110ef1e3cd63e55fe3e357a", "fusion_lon": 0.0, "bike_id": "482281795110ef1e3cd63e55fe3e357a", "is_reserved": 0, "rental_uris": {"android": "https://dc.lft.to/lastmile_qr_scan", "ios": "https://dc.lft.to/lastmile_qr_scan"}, "lat": 38.9102255, "is_disabled": 0, "lon": -77.03440866666666}, {"fusion_lat": 0.0, "type": "electric_scooter", "name": "85f1adbffb6619b92595c4ed2d3e1276", "fusion_lon": 0.0, "bike_id": "85f1adbffb6619b92595c4ed2d3e1276", "is_reserved": 0, "rental_uris": {"android": "https://dc.lft.to/lastmile_qr_scan", "ios": "https://dc.lft.to/lastmile_qr_scan"}, "lat": 38.91124216666667, "is_disabled": 0, "lon": -77.03650283333333}, {"fusion_lat": 0.0, "type": "electric_scooter", "name": "e0ed504a386f0a37c9d92ca8e69a0944", "fusion_lon": 0.0, "bike_id": "e0ed504a386f0a37c9d92ca8e69a0944", "is_reserved": 0, "rental_uris": {"android": "https://dc.lft.to/lastmile_qr_scan", "ios": "https://dc.lft.to/lastmile_qr_scan"}, "lat": 38.90526916666666, "is_disabled": 0, "lon": -77.061903}, {"fusion_lat": 0.0, "type": "electric_scooter", "name": "6ab048c9a7aba88c0045e6883ce4ef70", "fusion_lon": 0.0, "bike_id": "6ab048c9a7aba88c0045e6883ce4ef70", "is_reserved": 0, "rental_uris": {"android": "https://dc.lft.to/lastmile_qr_scan", "ios": "https://dc.lft.to/lastmile_qr_scan"}, "lat": 38.900181333333336, "is_disabled": 0, "lon": -76.984336}, {"fusion_lat": 0.0, "type": "electric_scooter", "name": "859ce9a39c0bf2448a9a2021dd73b1e5", "fusion_lon": 0.0, "bike_id": "859ce9a39c0bf2448a9a2021dd73b1e5", "is_reserved": 0, "rental_uris": {"android": "https://dc.lft.to/lastmile_qr_scan", "ios": "https://dc.lft.to/lastmile_qr_scan"}, "lat": 38.884299166666665, "is_disabled": 0, "lon": -77.025881}, {"fusion_lat": 0.0, "type": "electric_bike", "name": "a452249e39cae86d79d6332cb1539bb3", "fusion_lon": 0.0, "bike_id": "a452249e39cae86d79d6332cb1539bb3", "is_reserved": 0, "rental_uris": {"android": "https://dc.lft.to/lastmile_qr_scan", "ios": "https://dc.lft.to/lastmile_qr_scan"}, "lat": 38.96785966666667, "is_disabled": 0, "lon": -77.00034183333334}, {"fusion_lat": 0.0, "type": "electric_scooter", "name": "7b7a53e8569f717bdf08477fa0f29fd6", "fusion_lon": 0.0, "bike_id": "7b7a53e8569f717bdf08477fa0f29fd6", "is_reserved": 0, "rental_uris": {"android": "https://dc.lft.to/lastmile_qr_scan", "ios": "https://dc.lft.to/lastmile_qr_scan"}, "lat": 38.908355666666665, "is_disabled": 0, "lon": -76.99701066666667}, {"fusion_lat": 0.0, "type": "electric_scooter", "name": "be46767697fdf74b779aa9567ef1e0c0", "fusion_lon": 0.0, "bike_id": "be46767697fdf74b779aa9567ef1e0c0", "is_reserved": 0, "rental_uris": {"android": "https://dc.lft.to/lastmile_qr_scan", "ios": "https://dc.lft.to/lastmile_qr_scan"}, "lat": 38.91736516666667, "is_disabled": 0, "lon": -77.02299983333333}, {"fusion_lat": 0.0, "type": "electric_scooter", "name": "0a7348a4ed9763be13c50396f4b0afb3", "fusion_lon": 0.0, "bike_id": "0a7348a4ed9763be13c50396f4b0afb3", "is_reserved": 0, "rental_uris": {"android": "https://dc.lft.to/lastmile_qr_scan", "ios": "https://dc.lft.to/lastmile_qr_scan"}, "lat": 38.90553366666666, "is_disabled": 0, "lon": -77.00582966666667}, {"fusion_lat": 0.0, "type": "electric_scooter", "name": "8f29cdb72a91bd807e871edaa5e56e55", "fusion_lon": 0.0, "bike_id": "8f29cdb72a91bd807e871edaa5e56e55", "is_reserved": 0, "rental_uris": {"android": "https://dc.lft.to/lastmile_qr_scan", "ios": "https://dc.lft.to/lastmile_qr_scan"}, "lat": 38.91251666666667, "is_disabled": 0, "lon": -77.0222875}, {"fusion_lat": 0.0, "type": "electric_scooter", "name": "60a6df8a67873c6e730ba25494f0b988", "fusion_lon": 0.0, "bike_id": "60a6df8a67873c6e730ba25494f0b988", "is_reserved": 0, "rental_uris": {"android": "https://dc.lft.to/lastmile_qr_scan", "ios": "https://dc.lft.to/lastmile_qr_scan"}, "lat": 38.909225, "is_disabled": 0, "lon": -77.03856333333333}, {"fusion_lat": 0.0, "type": "electric_scooter", "name": "a9816f33c9b070c4ba1fecaff8917d14", "fusion_lon": 0.0, "bike_id": "a9816f33c9b070c4ba1fecaff8917d14", "is_reserved": 0, "rental_uris": {"android": "https://dc.lft.to/lastmile_qr_scan", "ios": "https://dc.lft.to/lastmile_qr_scan"}, "lat": 38.89236616666667, "is_disabled": 0, "lon": -77.032098}, {"fusion_lat": 0.0, "type": "electric_scooter", "name": "87748573fecea896a501d3350a35884f", "fusion_lon": 0.0, "bike_id": "87748573fecea896a501d3350a35884f", "is_reserved": 0, "rental_uris": {"android": "https://dc.lft.to/lastmile_qr_scan", "ios": "https://dc.lft.to/lastmile_qr_scan"}, "lat": 38.8850035, "is_disabled": 0, "lon": -77.02097183333333}, {"fusion_lat": 0.0, "type": "electric_scooter", "name": "7acd857c55e3ce228568ae018d886fbc", "fusion_lon": 0.0, "bike_id": "7acd857c55e3ce228568ae018d886fbc", "is_reserved": 0, "rental_uris": {"android": "https://dc.lft.to/lastmile_qr_scan", "ios": "https://dc.lft.to/lastmile_qr_scan"}, "lat": 38.908518666666666, "is_disabled": 0, "lon": -77.04254383333334}, {"fusion_lat": 0.0, "type": "electric_scooter", "name": "65a9adc49fb744c09ca1632e05cac603", "fusion_lon": 0.0, "bike_id": "65a9adc49fb744c09ca1632e05cac603", "is_reserved": 0, "rental_uris": {"android": "https://dc.lft.to/lastmile_qr_scan", "ios": "https://dc.lft.to/lastmile_qr_scan"}, "lat": 38.93078166666667, "is_disabled": 0, "lon": -77.02805616666667}, {"fusion_lat": 0.0, "type": "electric_scooter", "name": "34b3729364a525d7d8ed3d516dd7646e", "fusion_lon": 0.0, "bike_id": "34b3729364a525d7d8ed3d516dd7646e", "is_reserved": 0, "rental_uris": {"android": "https://dc.lft.to/lastmile_qr_scan", "ios": "https://dc.lft.to/lastmile_qr_scan"}, "lat": 38.88609016666667, "is_disabled": 0, "lon": -76.99513233333333}, {"fusion_lat": 0.0, "type": "electric_scooter", "name": "311cb600636c0437ae889d76ad728934", "fusion_lon": 0.0, "bike_id": "311cb600636c0437ae889d76ad728934", "is_reserved": 0, "rental_uris": {"android": "https://dc.lft.to/lastmile_qr_scan", "ios": "https://dc.lft.to/lastmile_qr_scan"}, "lat": 38.92486316666667, "is_disabled": 0, "lon": -77.03178533333333}, {"fusion_lat": 0.0, "type": "electric_bike", "name": "32236341b92a50664cb17d02b75846e5", "fusion_lon": 0.0, "bike_id": "32236341b92a50664cb17d02b75846e5", "is_reserved": 0, "rental_uris": {"android": "https://dc.lft.to/lastmile_qr_scan", "ios": "https://dc.lft.to/lastmile_qr_scan"}, "lat": 38.89648833333333, "is_disabled": 0, "lon": -76.93025033333333}, {"fusion_lat": 0.0, "type": "electric_scooter", "name": "caeac4fea2030ef07ed0b149433a4b9d", "fusion_lon": 0.0, "bike_id": "caeac4fea2030ef07ed0b149433a4b9d", "is_reserved": 0, "rental_uris": {"android": "https://dc.lft.to/lastmile_qr_scan", "ios": "https://dc.lft.to/lastmile_qr_scan"}, "lat": 38.908169, "is_disabled": 0, "lon": -77.0395485}, {"fusion_lat": 0.0, "type": "electric_scooter", "name": "ffb9e941ef6e81246f022ea97be2438b", "fusion_lon": 0.0, "bike_id": "ffb9e941ef6e81246f022ea97be2438b", "is_reserved": 0, "rental_uris": {"android": "https://dc.lft.to/lastmile_qr_scan", "ios": "https://dc.lft.to/lastmile_qr_scan"}, "lat": 38.9244105, "is_disabled": 0, "lon": -77.03994266666666}, {"fusion_lat": 0.0, "type": "electric_bike", "name": "156b179904e1ceb9627bc4d49e41a290", "fusion_lon": 0.0, "bike_id": "156b179904e1ceb9627bc4d49e41a290", "is_reserved": 0, "rental_uris": {"android": "https://dc.lft.to/lastmile_qr_scan", "ios": "https://dc.lft.to/lastmile_qr_scan"}, "lat": 38.96736, "is_disabled": 0, "lon": -76.9604715}, {"fusion_lat": 0.0, "type": "electric_scooter", "name": "b7edae24625b66d84ae74c80e7497dc5", "fusion_lon": 0.0, "bike_id": "b7edae24625b66d84ae74c80e7497dc5", "is_reserved": 0, "rental_uris": {"android": "https://dc.lft.to/lastmile_qr_scan", "ios": "https://dc.lft.to/lastmile_qr_scan"}, "lat": 38.91947116666667, "is_disabled": 0, "lon": -76.98077283333333}, {"fusion_lat": 0.0, "type": "electric_scooter", "name": "aee4f47d32f9efe71fbaf47e7e118a0f", "fusion_lon": 0.0, "bike_id": "aee4f47d32f9efe71fbaf47e7e118a0f", "is_reserved": 0, "rental_uris": {"android": "https://dc.lft.to/lastmile_qr_scan", "ios": "https://dc.lft.to/lastmile_qr_scan"}, "lat": 38.93520633333333, "is_disabled": 0, "lon": -77.07287733333334}, {"fusion_lat": 0.0, "type": "electric_scooter", "name": "1e022bfc933b43378aa8e78761e6bb3a", "fusion_lon": 0.0, "bike_id": "1e022bfc933b43378aa8e78761e6bb3a", "is_reserved": 0, "rental_uris": {"android": "https://dc.lft.to/lastmile_qr_scan", "ios": "https://dc.lft.to/lastmile_qr_scan"}, "lat": 38.914941666666664, "is_disabled": 0, "lon": -77.0439295}, {"fusion_lat": 0.0, "type": "electric_scooter", "name": "d9fc978ef253314bc835c15f22156c4b", "fusion_lon": 0.0, "bike_id": "d9fc978ef253314bc835c15f22156c4b", "is_reserved": 0, "rental_uris": {"android": "https://dc.lft.to/lastmile_qr_scan", "ios": "https://dc.lft.to/lastmile_qr_scan"}, "lat": 38.90604966666667, "is_disabled": 0, "lon": -77.04133766666666}, {"fusion_lat": 0.0, "type": "electric_scooter", "name": "065460c8df7162c0fc07030f2e0ce579", "fusion_lon": 0.0, "bike_id": "065460c8df7162c0fc07030f2e0ce579", "is_reserved": 0, "rental_uris": {"android": "https://dc.lft.to/lastmile_qr_scan", "ios": "https://dc.lft.to/lastmile_qr_scan"}, "lat": 38.905563, "is_disabled": 0, "lon": -77.046907}, {"fusion_lat": 0.0, "type": "electric_bike", "name": "641d398430e5ee59ccf78473d79ac7eb", "fusion_lon": 0.0, "bike_id": "641d398430e5ee59ccf78473d79ac7eb", "is_reserved": 0, "rental_uris": {"android": "https://dc.lft.to/lastmile_qr_scan", "ios": "https://dc.lft.to/lastmile_qr_scan"}, "lat": 38.845601333333335, "is_disabled": 0, "lon": -77.0669305}, {"fusion_lat": 0.0, "type": "electric_scooter", "name": "d5e419859d0ed93a2cd2d7e7727bcd1b", "fusion_lon": 0.0, "bike_id": "d5e419859d0ed93a2cd2d7e7727bcd1b", "is_reserved": 0, "rental_uris": {"android": "https://dc.lft.to/lastmile_qr_scan", "ios": "https://dc.lft.to/lastmile_qr_scan"}, "lat": 38.9222485, "is_disabled": 0, "lon": -77.042412}, {"fusion_lat": 0.0, "type": "electric_scooter", "name": "16322dcb1de2b22c8298980244aaa9d0", "fusion_lon": 0.0, "bike_id": "16322dcb1de2b22c8298980244aaa9d0", "is_reserved": 0, "rental_uris": {"android": "https://dc.lft.to/lastmile_qr_scan", "ios": "https://dc.lft.to/lastmile_qr_scan"}, "lat": 38.86652933333333, "is_disabled": 0, "lon": -76.98517016666666}, {"fusion_lat": 0.0, "type": "electric_bike", "name": "68a4a57cb30646b7750faa49834acd80", "fusion_lon": 0.0, "bike_id": "68a4a57cb30646b7750faa49834acd80", "is_reserved": 0, "rental_uris": {"android": "https://dc.lft.to/lastmile_qr_scan", "ios": "https://dc.lft.to/lastmile_qr_scan"}, "lat": 38.99341033333333, "is_disabled": 0, "lon": -77.11570583333334}, {"fusion_lat": 0.0, "type": "electric_scooter", "name": "a9a5c343ec042cc1084e76712dc3b632", "fusion_lon": 0.0, "bike_id": "a9a5c343ec042cc1084e76712dc3b632", "is_reserved": 0, "rental_uris": {"android": "https://dc.lft.to/lastmile_qr_scan", "ios": "https://dc.lft.to/lastmile_qr_scan"}, "lat": 38.866583166666665, "is_disabled": 0, "lon": -76.98878766666667}, {"fusion_lat": 0.0, "type": "electric_scooter", "name": "0ca757faf7fbae64d3ee88cb1efe0da1", "fusion_lon": 0.0, "bike_id": "0ca757faf7fbae64d3ee88cb1efe0da1", "is_reserved": 0, "rental_uris": {"android": "https://dc.lft.to/lastmile_qr_scan", "ios": "https://dc.lft.to/lastmile_qr_scan"}, "lat": 38.89299066666667, "is_disabled": 0, "lon": -77.01237133333333}, {"fusion_lat": 0.0, "type": "electric_scooter", "name": "c1641e9159cefa2457fcd453aa195a3e", "fusion_lon": 0.0, "bike_id": "c1641e9159cefa2457fcd453aa195a3e", "is_reserved": 0, "rental_uris": {"android": "https://dc.lft.to/lastmile_qr_scan", "ios": "https://dc.lft.to/lastmile_qr_scan"}, "lat": 38.891689666666664, "is_disabled": 0, "lon": -77.01536933333334}, {"fusion_lat": 0.0, "type": "electric_scooter", "name": "44aa70bac7547df3293c5440e1f6a0be", "fusion_lon": 0.0, "bike_id": "44aa70bac7547df3293c5440e1f6a0be", "is_reserved": 0, "rental_uris": {"android": "https://dc.lft.to/lastmile_qr_scan", "ios": "https://dc.lft.to/lastmile_qr_scan"}, "lat": 38.90259833333333, "is_disabled": 0, "lon": -77.046065}, {"fusion_lat": 0.0, "type": "electric_scooter", "name": "d03c10cf442d5acd28e7aa0a8fefcd6d", "fusion_lon": 0.0, "bike_id": "d03c10cf442d5acd28e7aa0a8fefcd6d", "is_reserved": 0, "rental_uris": {"android": "https://dc.lft.to/lastmile_qr_scan", "ios": "https://dc.lft.to/lastmile_qr_scan"}, "lat": 38.92700466666667, "is_disabled": 0, "lon": -77.04111366666666}, {"fusion_lat": 0.0, "type": "electric_scooter", "name": "8d62db7d4a65cff2d3eda8f2fb97bd0e", "fusion_lon": 0.0, "bike_id": "8d62db7d4a65cff2d3eda8f2fb97bd0e", "is_reserved": 0, "rental_uris": {"android": "https://dc.lft.to/lastmile_qr_scan", "ios": "https://dc.lft.to/lastmile_qr_scan"}, "lat": 38.917333166666666, "is_disabled": 0, "lon": -77.04161566666667}, {"fusion_lat": 0.0, "type": "electric_scooter", "name": "23c34b57aa78a6e9d7a10e12b902833d", "fusion_lon": 0.0, "bike_id": "23c34b57aa78a6e9d7a10e12b902833d", "is_reserved": 0, "rental_uris": {"android": "https://dc.lft.to/lastmile_qr_scan", "ios": "https://dc.lft.to/lastmile_qr_scan"}, "lat": 38.929969, "is_disabled": 0, "lon": -77.055347}, {"fusion_lat": 0.0, "type": "electric_scooter", "name": "23c958715f2367c2529f98f849297276", "fusion_lon": 0.0, "bike_id": "23c958715f2367c2529f98f849297276", "is_reserved": 0, "rental_uris": {"android": "https://dc.lft.to/lastmile_qr_scan", "ios": "https://dc.lft.to/lastmile_qr_scan"}, "lat": 38.89987633333333, "is_disabled": 0, "lon": -77.031599}, {"fusion_lat": 0.0, "type": "electric_scooter", "name": "35742b2b8e006b388876b4c524e912a1", "fusion_lon": 0.0, "bike_id": "35742b2b8e006b388876b4c524e912a1", "is_reserved": 0, "rental_uris": {"android": "https://dc.lft.to/lastmile_qr_scan", "ios": "https://dc.lft.to/lastmile_qr_scan"}, "lat": 38.91225516666667, "is_disabled": 0, "lon": -77.0451465}, {"fusion_lat": 0.0, "type": "electric_bike", "name": "4d4a45f979043a6629d650f5647d3f7e", "fusion_lon": 0.0, "bike_id": "4d4a45f979043a6629d650f5647d3f7e", "is_reserved": 0, "rental_uris": {"android": "https://dc.lft.to/lastmile_qr_scan", "ios": "https://dc.lft.to/lastmile_qr_scan"}, "lat": 39.0550145, "is_disabled": 0, "lon": -77.04650333333333}, {"fusion_lat": 0.0, "type": "electric_bike", "name": "ddd812dc8bc91dcfbe94a76db7026d8a", "fusion_lon": 0.0, "bike_id": "ddd812dc8bc91dcfbe94a76db7026d8a", "is_reserved": 0, "rental_uris": {"android": "https://dc.lft.to/lastmile_qr_scan", "ios": "https://dc.lft.to/lastmile_qr_scan"}, "lat": 38.954352666666665, "is_disabled": 0, "lon": -76.98917533333334}, {"fusion_lat": 0.0, "type": "electric_scooter", "name": "4eb67146139cda5e2bfab6e201236b99", "fusion_lon": 0.0, "bike_id": "4eb67146139cda5e2bfab6e201236b99", "is_reserved": 0, "rental_uris": {"android": "https://dc.lft.to/lastmile_qr_scan", "ios": "https://dc.lft.to/lastmile_qr_scan"}, "lat": 38.88608283333333, "is_disabled": 0, "lon": -76.99514}, {"fusion_lat": 0.0, "type": "electric_scooter", "name": "97728fe44aa8044dc83711ef47b3adad", "fusion_lon": 0.0, "bike_id": "97728fe44aa8044dc83711ef47b3adad", "is_reserved": 0, "rental_uris": {"android": "https://dc.lft.to/lastmile_qr_scan", "ios": "https://dc.lft.to/lastmile_qr_scan"}, "lat": 38.9072545, "is_disabled": 0, "lon": -77.03876983333333}, {"fusion_lat": 0.0, "type": "electric_bike", "name": "63d08c1f2e24828fa928ffd8fd50e926", "fusion_lon": 0.0, "bike_id": "63d08c1f2e24828fa928ffd8fd50e926", "is_reserved": 0, "rental_uris": {"android": "https://dc.lft.to/lastmile_qr_scan", "ios": "https://dc.lft.to/lastmile_qr_scan"}, "lat": 38.93166166666666, "is_disabled": 0, "lon": -76.88401066666667}, {"fusion_lat": 0.0, "type": "electric_bike", "name": "dad9ef9800fbd252964fdfa06a340fbd", "fusion_lon": 0.0, "bike_id": "dad9ef9800fbd252964fdfa06a340fbd", "is_reserved": 0, "rental_uris": {"android": "https://dc.lft.to/lastmile_qr_scan", "ios": "https://dc.lft.to/lastmile_qr_scan"}, "lat": 38.864866666666664, "is_disabled": 0, "lon": -76.97741916666666}, {"fusion_lat": 0.0, "type": "electric_bike", "name": "13cae41d8657484ca9cc411f7b6c3e09", "fusion_lon": 0.0, "bike_id": "13cae41d8657484ca9cc411f7b6c3e09", "is_reserved": 0, "rental_uris": {"android": "https://dc.lft.to/lastmile_qr_scan", "ios": "https://dc.lft.to/lastmile_qr_scan"}, "lat": 38.92966783333333, "is_disabled": 0, "lon": -77.1856535}, {"fusion_lat": 0.0, "type": "electric_scooter", "name": "5f36f5b0c0099b6dd35b823999d47bae", "fusion_lon": 0.0, "bike_id": "5f36f5b0c0099b6dd35b823999d47bae", "is_reserved": 0, "rental_uris": {"android": "https://dc.lft.to/lastmile_qr_scan", "ios": "https://dc.lft.to/lastmile_qr_scan"}, "lat": 38.90839033333334, "is_disabled": 0, "lon": -77.026935}, {"fusion_lat": 0.0, "type": "electric_scooter", "name": "3ae497a31ebc8f1dc4d09fd4325dea07", "fusion_lon": 0.0, "bike_id": "3ae497a31ebc8f1dc4d09fd4325dea07", "is_reserved": 0, "rental_uris": {"android": "https://dc.lft.to/lastmile_qr_scan", "ios": "https://dc.lft.to/lastmile_qr_scan"}, "lat": 38.92236666666667, "is_disabled": 0, "lon": -77.03663683333333}, {"fusion_lat": 0.0, "type": "electric_scooter", "name": "c0f9b710257d9b781699523500edf980", "fusion_lon": 0.0, "bike_id": "c0f9b710257d9b781699523500edf980", "is_reserved": 0, "rental_uris": {"android": "https://dc.lft.to/lastmile_qr_scan", "ios": "https://dc.lft.to/lastmile_qr_scan"}, "lat": 38.89415316666667, "is_disabled": 0, "lon": -77.02414016666667}, {"fusion_lat": 0.0, "type": "electric_scooter", "name": "8150ecd6a0ff270593af2c842de4d380", "fusion_lon": 0.0, "bike_id": "8150ecd6a0ff270593af2c842de4d380", "is_reserved": 0, "rental_uris": {"android": "https://dc.lft.to/lastmile_qr_scan", "ios": "https://dc.lft.to/lastmile_qr_scan"}, "lat": 38.849934833333336, "is_disabled": 0, "lon": -76.98345}, {"fusion_lat": 0.0, "type": "electric_scooter", "name": "751f48f774f09dbbef6519fbe13a9c4c", "fusion_lon": 0.0, "bike_id": "751f48f774f09dbbef6519fbe13a9c4c", "is_reserved": 0, "rental_uris": {"android": "https://dc.lft.to/lastmile_qr_scan", "ios": "https://dc.lft.to/lastmile_qr_scan"}, "lat": 38.86691783333333, "is_disabled": 0, "lon": -76.9860745}, {"fusion_lat": 0.0, "type": "electric_scooter", "name": "829ef739e0e511df7dc15f03ae49da88", "fusion_lon": 0.0, "bike_id": "829ef739e0e511df7dc15f03ae49da88", "is_reserved": 0, "rental_uris": {"android": "https://dc.lft.to/lastmile_qr_scan", "ios": "https://dc.lft.to/lastmile_qr_scan"}, "lat": 38.90695266666667, "is_disabled": 0, "lon": -77.071567}, {"fusion_lat": 0.0, "type": "electric_scooter", "name": "e4a83215d9a818a6e6b2eb5aa3924cde", "fusion_lon": 0.0, "bike_id": "e4a83215d9a818a6e6b2eb5aa3924cde", "is_reserved": 0, "rental_uris": {"android": "https://dc.lft.to/lastmile_qr_scan", "ios": "https://dc.lft.to/lastmile_qr_scan"}, "lat": 38.9058195, "is_disabled": 0, "lon": -77.0223815}, {"fusion_lat": 0.0, "type": "electric_scooter", "name": "2a68183ac889474849bbe30da118a1a1", "fusion_lon": 0.0, "bike_id": "2a68183ac889474849bbe30da118a1a1", "is_reserved": 0, "rental_uris": {"android": "https://dc.lft.to/lastmile_qr_scan", "ios": "https://dc.lft.to/lastmile_qr_scan"}, "lat": 38.90879433333333, "is_disabled": 0, "lon": -76.9985365}, {"fusion_lat": 0.0, "type": "electric_scooter", "name": "ef2dfa2e434aa7256b40c0929a5bb2fb", "fusion_lon": 0.0, "bike_id": "ef2dfa2e434aa7256b40c0929a5bb2fb", "is_reserved": 0, "rental_uris": {"android": "https://dc.lft.to/lastmile_qr_scan", "ios": "https://dc.lft.to/lastmile_qr_scan"}, "lat": 38.90178316666667, "is_disabled": 0, "lon": -76.92863283333334}, {"fusion_lat": 0.0, "type": "electric_scooter", "name": "5ab5aafa4a0e3f5d3e7abc10d2e1062d", "fusion_lon": 0.0, "bike_id": "5ab5aafa4a0e3f5d3e7abc10d2e1062d", "is_reserved": 0, "rental_uris": {"android": "https://dc.lft.to/lastmile_qr_scan", "ios": "https://dc.lft.to/lastmile_qr_scan"}, "lat": 38.90244366666667, "is_disabled": 0, "lon": -77.0390125}, {"fusion_lat": 0.0, "type": "electric_scooter", "name": "87316b72af66a6c6da5f0f2d81a5e7a4", "fusion_lon": 0.0, "bike_id": "87316b72af66a6c6da5f0f2d81a5e7a4", "is_reserved": 0, "rental_uris": {"android": "https://dc.lft.to/lastmile_qr_scan", "ios": "https://dc.lft.to/lastmile_qr_scan"}, "lat": 38.940735833333335, "is_disabled": 0, "lon": -77.02545416666666}, {"fusion_lat": 0.0, "type": "electric_scooter", "name": "edaa4efea38d102d5a24cd8e3a31c1bd", "fusion_lon": 0.0, "bike_id": "edaa4efea38d102d5a24cd8e3a31c1bd", "is_reserved": 0, "rental_uris": {"android": "https://dc.lft.to/lastmile_qr_scan", "ios": "https://dc.lft.to/lastmile_qr_scan"}, "lat": 38.905596, "is_disabled": 0, "lon": -77.04699916666667}, {"fusion_lat": 0.0, "type": "electric_scooter", "name": "af410f763eeda1afd900fbc8555e1c74", "fusion_lon": 0.0, "bike_id": "af410f763eeda1afd900fbc8555e1c74", "is_reserved": 0, "rental_uris": {"android": "https://dc.lft.to/lastmile_qr_scan", "ios": "https://dc.lft.to/lastmile_qr_scan"}, "lat": 38.9117895, "is_disabled": 0, "lon": -77.0351525}, {"fusion_lat": 0.0, "type": "electric_scooter", "name": "72df4881e621c441a73f25f6104112ba", "fusion_lon": 0.0, "bike_id": "72df4881e621c441a73f25f6104112ba", "is_reserved": 0, "rental_uris": {"android": "https://dc.lft.to/lastmile_qr_scan", "ios": "https://dc.lft.to/lastmile_qr_scan"}, "lat": 38.93401516666667, "is_disabled": 0, "lon": -77.0725265}, {"fusion_lat": 0.0, "type": "electric_scooter", "name": "b5b2d3344e3e425ccd65177daae79d80", "fusion_lon": 0.0, "bike_id": "b5b2d3344e3e425ccd65177daae79d80", "is_reserved": 0, "rental_uris": {"android": "https://dc.lft.to/lastmile_qr_scan", "ios": "https://dc.lft.to/lastmile_qr_scan"}, "lat": 38.896226166666665, "is_disabled": 0, "lon": -77.02610816666666}, {"fusion_lat": 0.0, "type": "electric_scooter", "name": "e33b8e14ad353339945135316d8fb7b2", "fusion_lon": 0.0, "bike_id": "e33b8e14ad353339945135316d8fb7b2", "is_reserved": 0, "rental_uris": {"android": "https://dc.lft.to/lastmile_qr_scan", "ios": "https://dc.lft.to/lastmile_qr_scan"}, "lat": 38.919790666666664, "is_disabled": 0, "lon": -77.04170383333333}, {"fusion_lat": 0.0, "type": "electric_scooter", "name": "b1b4596cdb2a4f3bb65235e8a5cb3c75", "fusion_lon": 0.0, "bike_id": "b1b4596cdb2a4f3bb65235e8a5cb3c75", "is_reserved": 0, "rental_uris": {"android": "https://dc.lft.to/lastmile_qr_scan", "ios": "https://dc.lft.to/lastmile_qr_scan"}, "lat": 38.897166666666664, "is_disabled": 0, "lon": -77.02722433333334}, {"fusion_lat": 0.0, "type": "electric_scooter", "name": "89558d3ed6f0602e34e1761c7380ac71", "fusion_lon": 0.0, "bike_id": "89558d3ed6f0602e34e1761c7380ac71", "is_reserved": 0, "rental_uris": {"android": "https://dc.lft.to/lastmile_qr_scan", "ios": "https://dc.lft.to/lastmile_qr_scan"}, "lat": 38.92533483333333, "is_disabled": 0, "lon": -76.972155}, {"fusion_lat": 0.0, "type": "electric_scooter", "name": "f70727019f8070103a6c8e3a3d451f04", "fusion_lon": 0.0, "bike_id": "f70727019f8070103a6c8e3a3d451f04", "is_reserved": 0, "rental_uris": {"android": "https://dc.lft.to/lastmile_qr_scan", "ios": "https://dc.lft.to/lastmile_qr_scan"}, "lat": 38.89231933333333, "is_disabled": 0, "lon": -77.02375566666667}, {"fusion_lat": 0.0, "type": "electric_scooter", "name": "8722c10b775e60799dc0a57f840a2193", "fusion_lon": 0.0, "bike_id": "8722c10b775e60799dc0a57f840a2193", "is_reserved": 0, "rental_uris": {"android": "https://dc.lft.to/lastmile_qr_scan", "ios": "https://dc.lft.to/lastmile_qr_scan"}, "lat": 38.907286, "is_disabled": 0, "lon": -77.04540033333333}, {"fusion_lat": 0.0, "type": "electric_scooter", "name": "cb47fc6d24c6d5ee57e7cba4f612b399", "fusion_lon": 0.0, "bike_id": "cb47fc6d24c6d5ee57e7cba4f612b399", "is_reserved": 0, "rental_uris": {"android": "https://dc.lft.to/lastmile_qr_scan", "ios": "https://dc.lft.to/lastmile_qr_scan"}, "lat": 38.909837333333336, "is_disabled": 0, "lon": -77.02176033333333}, {"fusion_lat": 0.0, "type": "electric_scooter", "name": "d476c0ca64b177fffa9626f87766e66e", "fusion_lon": 0.0, "bike_id": "d476c0ca64b177fffa9626f87766e66e", "is_reserved": 0, "rental_uris": {"android": "https://dc.lft.to/lastmile_qr_scan", "ios": "https://dc.lft.to/lastmile_qr_scan"}, "lat": 38.866971666666664, "is_disabled": 0, "lon": -76.98593366666667}, {"fusion_lat": 0.0, "type": "electric_scooter", "name": "5acc595b0dfdf1e5e5db281158fc6aaa", "fusion_lon": 0.0, "bike_id": "5acc595b0dfdf1e5e5db281158fc6aaa", "is_reserved": 0, "rental_uris": {"android": "https://dc.lft.to/lastmile_qr_scan", "ios": "https://dc.lft.to/lastmile_qr_scan"}, "lat": 38.900087666666664, "is_disabled": 0, "lon": -76.93032483333333}, {"fusion_lat": 0.0, "type": "electric_scooter", "name": "009406770bb3a4eea7578008228c5f6d", "fusion_lon": 0.0, "bike_id": "009406770bb3a4eea7578008228c5f6d", "is_reserved": 0, "rental_uris": {"android": "https://dc.lft.to/lastmile_qr_scan", "ios": "https://dc.lft.to/lastmile_qr_scan"}, "lat": 38.9243675, "is_disabled": 0, "lon": -77.0340325}, {"fusion_lat": 0.0, "type": "electric_bike", "name": "8a1286d94c3b2983d56435e343b8ac74", "fusion_lon": 0.0, "bike_id": "8a1286d94c3b2983d56435e343b8ac74", "is_reserved": 0, "rental_uris": {"android": "https://dc.lft.to/lastmile_qr_scan", "ios": "https://dc.lft.to/lastmile_qr_scan"}, "lat": 38.965121333333336, "is_disabled": 0, "lon": -77.03507283333333}, {"fusion_lat": 0.0, "type": "electric_scooter", "name": "fbe707ead34254e1d19fedaf28080973", "fusion_lon": 0.0, "bike_id": "fbe707ead34254e1d19fedaf28080973", "is_reserved": 0, "rental_uris": {"android": "https://dc.lft.to/lastmile_qr_scan", "ios": "https://dc.lft.to/lastmile_qr_scan"}, "lat": 38.865059333333335, "is_disabled": 0, "lon": -76.99003333333333}, {"fusion_lat": 0.0, "type": "electric_scooter", "name": "b16d5d8c6835b54ff68fa14a4eb5989b", "fusion_lon": 0.0, "bike_id": "b16d5d8c6835b54ff68fa14a4eb5989b", "is_reserved": 0, "rental_uris": {"android": "https://dc.lft.to/lastmile_qr_scan", "ios": "https://dc.lft.to/lastmile_qr_scan"}, "lat": 38.927403, "is_disabled": 0, "lon": -77.022637}, {"fusion_lat": 0.0, "type": "electric_bike", "name": "40167e75c2040df65a21cc2c372a15c9", "fusion_lon": 0.0, "bike_id": "40167e75c2040df65a21cc2c372a15c9", "is_reserved": 0, "rental_uris": {"android": "https://dc.lft.to/lastmile_qr_scan", "ios": "https://dc.lft.to/lastmile_qr_scan"}, "lat": 38.812005666666664, "is_disabled": 0, "lon": -77.10838983333333}, {"fusion_lat": 0.0, "type": "electric_scooter", "name": "dd49fc0168d4c18c2801a511d2137cd5", "fusion_lon": 0.0, "bike_id": "dd49fc0168d4c18c2801a511d2137cd5", "is_reserved": 0, "rental_uris": {"android": "https://dc.lft.to/lastmile_qr_scan", "ios": "https://dc.lft.to/lastmile_qr_scan"}, "lat": 38.926599833333334, "is_disabled": 0, "lon": -77.0228755}, {"fusion_lat": 0.0, "type": "electric_scooter", "name": "376751efa76c34d48eaa8511536579c6", "fusion_lon": 0.0, "bike_id": "376751efa76c34d48eaa8511536579c6", "is_reserved": 0, "rental_uris": {"android": "https://dc.lft.to/lastmile_qr_scan", "ios": "https://dc.lft.to/lastmile_qr_scan"}, "lat": 38.893058833333335, "is_disabled": 0, "lon": -76.929187}, {"fusion_lat": 0.0, "type": "electric_scooter", "name": "a05dbdbe64e666233e1ef7253fd994bb", "fusion_lon": 0.0, "bike_id": "a05dbdbe64e666233e1ef7253fd994bb", "is_reserved": 0, "rental_uris": {"android": "https://dc.lft.to/lastmile_qr_scan", "ios": "https://dc.lft.to/lastmile_qr_scan"}, "lat": 38.871094166666666, "is_disabled": 0, "lon": -77.00757866666666}, {"fusion_lat": 0.0, "type": "electric_scooter", "name": "9837a9ee66a1a4d81485dd919a26fb5d", "fusion_lon": 0.0, "bike_id": "9837a9ee66a1a4d81485dd919a26fb5d", "is_reserved": 0, "rental_uris": {"android": "https://dc.lft.to/lastmile_qr_scan", "ios": "https://dc.lft.to/lastmile_qr_scan"}, "lat": 38.898346833333335, "is_disabled": 0, "lon": -77.03326016666666}, {"fusion_lat": 0.0, "type": "electric_scooter", "name": "6d2c15b95d40d90b8c58eabde89ed982", "fusion_lon": 0.0, "bike_id": "6d2c15b95d40d90b8c58eabde89ed982", "is_reserved": 0, "rental_uris": {"android": "https://dc.lft.to/lastmile_qr_scan", "ios": "https://dc.lft.to/lastmile_qr_scan"}, "lat": 38.911772, "is_disabled": 0, "lon": -77.032059}, {"fusion_lat": 0.0, "type": "electric_scooter", "name": "07d501c274017582487e6639c9484037", "fusion_lon": 0.0, "bike_id": "07d501c274017582487e6639c9484037", "is_reserved": 0, "rental_uris": {"android": "https://dc.lft.to/lastmile_qr_scan", "ios": "https://dc.lft.to/lastmile_qr_scan"}, "lat": 38.8720375, "is_disabled": 0, "lon": -76.9783765}, {"fusion_lat": 0.0, "type": "electric_scooter", "name": "04a7cf3131ae8ac61d291eb655c57b14", "fusion_lon": 0.0, "bike_id": "04a7cf3131ae8ac61d291eb655c57b14", "is_reserved": 0, "rental_uris": {"android": "https://dc.lft.to/lastmile_qr_scan", "ios": "https://dc.lft.to/lastmile_qr_scan"}, "lat": 38.88479566666667, "is_disabled": 0, "lon": -76.92614883333333}, {"fusion_lat": 0.0, "type": "electric_scooter", "name": "7481ee39562d9857844e9de8df428212", "fusion_lon": 0.0, "bike_id": "7481ee39562d9857844e9de8df428212", "is_reserved": 0, "rental_uris": {"android": "https://dc.lft.to/lastmile_qr_scan", "ios": "https://dc.lft.to/lastmile_qr_scan"}, "lat": 38.95060216666667, "is_disabled": 0, "lon": -77.08015433333334}, {"fusion_lat": 0.0, "type": "electric_scooter", "name": "78a4590d56225b15efcf6eec79548a8a", "fusion_lon": 0.0, "bike_id": "78a4590d56225b15efcf6eec79548a8a", "is_reserved": 0, "rental_uris": {"android": "https://dc.lft.to/lastmile_qr_scan", "ios": "https://dc.lft.to/lastmile_qr_scan"}, "lat": 38.897272666666666, "is_disabled": 0, "lon": -77.02704}, {"fusion_lat": 0.0, "type": "electric_scooter", "name": "180bee415b50704bbf3b2ed0bea09fa5", "fusion_lon": 0.0, "bike_id": "180bee415b50704bbf3b2ed0bea09fa5", "is_reserved": 0, "rental_uris": {"android": "https://dc.lft.to/lastmile_qr_scan", "ios": "https://dc.lft.to/lastmile_qr_scan"}, "lat": 38.89275583333333, "is_disabled": 0, "lon": -77.04873116666667}, {"fusion_lat": 0.0, "type": "electric_scooter", "name": "95635f7bcbab897bb9a2e55b239880ed", "fusion_lon": 0.0, "bike_id": "95635f7bcbab897bb9a2e55b239880ed", "is_reserved": 0, "rental_uris": {"android": "https://dc.lft.to/lastmile_qr_scan", "ios": "https://dc.lft.to/lastmile_qr_scan"}, "lat": 38.9442735, "is_disabled": 0, "lon": -77.026009}, {"fusion_lat": 0.0, "type": "electric_scooter", "name": "e33c087c4fcbc0c9ade6ebce5c639447", "fusion_lon": 0.0, "bike_id": "e33c087c4fcbc0c9ade6ebce5c639447", "is_reserved": 0, "rental_uris": {"android": "https://dc.lft.to/lastmile_qr_scan", "ios": "https://dc.lft.to/lastmile_qr_scan"}, "lat": 38.91678666666667, "is_disabled": 0, "lon": -77.02308183333334}, {"fusion_lat": 0.0, "type": "electric_scooter", "name": "5f63135359be98e26e702ebb84f8f7e0", "fusion_lon": 0.0, "bike_id": "5f63135359be98e26e702ebb84f8f7e0", "is_reserved": 0, "rental_uris": {"android": "https://dc.lft.to/lastmile_qr_scan", "ios": "https://dc.lft.to/lastmile_qr_scan"}, "lat": 38.905477833333336, "is_disabled": 0, "lon": -77.03253783333334}, {"fusion_lat": 0.0, "type": "electric_scooter", "name": "1f4cadb5d59b4808aadcf2d227a9cdf8", "fusion_lon": 0.0, "bike_id": "1f4cadb5d59b4808aadcf2d227a9cdf8", "is_reserved": 0, "rental_uris": {"android": "https://dc.lft.to/lastmile_qr_scan", "ios": "https://dc.lft.to/lastmile_qr_scan"}, "lat": 38.8553745, "is_disabled": 0, "lon": -76.98417083333334}, {"fusion_lat": 0.0, "type": "electric_scooter", "name": "dc431fec04b01af98aa4b6403679aa9d", "fusion_lon": 0.0, "bike_id": "dc431fec04b01af98aa4b6403679aa9d", "is_reserved": 0, "rental_uris": {"android": "https://dc.lft.to/lastmile_qr_scan", "ios": "https://dc.lft.to/lastmile_qr_scan"}, "lat": 38.88322216666667, "is_disabled": 0, "lon": -77.017631}, {"fusion_lat": 0.0, "type": "electric_scooter", "name": "75130238ea986cdfd76bdbbe33695fb3", "fusion_lon": 0.0, "bike_id": "75130238ea986cdfd76bdbbe33695fb3", "is_reserved": 0, "rental_uris": {"android": "https://dc.lft.to/lastmile_qr_scan", "ios": "https://dc.lft.to/lastmile_qr_scan"}, "lat": 38.90081983333334, "is_disabled": 0, "lon": -76.93020833333334}, {"fusion_lat": 0.0, "type": "electric_scooter", "name": "f7b22c1b72420e7608f8520c1e4f7b12", "fusion_lon": 0.0, "bike_id": "f7b22c1b72420e7608f8520c1e4f7b12", "is_reserved": 0, "rental_uris": {"android": "https://dc.lft.to/lastmile_qr_scan", "ios": "https://dc.lft.to/lastmile_qr_scan"}, "lat": 38.9023995, "is_disabled": 0, "lon": -77.0260625}, {"fusion_lat": 0.0, "type": "electric_scooter", "name": "a7e36a6d8ba311261b360c1863d5866a", "fusion_lon": 0.0, "bike_id": "a7e36a6d8ba311261b360c1863d5866a", "is_reserved": 0, "rental_uris": {"android": "https://dc.lft.to/lastmile_qr_scan", "ios": "https://dc.lft.to/lastmile_qr_scan"}, "lat": 38.902507, "is_disabled": 0, "lon": -77.001998}, {"fusion_lat": 0.0, "type": "electric_scooter", "name": "676f19ada766de3b99ac9792b66b2e5f", "fusion_lon": 0.0, "bike_id": "676f19ada766de3b99ac9792b66b2e5f", "is_reserved": 0, "rental_uris": {"android": "https://dc.lft.to/lastmile_qr_scan", "ios": "https://dc.lft.to/lastmile_qr_scan"}, "lat": 38.934175833333335, "is_disabled": 0, "lon": -77.04406783333333}, {"fusion_lat": 0.0, "type": "electric_scooter", "name": "605dc2fbd5f5144729bc8589f4305bca", "fusion_lon": 0.0, "bike_id": "605dc2fbd5f5144729bc8589f4305bca", "is_reserved": 0, "rental_uris": {"android": "https://dc.lft.to/lastmile_qr_scan", "ios": "https://dc.lft.to/lastmile_qr_scan"}, "lat": 38.94308683333333, "is_disabled": 0, "lon": -77.017228}, {"fusion_lat": 0.0, "type": "electric_scooter", "name": "a632f5e1c017b8f864e748afce9feafe", "fusion_lon": 0.0, "bike_id": "a632f5e1c017b8f864e748afce9feafe", "is_reserved": 0, "rental_uris": {"android": "https://dc.lft.to/lastmile_qr_scan", "ios": "https://dc.lft.to/lastmile_qr_scan"}, "lat": 38.922371, "is_disabled": 0, "lon": -77.03657866666667}, {"fusion_lat": 0.0, "type": "electric_scooter", "name": "ab6f4b164f3968ff4a13d5bc45ca5de1", "fusion_lon": 0.0, "bike_id": "ab6f4b164f3968ff4a13d5bc45ca5de1", "is_reserved": 0, "rental_uris": {"android": "https://dc.lft.to/lastmile_qr_scan", "ios": "https://dc.lft.to/lastmile_qr_scan"}, "lat": 38.92072133333333, "is_disabled": 0, "lon": -77.02394783333334}, {"fusion_lat": 0.0, "type": "electric_scooter", "name": "d1a86833068592ce636226c1b2cdbed5", "fusion_lon": 0.0, "bike_id": "d1a86833068592ce636226c1b2cdbed5", "is_reserved": 0, "rental_uris": {"android": "https://dc.lft.to/lastmile_qr_scan", "ios": "https://dc.lft.to/lastmile_qr_scan"}, "lat": 38.90075733333333, "is_disabled": 0, "lon": -77.04529483333333}, {"fusion_lat": 0.0, "type": "electric_scooter", "name": "b7ce4a4dd23529596de0f48942b77cfa", "fusion_lon": 0.0, "bike_id": "b7ce4a4dd23529596de0f48942b77cfa", "is_reserved": 0, "rental_uris": {"android": "https://dc.lft.to/lastmile_qr_scan", "ios": "https://dc.lft.to/lastmile_qr_scan"}, "lat": 38.901394333333336, "is_disabled": 0, "lon": -77.04348533333334}, {"fusion_lat": 0.0, "type": "electric_scooter", "name": "1ea8e32dd0fd3b886550173ed226e07a", "fusion_lon": 0.0, "bike_id": "1ea8e32dd0fd3b886550173ed226e07a", "is_reserved": 0, "rental_uris": {"android": "https://dc.lft.to/lastmile_qr_scan", "ios": "https://dc.lft.to/lastmile_qr_scan"}, "lat": 38.885040833333335, "is_disabled": 0, "lon": -76.99749866666667}, {"fusion_lat": 0.0, "type": "electric_scooter", "name": "348ff13f7a3b91a6dcf21f57a39441e7", "fusion_lon": 0.0, "bike_id": "348ff13f7a3b91a6dcf21f57a39441e7", "is_reserved": 0, "rental_uris": {"android": "https://dc.lft.to/lastmile_qr_scan", "ios": "https://dc.lft.to/lastmile_qr_scan"}, "lat": 38.89960716666667, "is_disabled": 0, "lon": -77.01436433333333}, {"fusion_lat": 0.0, "type": "electric_scooter", "name": "d0962ab288349964c4632fa2fa22b828", "fusion_lon": 0.0, "bike_id": "d0962ab288349964c4632fa2fa22b828", "is_reserved": 0, "rental_uris": {"android": "https://dc.lft.to/lastmile_qr_scan", "ios": "https://dc.lft.to/lastmile_qr_scan"}, "lat": 38.906374166666666, "is_disabled": 0, "lon": -77.06884166666667}, {"fusion_lat": 0.0, "type": "electric_scooter", "name": "4353e5c85254610ce91040dc6f82c2f7", "fusion_lon": 0.0, "bike_id": "4353e5c85254610ce91040dc6f82c2f7", "is_reserved": 0, "rental_uris": {"android": "https://dc.lft.to/lastmile_qr_scan", "ios": "https://dc.lft.to/lastmile_qr_scan"}, "lat": 38.916953, "is_disabled": 0, "lon": -77.03314433333334}, {"fusion_lat": 0.0, "type": "electric_scooter", "name": "199ba0b48f90322d9a25cdfc30e1d218", "fusion_lon": 0.0, "bike_id": "199ba0b48f90322d9a25cdfc30e1d218", "is_reserved": 0, "rental_uris": {"android": "https://dc.lft.to/lastmile_qr_scan", "ios": "https://dc.lft.to/lastmile_qr_scan"}, "lat": 38.90429, "is_disabled": 0, "lon": -77.04332016666666}, {"fusion_lat": 0.0, "type": "electric_scooter", "name": "fe4e2e83776041cf0018166558dc35a9", "fusion_lon": 0.0, "bike_id": "fe4e2e83776041cf0018166558dc35a9", "is_reserved": 0, "rental_uris": {"android": "https://dc.lft.to/lastmile_qr_scan", "ios": "https://dc.lft.to/lastmile_qr_scan"}, "lat": 38.90378416666667, "is_disabled": 0, "lon": -77.03656933333333}, {"fusion_lat": 0.0, "type": "electric_scooter", "name": "9d52e244e8a9886b3369ef32a1e9f953", "fusion_lon": 0.0, "bike_id": "9d52e244e8a9886b3369ef32a1e9f953", "is_reserved": 0, "rental_uris": {"android": "https://dc.lft.to/lastmile_qr_scan", "ios": "https://dc.lft.to/lastmile_qr_scan"}, "lat": 38.89550933333334, "is_disabled": 0, "lon": -76.94871666666667}, {"fusion_lat": 0.0, "type": "electric_scooter", "name": "cd6776cdf584bc7454f49dd421dde2fc", "fusion_lon": 0.0, "bike_id": "cd6776cdf584bc7454f49dd421dde2fc", "is_reserved": 0, "rental_uris": {"android": "https://dc.lft.to/lastmile_qr_scan", "ios": "https://dc.lft.to/lastmile_qr_scan"}, "lat": 38.90056033333333, "is_disabled": 0, "lon": -77.04880733333333}, {"fusion_lat": 0.0, "type": "electric_scooter", "name": "9b92224026fb9de6ea90508c17874f88", "fusion_lon": 0.0, "bike_id": "9b92224026fb9de6ea90508c17874f88", "is_reserved": 0, "rental_uris": {"android": "https://dc.lft.to/lastmile_qr_scan", "ios": "https://dc.lft.to/lastmile_qr_scan"}, "lat": 38.897309666666665, "is_disabled": 0, "lon": -76.9986235}, {"fusion_lat": 0.0, "type": "electric_scooter", "name": "12ffc1058a60d0119ad168c892df5149", "fusion_lon": 0.0, "bike_id": "12ffc1058a60d0119ad168c892df5149", "is_reserved": 0, "rental_uris": {"android": "https://dc.lft.to/lastmile_qr_scan", "ios": "https://dc.lft.to/lastmile_qr_scan"}, "lat": 38.899162833333335, "is_disabled": 0, "lon": -76.9338055}, {"fusion_lat": 0.0, "type": "electric_scooter", "name": "97453ed15a452edec7bcc8f9489cc13f", "fusion_lon": 0.0, "bike_id": "97453ed15a452edec7bcc8f9489cc13f", "is_reserved": 0, "rental_uris": {"android": "https://dc.lft.to/lastmile_qr_scan", "ios": "https://dc.lft.to/lastmile_qr_scan"}, "lat": 38.91220666666667, "is_disabled": 0, "lon": -77.022776}, {"fusion_lat": 0.0, "type": "electric_scooter", "name": "49064b2f6545c95f69bb459aa8d3d129", "fusion_lon": 0.0, "bike_id": "49064b2f6545c95f69bb459aa8d3d129", "is_reserved": 0, "rental_uris": {"android": "https://dc.lft.to/lastmile_qr_scan", "ios": "https://dc.lft.to/lastmile_qr_scan"}, "lat": 38.900174666666665, "is_disabled": 0, "lon": -77.000844}, {"fusion_lat": 0.0, "type": "electric_scooter", "name": "a0bf6b79c586f7daed521665ec89fd2d", "fusion_lon": 0.0, "bike_id": "a0bf6b79c586f7daed521665ec89fd2d", "is_reserved": 0, "rental_uris": {"android": "https://dc.lft.to/lastmile_qr_scan", "ios": "https://dc.lft.to/lastmile_qr_scan"}, "lat": 38.90276266666667, "is_disabled": 0, "lon": -77.03457433333334}, {"fusion_lat": 0.0, "type": "electric_scooter", "name": "d9776feb5b7a80275a69116ac6d6f98d", "fusion_lon": 0.0, "bike_id": "d9776feb5b7a80275a69116ac6d6f98d", "is_reserved": 0, "rental_uris": {"android": "https://dc.lft.to/lastmile_qr_scan", "ios": "https://dc.lft.to/lastmile_qr_scan"}, "lat": 38.912618, "is_disabled": 0, "lon": -77.0728055}, {"fusion_lat": 0.0, "type": "electric_bike", "name": "f7d6cda2c4e67b92005cbffcba6d18eb", "fusion_lon": 0.0, "bike_id": "f7d6cda2c4e67b92005cbffcba6d18eb", "is_reserved": 0, "rental_uris": {"android": "https://dc.lft.to/lastmile_qr_scan", "ios": "https://dc.lft.to/lastmile_qr_scan"}, "lat": 38.85419783333333, "is_disabled": 0, "lon": -77.12079566666667}, {"fusion_lat": 0.0, "type": "electric_scooter", "name": "1cb0390a2410afb836a6d937a08c293d", "fusion_lon": 0.0, "bike_id": "1cb0390a2410afb836a6d937a08c293d", "is_reserved": 0, "rental_uris": {"android": "https://dc.lft.to/lastmile_qr_scan", "ios": "https://dc.lft.to/lastmile_qr_scan"}, "lat": 38.923594333333334, "is_disabled": 0, "lon": -77.050462}, {"fusion_lat": 0.0, "type": "electric_scooter", "name": "3ef4f4ffb57415b868e074eb91eda368", "fusion_lon": 0.0, "bike_id": "3ef4f4ffb57415b868e074eb91eda368", "is_reserved": 0, "rental_uris": {"android": "https://dc.lft.to/lastmile_qr_scan", "ios": "https://dc.lft.to/lastmile_qr_scan"}, "lat": 38.89226883333333, "is_disabled": 0, "lon": -77.0280245}, {"fusion_lat": 0.0, "type": "electric_bike", "name": "aef994ba6df7c533e8830a087e0401a4", "fusion_lon": 0.0, "bike_id": "aef994ba6df7c533e8830a087e0401a4", "is_reserved": 0, "rental_uris": {"android": "https://dc.lft.to/lastmile_qr_scan", "ios": "https://dc.lft.to/lastmile_qr_scan"}, "lat": 38.89349, "is_disabled": 0, "lon": -77.1874065}, {"fusion_lat": 0.0, "type": "electric_scooter", "name": "d713ac353c2e8cc9f0b1e1591b8ca041", "fusion_lon": 0.0, "bike_id": "d713ac353c2e8cc9f0b1e1591b8ca041", "is_reserved": 0, "rental_uris": {"android": "https://dc.lft.to/lastmile_qr_scan", "ios": "https://dc.lft.to/lastmile_qr_scan"}, "lat": 38.905014333333334, "is_disabled": 0, "lon": -76.97927616666666}, {"fusion_lat": 0.0, "type": "electric_scooter", "name": "8fe75b5be724af4f0a2d983b08ebf758", "fusion_lon": 0.0, "bike_id": "8fe75b5be724af4f0a2d983b08ebf758", "is_reserved": 0, "rental_uris": {"android": "https://dc.lft.to/lastmile_qr_scan", "ios": "https://dc.lft.to/lastmile_qr_scan"}, "lat": 38.892282333333334, "is_disabled": 0, "lon": -77.02831833333333}, {"fusion_lat": 0.0, "type": "electric_scooter", "name": "4c8ec536c1067cb35c6c4a75769b3584", "fusion_lon": 0.0, "bike_id": "4c8ec536c1067cb35c6c4a75769b3584", "is_reserved": 0, "rental_uris": {"android": "https://dc.lft.to/lastmile_qr_scan", "ios": "https://dc.lft.to/lastmile_qr_scan"}, "lat": 38.90264833333333, "is_disabled": 0, "lon": -77.03429783333333}, {"fusion_lat": 0.0, "type": "electric_scooter", "name": "c903085097ca53f1e677b207bde31c89", "fusion_lon": 0.0, "bike_id": "c903085097ca53f1e677b207bde31c89", "is_reserved": 0, "rental_uris": {"android": "https://dc.lft.to/lastmile_qr_scan", "ios": "https://dc.lft.to/lastmile_qr_scan"}, "lat": 38.89239083333333, "is_disabled": 0, "lon": -77.04162683333334}, {"fusion_lat": 0.0, "type": "electric_scooter", "name": "47a48ff288e1dcc08232e1df7600c509", "fusion_lon": 0.0, "bike_id": "47a48ff288e1dcc08232e1df7600c509", "is_reserved": 0, "rental_uris": {"android": "https://dc.lft.to/lastmile_qr_scan", "ios": "https://dc.lft.to/lastmile_qr_scan"}, "lat": 38.90717883333333, "is_disabled": 0, "lon": -77.04231466666667}, {"fusion_lat": 0.0, "type": "electric_scooter", "name": "c8af7f78096feb7af502d1211054af08", "fusion_lon": 0.0, "bike_id": "c8af7f78096feb7af502d1211054af08", "is_reserved": 0, "rental_uris": {"android": "https://dc.lft.to/lastmile_qr_scan", "ios": "https://dc.lft.to/lastmile_qr_scan"}, "lat": 38.86208583333333, "is_disabled": 0, "lon": -76.99472816666666}, {"fusion_lat": 0.0, "type": "electric_scooter", "name": "77b9ba9937358675cee34bc9521d847c", "fusion_lon": 0.0, "bike_id": "77b9ba9937358675cee34bc9521d847c", "is_reserved": 0, "rental_uris": {"android": "https://dc.lft.to/lastmile_qr_scan", "ios": "https://dc.lft.to/lastmile_qr_scan"}, "lat": 38.92753666666667, "is_disabled": 0, "lon": -77.02417733333333}, {"fusion_lat": 0.0, "type": "electric_scooter", "name": "d656260dc7b71073f634c2f959bdd9d9", "fusion_lon": 0.0, "bike_id": "d656260dc7b71073f634c2f959bdd9d9", "is_reserved": 0, "rental_uris": {"android": "https://dc.lft.to/lastmile_qr_scan", "ios": "https://dc.lft.to/lastmile_qr_scan"}, "lat": 38.92484683333333, "is_disabled": 0, "lon": -77.021946}, {"fusion_lat": 0.0, "type": "electric_scooter", "name": "f49ba81eba060e435bdb2d83bfd3413f", "fusion_lon": 0.0, "bike_id": "f49ba81eba060e435bdb2d83bfd3413f", "is_reserved": 0, "rental_uris": {"android": "https://dc.lft.to/lastmile_qr_scan", "ios": "https://dc.lft.to/lastmile_qr_scan"}, "lat": 38.925170333333334, "is_disabled": 0, "lon": -77.05047283333333}, {"fusion_lat": 0.0, "type": "electric_scooter", "name": "39d513314cfdd17820fdc45bbac2085e", "fusion_lon": 0.0, "bike_id": "39d513314cfdd17820fdc45bbac2085e", "is_reserved": 0, "rental_uris": {"android": "https://dc.lft.to/lastmile_qr_scan", "ios": "https://dc.lft.to/lastmile_qr_scan"}, "lat": 38.8754255, "is_disabled": 0, "lon": -77.00581816666667}, {"fusion_lat": 0.0, "type": "electric_scooter", "name": "5e8dfcc178103ca131483487e8fdf496", "fusion_lon": 0.0, "bike_id": "5e8dfcc178103ca131483487e8fdf496", "is_reserved": 0, "rental_uris": {"android": "https://dc.lft.to/lastmile_qr_scan", "ios": "https://dc.lft.to/lastmile_qr_scan"}, "lat": 38.95198166666667, "is_disabled": 0, "lon": -77.02734533333333}, {"fusion_lat": 0.0, "type": "electric_scooter", "name": "000480bb197f3d80dfc58bb3a8077d5f", "fusion_lon": 0.0, "bike_id": "000480bb197f3d80dfc58bb3a8077d5f", "is_reserved": 0, "rental_uris": {"android": "https://dc.lft.to/lastmile_qr_scan", "ios": "https://dc.lft.to/lastmile_qr_scan"}, "lat": 38.8922285, "is_disabled": 0, "lon": -77.03222483333333}, {"fusion_lat": 0.0, "type": "electric_scooter", "name": "306277492890e84219ca664e7b4cfb3b", "fusion_lon": 0.0, "bike_id": "306277492890e84219ca664e7b4cfb3b", "is_reserved": 0, "rental_uris": {"android": "https://dc.lft.to/lastmile_qr_scan", "ios": "https://dc.lft.to/lastmile_qr_scan"}, "lat": 38.919500666666664, "is_disabled": 0, "lon": -77.04158033333333}, {"fusion_lat": 0.0, "type": "electric_scooter", "name": "01b182546fedd5a0e8d76f64772c5f52", "fusion_lon": 0.0, "bike_id": "01b182546fedd5a0e8d76f64772c5f52", "is_reserved": 0, "rental_uris": {"android": "https://dc.lft.to/lastmile_qr_scan", "ios": "https://dc.lft.to/lastmile_qr_scan"}, "lat": 38.933667, "is_disabled": 0, "lon": -77.05721533333333}, {"fusion_lat": 0.0, "type": "electric_scooter", "name": "09fc9eb1eb771955b226e5d63062973c", "fusion_lon": 0.0, "bike_id": "09fc9eb1eb771955b226e5d63062973c", "is_reserved": 0, "rental_uris": {"android": "https://dc.lft.to/lastmile_qr_scan", "ios": "https://dc.lft.to/lastmile_qr_scan"}, "lat": 38.89196616666667, "is_disabled": 0, "lon": -77.00295533333333}, {"fusion_lat": 0.0, "type": "electric_scooter", "name": "d5a2d8c65d5bca383a3933d522493eb5", "fusion_lon": 0.0, "bike_id": "d5a2d8c65d5bca383a3933d522493eb5", "is_reserved": 0, "rental_uris": {"android": "https://dc.lft.to/lastmile_qr_scan", "ios": "https://dc.lft.to/lastmile_qr_scan"}, "lat": 38.90571283333333, "is_disabled": 0, "lon": -76.97631733333333}, {"fusion_lat": 0.0, "type": "electric_scooter", "name": "27b521618d0fdeaa5dddc6f139ac7c40", "fusion_lon": 0.0, "bike_id": "27b521618d0fdeaa5dddc6f139ac7c40", "is_reserved": 0, "rental_uris": {"android": "https://dc.lft.to/lastmile_qr_scan", "ios": "https://dc.lft.to/lastmile_qr_scan"}, "lat": 38.92056866666667, "is_disabled": 0, "lon": -77.0346275}, {"fusion_lat": 0.0, "type": "electric_scooter", "name": "b4f0341dc9ec36ae1dce7aabfd7710ae", "fusion_lon": 0.0, "bike_id": "b4f0341dc9ec36ae1dce7aabfd7710ae", "is_reserved": 0, "rental_uris": {"android": "https://dc.lft.to/lastmile_qr_scan", "ios": "https://dc.lft.to/lastmile_qr_scan"}, "lat": 38.88673166666667, "is_disabled": 0, "lon": -76.93613633333334}, {"fusion_lat": 0.0, "type": "electric_scooter", "name": "bd9d213189d488c3dccc8c916d7f9a8c", "fusion_lon": 0.0, "bike_id": "bd9d213189d488c3dccc8c916d7f9a8c", "is_reserved": 0, "rental_uris": {"android": "https://dc.lft.to/lastmile_qr_scan", "ios": "https://dc.lft.to/lastmile_qr_scan"}, "lat": 38.905871833333336, "is_disabled": 0, "lon": -77.021797}, {"fusion_lat": 0.0, "type": "electric_scooter", "name": "d0f9f8f7d2b0519d452299e4b0767062", "fusion_lon": 0.0, "bike_id": "d0f9f8f7d2b0519d452299e4b0767062", "is_reserved": 0, "rental_uris": {"android": "https://dc.lft.to/lastmile_qr_scan", "ios": "https://dc.lft.to/lastmile_qr_scan"}, "lat": 38.89802066666667, "is_disabled": 0, "lon": -77.04016833333333}, {"fusion_lat": 0.0, "type": "electric_scooter", "name": "3e15a1aa59738ec0fe589821f6f80f70", "fusion_lon": 0.0, "bike_id": "3e15a1aa59738ec0fe589821f6f80f70", "is_reserved": 0, "rental_uris": {"android": "https://dc.lft.to/lastmile_qr_scan", "ios": "https://dc.lft.to/lastmile_qr_scan"}, "lat": 38.9115185, "is_disabled": 0, "lon": -77.04440533333333}, {"fusion_lat": 0.0, "type": "electric_scooter", "name": "970ea3bdcfb9b7febe89b0a87678b4b2", "fusion_lon": 0.0, "bike_id": "970ea3bdcfb9b7febe89b0a87678b4b2", "is_reserved": 0, "rental_uris": {"android": "https://dc.lft.to/lastmile_qr_scan", "ios": "https://dc.lft.to/lastmile_qr_scan"}, "lat": 38.92134983333333, "is_disabled": 0, "lon": -77.01805033333333}, {"fusion_lat": 0.0, "type": "electric_scooter", "name": "6193bb80f72b5baf4057c4456e4ce224", "fusion_lon": 0.0, "bike_id": "6193bb80f72b5baf4057c4456e4ce224", "is_reserved": 0, "rental_uris": {"android": "https://dc.lft.to/lastmile_qr_scan", "ios": "https://dc.lft.to/lastmile_qr_scan"}, "lat": 38.90718716666667, "is_disabled": 0, "lon": -77.04175616666667}, {"fusion_lat": 0.0, "type": "electric_scooter", "name": "19fc6ac033fd46dd88f28ab4ab33dead", "fusion_lon": 0.0, "bike_id": "19fc6ac033fd46dd88f28ab4ab33dead", "is_reserved": 0, "rental_uris": {"android": "https://dc.lft.to/lastmile_qr_scan", "ios": "https://dc.lft.to/lastmile_qr_scan"}, "lat": 38.905597666666665, "is_disabled": 0, "lon": -77.047052}, {"fusion_lat": 0.0, "type": "electric_scooter", "name": "70850d6b440165985499e30e9901c2e6", "fusion_lon": 0.0, "bike_id": "70850d6b440165985499e30e9901c2e6", "is_reserved": 0, "rental_uris": {"android": "https://dc.lft.to/lastmile_qr_scan", "ios": "https://dc.lft.to/lastmile_qr_scan"}, "lat": 38.884960666666665, "is_disabled": 0, "lon": -77.01596883333333}, {"fusion_lat": 0.0, "type": "electric_bike", "name": "878e46dffe0785dad7d700cbe854cacc", "fusion_lon": 0.0, "bike_id": "878e46dffe0785dad7d700cbe854cacc", "is_reserved": 0, "rental_uris": {"android": "https://dc.lft.to/lastmile_qr_scan", "ios": "https://dc.lft.to/lastmile_qr_scan"}, "lat": 39.056321, "is_disabled": 0, "lon": -77.12523766666666}, {"fusion_lat": 0.0, "type": "electric_scooter", "name": "7ca635a18295abd6d64fc198a1450a94", "fusion_lon": 0.0, "bike_id": "7ca635a18295abd6d64fc198a1450a94", "is_reserved": 0, "rental_uris": {"android": "https://dc.lft.to/lastmile_qr_scan", "ios": "https://dc.lft.to/lastmile_qr_scan"}, "lat": 38.843160166666664, "is_disabled": 0, "lon": -76.99932883333334}, {"fusion_lat": 0.0, "type": "electric_scooter", "name": "56280b249085db493898a15d55ed4162", "fusion_lon": 0.0, "bike_id": "56280b249085db493898a15d55ed4162", "is_reserved": 0, "rental_uris": {"android": "https://dc.lft.to/lastmile_qr_scan", "ios": "https://dc.lft.to/lastmile_qr_scan"}, "lat": 38.90589883333333, "is_disabled": 0, "lon": -77.02175066666666}, {"fusion_lat": 0.0, "type": "electric_scooter", "name": "79d3ebbcf4b3734c4907f6bb4ae781f0", "fusion_lon": 0.0, "bike_id": "79d3ebbcf4b3734c4907f6bb4ae781f0", "is_reserved": 0, "rental_uris": {"android": "https://dc.lft.to/lastmile_qr_scan", "ios": "https://dc.lft.to/lastmile_qr_scan"}, "lat": 38.904988, "is_disabled": 0, "lon": -77.0385485}, {"fusion_lat": 0.0, "type": "electric_scooter", "name": "da73d43de52f81602774f5f646d9ebd1", "fusion_lon": 0.0, "bike_id": "da73d43de52f81602774f5f646d9ebd1", "is_reserved": 0, "rental_uris": {"android": "https://dc.lft.to/lastmile_qr_scan", "ios": "https://dc.lft.to/lastmile_qr_scan"}, "lat": 38.92220316666667, "is_disabled": 0, "lon": -77.02211916666667}, {"fusion_lat": 0.0, "type": "electric_scooter", "name": "afc06315adf69ea60b57b6d9ce03aff5", "fusion_lon": 0.0, "bike_id": "afc06315adf69ea60b57b6d9ce03aff5", "is_reserved": 0, "rental_uris": {"android": "https://dc.lft.to/lastmile_qr_scan", "ios": "https://dc.lft.to/lastmile_qr_scan"}, "lat": 38.89503233333333, "is_disabled": 0, "lon": -76.93475683333334}, {"fusion_lat": 0.0, "type": "electric_scooter", "name": "e93035c58797ce64b7ab5018763d21d2", "fusion_lon": 0.0, "bike_id": "e93035c58797ce64b7ab5018763d21d2", "is_reserved": 0, "rental_uris": {"android": "https://dc.lft.to/lastmile_qr_scan", "ios": "https://dc.lft.to/lastmile_qr_scan"}, "lat": 38.90115933333333, "is_disabled": 0, "lon": -77.04984116666667}, {"fusion_lat": 0.0, "type": "electric_scooter", "name": "16e9656d850f0dc434bf4df87856c583", "fusion_lon": 0.0, "bike_id": "16e9656d850f0dc434bf4df87856c583", "is_reserved": 0, "rental_uris": {"android": "https://dc.lft.to/lastmile_qr_scan", "ios": "https://dc.lft.to/lastmile_qr_scan"}, "lat": 38.88764966666667, "is_disabled": 0, "lon": -76.98686716666667}, {"fusion_lat": 0.0, "type": "electric_scooter", "name": "621e838255b70dc819765c772afc00ea", "fusion_lon": 0.0, "bike_id": "621e838255b70dc819765c772afc00ea", "is_reserved": 0, "rental_uris": {"android": "https://dc.lft.to/lastmile_qr_scan", "ios": "https://dc.lft.to/lastmile_qr_scan"}, "lat": 38.89243416666667, "is_disabled": 0, "lon": -77.01725033333334}, {"fusion_lat": 0.0, "type": "electric_scooter", "name": "37a489f9756e29cba31ffe1f2d97581d", "fusion_lon": 0.0, "bike_id": "37a489f9756e29cba31ffe1f2d97581d", "is_reserved": 0, "rental_uris": {"android": "https://dc.lft.to/lastmile_qr_scan", "ios": "https://dc.lft.to/lastmile_qr_scan"}, "lat": 38.918868, "is_disabled": 0, "lon": -77.0296995}, {"fusion_lat": 0.0, "type": "electric_scooter", "name": "12e8b31c9117c92d854badf879a30039", "fusion_lon": 0.0, "bike_id": "12e8b31c9117c92d854badf879a30039", "is_reserved": 0, "rental_uris": {"android": "https://dc.lft.to/lastmile_qr_scan", "ios": "https://dc.lft.to/lastmile_qr_scan"}, "lat": 38.9450825, "is_disabled": 0, "lon": -77.07456716666667}, {"fusion_lat": 0.0, "type": "electric_scooter", "name": "a94c3b815df002075e3a242ca5a80157", "fusion_lon": 0.0, "bike_id": "a94c3b815df002075e3a242ca5a80157", "is_reserved": 0, "rental_uris": {"android": "https://dc.lft.to/lastmile_qr_scan", "ios": "https://dc.lft.to/lastmile_qr_scan"}, "lat": 38.86700483333333, "is_disabled": 0, "lon": -76.98711983333334}, {"fusion_lat": 0.0, "type": "electric_scooter", "name": "43a7f7f354390bc2036f8c87c4130976", "fusion_lon": 0.0, "bike_id": "43a7f7f354390bc2036f8c87c4130976", "is_reserved": 0, "rental_uris": {"android": "https://dc.lft.to/lastmile_qr_scan", "ios": "https://dc.lft.to/lastmile_qr_scan"}, "lat": 38.89506033333333, "is_disabled": 0, "lon": -77.00346033333334}, {"fusion_lat": 0.0, "type": "electric_scooter", "name": "9fc9eb8f5d142e09a30f9edffe45123e", "fusion_lon": 0.0, "bike_id": "9fc9eb8f5d142e09a30f9edffe45123e", "is_reserved": 0, "rental_uris": {"android": "https://dc.lft.to/lastmile_qr_scan", "ios": "https://dc.lft.to/lastmile_qr_scan"}, "lat": 38.88408066666667, "is_disabled": 0, "lon": -76.95423033333333}, {"fusion_lat": 0.0, "type": "electric_scooter", "name": "cb2a177e4333442545d53b665568831c", "fusion_lon": 0.0, "bike_id": "cb2a177e4333442545d53b665568831c", "is_reserved": 0, "rental_uris": {"android": "https://dc.lft.to/lastmile_qr_scan", "ios": "https://dc.lft.to/lastmile_qr_scan"}, "lat": 38.924351, "is_disabled": 0, "lon": -77.00058633333333}, {"fusion_lat": 0.0, "type": "electric_scooter", "name": "1d6edb390506d0e118339e5bf1ddf654", "fusion_lon": 0.0, "bike_id": "1d6edb390506d0e118339e5bf1ddf654", "is_reserved": 0, "rental_uris": {"android": "https://dc.lft.to/lastmile_qr_scan", "ios": "https://dc.lft.to/lastmile_qr_scan"}, "lat": 38.86467183333333, "is_disabled": 0, "lon": -76.97740033333334}, {"fusion_lat": 0.0, "type": "electric_bike", "name": "076c8cded1c105cdaf6599ed4cf953cf", "fusion_lon": 0.0, "bike_id": "076c8cded1c105cdaf6599ed4cf953cf", "is_reserved": 0, "rental_uris": {"android": "https://dc.lft.to/lastmile_qr_scan", "ios": "https://dc.lft.to/lastmile_qr_scan"}, "lat": 38.83939383333333, "is_disabled": 0, "lon": -77.079029}, {"fusion_lat": 0.0, "type": "electric_scooter", "name": "158dc6c816b58def0a967759760131e6", "fusion_lon": 0.0, "bike_id": "158dc6c816b58def0a967759760131e6", "is_reserved": 0, "rental_uris": {"android": "https://dc.lft.to/lastmile_qr_scan", "ios": "https://dc.lft.to/lastmile_qr_scan"}, "lat": 38.907253833333336, "is_disabled": 0, "lon": -77.0326505}, {"fusion_lat": 0.0, "type": "electric_scooter", "name": "380cba9a6336102aa55595e77a63453b", "fusion_lon": 0.0, "bike_id": "380cba9a6336102aa55595e77a63453b", "is_reserved": 0, "rental_uris": {"android": "https://dc.lft.to/lastmile_qr_scan", "ios": "https://dc.lft.to/lastmile_qr_scan"}, "lat": 38.92939583333333, "is_disabled": 0, "lon": -77.03240633333333}, {"fusion_lat": 0.0, "type": "electric_scooter", "name": "00903ef9d05775d87fdf38657deb8154", "fusion_lon": 0.0, "bike_id": "00903ef9d05775d87fdf38657deb8154", "is_reserved": 0, "rental_uris": {"android": "https://dc.lft.to/lastmile_qr_scan", "ios": "https://dc.lft.to/lastmile_qr_scan"}, "lat": 38.939808166666666, "is_disabled": 0, "lon": -77.03260033333333}, {"fusion_lat": 0.0, "type": "electric_scooter", "name": "f5a4569fc176c5629de4881862b078c5", "fusion_lon": 0.0, "bike_id": "f5a4569fc176c5629de4881862b078c5", "is_reserved": 0, "rental_uris": {"android": "https://dc.lft.to/lastmile_qr_scan", "ios": "https://dc.lft.to/lastmile_qr_scan"}, "lat": 38.929027, "is_disabled": 0, "lon": -77.03757933333333}, {"fusion_lat": 0.0, "type": "electric_bike", "name": "482950bd17bea65dd5ca8e3ac1000982", "fusion_lon": 0.0, "bike_id": "482950bd17bea65dd5ca8e3ac1000982", "is_reserved": 0, "rental_uris": {"android": "https://dc.lft.to/lastmile_qr_scan", "ios": "https://dc.lft.to/lastmile_qr_scan"}, "lat": 38.90313666666667, "is_disabled": 0, "lon": -76.9121735}, {"fusion_lat": 0.0, "type": "electric_scooter", "name": "1465ec42f5a58efcc8742bad519574aa", "fusion_lon": 0.0, "bike_id": "1465ec42f5a58efcc8742bad519574aa", "is_reserved": 0, "rental_uris": {"android": "https://dc.lft.to/lastmile_qr_scan", "ios": "https://dc.lft.to/lastmile_qr_scan"}, "lat": 38.92246033333333, "is_disabled": 0, "lon": -77.02129516666666}, {"fusion_lat": 0.0, "type": "electric_scooter", "name": "3676f2d9903ebbb0bb2a16d8880edbc8", "fusion_lon": 0.0, "bike_id": "3676f2d9903ebbb0bb2a16d8880edbc8", "is_reserved": 0, "rental_uris": {"android": "https://dc.lft.to/lastmile_qr_scan", "ios": "https://dc.lft.to/lastmile_qr_scan"}, "lat": 38.952564333333335, "is_disabled": 0, "lon": -77.00141583333334}, {"fusion_lat": 0.0, "type": "electric_scooter", "name": "a8c91b2599b1b96a4173d09538c8cf06", "fusion_lon": 0.0, "bike_id": "a8c91b2599b1b96a4173d09538c8cf06", "is_reserved": 0, "rental_uris": {"android": "https://dc.lft.to/lastmile_qr_scan", "ios": "https://dc.lft.to/lastmile_qr_scan"}, "lat": 38.909385666666665, "is_disabled": 0, "lon": -77.04425866666666}, {"fusion_lat": 0.0, "type": "electric_scooter", "name": "5fad67ec4ed445ba0a8a64e89427f843", "fusion_lon": 0.0, "bike_id": "5fad67ec4ed445ba0a8a64e89427f843", "is_reserved": 0, "rental_uris": {"android": "https://dc.lft.to/lastmile_qr_scan", "ios": "https://dc.lft.to/lastmile_qr_scan"}, "lat": 38.917585333333335, "is_disabled": 0, "lon": -77.031343}, {"fusion_lat": 0.0, "type": "electric_scooter", "name": "b4a7d899e12c8d05880a999d1c5cfb66", "fusion_lon": 0.0, "bike_id": "b4a7d899e12c8d05880a999d1c5cfb66", "is_reserved": 0, "rental_uris": {"android": "https://dc.lft.to/lastmile_qr_scan", "ios": "https://dc.lft.to/lastmile_qr_scan"}, "lat": 38.89318, "is_disabled": 0, "lon": -76.95112583333334}, {"fusion_lat": 0.0, "type": "electric_scooter", "name": "03ec351d1725e364b8f0e415f509e933", "fusion_lon": 0.0, "bike_id": "03ec351d1725e364b8f0e415f509e933", "is_reserved": 0, "rental_uris": {"android": "https://dc.lft.to/lastmile_qr_scan", "ios": "https://dc.lft.to/lastmile_qr_scan"}, "lat": 38.892212666666666, "is_disabled": 0, "lon": -77.043781}, {"fusion_lat": 0.0, "type": "electric_scooter", "name": "58a33669e41a71ce418d4364c2b929ce", "fusion_lon": 0.0, "bike_id": "58a33669e41a71ce418d4364c2b929ce", "is_reserved": 0, "rental_uris": {"android": "https://dc.lft.to/lastmile_qr_scan", "ios": "https://dc.lft.to/lastmile_qr_scan"}, "lat": 38.889872, "is_disabled": 0, "lon": -76.93107}, {"fusion_lat": 0.0, "type": "electric_scooter", "name": "7e4dc30e083eab309f2a62040c9631b9", "fusion_lon": 0.0, "bike_id": "7e4dc30e083eab309f2a62040c9631b9", "is_reserved": 0, "rental_uris": {"android": "https://dc.lft.to/lastmile_qr_scan", "ios": "https://dc.lft.to/lastmile_qr_scan"}, "lat": 38.900331, "is_disabled": 0, "lon": -77.00197633333333}, {"fusion_lat": 0.0, "type": "electric_scooter", "name": "229c6bfdc822f9a14617aa21229993ec", "fusion_lon": 0.0, "bike_id": "229c6bfdc822f9a14617aa21229993ec", "is_reserved": 0, "rental_uris": {"android": "https://dc.lft.to/lastmile_qr_scan", "ios": "https://dc.lft.to/lastmile_qr_scan"}, "lat": 38.919895333333336, "is_disabled": 0, "lon": -76.97307033333334}, {"fusion_lat": 0.0, "type": "electric_scooter", "name": "12ee83843cd825092c457cc5a92bdefb", "fusion_lon": 0.0, "bike_id": "12ee83843cd825092c457cc5a92bdefb", "is_reserved": 0, "rental_uris": {"android": "https://dc.lft.to/lastmile_qr_scan", "ios": "https://dc.lft.to/lastmile_qr_scan"}, "lat": 38.89788733333334, "is_disabled": 0, "lon": -77.02593433333334}, {"fusion_lat": 0.0, "type": "electric_scooter", "name": "ee9f407e1ecf55030f19cad86f9f237a", "fusion_lon": 0.0, "bike_id": "ee9f407e1ecf55030f19cad86f9f237a", "is_reserved": 0, "rental_uris": {"android": "https://dc.lft.to/lastmile_qr_scan", "ios": "https://dc.lft.to/lastmile_qr_scan"}, "lat": 38.903117333333334, "is_disabled": 0, "lon": -77.03301016666667}, {"fusion_lat": 0.0, "type": "electric_scooter", "name": "2e88aca8c90e6abee2a9939d94283ac6", "fusion_lon": 0.0, "bike_id": "2e88aca8c90e6abee2a9939d94283ac6", "is_reserved": 0, "rental_uris": {"android": "https://dc.lft.to/lastmile_qr_scan", "ios": "https://dc.lft.to/lastmile_qr_scan"}, "lat": 38.90123116666667, "is_disabled": 0, "lon": -77.0489355}, {"fusion_lat": 0.0, "type": "electric_scooter", "name": "24bfcf881cce2b87c8536be5152bee22", "fusion_lon": 0.0, "bike_id": "24bfcf881cce2b87c8536be5152bee22", "is_reserved": 0, "rental_uris": {"android": "https://dc.lft.to/lastmile_qr_scan", "ios": "https://dc.lft.to/lastmile_qr_scan"}, "lat": 38.92242016666667, "is_disabled": 0, "lon": -77.03660383333333}, {"fusion_lat": 0.0, "type": "electric_scooter", "name": "88b0118a8d7513fe7f0205142dc9e887", "fusion_lon": 0.0, "bike_id": "88b0118a8d7513fe7f0205142dc9e887", "is_reserved": 0, "rental_uris": {"android": "https://dc.lft.to/lastmile_qr_scan", "ios": "https://dc.lft.to/lastmile_qr_scan"}, "lat": 38.91331616666667, "is_disabled": 0, "lon": -77.0481795}, {"fusion_lat": 0.0, "type": "electric_scooter", "name": "b38bc83926225b9554db92a03dd8d3b4", "fusion_lon": 0.0, "bike_id": "b38bc83926225b9554db92a03dd8d3b4", "is_reserved": 0, "rental_uris": {"android": "https://dc.lft.to/lastmile_qr_scan", "ios": "https://dc.lft.to/lastmile_qr_scan"}, "lat": 38.945257166666664, "is_disabled": 0, "lon": -77.02084916666666}, {"fusion_lat": 0.0, "type": "electric_scooter", "name": "13fc4904777697f45f5bdf61f3ef7fd9", "fusion_lon": 0.0, "bike_id": "13fc4904777697f45f5bdf61f3ef7fd9", "is_reserved": 0, "rental_uris": {"android": "https://dc.lft.to/lastmile_qr_scan", "ios": "https://dc.lft.to/lastmile_qr_scan"}, "lat": 38.892203333333335, "is_disabled": 0, "lon": -77.03160133333333}, {"fusion_lat": 0.0, "type": "electric_scooter", "name": "4575b36f2e88e78cdd8272456209a2db", "fusion_lon": 0.0, "bike_id": "4575b36f2e88e78cdd8272456209a2db", "is_reserved": 0, "rental_uris": {"android": "https://dc.lft.to/lastmile_qr_scan", "ios": "https://dc.lft.to/lastmile_qr_scan"}, "lat": 38.9168595, "is_disabled": 0, "lon": -77.031932}, {"fusion_lat": 0.0, "type": "electric_scooter", "name": "ae944c8667b61b148d70d2a0ed2b0316", "fusion_lon": 0.0, "bike_id": "ae944c8667b61b148d70d2a0ed2b0316", "is_reserved": 0, "rental_uris": {"android": "https://dc.lft.to/lastmile_qr_scan", "ios": "https://dc.lft.to/lastmile_qr_scan"}, "lat": 38.9103585, "is_disabled": 0, "lon": -77.0221835}, {"fusion_lat": 0.0, "type": "electric_scooter", "name": "7a8dd7b039b0251fdc69a80e1621272c", "fusion_lon": 0.0, "bike_id": "7a8dd7b039b0251fdc69a80e1621272c", "is_reserved": 0, "rental_uris": {"android": "https://dc.lft.to/lastmile_qr_scan", "ios": "https://dc.lft.to/lastmile_qr_scan"}, "lat": 38.8961455, "is_disabled": 0, "lon": -76.992948}, {"fusion_lat": 0.0, "type": "electric_scooter", "name": "6e7e56a68cc5da955cf6d6c0e83e8230", "fusion_lon": 0.0, "bike_id": "6e7e56a68cc5da955cf6d6c0e83e8230", "is_reserved": 0, "rental_uris": {"android": "https://dc.lft.to/lastmile_qr_scan", "ios": "https://dc.lft.to/lastmile_qr_scan"}, "lat": 38.918127166666665, "is_disabled": 0, "lon": -77.04002316666667}, {"fusion_lat": 0.0, "type": "electric_bike", "name": "1191472ccdccb4b3dcf0068f20f64081", "fusion_lon": 0.0, "bike_id": "1191472ccdccb4b3dcf0068f20f64081", "is_reserved": 0, "rental_uris": {"android": "https://dc.lft.to/lastmile_qr_scan", "ios": "https://dc.lft.to/lastmile_qr_scan"}, "lat": 38.9576045, "is_disabled": 0, "lon": -77.0071155}, {"fusion_lat": 0.0, "type": "electric_scooter", "name": "40894fd00912dff67dc4d3a5bc648c15", "fusion_lon": 0.0, "bike_id": "40894fd00912dff67dc4d3a5bc648c15", "is_reserved": 0, "rental_uris": {"android": "https://dc.lft.to/lastmile_qr_scan", "ios": "https://dc.lft.to/lastmile_qr_scan"}, "lat": 38.89878433333333, "is_disabled": 0, "lon": -76.93191533333334}, {"fusion_lat": 0.0, "type": "electric_scooter", "name": "7b98b4fdcfe44f5ebaccef8456e998ad", "fusion_lon": 0.0, "bike_id": "7b98b4fdcfe44f5ebaccef8456e998ad", "is_reserved": 0, "rental_uris": {"android": "https://dc.lft.to/lastmile_qr_scan", "ios": "https://dc.lft.to/lastmile_qr_scan"}, "lat": 38.92508216666667, "is_disabled": 0, "lon": -77.002266}, {"fusion_lat": 0.0, "type": "electric_scooter", "name": "479358cb2b0dddda2d521057536245ea", "fusion_lon": 0.0, "bike_id": "479358cb2b0dddda2d521057536245ea", "is_reserved": 0, "rental_uris": {"android": "https://dc.lft.to/lastmile_qr_scan", "ios": "https://dc.lft.to/lastmile_qr_scan"}, "lat": 38.8650405, "is_disabled": 0, "lon": -76.99001583333333}, {"fusion_lat": 0.0, "type": "electric_scooter", "name": "adae5ed17570f50f4acbf50a1a35bb52", "fusion_lon": 0.0, "bike_id": "adae5ed17570f50f4acbf50a1a35bb52", "is_reserved": 0, "rental_uris": {"android": "https://dc.lft.to/lastmile_qr_scan", "ios": "https://dc.lft.to/lastmile_qr_scan"}, "lat": 38.871901, "is_disabled": 0, "lon": -77.00583733333333}, {"fusion_lat": 0.0, "type": "electric_scooter", "name": "4b2efa8ea8c45ed6dbbef6d15fa9a5df", "fusion_lon": 0.0, "bike_id": "4b2efa8ea8c45ed6dbbef6d15fa9a5df", "is_reserved": 0, "rental_uris": {"android": "https://dc.lft.to/lastmile_qr_scan", "ios": "https://dc.lft.to/lastmile_qr_scan"}, "lat": 38.941999833333334, "is_disabled": 0, "lon": -77.02503533333334}, {"fusion_lat": 0.0, "type": "electric_scooter", "name": "1c8b3da28195ff034d36c6aa2711ff11", "fusion_lon": 0.0, "bike_id": "1c8b3da28195ff034d36c6aa2711ff11", "is_reserved": 0, "rental_uris": {"android": "https://dc.lft.to/lastmile_qr_scan", "ios": "https://dc.lft.to/lastmile_qr_scan"}, "lat": 38.949857333333334, "is_disabled": 0, "lon": -77.02704}, {"fusion_lat": 0.0, "type": "electric_scooter", "name": "3ad9b4013edd239f1c2598685931d38e", "fusion_lon": 0.0, "bike_id": "3ad9b4013edd239f1c2598685931d38e", "is_reserved": 0, "rental_uris": {"android": "https://dc.lft.to/lastmile_qr_scan", "ios": "https://dc.lft.to/lastmile_qr_scan"}, "lat": 38.936078, "is_disabled": 0, "lon": -77.05884566666667}, {"fusion_lat": 0.0, "type": "electric_scooter", "name": "1d037a371a5a03367fd87b7b3aebfee2", "fusion_lon": 0.0, "bike_id": "1d037a371a5a03367fd87b7b3aebfee2", "is_reserved": 0, "rental_uris": {"android": "https://dc.lft.to/lastmile_qr_scan", "ios": "https://dc.lft.to/lastmile_qr_scan"}, "lat": 38.905248, "is_disabled": 0, "lon": -77.050138}, {"fusion_lat": 0.0, "type": "electric_scooter", "name": "0e625355912e98a3b41cbd234221de74", "fusion_lon": 0.0, "bike_id": "0e625355912e98a3b41cbd234221de74", "is_reserved": 0, "rental_uris": {"android": "https://dc.lft.to/lastmile_qr_scan", "ios": "https://dc.lft.to/lastmile_qr_scan"}, "lat": 38.91129933333333, "is_disabled": 0, "lon": -77.04419133333333}, {"fusion_lat": 0.0, "type": "electric_scooter", "name": "e3e334e2084da26ce0c41c9c31252dfa", "fusion_lon": 0.0, "bike_id": "e3e334e2084da26ce0c41c9c31252dfa", "is_reserved": 0, "rental_uris": {"android": "https://dc.lft.to/lastmile_qr_scan", "ios": "https://dc.lft.to/lastmile_qr_scan"}, "lat": 38.89893266666667, "is_disabled": 0, "lon": -77.0326575}, {"fusion_lat": 0.0, "type": "electric_scooter", "name": "444a8b8bb68221974aa4eefc9995d247", "fusion_lon": 0.0, "bike_id": "444a8b8bb68221974aa4eefc9995d247", "is_reserved": 0, "rental_uris": {"android": "https://dc.lft.to/lastmile_qr_scan", "ios": "https://dc.lft.to/lastmile_qr_scan"}, "lat": 38.88625583333334, "is_disabled": 0, "lon": -77.01988433333334}, {"fusion_lat": 0.0, "type": "electric_scooter", "name": "5b82fd3c3c4e02d76babe5d8a4ff77d2", "fusion_lon": 0.0, "bike_id": "5b82fd3c3c4e02d76babe5d8a4ff77d2", "is_reserved": 0, "rental_uris": {"android": "https://dc.lft.to/lastmile_qr_scan", "ios": "https://dc.lft.to/lastmile_qr_scan"}, "lat": 38.896701166666666, "is_disabled": 0, "lon": -76.94767083333333}, {"fusion_lat": 0.0, "type": "electric_scooter", "name": "6fdf15953496dc4b995ab26abf92f1b9", "fusion_lon": 0.0, "bike_id": "6fdf15953496dc4b995ab26abf92f1b9", "is_reserved": 0, "rental_uris": {"android": "https://dc.lft.to/lastmile_qr_scan", "ios": "https://dc.lft.to/lastmile_qr_scan"}, "lat": 38.903799666666664, "is_disabled": 0, "lon": -77.03829033333334}, {"fusion_lat": 0.0, "type": "electric_scooter", "name": "84c9a51c15fc97a7a9d204eefb00d4be", "fusion_lon": 0.0, "bike_id": "84c9a51c15fc97a7a9d204eefb00d4be", "is_reserved": 0, "rental_uris": {"android": "https://dc.lft.to/lastmile_qr_scan", "ios": "https://dc.lft.to/lastmile_qr_scan"}, "lat": 38.92987766666667, "is_disabled": 0, "lon": -77.03469833333334}, {"fusion_lat": 0.0, "type": "electric_scooter", "name": "efedbd8fa00eef06b0ded32fb6a2c079", "fusion_lon": 0.0, "bike_id": "efedbd8fa00eef06b0ded32fb6a2c079", "is_reserved": 0, "rental_uris": {"android": "https://dc.lft.to/lastmile_qr_scan", "ios": "https://dc.lft.to/lastmile_qr_scan"}, "lat": 38.89221766666667, "is_disabled": 0, "lon": -77.04507366666667}, {"fusion_lat": 0.0, "type": "electric_scooter", "name": "fc6ad68907a87f3a34b21f670437d5b5", "fusion_lon": 0.0, "bike_id": "fc6ad68907a87f3a34b21f670437d5b5", "is_reserved": 0, "rental_uris": {"android": "https://dc.lft.to/lastmile_qr_scan", "ios": "https://dc.lft.to/lastmile_qr_scan"}, "lat": 38.918017, "is_disabled": 0, "lon": -77.02488833333334}, {"fusion_lat": 0.0, "type": "electric_bike", "name": "af5215975504eee6da4a1236bee4b33f", "fusion_lon": 0.0, "bike_id": "af5215975504eee6da4a1236bee4b33f", "is_reserved": 0, "rental_uris": {"android": "https://dc.lft.to/lastmile_qr_scan", "ios": "https://dc.lft.to/lastmile_qr_scan"}, "lat": 38.897988833333336, "is_disabled": 0, "lon": -77.0060505}, {"fusion_lat": 0.0, "type": "electric_scooter", "name": "0e220fce41c6c531482ec48f5af0172e", "fusion_lon": 0.0, "bike_id": "0e220fce41c6c531482ec48f5af0172e", "is_reserved": 0, "rental_uris": {"android": "https://dc.lft.to/lastmile_qr_scan", "ios": "https://dc.lft.to/lastmile_qr_scan"}, "lat": 38.887151833333334, "is_disabled": 0, "lon": -77.02173216666667}, {"fusion_lat": 0.0, "type": "electric_scooter", "name": "142e6f5a7be0935e2f4598bf83f6f59a", "fusion_lon": 0.0, "bike_id": "142e6f5a7be0935e2f4598bf83f6f59a", "is_reserved": 0, "rental_uris": {"android": "https://dc.lft.to/lastmile_qr_scan", "ios": "https://dc.lft.to/lastmile_qr_scan"}, "lat": 38.95227933333334, "is_disabled": 0, "lon": -77.01427216666667}, {"fusion_lat": 0.0, "type": "electric_scooter", "name": "f590e40b2f819cd6715b647f5690cd5f", "fusion_lon": 0.0, "bike_id": "f590e40b2f819cd6715b647f5690cd5f", "is_reserved": 0, "rental_uris": {"android": "https://dc.lft.to/lastmile_qr_scan", "ios": "https://dc.lft.to/lastmile_qr_scan"}, "lat": 38.90848916666667, "is_disabled": 0, "lon": -77.04170566666667}, {"fusion_lat": 0.0, "type": "electric_scooter", "name": "91457baedb490dd85e9efc97aa7b59fc", "fusion_lon": 0.0, "bike_id": "91457baedb490dd85e9efc97aa7b59fc", "is_reserved": 0, "rental_uris": {"android": "https://dc.lft.to/lastmile_qr_scan", "ios": "https://dc.lft.to/lastmile_qr_scan"}, "lat": 38.930272, "is_disabled": 0, "lon": -77.01293816666667}, {"fusion_lat": 0.0, "type": "electric_scooter", "name": "0527dd194abdc7fbb8e5c6e3e7049647", "fusion_lon": 0.0, "bike_id": "0527dd194abdc7fbb8e5c6e3e7049647", "is_reserved": 0, "rental_uris": {"android": "https://dc.lft.to/lastmile_qr_scan", "ios": "https://dc.lft.to/lastmile_qr_scan"}, "lat": 38.928117, "is_disabled": 0, "lon": -77.05515916666667}, {"fusion_lat": 0.0, "type": "electric_scooter", "name": "90306a9be77a6e6053d82fd8bd647ce1", "fusion_lon": 0.0, "bike_id": "90306a9be77a6e6053d82fd8bd647ce1", "is_reserved": 0, "rental_uris": {"android": "https://dc.lft.to/lastmile_qr_scan", "ios": "https://dc.lft.to/lastmile_qr_scan"}, "lat": 38.887163, "is_disabled": 0, "lon": -77.0217475}, {"fusion_lat": 0.0, "type": "electric_scooter", "name": "1abc4c6a00aca3fd83e2a194e41622ea", "fusion_lon": 0.0, "bike_id": "1abc4c6a00aca3fd83e2a194e41622ea", "is_reserved": 0, "rental_uris": {"android": "https://dc.lft.to/lastmile_qr_scan", "ios": "https://dc.lft.to/lastmile_qr_scan"}, "lat": 38.889882666666665, "is_disabled": 0, "lon": -76.98333066666666}, {"fusion_lat": 0.0, "type": "electric_scooter", "name": "37630dc8acf4a1bd6636ecf7c6c2588b", "fusion_lon": 0.0, "bike_id": "37630dc8acf4a1bd6636ecf7c6c2588b", "is_reserved": 0, "rental_uris": {"android": "https://dc.lft.to/lastmile_qr_scan", "ios": "https://dc.lft.to/lastmile_qr_scan"}, "lat": 38.892424166666665, "is_disabled": 0, "lon": -77.01721133333334}, {"fusion_lat": 0.0, "type": "electric_scooter", "name": "54c9d3ab64da12282dae5acc032af21c", "fusion_lon": 0.0, "bike_id": "54c9d3ab64da12282dae5acc032af21c", "is_reserved": 0, "rental_uris": {"android": "https://dc.lft.to/lastmile_qr_scan", "ios": "https://dc.lft.to/lastmile_qr_scan"}, "lat": 38.920112833333334, "is_disabled": 0, "lon": -77.01802366666666}, {"fusion_lat": 0.0, "type": "electric_scooter", "name": "02b31a2c9273d1387c62134d50c4afdc", "fusion_lon": 0.0, "bike_id": "02b31a2c9273d1387c62134d50c4afdc", "is_reserved": 0, "rental_uris": {"android": "https://dc.lft.to/lastmile_qr_scan", "ios": "https://dc.lft.to/lastmile_qr_scan"}, "lat": 38.89994983333333, "is_disabled": 0, "lon": -77.04519983333333}, {"fusion_lat": 0.0, "type": "electric_scooter", "name": "5fafe8e19f8a3ba085d24d81f539930e", "fusion_lon": 0.0, "bike_id": "5fafe8e19f8a3ba085d24d81f539930e", "is_reserved": 0, "rental_uris": {"android": "https://dc.lft.to/lastmile_qr_scan", "ios": "https://dc.lft.to/lastmile_qr_scan"}, "lat": 38.9039705, "is_disabled": 0, "lon": -77.023533}, {"fusion_lat": 0.0, "type": "electric_scooter", "name": "268371988e2089def8896efdbf6c8f8f", "fusion_lon": 0.0, "bike_id": "268371988e2089def8896efdbf6c8f8f", "is_reserved": 0, "rental_uris": {"android": "https://dc.lft.to/lastmile_qr_scan", "ios": "https://dc.lft.to/lastmile_qr_scan"}, "lat": 38.89228083333333, "is_disabled": 0, "lon": -77.02803033333333}, {"fusion_lat": 0.0, "type": "electric_scooter", "name": "0505f8ec764baf9a3ddb281fc938b035", "fusion_lon": 0.0, "bike_id": "0505f8ec764baf9a3ddb281fc938b035", "is_reserved": 0, "rental_uris": {"android": "https://dc.lft.to/lastmile_qr_scan", "ios": "https://dc.lft.to/lastmile_qr_scan"}, "lat": 38.920488166666665, "is_disabled": 0, "lon": -77.02434616666666}, {"fusion_lat": 0.0, "type": "electric_scooter", "name": "1e525e0841712fb02752a3f6476a64ff", "fusion_lon": 0.0, "bike_id": "1e525e0841712fb02752a3f6476a64ff", "is_reserved": 0, "rental_uris": {"android": "https://dc.lft.to/lastmile_qr_scan", "ios": "https://dc.lft.to/lastmile_qr_scan"}, "lat": 38.9202865, "is_disabled": 0, "lon": -77.01117716666667}, {"fusion_lat": 0.0, "type": "electric_scooter", "name": "942ed456d6e1cca229d97d640c98435e", "fusion_lon": 0.0, "bike_id": "942ed456d6e1cca229d97d640c98435e", "is_reserved": 0, "rental_uris": {"android": "https://dc.lft.to/lastmile_qr_scan", "ios": "https://dc.lft.to/lastmile_qr_scan"}, "lat": 38.908093, "is_disabled": 0, "lon": -77.03853383333333}, {"fusion_lat": 0.0, "type": "electric_scooter", "name": "e7bd34bcd139e05197ae5ebef7b64462", "fusion_lon": 0.0, "bike_id": "e7bd34bcd139e05197ae5ebef7b64462", "is_reserved": 0, "rental_uris": {"android": "https://dc.lft.to/lastmile_qr_scan", "ios": "https://dc.lft.to/lastmile_qr_scan"}, "lat": 38.89883, "is_disabled": 0, "lon": -77.01387583333333}, {"fusion_lat": 0.0, "type": "electric_scooter", "name": "2e3d0c2129f6a26d7f1db4d771bf5420", "fusion_lon": 0.0, "bike_id": "2e3d0c2129f6a26d7f1db4d771bf5420", "is_reserved": 0, "rental_uris": {"android": "https://dc.lft.to/lastmile_qr_scan", "ios": "https://dc.lft.to/lastmile_qr_scan"}, "lat": 38.908221166666664, "is_disabled": 0, "lon": -77.04332366666667}, {"fusion_lat": 0.0, "type": "electric_scooter", "name": "661837ca7f998aa26be57ab6374519bc", "fusion_lon": 0.0, "bike_id": "661837ca7f998aa26be57ab6374519bc", "is_reserved": 0, "rental_uris": {"android": "https://dc.lft.to/lastmile_qr_scan", "ios": "https://dc.lft.to/lastmile_qr_scan"}, "lat": 38.90796816666667, "is_disabled": 0, "lon": -76.99989866666667}, {"fusion_lat": 0.0, "type": "electric_scooter", "name": "c45f034333ae6d32dbd027d4bafa0b28", "fusion_lon": 0.0, "bike_id": "c45f034333ae6d32dbd027d4bafa0b28", "is_reserved": 0, "rental_uris": {"android": "https://dc.lft.to/lastmile_qr_scan", "ios": "https://dc.lft.to/lastmile_qr_scan"}, "lat": 38.904069666666665, "is_disabled": 0, "lon": -77.043354}, {"fusion_lat": 0.0, "type": "electric_scooter", "name": "6efaa916eeba36d98a89b23586ee32c1", "fusion_lon": 0.0, "bike_id": "6efaa916eeba36d98a89b23586ee32c1", "is_reserved": 0, "rental_uris": {"android": "https://dc.lft.to/lastmile_qr_scan", "ios": "https://dc.lft.to/lastmile_qr_scan"}, "lat": 38.929053, "is_disabled": 0, "lon": -77.0626565}, {"fusion_lat": 0.0, "type": "electric_scooter", "name": "ec78431a1a51f389e51e440fcab40623", "fusion_lon": 0.0, "bike_id": "ec78431a1a51f389e51e440fcab40623", "is_reserved": 0, "rental_uris": {"android": "https://dc.lft.to/lastmile_qr_scan", "ios": "https://dc.lft.to/lastmile_qr_scan"}, "lat": 38.916768, "is_disabled": 0, "lon": -77.0316925}, {"fusion_lat": 0.0, "type": "electric_scooter", "name": "62315300203568d223b393155009200e", "fusion_lon": 0.0, "bike_id": "62315300203568d223b393155009200e", "is_reserved": 0, "rental_uris": {"android": "https://dc.lft.to/lastmile_qr_scan", "ios": "https://dc.lft.to/lastmile_qr_scan"}, "lat": 38.93583866666667, "is_disabled": 0, "lon": -77.0585565},