{"data": {"bikes": [{"is_reserved": 0, "bike_id": "e5999479f059c719c77ea5daaf30050f", "type": "electric_bike", "name": "e5999479f059c719c77ea5daaf30050f", "is_disabled": 0, "fusion_lon": 0.0, "rental_uris": {"android": "https://dc.lft.to/lastmile_qr_scan", "ios": "https://dc.lft.to/lastmile_qr_scan"}, "lat": 38.99780666666667, "lon": -77.00761683333333, "fusion_lat": 0.0}, {"is_reserved": 0, "bike_id": "7023c4940891b553711e11632e27b650", "type": "electric_scooter", "name": "7023c4940891b553711e11632e27b650", "is_disabled": 0, "fusion_lon": 0.0, "rental_uris": {"android": "https://dc.lft.to/lastmile_qr_scan", "ios": "https://dc.lft.to/lastmile_qr_scan"}, "lat": 38.895010666666664, "lon": -76.992623, "fusion_lat": 0.0}, {"is_reserved": 0, "bike_id": "d4336e421c52da70751dd7b36eab9d10", "type": "electric_bike", "name": "d4336e421c52da70751dd7b36eab9d10", "is_disabled": 0, "fusion_lon": 0.0, "rental_uris": {"android": "https://dc.lft.to/lastmile_qr_scan", "ios": "https://dc.lft.to/lastmile_qr_scan"}, "lat": 38.952517666666665, "lon": -77.096266, "fusion_lat": 0.0}, {"is_reserved": 0, "bike_id": "a1c9ce997099f24c31a03d85a3248020", "type": "electric_scooter", "name": "a1c9ce997099f24c31a03d85a3248020", "is_disabled": 0, "fusion_lon": 0.0, "rental_uris": {"android": "https://dc.lft.to/lastmile_qr_scan", "ios": "https://dc.lft.to/lastmile_qr_scan"}, "lat": 38.92074566666667, "lon": -77.02391983333334, "fusion_lat": 0.0}, {"is_reserved": 0, "bike_id": "19b615bcac117208011c6c0f306ec822", "type": "electric_scooter", "name": "19b615bcac117208011c6c0f306ec822", "is_disabled": 0, "fusion_lon": 0.0, "rental_uris": {"android": "https://dc.lft.to/lastmile_qr_scan", "ios": "https://dc.lft.to/lastmile_qr_scan"}, "lat": 38.91403616666667, "lon": -77.02207966666667, "fusion_lat": 0.0}, {"is_reserved": 0, "bike_id": "f7509218e7ed9e70920ec065e23dd46e", "type": "electric_bike", "name": "f7509218e7ed9e70920ec065e23dd46e", "is_disabled": 0, "fusion_lon": 0.0, "rental_uris": {"android": "https://dc.lft.to/lastmile_qr_scan", "ios": "https://dc.lft.to/lastmile_qr_scan"}, "lat": 38.9647345, "lon": -77.0357335, "fusion_lat": 0.0}, {"is_reserved": 0, "bike_id": "e00ec974ebec7f048f56bde50c505ddc", "type": "electric_scooter", "name": "e00ec974ebec7f048f56bde50c505ddc", "is_disabled": 0, "fusion_lon": 0.0, "rental_uris": {"android": "https://dc.lft.to/lastmile_qr_scan", "ios": "https://dc.lft.to/lastmile_qr_scan"}, "lat": 38.914632833333336, "lon": -77.00213533333333, "fusion_lat": 0.0}, {"is_reserved": 0, "bike_id": "48afb905c2e0aa0f3129e2bfd138f908", "type": "electric_scooter", "name": "48afb905c2e0aa0f3129e2bfd138f908", "is_disabled": 0, "fusion_lon": 0.0, "rental_uris": {"android": "https://dc.lft.to/lastmile_qr_scan", "ios": "https://dc.lft.to/lastmile_qr_scan"}, "lat": 38.91560883333333, "lon": -77.03877783333333, "fusion_lat": 0.0}, {"is_reserved": 0, "bike_id": "97f59ef8858fcdabad2a257218d724b5", "type": "electric_scooter", "name": "97f59ef8858fcdabad2a257218d724b5", "is_disabled": 0, "fusion_lon": 0.0, "rental_uris": {"android": "https://dc.lft.to/lastmile_qr_scan", "ios": "https://dc.lft.to/lastmile_qr_scan"}, "lat": 38.92319083333334, "lon": -77.028955, "fusion_lat": 0.0}, {"is_reserved": 0, "bike_id": "2a4c862ce9d75d34b02e56bdbc989f2c", "type": "electric_scooter", "name": "2a4c862ce9d75d34b02e56bdbc989f2c", "is_disabled": 0, "fusion_lon": 0.0, "rental_uris": {"android": "https://dc.lft.to/lastmile_qr_scan", "ios": "https://dc.lft.to/lastmile_qr_scan"}, "lat": 38.88735116666667, "lon": -77.015305, "fusion_lat": 0.0}, {"is_reserved": 0, "bike_id": "7164a4b0118f37c545960355dd8c3381", "type": "electric_scooter", "name": "7164a4b0118f37c545960355dd8c3381", "is_disabled": 0, "fusion_lon": 0.0, "rental_uris": {"android": "https://dc.lft.to/lastmile_qr_scan", "ios": "https://dc.lft.to/lastmile_qr_scan"}, "lat": 38.892278833333336, "lon": -77.02802916666667, "fusion_lat": 0.0}, {"is_reserved": 0, "bike_id": "98313e67251b6d944a5acc5022024b4d", "type": "electric_scooter", "name": "98313e67251b6d944a5acc5022024b4d", "is_disabled": 0, "fusion_lon": 0.0, "rental_uris": {"android": "https://dc.lft.to/lastmile_qr_scan", "ios": "https://dc.lft.to/lastmile_qr_scan"}, "lat": 38.92055216666667, "lon": -77.0242225, "fusion_lat": 0.0}, {"is_reserved": 0, "bike_id": "b3aa2a767ce5fbac6c36cc026f14995e", "type": "electric_bike", "name": "b3aa2a767ce5fbac6c36cc026f14995e", "is_disabled": 0, "fusion_lon": 0.0, "rental_uris": {"android": "https://dc.lft.to/lastmile_qr_scan", "ios": "https://dc.lft.to/lastmile_qr_scan"}, "lat": 38.83787566666667, "lon": -77.09351233333334, "fusion_lat": 0.0}, {"is_reserved": 0, "bike_id": "862711e8a3efddb0f7a2af9212f971d2", "type": "electric_bike", "name": "862711e8a3efddb0f7a2af9212f971d2", "is_disabled": 0, "fusion_lon": 0.0, "rental_uris": {"android": "https://dc.lft.to/lastmile_qr_scan", "ios": "https://dc.lft.to/lastmile_qr_scan"}, "lat": 38.87283516666667, "lon": -77.23321266666666, "fusion_lat": 0.0}, {"is_reserved": 0, "bike_id": "909d7731f3570a29c0e7fee456234b35", "type": "electric_bike", "name": "909d7731f3570a29c0e7fee456234b35", "is_disabled": 0, "fusion_lon": 0.0, "rental_uris": {"android": "https://dc.lft.to/lastmile_qr_scan", "ios": "https://dc.lft.to/lastmile_qr_scan"}, "lat": 38.86577533333333, "lon": -76.97346083333333, "fusion_lat": 0.0}, {"is_reserved": 0, "bike_id": "d035b33e6bfe71c44c4164175d8d09c0", "type": "electric_scooter", "name": "d035b33e6bfe71c44c4164175d8d09c0", "is_disabled": 0, "fusion_lon": 0.0, "rental_uris": {"android": "https://dc.lft.to/lastmile_qr_scan", "ios": "https://dc.lft.to/lastmile_qr_scan"}, "lat": 38.935791333333334, "lon": -77.02445183333333, "fusion_lat": 0.0}, {"is_reserved": 0, "bike_id": "ccb0bd4d2f2b9738b7ade5d0a2d637bd", "type": "electric_scooter", "name": "ccb0bd4d2f2b9738b7ade5d0a2d637bd", "is_disabled": 0, "fusion_lon": 0.0, "rental_uris": {"android": "https://dc.lft.to/lastmile_qr_scan", "ios": "https://dc.lft.to/lastmile_qr_scan"}, "lat": 38.9166515, "lon": -77.03850316666667, "fusion_lat": 0.0}, {"is_reserved": 0, "bike_id": "c9e1a2534072fbb2c08409a403ebe778", "type": "electric_bike", "name": "c9e1a2534072fbb2c08409a403ebe778", "is_disabled": 0, "fusion_lon": 0.0, "rental_uris": {"android": "https://dc.lft.to/lastmile_qr_scan", "ios": "https://dc.lft.to/lastmile_qr_scan"}, "lat": 38.8907685, "lon": -77.18284533333333, "fusion_lat": 0.0}, {"is_reserved": 0, "bike_id": "ea9d1850f19575ac86e51081e613389d", "type": "electric_scooter", "name": "ea9d1850f19575ac86e51081e613389d", "is_disabled": 0, "fusion_lon": 0.0, "rental_uris": {"android": "https://dc.lft.to/lastmile_qr_scan", "ios": "https://dc.lft.to/lastmile_qr_scan"}, "lat": 38.93082483333333, "lon": -77.00200816666667, "fusion_lat": 0.0}, {"is_reserved": 0, "bike_id": "7c51898a85f4a818bd82223d8af790ea", "type": "electric_scooter", "name": "7c51898a85f4a818bd82223d8af790ea", "is_disabled": 0, "fusion_lon": 0.0, "rental_uris": {"android": "https://dc.lft.to/lastmile_qr_scan", "ios": "https://dc.lft.to/lastmile_qr_scan"}, "lat": 38.94415466666667, "lon": -77.06337116666667, "fusion_lat": 0.0}, {"is_reserved": 0, "bike_id": "7ecade886082a41bbe179ae04f36ae48", "type": "electric_scooter", "name": "7ecade886082a41bbe179ae04f36ae48", "is_disabled": 0, "fusion_lon": 0.0, "rental_uris": {"android": "https://dc.lft.to/lastmile_qr_scan", "ios": "https://dc.lft.to/lastmile_qr_scan"}, "lat": 38.9699955, "lon": -77.025524, "fusion_lat": 0.0}, {"is_reserved": 0, "bike_id": "222e840ce1599e5bda5ec29e4040d117", "type": "electric_scooter", "name": "222e840ce1599e5bda5ec29e4040d117", "is_disabled": 0, "fusion_lon": 0.0, "rental_uris": {"android": "https://dc.lft.to/lastmile_qr_scan", "ios": "https://dc.lft.to/lastmile_qr_scan"}, "lat": 38.93084183333333, "lon": -77.03503016666667, "fusion_lat": 0.0}, {"is_reserved": 0, "bike_id": "953109450f0e9d465256f09ecc1c39d6", "type": "electric_scooter", "name": "953109450f0e9d465256f09ecc1c39d6", "is_disabled": 0, "fusion_lon": 0.0, "rental_uris": {"android": "https://dc.lft.to/lastmile_qr_scan", "ios": "https://dc.lft.to/lastmile_qr_scan"}, "lat": 38.902855833333334, "lon": -77.01598483333333, "fusion_lat": 0.0}, {"is_reserved": 0, "bike_id": "4be3c010f49f0d0c5e7a7652ba1436c5", "type": "electric_scooter", "name": "4be3c010f49f0d0c5e7a7652ba1436c5", "is_disabled": 0, "fusion_lon": 0.0, "rental_uris": {"android": "https://dc.lft.to/lastmile_qr_scan", "ios": "https://dc.lft.to/lastmile_qr_scan"}, "lat": 38.8935965, "lon": -77.0028435, "fusion_lat": 0.0}, {"is_reserved": 0, "bike_id": "d4990f4a4152152668a1df5cff71a451", "type": "electric_scooter", "name": "d4990f4a4152152668a1df5cff71a451", "is_disabled": 0, "fusion_lon": 0.0, "rental_uris": {"android": "https://dc.lft.to/lastmile_qr_scan", "ios": "https://dc.lft.to/lastmile_qr_scan"}, "lat": 38.9233245, "lon": -77.05399583333333, "fusion_lat": 0.0}, {"is_reserved": 0, "bike_id": "c56a4e8dfd31e815f9c50c8f783647c9", "type": "electric_scooter", "name": "c56a4e8dfd31e815f9c50c8f783647c9", "is_disabled": 0, "fusion_lon": 0.0, "rental_uris": {"android": "https://dc.lft.to/lastmile_qr_scan", "ios": "https://dc.lft.to/lastmile_qr_scan"}, "lat": 38.90070766666667, "lon": -77.01284716666666, "fusion_lat": 0.0}, {"is_reserved": 0, "bike_id": "7bce846d32bef7547de6fca74a4add97", "type": "electric_scooter", "name": "7bce846d32bef7547de6fca74a4add97", "is_disabled": 0, "fusion_lon": 0.0, "rental_uris": {"android": "https://dc.lft.to/lastmile_qr_scan", "ios": "https://dc.lft.to/lastmile_qr_scan"}, "lat": 38.92126733333333, "lon": -77.03150166666667, "fusion_lat": 0.0}, {"is_reserved": 0, "bike_id": "f2c58a7cf5e0def78c2472157aa6e721", "type": "electric_bike", "name": "f2c58a7cf5e0def78c2472157aa6e721", "is_disabled": 0, "fusion_lon": 0.0, "rental_uris": {"android": "https://dc.lft.to/lastmile_qr_scan", "ios": "https://dc.lft.to/lastmile_qr_scan"}, "lat": 38.86755333333333, "lon": -76.9453665, "fusion_lat": 0.0}, {"is_reserved": 0, "bike_id": "921e0e9117301fb72097a39f66b9b389", "type": "electric_scooter", "name": "921e0e9117301fb72097a39f66b9b389", "is_disabled": 0, "fusion_lon": 0.0, "rental_uris": {"android": "https://dc.lft.to/lastmile_qr_scan", "ios": "https://dc.lft.to/lastmile_qr_scan"}, "lat": 38.9028955, "lon": -77.04158, "fusion_lat": 0.0}, {"is_reserved": 0, "bike_id": "8ddb2d705fbf835975a7ba87cef2fd8a", "type": "electric_scooter", "name": "8ddb2d705fbf835975a7ba87cef2fd8a", "is_disabled": 0, "fusion_lon": 0.0, "rental_uris": {"android": "https://dc.lft.to/lastmile_qr_scan", "ios": "https://dc.lft.to/lastmile_qr_scan"}, "lat": 38.93499333333333, "lon": -77.02853333333333, "fusion_lat": 0.0}, {"is_reserved": 0, "bike_id": "93e5e35602c7a9e2da1de086893d48f8", "type": "electric_scooter", "name": "93e5e35602c7a9e2da1de086893d48f8", "is_disabled": 0, "fusion_lon": 0.0, "rental_uris": {"android": "https://dc.lft.to/lastmile_qr_scan", "ios": "https://dc.lft.to/lastmile_qr_scan"}, "lat": 38.9111645, "lon": -77.03834633333334, "fusion_lat": 0.0}, {"is_reserved": 0, "bike_id": "6a5390b57ff85980b94ae69cb26c7c16", "type": "electric_scooter", "name": "6a5390b57ff85980b94ae69cb26c7c16", "is_disabled": 0, "fusion_lon": 0.0, "rental_uris": {"android": "https://dc.lft.to/lastmile_qr_scan", "ios": "https://dc.lft.to/lastmile_qr_scan"}, "lat": 38.91610033333333, "lon": -77.022021, "fusion_lat": 0.0}, {"is_reserved": 0, "bike_id": "0ff42f46d373b6eacd2c2cffa7359e05", "type": "electric_scooter", "name": "0ff42f46d373b6eacd2c2cffa7359e05", "is_disabled": 0, "fusion_lon": 0.0, "rental_uris": {"android": "https://dc.lft.to/lastmile_qr_scan", "ios": "https://dc.lft.to/lastmile_qr_scan"}, "lat": 38.920340333333336, "lon": -76.9957005, "fusion_lat": 0.0}, {"is_reserved": 0, "bike_id": "2506c1bbe2dd7750778318fd215c13df", "type": "electric_scooter", "name": "2506c1bbe2dd7750778318fd215c13df", "is_disabled": 0, "fusion_lon": 0.0, "rental_uris": {"android": "https://dc.lft.to/lastmile_qr_scan", "ios": "https://dc.lft.to/lastmile_qr_scan"}, "lat": 38.90721966666667, "lon": -77.02943516666667, "fusion_lat": 0.0}, {"is_reserved": 0, "bike_id": "6dbc41fae29453244f595d180ff7502c", "type": "electric_scooter", "name": "6dbc41fae29453244f595d180ff7502c", "is_disabled": 0, "fusion_lon": 0.0, "rental_uris": {"android": "https://dc.lft.to/lastmile_qr_scan", "ios": "https://dc.lft.to/lastmile_qr_scan"}, "lat": 38.89949033333333, "lon": -77.04860883333333, "fusion_lat": 0.0}, {"is_reserved": 0, "bike_id": "2dfa80c40872c139b18f579ac00c2b41", "type": "electric_scooter", "name": "2dfa80c40872c139b18f579ac00c2b41", "is_disabled": 0, "fusion_lon": 0.0, "rental_uris": {"android": "https://dc.lft.to/lastmile_qr_scan", "ios": "https://dc.lft.to/lastmile_qr_scan"}, "lat": 38.9181395, "lon": -77.02474333333333, "fusion_lat": 0.0}, {"is_reserved": 0, "bike_id": "24939b578a44b7a8a038621a1ef8063d", "type": "electric_scooter", "name": "24939b578a44b7a8a038621a1ef8063d", "is_disabled": 0, "fusion_lon": 0.0, "rental_uris": {"android": "https://dc.lft.to/lastmile_qr_scan", "ios": "https://dc.lft.to/lastmile_qr_scan"}, "lat": 38.898703166666664, "lon": -76.94666233333334, "fusion_lat": 0.0}, {"is_reserved": 0, "bike_id": "be0456bd947427700284a0bbb99efe22", "type": "electric_scooter", "name": "be0456bd947427700284a0bbb99efe22", "is_disabled": 0, "fusion_lon": 0.0, "rental_uris": {"android": "https://dc.lft.to/lastmile_qr_scan", "ios": "https://dc.lft.to/lastmile_qr_scan"}, "lat": 38.86885983333333, "lon": -76.982293, "fusion_lat": 0.0}, {"is_reserved": 0, "bike_id": "36e524679ea8be5cdde7a3263ba8b41d", "type": "electric_scooter", "name": "36e524679ea8be5cdde7a3263ba8b41d", "is_disabled": 0, "fusion_lon": 0.0, "rental_uris": {"android": "https://dc.lft.to/lastmile_qr_scan", "ios": "https://dc.lft.to/lastmile_qr_scan"}, "lat": 38.90486883333333, "lon": -77.02593183333333, "fusion_lat": 0.0}, {"is_reserved": 0, "bike_id": "1d23120f17468d7650f0ec99741c9e70", "type": "electric_scooter", "name": "1d23120f17468d7650f0ec99741c9e70", "is_disabled": 0, "fusion_lon": 0.0, "rental_uris": {"android": "https://dc.lft.to/lastmile_qr_scan", "ios": "https://dc.lft.to/lastmile_qr_scan"}, "lat": 38.93607516666667, "lon": -77.05884666666667, "fusion_lat": 0.0}, {"is_reserved": 0, "bike_id": "09e0336890c90ba03500980b6f5e303b", "type": "electric_scooter", "name": "09e0336890c90ba03500980b6f5e303b", "is_disabled": 0, "fusion_lon": 0.0, "rental_uris": {"android": "https://dc.lft.to/lastmile_qr_scan", "ios": "https://dc.lft.to/lastmile_qr_scan"}, "lat": 38.9276855, "lon": -77.02787983333333, "fusion_lat": 0.0}, {"is_reserved": 0, "bike_id": "bcec6ef7bb84150b4e63b750ce1d4c82", "type": "electric_scooter", "name": "bcec6ef7bb84150b4e63b750ce1d4c82", "is_disabled": 0, "fusion_lon": 0.0, "rental_uris": {"android": "https://dc.lft.to/lastmile_qr_scan", "ios": "https://dc.lft.to/lastmile_qr_scan"}, "lat": 38.91873566666666, "lon": -77.043097, "fusion_lat": 0.0}, {"is_reserved": 0, "bike_id": "9c521dff81f1c1873655c6079edc3abc", "type": "electric_scooter", "name": "9c521dff81f1c1873655c6079edc3abc", "is_disabled": 0, "fusion_lon": 0.0, "rental_uris": {"android": "https://dc.lft.to/lastmile_qr_scan", "ios": "https://dc.lft.to/lastmile_qr_scan"}, "lat": 38.92050666666667, "lon": -77.02423166666667, "fusion_lat": 0.0}, {"is_reserved": 0, "bike_id": "c92d501afa98026dba5416651bcf69d7", "type": "electric_scooter", "name": "c92d501afa98026dba5416651bcf69d7", "is_disabled": 0, "fusion_lon": 0.0, "rental_uris": {"android": "https://dc.lft.to/lastmile_qr_scan", "ios": "https://dc.lft.to/lastmile_qr_scan"}, "lat": 38.916633166666664, "lon": -77.02712666666666, "fusion_lat": 0.0}, {"is_reserved": 0, "bike_id": "950cfc34557a746923e53ce5edd3c310", "type": "electric_scooter", "name": "950cfc34557a746923e53ce5edd3c310", "is_disabled": 0, "fusion_lon": 0.0, "rental_uris": {"android": "https://dc.lft.to/lastmile_qr_scan", "ios": "https://dc.lft.to/lastmile_qr_scan"}, "lat": 38.90066816666667, "lon": -77.01221083333333, "fusion_lat": 0.0}, {"is_reserved": 0, "bike_id": "b08479f7988da24bdf92ba5b5ea0dc78", "type": "electric_scooter", "name": "b08479f7988da24bdf92ba5b5ea0dc78", "is_disabled": 0, "fusion_lon": 0.0, "rental_uris": {"android": "https://dc.lft.to/lastmile_qr_scan", "ios": "https://dc.lft.to/lastmile_qr_scan"}, "lat": 38.92241283333333, "lon": -77.03520166666667, "fusion_lat": 0.0}, {"is_reserved": 0, "bike_id": "99a492c2b96fee9b59d0d826070be387", "type": "electric_scooter", "name": "99a492c2b96fee9b59d0d826070be387", "is_disabled": 0, "fusion_lon": 0.0, "rental_uris": {"android": "https://dc.lft.to/lastmile_qr_scan", "ios": "https://dc.lft.to/lastmile_qr_scan"}, "lat": 38.9006765, "lon": -77.01728066666666, "fusion_lat": 0.0}, {"is_reserved": 0, "bike_id": "9d785641ddb34399869c6f5ae0368896", "type": "electric_scooter", "name": "9d785641ddb34399869c6f5ae0368896", "is_disabled": 0, "fusion_lon": 0.0, "rental_uris": {"android": "https://dc.lft.to/lastmile_qr_scan", "ios": "https://dc.lft.to/lastmile_qr_scan"}, "lat": 38.90145, "lon": -77.040401, "fusion_lat": 0.0}, {"is_reserved": 0, "bike_id": "9e1fe4a4fbf0677513bcd926005e9079", "type": "electric_scooter", "name": "9e1fe4a4fbf0677513bcd926005e9079", "is_disabled": 0, "fusion_lon": 0.0, "rental_uris": {"android": "https://dc.lft.to/lastmile_qr_scan", "ios": "https://dc.lft.to/lastmile_qr_scan"}, "lat": 38.92213866666667, "lon": -77.03443733333333, "fusion_lat": 0.0}, {"is_reserved": 0, "bike_id": "cb4018b69455922c3e290a9b5970b489", "type": "electric_bike", "name": "cb4018b69455922c3e290a9b5970b489", "is_disabled": 0, "fusion_lon": 0.0, "rental_uris": {"android": "https://dc.lft.to/lastmile_qr_scan", "ios": "https://dc.lft.to/lastmile_qr_scan"}, "lat": 38.8654945, "lon": -76.94153316666667, "fusion_lat": 0.0}, {"is_reserved": 0, "bike_id": "810b543c4d7fae961defb13689bacf4d", "type": "electric_scooter", "name": "810b543c4d7fae961defb13689bacf4d", "is_disabled": 0, "fusion_lon": 0.0, "rental_uris": {"android": "https://dc.lft.to/lastmile_qr_scan", "ios": "https://dc.lft.to/lastmile_qr_scan"}, "lat": 38.9207295, "lon": -77.02389016666666, "fusion_lat": 0.0}, {"is_reserved": 0, "bike_id": "aa123679585c12f4cdba7736490094bf", "type": "electric_scooter", "name": "aa123679585c12f4cdba7736490094bf", "is_disabled": 0, "fusion_lon": 0.0, "rental_uris": {"android": "https://dc.lft.to/lastmile_qr_scan", "ios": "https://dc.lft.to/lastmile_qr_scan"}, "lat": 38.89723033333333, "lon": -77.01328533333333, "fusion_lat": 0.0}, {"is_reserved": 0, "bike_id": "53195751e3fd955af01397171acdcbb7", "type": "electric_scooter", "name": "53195751e3fd955af01397171acdcbb7", "is_disabled": 0, "fusion_lon": 0.0, "rental_uris": {"android": "https://dc.lft.to/lastmile_qr_scan", "ios": "https://dc.lft.to/lastmile_qr_scan"}, "lat": 38.91408083333334, "lon": -77.037084, "fusion_lat": 0.0}, {"is_reserved": 0, "bike_id": "2d285ce53489af4d0537bf8757b1451f", "type": "electric_scooter", "name": "2d285ce53489af4d0537bf8757b1451f", "is_disabled": 0, "fusion_lon": 0.0, "rental_uris": {"android": "https://dc.lft.to/lastmile_qr_scan", "ios": "https://dc.lft.to/lastmile_qr_scan"}, "lat": 38.9014835, "lon": -77.03974083333334, "fusion_lat": 0.0}, {"is_reserved": 0, "bike_id": "5ba48336bb73728beea50b3436dadddc", "type": "electric_bike", "name": "5ba48336bb73728beea50b3436dadddc", "is_disabled": 0, "fusion_lon": 0.0, "rental_uris": {"android": "https://dc.lft.to/lastmile_qr_scan", "ios": "https://dc.lft.to/lastmile_qr_scan"}, "lat": 38.85646533333333, "lon": -77.085245, "fusion_lat": 0.0}, {"is_reserved": 0, "bike_id": "24502fa0b6a08ef1d44bac0d9f45e18e", "type": "electric_scooter", "name": "24502fa0b6a08ef1d44bac0d9f45e18e", "is_disabled": 0, "fusion_lon": 0.0, "rental_uris": {"android": "https://dc.lft.to/lastmile_qr_scan", "ios": "https://dc.lft.to/lastmile_qr_scan"}, "lat": 38.88179383333333, "lon": -77.02814366666667, "fusion_lat": 0.0}, {"is_reserved": 0, "bike_id": "70b2edd251baccb561794270b1acf02e", "type": "electric_bike", "name": "70b2edd251baccb561794270b1acf02e", "is_disabled": 0, "fusion_lon": 0.0, "rental_uris": {"android": "https://dc.lft.to/lastmile_qr_scan", "ios": "https://dc.lft.to/lastmile_qr_scan"}, "lat": 38.822087333333336, "lon": -76.97702683333333, "fusion_lat": 0.0}, {"is_reserved": 0, "bike_id": "4058b6f27fad2aa7a42e8439cb86c711", "type": "electric_scooter", "name": "4058b6f27fad2aa7a42e8439cb86c711", "is_disabled": 0, "fusion_lon": 0.0, "rental_uris": {"android": "https://dc.lft.to/lastmile_qr_scan", "ios": "https://dc.lft.to/lastmile_qr_scan"}, "lat": 38.899751, "lon": -76.99143516666666, "fusion_lat": 0.0}, {"is_reserved": 0, "bike_id": "6841874bfcdb3ab5644cf0291485cfd1", "type": "electric_scooter", "name": "6841874bfcdb3ab5644cf0291485cfd1", "is_disabled": 0, "fusion_lon": 0.0, "rental_uris": {"android": "https://dc.lft.to/lastmile_qr_scan", "ios": "https://dc.lft.to/lastmile_qr_scan"}, "lat": 38.896365833333334, "lon": -77.03315733333334, "fusion_lat": 0.0}, {"is_reserved": 0, "bike_id": "24c9bc9c3837dfa5ba187eadac7fc015", "type": "electric_scooter", "name": "24c9bc9c3837dfa5ba187eadac7fc015", "is_disabled": 0, "fusion_lon": 0.0, "rental_uris": {"android": "https://dc.lft.to/lastmile_qr_scan", "ios": "https://dc.lft.to/lastmile_qr_scan"}, "lat": 38.8789735, "lon": -76.93526116666666, "fusion_lat": 0.0}, {"is_reserved": 0, "bike_id": "219e62a9155077bea93a8fa19074057f", "type": "electric_scooter", "name": "219e62a9155077bea93a8fa19074057f", "is_disabled": 0, "fusion_lon": 0.0, "rental_uris": {"android": "https://dc.lft.to/lastmile_qr_scan", "ios": "https://dc.lft.to/lastmile_qr_scan"}, "lat": 38.934577, "lon": -77.03075216666667, "fusion_lat": 0.0}, {"is_reserved": 0, "bike_id": "112dc16958fefd4f5b210ff7d37341d1", "type": "electric_scooter", "name": "112dc16958fefd4f5b210ff7d37341d1", "is_disabled": 0, "fusion_lon": 0.0, "rental_uris": {"android": "https://dc.lft.to/lastmile_qr_scan", "ios": "https://dc.lft.to/lastmile_qr_scan"}, "lat": 38.9236745, "lon": -77.0723045, "fusion_lat": 0.0}, {"is_reserved": 0, "bike_id": "318fa0548abd9b4e30ff0ec0ee8a4f2e", "type": "electric_scooter", "name": "318fa0548abd9b4e30ff0ec0ee8a4f2e", "is_disabled": 0, "fusion_lon": 0.0, "rental_uris": {"android": "https://dc.lft.to/lastmile_qr_scan", "ios": "https://dc.lft.to/lastmile_qr_scan"}, "lat": 38.92919166666667, "lon": -77.03482466666667, "fusion_lat": 0.0}, {"is_reserved": 0, "bike_id": "8b2159a9cd3d36e404c7597426a72bac", "type": "electric_scooter", "name": "8b2159a9cd3d36e404c7597426a72bac", "is_disabled": 0, "fusion_lon": 0.0, "rental_uris": {"android": "https://dc.lft.to/lastmile_qr_scan", "ios": "https://dc.lft.to/lastmile_qr_scan"}, "lat": 38.9574035, "lon": -77.02393266666667, "fusion_lat": 0.0}, {"is_reserved": 0, "bike_id": "69a45ae1404c034181dbae6bda1e678d", "type": "electric_scooter", "name": "69a45ae1404c034181dbae6bda1e678d", "is_disabled": 0, "fusion_lon": 0.0, "rental_uris": {"android": "https://dc.lft.to/lastmile_qr_scan", "ios": "https://dc.lft.to/lastmile_qr_scan"}, "lat": 38.903407333333334, "lon": -77.01616133333333, "fusion_lat": 0.0}, {"is_reserved": 0, "bike_id": "511ccd1762d272f5ddf44cdfe340313f", "type": "electric_scooter", "name": "511ccd1762d272f5ddf44cdfe340313f", "is_disabled": 0, "fusion_lon": 0.0, "rental_uris": {"android": "https://dc.lft.to/lastmile_qr_scan", "ios": "https://dc.lft.to/lastmile_qr_scan"}, "lat": 38.876356, "lon": -77.00559066666666, "fusion_lat": 0.0}, {"is_reserved": 0, "bike_id": "a1bea198b8a4aef13faf56d089d3abf4", "type": "electric_scooter", "name": "a1bea198b8a4aef13faf56d089d3abf4", "is_disabled": 0, "fusion_lon": 0.0, "rental_uris": {"android": "https://dc.lft.to/lastmile_qr_scan", "ios": "https://dc.lft.to/lastmile_qr_scan"}, "lat": 38.916242833333335, "lon": -77.00347866666667, "fusion_lat": 0.0}, {"is_reserved": 0, "bike_id": "5665e5c726ff822eb060a569e7be885a", "type": "electric_scooter", "name": "5665e5c726ff822eb060a569e7be885a", "is_disabled": 0, "fusion_lon": 0.0, "rental_uris": {"android": "https://dc.lft.to/lastmile_qr_scan", "ios": "https://dc.lft.to/lastmile_qr_scan"}, "lat": 38.90588483333333, "lon": -76.98542716666667, "fusion_lat": 0.0}, {"is_reserved": 0, "bike_id": "689267b3d171a25ad2fad7dfd4987400", "type": "electric_scooter", "name": "689267b3d171a25ad2fad7dfd4987400", "is_disabled": 0, "fusion_lon": 0.0, "rental_uris": {"android": "https://dc.lft.to/lastmile_qr_scan", "ios": "https://dc.lft.to/lastmile_qr_scan"}, "lat": 38.92198883333333, "lon": -77.0351935, "fusion_lat": 0.0}, {"is_reserved": 0, "bike_id": "28c45f3352e708d38da8e6400656252a", "type": "electric_bike", "name": "28c45f3352e708d38da8e6400656252a", "is_disabled": 0, "fusion_lon": 0.0, "rental_uris": {"android": "https://dc.lft.to/lastmile_qr_scan", "ios": "https://dc.lft.to/lastmile_qr_scan"}, "lat": 38.83133316666667, "lon": -77.1131915, "fusion_lat": 0.0}, {"is_reserved": 0, "bike_id": "13cc39f8f4c862175ad8c31a55fcf06c", "type": "electric_scooter", "name": "13cc39f8f4c862175ad8c31a55fcf06c", "is_disabled": 0, "fusion_lon": 0.0, "rental_uris": {"android": "https://dc.lft.to/lastmile_qr_scan", "ios": "https://dc.lft.to/lastmile_qr_scan"}, "lat": 38.95815433333333, "lon": -77.01453416666666, "fusion_lat": 0.0}, {"is_reserved": 0, "bike_id": "e7a2c43a59631558d1255744703375cd", "type": "electric_scooter", "name": "e7a2c43a59631558d1255744703375cd", "is_disabled": 0, "fusion_lon": 0.0, "rental_uris": {"android": "https://dc.lft.to/lastmile_qr_scan", "ios": "https://dc.lft.to/lastmile_qr_scan"}, "lat": 38.92115066666667, "lon": -77.02230783333333, "fusion_lat": 0.0}, {"is_reserved": 0, "bike_id": "81fe0d8d4194a5d4f59e1a47ade616b1", "type": "electric_scooter", "name": "81fe0d8d4194a5d4f59e1a47ade616b1", "is_disabled": 0, "fusion_lon": 0.0, "rental_uris": {"android": "https://dc.lft.to/lastmile_qr_scan", "ios": "https://dc.lft.to/lastmile_qr_scan"}, "lat": 38.90114116666667, "lon": -77.04338416666667, "fusion_lat": 0.0}, {"is_reserved": 0, "bike_id": "1ad686129572633d9bd7efbadc51a2c6", "type": "electric_scooter", "name": "1ad686129572633d9bd7efbadc51a2c6", "is_disabled": 0, "fusion_lon": 0.0, "rental_uris": {"android": "https://dc.lft.to/lastmile_qr_scan", "ios": "https://dc.lft.to/lastmile_qr_scan"}, "lat": 38.90023883333333, "lon": -77.022911, "fusion_lat": 0.0}, {"is_reserved": 0, "bike_id": "221efeaea0e8a39f1c0a15f311117dc3", "type": "electric_scooter", "name": "221efeaea0e8a39f1c0a15f311117dc3", "is_disabled": 0, "fusion_lon": 0.0, "rental_uris": {"android": "https://dc.lft.to/lastmile_qr_scan", "ios": "https://dc.lft.to/lastmile_qr_scan"}, "lat": 38.935324, "lon": -77.02346033333333, "fusion_lat": 0.0}, {"is_reserved": 0, "bike_id": "55e9369683d79c0c17d17daaed5bd47f", "type": "electric_scooter", "name": "55e9369683d79c0c17d17daaed5bd47f", "is_disabled": 0, "fusion_lon": 0.0, "rental_uris": {"android": "https://dc.lft.to/lastmile_qr_scan", "ios": "https://dc.lft.to/lastmile_qr_scan"}, "lat": 38.90992683333333, "lon": -77.0091925, "fusion_lat": 0.0}, {"is_reserved": 0, "bike_id": "b6cfcbec105543a3eeab0346f47d461d", "type": "electric_bike", "name": "b6cfcbec105543a3eeab0346f47d461d", "is_disabled": 0, "fusion_lon": 0.0, "rental_uris": {"android": "https://dc.lft.to/lastmile_qr_scan", "ios": "https://dc.lft.to/lastmile_qr_scan"}, "lat": 38.92895383333333, "lon": -77.2317815, "fusion_lat": 0.0}, {"is_reserved": 0, "bike_id": "680a0524e465253b25bd84afdcb3787e", "type": "electric_scooter", "name": "680a0524e465253b25bd84afdcb3787e", "is_disabled": 0, "fusion_lon": 0.0, "rental_uris": {"android": "https://dc.lft.to/lastmile_qr_scan", "ios": "https://dc.lft.to/lastmile_qr_scan"}, "lat": 38.926627833333335, "lon": -77.03721366666667, "fusion_lat": 0.0}, {"is_reserved": 0, "bike_id": "0523dc2386362f05080bad66e207e993", "type": "electric_scooter", "name": "0523dc2386362f05080bad66e207e993", "is_disabled": 0, "fusion_lon": 0.0, "rental_uris": {"android": "https://dc.lft.to/lastmile_qr_scan", "ios": "https://dc.lft.to/lastmile_qr_scan"}, "lat": 38.92247533333333, "lon": -77.03070183333334, "fusion_lat": 0.0}, {"is_reserved": 0, "bike_id": "014c476ef445cfca402b535e812a010a", "type": "electric_scooter", "name": "014c476ef445cfca402b535e812a010a", "is_disabled": 0, "fusion_lon": 0.0, "rental_uris": {"android": "https://dc.lft.to/lastmile_qr_scan", "ios": "https://dc.lft.to/lastmile_qr_scan"}, "lat": 38.935150166666666, "lon": -77.0328855, "fusion_lat": 0.0}, {"is_reserved": 0, "bike_id": "0222be1950c7c3180c46d14e4df75778", "type": "electric_bike", "name": "0222be1950c7c3180c46d14e4df75778", "is_disabled": 0, "fusion_lon": 0.0, "rental_uris": {"android": "https://dc.lft.to/lastmile_qr_scan", "ios": "https://dc.lft.to/lastmile_qr_scan"}, "lat": 38.90974333333333, "lon": -77.0882265, "fusion_lat": 0.0}, {"is_reserved": 0, "bike_id": "f1cc450b7ffec95ce9f692abb08a2a0a", "type": "electric_scooter", "name": "f1cc450b7ffec95ce9f692abb08a2a0a", "is_disabled": 0, "fusion_lon": 0.0, "rental_uris": {"android": "https://dc.lft.to/lastmile_qr_scan", "ios": "https://dc.lft.to/lastmile_qr_scan"}, "lat": 38.899011, "lon": -77.039585, "fusion_lat": 0.0}, {"is_reserved": 0, "bike_id": "c79079136963b67cc74f5fba66577fed", "type": "electric_bike", "name": "c79079136963b67cc74f5fba66577fed", "is_disabled": 0, "fusion_lon": 0.0, "rental_uris": {"android": "https://dc.lft.to/lastmile_qr_scan", "ios": "https://dc.lft.to/lastmile_qr_scan"}, "lat": 38.838272833333335, "lon": -77.07914383333333, "fusion_lat": 0.0}, {"is_reserved": 0, "bike_id": "e669c4d1cece5cc17a246d6122816360", "type": "electric_scooter", "name": "e669c4d1cece5cc17a246d6122816360", "is_disabled": 0, "fusion_lon": 0.0, "rental_uris": {"android": "https://dc.lft.to/lastmile_qr_scan", "ios": "https://dc.lft.to/lastmile_qr_scan"}, "lat": 38.908411, "lon": -77.04353666666667, "fusion_lat": 0.0}, {"is_reserved": 0, "bike_id": "2f63784e06a3cce6d6b3faf81e4f0bee", "type": "electric_scooter", "name": "2f63784e06a3cce6d6b3faf81e4f0bee", "is_disabled": 0, "fusion_lon": 0.0, "rental_uris": {"android": "https://dc.lft.to/lastmile_qr_scan", "ios": "https://dc.lft.to/lastmile_qr_scan"}, "lat": 38.9216095, "lon": -77.033837, "fusion_lat": 0.0}, {"is_reserved": 0, "bike_id": "8a5911d0bbe32396b1903603651a73d7", "type": "electric_scooter", "name": "8a5911d0bbe32396b1903603651a73d7", "is_disabled": 0, "fusion_lon": 0.0, "rental_uris": {"android": "https://dc.lft.to/lastmile_qr_scan", "ios": "https://dc.lft.to/lastmile_qr_scan"}, "lat": 38.886403333333334, "lon": -77.00101716666667, "fusion_lat": 0.0}, {"is_reserved": 0, "bike_id": "928e6024b271e6a93428ba5ea4de5c7d", "type": "electric_scooter", "name": "928e6024b271e6a93428ba5ea4de5c7d", "is_disabled": 0, "fusion_lon": 0.0, "rental_uris": {"android": "https://dc.lft.to/lastmile_qr_scan", "ios": "https://dc.lft.to/lastmile_qr_scan"}, "lat": 38.915405, "lon": -77.03799666666667, "fusion_lat": 0.0}, {"is_reserved": 0, "bike_id": "9904b3f4d0f9a20ec3512019e945a784", "type": "electric_scooter", "name": "9904b3f4d0f9a20ec3512019e945a784", "is_disabled": 0, "fusion_lon": 0.0, "rental_uris": {"android": "https://dc.lft.to/lastmile_qr_scan", "ios": "https://dc.lft.to/lastmile_qr_scan"}, "lat": 38.9181305, "lon": -77.02477466666667, "fusion_lat": 0.0}, {"is_reserved": 0, "bike_id": "b22d8766e934a76d7b80092207429f4d", "type": "electric_scooter", "name": "b22d8766e934a76d7b80092207429f4d", "is_disabled": 0, "fusion_lon": 0.0, "rental_uris": {"android": "https://dc.lft.to/lastmile_qr_scan", "ios": "https://dc.lft.to/lastmile_qr_scan"}, "lat": 38.9088615, "lon": -76.99113866666667, "fusion_lat": 0.0}, {"is_reserved": 0, "bike_id": "27f64498b5636f11a591c740d3addd2b", "type": "electric_scooter", "name": "27f64498b5636f11a591c740d3addd2b", "is_disabled": 0, "fusion_lon": 0.0, "rental_uris": {"android": "https://dc.lft.to/lastmile_qr_scan", "ios": "https://dc.lft.to/lastmile_qr_scan"}, "lat": 38.907953, "lon": -77.04187216666666, "fusion_lat": 0.0}, {"is_reserved": 0, "bike_id": "90ab8ee0f2a81f681b6cc2234c7c0299", "type": "electric_scooter", "name": "90ab8ee0f2a81f681b6cc2234c7c0299", "is_disabled": 0, "fusion_lon": 0.0, "rental_uris": {"android": "https://dc.lft.to/lastmile_qr_scan", "ios": "https://dc.lft.to/lastmile_qr_scan"}, "lat": 38.9217745, "lon": -77.04007683333333, "fusion_lat": 0.0}, {"is_reserved": 0, "bike_id": "4138b155913e19d64ff3a5b455ddad48", "type": "electric_scooter", "name": "4138b155913e19d64ff3a5b455ddad48", "is_disabled": 0, "fusion_lon": 0.0, "rental_uris": {"android": "https://dc.lft.to/lastmile_qr_scan", "ios": "https://dc.lft.to/lastmile_qr_scan"}, "lat": 38.91402933333333, "lon": -77.02212433333334, "fusion_lat": 0.0}, {"is_reserved": 0, "bike_id": "ba451a9c37e49d12d53893c7c049e8c9", "type": "electric_scooter", "name": "ba451a9c37e49d12d53893c7c049e8c9", "is_disabled": 0, "fusion_lon": 0.0, "rental_uris": {"android": "https://dc.lft.to/lastmile_qr_scan", "ios": "https://dc.lft.to/lastmile_qr_scan"}, "lat": 38.8550925, "lon": -76.991026, "fusion_lat": 0.0}, {"is_reserved": 0, "bike_id": "4f30282fea20232f6d6cd77c94e547b0", "type": "electric_scooter", "name": "4f30282fea20232f6d6cd77c94e547b0", "is_disabled": 0, "fusion_lon": 0.0, "rental_uris": {"android": "https://dc.lft.to/lastmile_qr_scan", "ios": "https://dc.lft.to/lastmile_qr_scan"}, "lat": 38.92303033333334, "lon": -77.042165, "fusion_lat": 0.0}, {"is_reserved": 0, "bike_id": "18d5362993b2d665a89efbdf28404b2f", "type": "electric_scooter", "name": "18d5362993b2d665a89efbdf28404b2f", "is_disabled": 0, "fusion_lon": 0.0, "rental_uris": {"android": "https://dc.lft.to/lastmile_qr_scan", "ios": "https://dc.lft.to/lastmile_qr_scan"}, "lat": 38.8850415, "lon": -77.00567316666667, "fusion_lat": 0.0}, {"is_reserved": 0, "bike_id": "9a4247e20faedd30425393e86e981e86", "type": "electric_scooter", "name": "9a4247e20faedd30425393e86e981e86", "is_disabled": 0, "fusion_lon": 0.0, "rental_uris": {"android": "https://dc.lft.to/lastmile_qr_scan", "ios": "https://dc.lft.to/lastmile_qr_scan"}, "lat": 38.89810716666667, "lon": -76.97930733333334, "fusion_lat": 0.0}, {"is_reserved": 0, "bike_id": "22e9ff07b8b516eae640b46cadc6f2c8", "type": "electric_scooter", "name": "22e9ff07b8b516eae640b46cadc6f2c8", "is_disabled": 0, "fusion_lon": 0.0, "rental_uris": {"android": "https://dc.lft.to/lastmile_qr_scan", "ios": "https://dc.lft.to/lastmile_qr_scan"}, "lat": 38.89545283333333, "lon": -76.9833525, "fusion_lat": 0.0}, {"is_reserved": 0, "bike_id": "9fb220256daf0f98f6e7ff1212a37bd8", "type": "electric_scooter", "name": "9fb220256daf0f98f6e7ff1212a37bd8", "is_disabled": 0, "fusion_lon": 0.0, "rental_uris": {"android": "https://dc.lft.to/lastmile_qr_scan", "ios": "https://dc.lft.to/lastmile_qr_scan"}, "lat": 38.939613333333334, "lon": -77.032775, "fusion_lat": 0.0}, {"is_reserved": 0, "bike_id": "0c5cc8646ded05ba1ec72c746052d170", "type": "electric_scooter", "name": "0c5cc8646ded05ba1ec72c746052d170", "is_disabled": 0, "fusion_lon": 0.0, "rental_uris": {"android": "https://dc.lft.to/lastmile_qr_scan", "ios": "https://dc.lft.to/lastmile_qr_scan"}, "lat": 38.921278666666666, "lon": -77.04381483333333, "fusion_lat": 0.0}, {"is_reserved": 0, "bike_id": "f28873f59e81c5c8c96bc4965d793bd4", "type": "electric_scooter", "name": "f28873f59e81c5c8c96bc4965d793bd4", "is_disabled": 0, "fusion_lon": 0.0, "rental_uris": {"android": "https://dc.lft.to/lastmile_qr_scan", "ios": "https://dc.lft.to/lastmile_qr_scan"}, "lat": 38.92904, "lon": -77.05809316666667, "fusion_lat": 0.0}, {"is_reserved": 0, "bike_id": "67a6e044792063393488660fcd53b93e", "type": "electric_scooter", "name": "67a6e044792063393488660fcd53b93e", "is_disabled": 0, "fusion_lon": 0.0, "rental_uris": {"android": "https://dc.lft.to/lastmile_qr_scan", "ios": "https://dc.lft.to/lastmile_qr_scan"}, "lat": 38.87998866666667, "lon": -76.98542033333334, "fusion_lat": 0.0}, {"is_reserved": 0, "bike_id": "b0c08c37d5b0c59a352a9577f0811725", "type": "electric_scooter", "name": "b0c08c37d5b0c59a352a9577f0811725", "is_disabled": 0, "fusion_lon": 0.0, "rental_uris": {"android": "https://dc.lft.to/lastmile_qr_scan", "ios": "https://dc.lft.to/lastmile_qr_scan"}, "lat": 38.9260415, "lon": -77.02158916666667, "fusion_lat": 0.0}, {"is_reserved": 0, "bike_id": "78d679bcb5d0d2241a7a9c3611c9e7b9", "type": "electric_scooter", "name": "78d679bcb5d0d2241a7a9c3611c9e7b9", "is_disabled": 0, "fusion_lon": 0.0, "rental_uris": {"android": "https://dc.lft.to/lastmile_qr_scan", "ios": "https://dc.lft.to/lastmile_qr_scan"}, "lat": 38.90957016666667, "lon": -77.00761966666667, "fusion_lat": 0.0}, {"is_reserved": 0, "bike_id": "cd74adc02f42a917ac1be46506efbf81", "type": "electric_scooter", "name": "cd74adc02f42a917ac1be46506efbf81", "is_disabled": 0, "fusion_lon": 0.0, "rental_uris": {"android": "https://dc.lft.to/lastmile_qr_scan", "ios": "https://dc.lft.to/lastmile_qr_scan"}, "lat": 38.952061666666665, "lon": -77.02737583333334, "fusion_lat": 0.0}, {"is_reserved": 0, "bike_id": "733e8575196013917a55116672d39bd5", "type": "electric_scooter", "name": "733e8575196013917a55116672d39bd5", "is_disabled": 0, "fusion_lon": 0.0, "rental_uris": {"android": "https://dc.lft.to/lastmile_qr_scan", "ios": "https://dc.lft.to/lastmile_qr_scan"}, "lat": 38.905615166666664, "lon": -77.0043105, "fusion_lat": 0.0}, {"is_reserved": 0, "bike_id": "f0b71959905bdb92e39f9710cf1eb079", "type": "electric_scooter", "name": "f0b71959905bdb92e39f9710cf1eb079", "is_disabled": 0, "fusion_lon": 0.0, "rental_uris": {"android": "https://dc.lft.to/lastmile_qr_scan", "ios": "https://dc.lft.to/lastmile_qr_scan"}, "lat": 38.91314033333333, "lon": -77.01930383333334, "fusion_lat": 0.0}, {"is_reserved": 0, "bike_id": "4defe53b8b057d2a7a70b461fd94c200", "type": "electric_scooter", "name": "4defe53b8b057d2a7a70b461fd94c200", "is_disabled": 0, "fusion_lon": 0.0, "rental_uris": {"android": "https://dc.lft.to/lastmile_qr_scan", "ios": "https://dc.lft.to/lastmile_qr_scan"}, "lat": 38.91467033333333, "lon": -77.03640583333333, "fusion_lat": 0.0}, {"is_reserved": 0, "bike_id": "044a22bd433dce76fdcde9e9ca5e5265", "type": "electric_scooter", "name": "044a22bd433dce76fdcde9e9ca5e5265", "is_disabled": 0, "fusion_lon": 0.0, "rental_uris": {"android": "https://dc.lft.to/lastmile_qr_scan", "ios": "https://dc.lft.to/lastmile_qr_scan"}, "lat": 38.91686466666667, "lon": -77.02948383333333, "fusion_lat": 0.0}, {"is_reserved": 0, "bike_id": "0956cf9862bc113ad45989bcae8a2478", "type": "electric_scooter", "name": "0956cf9862bc113ad45989bcae8a2478", "is_disabled": 0, "fusion_lon": 0.0, "rental_uris": {"android": "https://dc.lft.to/lastmile_qr_scan", "ios": "https://dc.lft.to/lastmile_qr_scan"}, "lat": 38.89043816666667, "lon": -76.990076, "fusion_lat": 0.0}, {"is_reserved": 0, "bike_id": "70d9e8dd5c2b0e6d501ae83e1c355a3e", "type": "electric_scooter", "name": "70d9e8dd5c2b0e6d501ae83e1c355a3e", "is_disabled": 0, "fusion_lon": 0.0, "rental_uris": {"android": "https://dc.lft.to/lastmile_qr_scan", "ios": "https://dc.lft.to/lastmile_qr_scan"}, "lat": 38.902396, "lon": -77.00561216666667, "fusion_lat": 0.0}, {"is_reserved": 0, "bike_id": "ef4b2c9df8a33b4e96d75163cd7acbdc", "type": "electric_bike", "name": "ef4b2c9df8a33b4e96d75163cd7acbdc", "is_disabled": 0, "fusion_lon": 0.0, "rental_uris": {"android": "https://dc.lft.to/lastmile_qr_scan", "ios": "https://dc.lft.to/lastmile_qr_scan"}, "lat": 38.815424166666666, "lon": -77.04647733333333, "fusion_lat": 0.0}, {"is_reserved": 0, "bike_id": "a28fc10061e49c0570232ec73c1777ce", "type": "electric_scooter", "name": "a28fc10061e49c0570232ec73c1777ce", "is_disabled": 0, "fusion_lon": 0.0, "rental_uris": {"android": "https://dc.lft.to/lastmile_qr_scan", "ios": "https://dc.lft.to/lastmile_qr_scan"}, "lat": 38.88031933333333, "lon": -77.02508633333333, "fusion_lat": 0.0}, {"is_reserved": 0, "bike_id": "d9fe887ac79eba7af71d3ee1b1e85366", "type": "electric_scooter", "name": "d9fe887ac79eba7af71d3ee1b1e85366", "is_disabled": 0, "fusion_lon": 0.0, "rental_uris": {"android": "https://dc.lft.to/lastmile_qr_scan", "ios": "https://dc.lft.to/lastmile_qr_scan"}, "lat": 38.90001766666666, "lon": -77.01144083333334, "fusion_lat": 0.0}, {"is_reserved": 0, "bike_id": "94a9c6c31901b048ef302b94faca1fbb", "type": "electric_scooter", "name": "94a9c6c31901b048ef302b94faca1fbb", "is_disabled": 0, "fusion_lon": 0.0, "rental_uris": {"android": "https://dc.lft.to/lastmile_qr_scan", "ios": "https://dc.lft.to/lastmile_qr_scan"}, "lat": 38.93070916666667, "lon": -77.02341666666666, "fusion_lat": 0.0}, {"is_reserved": 0, "bike_id": "c608a4c0d2a7b4fb8e58d2bfd06ed0b5", "type": "electric_scooter", "name": "c608a4c0d2a7b4fb8e58d2bfd06ed0b5", "is_disabled": 0, "fusion_lon": 0.0, "rental_uris": {"android": "https://dc.lft.to/lastmile_qr_scan", "ios": "https://dc.lft.to/lastmile_qr_scan"}, "lat": 38.8918435, "lon": -77.01529916666667, "fusion_lat": 0.0}, {"is_reserved": 0, "bike_id": "94c1c299bacf050ea70abc2a16ea9dc9", "type": "electric_scooter", "name": "94c1c299bacf050ea70abc2a16ea9dc9", "is_disabled": 0, "fusion_lon": 0.0, "rental_uris": {"android": "https://dc.lft.to/lastmile_qr_scan", "ios": "https://dc.lft.to/lastmile_qr_scan"}, "lat": 38.93204566666667, "lon": -77.04126316666667, "fusion_lat": 0.0}, {"is_reserved": 0, "bike_id": "c2cd3a7f9929b2a9d83fe51580ebd18e", "type": "electric_scooter", "name": "c2cd3a7f9929b2a9d83fe51580ebd18e", "is_disabled": 0, "fusion_lon": 0.0, "rental_uris": {"android": "https://dc.lft.to/lastmile_qr_scan", "ios": "https://dc.lft.to/lastmile_qr_scan"}, "lat": 38.90139883333333, "lon": -77.04163383333334, "fusion_lat": 0.0}, {"is_reserved": 0, "bike_id": "f637747753488f94e4c8e5c4f94962c4", "type": "electric_scooter", "name": "f637747753488f94e4c8e5c4f94962c4", "is_disabled": 0, "fusion_lon": 0.0, "rental_uris": {"android": "https://dc.lft.to/lastmile_qr_scan", "ios": "https://dc.lft.to/lastmile_qr_scan"}, "lat": 38.9250315, "lon": -77.023548, "fusion_lat": 0.0}, {"is_reserved": 0, "bike_id": "74470d869758fdbe36465a28473344aa", "type": "electric_bike", "name": "74470d869758fdbe36465a28473344aa", "is_disabled": 0, "fusion_lon": 0.0, "rental_uris": {"android": "https://dc.lft.to/lastmile_qr_scan", "ios": "https://dc.lft.to/lastmile_qr_scan"}, "lat": 38.8941895, "lon": -76.99982066666666, "fusion_lat": 0.0}, {"is_reserved": 0, "bike_id": "818413a227196c2330be1e50ad2b2f2a", "type": "electric_scooter", "name": "818413a227196c2330be1e50ad2b2f2a", "is_disabled": 0, "fusion_lon": 0.0, "rental_uris": {"android": "https://dc.lft.to/lastmile_qr_scan", "ios": "https://dc.lft.to/lastmile_qr_scan"}, "lat": 38.9232755, "lon": -77.05679533333333, "fusion_lat": 0.0}, {"is_reserved": 0, "bike_id": "69d2303cea76205a94d991830a2890f8", "type": "electric_scooter", "name": "69d2303cea76205a94d991830a2890f8", "is_disabled": 0, "fusion_lon": 0.0, "rental_uris": {"android": "https://dc.lft.to/lastmile_qr_scan", "ios": "https://dc.lft.to/lastmile_qr_scan"}, "lat": 38.921351333333334, "lon": -77.04237983333333, "fusion_lat": 0.0}, {"is_reserved": 0, "bike_id": "62a4eeeffb5151e99793efd914e626e9", "type": "electric_scooter", "name": "62a4eeeffb5151e99793efd914e626e9", "is_disabled": 0, "fusion_lon": 0.0, "rental_uris": {"android": "https://dc.lft.to/lastmile_qr_scan", "ios": "https://dc.lft.to/lastmile_qr_scan"}, "lat": 38.924372, "lon": -77.04247866666667, "fusion_lat": 0.0}, {"is_reserved": 0, "bike_id": "62c5a4b4e840a550814d38a5a69bb840", "type": "electric_scooter", "name": "62c5a4b4e840a550814d38a5a69bb840", "is_disabled": 0, "fusion_lon": 0.0, "rental_uris": {"android": "https://dc.lft.to/lastmile_qr_scan", "ios": "https://dc.lft.to/lastmile_qr_scan"}, "lat": 38.90591533333333, "lon": -77.012253, "fusion_lat": 0.0}, {"is_reserved": 0, "bike_id": "d24435ec531a38a613175fcd2e417d0f", "type": "electric_scooter", "name": "d24435ec531a38a613175fcd2e417d0f", "is_disabled": 0, "fusion_lon": 0.0, "rental_uris": {"android": "https://dc.lft.to/lastmile_qr_scan", "ios": "https://dc.lft.to/lastmile_qr_scan"}, "lat": 38.926678, "lon": -77.03728833333334, "fusion_lat": 0.0}, {"is_reserved": 0, "bike_id": "69bfc5dc33ba82db04005e8d2a969844", "type": "electric_scooter", "name": "69bfc5dc33ba82db04005e8d2a969844", "is_disabled": 0, "fusion_lon": 0.0, "rental_uris": {"android": "https://dc.lft.to/lastmile_qr_scan", "ios": "https://dc.lft.to/lastmile_qr_scan"}, "lat": 38.91923583333333, "lon": -77.0342245, "fusion_lat": 0.0}, {"is_reserved": 0, "bike_id": "1f12f5ac0168d3789be7f9d7442ff52f", "type": "electric_scooter", "name": "1f12f5ac0168d3789be7f9d7442ff52f", "is_disabled": 0, "fusion_lon": 0.0, "rental_uris": {"android": "https://dc.lft.to/lastmile_qr_scan", "ios": "https://dc.lft.to/lastmile_qr_scan"}, "lat": 38.889736166666665, "lon": -77.04016333333334, "fusion_lat": 0.0}, {"is_reserved": 0, "bike_id": "87dcf690dd1dc8988ff070e45e2418ad", "type": "electric_scooter", "name": "87dcf690dd1dc8988ff070e45e2418ad", "is_disabled": 0, "fusion_lon": 0.0, "rental_uris": {"android": "https://dc.lft.to/lastmile_qr_scan", "ios": "https://dc.lft.to/lastmile_qr_scan"}, "lat": 38.9140935, "lon": -77.01021016666667, "fusion_lat": 0.0}, {"is_reserved": 0, "bike_id": "909df2c6c8508e5920467b74290469a0", "type": "electric_scooter", "name": "909df2c6c8508e5920467b74290469a0", "is_disabled": 0, "fusion_lon": 0.0, "rental_uris": {"android": "https://dc.lft.to/lastmile_qr_scan", "ios": "https://dc.lft.to/lastmile_qr_scan"}, "lat": 38.88528383333333, "lon": -76.99712316666667, "fusion_lat": 0.0}, {"is_reserved": 0, "bike_id": "38f41c973fd74005c6b310d25ff124d3", "type": "electric_scooter", "name": "38f41c973fd74005c6b310d25ff124d3", "is_disabled": 0, "fusion_lon": 0.0, "rental_uris": {"android": "https://dc.lft.to/lastmile_qr_scan", "ios": "https://dc.lft.to/lastmile_qr_scan"}, "lat": 38.903473, "lon": -76.9294365, "fusion_lat": 0.0}, {"is_reserved": 0, "bike_id": "3bfb21908de8035d000bfed3a73a589d", "type": "electric_scooter", "name": "3bfb21908de8035d000bfed3a73a589d", "is_disabled": 0, "fusion_lon": 0.0, "rental_uris": {"android": "https://dc.lft.to/lastmile_qr_scan", "ios": "https://dc.lft.to/lastmile_qr_scan"}, "lat": 38.909843, "lon": -77.06607883333334, "fusion_lat": 0.0}, {"is_reserved": 0, "bike_id": "820c3778a00fd8bf9e34cb046008f793", "type": "electric_scooter", "name": "820c3778a00fd8bf9e34cb046008f793", "is_disabled": 0, "fusion_lon": 0.0, "rental_uris": {"android": "https://dc.lft.to/lastmile_qr_scan", "ios": "https://dc.lft.to/lastmile_qr_scan"}, "lat": 38.91059216666667, "lon": -77.052923, "fusion_lat": 0.0}, {"is_reserved": 0, "bike_id": "f93992298c1dda0f998414acff05a6c5", "type": "electric_scooter", "name": "f93992298c1dda0f998414acff05a6c5", "is_disabled": 0, "fusion_lon": 0.0, "rental_uris": {"android": "https://dc.lft.to/lastmile_qr_scan", "ios": "https://dc.lft.to/lastmile_qr_scan"}, "lat": 38.901692, "lon": -77.04328666666666, "fusion_lat": 0.0}, {"is_reserved": 0, "bike_id": "c4d74ad9d472cfc84491859921b123c1", "type": "electric_scooter", "name": "c4d74ad9d472cfc84491859921b123c1", "is_disabled": 0, "fusion_lon": 0.0, "rental_uris": {"android": "https://dc.lft.to/lastmile_qr_scan", "ios": "https://dc.lft.to/lastmile_qr_scan"}, "lat": 38.9112085, "lon": -77.0503745, "fusion_lat": 0.0}, {"is_reserved": 0, "bike_id": "3f7977a6c94974c64597ed39f84c1200", "type": "electric_scooter", "name": "3f7977a6c94974c64597ed39f84c1200", "is_disabled": 0, "fusion_lon": 0.0, "rental_uris": {"android": "https://dc.lft.to/lastmile_qr_scan", "ios": "https://dc.lft.to/lastmile_qr_scan"}, "lat": 38.93613766666667, "lon": -77.058963, "fusion_lat": 0.0}, {"is_reserved": 0, "bike_id": "46c58234d69a6e062e773169a44674b8", "type": "electric_scooter", "name": "46c58234d69a6e062e773169a44674b8", "is_disabled": 0, "fusion_lon": 0.0, "rental_uris": {"android": "https://dc.lft.to/lastmile_qr_scan", "ios": "https://dc.lft.to/lastmile_qr_scan"}, "lat": 38.91640433333333, "lon": -77.03206816666666, "fusion_lat": 0.0}, {"is_reserved": 0, "bike_id": "7d49f200619b6e6d92acb0d9a6ab3bd7", "type": "electric_scooter", "name": "7d49f200619b6e6d92acb0d9a6ab3bd7", "is_disabled": 0, "fusion_lon": 0.0, "rental_uris": {"android": "https://dc.lft.to/lastmile_qr_scan", "ios": "https://dc.lft.to/lastmile_qr_scan"}, "lat": 38.927041, "lon": -77.02096216666666, "fusion_lat": 0.0}, {"is_reserved": 0, "bike_id": "267aa9f216a860c0be955d0b88814879", "type": "electric_scooter", "name": "267aa9f216a860c0be955d0b88814879", "is_disabled": 0, "fusion_lon": 0.0, "rental_uris": {"android": "https://dc.lft.to/lastmile_qr_scan", "ios": "https://dc.lft.to/lastmile_qr_scan"}, "lat": 38.93576816666667, "lon": -77.03350283333333, "fusion_lat": 0.0}, {"is_reserved": 0, "bike_id": "38fa7416e9c551303cc33d7fb9284f56", "type": "electric_scooter", "name": "38fa7416e9c551303cc33d7fb9284f56", "is_disabled": 0, "fusion_lon": 0.0, "rental_uris": {"android": "https://dc.lft.to/lastmile_qr_scan", "ios": "https://dc.lft.to/lastmile_qr_scan"}, "lat": 38.913291666666666, "lon": -77.04526633333333, "fusion_lat": 0.0}, {"is_reserved": 0, "bike_id": "3b7d63e8e992796af78c660cddc329d7", "type": "electric_scooter", "name": "3b7d63e8e992796af78c660cddc329d7", "is_disabled": 0, "fusion_lon": 0.0, "rental_uris": {"android": "https://dc.lft.to/lastmile_qr_scan", "ios": "https://dc.lft.to/lastmile_qr_scan"}, "lat": 38.915719, "lon": -77.0463165, "fusion_lat": 0.0}, {"is_reserved": 0, "bike_id": "5fceb9bc706d044784d7286b337b7522", "type": "electric_scooter", "name": "5fceb9bc706d044784d7286b337b7522", "is_disabled": 0, "fusion_lon": 0.0, "rental_uris": {"android": "https://dc.lft.to/lastmile_qr_scan", "ios": "https://dc.lft.to/lastmile_qr_scan"}, "lat": 38.90900116666667, "lon": -77.00273133333333, "fusion_lat": 0.0}, {"is_reserved": 0, "bike_id": "e63edff07533ff865a76fbdb05385b33", "type": "electric_scooter", "name": "e63edff07533ff865a76fbdb05385b33", "is_disabled": 0, "fusion_lon": 0.0, "rental_uris": {"android": "https://dc.lft.to/lastmile_qr_scan", "ios": "https://dc.lft.to/lastmile_qr_scan"}, "lat": 38.915664166666666, "lon": -77.06801233333333, "fusion_lat": 0.0}, {"is_reserved": 0, "bike_id": "6888136cd851c1cd68632b5a01a3482f", "type": "electric_scooter", "name": "6888136cd851c1cd68632b5a01a3482f", "is_disabled": 0, "fusion_lon": 0.0, "rental_uris": {"android": "https://dc.lft.to/lastmile_qr_scan", "ios": "https://dc.lft.to/lastmile_qr_scan"}, "lat": 38.91664166666666, "lon": -77.038527, "fusion_lat": 0.0}, {"is_reserved": 0, "bike_id": "cd96185045c0f168ffc3c454506e3851", "type": "electric_scooter", "name": "cd96185045c0f168ffc3c454506e3851", "is_disabled": 0, "fusion_lon": 0.0, "rental_uris": {"android": "https://dc.lft.to/lastmile_qr_scan", "ios": "https://dc.lft.to/lastmile_qr_scan"}, "lat": 38.9119495, "lon": -77.060873, "fusion_lat": 0.0}, {"is_reserved": 0, "bike_id": "c9fb818024b48b5c439aa8610f869ece", "type": "electric_scooter", "name": "c9fb818024b48b5c439aa8610f869ece", "is_disabled": 0, "fusion_lon": 0.0, "rental_uris": {"android": "https://dc.lft.to/lastmile_qr_scan", "ios": "https://dc.lft.to/lastmile_qr_scan"}, "lat": 38.9417895, "lon": -77.0365675, "fusion_lat": 0.0}, {"is_reserved": 0, "bike_id": "284482744e768aab503efe7a1a86a550", "type": "electric_scooter", "name": "284482744e768aab503efe7a1a86a550", "is_disabled": 0, "fusion_lon": 0.0, "rental_uris": {"android": "https://dc.lft.to/lastmile_qr_scan", "ios": "https://dc.lft.to/lastmile_qr_scan"}, "lat": 38.934297, "lon": -77.03449533333334, "fusion_lat": 0.0}, {"is_reserved": 0, "bike_id": "dd8d088b2d37e3a735f52d78a4a766d2", "type": "electric_scooter", "name": "dd8d088b2d37e3a735f52d78a4a766d2", "is_disabled": 0, "fusion_lon": 0.0, "rental_uris": {"android": "https://dc.lft.to/lastmile_qr_scan", "ios": "https://dc.lft.to/lastmile_qr_scan"}, "lat": 38.92687866666667, "lon": -77.01575183333334, "fusion_lat": 0.0}, {"is_reserved": 0, "bike_id": "09407a170605cf97f3a064bc0051fef0", "type": "electric_scooter", "name": "09407a170605cf97f3a064bc0051fef0", "is_disabled": 0, "fusion_lon": 0.0, "rental_uris": {"android": "https://dc.lft.to/lastmile_qr_scan", "ios": "https://dc.lft.to/lastmile_qr_scan"}, "lat": 38.9291445, "lon": -77.01865483333333, "fusion_lat": 0.0}, {"is_reserved": 0, "bike_id": "02449957d051f731603c82b07d4540a4", "type": "electric_scooter", "name": "02449957d051f731603c82b07d4540a4", "is_disabled": 0, "fusion_lon": 0.0, "rental_uris": {"android": "https://dc.lft.to/lastmile_qr_scan", "ios": "https://dc.lft.to/lastmile_qr_scan"}, "lat": 38.92437366666667, "lon": -77.04249916666667, "fusion_lat": 0.0}, {"is_reserved": 0, "bike_id": "4bf2da23e9a272e1074b31c27f3bc897", "type": "electric_scooter", "name": "4bf2da23e9a272e1074b31c27f3bc897", "is_disabled": 0, "fusion_lon": 0.0, "rental_uris": {"android": "https://dc.lft.to/lastmile_qr_scan", "ios": "https://dc.lft.to/lastmile_qr_scan"}, "lat": 38.90595533333333, "lon": -77.00737883333333, "fusion_lat": 0.0}, {"is_reserved": 0, "bike_id": "0e985aad3e5028b40838987483569ec4", "type": "electric_scooter", "name": "0e985aad3e5028b40838987483569ec4", "is_disabled": 0, "fusion_lon": 0.0, "rental_uris": {"android": "https://dc.lft.to/lastmile_qr_scan", "ios": "https://dc.lft.to/lastmile_qr_scan"}, "lat": 38.93642066666666, "lon": -77.03690533333334, "fusion_lat": 0.0}, {"is_reserved": 0, "bike_id": "0a2843d804f43e596f761b3078f261f6", "type": "electric_scooter", "name": "0a2843d804f43e596f761b3078f261f6", "is_disabled": 0, "fusion_lon": 0.0, "rental_uris": {"android": "https://dc.lft.to/lastmile_qr_scan", "ios": "https://dc.lft.to/lastmile_qr_scan"}, "lat": 38.9233245, "lon": -77.00894616666666, "fusion_lat": 0.0}, {"is_reserved": 0, "bike_id": "f120d196bed365112b1e29ca1f56c399", "type": "electric_scooter", "name": "f120d196bed365112b1e29ca1f56c399", "is_disabled": 0, "fusion_lon": 0.0, "rental_uris": {"android": "https://dc.lft.to/lastmile_qr_scan", "ios": "https://dc.lft.to/lastmile_qr_scan"}, "lat": 38.90034516666667, "lon": -77.03351183333334, "fusion_lat": 0.0}, {"is_reserved": 0, "bike_id": "462ef1f506bd3045f25e97cc8e42c198", "type": "electric_scooter", "name": "462ef1f506bd3045f25e97cc8e42c198", "is_disabled": 0, "fusion_lon": 0.0, "rental_uris": {"android": "https://dc.lft.to/lastmile_qr_scan", "ios": "https://dc.lft.to/lastmile_qr_scan"}, "lat": 38.90649, "lon": -77.0252725, "fusion_lat": 0.0}, {"is_reserved": 0, "bike_id": "e930664bbcaf883fbc2274e9db427c0a", "type": "electric_bike", "name": "e930664bbcaf883fbc2274e9db427c0a", "is_disabled": 0, "fusion_lon": 0.0, "rental_uris": {"android": "https://dc.lft.to/lastmile_qr_scan", "ios": "https://dc.lft.to/lastmile_qr_scan"}, "lat": 38.985544166666664, "lon": -77.00394083333333, "fusion_lat": 0.0}, {"is_reserved": 0, "bike_id": "b5c5e5e857b748a0d5eb63c6dee431fd", "type": "electric_scooter", "name": "b5c5e5e857b748a0d5eb63c6dee431fd", "is_disabled": 0, "fusion_lon": 0.0, "rental_uris": {"android": "https://dc.lft.to/lastmile_qr_scan", "ios": "https://dc.lft.to/lastmile_qr_scan"}, "lat": 38.9210395, "lon": -77.03923433333334, "fusion_lat": 0.0}, {"is_reserved": 0, "bike_id": "f213641d004712abe8064a9244c8d0d8", "type": "electric_scooter", "name": "f213641d004712abe8064a9244c8d0d8", "is_disabled": 0, "fusion_lon": 0.0, "rental_uris": {"android": "https://dc.lft.to/lastmile_qr_scan", "ios": "https://dc.lft.to/lastmile_qr_scan"}, "lat": 38.899621, "lon": -77.04782383333334, "fusion_lat": 0.0}, {"is_reserved": 0, "bike_id": "1250be64fca16c8890b8e7fc4afe1818", "type": "electric_scooter", "name": "1250be64fca16c8890b8e7fc4afe1818", "is_disabled": 0, "fusion_lon": 0.0, "rental_uris": {"android": "https://dc.lft.to/lastmile_qr_scan", "ios": "https://dc.lft.to/lastmile_qr_scan"}, "lat": 38.92070483333333, "lon": -77.0232155, "fusion_lat": 0.0}, {"is_reserved": 0, "bike_id": "0869ffa5650a86995b4d47d4be7d87a8", "type": "electric_bike", "name": "0869ffa5650a86995b4d47d4be7d87a8", "is_disabled": 0, "fusion_lon": 0.0, "rental_uris": {"android": "https://dc.lft.to/lastmile_qr_scan", "ios": "https://dc.lft.to/lastmile_qr_scan"}, "lat": 38.8557845, "lon": -76.97440766666666, "fusion_lat": 0.0}, {"is_reserved": 0, "bike_id": "ec723baa95756104a4b038153943bd4c", "type": "electric_scooter", "name": "ec723baa95756104a4b038153943bd4c", "is_disabled": 0, "fusion_lon": 0.0, "rental_uris": {"android": "https://dc.lft.to/lastmile_qr_scan", "ios": "https://dc.lft.to/lastmile_qr_scan"}, "lat": 38.896967, "lon": -77.04339516666667, "fusion_lat": 0.0}, {"is_reserved": 0, "bike_id": "bc74f3add5eb5f91ccff2c9cfafec22b", "type": "electric_bike", "name": "bc74f3add5eb5f91ccff2c9cfafec22b", "is_disabled": 0, "fusion_lon": 0.0, "rental_uris": {"android": "https://dc.lft.to/lastmile_qr_scan", "ios": "https://dc.lft.to/lastmile_qr_scan"}, "lat": 38.96563183333333, "lon": -77.0282815, "fusion_lat": 0.0}, {"is_reserved": 0, "bike_id": "aafaee38b702050680674e9d1ab70d25", "type": "electric_scooter", "name": "aafaee38b702050680674e9d1ab70d25", "is_disabled": 0, "fusion_lon": 0.0, "rental_uris": {"android": "https://dc.lft.to/lastmile_qr_scan", "ios": "https://dc.lft.to/lastmile_qr_scan"}, "lat": 38.92069716666666, "lon": -77.0438185, "fusion_lat": 0.0}, {"is_reserved": 0, "bike_id": "2c148e8f3d9a6e17cc365efa7e63a6c2", "type": "electric_scooter", "name": "2c148e8f3d9a6e17cc365efa7e63a6c2", "is_disabled": 0, "fusion_lon": 0.0, "rental_uris": {"android": "https://dc.lft.to/lastmile_qr_scan", "ios": "https://dc.lft.to/lastmile_qr_scan"}, "lat": 38.921007333333336, "lon": -77.02553033333334, "fusion_lat": 0.0}, {"is_reserved": 0, "bike_id": "048511d295e9fbb4c07bc9ebdfbb3138", "type": "electric_scooter", "name": "048511d295e9fbb4c07bc9ebdfbb3138", "is_disabled": 0, "fusion_lon": 0.0, "rental_uris": {"android": "https://dc.lft.to/lastmile_qr_scan", "ios": "https://dc.lft.to/lastmile_qr_scan"}, "lat": 38.898281, "lon": -77.04611583333333, "fusion_lat": 0.0}, {"is_reserved": 0, "bike_id": "f5dc5a5831f0b83c485818013937d132", "type": "electric_scooter", "name": "f5dc5a5831f0b83c485818013937d132", "is_disabled": 0, "fusion_lon": 0.0, "rental_uris": {"android": "https://dc.lft.to/lastmile_qr_scan", "ios": "https://dc.lft.to/lastmile_qr_scan"}, "lat": 38.9098025, "lon": -77.00894, "fusion_lat": 0.0}, {"is_reserved": 0, "bike_id": "0960367780041968d63866e95d6c807b", "type": "electric_scooter", "name": "0960367780041968d63866e95d6c807b", "is_disabled": 0, "fusion_lon": 0.0, "rental_uris": {"android": "https://dc.lft.to/lastmile_qr_scan", "ios": "https://dc.lft.to/lastmile_qr_scan"}, "lat": 38.91863083333333, "lon": -76.9609705, "fusion_lat": 0.0}, {"is_reserved": 0, "bike_id": "62d191b66e704b7753b81adfabbdc100", "type": "electric_scooter", "name": "62d191b66e704b7753b81adfabbdc100", "is_disabled": 0, "fusion_lon": 0.0, "rental_uris": {"android": "https://dc.lft.to/lastmile_qr_scan", "ios": "https://dc.lft.to/lastmile_qr_scan"}, "lat": 38.880933, "lon": -77.02602483333334, "fusion_lat": 0.0}, {"is_reserved": 0, "bike_id": "de296e535a47fc9a1b5169bbb7df5dd7", "type": "electric_scooter", "name": "de296e535a47fc9a1b5169bbb7df5dd7", "is_disabled": 0, "fusion_lon": 0.0, "rental_uris": {"android": "https://dc.lft.to/lastmile_qr_scan", "ios": "https://dc.lft.to/lastmile_qr_scan"}, "lat": 38.902524666666665, "lon": -77.01764016666667, "fusion_lat": 0.0}, {"is_reserved": 0, "bike_id": "099171300b03b4c89d4ae4b8fb5b6cab", "type": "electric_scooter", "name": "099171300b03b4c89d4ae4b8fb5b6cab", "is_disabled": 0, "fusion_lon": 0.0, "rental_uris": {"android": "https://dc.lft.to/lastmile_qr_scan", "ios": "https://dc.lft.to/lastmile_qr_scan"}, "lat": 38.899545, "lon": -77.032312, "fusion_lat": 0.0}, {"is_reserved": 0, "bike_id": "0c7254cb2f65a465e1fd4159ce3dcbb7", "type": "electric_scooter", "name": "0c7254cb2f65a465e1fd4159ce3dcbb7", "is_disabled": 0, "fusion_lon": 0.0, "rental_uris": {"android": "https://dc.lft.to/lastmile_qr_scan", "ios": "https://dc.lft.to/lastmile_qr_scan"}, "lat": 38.9676375, "lon": -77.03033033333334, "fusion_lat": 0.0}, {"is_reserved": 0, "bike_id": "06548a13e688ca5dd41646e084c2b1bb", "type": "electric_scooter", "name": "06548a13e688ca5dd41646e084c2b1bb", "is_disabled": 0, "fusion_lon": 0.0, "rental_uris": {"android": "https://dc.lft.to/lastmile_qr_scan", "ios": "https://dc.lft.to/lastmile_qr_scan"}, "lat": 38.90082833333334, "lon": -77.03167533333334, "fusion_lat": 0.0}, {"is_reserved": 0, "bike_id": "8249b8f52df4d9c284ac137192b22750", "type": "electric_scooter", "name": "8249b8f52df4d9c284ac137192b22750", "is_disabled": 0, "fusion_lon": 0.0, "rental_uris": {"android": "https://dc.lft.to/lastmile_qr_scan", "ios": "https://dc.lft.to/lastmile_qr_scan"}, "lat": 38.92332416666667, "lon": -77.04637683333333, "fusion_lat": 0.0}, {"is_reserved": 0, "bike_id": "53f3213c9652812cc698c09d24a3e4f3", "type": "electric_scooter", "name": "53f3213c9652812cc698c09d24a3e4f3", "is_disabled": 0, "fusion_lon": 0.0, "rental_uris": {"android": "https://dc.lft.to/lastmile_qr_scan", "ios": "https://dc.lft.to/lastmile_qr_scan"}, "lat": 38.88727166666666, "lon": -77.02581216666667, "fusion_lat": 0.0}, {"is_reserved": 0, "bike_id": "70701a35f802e19f1d592831233b197e", "type": "electric_scooter", "name": "70701a35f802e19f1d592831233b197e", "is_disabled": 0, "fusion_lon": 0.0, "rental_uris": {"android": "https://dc.lft.to/lastmile_qr_scan", "ios": "https://dc.lft.to/lastmile_qr_scan"}, "lat": 38.90371116666667, "lon": -76.98717333333333, "fusion_lat": 0.0}, {"is_reserved": 0, "bike_id": "9c8d73abf8a66c7f0b977338b511d610", "type": "electric_scooter", "name": "9c8d73abf8a66c7f0b977338b511d610", "is_disabled": 0, "fusion_lon": 0.0, "rental_uris": {"android": "https://dc.lft.to/lastmile_qr_scan", "ios": "https://dc.lft.to/lastmile_qr_scan"}, "lat": 38.918496833333336, "lon": -77.03886966666667, "fusion_lat": 0.0}, {"is_reserved": 0, "bike_id": "ce39d2b5e68610025f9bed63a3cb5689", "type": "electric_scooter", "name": "ce39d2b5e68610025f9bed63a3cb5689", "is_disabled": 0, "fusion_lon": 0.0, "rental_uris": {"android": "https://dc.lft.to/lastmile_qr_scan", "ios": "https://dc.lft.to/lastmile_qr_scan"}, "lat": 38.919106, "lon": -77.03134966666667, "fusion_lat": 0.0}, {"is_reserved": 0, "bike_id": "1883a470b378d9dc95ce18bfafb1e5e7", "type": "electric_scooter", "name": "1883a470b378d9dc95ce18bfafb1e5e7", "is_disabled": 0, "fusion_lon": 0.0, "rental_uris": {"android": "https://dc.lft.to/lastmile_qr_scan", "ios": "https://dc.lft.to/lastmile_qr_scan"}, "lat": 38.93100166666667, "lon": -77.0266535, "fusion_lat": 0.0}, {"is_reserved": 0, "bike_id": "c3a80fa20b61dd18e42a7efcd56c68f2", "type": "electric_scooter", "name": "c3a80fa20b61dd18e42a7efcd56c68f2", "is_disabled": 0, "fusion_lon": 0.0, "rental_uris": {"android": "https://dc.lft.to/lastmile_qr_scan", "ios": "https://dc.lft.to/lastmile_qr_scan"}, "lat": 38.9028255, "lon": -77.03641066666667, "fusion_lat": 0.0}, {"is_reserved": 0, "bike_id": "b16bd81bf4850307338c4033a016053e", "type": "electric_scooter", "name": "b16bd81bf4850307338c4033a016053e", "is_disabled": 0, "fusion_lon": 0.0, "rental_uris": {"android": "https://dc.lft.to/lastmile_qr_scan", "ios": "https://dc.lft.to/lastmile_qr_scan"}, "lat": 38.94012633333333, "lon": -77.02742233333333, "fusion_lat": 0.0}, {"is_reserved": 0, "bike_id": "c6b108b12bf4e0868f902ee85ee13652", "type": "electric_bike", "name": "c6b108b12bf4e0868f902ee85ee13652", "is_disabled": 0, "fusion_lon": 0.0, "rental_uris": {"android": "https://dc.lft.to/lastmile_qr_scan", "ios": "https://dc.lft.to/lastmile_qr_scan"}, "lat": 38.83065283333333, "lon": -77.04080283333333, "fusion_lat": 0.0}, {"is_reserved": 0, "bike_id": "dd00b096dea44b14312c53cfbb780c25", "type": "electric_scooter", "name": "dd00b096dea44b14312c53cfbb780c25", "is_disabled": 0, "fusion_lon": 0.0, "rental_uris": {"android": "https://dc.lft.to/lastmile_qr_scan", "ios": "https://dc.lft.to/lastmile_qr_scan"}, "lat": 38.901262, "lon": -77.038563, "fusion_lat": 0.0}, {"is_reserved": 0, "bike_id": "0e7f1941e13c059181a7ee4c6fda6aeb", "type": "electric_scooter", "name": "0e7f1941e13c059181a7ee4c6fda6aeb", "is_disabled": 0, "fusion_lon": 0.0, "rental_uris": {"android": "https://dc.lft.to/lastmile_qr_scan", "ios": "https://dc.lft.to/lastmile_qr_scan"}, "lat": 38.90378466666667, "lon": -77.00753916666666, "fusion_lat": 0.0}, {"is_reserved": 0, "bike_id": "8b4bd19b5d01a2ac657779ef1667dc07", "type": "electric_scooter", "name": "8b4bd19b5d01a2ac657779ef1667dc07", "is_disabled": 0, "fusion_lon": 0.0, "rental_uris": {"android": "https://dc.lft.to/lastmile_qr_scan", "ios": "https://dc.lft.to/lastmile_qr_scan"}, "lat": 38.908322166666665, "lon": -77.043417, "fusion_lat": 0.0}, {"is_reserved": 0, "bike_id": "d0769a110ec64327e47736391e484df8", "type": "electric_bike", "name": "d0769a110ec64327e47736391e484df8", "is_disabled": 0, "fusion_lon": 0.0, "rental_uris": {"android": "https://dc.lft.to/lastmile_qr_scan", "ios": "https://dc.lft.to/lastmile_qr_scan"}, "lat": 38.92116333333333, "lon": -76.9888325, "fusion_lat": 0.0}, {"is_reserved": 0, "bike_id": "f9fd6f2d4316431b11ee746467a05f60", "type": "electric_scooter", "name": "f9fd6f2d4316431b11ee746467a05f60", "is_disabled": 0, "fusion_lon": 0.0, "rental_uris": {"android": "https://dc.lft.to/lastmile_qr_scan", "ios": "https://dc.lft.to/lastmile_qr_scan"}, "lat": 38.91932, "lon": -77.04498183333334, "fusion_lat": 0.0}, {"is_reserved": 0, "bike_id": "49b8e851dde78c8fa849b2885209319c", "type": "electric_scooter", "name": "49b8e851dde78c8fa849b2885209319c", "is_disabled": 0, "fusion_lon": 0.0, "rental_uris": {"android": "https://dc.lft.to/lastmile_qr_scan", "ios": "https://dc.lft.to/lastmile_qr_scan"}, "lat": 38.9188115, "lon": -77.009182, "fusion_lat": 0.0}, {"is_reserved": 0, "bike_id": "01b4f210811166b597ef8ceae83df764", "type": "electric_scooter", "name": "01b4f210811166b597ef8ceae83df764", "is_disabled": 0, "fusion_lon": 0.0, "rental_uris": {"android": "https://dc.lft.to/lastmile_qr_scan", "ios": "https://dc.lft.to/lastmile_qr_scan"}, "lat": 38.923763666666666, "lon": -77.02531633333334, "fusion_lat": 0.0}, {"is_reserved": 0, "bike_id": "5c3e2855f0f34bc9ec341bf79a410bfd", "type": "electric_scooter", "name": "5c3e2855f0f34bc9ec341bf79a410bfd", "is_disabled": 0, "fusion_lon": 0.0, "rental_uris": {"android": "https://dc.lft.to/lastmile_qr_scan", "ios": "https://dc.lft.to/lastmile_qr_scan"}, "lat": 38.915762666666666, "lon": -77.0365785, "fusion_lat": 0.0}, {"is_reserved": 0, "bike_id": "8b0b056881ea955322ffc51d13153eea", "type": "electric_scooter", "name": "8b0b056881ea955322ffc51d13153eea", "is_disabled": 0, "fusion_lon": 0.0, "rental_uris": {"android": "https://dc.lft.to/lastmile_qr_scan", "ios": "https://dc.lft.to/lastmile_qr_scan"}, "lat": 38.9176585, "lon": -77.0271085, "fusion_lat": 0.0}, {"is_reserved": 0, "bike_id": "1cc5c4edaf45015cac52723a159bd943", "type": "electric_scooter", "name": "1cc5c4edaf45015cac52723a159bd943", "is_disabled": 0, "fusion_lon": 0.0, "rental_uris": {"android": "https://dc.lft.to/lastmile_qr_scan", "ios": "https://dc.lft.to/lastmile_qr_scan"}, "lat": 38.9215185, "lon": -77.0387345, "fusion_lat": 0.0}, {"is_reserved": 0, "bike_id": "56515222c91734c46393b992fdcf185a", "type": "electric_scooter", "name": "56515222c91734c46393b992fdcf185a", "is_disabled": 0, "fusion_lon": 0.0, "rental_uris": {"android": "https://dc.lft.to/lastmile_qr_scan", "ios": "https://dc.lft.to/lastmile_qr_scan"}, "lat": 38.92620633333333, "lon": -77.02269083333333, "fusion_lat": 0.0}, {"is_reserved": 0, "bike_id": "2e32d0656aaa42161a5ad7569333fbe2", "type": "electric_scooter", "name": "2e32d0656aaa42161a5ad7569333fbe2", "is_disabled": 0, "fusion_lon": 0.0, "rental_uris": {"android": "https://dc.lft.to/lastmile_qr_scan", "ios": "https://dc.lft.to/lastmile_qr_scan"}, "lat": 38.93036566666667, "lon": -77.05742433333333, "fusion_lat": 0.0}, {"is_reserved": 0, "bike_id": "23264fd3a4cdf3b093edbd6d1a05c6b2", "type": "electric_bike", "name": "23264fd3a4cdf3b093edbd6d1a05c6b2", "is_disabled": 0, "fusion_lon": 0.0, "rental_uris": {"android": "https://dc.lft.to/lastmile_qr_scan", "ios": "https://dc.lft.to/lastmile_qr_scan"}, "lat": 38.974416, "lon": -77.096198, "fusion_lat": 0.0}, {"is_reserved": 0, "bike_id": "5df0f28890832500b447974fa6f16b47", "type": "electric_bike", "name": "5df0f28890832500b447974fa6f16b47", "is_disabled": 0, "fusion_lon": 0.0, "rental_uris": {"android": "https://dc.lft.to/lastmile_qr_scan", "ios": "https://dc.lft.to/lastmile_qr_scan"}, "lat": 38.941708166666665, "lon": -76.95353633333333, "fusion_lat": 0.0}, {"is_reserved": 0, "bike_id": "bf454607289836a98398397b174012be", "type": "electric_scooter", "name": "bf454607289836a98398397b174012be", "is_disabled": 0, "fusion_lon": 0.0, "rental_uris": {"android": "https://dc.lft.to/lastmile_qr_scan", "ios": "https://dc.lft.to/lastmile_qr_scan"}, "lat": 38.891233, "lon": -76.940877, "fusion_lat": 0.0}, {"is_reserved": 0, "bike_id": "837aaed42ff3f8e1602929d11845d2f6", "type": "electric_scooter", "name": "837aaed42ff3f8e1602929d11845d2f6", "is_disabled": 0, "fusion_lon": 0.0, "rental_uris": {"android": "https://dc.lft.to/lastmile_qr_scan", "ios": "https://dc.lft.to/lastmile_qr_scan"}, "lat": 38.9237975, "lon": -77.02957816666667, "fusion_lat": 0.0}, {"is_reserved": 0, "bike_id": "7743b3e73dc24b4eeb3a403c0463cc38", "type": "electric_scooter", "name": "7743b3e73dc24b4eeb3a403c0463cc38", "is_disabled": 0, "fusion_lon": 0.0, "rental_uris": {"android": "https://dc.lft.to/lastmile_qr_scan", "ios": "https://dc.lft.to/lastmile_qr_scan"}, "lat": 38.91311666666667, "lon": -77.01611583333333, "fusion_lat": 0.0}, {"is_reserved": 0, "bike_id": "5fb9d747345e00c63b2c0ea2e5c311e7", "type": "electric_scooter", "name": "5fb9d747345e00c63b2c0ea2e5c311e7", "is_disabled": 0, "fusion_lon": 0.0, "rental_uris": {"android": "https://dc.lft.to/lastmile_qr_scan", "ios": "https://dc.lft.to/lastmile_qr_scan"}, "lat": 38.930744, "lon": -77.02331416666667, "fusion_lat": 0.0}, {"is_reserved": 0, "bike_id": "4ab6c73409968d4bc725f66a1b0b7985", "type": "electric_scooter", "name": "4ab6c73409968d4bc725f66a1b0b7985", "is_disabled": 0, "fusion_lon": 0.0, "rental_uris": {"android": "https://dc.lft.to/lastmile_qr_scan", "ios": "https://dc.lft.to/lastmile_qr_scan"}, "lat": 38.90722566666667, "lon": -77.0401445, "fusion_lat": 0.0}, {"is_reserved": 0, "bike_id": "e1b0030f981f5e78ba28c9abb2ae5006", "type": "electric_scooter", "name": "e1b0030f981f5e78ba28c9abb2ae5006", "is_disabled": 0, "fusion_lon": 0.0, "rental_uris": {"android": "https://dc.lft.to/lastmile_qr_scan", "ios": "https://dc.lft.to/lastmile_qr_scan"}, "lat": 38.931057833333334, "lon": -77.024825, "fusion_lat": 0.0}, {"is_reserved": 0, "bike_id": "1a6350748ba863b2ae9e02576cb55e87", "type": "electric_scooter", "name": "1a6350748ba863b2ae9e02576cb55e87", "is_disabled": 0, "fusion_lon": 0.0, "rental_uris": {"android": "https://dc.lft.to/lastmile_qr_scan", "ios": "https://dc.lft.to/lastmile_qr_scan"}, "lat": 38.914201166666665, "lon": -77.021778, "fusion_lat": 0.0}, {"is_reserved": 0, "bike_id": "4097675f654695259d0e2bbce6e212d0", "type": "electric_scooter", "name": "4097675f654695259d0e2bbce6e212d0", "is_disabled": 0, "fusion_lon": 0.0, "rental_uris": {"android": "https://dc.lft.to/lastmile_qr_scan", "ios": "https://dc.lft.to/lastmile_qr_scan"}, "lat": 38.901360833333335, "lon": -77.00323566666667, "fusion_lat": 0.0}, {"is_reserved": 0, "bike_id": "e6da46ac1bffddb4a99ace32e12c79ff", "type": "electric_scooter", "name": "e6da46ac1bffddb4a99ace32e12c79ff", "is_disabled": 0, "fusion_lon": 0.0, "rental_uris": {"android": "https://dc.lft.to/lastmile_qr_scan", "ios": "https://dc.lft.to/lastmile_qr_scan"}, "lat": 38.94367616666667, "lon": -77.061049, "fusion_lat": 0.0}, {"is_reserved": 0, "bike_id": "dfa897b70f2df1ba680136eafcc6d614", "type": "electric_scooter", "name": "dfa897b70f2df1ba680136eafcc6d614", "is_disabled": 0, "fusion_lon": 0.0, "rental_uris": {"android": "https://dc.lft.to/lastmile_qr_scan", "ios": "https://dc.lft.to/lastmile_qr_scan"}, "lat": 38.898785333333336, "lon": -77.048902, "fusion_lat": 0.0}, {"is_reserved": 0, "bike_id": "eabf55a50aa3ba19076e02f65c0f2982", "type": "electric_scooter", "name": "eabf55a50aa3ba19076e02f65c0f2982", "is_disabled": 0, "fusion_lon": 0.0, "rental_uris": {"android": "https://dc.lft.to/lastmile_qr_scan", "ios": "https://dc.lft.to/lastmile_qr_scan"}, "lat": 38.918663, "lon": -77.03197466666667, "fusion_lat": 0.0}, {"is_reserved": 0, "bike_id": "db6fb783f137577db308f7af37802514", "type": "electric_scooter", "name": "db6fb783f137577db308f7af37802514", "is_disabled": 0, "fusion_lon": 0.0, "rental_uris": {"android": "https://dc.lft.to/lastmile_qr_scan", "ios": "https://dc.lft.to/lastmile_qr_scan"}, "lat": 38.89558666666667, "lon": -77.0151405, "fusion_lat": 0.0}, {"is_reserved": 0, "bike_id": "05a91d5867a194f2e28b1f7df5b51cb8", "type": "electric_scooter", "name": "05a91d5867a194f2e28b1f7df5b51cb8", "is_disabled": 0, "fusion_lon": 0.0, "rental_uris": {"android": "https://dc.lft.to/lastmile_qr_scan", "ios": "https://dc.lft.to/lastmile_qr_scan"}, "lat": 38.89893883333333, "lon": -77.008964, "fusion_lat": 0.0}, {"is_reserved": 0, "bike_id": "c3b81321bcc7fdd77e061657c8ce9e7c", "type": "electric_scooter", "name": "c3b81321bcc7fdd77e061657c8ce9e7c", "is_disabled": 0, "fusion_lon": 0.0, "rental_uris": {"android": "https://dc.lft.to/lastmile_qr_scan", "ios": "https://dc.lft.to/lastmile_qr_scan"}, "lat": 38.9527585, "lon": -77.0238625, "fusion_lat": 0.0}, {"is_reserved": 0, "bike_id": "9a62d89ce2777b4aec821936b7b1526d", "type": "electric_scooter", "name": "9a62d89ce2777b4aec821936b7b1526d", "is_disabled": 0, "fusion_lon": 0.0, "rental_uris": {"android": "https://dc.lft.to/lastmile_qr_scan", "ios": "https://dc.lft.to/lastmile_qr_scan"}, "lat": 38.924195, "lon": -77.02011716666667, "fusion_lat": 0.0}, {"is_reserved": 0, "bike_id": "4f0ac806e8a9706648bcb5ccdf660e96", "type": "electric_scooter", "name": "4f0ac806e8a9706648bcb5ccdf660e96", "is_disabled": 0, "fusion_lon": 0.0, "rental_uris": {"android": "https://dc.lft.to/lastmile_qr_scan", "ios": "https://dc.lft.to/lastmile_qr_scan"}, "lat": 38.847142, "lon": -76.96816516666667, "fusion_lat": 0.0}, {"is_reserved": 0, "bike_id": "b8583d100dd5fde865e20ff1c31ab727", "type": "electric_scooter", "name": "b8583d100dd5fde865e20ff1c31ab727", "is_disabled": 0, "fusion_lon": 0.0, "rental_uris": {"android": "https://dc.lft.to/lastmile_qr_scan", "ios": "https://dc.lft.to/lastmile_qr_scan"}, "lat": 38.9004735, "lon": -76.98827366666667, "fusion_lat": 0.0}, {"is_reserved": 0, "bike_id": "3b1483c16eac9790ff3c8e8f5c7a6ebe", "type": "electric_scooter", "name": "3b1483c16eac9790ff3c8e8f5c7a6ebe", "is_disabled": 0, "fusion_lon": 0.0, "rental_uris": {"android": "https://dc.lft.to/lastmile_qr_scan", "ios": "https://dc.lft.to/lastmile_qr_scan"}, "lat": 38.90978666666667, "lon": -77.04877633333334, "fusion_lat": 0.0}, {"is_reserved": 0, "bike_id": "eacf9b52694374bd76e41fe7cd27ac7e", "type": "electric_scooter", "name": "eacf9b52694374bd76e41fe7cd27ac7e", "is_disabled": 0, "fusion_lon": 0.0, "rental_uris": {"android": "https://dc.lft.to/lastmile_qr_scan", "ios": "https://dc.lft.to/lastmile_qr_scan"}, "lat": 38.9140825, "lon": -77.01803083333333, "fusion_lat": 0.0}, {"is_reserved": 0, "bike_id": "4b719a944a91536f81e917f11fd6dbce", "type": "electric_scooter", "name": "4b719a944a91536f81e917f11fd6dbce", "is_disabled": 0, "fusion_lon": 0.0, "rental_uris": {"android": "https://dc.lft.to/lastmile_qr_scan", "ios": "https://dc.lft.to/lastmile_qr_scan"}, "lat": 38.90136833333333, "lon": -77.0411955, "fusion_lat": 0.0}, {"is_reserved": 0, "bike_id": "f37b854a7deb856c793a1751d98ee2fa", "type": "electric_scooter", "name": "f37b854a7deb856c793a1751d98ee2fa", "is_disabled": 0, "fusion_lon": 0.0, "rental_uris": {"android": "https://dc.lft.to/lastmile_qr_scan", "ios": "https://dc.lft.to/lastmile_qr_scan"}, "lat": 38.890503333333335, "lon": -76.98981733333333, "fusion_lat": 0.0}, {"is_reserved": 0, "bike_id": "621d26a9d25e0162f69f575dd9467774", "type": "electric_scooter", "name": "621d26a9d25e0162f69f575dd9467774", "is_disabled": 0, "fusion_lon": 0.0, "rental_uris": {"android": "https://dc.lft.to/lastmile_qr_scan", "ios": "https://dc.lft.to/lastmile_qr_scan"}, "lat": 38.9056605, "lon": -77.00127633333334, "fusion_lat": 0.0}, {"is_reserved": 0, "bike_id": "6eee199369976ae68947e3a26699ff2e", "type": "electric_scooter", "name": "6eee199369976ae68947e3a26699ff2e", "is_disabled": 0, "fusion_lon": 0.0, "rental_uris": {"android": "https://dc.lft.to/lastmile_qr_scan", "ios": "https://dc.lft.to/lastmile_qr_scan"}, "lat": 38.87627366666667, "lon": -77.00394283333333, "fusion_lat": 0.0}, {"is_reserved": 0, "bike_id": "2687ea12d92bcbc055facd368913e08b", "type": "electric_scooter", "name": "2687ea12d92bcbc055facd368913e08b", "is_disabled": 0, "fusion_lon": 0.0, "rental_uris": {"android": "https://dc.lft.to/lastmile_qr_scan", "ios": "https://dc.lft.to/lastmile_qr_scan"}, "lat": 38.90982, "lon": -77.06471216666667, "fusion_lat": 0.0}, {"is_reserved": 0, "bike_id": "378eac4264799986c9e7b58fe7b31219", "type": "electric_scooter", "name": "378eac4264799986c9e7b58fe7b31219", "is_disabled": 0, "fusion_lon": 0.0, "rental_uris": {"android": "https://dc.lft.to/lastmile_qr_scan", "ios": "https://dc.lft.to/lastmile_qr_scan"}, "lat": 38.91819483333333, "lon": -77.012194, "fusion_lat": 0.0}, {"is_reserved": 0, "bike_id": "acb86f5916cd6044fa8c231737d70652", "type": "electric_scooter", "name": "acb86f5916cd6044fa8c231737d70652", "is_disabled": 0, "fusion_lon": 0.0, "rental_uris": {"android": "https://dc.lft.to/lastmile_qr_scan", "ios": "https://dc.lft.to/lastmile_qr_scan"}, "lat": 38.915877333333334, "lon": -76.983773, "fusion_lat": 0.0}, {"is_reserved": 0, "bike_id": "32d1982410df78b98cd9820870008a10", "type": "electric_scooter", "name": "32d1982410df78b98cd9820870008a10", "is_disabled": 0, "fusion_lon": 0.0, "rental_uris": {"android": "https://dc.lft.to/lastmile_qr_scan", "ios": "https://dc.lft.to/lastmile_qr_scan"}, "lat": 38.9098015, "lon": -77.00893766666667, "fusion_lat": 0.0}, {"is_reserved": 0, "bike_id": "9d2e1174f927b560fb35108bba1e6bd6", "type": "electric_scooter", "name": "9d2e1174f927b560fb35108bba1e6bd6", "is_disabled": 0, "fusion_lon": 0.0, "rental_uris": {"android": "https://dc.lft.to/lastmile_qr_scan", "ios": "https://dc.lft.to/lastmile_qr_scan"}, "lat": 38.878908833333334, "lon": -77.000603, "fusion_lat": 0.0}, {"is_reserved": 0, "bike_id": "50ea8d2c69148f9c0504de3948a29550", "type": "electric_bike", "name": "50ea8d2c69148f9c0504de3948a29550", "is_disabled": 0, "fusion_lon": 0.0, "rental_uris": {"android": "https://dc.lft.to/lastmile_qr_scan", "ios": "https://dc.lft.to/lastmile_qr_scan"}, "lat": 38.87578466666667, "lon": -77.234096, "fusion_lat": 0.0}, {"is_reserved": 0, "bike_id": "7e8e9c8f7aff42b65218f738d29d3361", "type": "electric_scooter", "name": "7e8e9c8f7aff42b65218f738d29d3361", "is_disabled": 0, "fusion_lon": 0.0, "rental_uris": {"android": "https://dc.lft.to/lastmile_qr_scan", "ios": "https://dc.lft.to/lastmile_qr_scan"}, "lat": 38.888568, "lon": -76.97907066666667, "fusion_lat": 0.0}, {"is_reserved": 0, "bike_id": "549b07263b3e2dc35731b87cb01ca79c", "type": "electric_scooter", "name": "549b07263b3e2dc35731b87cb01ca79c", "is_disabled": 0, "fusion_lon": 0.0, "rental_uris": {"android": "https://dc.lft.to/lastmile_qr_scan", "ios": "https://dc.lft.to/lastmile_qr_scan"}, "lat": 38.923049166666665, "lon": -77.036551, "fusion_lat": 0.0}, {"is_reserved": 0, "bike_id": "b7b206cfd662d376399dc0ffb22ba79d", "type": "electric_scooter", "name": "b7b206cfd662d376399dc0ffb22ba79d", "is_disabled": 0, "fusion_lon": 0.0, "rental_uris": {"android": "https://dc.lft.to/lastmile_qr_scan", "ios": "https://dc.lft.to/lastmile_qr_scan"}, "lat": 38.912743666666664, "lon": -76.98564216666666, "fusion_lat": 0.0}, {"is_reserved": 0, "bike_id": "6961d0fb618e1ba8888c7a824243f99c", "type": "electric_bike", "name": "6961d0fb618e1ba8888c7a824243f99c", "is_disabled": 0, "fusion_lon": 0.0, "rental_uris": {"android": "https://dc.lft.to/lastmile_qr_scan", "ios": "https://dc.lft.to/lastmile_qr_scan"}, "lat": 38.833011666666664, "lon": -77.08412783333333, "fusion_lat": 0.0}, {"is_reserved": 0, "bike_id": "c563570825c393a51d235989b3d45c72", "type": "electric_scooter", "name": "c563570825c393a51d235989b3d45c72", "is_disabled": 0, "fusion_lon": 0.0, "rental_uris": {"android": "https://dc.lft.to/lastmile_qr_scan", "ios": "https://dc.lft.to/lastmile_qr_scan"}, "lat": 38.932151833333336, "lon": -77.0228395, "fusion_lat": 0.0}, {"is_reserved": 0, "bike_id": "b4e4a7b5a5317efbb73410211dcd0ceb", "type": "electric_scooter", "name": "b4e4a7b5a5317efbb73410211dcd0ceb", "is_disabled": 0, "fusion_lon": 0.0, "rental_uris": {"android": "https://dc.lft.to/lastmile_qr_scan", "ios": "https://dc.lft.to/lastmile_qr_scan"}, "lat": 38.9001195, "lon": -77.033131, "fusion_lat": 0.0}, {"is_reserved": 0, "bike_id": "1c4fd27a8df3c89f4ee3fce749b006a7", "type": "electric_bike", "name": "1c4fd27a8df3c89f4ee3fce749b006a7", "is_disabled": 0, "fusion_lon": 0.0, "rental_uris": {"android": "https://dc.lft.to/lastmile_qr_scan", "ios": "https://dc.lft.to/lastmile_qr_scan"}, "lat": 38.95355766666667, "lon": -76.98097883333334, "fusion_lat": 0.0}, {"is_reserved": 0, "bike_id": "6dc104d85e1d9cc8ff78cc65f5710ce1", "type": "electric_scooter", "name": "6dc104d85e1d9cc8ff78cc65f5710ce1", "is_disabled": 0, "fusion_lon": 0.0, "rental_uris": {"android": "https://dc.lft.to/lastmile_qr_scan", "ios": "https://dc.lft.to/lastmile_qr_scan"}, "lat": 38.92845116666667, "lon": -77.03322, "fusion_lat": 0.0}, {"is_reserved": 0, "bike_id": "582201684ef1605987c3b9ca081e2ac0", "type": "electric_scooter", "name": "582201684ef1605987c3b9ca081e2ac0", "is_disabled": 0, "fusion_lon": 0.0, "rental_uris": {"android": "https://dc.lft.to/lastmile_qr_scan", "ios": "https://dc.lft.to/lastmile_qr_scan"}, "lat": 38.93890916666667, "lon": -77.0331925, "fusion_lat": 0.0}, {"is_reserved": 0, "bike_id": "fc2ae26fb24283acca37deda4b2863b7", "type": "electric_scooter", "name": "fc2ae26fb24283acca37deda4b2863b7", "is_disabled": 0, "fusion_lon": 0.0, "rental_uris": {"android": "https://dc.lft.to/lastmile_qr_scan", "ios": "https://dc.lft.to/lastmile_qr_scan"}, "lat": 38.936113, "lon": -77.05901166666666, "fusion_lat": 0.0}, {"is_reserved": 0, "bike_id": "381a48847d42208c920ddaa423fd002f", "type": "electric_scooter", "name": "381a48847d42208c920ddaa423fd002f", "is_disabled": 0, "fusion_lon": 0.0, "rental_uris": {"android": "https://dc.lft.to/lastmile_qr_scan", "ios": "https://dc.lft.to/lastmile_qr_scan"}, "lat": 38.922753666666665, "lon": -77.02123766666666, "fusion_lat": 0.0}, {"is_reserved": 0, "bike_id": "3ddc5c7595ba404d693d9a415c79fc63", "type": "electric_scooter", "name": "3ddc5c7595ba404d693d9a415c79fc63", "is_disabled": 0, "fusion_lon": 0.0, "rental_uris": {"android": "https://dc.lft.to/lastmile_qr_scan", "ios": "https://dc.lft.to/lastmile_qr_scan"}, "lat": 38.93559533333333, "lon": -77.05879333333333, "fusion_lat": 0.0}, {"is_reserved": 0, "bike_id": "395e4dcbb52931ef45608f1c0efdd994", "type": "electric_scooter", "name": "395e4dcbb52931ef45608f1c0efdd994", "is_disabled": 0, "fusion_lon": 0.0, "rental_uris": {"android": "https://dc.lft.to/lastmile_qr_scan", "ios": "https://dc.lft.to/lastmile_qr_scan"}, "lat": 38.899861333333334, "lon": -76.9774685, "fusion_lat": 0.0}, {"is_reserved": 0, "bike_id": "12a0423e0868b654298109b3a0710684", "type": "electric_bike", "name": "12a0423e0868b654298109b3a0710684", "is_disabled": 0, "fusion_lon": 0.0, "rental_uris": {"android": "https://dc.lft.to/lastmile_qr_scan", "ios": "https://dc.lft.to/lastmile_qr_scan"}, "lat": 38.92237383333333, "lon": -77.03076083333333, "fusion_lat": 0.0}, {"is_reserved": 0, "bike_id": "45f7649740340a5fa9562c718d8f7343", "type": "electric_scooter", "name": "45f7649740340a5fa9562c718d8f7343", "is_disabled": 0, "fusion_lon": 0.0, "rental_uris": {"android": "https://dc.lft.to/lastmile_qr_scan", "ios": "https://dc.lft.to/lastmile_qr_scan"}, "lat": 38.89833, "lon": -77.01295533333334, "fusion_lat": 0.0}, {"is_reserved": 0, "bike_id": "84e40c6519c6f60d0316288adf0e9289", "type": "electric_scooter", "name": "84e40c6519c6f60d0316288adf0e9289", "is_disabled": 0, "fusion_lon": 0.0, "rental_uris": {"android": "https://dc.lft.to/lastmile_qr_scan", "ios": "https://dc.lft.to/lastmile_qr_scan"}, "lat": 38.90791316666667, "lon": -77.03208633333334, "fusion_lat": 0.0}, {"is_reserved": 0, "bike_id": "d53efa1b3e63f974892ddb151125ec86", "type": "electric_scooter", "name": "d53efa1b3e63f974892ddb151125ec86", "is_disabled": 0, "fusion_lon": 0.0, "rental_uris": {"android": "https://dc.lft.to/lastmile_qr_scan", "ios": "https://dc.lft.to/lastmile_qr_scan"}, "lat": 38.908750833333336, "lon": -77.03469916666667, "fusion_lat": 0.0}, {"is_reserved": 0, "bike_id": "408e0aa27b1c8652b23b949215b690db", "type": "electric_scooter", "name": "408e0aa27b1c8652b23b949215b690db", "is_disabled": 0, "fusion_lon": 0.0, "rental_uris": {"android": "https://dc.lft.to/lastmile_qr_scan", "ios": "https://dc.lft.to/lastmile_qr_scan"}, "lat": 38.9177725, "lon": -77.02315716666666, "fusion_lat": 0.0}, {"is_reserved": 0, "bike_id": "757b6149aafc6113db8f1775cbcb3df1", "type": "electric_scooter", "name": "757b6149aafc6113db8f1775cbcb3df1", "is_disabled": 0, "fusion_lon": 0.0, "rental_uris": {"android": "https://dc.lft.to/lastmile_qr_scan", "ios": "https://dc.lft.to/lastmile_qr_scan"}, "lat": 38.89764, "lon": -77.0269195, "fusion_lat": 0.0}, {"is_reserved": 0, "bike_id": "d7f96c44a325d9db0e1aad28271ab1cb", "type": "electric_bike", "name": "d7f96c44a325d9db0e1aad28271ab1cb", "is_disabled": 0, "fusion_lon": 0.0, "rental_uris": {"android": "https://dc.lft.to/lastmile_qr_scan", "ios": "https://dc.lft.to/lastmile_qr_scan"}, "lat": 39.01092833333333, "lon": -76.91072083333333, "fusion_lat": 0.0}, {"is_reserved": 0, "bike_id": "9e3f4cf771b45d7566ca29ffe5068856", "type": "electric_scooter", "name": "9e3f4cf771b45d7566ca29ffe5068856", "is_disabled": 0, "fusion_lon": 0.0, "rental_uris": {"android": "https://dc.lft.to/lastmile_qr_scan", "ios": "https://dc.lft.to/lastmile_qr_scan"}, "lat": 38.9127125, "lon": -77.02215816666667, "fusion_lat": 0.0}, {"is_reserved": 0, "bike_id": "880657847dbacf5f5e3fae2fa2531291", "type": "electric_scooter", "name": "880657847dbacf5f5e3fae2fa2531291", "is_disabled": 0, "fusion_lon": 0.0, "rental_uris": {"android": "https://dc.lft.to/lastmile_qr_scan", "ios": "https://dc.lft.to/lastmile_qr_scan"}, "lat": 38.93321316666667, "lon": -77.029327, "fusion_lat": 0.0}, {"is_reserved": 0, "bike_id": "f23b492cfe775371e1a049013b31568b", "type": "electric_scooter", "name": "f23b492cfe775371e1a049013b31568b", "is_disabled": 0, "fusion_lon": 0.0, "rental_uris": {"android": "https://dc.lft.to/lastmile_qr_scan", "ios": "https://dc.lft.to/lastmile_qr_scan"}, "lat": 38.876382166666666, "lon": -77.00383166666667, "fusion_lat": 0.0}, {"is_reserved": 0, "bike_id": "72bd2113264ea547718f483af7d68ad4", "type": "electric_scooter", "name": "72bd2113264ea547718f483af7d68ad4", "is_disabled": 0, "fusion_lon": 0.0, "rental_uris": {"android": "https://dc.lft.to/lastmile_qr_scan", "ios": "https://dc.lft.to/lastmile_qr_scan"}, "lat": 38.8922665, "lon": -77.013724, "fusion_lat": 0.0}, {"is_reserved": 0, "bike_id": "afceb340a50e7d6071a7033a0d83a09b", "type": "electric_bike", "name": "afceb340a50e7d6071a7033a0d83a09b", "is_disabled": 0, "fusion_lon": 0.0, "rental_uris": {"android": "https://dc.lft.to/lastmile_qr_scan", "ios": "https://dc.lft.to/lastmile_qr_scan"}, "lat": 38.995325333333334, "lon": -77.0287745, "fusion_lat": 0.0}, {"is_reserved": 0, "bike_id": "4c1744368a5ad9c4ff530dab5d5b1a63", "type": "electric_scooter", "name": "4c1744368a5ad9c4ff530dab5d5b1a63", "is_disabled": 0, "fusion_lon": 0.0, "rental_uris": {"android": "https://dc.lft.to/lastmile_qr_scan", "ios": "https://dc.lft.to/lastmile_qr_scan"}, "lat": 38.906093, "lon": -77.00870083333334, "fusion_lat": 0.0}, {"is_reserved": 0, "bike_id": "940bf1a7ea8eac1607d129143702afcf", "type": "electric_scooter", "name": "940bf1a7ea8eac1607d129143702afcf", "is_disabled": 0, "fusion_lon": 0.0, "rental_uris": {"android": "https://dc.lft.to/lastmile_qr_scan", "ios": "https://dc.lft.to/lastmile_qr_scan"}, "lat": 38.939578833333336, "lon": -77.072428, "fusion_lat": 0.0}, {"is_reserved": 0, "bike_id": "16d7932eff4851c7bf9ef730d93b7bbb", "type": "electric_bike", "name": "16d7932eff4851c7bf9ef730d93b7bbb", "is_disabled": 0, "fusion_lon": 0.0, "rental_uris": {"android": "https://dc.lft.to/lastmile_qr_scan", "ios": "https://dc.lft.to/lastmile_qr_scan"}, "lat": 38.95879866666667, "lon": -77.01032266666667, "fusion_lat": 0.0}, {"is_reserved": 0, "bike_id": "54ae35d09ee916d6eb13388515fd545e", "type": "electric_scooter", "name": "54ae35d09ee916d6eb13388515fd545e", "is_disabled": 0, "fusion_lon": 0.0, "rental_uris": {"android": "https://dc.lft.to/lastmile_qr_scan", "ios": "https://dc.lft.to/lastmile_qr_scan"}, "lat": 38.924872, "lon": -77.021727, "fusion_lat": 0.0}, {"is_reserved": 0, "bike_id": "dd00e7e3cac60313ce54f5d737deebb3", "type": "electric_scooter", "name": "dd00e7e3cac60313ce54f5d737deebb3", "is_disabled": 0, "fusion_lon": 0.0, "rental_uris": {"android": "https://dc.lft.to/lastmile_qr_scan", "ios": "https://dc.lft.to/lastmile_qr_scan"}, "lat": 38.91916633333334, "lon": -77.03179516666667, "fusion_lat": 0.0}, {"is_reserved": 0, "bike_id": "2a1d6bfb611b65fd889bc832d5d28f2f", "type": "electric_bike", "name": "2a1d6bfb611b65fd889bc832d5d28f2f", "is_disabled": 0, "fusion_lon": 0.0, "rental_uris": {"android": "https://dc.lft.to/lastmile_qr_scan", "ios": "https://dc.lft.to/lastmile_qr_scan"}, "lat": 38.920638333333336, "lon": -77.0306635, "fusion_lat": 0.0}, {"is_reserved": 0, "bike_id": "69313ccf5d8d718ad501e8871ba45a9b", "type": "electric_bike", "name": "69313ccf5d8d718ad501e8871ba45a9b", "is_disabled": 0, "fusion_lon": 0.0, "rental_uris": {"android": "https://dc.lft.to/lastmile_qr_scan", "ios": "https://dc.lft.to/lastmile_qr_scan"}, "lat": 38.83588366666667, "lon": -76.99019816666667, "fusion_lat": 0.0}, {"is_reserved": 0, "bike_id": "168a00dae751a12b29ea5c61c7812179", "type": "electric_scooter", "name": "168a00dae751a12b29ea5c61c7812179", "is_disabled": 0, "fusion_lon": 0.0, "rental_uris": {"android": "https://dc.lft.to/lastmile_qr_scan", "ios": "https://dc.lft.to/lastmile_qr_scan"}, "lat": 38.90543733333333, "lon": -77.006932, "fusion_lat": 0.0}, {"is_reserved": 0, "bike_id": "8fb64439188567abd093418c5dcee1a0", "type": "electric_scooter", "name": "8fb64439188567abd093418c5dcee1a0", "is_disabled": 0, "fusion_lon": 0.0, "rental_uris": {"android": "https://dc.lft.to/lastmile_qr_scan", "ios": "https://dc.lft.to/lastmile_qr_scan"}, "lat": 38.90166333333333, "lon": -77.02305516666667, "fusion_lat": 0.0}, {"is_reserved": 0, "bike_id": "9d88dcbcf27c65ecfe31cea4443b75aa", "type": "electric_scooter", "name": "9d88dcbcf27c65ecfe31cea4443b75aa", "is_disabled": 0, "fusion_lon": 0.0, "rental_uris": {"android": "https://dc.lft.to/lastmile_qr_scan", "ios": "https://dc.lft.to/lastmile_qr_scan"}, "lat": 38.926983, "lon": -77.02576466666666, "fusion_lat": 0.0}, {"is_reserved": 0, "bike_id": "9f99909b4a96956413ba4e144dc9f967", "type": "electric_scooter", "name": "9f99909b4a96956413ba4e144dc9f967", "is_disabled": 0, "fusion_lon": 0.0, "rental_uris": {"android": "https://dc.lft.to/lastmile_qr_scan", "ios": "https://dc.lft.to/lastmile_qr_scan"}, "lat": 38.92325916666667, "lon": -77.01963816666667, "fusion_lat": 0.0}, {"is_reserved": 0, "bike_id": "7d5803a4f2366a088514ab70e29bd063", "type": "electric_bike", "name": "7d5803a4f2366a088514ab70e29bd063", "is_disabled": 0, "fusion_lon": 0.0, "rental_uris": {"android": "https://dc.lft.to/lastmile_qr_scan", "ios": "https://dc.lft.to/lastmile_qr_scan"}, "lat": 38.9501395, "lon": -77.01559833333333, "fusion_lat": 0.0}, {"is_reserved": 0, "bike_id": "f6459b8ec9216d759b30987ae35e0740", "type": "electric_scooter", "name": "f6459b8ec9216d759b30987ae35e0740", "is_disabled": 0, "fusion_lon": 0.0, "rental_uris": {"android": "https://dc.lft.to/lastmile_qr_scan", "ios": "https://dc.lft.to/lastmile_qr_scan"}, "lat": 38.91414366666667, "lon": -77.0223275, "fusion_lat": 0.0}, {"is_reserved": 0, "bike_id": "c173bd3a4ddcbb53e9e3092e570ef89f", "type": "electric_scooter", "name": "c173bd3a4ddcbb53e9e3092e570ef89f", "is_disabled": 0, "fusion_lon": 0.0, "rental_uris": {"android": "https://dc.lft.to/lastmile_qr_scan", "ios": "https://dc.lft.to/lastmile_qr_scan"}, "lat": 38.914036333333335, "lon": -77.01807866666667, "fusion_lat": 0.0}, {"is_reserved": 0, "bike_id": "6bb0331642bcf2359f25de85c4242db5", "type": "electric_scooter", "name": "6bb0331642bcf2359f25de85c4242db5", "is_disabled": 0, "fusion_lon": 0.0, "rental_uris": {"android": "https://dc.lft.to/lastmile_qr_scan", "ios": "https://dc.lft.to/lastmile_qr_scan"}, "lat": 38.88736333333333, "lon": -77.01506866666666, "fusion_lat": 0.0}, {"is_reserved": 0, "bike_id": "72e12f8ffc5502d2c98643e2b808c8d7", "type": "electric_scooter", "name": "72e12f8ffc5502d2c98643e2b808c8d7", "is_disabled": 0, "fusion_lon": 0.0, "rental_uris": {"android": "https://dc.lft.to/lastmile_qr_scan", "ios": "https://dc.lft.to/lastmile_qr_scan"}, "lat": 38.91548616666667, "lon": -77.02204366666666, "fusion_lat": 0.0}, {"is_reserved": 0, "bike_id": "60c8caf991bcff52bb27e38f8b1efbf2", "type": "electric_scooter", "name": "60c8caf991bcff52bb27e38f8b1efbf2", "is_disabled": 0, "fusion_lon": 0.0, "rental_uris": {"android": "https://dc.lft.to/lastmile_qr_scan", "ios": "https://dc.lft.to/lastmile_qr_scan"}, "lat": 38.9560865, "lon": -77.02759066666667, "fusion_lat": 0.0}, {"is_reserved": 0, "bike_id": "0cf438584418fcdd73829109c2b57860", "type": "electric_scooter", "name": "0cf438584418fcdd73829109c2b57860", "is_disabled": 0, "fusion_lon": 0.0, "rental_uris": {"android": "https://dc.lft.to/lastmile_qr_scan", "ios": "https://dc.lft.to/lastmile_qr_scan"}, "lat": 38.92417116666667, "lon": -77.0354155, "fusion_lat": 0.0}, {"is_reserved": 0, "bike_id": "0c42c1195d64c98db4a72d435c79e842", "type": "electric_scooter", "name": "0c42c1195d64c98db4a72d435c79e842", "is_disabled": 0, "fusion_lon": 0.0, "rental_uris": {"android": "https://dc.lft.to/lastmile_qr_scan", "ios": "https://dc.lft.to/lastmile_qr_scan"}, "lat": 38.880836, "lon": -76.9950485, "fusion_lat": 0.0}, {"is_reserved": 0, "bike_id": "059a72c35cea25aec1521e666a0e93be", "type": "electric_scooter", "name": "059a72c35cea25aec1521e666a0e93be", "is_disabled": 0, "fusion_lon": 0.0, "rental_uris": {"android": "https://dc.lft.to/lastmile_qr_scan", "ios": "https://dc.lft.to/lastmile_qr_scan"}, "lat": 38.9126335, "lon": -77.03862166666667, "fusion_lat": 0.0}, {"is_reserved": 0, "bike_id": "5196ad8ac32e270672b63d9f7112c8bc", "type": "electric_scooter", "name": "5196ad8ac32e270672b63d9f7112c8bc", "is_disabled": 0, "fusion_lon": 0.0, "rental_uris": {"android": "https://dc.lft.to/lastmile_qr_scan", "ios": "https://dc.lft.to/lastmile_qr_scan"}, "lat": 38.886019166666664, "lon": -76.92501566666667, "fusion_lat": 0.0}, {"is_reserved": 0, "bike_id": "273c9c969e438218e15734a19e1ac9ed", "type": "electric_scooter", "name": "273c9c969e438218e15734a19e1ac9ed", "is_disabled": 0, "fusion_lon": 0.0, "rental_uris": {"android": "https://dc.lft.to/lastmile_qr_scan", "ios": "https://dc.lft.to/lastmile_qr_scan"}, "lat": 38.872884666666664, "lon": -77.0169615, "fusion_lat": 0.0}, {"is_reserved": 0, "bike_id": "d90e9069b68140d2a382d518a0b5f9c2", "type": "electric_scooter", "name": "d90e9069b68140d2a382d518a0b5f9c2", "is_disabled": 0, "fusion_lon": 0.0, "rental_uris": {"android": "https://dc.lft.to/lastmile_qr_scan", "ios": "https://dc.lft.to/lastmile_qr_scan"}, "lat": 38.876821, "lon": -77.000576, "fusion_lat": 0.0}, {"is_reserved": 0, "bike_id": "f771c9ffb127732279b23163c50ff8b1", "type": "electric_scooter", "name": "f771c9ffb127732279b23163c50ff8b1", "is_disabled": 0, "fusion_lon": 0.0, "rental_uris": {"android": "https://dc.lft.to/lastmile_qr_scan", "ios": "https://dc.lft.to/lastmile_qr_scan"}, "lat": 38.915988666666664, "lon": -77.03665716666667, "fusion_lat": 0.0}, {"is_reserved": 0, "bike_id": "7ed83c474b6a7283cc48769183a5ee2c", "type": "electric_scooter", "name": "7ed83c474b6a7283cc48769183a5ee2c", "is_disabled": 0, "fusion_lon": 0.0, "rental_uris": {"android": "https://dc.lft.to/lastmile_qr_scan", "ios": "https://dc.lft.to/lastmile_qr_scan"}, "lat": 38.920773, "lon": -77.03653166666666, "fusion_lat": 0.0}, {"is_reserved": 0, "bike_id": "26a23c6c6a1652bdc067af8b150b2987", "type": "electric_scooter", "name": "26a23c6c6a1652bdc067af8b150b2987", "is_disabled": 0, "fusion_lon": 0.0, "rental_uris": {"android": "https://dc.lft.to/lastmile_qr_scan", "ios": "https://dc.lft.to/lastmile_qr_scan"}, "lat": 38.90782683333333, "lon": -77.010837, "fusion_lat": 0.0}, {"is_reserved": 0, "bike_id": "f92156901e80eeba10b357190ca0e066", "type": "electric_scooter", "name": "f92156901e80eeba10b357190ca0e066", "is_disabled": 0, "fusion_lon": 0.0, "rental_uris": {"android": "https://dc.lft.to/lastmile_qr_scan", "ios": "https://dc.lft.to/lastmile_qr_scan"}, "lat": 38.90159666666667, "lon": -77.00897, "fusion_lat": 0.0}, {"is_reserved": 0, "bike_id": "6b0012956b42bdf485fbd9704622d22d", "type": "electric_scooter", "name": "6b0012956b42bdf485fbd9704622d22d", "is_disabled": 0, "fusion_lon": 0.0, "rental_uris": {"android": "https://dc.lft.to/lastmile_qr_scan", "ios": "https://dc.lft.to/lastmile_qr_scan"}, "lat": 38.892368833333336, "lon": -77.04361233333333, "fusion_lat": 0.0}, {"is_reserved": 0, "bike_id": "989b066511fb71fb4079d092bee9e34c", "type": "electric_scooter", "name": "989b066511fb71fb4079d092bee9e34c", "is_disabled": 0, "fusion_lon": 0.0, "rental_uris": {"android": "https://dc.lft.to/lastmile_qr_scan", "ios": "https://dc.lft.to/lastmile_qr_scan"}, "lat": 38.90581366666667, "lon": -77.00593083333334, "fusion_lat": 0.0}, {"is_reserved": 0, "bike_id": "a7016c99edc1a121c76178fd5a998247", "type": "electric_scooter", "name": "a7016c99edc1a121c76178fd5a998247", "is_disabled": 0, "fusion_lon": 0.0, "rental_uris": {"android": "https://dc.lft.to/lastmile_qr_scan", "ios": "https://dc.lft.to/lastmile_qr_scan"}, "lat": 38.922099, "lon": -77.02027233333334, "fusion_lat": 0.0}, {"is_reserved": 0, "bike_id": "98cda52daaf0eecb9950687ed3022e0f", "type": "electric_scooter", "name": "98cda52daaf0eecb9950687ed3022e0f", "is_disabled": 0, "fusion_lon": 0.0, "rental_uris": {"android": "https://dc.lft.to/lastmile_qr_scan", "ios": "https://dc.lft.to/lastmile_qr_scan"}, "lat": 38.935952666666665, "lon": -77.03519, "fusion_lat": 0.0}, {"is_reserved": 0, "bike_id": "62f299abc33d9364bbd3ff7d501b1b78", "type": "electric_scooter", "name": "62f299abc33d9364bbd3ff7d501b1b78", "is_disabled": 0, "fusion_lon": 0.0, "rental_uris": {"android": "https://dc.lft.to/lastmile_qr_scan", "ios": "https://dc.lft.to/lastmile_qr_scan"}, "lat": 38.918594, "lon": -77.0318815, "fusion_lat": 0.0}, {"is_reserved": 0, "bike_id": "2df158122b0b48199f8dd3e28420b36e", "type": "electric_bike", "name": "2df158122b0b48199f8dd3e28420b36e", "is_disabled": 0, "fusion_lon": 0.0, "rental_uris": {"android": "https://dc.lft.to/lastmile_qr_scan", "ios": "https://dc.lft.to/lastmile_qr_scan"}, "lat": 38.9035725, "lon": -76.98112383333333, "fusion_lat": 0.0}, {"is_reserved": 0, "bike_id": "1b1b574374057f01f018489fb4181c1f", "type": "electric_scooter", "name": "1b1b574374057f01f018489fb4181c1f", "is_disabled": 0, "fusion_lon": 0.0, "rental_uris": {"android": "https://dc.lft.to/lastmile_qr_scan", "ios": "https://dc.lft.to/lastmile_qr_scan"}, "lat": 38.94417583333333, "lon": -77.0177935, "fusion_lat": 0.0}, {"is_reserved": 0, "bike_id": "902364acb72022c4b323b935bc33013f", "type": "electric_bike", "name": "902364acb72022c4b323b935bc33013f", "is_disabled": 0, "fusion_lon": 0.0, "rental_uris": {"android": "https://dc.lft.to/lastmile_qr_scan", "ios": "https://dc.lft.to/lastmile_qr_scan"}, "lat": 38.953233166666664, "lon": -77.02735583333333, "fusion_lat": 0.0}, {"is_reserved": 0, "bike_id": "a2c438896ab8ced6d21e62892f0941ad", "type": "electric_scooter", "name": "a2c438896ab8ced6d21e62892f0941ad", "is_disabled": 0, "fusion_lon": 0.0, "rental_uris": {"android": "https://dc.lft.to/lastmile_qr_scan", "ios": "https://dc.lft.to/lastmile_qr_scan"},