{"data": {"bikes": [{"name": "c590c13cda3d571a2f305766f6e578c5", "fusion_lat": 0.0, "fusion_lon": 0.0, "bike_id": "c590c13cda3d571a2f305766f6e578c5", "rental_uris": {"ios": "https://dc.lft.to/lastmile_qr_scan", "android": "https://dc.lft.to/lastmile_qr_scan"}, "type": "electric_scooter", "lat": 38.95001416666667, "is_disabled": 0, "lon": -77.019335, "is_reserved": 0}, {"name": "291f35dedc67958f2248cb2ba3882f65", "fusion_lat": 0.0, "fusion_lon": 0.0, "bike_id": "291f35dedc67958f2248cb2ba3882f65", "rental_uris": {"ios": "https://dc.lft.to/lastmile_qr_scan", "android": "https://dc.lft.to/lastmile_qr_scan"}, "type": "electric_bike", "lat": 39.05461316666667, "is_disabled": 0, "lon": -77.14328933333333, "is_reserved": 0}, {"name": "ad101bd754bb715bc41ba62440370b60", "fusion_lat": 0.0, "fusion_lon": 0.0, "bike_id": "ad101bd754bb715bc41ba62440370b60", "rental_uris": {"ios": "https://dc.lft.to/lastmile_qr_scan", "android": "https://dc.lft.to/lastmile_qr_scan"}, "type": "electric_bike", "lat": 38.9460135, "is_disabled": 0, "lon": -77.3440845, "is_reserved": 0}, {"name": "e62fbd04fd0f61058a5c12ab0200b4f2", "fusion_lat": 0.0, "fusion_lon": 0.0, "bike_id": "e62fbd04fd0f61058a5c12ab0200b4f2", "rental_uris": {"ios": "https://dc.lft.to/lastmile_qr_scan", "android": "https://dc.lft.to/lastmile_qr_scan"}, "type": "electric_scooter", "lat": 38.86807666666667, "is_disabled": 0, "lon": -77.01173016666667, "is_reserved": 0}, {"name": "56124813cb54b47f9c575ef798b487bd", "fusion_lat": 0.0, "fusion_lon": 0.0, "bike_id": "56124813cb54b47f9c575ef798b487bd", "rental_uris": {"ios": "https://dc.lft.to/lastmile_qr_scan", "android": "https://dc.lft.to/lastmile_qr_scan"}, "type": "electric_scooter", "lat": 38.893936333333336, "is_disabled": 0, "lon": -76.94998516666666, "is_reserved": 0}, {"name": "30b50c2e3710d59584ccaff51bbc8dfd", "fusion_lat": 0.0, "fusion_lon": 0.0, "bike_id": "30b50c2e3710d59584ccaff51bbc8dfd", "rental_uris": {"ios": "https://dc.lft.to/lastmile_qr_scan", "android": "https://dc.lft.to/lastmile_qr_scan"}, "type": "electric_scooter", "lat": 38.930124666666664, "is_disabled": 0, "lon": -77.0619175, "is_reserved": 0}, {"name": "507af273960e5657e6f3cc0e03d4dc4a", "fusion_lat": 0.0, "fusion_lon": 0.0, "bike_id": "507af273960e5657e6f3cc0e03d4dc4a", "rental_uris": {"ios": "https://dc.lft.to/lastmile_qr_scan", "android": "https://dc.lft.to/lastmile_qr_scan"}, "type": "electric_scooter", "lat": 38.91701233333333, "is_disabled": 0, "lon": -77.0347375, "is_reserved": 0}, {"name": "4022992060305002e2af94e79d62f095", "fusion_lat": 0.0, "fusion_lon": 0.0, "bike_id": "4022992060305002e2af94e79d62f095", "rental_uris": {"ios": "https://dc.lft.to/lastmile_qr_scan", "android": "https://dc.lft.to/lastmile_qr_scan"}, "type": "electric_scooter", "lat": 38.927435833333334, "is_disabled": 0, "lon": -77.0330165, "is_reserved": 0}, {"name": "b31b30f94ab501847d8d9299f5e17dc4", "fusion_lat": 0.0, "fusion_lon": 0.0, "bike_id": "b31b30f94ab501847d8d9299f5e17dc4", "rental_uris": {"ios": "https://dc.lft.to/lastmile_qr_scan", "android": "https://dc.lft.to/lastmile_qr_scan"}, "type": "electric_scooter", "lat": 38.86674266666667, "is_disabled": 0, "lon": -76.98885433333334, "is_reserved": 0}, {"name": "05d52ef82ba6559ab57ecf2f891b9297", "fusion_lat": 0.0, "fusion_lon": 0.0, "bike_id": "05d52ef82ba6559ab57ecf2f891b9297", "rental_uris": {"ios": "https://dc.lft.to/lastmile_qr_scan", "android": "https://dc.lft.to/lastmile_qr_scan"}, "type": "electric_scooter", "lat": 38.94308933333333, "is_disabled": 0, "lon": -77.02743816666667, "is_reserved": 0}, {"name": "294d0bfbd39f51dd1c5b82a1996a1c71", "fusion_lat": 0.0, "fusion_lon": 0.0, "bike_id": "294d0bfbd39f51dd1c5b82a1996a1c71", "rental_uris": {"ios": "https://dc.lft.to/lastmile_qr_scan", "android": "https://dc.lft.to/lastmile_qr_scan"}, "type": "electric_bike", "lat": 38.98564016666667, "is_disabled": 0, "lon": -76.98827066666666, "is_reserved": 0}, {"name": "67ea5ec4f5cdf48fbb64a950b71c030d", "fusion_lat": 0.0, "fusion_lon": 0.0, "bike_id": "67ea5ec4f5cdf48fbb64a950b71c030d", "rental_uris": {"ios": "https://dc.lft.to/lastmile_qr_scan", "android": "https://dc.lft.to/lastmile_qr_scan"}, "type": "electric_scooter", "lat": 38.900839166666664, "is_disabled": 0, "lon": -77.01295583333334, "is_reserved": 0}, {"name": "8ee524400f1d576c23f154412365f836", "fusion_lat": 0.0, "fusion_lon": 0.0, "bike_id": "8ee524400f1d576c23f154412365f836", "rental_uris": {"ios": "https://dc.lft.to/lastmile_qr_scan", "android": "https://dc.lft.to/lastmile_qr_scan"}, "type": "electric_scooter", "lat": 38.91687566666667, "is_disabled": 0, "lon": -76.98056733333334, "is_reserved": 0}, {"name": "3b63c1747712b5a404aeea723150c582", "fusion_lat": 0.0, "fusion_lon": 0.0, "bike_id": "3b63c1747712b5a404aeea723150c582", "rental_uris": {"ios": "https://dc.lft.to/lastmile_qr_scan", "android": "https://dc.lft.to/lastmile_qr_scan"}, "type": "electric_scooter", "lat": 38.8429375, "is_disabled": 0, "lon": -76.99947166666666, "is_reserved": 0}, {"name": "9cccaf4458a779857d048fb6b5dce1d0", "fusion_lat": 0.0, "fusion_lon": 0.0, "bike_id": "9cccaf4458a779857d048fb6b5dce1d0", "rental_uris": {"ios": "https://dc.lft.to/lastmile_qr_scan", "android": "https://dc.lft.to/lastmile_qr_scan"}, "type": "electric_bike", "lat": 39.0300095, "is_disabled": 0, "lon": -77.10652333333333, "is_reserved": 0}, {"name": "c4b48c269ff3d9d1385daf1eb8f9ef84", "fusion_lat": 0.0, "fusion_lon": 0.0, "bike_id": "c4b48c269ff3d9d1385daf1eb8f9ef84", "rental_uris": {"ios": "https://dc.lft.to/lastmile_qr_scan", "android": "https://dc.lft.to/lastmile_qr_scan"}, "type": "electric_scooter", "lat": 38.93297316666666, "is_disabled": 0, "lon": -77.02840916666666, "is_reserved": 0}, {"name": "5c8d65607af807b7971cacf296043e8d", "fusion_lat": 0.0, "fusion_lon": 0.0, "bike_id": "5c8d65607af807b7971cacf296043e8d", "rental_uris": {"ios": "https://dc.lft.to/lastmile_qr_scan", "android": "https://dc.lft.to/lastmile_qr_scan"}, "type": "electric_scooter", "lat": 38.92319783333333, "is_disabled": 0, "lon": -77.04620666666666, "is_reserved": 0}, {"name": "67fdd522f149172f08e5d4e5f6ea9116", "fusion_lat": 0.0, "fusion_lon": 0.0, "bike_id": "67fdd522f149172f08e5d4e5f6ea9116", "rental_uris": {"ios": "https://dc.lft.to/lastmile_qr_scan", "android": "https://dc.lft.to/lastmile_qr_scan"}, "type": "electric_scooter", "lat": 38.92237983333333, "is_disabled": 0, "lon": -77.03350916666666, "is_reserved": 0}, {"name": "4ef55605f8aafe0a863f32c136e4f291", "fusion_lat": 0.0, "fusion_lon": 0.0, "bike_id": "4ef55605f8aafe0a863f32c136e4f291", "rental_uris": {"ios": "https://dc.lft.to/lastmile_qr_scan", "android": "https://dc.lft.to/lastmile_qr_scan"}, "type": "electric_scooter", "lat": 38.89723216666667, "is_disabled": 0, "lon": -77.04696916666667, "is_reserved": 0}, {"name": "7c67a2584a238e58cdaa09a28cd7f882", "fusion_lat": 0.0, "fusion_lon": 0.0, "bike_id": "7c67a2584a238e58cdaa09a28cd7f882", "rental_uris": {"ios": "https://dc.lft.to/lastmile_qr_scan", "android": "https://dc.lft.to/lastmile_qr_scan"}, "type": "electric_scooter", "lat": 38.90529033333333, "is_disabled": 0, "lon": -77.05081366666667, "is_reserved": 0}, {"name": "fdaea7d3359c97b18d72b51d788e3c90", "fusion_lat": 0.0, "fusion_lon": 0.0, "bike_id": "fdaea7d3359c97b18d72b51d788e3c90", "rental_uris": {"ios": "https://dc.lft.to/lastmile_qr_scan", "android": "https://dc.lft.to/lastmile_qr_scan"}, "type": "electric_scooter", "lat": 38.93143283333333, "is_disabled": 0, "lon": -77.034545, "is_reserved": 0}, {"name": "6768bb62b73f15027f1724fca9567a19", "fusion_lat": 0.0, "fusion_lon": 0.0, "bike_id": "6768bb62b73f15027f1724fca9567a19", "rental_uris": {"ios": "https://dc.lft.to/lastmile_qr_scan", "android": "https://dc.lft.to/lastmile_qr_scan"}, "type": "electric_bike", "lat": 38.89331883333333, "is_disabled": 0, "lon": -77.12405116666666, "is_reserved": 0}, {"name": "f5055b990646092213660a6f34e8861b", "fusion_lat": 0.0, "fusion_lon": 0.0, "bike_id": "f5055b990646092213660a6f34e8861b", "rental_uris": {"ios": "https://dc.lft.to/lastmile_qr_scan", "android": "https://dc.lft.to/lastmile_qr_scan"}, "type": "electric_scooter", "lat": 38.899884, "is_disabled": 0, "lon": -77.0203395, "is_reserved": 0}, {"name": "0527ababff8744383a6e1646aca06f7f", "fusion_lat": 0.0, "fusion_lon": 0.0, "bike_id": "0527ababff8744383a6e1646aca06f7f", "rental_uris": {"ios": "https://dc.lft.to/lastmile_qr_scan", "android": "https://dc.lft.to/lastmile_qr_scan"}, "type": "electric_scooter", "lat": 38.919797, "is_disabled": 0, "lon": -77.0240735, "is_reserved": 0}, {"name": "72f9bcfc5c65d006315cedfc5b1a356e", "fusion_lat": 0.0, "fusion_lon": 0.0, "bike_id": "72f9bcfc5c65d006315cedfc5b1a356e", "rental_uris": {"ios": "https://dc.lft.to/lastmile_qr_scan", "android": "https://dc.lft.to/lastmile_qr_scan"}, "type": "electric_scooter", "lat": 38.915477, "is_disabled": 0, "lon": -77.02228533333333, "is_reserved": 0}, {"name": "63b36365b7d5f96adcc963a4e2f751aa", "fusion_lat": 0.0, "fusion_lon": 0.0, "bike_id": "63b36365b7d5f96adcc963a4e2f751aa", "rental_uris": {"ios": "https://dc.lft.to/lastmile_qr_scan", "android": "https://dc.lft.to/lastmile_qr_scan"}, "type": "electric_scooter", "lat": 38.90394966666667, "is_disabled": 0, "lon": -77.02796416666666, "is_reserved": 0}, {"name": "e3cf2c9c2cdfa8b7c8a11b390d3a1fc4", "fusion_lat": 0.0, "fusion_lon": 0.0, "bike_id": "e3cf2c9c2cdfa8b7c8a11b390d3a1fc4", "rental_uris": {"ios": "https://dc.lft.to/lastmile_qr_scan", "android": "https://dc.lft.to/lastmile_qr_scan"}, "type": "electric_scooter", "lat": 38.874787833333336, "is_disabled": 0, "lon": -77.01232216666666, "is_reserved": 0}, {"name": "404855e9dd1d188b6897f94ef13f2a02", "fusion_lat": 0.0, "fusion_lon": 0.0, "bike_id": "404855e9dd1d188b6897f94ef13f2a02", "rental_uris": {"ios": "https://dc.lft.to/lastmile_qr_scan", "android": "https://dc.lft.to/lastmile_qr_scan"}, "type": "electric_scooter", "lat": 38.953137, "is_disabled": 0, "lon": -77.0360085, "is_reserved": 0}, {"name": "46e8ea0b129616898eed83ba76cb325c", "fusion_lat": 0.0, "fusion_lon": 0.0, "bike_id": "46e8ea0b129616898eed83ba76cb325c", "rental_uris": {"ios": "https://dc.lft.to/lastmile_qr_scan", "android": "https://dc.lft.to/lastmile_qr_scan"}, "type": "electric_scooter", "lat": 38.9196245, "is_disabled": 0, "lon": -77.02713183333333, "is_reserved": 0}, {"name": "1c4c4e47e5ad4ea9c75769e8df5a0857", "fusion_lat": 0.0, "fusion_lon": 0.0, "bike_id": "1c4c4e47e5ad4ea9c75769e8df5a0857", "rental_uris": {"ios": "https://dc.lft.to/lastmile_qr_scan", "android": "https://dc.lft.to/lastmile_qr_scan"}, "type": "electric_scooter", "lat": 38.8625615, "is_disabled": 0, "lon": -76.99537166666667, "is_reserved": 0}, {"name": "4495e44d57c550dec4566d1dc8739176", "fusion_lat": 0.0, "fusion_lon": 0.0, "bike_id": "4495e44d57c550dec4566d1dc8739176", "rental_uris": {"ios": "https://dc.lft.to/lastmile_qr_scan", "android": "https://dc.lft.to/lastmile_qr_scan"}, "type": "electric_scooter", "lat": 38.925614833333334, "is_disabled": 0, "lon": -77.0377775, "is_reserved": 0}, {"name": "6eb83d7ba314e204d4fe1433791a0942", "fusion_lat": 0.0, "fusion_lon": 0.0, "bike_id": "6eb83d7ba314e204d4fe1433791a0942", "rental_uris": {"ios": "https://dc.lft.to/lastmile_qr_scan", "android": "https://dc.lft.to/lastmile_qr_scan"}, "type": "electric_scooter", "lat": 38.90882833333333, "is_disabled": 0, "lon": -77.0433625, "is_reserved": 0}, {"name": "d0b5585d33995ae7799a129f9cdc192a", "fusion_lat": 0.0, "fusion_lon": 0.0, "bike_id": "d0b5585d33995ae7799a129f9cdc192a", "rental_uris": {"ios": "https://dc.lft.to/lastmile_qr_scan", "android": "https://dc.lft.to/lastmile_qr_scan"}, "type": "electric_scooter", "lat": 38.9326575, "is_disabled": 0, "lon": -77.029798, "is_reserved": 0}, {"name": "6c18843d93fc49b04a940f3237e7611d", "fusion_lat": 0.0, "fusion_lon": 0.0, "bike_id": "6c18843d93fc49b04a940f3237e7611d", "rental_uris": {"ios": "https://dc.lft.to/lastmile_qr_scan", "android": "https://dc.lft.to/lastmile_qr_scan"}, "type": "electric_scooter", "lat": 38.89304583333333, "is_disabled": 0, "lon": -77.0122265, "is_reserved": 0}, {"name": "abb3b1bceea4e5b86302d5b3cab50c54", "fusion_lat": 0.0, "fusion_lon": 0.0, "bike_id": "abb3b1bceea4e5b86302d5b3cab50c54", "rental_uris": {"ios": "https://dc.lft.to/lastmile_qr_scan", "android": "https://dc.lft.to/lastmile_qr_scan"}, "type": "electric_scooter", "lat": 38.89964766666667, "is_disabled": 0, "lon": -77.04613116666667, "is_reserved": 0}, {"name": "abe4d192088bf34c92afca584b368246", "fusion_lat": 0.0, "fusion_lon": 0.0, "bike_id": "abe4d192088bf34c92afca584b368246", "rental_uris": {"ios": "https://dc.lft.to/lastmile_qr_scan", "android": "https://dc.lft.to/lastmile_qr_scan"}, "type": "electric_scooter", "lat": 38.898458, "is_disabled": 0, "lon": -76.94634816666667, "is_reserved": 0}, {"name": "94a2d16ab10cddd51eaf653e38f6abb9", "fusion_lat": 0.0, "fusion_lon": 0.0, "bike_id": "94a2d16ab10cddd51eaf653e38f6abb9", "rental_uris": {"ios": "https://dc.lft.to/lastmile_qr_scan", "android": "https://dc.lft.to/lastmile_qr_scan"}, "type": "electric_scooter", "lat": 38.904269, "is_disabled": 0, "lon": -77.04334783333333, "is_reserved": 0}, {"name": "28c1a4563444759c8345dfd1488763eb", "fusion_lat": 0.0, "fusion_lon": 0.0, "bike_id": "28c1a4563444759c8345dfd1488763eb", "rental_uris": {"ios": "https://dc.lft.to/lastmile_qr_scan", "android": "https://dc.lft.to/lastmile_qr_scan"}, "type": "electric_scooter", "lat": 38.9170805, "is_disabled": 0, "lon": -77.024361, "is_reserved": 0}, {"name": "a902019fa201f5462f8503acc70cce3f", "fusion_lat": 0.0, "fusion_lon": 0.0, "bike_id": "a902019fa201f5462f8503acc70cce3f", "rental_uris": {"ios": "https://dc.lft.to/lastmile_qr_scan", "android": "https://dc.lft.to/lastmile_qr_scan"}, "type": "electric_bike", "lat": 38.955495, "is_disabled": 0, "lon": -76.93535966666667, "is_reserved": 0}, {"name": "cac0ac8e2de3e4dd838644b83e6865db", "fusion_lat": 0.0, "fusion_lon": 0.0, "bike_id": "cac0ac8e2de3e4dd838644b83e6865db", "rental_uris": {"ios": "https://dc.lft.to/lastmile_qr_scan", "android": "https://dc.lft.to/lastmile_qr_scan"}, "type": "electric_scooter", "lat": 38.911099166666666, "is_disabled": 0, "lon": -77.02416533333333, "is_reserved": 0}, {"name": "21cbf394d61d3539c0a24ab7424c7ec2", "fusion_lat": 0.0, "fusion_lon": 0.0, "bike_id": "21cbf394d61d3539c0a24ab7424c7ec2", "rental_uris": {"ios": "https://dc.lft.to/lastmile_qr_scan", "android": "https://dc.lft.to/lastmile_qr_scan"}, "type": "electric_scooter", "lat": 38.920535, "is_disabled": 0, "lon": -76.99531933333333, "is_reserved": 0}, {"name": "c20d4278ccd4ac718c392b0e95c65e5f", "fusion_lat": 0.0, "fusion_lon": 0.0, "bike_id": "c20d4278ccd4ac718c392b0e95c65e5f", "rental_uris": {"ios": "https://dc.lft.to/lastmile_qr_scan", "android": "https://dc.lft.to/lastmile_qr_scan"}, "type": "electric_scooter", "lat": 38.91452816666666, "is_disabled": 0, "lon": -77.0319795, "is_reserved": 0}, {"name": "c073460ca8eda5742bd50e1c584047f7", "fusion_lat": 0.0, "fusion_lon": 0.0, "bike_id": "c073460ca8eda5742bd50e1c584047f7", "rental_uris": {"ios": "https://dc.lft.to/lastmile_qr_scan", "android": "https://dc.lft.to/lastmile_qr_scan"}, "type": "electric_scooter", "lat": 38.9315605, "is_disabled": 0, "lon": -77.02912033333334, "is_reserved": 0}, {"name": "8ef95acc8083526fc958856709b61b8d", "fusion_lat": 0.0, "fusion_lon": 0.0, "bike_id": "8ef95acc8083526fc958856709b61b8d", "rental_uris": {"ios": "https://dc.lft.to/lastmile_qr_scan", "android": "https://dc.lft.to/lastmile_qr_scan"}, "type": "electric_scooter", "lat": 38.91952416666667, "is_disabled": 0, "lon": -77.0417325, "is_reserved": 0}, {"name": "40a8e2292c902776ca32c11c80ddf069", "fusion_lat": 0.0, "fusion_lon": 0.0, "bike_id": "40a8e2292c902776ca32c11c80ddf069", "rental_uris": {"ios": "https://dc.lft.to/lastmile_qr_scan", "android": "https://dc.lft.to/lastmile_qr_scan"}, "type": "electric_bike", "lat": 38.887694833333335, "is_disabled": 0, "lon": -77.12258233333333, "is_reserved": 0}, {"name": "b66c0e652982bc6102a451da8f0b0133", "fusion_lat": 0.0, "fusion_lon": 0.0, "bike_id": "b66c0e652982bc6102a451da8f0b0133", "rental_uris": {"ios": "https://dc.lft.to/lastmile_qr_scan", "android": "https://dc.lft.to/lastmile_qr_scan"}, "type": "electric_scooter", "lat": 38.91226116666667, "is_disabled": 0, "lon": -77.05123516666667, "is_reserved": 0}, {"name": "85e362d29aaae1aaea4202f52738f1f2", "fusion_lat": 0.0, "fusion_lon": 0.0, "bike_id": "85e362d29aaae1aaea4202f52738f1f2", "rental_uris": {"ios": "https://dc.lft.to/lastmile_qr_scan", "android": "https://dc.lft.to/lastmile_qr_scan"}, "type": "electric_scooter", "lat": 38.9133585, "is_disabled": 0, "lon": -77.04866833333334, "is_reserved": 0}, {"name": "e378353eb53419d0afb9d9cc2a8ddbf4", "fusion_lat": 0.0, "fusion_lon": 0.0, "bike_id": "e378353eb53419d0afb9d9cc2a8ddbf4", "rental_uris": {"ios": "https://dc.lft.to/lastmile_qr_scan", "android": "https://dc.lft.to/lastmile_qr_scan"}, "type": "electric_scooter", "lat": 38.905567166666664, "is_disabled": 0, "lon": -77.01094366666666, "is_reserved": 0}, {"name": "aaba841671580b5619adb1bd79218aab", "fusion_lat": 0.0, "fusion_lon": 0.0, "bike_id": "aaba841671580b5619adb1bd79218aab", "rental_uris": {"ios": "https://dc.lft.to/lastmile_qr_scan", "android": "https://dc.lft.to/lastmile_qr_scan"}, "type": "electric_bike", "lat": 38.831949333333334, "is_disabled": 0, "lon": -77.0768065, "is_reserved": 0}, {"name": "893199df3c5653ce112af463c064db03", "fusion_lat": 0.0, "fusion_lon": 0.0, "bike_id": "893199df3c5653ce112af463c064db03", "rental_uris": {"ios": "https://dc.lft.to/lastmile_qr_scan", "android": "https://dc.lft.to/lastmile_qr_scan"}, "type": "electric_bike", "lat": 38.828757833333334, "is_disabled": 0, "lon": -77.11222016666666, "is_reserved": 0}, {"name": "f5f1b000297f8df32e8038431d90484b", "fusion_lat": 0.0, "fusion_lon": 0.0, "bike_id": "f5f1b000297f8df32e8038431d90484b", "rental_uris": {"ios": "https://dc.lft.to/lastmile_qr_scan", "android": "https://dc.lft.to/lastmile_qr_scan"}, "type": "electric_scooter", "lat": 38.88720566666667, "is_disabled": 0, "lon": -76.99644533333333, "is_reserved": 0}, {"name": "12ae0d15dea6b7e8f8a103cef3a9cffd", "fusion_lat": 0.0, "fusion_lon": 0.0, "bike_id": "12ae0d15dea6b7e8f8a103cef3a9cffd", "rental_uris": {"ios": "https://dc.lft.to/lastmile_qr_scan", "android": "https://dc.lft.to/lastmile_qr_scan"}, "type": "electric_scooter", "lat": 38.8962075, "is_disabled": 0, "lon": -77.019607, "is_reserved": 0}, {"name": "efc7268ae8e5fc9abf29c2732b156256", "fusion_lat": 0.0, "fusion_lon": 0.0, "bike_id": "efc7268ae8e5fc9abf29c2732b156256", "rental_uris": {"ios": "https://dc.lft.to/lastmile_qr_scan", "android": "https://dc.lft.to/lastmile_qr_scan"}, "type": "electric_scooter", "lat": 38.925899666666666, "is_disabled": 0, "lon": -77.05532733333334, "is_reserved": 0}, {"name": "0094de10802d7a518b902a3c045694b7", "fusion_lat": 0.0, "fusion_lon": 0.0, "bike_id": "0094de10802d7a518b902a3c045694b7", "rental_uris": {"ios": "https://dc.lft.to/lastmile_qr_scan", "android": "https://dc.lft.to/lastmile_qr_scan"}, "type": "electric_scooter", "lat": 38.87678716666667, "is_disabled": 0, "lon": -77.019823, "is_reserved": 0}, {"name": "eb412693d3922b664be921aa65070037", "fusion_lat": 0.0, "fusion_lon": 0.0, "bike_id": "eb412693d3922b664be921aa65070037", "rental_uris": {"ios": "https://dc.lft.to/lastmile_qr_scan", "android": "https://dc.lft.to/lastmile_qr_scan"}, "type": "electric_scooter", "lat": 38.89939366666667, "is_disabled": 0, "lon": -77.04065466666667, "is_reserved": 0}, {"name": "d15b7a12b042702e816cc47abd4706b9", "fusion_lat": 0.0, "fusion_lon": 0.0, "bike_id": "d15b7a12b042702e816cc47abd4706b9", "rental_uris": {"ios": "https://dc.lft.to/lastmile_qr_scan", "android": "https://dc.lft.to/lastmile_qr_scan"}, "type": "electric_scooter", "lat": 38.901103166666665, "is_disabled": 0, "lon": -77.03052466666666, "is_reserved": 0}, {"name": "d72bbe7d98e9e72a48c066e62e37cf87", "fusion_lat": 0.0, "fusion_lon": 0.0, "bike_id": "d72bbe7d98e9e72a48c066e62e37cf87", "rental_uris": {"ios": "https://dc.lft.to/lastmile_qr_scan", "android": "https://dc.lft.to/lastmile_qr_scan"}, "type": "electric_scooter", "lat": 38.914136666666664, "is_disabled": 0, "lon": -77.02225066666666, "is_reserved": 0}, {"name": "95096bec98639a72122184a53936b480", "fusion_lat": 0.0, "fusion_lon": 0.0, "bike_id": "95096bec98639a72122184a53936b480", "rental_uris": {"ios": "https://dc.lft.to/lastmile_qr_scan", "android": "https://dc.lft.to/lastmile_qr_scan"}, "type": "electric_scooter", "lat": 38.89387266666667, "is_disabled": 0, "lon": -76.949966, "is_reserved": 0}, {"name": "5656bd66306ae3523c65b15dffddf38d", "fusion_lat": 0.0, "fusion_lon": 0.0, "bike_id": "5656bd66306ae3523c65b15dffddf38d", "rental_uris": {"ios": "https://dc.lft.to/lastmile_qr_scan", "android": "https://dc.lft.to/lastmile_qr_scan"}, "type": "electric_scooter", "lat": 38.9006315, "is_disabled": 0, "lon": -77.04808816666667, "is_reserved": 0}, {"name": "24275f586fbb03f18500a5e513b37f9e", "fusion_lat": 0.0, "fusion_lon": 0.0, "bike_id": "24275f586fbb03f18500a5e513b37f9e", "rental_uris": {"ios": "https://dc.lft.to/lastmile_qr_scan", "android": "https://dc.lft.to/lastmile_qr_scan"}, "type": "electric_scooter", "lat": 38.926824333333336, "is_disabled": 0, "lon": -77.022953, "is_reserved": 0}, {"name": "d418910e8e8f996ea11fe864d5a4959b", "fusion_lat": 0.0, "fusion_lon": 0.0, "bike_id": "d418910e8e8f996ea11fe864d5a4959b", "rental_uris": {"ios": "https://dc.lft.to/lastmile_qr_scan", "android": "https://dc.lft.to/lastmile_qr_scan"}, "type": "electric_scooter", "lat": 38.91838666666666, "is_disabled": 0, "lon": -77.04178166666667, "is_reserved": 0}, {"name": "e22b677b1fc1a344bacfcbe2037d74cc", "fusion_lat": 0.0, "fusion_lon": 0.0, "bike_id": "e22b677b1fc1a344bacfcbe2037d74cc", "rental_uris": {"ios": "https://dc.lft.to/lastmile_qr_scan", "android": "https://dc.lft.to/lastmile_qr_scan"}, "type": "electric_bike", "lat": 38.85421316666667, "is_disabled": 0, "lon": -76.9095885, "is_reserved": 0}, {"name": "01dac280b8e33e8293a6744ebc926960", "fusion_lat": 0.0, "fusion_lon": 0.0, "bike_id": "01dac280b8e33e8293a6744ebc926960", "rental_uris": {"ios": "https://dc.lft.to/lastmile_qr_scan", "android": "https://dc.lft.to/lastmile_qr_scan"}, "type": "electric_scooter", "lat": 38.89016383333333, "is_disabled": 0, "lon": -76.937404, "is_reserved": 0}, {"name": "9cf31b1ab007b82ff5466fce907b126a", "fusion_lat": 0.0, "fusion_lon": 0.0, "bike_id": "9cf31b1ab007b82ff5466fce907b126a", "rental_uris": {"ios": "https://dc.lft.to/lastmile_qr_scan", "android": "https://dc.lft.to/lastmile_qr_scan"}, "type": "electric_scooter", "lat": 38.899798833333335, "is_disabled": 0, "lon": -77.04190716666666, "is_reserved": 0}, {"name": "de73b359337970028581f3149e16272f", "fusion_lat": 0.0, "fusion_lon": 0.0, "bike_id": "de73b359337970028581f3149e16272f", "rental_uris": {"ios": "https://dc.lft.to/lastmile_qr_scan", "android": "https://dc.lft.to/lastmile_qr_scan"}, "type": "electric_scooter", "lat": 38.93023183333333, "is_disabled": 0, "lon": -77.0380365, "is_reserved": 0}, {"name": "e7d642b805759279ce9fb0582c3f0ccb", "fusion_lat": 0.0, "fusion_lon": 0.0, "bike_id": "e7d642b805759279ce9fb0582c3f0ccb", "rental_uris": {"ios": "https://dc.lft.to/lastmile_qr_scan", "android": "https://dc.lft.to/lastmile_qr_scan"}, "type": "electric_scooter", "lat": 38.907032, "is_disabled": 0, "lon": -77.0439505, "is_reserved": 0}, {"name": "3ea62487dbe3d0bebf63672510abde39", "fusion_lat": 0.0, "fusion_lon": 0.0, "bike_id": "3ea62487dbe3d0bebf63672510abde39", "rental_uris": {"ios": "https://dc.lft.to/lastmile_qr_scan", "android": "https://dc.lft.to/lastmile_qr_scan"}, "type": "electric_bike", "lat": 38.952294, "is_disabled": 0, "lon": -77.002639, "is_reserved": 0}, {"name": "be6e72f827c3f68bbc5c8beb3f3a02f2", "fusion_lat": 0.0, "fusion_lon": 0.0, "bike_id": "be6e72f827c3f68bbc5c8beb3f3a02f2", "rental_uris": {"ios": "https://dc.lft.to/lastmile_qr_scan", "android": "https://dc.lft.to/lastmile_qr_scan"}, "type": "electric_scooter", "lat": 38.9283645, "is_disabled": 0, "lon": -77.01406683333333, "is_reserved": 0}, {"name": "2144a490c8eea1b93f28c9fe90a681fe", "fusion_lat": 0.0, "fusion_lon": 0.0, "bike_id": "2144a490c8eea1b93f28c9fe90a681fe", "rental_uris": {"ios": "https://dc.lft.to/lastmile_qr_scan", "android": "https://dc.lft.to/lastmile_qr_scan"}, "type": "electric_scooter", "lat": 38.91840466666667, "is_disabled": 0, "lon": -76.96553466666667, "is_reserved": 0}, {"name": "95059b423e61a6a1d44daf1e78ded067", "fusion_lat": 0.0, "fusion_lon": 0.0, "bike_id": "95059b423e61a6a1d44daf1e78ded067", "rental_uris": {"ios": "https://dc.lft.to/lastmile_qr_scan", "android": "https://dc.lft.to/lastmile_qr_scan"}, "type": "electric_scooter", "lat": 38.867234333333336, "is_disabled": 0, "lon": -77.0101745, "is_reserved": 0}, {"name": "6cf4980e3a307757953290640e10e955", "fusion_lat": 0.0, "fusion_lon": 0.0, "bike_id": "6cf4980e3a307757953290640e10e955", "rental_uris": {"ios": "https://dc.lft.to/lastmile_qr_scan", "android": "https://dc.lft.to/lastmile_qr_scan"}, "type": "electric_scooter", "lat": 38.92393, "is_disabled": 0, "lon": -77.05157016666666, "is_reserved": 0}, {"name": "bd91932763a1b8e0163fae8bbbd34531", "fusion_lat": 0.0, "fusion_lon": 0.0, "bike_id": "bd91932763a1b8e0163fae8bbbd34531", "rental_uris": {"ios": "https://dc.lft.to/lastmile_qr_scan", "android": "https://dc.lft.to/lastmile_qr_scan"}, "type": "electric_scooter", "lat": 38.936960666666664, "is_disabled": 0, "lon": -77.05601416666667, "is_reserved": 0}, {"name": "5e98c8fbace2670fe76a0c16519af321", "fusion_lat": 0.0, "fusion_lon": 0.0, "bike_id": "5e98c8fbace2670fe76a0c16519af321", "rental_uris": {"ios": "https://dc.lft.to/lastmile_qr_scan", "android": "https://dc.lft.to/lastmile_qr_scan"}, "type": "electric_scooter", "lat": 38.8962925, "is_disabled": 0, "lon": -77.04634766666666, "is_reserved": 0}, {"name": "85eaad7e62d07e8ad3359b21a14d968b", "fusion_lat": 0.0, "fusion_lon": 0.0, "bike_id": "85eaad7e62d07e8ad3359b21a14d968b", "rental_uris": {"ios": "https://dc.lft.to/lastmile_qr_scan", "android": "https://dc.lft.to/lastmile_qr_scan"}, "type": "electric_scooter", "lat": 38.89015283333333, "is_disabled": 0, "lon": -76.93837616666667, "is_reserved": 0}, {"name": "6ad0c66fc47a0fa75c48772809d007f1", "fusion_lat": 0.0, "fusion_lon": 0.0, "bike_id": "6ad0c66fc47a0fa75c48772809d007f1", "rental_uris": {"ios": "https://dc.lft.to/lastmile_qr_scan", "android": "https://dc.lft.to/lastmile_qr_scan"}, "type": "electric_scooter", "lat": 38.918403, "is_disabled": 0, "lon": -77.03209166666667, "is_reserved": 0}, {"name": "7b4dce2a5139d7108b85b01a097bc26f", "fusion_lat": 0.0, "fusion_lon": 0.0, "bike_id": "7b4dce2a5139d7108b85b01a097bc26f", "rental_uris": {"ios": "https://dc.lft.to/lastmile_qr_scan", "android": "https://dc.lft.to/lastmile_qr_scan"}, "type": "electric_scooter", "lat": 38.90568566666666, "is_disabled": 0, "lon": -77.04867266666666, "is_reserved": 0}, {"name": "3a850fe60807fe5399c181ff6190f82c", "fusion_lat": 0.0, "fusion_lon": 0.0, "bike_id": "3a850fe60807fe5399c181ff6190f82c", "rental_uris": {"ios": "https://dc.lft.to/lastmile_qr_scan", "android": "https://dc.lft.to/lastmile_qr_scan"}, "type": "electric_bike", "lat": 39.02498816666667, "is_disabled": 0, "lon": -77.12564416666666, "is_reserved": 0}, {"name": "a53f4c08f22897afce8ef41f2f58aa23", "fusion_lat": 0.0, "fusion_lon": 0.0, "bike_id": "a53f4c08f22897afce8ef41f2f58aa23", "rental_uris": {"ios": "https://dc.lft.to/lastmile_qr_scan", "android": "https://dc.lft.to/lastmile_qr_scan"}, "type": "electric_scooter", "lat": 38.917041166666664, "is_disabled": 0, "lon": -77.02951366666667, "is_reserved": 0}, {"name": "37eae4186482de2664ba7aa670c94698", "fusion_lat": 0.0, "fusion_lon": 0.0, "bike_id": "37eae4186482de2664ba7aa670c94698", "rental_uris": {"ios": "https://dc.lft.to/lastmile_qr_scan", "android": "https://dc.lft.to/lastmile_qr_scan"}, "type": "electric_scooter", "lat": 38.897484166666665, "is_disabled": 0, "lon": -77.00367733333333, "is_reserved": 0}, {"name": "b4522e0d6d576f2fdca2dbbe7dedeebe", "fusion_lat": 0.0, "fusion_lon": 0.0, "bike_id": "b4522e0d6d576f2fdca2dbbe7dedeebe", "rental_uris": {"ios": "https://dc.lft.to/lastmile_qr_scan", "android": "https://dc.lft.to/lastmile_qr_scan"}, "type": "electric_scooter", "lat": 38.8972565, "is_disabled": 0, "lon": -77.0471775, "is_reserved": 0}, {"name": "dfc894c04cc5b0966c7e90338345d038", "fusion_lat": 0.0, "fusion_lon": 0.0, "bike_id": "dfc894c04cc5b0966c7e90338345d038", "rental_uris": {"ios": "https://dc.lft.to/lastmile_qr_scan", "android": "https://dc.lft.to/lastmile_qr_scan"}, "type": "electric_scooter", "lat": 38.9083335, "is_disabled": 0, "lon": -76.99699083333333, "is_reserved": 0}, {"name": "f62633d3b854cc134a2530cd0a91f6e5", "fusion_lat": 0.0, "fusion_lon": 0.0, "bike_id": "f62633d3b854cc134a2530cd0a91f6e5", "rental_uris": {"ios": "https://dc.lft.to/lastmile_qr_scan", "android": "https://dc.lft.to/lastmile_qr_scan"}, "type": "electric_scooter", "lat": 38.911906, "is_disabled": 0, "lon": -77.03747333333334, "is_reserved": 0}, {"name": "e014ba4bc3c4a8ac88628cef0926aad4", "fusion_lat": 0.0, "fusion_lon": 0.0, "bike_id": "e014ba4bc3c4a8ac88628cef0926aad4", "rental_uris": {"ios": "https://dc.lft.to/lastmile_qr_scan", "android": "https://dc.lft.to/lastmile_qr_scan"}, "type": "electric_bike", "lat": 38.85213366666667, "is_disabled": 0, "lon": -77.12756583333334, "is_reserved": 0}, {"name": "5764efb60f7b24aa1c68037b5da49627", "fusion_lat": 0.0, "fusion_lon": 0.0, "bike_id": "5764efb60f7b24aa1c68037b5da49627", "rental_uris": {"ios": "https://dc.lft.to/lastmile_qr_scan", "android": "https://dc.lft.to/lastmile_qr_scan"}, "type": "electric_scooter", "lat": 38.918183666666664, "is_disabled": 0, "lon": -77.0356325, "is_reserved": 0}, {"name": "dd30bd05fda8212efb2de1b6b50f4c2a", "fusion_lat": 0.0, "fusion_lon": 0.0, "bike_id": "dd30bd05fda8212efb2de1b6b50f4c2a", "rental_uris": {"ios": "https://dc.lft.to/lastmile_qr_scan", "android": "https://dc.lft.to/lastmile_qr_scan"}, "type": "electric_scooter", "lat": 38.9176395, "is_disabled": 0, "lon": -77.03213933333333, "is_reserved": 0}, {"name": "93f2211eec04f63ead25fee3e8226f51", "fusion_lat": 0.0, "fusion_lon": 0.0, "bike_id": "93f2211eec04f63ead25fee3e8226f51", "rental_uris": {"ios": "https://dc.lft.to/lastmile_qr_scan", "android": "https://dc.lft.to/lastmile_qr_scan"}, "type": "electric_scooter", "lat": 38.921860833333334, "is_disabled": 0, "lon": -76.9976405, "is_reserved": 0}, {"name": "ea1c4f4653b296cd1d2067a945129aae", "fusion_lat": 0.0, "fusion_lon": 0.0, "bike_id": "ea1c4f4653b296cd1d2067a945129aae", "rental_uris": {"ios": "https://dc.lft.to/lastmile_qr_scan", "android": "https://dc.lft.to/lastmile_qr_scan"}, "type": "electric_scooter", "lat": 38.92200733333333, "is_disabled": 0, "lon": -77.018384, "is_reserved": 0}, {"name": "f39308fa0bc7fced7e3739c71ebd2d72", "fusion_lat": 0.0, "fusion_lon": 0.0, "bike_id": "f39308fa0bc7fced7e3739c71ebd2d72", "rental_uris": {"ios": "https://dc.lft.to/lastmile_qr_scan", "android": "https://dc.lft.to/lastmile_qr_scan"}, "type": "electric_scooter", "lat": 38.9060695, "is_disabled": 0, "lon": -77.04730533333333, "is_reserved": 0}, {"name": "428f1c191ad56b4c9f8bfb9702868d52", "fusion_lat": 0.0, "fusion_lon": 0.0, "bike_id": "428f1c191ad56b4c9f8bfb9702868d52", "rental_uris": {"ios": "https://dc.lft.to/lastmile_qr_scan", "android": "https://dc.lft.to/lastmile_qr_scan"}, "type": "electric_scooter", "lat": 38.88227366666667, "is_disabled": 0, "lon": -76.99078933333334, "is_reserved": 0}, {"name": "dc4cf9ed70e84ba5e0f6577d9ae0dbc3", "fusion_lat": 0.0, "fusion_lon": 0.0, "bike_id": "dc4cf9ed70e84ba5e0f6577d9ae0dbc3", "rental_uris": {"ios": "https://dc.lft.to/lastmile_qr_scan", "android": "https://dc.lft.to/lastmile_qr_scan"}, "type": "electric_scooter", "lat": 38.88375216666667, "is_disabled": 0, "lon": -76.99518716666667, "is_reserved": 0}, {"name": "e96980bb92a8ea12876c4835be477292", "fusion_lat": 0.0, "fusion_lon": 0.0, "bike_id": "e96980bb92a8ea12876c4835be477292", "rental_uris": {"ios": "https://dc.lft.to/lastmile_qr_scan", "android": "https://dc.lft.to/lastmile_qr_scan"}, "type": "electric_scooter", "lat": 38.90064783333333, "is_disabled": 0, "lon": -77.02196783333333, "is_reserved": 0}, {"name": "666a179fc20c903f8981ecbcf9a5779e", "fusion_lat": 0.0, "fusion_lon": 0.0, "bike_id": "666a179fc20c903f8981ecbcf9a5779e", "rental_uris": {"ios": "https://dc.lft.to/lastmile_qr_scan", "android": "https://dc.lft.to/lastmile_qr_scan"}, "type": "electric_scooter", "lat": 38.90823616666667, "is_disabled": 0, "lon": -77.03666816666667, "is_reserved": 0}, {"name": "805e4b5722d43dd12025e692f998f35d", "fusion_lat": 0.0, "fusion_lon": 0.0, "bike_id": "805e4b5722d43dd12025e692f998f35d", "rental_uris": {"ios": "https://dc.lft.to/lastmile_qr_scan", "android": "https://dc.lft.to/lastmile_qr_scan"}, "type": "electric_bike", "lat": 38.865993, "is_disabled": 0, "lon": -76.93227216666666, "is_reserved": 0}, {"name": "fe92f68846dc08c1908844f1a78b0cb9", "fusion_lat": 0.0, "fusion_lon": 0.0, "bike_id": "fe92f68846dc08c1908844f1a78b0cb9", "rental_uris": {"ios": "https://dc.lft.to/lastmile_qr_scan", "android": "https://dc.lft.to/lastmile_qr_scan"}, "type": "electric_scooter", "lat": 38.8901155, "is_disabled": 0, "lon": -76.937353, "is_reserved": 0}, {"name": "15d1944786fa5e124f6dc40eff460e4c", "fusion_lat": 0.0, "fusion_lon": 0.0, "bike_id": "15d1944786fa5e124f6dc40eff460e4c", "rental_uris": {"ios": "https://dc.lft.to/lastmile_qr_scan", "android": "https://dc.lft.to/lastmile_qr_scan"}, "type": "electric_scooter", "lat": 38.91750016666667, "is_disabled": 0, "lon": -77.04154083333333, "is_reserved": 0}, {"name": "aac30f1a42ff178cfd346128e7d47498", "fusion_lat": 0.0, "fusion_lon": 0.0, "bike_id": "aac30f1a42ff178cfd346128e7d47498", "rental_uris": {"ios": "https://dc.lft.to/lastmile_qr_scan", "android": "https://dc.lft.to/lastmile_qr_scan"}, "type": "electric_scooter", "lat": 38.92041733333333, "is_disabled": 0, "lon": -77.04813, "is_reserved": 0}, {"name": "ee966ddef9d39651392516b56fa248d9", "fusion_lat": 0.0, "fusion_lon": 0.0, "bike_id": "ee966ddef9d39651392516b56fa248d9", "rental_uris": {"ios": "https://dc.lft.to/lastmile_qr_scan", "android": "https://dc.lft.to/lastmile_qr_scan"}, "type": "electric_scooter", "lat": 38.887199, "is_disabled": 0, "lon": -76.99646033333333, "is_reserved": 0}, {"name": "19b9e5e02845ee239969b959cad8d35e", "fusion_lat": 0.0, "fusion_lon": 0.0, "bike_id": "19b9e5e02845ee239969b959cad8d35e", "rental_uris": {"ios": "https://dc.lft.to/lastmile_qr_scan", "android": "https://dc.lft.to/lastmile_qr_scan"}, "type": "electric_scooter", "lat": 38.9178735, "is_disabled": 0, "lon": -77.043558, "is_reserved": 0}, {"name": "faacf709dbc82da73733e9c957ef359a", "fusion_lat": 0.0, "fusion_lon": 0.0, "bike_id": "faacf709dbc82da73733e9c957ef359a", "rental_uris": {"ios": "https://dc.lft.to/lastmile_qr_scan", "android": "https://dc.lft.to/lastmile_qr_scan"}, "type": "electric_scooter", "lat": 38.90156183333333, "is_disabled": 0, "lon": -77.02841283333333, "is_reserved": 0}, {"name": "e712e677cf5b89b66ed757bc735b563b", "fusion_lat": 0.0, "fusion_lon": 0.0, "bike_id": "e712e677cf5b89b66ed757bc735b563b", "rental_uris": {"ios": "https://dc.lft.to/lastmile_qr_scan", "android": "https://dc.lft.to/lastmile_qr_scan"}, "type": "electric_scooter", "lat": 38.884200666666665, "is_disabled": 0, "lon": -77.033046, "is_reserved": 0}, {"name": "068f4f848c9fa148af75eb463e19fb57", "fusion_lat": 0.0, "fusion_lon": 0.0, "bike_id": "068f4f848c9fa148af75eb463e19fb57", "rental_uris": {"ios": "https://dc.lft.to/lastmile_qr_scan", "android": "https://dc.lft.to/lastmile_qr_scan"}, "type": "electric_scooter", "lat": 38.928346, "is_disabled": 0, "lon": -77.03273883333334, "is_reserved": 0}, {"name": "56a6b71efd613ec6fb3296ed1f6eb14b", "fusion_lat": 0.0, "fusion_lon": 0.0, "bike_id": "56a6b71efd613ec6fb3296ed1f6eb14b", "rental_uris": {"ios": "https://dc.lft.to/lastmile_qr_scan", "android": "https://dc.lft.to/lastmile_qr_scan"}, "type": "electric_bike", "lat": 38.99074866666667, "is_disabled": 0, "lon": -77.0238695, "is_reserved": 0}, {"name": "2c7042826ee3a8a4d1bbd7370a153ca3", "fusion_lat": 0.0, "fusion_lon": 0.0, "bike_id": "2c7042826ee3a8a4d1bbd7370a153ca3", "rental_uris": {"ios": "https://dc.lft.to/lastmile_qr_scan", "android": "https://dc.lft.to/lastmile_qr_scan"}, "type": "electric_scooter", "lat": 38.92502483333333, "is_disabled": 0, "lon": -77.00887233333333, "is_reserved": 0}, {"name": "d59dd90caba09b1fc422f15e03929b22", "fusion_lat": 0.0, "fusion_lon": 0.0, "bike_id": "d59dd90caba09b1fc422f15e03929b22", "rental_uris": {"ios": "https://dc.lft.to/lastmile_qr_scan", "android": "https://dc.lft.to/lastmile_qr_scan"}, "type": "electric_bike", "lat": 38.923483, "is_disabled": 0, "lon": -76.99247683333333, "is_reserved": 0}, {"name": "6abbf938515c632d33dc73f05b10d057", "fusion_lat": 0.0, "fusion_lon": 0.0, "bike_id": "6abbf938515c632d33dc73f05b10d057", "rental_uris": {"ios": "https://dc.lft.to/lastmile_qr_scan", "android": "https://dc.lft.to/lastmile_qr_scan"}, "type": "electric_scooter", "lat": 38.8817515, "is_disabled": 0, "lon": -77.0281075, "is_reserved": 0}, {"name": "7f935f9f3eb5f767c62c629f85b5ca97", "fusion_lat": 0.0, "fusion_lon": 0.0, "bike_id": "7f935f9f3eb5f767c62c629f85b5ca97", "rental_uris": {"ios": "https://dc.lft.to/lastmile_qr_scan", "android": "https://dc.lft.to/lastmile_qr_scan"}, "type": "electric_scooter", "lat": 38.89355416666667, "is_disabled": 0, "lon": -77.003394, "is_reserved": 0}, {"name": "8947230787210998afe77e751aad283a", "fusion_lat": 0.0, "fusion_lon": 0.0, "bike_id": "8947230787210998afe77e751aad283a", "rental_uris": {"ios": "https://dc.lft.to/lastmile_qr_scan", "android": "https://dc.lft.to/lastmile_qr_scan"}, "type": "electric_scooter", "lat": 38.876406, "is_disabled": 0, "lon": -77.00705766666667, "is_reserved": 0}, {"name": "5e857345b7299e7ff43c1ac44f5636bb", "fusion_lat": 0.0, "fusion_lon": 0.0, "bike_id": "5e857345b7299e7ff43c1ac44f5636bb", "rental_uris": {"ios": "https://dc.lft.to/lastmile_qr_scan", "android": "https://dc.lft.to/lastmile_qr_scan"}, "type": "electric_scooter", "lat": 38.86657183333333, "is_disabled": 0, "lon": -76.98882333333333, "is_reserved": 0}, {"name": "dadade29ec5826ff5d5276a1ab86c499", "fusion_lat": 0.0, "fusion_lon": 0.0, "bike_id": "dadade29ec5826ff5d5276a1ab86c499", "rental_uris": {"ios": "https://dc.lft.to/lastmile_qr_scan", "android": "https://dc.lft.to/lastmile_qr_scan"}, "type": "electric_scooter", "lat": 38.8811725, "is_disabled": 0, "lon": -77.0207055, "is_reserved": 0}, {"name": "99cbd63a193a012fa3488a26df38e8e1", "fusion_lat": 0.0, "fusion_lon": 0.0, "bike_id": "99cbd63a193a012fa3488a26df38e8e1", "rental_uris": {"ios": "https://dc.lft.to/lastmile_qr_scan", "android": "https://dc.lft.to/lastmile_qr_scan"}, "type": "electric_scooter", "lat": 38.91838083333333, "is_disabled": 0, "lon": -76.96549216666666, "is_reserved": 0}, {"name": "61b80135b85424357558a96e76251e6d", "fusion_lat": 0.0, "fusion_lon": 0.0, "bike_id": "61b80135b85424357558a96e76251e6d", "rental_uris": {"ios": "https://dc.lft.to/lastmile_qr_scan", "android": "https://dc.lft.to/lastmile_qr_scan"}, "type": "electric_scooter", "lat": 38.905096, "is_disabled": 0, "lon": -77.05392683333334, "is_reserved": 0}, {"name": "d282e38ca91a3f7821f87f60f2771b2d", "fusion_lat": 0.0, "fusion_lon": 0.0, "bike_id": "d282e38ca91a3f7821f87f60f2771b2d", "rental_uris": {"ios": "https://dc.lft.to/lastmile_qr_scan", "android": "https://dc.lft.to/lastmile_qr_scan"}, "type": "electric_scooter", "lat": 38.893995833333335, "is_disabled": 0, "lon": -76.94994016666666, "is_reserved": 0}, {"name": "d93e99536e619c3b152011e38bb6bd2b", "fusion_lat": 0.0, "fusion_lon": 0.0, "bike_id": "d93e99536e619c3b152011e38bb6bd2b", "rental_uris": {"ios": "https://dc.lft.to/lastmile_qr_scan", "android": "https://dc.lft.to/lastmile_qr_scan"}, "type": "electric_scooter", "lat": 38.865066, "is_disabled": 0, "lon": -76.99003716666667, "is_reserved": 0}, {"name": "b1a0e6dbe40958d8502b9fbea2b85e0f", "fusion_lat": 0.0, "fusion_lon": 0.0, "bike_id": "b1a0e6dbe40958d8502b9fbea2b85e0f", "rental_uris": {"ios": "https://dc.lft.to/lastmile_qr_scan", "android": "https://dc.lft.to/lastmile_qr_scan"}, "type": "electric_scooter", "lat": 38.90567733333334, "is_disabled": 0, "lon": -77.04725416666666, "is_reserved": 0}, {"name": "692f2ae611d2bb9b52f05394a250e28a", "fusion_lat": 0.0, "fusion_lon": 0.0, "bike_id": "692f2ae611d2bb9b52f05394a250e28a", "rental_uris": {"ios": "https://dc.lft.to/lastmile_qr_scan", "android": "https://dc.lft.to/lastmile_qr_scan"}, "type": "electric_scooter", "lat": 38.91196033333333, "is_disabled": 0, "lon": -77.04170666666667, "is_reserved": 0}, {"name": "97e7441332e6a297008f4bd825192089", "fusion_lat": 0.0, "fusion_lon": 0.0, "bike_id": "97e7441332e6a297008f4bd825192089", "rental_uris": {"ios": "https://dc.lft.to/lastmile_qr_scan", "android": "https://dc.lft.to/lastmile_qr_scan"}, "type": "electric_scooter", "lat": 38.908430833333334, "is_disabled": 0, "lon": -77.04176, "is_reserved": 0}, {"name": "af0bfd3f98d2f40f73b53a7cfb550f06", "fusion_lat": 0.0, "fusion_lon": 0.0, "bike_id": "af0bfd3f98d2f40f73b53a7cfb550f06", "rental_uris": {"ios": "https://dc.lft.to/lastmile_qr_scan", "android": "https://dc.lft.to/lastmile_qr_scan"}, "type": "electric_scooter", "lat": 38.91187033333333, "is_disabled": 0, "lon": -77.03921966666667, "is_reserved": 0}, {"name": "c574d125c54edc263c5777eec3621130", "fusion_lat": 0.0, "fusion_lon": 0.0, "bike_id": "c574d125c54edc263c5777eec3621130", "rental_uris": {"ios": "https://dc.lft.to/lastmile_qr_scan", "android": "https://dc.lft.to/lastmile_qr_scan"}, "type": "electric_scooter", "lat": 38.86209016666667, "is_disabled": 0, "lon": -76.99435633333333, "is_reserved": 0}, {"name": "27ceea05e10d3ac563f96b489b6b47fb", "fusion_lat": 0.0, "fusion_lon": 0.0, "bike_id": "27ceea05e10d3ac563f96b489b6b47fb", "rental_uris": {"ios": "https://dc.lft.to/lastmile_qr_scan", "android": "https://dc.lft.to/lastmile_qr_scan"}, "type": "electric_scooter", "lat": 38.898208833333335, "is_disabled": 0, "lon": -77.02977733333333, "is_reserved": 0}, {"name": "dc33fb1648c3e8de7654cb8c89440999", "fusion_lat": 0.0, "fusion_lon": 0.0, "bike_id": "dc33fb1648c3e8de7654cb8c89440999", "rental_uris": {"ios": "https://dc.lft.to/lastmile_qr_scan", "android": "https://dc.lft.to/lastmile_qr_scan"}, "type": "electric_scooter", "lat": 38.921212, "is_disabled": 0, "lon": -76.9939725, "is_reserved": 0}, {"name": "b6b328c94585d8932e5721ad8f8e8dfb", "fusion_lat": 0.0, "fusion_lon": 0.0, "bike_id": "b6b328c94585d8932e5721ad8f8e8dfb", "rental_uris": {"ios": "https://dc.lft.to/lastmile_qr_scan", "android": "https://dc.lft.to/lastmile_qr_scan"}, "type": "electric_scooter", "lat": 38.90240166666667, "is_disabled": 0, "lon": -77.02411483333333, "is_reserved": 0}, {"name": "e9b355d151e3d1bf976466fa2ad29b00", "fusion_lat": 0.0, "fusion_lon": 0.0, "bike_id": "e9b355d151e3d1bf976466fa2ad29b00", "rental_uris": {"ios": "https://dc.lft.to/lastmile_qr_scan", "android": "https://dc.lft.to/lastmile_qr_scan"}, "type": "electric_scooter", "lat": 38.8984805, "is_disabled": 0, "lon": -77.0298845, "is_reserved": 0}, {"name": "47338ed07d08492348228d84fc75ecd8", "fusion_lat": 0.0, "fusion_lon": 0.0, "bike_id": "47338ed07d08492348228d84fc75ecd8", "rental_uris": {"ios": "https://dc.lft.to/lastmile_qr_scan", "android": "https://dc.lft.to/lastmile_qr_scan"}, "type": "electric_scooter", "lat": 38.92269433333333, "is_disabled": 0, "lon": -77.07324966666667, "is_reserved": 0}, {"name": "04f37bc790447f086274aae6160148fc", "fusion_lat": 0.0, "fusion_lon": 0.0, "bike_id": "04f37bc790447f086274aae6160148fc", "rental_uris": {"ios": "https://dc.lft.to/lastmile_qr_scan", "android": "https://dc.lft.to/lastmile_qr_scan"}, "type": "electric_scooter", "lat": 38.90881266666667, "is_disabled": 0, "lon": -77.038393, "is_reserved": 0}, {"name": "9da51683aeaf056796f1018131f6d7df", "fusion_lat": 0.0, "fusion_lon": 0.0, "bike_id": "9da51683aeaf056796f1018131f6d7df", "rental_uris": {"ios": "https://dc.lft.to/lastmile_qr_scan", "android": "https://dc.lft.to/lastmile_qr_scan"}, "type": "electric_scooter", "lat": 38.903304, "is_disabled": 0, "lon": -77.01640066666667, "is_reserved": 0}, {"name": "2703397cb53ef59f524558f194eee8a7", "fusion_lat": 0.0, "fusion_lon": 0.0, "bike_id": "2703397cb53ef59f524558f194eee8a7", "rental_uris": {"ios": "https://dc.lft.to/lastmile_qr_scan", "android": "https://dc.lft.to/lastmile_qr_scan"}, "type": "electric_bike", "lat": 38.828686833333336, "is_disabled": 0, "lon": -77.112226, "is_reserved": 0}, {"name": "0eb4450e6492ed1a0c00f192f7777a3d", "fusion_lat": 0.0, "fusion_lon": 0.0, "bike_id": "0eb4450e6492ed1a0c00f192f7777a3d", "rental_uris": {"ios": "https://dc.lft.to/lastmile_qr_scan", "android": "https://dc.lft.to/lastmile_qr_scan"}, "type": "electric_scooter", "lat": 38.9169865, "is_disabled": 0, "lon": -77.0284495, "is_reserved": 0}, {"name": "2c67f0c08d90670bf688e16938e2bdb9", "fusion_lat": 0.0, "fusion_lon": 0.0, "bike_id": "2c67f0c08d90670bf688e16938e2bdb9", "rental_uris": {"ios": "https://dc.lft.to/lastmile_qr_scan", "android": "https://dc.lft.to/lastmile_qr_scan"}, "type": "electric_scooter", "lat": 38.909676, "is_disabled": 0, "lon": -77.01104866666667, "is_reserved": 0}, {"name": "31d9b39f74fbcad2c94815af39447c8c", "fusion_lat": 0.0, "fusion_lon": 0.0, "bike_id": "31d9b39f74fbcad2c94815af39447c8c", "rental_uris": {"ios": "https://dc.lft.to/lastmile_qr_scan", "android": "https://dc.lft.to/lastmile_qr_scan"}, "type": "electric_scooter", "lat": 38.90411916666667, "is_disabled": 0, "lon": -77.050137, "is_reserved": 0}, {"name": "f40e5b4017abc153f3749ad31263c1bd", "fusion_lat": 0.0, "fusion_lon": 0.0, "bike_id": "f40e5b4017abc153f3749ad31263c1bd", "rental_uris": {"ios": "https://dc.lft.to/lastmile_qr_scan", "android": "https://dc.lft.to/lastmile_qr_scan"}, "type": "electric_bike", "lat": 39.00017483333333, "is_disabled": 0, "lon": -76.87283866666667, "is_reserved": 0}, {"name": "c3fa4ec8a0396bd948a9bd898b43c510", "fusion_lat": 0.0, "fusion_lon": 0.0, "bike_id": "c3fa4ec8a0396bd948a9bd898b43c510", "rental_uris": {"ios": "https://dc.lft.to/lastmile_qr_scan", "android": "https://dc.lft.to/lastmile_qr_scan"}, "type": "electric_scooter", "lat": 38.9038025, "is_disabled": 0, "lon": -77.017571, "is_reserved": 0}, {"name": "b2c8d6924819b0e573d8b6bc4492b3b4", "fusion_lat": 0.0, "fusion_lon": 0.0, "bike_id": "b2c8d6924819b0e573d8b6bc4492b3b4", "rental_uris": {"ios": "https://dc.lft.to/lastmile_qr_scan", "android": "https://dc.lft.to/lastmile_qr_scan"}, "type": "electric_scooter", "lat": 38.916117, "is_disabled": 0, "lon": -77.04875583333333, "is_reserved": 0}, {"name": "e192d792467e6e3cf436793760d8fb79", "fusion_lat": 0.0, "fusion_lon": 0.0, "bike_id": "e192d792467e6e3cf436793760d8fb79", "rental_uris": {"ios": "https://dc.lft.to/lastmile_qr_scan", "android": "https://dc.lft.to/lastmile_qr_scan"}, "type": "electric_scooter", "lat": 38.919263, "is_disabled": 0, "lon": -77.0424215, "is_reserved": 0}, {"name": "485038dfd4d8360e301c584f024e76af", "fusion_lat": 0.0, "fusion_lon": 0.0, "bike_id": "485038dfd4d8360e301c584f024e76af", "rental_uris": {"ios": "https://dc.lft.to/lastmile_qr_scan", "android": "https://dc.lft.to/lastmile_qr_scan"}, "type": "electric_scooter", "lat": 38.897387, "is_disabled": 0, "lon": -77.03341166666667, "is_reserved": 0}, {"name": "9dadb7f0d374428a3e4af73402e4386a", "fusion_lat": 0.0, "fusion_lon": 0.0, "bike_id": "9dadb7f0d374428a3e4af73402e4386a", "rental_uris": {"ios": "https://dc.lft.to/lastmile_qr_scan", "android": "https://dc.lft.to/lastmile_qr_scan"}, "type": "electric_scooter", "lat": 38.887216, "is_disabled": 0, "lon": -76.99645166666667, "is_reserved": 0}, {"name": "3d499ad00e8e56f95634ebaaae21e711", "fusion_lat": 0.0, "fusion_lon": 0.0, "bike_id": "3d499ad00e8e56f95634ebaaae21e711", "rental_uris": {"ios": "https://dc.lft.to/lastmile_qr_scan", "android": "https://dc.lft.to/lastmile_qr_scan"}, "type": "electric_scooter", "lat": 38.884809, "is_disabled": 0, "lon": -77.015354, "is_reserved": 0}, {"name": "677def21e2207cca2fd8043bbe304275", "fusion_lat": 0.0, "fusion_lon": 0.0, "bike_id": "677def21e2207cca2fd8043bbe304275", "rental_uris": {"ios": "https://dc.lft.to/lastmile_qr_scan", "android": "https://dc.lft.to/lastmile_qr_scan"}, "type": "electric_scooter", "lat": 38.90512233333333, "is_disabled": 0, "lon": -77.05789433333334, "is_reserved": 0}, {"name": "c1f24bb15e27e748280da2bb3f610fc1", "fusion_lat": 0.0, "fusion_lon": 0.0, "bike_id": "c1f24bb15e27e748280da2bb3f610fc1", "rental_uris": {"ios": "https://dc.lft.to/lastmile_qr_scan", "android": "https://dc.lft.to/lastmile_qr_scan"}, "type": "electric_scooter", "lat": 38.9047265, "is_disabled": 0, "lon": -77.03256016666667, "is_reserved": 0}, {"name": "d6907b46fa3b136e1b90f6ff2b64597f", "fusion_lat": 0.0, "fusion_lon": 0.0, "bike_id": "d6907b46fa3b136e1b90f6ff2b64597f", "rental_uris": {"ios": "https://dc.lft.to/lastmile_qr_scan", "android": "https://dc.lft.to/lastmile_qr_scan"}, "type": "electric_scooter", "lat": 38.89748183333333, "is_disabled": 0, "lon": -77.048053, "is_reserved": 0}, {"name": "a1864eeb30391652da6606353bf574fa", "fusion_lat": 0.0, "fusion_lon": 0.0, "bike_id": "a1864eeb30391652da6606353bf574fa", "rental_uris": {"ios": "https://dc.lft.to/lastmile_qr_scan", "android": "https://dc.lft.to/lastmile_qr_scan"}, "type": "electric_scooter", "lat": 38.915573333333334, "is_disabled": 0, "lon": -77.04184716666667, "is_reserved": 0}, {"name": "4aa4f5e233c1bcb2cd89373ca7819c95", "fusion_lat": 0.0, "fusion_lon": 0.0, "bike_id": "4aa4f5e233c1bcb2cd89373ca7819c95", "rental_uris": {"ios": "https://dc.lft.to/lastmile_qr_scan", "android": "https://dc.lft.to/lastmile_qr_scan"}, "type": "electric_scooter", "lat": 38.90136, "is_disabled": 0, "lon": -77.0324375, "is_reserved": 0}, {"name": "2e36ab09326e38acfa12bd6b8b92c930", "fusion_lat": 0.0, "fusion_lon": 0.0, "bike_id": "2e36ab09326e38acfa12bd6b8b92c930", "rental_uris": {"ios": "https://dc.lft.to/lastmile_qr_scan", "android": "https://dc.lft.to/lastmile_qr_scan"}, "type": "electric_scooter", "lat": 38.917019833333335, "is_disabled": 0, "lon": -77.0317825, "is_reserved": 0}, {"name": "3f413ecf0c9d777a99d459994292a99a", "fusion_lat": 0.0, "fusion_lon": 0.0, "bike_id": "3f413ecf0c9d777a99d459994292a99a", "rental_uris": {"ios": "https://dc.lft.to/lastmile_qr_scan", "android": "https://dc.lft.to/lastmile_qr_scan"}, "type": "electric_scooter", "lat": 38.9136325, "is_disabled": 0, "lon": -77.041752, "is_reserved": 0}, {"name": "3d6048d898568ec46447903029ed5675", "fusion_lat": 0.0, "fusion_lon": 0.0, "bike_id": "3d6048d898568ec46447903029ed5675", "rental_uris": {"ios": "https://dc.lft.to/lastmile_qr_scan", "android": "https://dc.lft.to/lastmile_qr_scan"}, "type": "electric_scooter", "lat": 38.90586, "is_disabled": 0, "lon": -77.021913, "is_reserved": 0}, {"name": "e5d4b1d7e13a1aa30cd41d1c53b37589", "fusion_lat": 0.0, "fusion_lon": 0.0, "bike_id": "e5d4b1d7e13a1aa30cd41d1c53b37589", "rental_uris": {"ios": "https://dc.lft.to/lastmile_qr_scan", "android": "https://dc.lft.to/lastmile_qr_scan"}, "type": "electric_scooter", "lat": 38.9223065, "is_disabled": 0, "lon": -76.9753195, "is_reserved": 0}, {"name": "06a20ae3ad7ef465f8e2db838bf7c261", "fusion_lat": 0.0, "fusion_lon": 0.0, "bike_id": "06a20ae3ad7ef465f8e2db838bf7c261", "rental_uris": {"ios": "https://dc.lft.to/lastmile_qr_scan", "android": "https://dc.lft.to/lastmile_qr_scan"}, "type": "electric_scooter", "lat": 38.90043033333333, "is_disabled": 0, "lon": -77.04405233333334, "is_reserved": 0}, {"name": "1f293039ad8233e8066bacf4d8bdafe1", "fusion_lat": 0.0, "fusion_lon": 0.0, "bike_id": "1f293039ad8233e8066bacf4d8bdafe1", "rental_uris": {"ios": "https://dc.lft.to/lastmile_qr_scan", "android": "https://dc.lft.to/lastmile_qr_scan"}, "type": "electric_scooter", "lat": 38.90367233333333, "is_disabled": 0, "lon": -77.01188416666666, "is_reserved": 0}, {"name": "437f09dc52a0612d14c5b7da6cfa28ca", "fusion_lat": 0.0, "fusion_lon": 0.0, "bike_id": "437f09dc52a0612d14c5b7da6cfa28ca", "rental_uris": {"ios": "https://dc.lft.to/lastmile_qr_scan", "android": "https://dc.lft.to/lastmile_qr_scan"}, "type": "electric_bike", "lat": 38.89902683333333, "is_disabled": 0, "lon": -76.9864025, "is_reserved": 0}, {"name": "a5a130ba414085f32a4fa855b3485329", "fusion_lat": 0.0, "fusion_lon": 0.0, "bike_id": "a5a130ba414085f32a4fa855b3485329", "rental_uris": {"ios": "https://dc.lft.to/lastmile_qr_scan", "android": "https://dc.lft.to/lastmile_qr_scan"}, "type": "electric_scooter", "lat": 38.90135383333333, "is_disabled": 0, "lon": -77.02877616666666, "is_reserved": 0}, {"name": "9df1c1647792ef7841d63bbe91e6a76f", "fusion_lat": 0.0, "fusion_lon": 0.0, "bike_id": "9df1c1647792ef7841d63bbe91e6a76f", "rental_uris": {"ios": "https://dc.lft.to/lastmile_qr_scan", "android": "https://dc.lft.to/lastmile_qr_scan"}, "type": "electric_scooter", "lat": 38.96213983333333, "is_disabled": 0, "lon": -77.02805583333334, "is_reserved": 0}, {"name": "d49a202e65c687504759098256dae126", "fusion_lat": 0.0, "fusion_lon": 0.0, "bike_id": "d49a202e65c687504759098256dae126", "rental_uris": {"ios": "https://dc.lft.to/lastmile_qr_scan", "android": "https://dc.lft.to/lastmile_qr_scan"}, "type": "electric_scooter", "lat": 38.930452833333334, "is_disabled": 0, "lon": -77.03634366666667, "is_reserved": 0}, {"name": "146f82dde9226c98aef046ad91d720e6", "fusion_lat": 0.0, "fusion_lon": 0.0, "bike_id": "146f82dde9226c98aef046ad91d720e6", "rental_uris": {"ios": "https://dc.lft.to/lastmile_qr_scan", "android": "https://dc.lft.to/lastmile_qr_scan"}, "type": "electric_scooter", "lat": 38.90128516666667, "is_disabled": 0, "lon": -77.01637016666666, "is_reserved": 0}, {"name": "b4aeea56443521ee40ba9b499bf882b7", "fusion_lat": 0.0, "fusion_lon": 0.0, "bike_id": "b4aeea56443521ee40ba9b499bf882b7", "rental_uris": {"ios": "https://dc.lft.to/lastmile_qr_scan", "android": "https://dc.lft.to/lastmile_qr_scan"}, "type": "electric_scooter", "lat": 38.94287166666667, "is_disabled": 0, "lon": -77.03631833333333, "is_reserved": 0}, {"name": "d84d5d8af9f4c6caab7cc09a01f3c89a", "fusion_lat": 0.0, "fusion_lon": 0.0, "bike_id": "d84d5d8af9f4c6caab7cc09a01f3c89a", "rental_uris": {"ios": "https://dc.lft.to/lastmile_qr_scan", "android": "https://dc.lft.to/lastmile_qr_scan"}, "type": "electric_scooter", "lat": 38.858117666666665, "is_disabled": 0, "lon": -76.98962716666666, "is_reserved": 0}, {"name": "e4ccee16e725c120d5155ff02db0968c", "fusion_lat": 0.0, "fusion_lon": 0.0, "bike_id": "e4ccee16e725c120d5155ff02db0968c", "rental_uris": {"ios": "https://dc.lft.to/lastmile_qr_scan", "android": "https://dc.lft.to/lastmile_qr_scan"}, "type": "electric_scooter", "lat": 38.94978283333333, "is_disabled": 0, "lon": -77.02703666666666, "is_reserved": 0}, {"name": "c1286c75ab7cdea556826b2ef1f38508", "fusion_lat": 0.0, "fusion_lon": 0.0, "bike_id": "c1286c75ab7cdea556826b2ef1f38508", "rental_uris": {"ios": "https://dc.lft.to/lastmile_qr_scan", "android": "https://dc.lft.to/lastmile_qr_scan"}, "type": "electric_scooter", "lat": 38.87394783333333, "is_disabled": 0, "lon": -77.00149266666666, "is_reserved": 0}, {"name": "0f50fd6b95af4989222ef39f9f578c2a", "fusion_lat": 0.0, "fusion_lon": 0.0, "bike_id": "0f50fd6b95af4989222ef39f9f578c2a", "rental_uris": {"ios": "https://dc.lft.to/lastmile_qr_scan", "android": "https://dc.lft.to/lastmile_qr_scan"}, "type": "electric_scooter", "lat": 38.93758916666667, "is_disabled": 0, "lon": -77.02481483333334, "is_reserved": 0}, {"name": "b2c8f73e7d13da7384fe5c3b60176b30", "fusion_lat": 0.0, "fusion_lon": 0.0, "bike_id": "b2c8f73e7d13da7384fe5c3b60176b30", "rental_uris": {"ios": "https://dc.lft.to/lastmile_qr_scan", "android": "https://dc.lft.to/lastmile_qr_scan"}, "type": "electric_scooter", "lat": 38.847986166666665, "is_disabled": 0, "lon": -76.967124, "is_reserved": 0}, {"name": "df6c00663731e04f0b150b3458fb854b", "fusion_lat": 0.0, "fusion_lon": 0.0, "bike_id": "df6c00663731e04f0b150b3458fb854b", "rental_uris": {"ios": "https://dc.lft.to/lastmile_qr_scan", "android": "https://dc.lft.to/lastmile_qr_scan"}, "type": "electric_scooter", "lat": 38.938716666666664, "is_disabled": 0, "lon": -77.024639, "is_reserved": 0}, {"name": "7e5908f22b27f97f06a9b636f096b507", "fusion_lat": 0.0, "fusion_lon": 0.0, "bike_id": "7e5908f22b27f97f06a9b636f096b507", "rental_uris": {"ios": "https://dc.lft.to/lastmile_qr_scan", "android": "https://dc.lft.to/lastmile_qr_scan"}, "type": "electric_scooter", "lat": 38.89734283333333, "is_disabled": 0, "lon": -77.046969, "is_reserved": 0}, {"name": "8d1cdaf56cf3e952857a1cdce952a989", "fusion_lat": 0.0, "fusion_lon": 0.0, "bike_id": "8d1cdaf56cf3e952857a1cdce952a989", "rental_uris": {"ios": "https://dc.lft.to/lastmile_qr_scan", "android": "https://dc.lft.to/lastmile_qr_scan"}, "type": "electric_scooter", "lat": 38.912633166666666, "is_disabled": 0, "lon": -77.04158066666666, "is_reserved": 0}, {"name": "61a3912fcc9c5efb98ccbef7096a931a", "fusion_lat": 0.0, "fusion_lon": 0.0, "bike_id": "61a3912fcc9c5efb98ccbef7096a931a", "rental_uris": {"ios": "https://dc.lft.to/lastmile_qr_scan", "android": "https://dc.lft.to/lastmile_qr_scan"}, "type": "electric_scooter", "lat": 38.903603333333336, "is_disabled": 0, "lon": -77.062665, "is_reserved": 0}, {"name": "b291a5b5c72b19595d8901bcf7fad463", "fusion_lat": 0.0, "fusion_lon": 0.0, "bike_id": "b291a5b5c72b19595d8901bcf7fad463", "rental_uris": {"ios": "https://dc.lft.to/lastmile_qr_scan", "android": "https://dc.lft.to/lastmile_qr_scan"}, "type": "electric_scooter", "lat": 38.90837283333333, "is_disabled": 0, "lon": -76.99699216666667, "is_reserved": 0}, {"name": "9a6bc4a660caa3c487b0a17d82f405eb", "fusion_lat": 0.0, "fusion_lon": 0.0, "bike_id": "9a6bc4a660caa3c487b0a17d82f405eb", "rental_uris": {"ios": "https://dc.lft.to/lastmile_qr_scan", "android": "https://dc.lft.to/lastmile_qr_scan"}, "type": "electric_bike", "lat": 38.845153, "is_disabled": 0, "lon": -77.07795516666667, "is_reserved": 0}, {"name": "426c2af3dfbcbed2eea1ab6a8990963e", "fusion_lat": 0.0, "fusion_lon": 0.0, "bike_id": "426c2af3dfbcbed2eea1ab6a8990963e", "rental_uris": {"ios": "https://dc.lft.to/lastmile_qr_scan", "android": "https://dc.lft.to/lastmile_qr_scan"}, "type": "electric_scooter", "lat": 38.8960885, "is_disabled": 0, "lon": -77.027991, "is_reserved": 0}, {"name": "999c2597d692325646403a8e64f6e5fd", "fusion_lat": 0.0, "fusion_lon": 0.0, "bike_id": "999c2597d692325646403a8e64f6e5fd", "rental_uris": {"ios": "https://dc.lft.to/lastmile_qr_scan", "android": "https://dc.lft.to/lastmile_qr_scan"}, "type": "electric_scooter", "lat": 38.907870833333334, "is_disabled": 0, "lon": -77.01109133333334, "is_reserved": 0}, {"name": "cb94a15d0b84f29d7bc8bdc48a03cf6c", "fusion_lat": 0.0, "fusion_lon": 0.0, "bike_id": "cb94a15d0b84f29d7bc8bdc48a03cf6c", "rental_uris": {"ios": "https://dc.lft.to/lastmile_qr_scan", "android": "https://dc.lft.to/lastmile_qr_scan"}, "type": "electric_scooter", "lat": 38.86471083333333, "is_disabled": 0, "lon": -76.98233416666666, "is_reserved": 0}, {"name": "8476ac4add60a6adb0dc0404b283f27b", "fusion_lat": 0.0, "fusion_lon": 0.0, "bike_id": "8476ac4add60a6adb0dc0404b283f27b", "rental_uris": {"ios": "https://dc.lft.to/lastmile_qr_scan", "android": "https://dc.lft.to/lastmile_qr_scan"}, "type": "electric_scooter", "lat": 38.916794833333334, "is_disabled": 0, "lon": -77.02968183333333, "is_reserved": 0}, {"name": "41f577364d31e8e441a48ca81f9d5f8b", "fusion_lat": 0.0, "fusion_lon": 0.0, "bike_id": "41f577364d31e8e441a48ca81f9d5f8b", "rental_uris": {"ios": "https://dc.lft.to/lastmile_qr_scan", "android": "https://dc.lft.to/lastmile_qr_scan"}, "type": "electric_scooter", "lat": 38.9060895, "is_disabled": 0, "lon": -77.03946316666666, "is_reserved": 0}, {"name": "9f965b61517b495f28a45bced59c4280", "fusion_lat": 0.0, "fusion_lon": 0.0, "bike_id": "9f965b61517b495f28a45bced59c4280", "rental_uris": {"ios": "https://dc.lft.to/lastmile_qr_scan", "android": "https://dc.lft.to/lastmile_qr_scan"}, "type": "electric_scooter", "lat": 38.90070016666667, "is_disabled": 0, "lon": -77.04629333333334, "is_reserved": 0}, {"name": "26c65828ada0bca79564fb34506164d7", "fusion_lat": 0.0, "fusion_lon": 0.0, "bike_id": "26c65828ada0bca79564fb34506164d7", "rental_uris": {"ios": "https://dc.lft.to/lastmile_qr_scan", "android": "https://dc.lft.to/lastmile_qr_scan"}, "type": "electric_scooter", "lat": 38.9247265, "is_disabled": 0, "lon": -77.0298385, "is_reserved": 0}, {"name": "9b6a348d90a3c996c53641f5715ad499", "fusion_lat": 0.0, "fusion_lon": 0.0, "bike_id": "9b6a348d90a3c996c53641f5715ad499", "rental_uris": {"ios": "https://dc.lft.to/lastmile_qr_scan", "android": "https://dc.lft.to/lastmile_qr_scan"}, "type": "electric_scooter", "lat": 38.90137083333333, "is_disabled": 0, "lon": -77.04153583333333, "is_reserved": 0}, {"name": "cce8803deec0e8f05f2579c0bcd2d247", "fusion_lat": 0.0, "fusion_lon": 0.0, "bike_id": "cce8803deec0e8f05f2579c0bcd2d247", "rental_uris": {"ios": "https://dc.lft.to/lastmile_qr_scan", "android": "https://dc.lft.to/lastmile_qr_scan"}, "type": "electric_scooter", "lat": 38.916858833333336, "is_disabled": 0, "lon": -77.02813533333334, "is_reserved": 0}, {"name": "6a5aae2fde53853cf027920e7faa8b82", "fusion_lat": 0.0, "fusion_lon": 0.0, "bike_id": "6a5aae2fde53853cf027920e7faa8b82", "rental_uris": {"ios": "https://dc.lft.to/lastmile_qr_scan", "android": "https://dc.lft.to/lastmile_qr_scan"}, "type": "electric_scooter", "lat": 38.92050116666667, "is_disabled": 0, "lon": -77.02611783333333, "is_reserved": 0}, {"name": "51aa755a1100305d5f8512aa1c6a45f0", "fusion_lat": 0.0, "fusion_lon": 0.0, "bike_id": "51aa755a1100305d5f8512aa1c6a45f0", "rental_uris": {"ios": "https://dc.lft.to/lastmile_qr_scan", "android": "https://dc.lft.to/lastmile_qr_scan"}, "type": "electric_bike", "lat": 38.88472266666667, "is_disabled": 0, "lon": -77.0969305, "is_reserved": 0}, {"name": "15beccb8b846dcf229bffc26ddbc0c92", "fusion_lat": 0.0, "fusion_lon": 0.0, "bike_id": "15beccb8b846dcf229bffc26ddbc0c92", "rental_uris": {"ios": "https://dc.lft.to/lastmile_qr_scan", "android": "https://dc.lft.to/lastmile_qr_scan"}, "type": "electric_scooter", "lat": 38.90353966666667, "is_disabled": 0, "lon": -77.02998233333334, "is_reserved": 0}, {"name": "3815b28403e806cd371f89c684485f9e", "fusion_lat": 0.0, "fusion_lon": 0.0, "bike_id": "3815b28403e806cd371f89c684485f9e", "rental_uris": {"ios": "https://dc.lft.to/lastmile_qr_scan", "android": "https://dc.lft.to/lastmile_qr_scan"}, "type": "electric_scooter", "lat": 38.88738083333333, "is_disabled": 0, "lon": -77.022119, "is_reserved": 0}, {"name": "1f662f9235e62e113f3d201770145087", "fusion_lat": 0.0, "fusion_lon": 0.0, "bike_id": "1f662f9235e62e113f3d201770145087", "rental_uris": {"ios": "https://dc.lft.to/lastmile_qr_scan", "android": "https://dc.lft.to/lastmile_qr_scan"}, "type": "electric_scooter", "lat": 38.91213183333333, "is_disabled": 0, "lon": -77.0295825, "is_reserved": 0}, {"name": "d5a3678e665103c43e2a1a3c1913bc32", "fusion_lat": 0.0, "fusion_lon": 0.0, "bike_id": "d5a3678e665103c43e2a1a3c1913bc32", "rental_uris": {"ios": "https://dc.lft.to/lastmile_qr_scan", "android": "https://dc.lft.to/lastmile_qr_scan"}, "type": "electric_scooter", "lat": 38.898524, "is_disabled": 0, "lon": -76.93152466666666, "is_reserved": 0}, {"name": "3ceb4f8039745c3710f785a2907624b8", "fusion_lat": 0.0, "fusion_lon": 0.0, "bike_id": "3ceb4f8039745c3710f785a2907624b8", "rental_uris": {"ios": "https://dc.lft.to/lastmile_qr_scan", "android": "https://dc.lft.to/lastmile_qr_scan"}, "type": "electric_scooter", "lat": 38.89803466666667, "is_disabled": 0, "lon": -77.02926116666667, "is_reserved": 0}, {"name": "3477cdd3895cc6cd5d408f2dc19da242", "fusion_lat": 0.0, "fusion_lon": 0.0, "bike_id": "3477cdd3895cc6cd5d408f2dc19da242", "rental_uris": {"ios": "https://dc.lft.to/lastmile_qr_scan", "android": "https://dc.lft.to/lastmile_qr_scan"}, "type": "electric_scooter", "lat": 38.92248983333333, "is_disabled": 0, "lon": -77.0412925, "is_reserved": 0}, {"name": "3c62f3c7f33b70a44dda4f1c84d3a097", "fusion_lat": 0.0, "fusion_lon": 0.0, "bike_id": "3c62f3c7f33b70a44dda4f1c84d3a097", "rental_uris": {"ios": "https://dc.lft.to/lastmile_qr_scan", "android": "https://dc.lft.to/lastmile_qr_scan"}, "type": "electric_scooter", "lat": 38.867144833333334, "is_disabled": 0, "lon": -76.98731216666667, "is_reserved": 0}, {"name": "ecd8600001cfc6bbc00e42a8eada382f", "fusion_lat": 0.0, "fusion_lon": 0.0, "bike_id": "ecd8600001cfc6bbc00e42a8eada382f", "rental_uris": {"ios": "https://dc.lft.to/lastmile_qr_scan", "android": "https://dc.lft.to/lastmile_qr_scan"}, "type": "electric_scooter", "lat": 38.938798, "is_disabled": 0, "lon": -77.02505033333334, "is_reserved": 0}, {"name": "9252ee11c9859085e445ee57363fa760", "fusion_lat": 0.0, "fusion_lon": 0.0, "bike_id": "9252ee11c9859085e445ee57363fa760", "rental_uris": {"ios": "https://dc.lft.to/lastmile_qr_scan", "android": "https://dc.lft.to/lastmile_qr_scan"}, "type": "electric_scooter", "lat": 38.916487000000004, "is_disabled": 0, "lon": -77.0224315, "is_reserved": 0}, {"name": "80da630c35f1272d4d78ab635b558754", "fusion_lat": 0.0, "fusion_lon": 0.0, "bike_id": "80da630c35f1272d4d78ab635b558754", "rental_uris": {"ios": "https://dc.lft.to/lastmile_qr_scan", "android": "https://dc.lft.to/lastmile_qr_scan"}, "type": "electric_scooter", "lat": 38.89314733333333, "is_disabled": 0, "lon": -77.050203, "is_reserved": 0}, {"name": "a8080c4c1c4504a29b48f08c91e02e56", "fusion_lat": 0.0, "fusion_lon": 0.0, "bike_id": "a8080c4c1c4504a29b48f08c91e02e56", "rental_uris": {"ios": "https://dc.lft.to/lastmile_qr_scan", "android": "https://dc.lft.to/lastmile_qr_scan"}, "type": "electric_scooter", "lat": 38.8717155, "is_disabled": 0, "lon": -77.0062595, "is_reserved": 0}, {"name": "de1d26d2d19ab087da1204e55788a6c1", "fusion_lat": 0.0, "fusion_lon": 0.0, "bike_id": "de1d26d2d19ab087da1204e55788a6c1", "rental_uris": {"ios": "https://dc.lft.to/lastmile_qr_scan", "android": "https://dc.lft.to/lastmile_qr_scan"}, "type": "electric_scooter", "lat": 38.8669865, "is_disabled": 0, "lon": -76.987128, "is_reserved": 0}, {"name": "3c92b0f6092127ca287b0a87833a6e63", "fusion_lat": 0.0, "fusion_lon": 0.0, "bike_id": "3c92b0f6092127ca287b0a87833a6e63", "rental_uris": {"ios": "https://dc.lft.to/lastmile_qr_scan", "android": "https://dc.lft.to/lastmile_qr_scan"}, "type": "electric_bike", "lat": 38.905178666666664, "is_disabled": 0, "lon": -77.070346, "is_reserved": 0}, {"name": "c2b3007766dc25db158e57af14c9cd3c", "fusion_lat": 0.0, "fusion_lon": 0.0, "bike_id": "c2b3007766dc25db158e57af14c9cd3c", "rental_uris": {"ios": "https://dc.lft.to/lastmile_qr_scan", "android": "https://dc.lft.to/lastmile_qr_scan"}, "type": "electric_scooter", "lat": 38.91994716666667, "is_disabled": 0, "lon": -77.03311633333334, "is_reserved": 0}, {"name": "28f541fade90b69e9bc360f69b7925b9", "fusion_lat": 0.0, "fusion_lon": 0.0, "bike_id": "28f541fade90b69e9bc360f69b7925b9", "rental_uris": {"ios": "https://dc.lft.to/lastmile_qr_scan", "android": "https://dc.lft.to/lastmile_qr_scan"}, "type": "electric_scooter", "lat": 38.95658666666667, "is_disabled": 0, "lon": -77.08371466666667, "is_reserved": 0}, {"name": "a93c2884c8f29b4d76293c6e30294322", "fusion_lat": 0.0, "fusion_lon": 0.0, "bike_id": "a93c2884c8f29b4d76293c6e30294322", "rental_uris": {"ios": "https://dc.lft.to/lastmile_qr_scan", "android": "https://dc.lft.to/lastmile_qr_scan"}, "type": "electric_scooter", "lat": 38.91678816666666, "is_disabled": 0, "lon": -77.03685833333333, "is_reserved": 0}, {"name": "31d9a24dd4f49641735afd91c13d3359", "fusion_lat": 0.0, "fusion_lon": 0.0, "bike_id": "31d9a24dd4f49641735afd91c13d3359", "rental_uris": {"ios": "https://dc.lft.to/lastmile_qr_scan", "android": "https://dc.lft.to/lastmile_qr_scan"}, "type": "electric_scooter", "lat": 38.92196533333333, "is_disabled": 0, "lon": -77.040133, "is_reserved": 0}, {"name": "f530896c3e785b7a8d2cbbd1f863d9c1", "fusion_lat": 0.0, "fusion_lon": 0.0, "bike_id": "f530896c3e785b7a8d2cbbd1f863d9c1", "rental_uris": {"ios": "https://dc.lft.to/lastmile_qr_scan", "android": "https://dc.lft.to/lastmile_qr_scan"}, "type": "electric_scooter", "lat": 38.91621116666666, "is_disabled": 0, "lon": -77.02485216666666, "is_reserved": 0}, {"name": "198061d585f799fc704c4182ec00df86", "fusion_lat": 0.0, "fusion_lon": 0.0, "bike_id": "198061d585f799fc704c4182ec00df86", "rental_uris": {"ios": "https://dc.lft.to/lastmile_qr_scan", "android": "https://dc.lft.to/lastmile_qr_scan"}, "type": "electric_scooter", "lat": 38.93066916666667, "is_disabled": 0, "lon": -77.03815516666667, "is_reserved": 0}, {"name": "65de6eb43042dc4509fb5f06f7f1e11c", "fusion_lat": 0.0, "fusion_lon": 0.0, "bike_id": "65de6eb43042dc4509fb5f06f7f1e11c", "rental_uris": {"ios": "https://dc.lft.to/lastmile_qr_scan", "android": "https://dc.lft.to/lastmile_qr_scan"}, "type": "electric_scooter", "lat": 38.885009333333336, "is_disabled": 0, "lon": -76.996542, "is_reserved": 0}, {"name": "d037fdca1c28a659a439c36e16e391da", "fusion_lat": 0.0, "fusion_lon": 0.0, "bike_id": "d037fdca1c28a659a439c36e16e391da", "rental_uris": {"ios": "https://dc.lft.to/lastmile_qr_scan", "android": "https://dc.lft.to/lastmile_qr_scan"}, "type": "electric_scooter", "lat": 38.93149716666667, "is_disabled": 0, "lon": -77.03607666666667, "is_reserved": 0}, {"name": "52ec0436b151c6c81d5fcbc581763391", "fusion_lat": 0.0, "fusion_lon": 0.0, "bike_id": "52ec0436b151c6c81d5fcbc581763391", "rental_uris": {"ios": "https://dc.lft.to/lastmile_qr_scan", "android": "https://dc.lft.to/lastmile_qr_scan"}, "type": "electric_scooter", "lat": 38.905759333333336, "is_disabled": 0, "lon": -77.00725933333334, "is_reserved": 0}, {"name": "90714b0022744658849050d661ff9a60", "fusion_lat": 0.0, "fusion_lon": 0.0, "bike_id": "90714b0022744658849050d661ff9a60", "rental_uris": {"ios": "https://dc.lft.to/lastmile_qr_scan", "android": "https://dc.lft.to/lastmile_qr_scan"}, "type": "electric_scooter", "lat": 38.902501666666666, "is_disabled": 0, "lon": -77.03857283333333, "is_reserved": 0}, {"name": "c43196cf5104c9fa00911e2ac5c54e4c", "fusion_lat": 0.0, "fusion_lon": 0.0, "bike_id": "c43196cf5104c9fa00911e2ac5c54e4c", "rental_uris": {"ios": "https://dc.lft.to/lastmile_qr_scan", "android": "https://dc.lft.to/lastmile_qr_scan"}, "type": "electric_scooter", "lat": 38.919919666666665, "is_disabled": 0, "lon": -77.037859, "is_reserved": 0}, {"name": "f70ec26e144df39554659a3e044597f7", "fusion_lat": 0.0, "fusion_lon": 0.0, "bike_id": "f70ec26e144df39554659a3e044597f7", "rental_uris": {"ios": "https://dc.lft.to/lastmile_qr_scan", "android": "https://dc.lft.to/lastmile_qr_scan"}, "type": "electric_scooter", "lat": 38.92258966666667, "is_disabled": 0, "lon": -77.035206, "is_reserved": 0}, {"name": "fd5753578bffbcb1c4929c820838af01", "fusion_lat": 0.0, "fusion_lon": 0.0, "bike_id": "fd5753578bffbcb1c4929c820838af01", "rental_uris": {"ios": "https://dc.lft.to/lastmile_qr_scan", "android": "https://dc.lft.to/lastmile_qr_scan"}, "type": "electric_bike", "lat": 38.850684, "is_disabled": 0, "lon": -76.97331166666666, "is_reserved": 0}, {"name": "a936143ee3799cbc4d7ee37c1a567e8d", "fusion_lat": 0.0, "fusion_lon": 0.0, "bike_id": "a936143ee3799cbc4d7ee37c1a567e8d", "rental_uris": {"ios": "https://dc.lft.to/lastmile_qr_scan", "android": "https://dc.lft.to/lastmile_qr_scan"}, "type": "electric_scooter", "lat": 38.95631633333333, "is_disabled": 0, "lon": -77.03290633333333, "is_reserved": 0}, {"name": "8e8588895d3058e1dba38a496b957f1e", "fusion_lat": 0.0, "fusion_lon": 0.0, "bike_id": "8e8588895d3058e1dba38a496b957f1e", "rental_uris": {"ios": "https://dc.lft.to/lastmile_qr_scan", "android": "https://dc.lft.to/lastmile_qr_scan"}, "type": "electric_scooter", "lat": 38.897826333333335, "is_disabled": 0, "lon": -77.03949383333334, "is_reserved": 0}, {"name": "a8d23d153aeb9fdd73b34b345f71c517", "fusion_lat": 0.0, "fusion_lon": 0.0, "bike_id": "a8d23d153aeb9fdd73b34b345f71c517", "rental_uris": {"ios": "https://dc.lft.to/lastmile_qr_scan", "android": "https://dc.lft.to/lastmile_qr_scan"}, "type": "electric_scooter", "lat": 38.93253966666666, "is_disabled": 0, "lon": -77.02728616666667, "is_reserved": 0}, {"name": "381ab8b3d16967cfbfed7573ef3854cb", "fusion_lat": 0.0, "fusion_lon": 0.0, "bike_id": "381ab8b3d16967cfbfed7573ef3854cb", "rental_uris": {"ios": "https://dc.lft.to/lastmile_qr_scan", "android": "https://dc.lft.to/lastmile_qr_scan"}, "type": "electric_scooter", "lat": 38.89992866666667, "is_disabled": 0, "lon": -77.0150255, "is_reserved": 0}, {"name": "599ec3d2a7a595bcd6210ad35e02bcb0", "fusion_lat": 0.0, "fusion_lon": 0.0, "bike_id": "599ec3d2a7a595bcd6210ad35e02bcb0", "rental_uris": {"ios": "https://dc.lft.to/lastmile_qr_scan", "android": "https://dc.lft.to/lastmile_qr_scan"}, "type": "electric_bike", "lat": 38.881664, "is_disabled": 0, "lon": -77.11507933333333, "is_reserved": 0}, {"name": "f762237dde1f5f4ee6ab2dd929ceece3", "fusion_lat": 0.0, "fusion_lon": 0.0, "bike_id": "f762237dde1f5f4ee6ab2dd929ceece3", "rental_uris": {"ios": "https://dc.lft.to/lastmile_qr_scan", "android": "https://dc.lft.to/lastmile_qr_scan"}, "type": "electric_scooter", "lat": 38.90960716666667, "is_disabled": 0, "lon": -77.03236233333334, "is_reserved": 0}, {"name": "76d7942b636f7375e08e79e3f3c219dd", "fusion_lat": 0.0, "fusion_lon": 0.0, "bike_id": "76d7942b636f7375e08e79e3f3c219dd", "rental_uris": {"ios": "https://dc.lft.to/lastmile_qr_scan", "android": "https://dc.lft.to/lastmile_qr_scan"}, "type": "electric_scooter", "lat": 38.893536, "is_disabled": 0, "lon": -76.98469733333333, "is_reserved": 0}, {"name": "5573b5a3092f138c633a2c75176aa302", "fusion_lat": 0.0, "fusion_lon": 0.0, "bike_id": "5573b5a3092f138c633a2c75176aa302", "rental_uris": {"ios": "https://dc.lft.to/lastmile_qr_scan", "android": "https://dc.lft.to/lastmile_qr_scan"}, "type": "electric_scooter", "lat": 38.884263, "is_disabled": 0, "lon": -77.02794016666667, "is_reserved": 0}, {"name": "02b4d2706b8cf94a7c45bd4a95d32cee", "fusion_lat": 0.0, "fusion_lon": 0.0, "bike_id": "02b4d2706b8cf94a7c45bd4a95d32cee", "rental_uris": {"ios": "https://dc.lft.to/lastmile_qr_scan", "android": "https://dc.lft.to/lastmile_qr_scan"}, "type": "electric_scooter", "lat": 38.90137083333333, "is_disabled": 0, "lon": -77.0398745, "is_reserved": 0}, {"name": "4c9054f6a47d58d0f96f589c0be32ba3", "fusion_lat": 0.0, "fusion_lon": 0.0, "bike_id": "4c9054f6a47d58d0f96f589c0be32ba3", "rental_uris": {"ios": "https://dc.lft.to/lastmile_qr_scan", "android": "https://dc.lft.to/lastmile_qr_scan"}, "type": "electric_scooter", "lat": 38.916689, "is_disabled": 0, "lon": -77.04191083333333, "is_reserved": 0}, {"name": "c5871f10b2b087d00daf01e6ffe0aa91", "fusion_lat": 0.0, "fusion_lon": 0.0, "bike_id": "c5871f10b2b087d00daf01e6ffe0aa91", "rental_uris": {"ios": "https://dc.lft.to/lastmile_qr_scan", "android": "https://dc.lft.to/lastmile_qr_scan"}, "type": "electric_scooter", "lat": 38.89971516666667, "is_disabled": 0, "lon": -77.01679533333333, "is_reserved": 0}, {"name": "2c57962dba470896aec521846466cb4e", "fusion_lat": 0.0, "fusion_lon": 0.0, "bike_id": "2c57962dba470896aec521846466cb4e", "rental_uris": {"ios": "https://dc.lft.to/lastmile_qr_scan", "android": "https://dc.lft.to/lastmile_qr_scan"}, "type": "electric_scooter", "lat": 38.911961833333336, "is_disabled": 0, "lon": -77.02954833333334, "is_reserved": 0}, {"name": "1bbf65140b1e2433619807ddfc65cfc2", "fusion_lat": 0.0, "fusion_lon": 0.0, "bike_id": "1bbf65140b1e2433619807ddfc65cfc2", "rental_uris": {"ios": "https://dc.lft.to/lastmile_qr_scan", "android": "https://dc.lft.to/lastmile_qr_scan"}, "type": "electric_scooter", "lat": 38.900128, "is_disabled": 0, "lon": -76.98600816666666, "is_reserved": 0}, {"name": "fe177ef3175ca05bdf5b7371cb8b6818", "fusion_lat": 0.0, "fusion_lon": 0.0, "bike_id": "fe177ef3175ca05bdf5b7371cb8b6818", "rental_uris": {"ios": "https://dc.lft.to/lastmile_qr_scan", "android": "https://dc.lft.to/lastmile_qr_scan"}, "type": "electric_scooter", "lat": 38.905120833333335, "is_disabled": 0, "lon": -77.065309, "is_reserved": 0}, {"name": "b5fa31232d8058240c6899a5cdca69da", "fusion_lat": 0.0, "fusion_lon": 0.0, "bike_id": "b5fa31232d8058240c6899a5cdca69da", "rental_uris": {"ios": "https://dc.lft.to/lastmile_qr_scan", "android": "https://dc.lft.to/lastmile_qr_scan"}, "type": "electric_scooter", "lat": 38.9171745, "is_disabled": 0, "lon": -77.0272175, "is_reserved": 0}, {"name": "4d0fea33d65340b282fb0928d58426ea", "fusion_lat": 0.0, "fusion_lon": 0.0, "bike_id": "4d0fea33d65340b282fb0928d58426ea", "rental_uris": {"ios": "https://dc.lft.to/lastmile_qr_scan", "android": "https://dc.lft.to/lastmile_qr_scan"}, "type": "electric_scooter", "lat": 38.9136865, "is_disabled": 0, "lon": -77.02603733333333, "is_reserved": 0}, {"name": "7b7b55af7e208343437e5c7095c6e23e", "fusion_lat": 0.0, "fusion_lon": 0.0, "bike_id": "7b7b55af7e208343437e5c7095c6e23e", "rental_uris": {"ios": "https://dc.lft.to/lastmile_qr_scan", "android": "https://dc.lft.to/lastmile_qr_scan"}, "type": "electric_scooter", "lat": 38.909506666666665, "is_disabled": 0, "lon": -77.03212133333334, "is_reserved": 0}, {"name": "bb257cccf1ff5fd3f22b896bb88de1c9", "fusion_lat": 0.0, "fusion_lon": 0.0, "bike_id": "bb257cccf1ff5fd3f22b896bb88de1c9", "rental_uris": {"ios": "https://dc.lft.to/lastmile_qr_scan", "android": "https://dc.lft.to/lastmile_qr_scan"}, "type": "electric_scooter", "lat": 38.925802, "is_disabled": 0, "lon": -77.03214533333333, "is_reserved": 0}, {"name": "8635ff268898eff0e1f3c14ac094d659", "fusion_lat": 0.0, "fusion_lon": 0.0, "bike_id": "8635ff268898eff0e1f3c14ac094d659", "rental_uris": {"ios": "https://dc.lft.to/lastmile_qr_scan", "android": "https://dc.lft.to/lastmile_qr_scan"}, "type": "electric_scooter", "lat": 38.898338333333335, "is_disabled": 0, "lon": -77.00921116666666, "is_reserved": 0}, {"name": "d281a74bd7573afe52fb447d6946b9f7", "fusion_lat": 0.0, "fusion_lon": 0.0, "bike_id": "d281a74bd7573afe52fb447d6946b9f7", "rental_uris": {"ios": "https://dc.lft.to/lastmile_qr_scan", "android": "https://dc.lft.to/lastmile_qr_scan"}, "type": "electric_scooter", "lat": 38.935247, "is_disabled": 0, "lon": -77.03262183333334, "is_reserved": 0}, {"name": "7a772cce5940fe32f5c4dbd82efd4750", "fusion_lat": 0.0, "fusion_lon": 0.0, "bike_id": "7a772cce5940fe32f5c4dbd82efd4750", "rental_uris": {"ios": "https://dc.lft.to/lastmile_qr_scan", "android": "https://dc.lft.to/lastmile_qr_scan"}, "type": "electric_scooter", "lat": 38.90060116666667, "is_disabled": 0, "lon": -77.00215066666667, "is_reserved": 0}, {"name": "5155c44a98354185c14da76ca4da8511", "fusion_lat": 0.0, "fusion_lon": 0.0, "bike_id": "5155c44a98354185c14da76ca4da8511", "rental_uris": {"ios": "https://dc.lft.to/lastmile_qr_scan", "android": "https://dc.lft.to/lastmile_qr_scan"}, "type": "electric_scooter", "lat": 38.87117816666667, "is_disabled": 0, "lon": -77.00926933333334, "is_reserved": 0}, {"name": "c5e6a26ff95ae74df7ec14941e97f2f6", "fusion_lat": 0.0, "fusion_lon": 0.0, "bike_id": "c5e6a26ff95ae74df7ec14941e97f2f6", "rental_uris": {"ios": "https://dc.lft.to/lastmile_qr_scan", "android": "https://dc.lft.to/lastmile_qr_scan"}, "type": "electric_scooter", "lat": 38.91196333333333, "is_disabled": 0, "lon": -77.04163183333333, "is_reserved": 0}, {"name": "bd28cacd02c4b2dd993403986b740fd5", "fusion_lat": 0.0, "fusion_lon": 0.0, "bike_id": "bd28cacd02c4b2dd993403986b740fd5", "rental_uris": {"ios": "https://dc.lft.to/lastmile_qr_scan", "android": "https://dc.lft.to/lastmile_qr_scan"}, "type": "electric_scooter", "lat": 38.95638733333333, "is_disabled": 0, "lon": -77.09097666666666, "is_reserved": 0}, {"name": "2e3e843dcd1c7f6168d95fd8634e6243", "fusion_lat": 0.0, "fusion_lon": 0.0, "bike_id": "2e3e843dcd1c7f6168d95fd8634e6243", "rental_uris": {"ios": "https://dc.lft.to/lastmile_qr_scan", "android": "https://dc.lft.to/lastmile_qr_scan"}, "type": "electric_scooter", "lat": 38.921032833333335, "is_disabled": 0, "lon": -77.02194266666666, "is_reserved": 0}, {"name": "fa028b7c38787128f51705a7b21a1ea8", "fusion_lat": 0.0, "fusion_lon": 0.0, "bike_id": "fa028b7c38787128f51705a7b21a1ea8", "rental_uris": {"ios": "https://dc.lft.to/lastmile_qr_scan", "android": "https://dc.lft.to/lastmile_qr_scan"}, "type": "electric_scooter", "lat": 38.86249816666667, "is_disabled": 0, "lon": -76.9953065, "is_reserved": 0}, {"name": "6081b945c0c03f435019f373f7775522", "fusion_lat": 0.0, "fusion_lon": 0.0, "bike_id": "6081b945c0c03f435019f373f7775522", "rental_uris": {"ios": "https://dc.lft.to/lastmile_qr_scan", "android": "https://dc.lft.to/lastmile_qr_scan"}, "type": "electric_scooter", "lat": 38.89459816666667, "is_disabled": 0, "lon": -76.94821866666666, "is_reserved": 0}, {"name": "b56dda9bc8f2d84f4cd6c0ddf46c46fb", "fusion_lat": 0.0, "fusion_lon": 0.0, "bike_id": "b56dda9bc8f2d84f4cd6c0ddf46c46fb", "rental_uris": {"ios": "https://dc.lft.to/lastmile_qr_scan", "android": "https://dc.lft.to/lastmile_qr_scan"}, "type": "electric_scooter", "lat": 38.91273366666667, "is_disabled": 0, "lon": -77.04170666666667, "is_reserved": 0}, {"name": "5d5ff003c3f464fa1644ab55373b1c31", "fusion_lat": 0.0, "fusion_lon": 0.0, "bike_id": "5d5ff003c3f464fa1644ab55373b1c31", "rental_uris": {"ios": "https://dc.lft.to/lastmile_qr_scan", "android": "https://dc.lft.to/lastmile_qr_scan"}, "type": "electric_scooter", "lat": 38.9331855, "is_disabled": 0, "lon": -77.03281916666667, "is_reserved": 0}, {"name": "37de0ce677b9a76a127a0a118d2c8aea", "fusion_lat": 0.0, "fusion_lon": 0.0, "bike_id": "37de0ce677b9a76a127a0a118d2c8aea", "rental_uris": {"ios": "https://dc.lft.to/lastmile_qr_scan", "android": "https://dc.lft.to/lastmile_qr_scan"}, "type": "electric_scooter", "lat": 38.87600183333333, "is_disabled": 0, "lon": -77.005867, "is_reserved": 0}, {"name": "d6a88ca013a577244f9bdf4a3fd5f5fd", "fusion_lat": 0.0, "fusion_lon": 0.0, "bike_id": "d6a88ca013a577244f9bdf4a3fd5f5fd", "rental_uris": {"ios": "https://dc.lft.to/lastmile_qr_scan", "android": "https://dc.lft.to/lastmile_qr_scan"}, "type": "electric_scooter", "lat": 38.934331666666665, "is_disabled": 0, "lon": -77.03447, "is_reserved": 0}, {"name": "22abb389ef9317ff868e0cd4fdf27ddf", "fusion_lat": 0.0, "fusion_lon": 0.0, "bike_id": "22abb389ef9317ff868e0cd4fdf27ddf", "rental_uris": {"ios": "https://dc.lft.to/lastmile_qr_scan", "android": "https://dc.lft.to/lastmile_qr_scan"}, "type": "electric_scooter", "lat": 38.91571166666667, "is_disabled": 0, "lon": -77.0469905, "is_reserved": 0}, {"name": "0c403a53699f9d6eefd1ce2208fb35f8", "fusion_lat": 0.0, "fusion_lon": 0.0, "bike_id": "0c403a53699f9d6eefd1ce2208fb35f8", "rental_uris": {"ios": "https://dc.lft.to/lastmile_qr_scan", "android": "https://dc.lft.to/lastmile_qr_scan"}, "type": "electric_scooter", "lat": 38.91897633333333, "is_disabled": 0, "lon": -77.0175885, "is_reserved": 0}, {"name": "5978b374c8f8f0dfe83ea1b6960b0521", "fusion_lat": 0.0, "fusion_lon": 0.0, "bike_id": "5978b374c8f8f0dfe83ea1b6960b0521", "rental_uris": {"ios": "https://dc.lft.to/lastmile_qr_scan", "android": "https://dc.lft.to/lastmile_qr_scan"}, "type": "electric_scooter", "lat": 38.9181865, "is_disabled": 0, "lon": -77.04180683333334, "is_reserved": 0}, {"name": "1faf38a83cc607e9bf631ca5ad28cc6c", "fusion_lat": 0.0, "fusion_lon": 0.0, "bike_id": "1faf38a83cc607e9bf631ca5ad28cc6c", "rental_uris": {"ios": "https://dc.lft.to/lastmile_qr_scan", "android": "https://dc.lft.to/lastmile_qr_scan"}, "type": "electric_scooter", "lat": 38.905191333333335, "is_disabled": 0, "lon": -77.0170405, "is_reserved": 0}, {"name": "29d8cdb2b046e33cf235e034df8f34c7", "fusion_lat": 0.0, "fusion_lon": 0.0, "bike_id": "29d8cdb2b046e33cf235e034df8f34c7", "rental_uris": {"ios": "https://dc.lft.to/lastmile_qr_scan", "android": "https://dc.lft.to/lastmile_qr_scan"}, "type": "electric_scooter", "lat": 38.936091, "is_disabled": 0, "lon": -77.05863083333334, "is_reserved": 0}, {"name": "f1a04baa8e57b690ba0a4ee8b364e1b2", "fusion_lat": 0.0, "fusion_lon": 0.0, "bike_id": "f1a04baa8e57b690ba0a4ee8b364e1b2", "rental_uris": {"ios": "https://dc.lft.to/lastmile_qr_scan", "android": "https://dc.lft.to/lastmile_qr_scan"}, "type": "electric_bike", "lat": 38.9505745, "is_disabled": 0, "lon": -76.96736683333333, "is_reserved": 0}, {"name": "f88b9fc4ee10bcdfa218ee7fea3a8382", "fusion_lat": 0.0, "fusion_lon": 0.0, "bike_id": "f88b9fc4ee10bcdfa218ee7fea3a8382", "rental_uris": {"ios": "https://dc.lft.to/lastmile_qr_scan", "android": "https://dc.lft.to/lastmile_qr_scan"}, "type": "electric_scooter", "lat": 38.928316, "is_disabled": 0, "lon": -77.03278416666667, "is_reserved": 0}, {"name": "7678e805250ffcf36d3cb13a083d350d", "fusion_lat": 0.0, "fusion_lon": 0.0, "bike_id": "7678e805250ffcf36d3cb13a083d350d", "rental_uris": {"ios": "https://dc.lft.to/lastmile_qr_scan", "android": "https://dc.lft.to/lastmile_qr_scan"}, "type": "electric_scooter", "lat": 38.8781455, "is_disabled": 0, "lon": -77.00851866666666, "is_reserved": 0}, {"name": "a3df5c2ef53d17d7594738d9bc16fb40", "fusion_lat": 0.0, "fusion_lon": 0.0, "bike_id": "a3df5c2ef53d17d7594738d9bc16fb40", "rental_uris": {"ios": "https://dc.lft.to/lastmile_qr_scan", "android": "https://dc.lft.to/lastmile_qr_scan"}, "type": "electric_scooter", "lat": 38.866732, "is_disabled": 0, "lon": -76.9888555, "is_reserved": 0}, {"name": "6c23b4e92531d0bbe2616bdcd7387218", "fusion_lat": 0.0, "fusion_lon": 0.0, "bike_id": "6c23b4e92531d0bbe2616bdcd7387218", "rental_uris": {"ios": "https://dc.lft.to/lastmile_qr_scan", "android": "https://dc.lft.to/lastmile_qr_scan"}, "type": "electric_scooter", "lat": 38.90460183333333, "is_disabled": 0, "lon": -77.0294605, "is_reserved": 0}, {"name": "9083867264d2fa2f705ccf6a4d13719b", "fusion_lat": 0.0, "fusion_lon": 0.0, "bike_id": "9083867264d2fa2f705ccf6a4d13719b", "rental_uris": {"ios": "https://dc.lft.to/lastmile_qr_scan", "android": "https://dc.lft.to/lastmile_qr_scan"}, "type": "electric_scooter", "lat": 38.90126633333333, "is_disabled": 0, "lon": -77.03049383333334, "is_reserved": 0}, {"name": "0640b29ecf63de2f22baec96ccbd024f", "fusion_lat": 0.0, "fusion_lon": 0.0, "bike_id": "0640b29ecf63de2f22baec96ccbd024f", "rental_uris": {"ios": "https://dc.lft.to/lastmile_qr_scan", "android": "https://dc.lft.to/lastmile_qr_scan"}, "type": "electric_bike", "lat": 38.819358333333334, "is_disabled": 0, "lon": -77.00203233333333, "is_reserved": 0}, {"name": "bdb0f9bb193d2d1fca4b0499cff3df33", "fusion_lat": 0.0, "fusion_lon": 0.0, "bike_id": "bdb0f9bb193d2d1fca4b0499cff3df33", "rental_uris": {"ios": "https://dc.lft.to/lastmile_qr_scan", "android": "https://dc.lft.to/lastmile_qr_scan"}, "type": "electric_scooter", "lat": 38.87337183333333, "is_disabled": 0, "lon": -76.9679005, "is_reserved": 0}, {"name": "643d03a767f1bd3e9b375b2ef809758f", "fusion_lat": 0.0, "fusion_lon": 0.0, "bike_id": "643d03a767f1bd3e9b375b2ef809758f", "rental_uris": {"ios": "https://dc.lft.to/lastmile_qr_scan", "android": "https://dc.lft.to/lastmile_qr_scan"}, "type": "electric_bike", "lat": 38.963144, "is_disabled": 0, "lon": -77.0576125, "is_reserved": 0}, {"name": "bd0871be1a60323580e13a84bc5f84b9", "fusion_lat": 0.0, "fusion_lon": 0.0, "bike_id": "bd0871be1a60323580e13a84bc5f84b9", "rental_uris": {"ios": "https://dc.lft.to/lastmile_qr_scan", "android": "https://dc.lft.to/lastmile_qr_scan"}, "type": "electric_bike", "lat": 38.91861883333333, "is_disabled": 0, "lon": -76.96087466666667, "is_reserved": 0}, {"name": "8deabe58fd1af76662901f6200cac2d0", "fusion_lat": 0.0, "fusion_lon": 0.0, "bike_id": "8deabe58fd1af76662901f6200cac2d0", "rental_uris": {"ios": "https://dc.lft.to/lastmile_qr_scan", "android": "https://dc.lft.to/lastmile_qr_scan"}, "type": "electric_scooter", "lat": 38.922481833333336, "is_disabled": 0, "lon": -77.03086216666667, "is_reserved": 0}, {"name": "d2765dd8fca08c0cb48ce98bab917473", "fusion_lat": 0.0, "fusion_lon": 0.0, "bike_id": "d2765dd8fca08c0cb48ce98bab917473", "rental_uris": {"ios": "https://dc.lft.to/lastmile_qr_scan", "android": "https://dc.lft.to/lastmile_qr_scan"}, "type": "electric_bike", "lat": 39.017328, "is_disabled": 0, "lon": -77.0638755, "is_reserved": 0}, {"name": "3ca1d6dc1ac7c19de4cef83c2b146efc", "fusion_lat": 0.0, "fusion_lon": 0.0, "bike_id": "3ca1d6dc1ac7c19de4cef83c2b146efc", "rental_uris": {"ios": "https://dc.lft.to/lastmile_qr_scan", "android": "https://dc.lft.to/lastmile_qr_scan"}, "type": "electric_scooter", "lat": 38.8980155, "is_disabled": 0, "lon": -77.05233666666666, "is_reserved": 0}, {"name": "f514ad700e010037092eed446b7413d7", "fusion_lat": 0.0, "fusion_lon": 0.0, "bike_id": "f514ad700e010037092eed446b7413d7", "rental_uris": {"ios": "https://dc.lft.to/lastmile_qr_scan", "android": "https://dc.lft.to/lastmile_qr_scan"}, "type": "electric_scooter", "lat": 38.90873283333333, "is_disabled": 0, "lon": -77.02689366666667, "is_reserved": 0}, {"name": "97f1283f3480ee8cebb1894810328500", "fusion_lat": 0.0, "fusion_lon": 0.0, "bike_id": "97f1283f3480ee8cebb1894810328500", "rental_uris": {"ios": "https://dc.lft.to/lastmile_qr_scan", "android": "https://dc.lft.to/lastmile_qr_scan"}, "type": "electric_scooter", "lat": 38.924835333333334, "is_disabled": 0, "lon": -77.029173, "is_reserved": 0}, {"name": "b90f719edbe4c8af9ab88db8d0568bc9", "fusion_lat": 0.0, "fusion_lon": 0.0, "bike_id": "b90f719edbe4c8af9ab88db8d0568bc9", "rental_uris": {"ios": "https://dc.lft.to/lastmile_qr_scan", "android": "https://dc.lft.to/lastmile_qr_scan"}, "type": "electric_scooter", "lat": 38.90248016666666, "is_disabled": 0, "lon": -77.01796583333334, "is_reserved": 0}, {"name": "7f56d078d827e3005ff374d9f9d4906f", "fusion_lat": 0.0, "fusion_lon": 0.0, "bike_id": "7f56d078d827e3005ff374d9f9d4906f", "rental_uris": {"ios": "https://dc.lft.to/lastmile_qr_scan", "android": "https://dc.lft.to/lastmile_qr_scan"}, "type": "electric_scooter", "lat": 38.89365183333334, "is_disabled": 0, "lon": -76.98459066666666, "is_reserved": 0}, {"name": "43a1d7ef5cdcfd8d1836b0af8d70a7be", "fusion_lat": 0.0, "fusion_lon": 0.0, "bike_id": "43a1d7ef5cdcfd8d1836b0af8d70a7be", "rental_uris": {"ios": "https://dc.lft.to/lastmile_qr_scan", "android": "https://dc.lft.to/lastmile_qr_scan"}, "type": "electric_scooter", "lat": 38.917625, "is_disabled": 0, "lon": -77.02393416666666, "is_reserved": 0}, {"name": "dc20bd33ba0e2171a9285208c708d62a", "fusion_lat": 0.0, "fusion_lon": 0.0, "bike_id": "dc20bd33ba0e2171a9285208c708d62a", "rental_uris": {"ios": "https://dc.lft.to/lastmile_qr_scan", "android": "https://dc.lft.to/lastmile_qr_scan"}, "type": "electric_scooter", "lat": 38.9274165, "is_disabled": 0, "lon": -77.01203383333333, "is_reserved": 0}, {"name": "bda4b924fc31da6caaf110fba6260839", "fusion_lat": 0.0, "fusion_lon": 0.0, "bike_id": "bda4b924fc31da6caaf110fba6260839", "rental_uris": {"ios": "https://dc.lft.to/lastmile_qr_scan", "android": "https://dc.lft.to/lastmile_qr_scan"}, "type": "electric_scooter", "lat": 38.92760366666667, "is_disabled": 0, "lon": -77.03261183333333, "is_reserved": 0}, {"name": "90d910668a7a54a2e3cb35be41c72d2c", "fusion_lat": 0.0, "fusion_lon": 0.0, "bike_id": "90d910668a7a54a2e3cb35be41c72d2c", "rental_uris": {"ios": "https://dc.lft.to/lastmile_qr_scan", "android": "https://dc.lft.to/lastmile_qr_scan"}, "type": "electric_scooter", "lat": 38.897087666666664, "is_disabled": 0, "lon": -77.00848733333333, "is_reserved": 0}, {"name": "2a86f8d87094cc8b591dbbd577cfe1c9", "fusion_lat": 0.0, "fusion_lon": 0.0, "bike_id": "2a86f8d87094cc8b591dbbd577cfe1c9", "rental_uris": {"ios": "https://dc.lft.to/lastmile_qr_scan", "android": "https://dc.lft.to/lastmile_qr_scan"}, "type": "electric_scooter", "lat": 38.901378, "is_disabled": 0, "lon": -77.03229483333334, "is_reserved": 0}, {"name": "dae38520a4eef17722281e01d12dcb6d", "fusion_lat": 0.0, "fusion_lon": 0.0, "bike_id": "dae38520a4eef17722281e01d12dcb6d", "rental_uris": {"ios": "https://dc.lft.to/lastmile_qr_scan", "android": "https://dc.lft.to/lastmile_qr_scan"}, "type": "electric_scooter", "lat": 38.901576166666665, "is_disabled": 0, "lon": -76.935526, "is_reserved": 0}, {"name": "5514fd14cd6388457a3b7b70612b83cd", "fusion_lat": 0.0, "fusion_lon": 0.0, "bike_id": "5514fd14cd6388457a3b7b70612b83cd", "rental_uris": {"ios": "https://dc.lft.to/lastmile_qr_scan", "android": "https://dc.lft.to/lastmile_qr_scan"}, "type": "electric_bike", "lat": 38.906909, "is_disabled": 0, "lon": -76.95192166666666, "is_reserved": 0}, {"name": "706aedeb8c76982b790ee385ff43b229", "fusion_lat": 0.0, "fusion_lon": 0.0, "bike_id": "706aedeb8c76982b790ee385ff43b229", "rental_uris": {"ios": "https://dc.lft.to/lastmile_qr_scan", "android": "https://dc.lft.to/lastmile_qr_scan"}, "type": "electric_scooter", "lat": 38.925830833333336, "is_disabled": 0, "lon": -77.03212533333334, "is_reserved": 0}, {"name": "3f0046ca3442ea2ce3435f105d326b50", "fusion_lat": 0.0, "fusion_lon": 0.0, "bike_id": "3f0046ca3442ea2ce3435f105d326b50", "rental_uris": {"ios": "https://dc.lft.to/lastmile_qr_scan", "android": "https://dc.lft.to/lastmile_qr_scan"}, "type": "electric_scooter", "lat": 38.916677666666665, "is_disabled": 0, "lon": -77.04187383333333, "is_reserved": 0}, {"name": "12b5bdf3597d00bf7fc4a445fc7dfe16", "fusion_lat": 0.0, "fusion_lon": 0.0, "bike_id": "12b5bdf3597d00bf7fc4a445fc7dfe16", "rental_uris": {"ios": "https://dc.lft.to/lastmile_qr_scan", "android": "https://dc.lft.to/lastmile_qr_scan"}, "type": "electric_scooter", "lat": 38.9141355, "is_disabled": 0, "lon": -77.04180766666667, "is_reserved": 0}, {"name": "4c0887f2bcb7d8e0abeb3379376eb86f", "fusion_lat": 0.0, "fusion_lon": 0.0, "bike_id": "4c0887f2bcb7d8e0abeb3379376eb86f", "rental_uris": {"ios": "https://dc.lft.to/lastmile_qr_scan", "android": "https://dc.lft.to/lastmile_qr_scan"}, "type": "electric_bike", "lat": 38.89684616666667, "is_disabled": 0, "lon": -76.94068516666667, "is_reserved": 0}, {"name": "e6b6d73d3c188440d709937d583f10b3", "fusion_lat": 0.0, "fusion_lon": 0.0, "bike_id": "e6b6d73d3c188440d709937d583f10b3", "rental_uris": {"ios": "https://dc.lft.to/lastmile_qr_scan", "android": "https://dc.lft.to/lastmile_qr_scan"}, "type": "electric_scooter", "lat": 38.90505566666667, "is_disabled": 0, "lon": -77.05786666666667, "is_reserved": 0}, {"name": "7a5c6a9566bbadba08cea15be5d4a659", "fusion_lat": 0.0, "fusion_lon": 0.0, "bike_id": "7a5c6a9566bbadba08cea15be5d4a659", "rental_uris": {"ios": "https://dc.lft.to/lastmile_qr_scan", "android": "https://dc.lft.to/lastmile_qr_scan"}, "type": "electric_scooter", "lat": 38.911167, "is_disabled": 0, "lon": -77.0346905, "is_reserved": 0}, {"name": "1edc5849030339011ab0245d1e942f58", "fusion_lat": 0.0, "fusion_lon": 0.0, "bike_id": "1edc5849030339011ab0245d1e942f58", "rental_uris": {"ios": "https://dc.lft.to/lastmile_qr_scan", "android": "https://dc.lft.to/lastmile_qr_scan"}, "type": "electric_scooter", "lat": 38.844317333333336, "is_disabled": 0, "lon": -76.99780183333333, "is_reserved": 0}, {"name": "1f69e70a8388a685f8ef32fcafbd90bb", "fusion_lat": 0.0, "fusion_lon": 0.0, "bike_id": "1f69e70a8388a685f8ef32fcafbd90bb", "rental_uris": {"ios": "https://dc.lft.to/lastmile_qr_scan", "android": "https://dc.lft.to/lastmile_qr_scan"}, "type": "electric_scooter", "lat": 38.908263166666664, "is_disabled": 0, "lon": -76.9972635, "is_reserved": 0}, {"name": "125cc326358e847c0089c184ad19f881", "fusion_lat": 0.0, "fusion_lon": 0.0, "bike_id": "125cc326358e847c0089c184ad19f881", "rental_uris": {"ios": "https://dc.lft.to/lastmile_qr_scan", "android": "https://dc.lft.to/lastmile_qr_scan"}, "type": "electric_scooter", "lat": 38.858069, "is_disabled": 0, "lon": -76.98653666666667, "is_reserved": 0}, {"name": "fceab17f6eb7652bc50152a51a2e7657", "fusion_lat": 0.0, "fusion_lon": 0.0, "bike_id": "fceab17f6eb7652bc50152a51a2e7657", "rental_uris": {"ios": "https://dc.lft.to/lastmile_qr_scan", "android": "https://dc.lft.to/lastmile_qr_scan"}, "type": "electric_scooter", "lat": 38.89304416666667, "is_disabled": 0, "lon": -77.046572, "is_reserved": 0}, {"name": "04d6a71bb49a740c89aa8b8d2007e678", "fusion_lat": 0.0, "fusion_lon": 0.0, "bike_id": "04d6a71bb49a740c89aa8b8d2007e678", "rental_uris": {"ios": "https://dc.lft.to/lastmile_qr_scan", "android": "https://dc.lft.to/lastmile_qr_scan"}, "type": "electric_scooter", "lat": 38.90971033333334, "is_disabled": 0, "lon": -77.0322525, "is_reserved": 0}, {"name": "7ce18afae77fd6151b19171fe7771f66", "fusion_lat": 0.0, "fusion_lon": 0.0, "bike_id": "7ce18afae77fd6151b19171fe7771f66", "rental_uris": {"ios": "https://dc.lft.to/lastmile_qr_scan", "android": "https://dc.lft.to/lastmile_qr_scan"}, "type": "electric_scooter", "lat": 38.940887333333336, "is_disabled": 0, "lon": -77.02732716666667, "is_reserved": 0}, {"name": "128643aa77ef3ab0d5bf0272c0d76957", "fusion_lat": 0.0, "fusion_lon": 0.0, "bike_id": "128643aa77ef3ab0d5bf0272c0d76957", "rental_uris": {"ios": "https://dc.lft.to/lastmile_qr_scan", "android": "https://dc.lft.to/lastmile_qr_scan"}, "type": "electric_scooter", "lat": 38.8948485, "is_disabled": 0, "lon": -76.9951635, "is_reserved": 0}, {"name": "6c7ba8fe62781a9335d01e5823310d92", "fusion_lat": 0.0, "fusion_lon": 0.0, "bike_id": "6c7ba8fe62781a9335d01e5823310d92", "rental_uris": {"ios": "https://dc.lft.to/lastmile_qr_scan", "android": "https://dc.lft.to/lastmile_qr_scan"}, "type": "electric_scooter", "lat": 38.93131666666667, "is_disabled": 0, "lon": -77.03853916666667, "is_reserved": 0}, {"name": "3822ba58ef35f4b99a872ec0d7347497", "fusion_lat": 0.0, "fusion_lon": 0.0, "bike_id": "3822ba58ef35f4b99a872ec0d7347497", "rental_uris": {"ios": "https://dc.lft.to/lastmile_qr_scan", "android": "https://dc.lft.to/lastmile_qr_scan"}, "type": "electric_scooter", "lat": 38.8837285, "is_disabled": 0, "lon": -76.99521483333334, "is_reserved": 0}, {"name": "49ff4a87d35b86329689da3cb6cbeee8", "fusion_lat": 0.0, "fusion_lon": 0.0, "bike_id": "49ff4a87d35b86329689da3cb6cbeee8", "rental_uris": {"ios": "https://dc.lft.to/lastmile_qr_scan", "android": "https://dc.lft.to/lastmile_qr_scan"}, "type": "electric_scooter", "lat": 38.917548333333336, "is_disabled": 0, "lon": -77.04040133333334, "is_reserved": 0}, {"name": "309e4b627148ae244ec514e7367f8b05", "fusion_lat": 0.0, "fusion_lon": 0.0, "bike_id": "309e4b627148ae244ec514e7367f8b05", "rental_uris": {"ios": "https://dc.lft.to/lastmile_qr_scan", "android": "https://dc.lft.to/lastmile_qr_scan"}, "type": "electric_scooter", "lat": 38.895347, "is_disabled": 0, "lon": -77.02942433333334, "is_reserved": 0}, {"name": "a95c96429f5b8b26eefdb1e9cbc0b1e8", "fusion_lat": 0.0, "fusion_lon": 0.0, "bike_id": "a95c96429f5b8b26eefdb1e9cbc0b1e8", "rental_uris": {"ios": "https://dc.lft.to/lastmile_qr_scan", "android": "https://dc.lft.to/lastmile_qr_scan"}, "type": "electric_bike", "lat": 38.9675805, "is_disabled": 0, "lon": -77.09159383333333, "is_reserved": 0}, {"name": "7cc4f36334f77540e986be7ea1f0c9a1", "fusion_lat": 0.0, "fusion_lon": 0.0, "bike_id": "7cc4f36334f77540e986be7ea1f0c9a1", "rental_uris": {"ios": "https://dc.lft.to/lastmile_qr_scan", "android": "https://dc.lft.to/lastmile_qr_scan"}, "type": "electric_bike", "lat": 38.99842783333333, "is_disabled": 0, "lon": -77.029008, "is_reserved": 0}, {"name": "da866a3b79acc316156d63023db89f5e", "fusion_lat": 0.0, "fusion_lon": 0.0, "bike_id": "da866a3b79acc316156d63023db89f5e", "rental_uris": {"ios": "https://dc.lft.to/lastmile_qr_scan", "android": "https://dc.lft.to/lastmile_qr_scan"}, "type": "electric_scooter", "lat": 38.91373466666667, "is_disabled": 0, "lon": -77.04347083333333, "is_reserved": 0}, {"name": "c3677131192db7cbb7d1f9ed5294b7c0", "fusion_lat": 0.0, "fusion_lon": 0.0, "bike_id": "c3677131192db7cbb7d1f9ed5294b7c0", "rental_uris": {"ios": "https://dc.lft.to/lastmile_qr_scan", "android": "https://dc.lft.to/lastmile_qr_scan"}, "type": "electric_scooter", "lat": 38.905029, "is_disabled": 0, "lon": -76.97947616666667, "is_reserved": 0}, {"name": "7aed95b802ff3bf45406f4ee8e4665d1", "fusion_lat": 0.0, "fusion_lon": 0.0, "bike_id": "7aed95b802ff3bf45406f4ee8e4665d1", "rental_uris": {"ios": "https://dc.lft.to/lastmile_qr_scan", "android": "https://dc.lft.to/lastmile_qr_scan"},