{"data": {"bikes": [{"fusion_lat": 0.0, "name": "047f56edd6a827779653c05e70e4b000", "is_disabled": 0, "rental_uris": {"android": "https://dc.lft.to/lastmile_qr_scan", "ios": "https://dc.lft.to/lastmile_qr_scan"}, "fusion_lon": 0.0, "lat": 38.93458233333333, "bike_id": "047f56edd6a827779653c05e70e4b000", "type": "electric_scooter", "is_reserved": 0, "lon": -77.02245733333334}, {"fusion_lat": 0.0, "name": "3574d3e32a42886478f9ac8468b6f0e6", "is_disabled": 0, "rental_uris": {"android": "https://dc.lft.to/lastmile_qr_scan", "ios": "https://dc.lft.to/lastmile_qr_scan"}, "fusion_lon": 0.0, "lat": 38.911864, "bike_id": "3574d3e32a42886478f9ac8468b6f0e6", "type": "electric_scooter", "is_reserved": 0, "lon": -77.068622}, {"fusion_lat": 0.0, "name": "f8f6a1525310bc497cdd98c9e8f3540d", "is_disabled": 0, "rental_uris": {"android": "https://dc.lft.to/lastmile_qr_scan", "ios": "https://dc.lft.to/lastmile_qr_scan"}, "fusion_lon": 0.0, "lat": 38.904568, "bike_id": "f8f6a1525310bc497cdd98c9e8f3540d", "type": "electric_scooter", "is_reserved": 0, "lon": -76.98259916666666}, {"fusion_lat": 0.0, "name": "188e64e133aa848fb6093a83d4a26845", "is_disabled": 0, "rental_uris": {"android": "https://dc.lft.to/lastmile_qr_scan", "ios": "https://dc.lft.to/lastmile_qr_scan"}, "fusion_lon": 0.0, "lat": 38.893079666666665, "bike_id": "188e64e133aa848fb6093a83d4a26845", "type": "electric_scooter", "is_reserved": 0, "lon": -77.05585066666667}, {"fusion_lat": 0.0, "name": "5046d3fbe95935a0ac300094e19c6079", "is_disabled": 0, "rental_uris": {"android": "https://dc.lft.to/lastmile_qr_scan", "ios": "https://dc.lft.to/lastmile_qr_scan"}, "fusion_lon": 0.0, "lat": 38.91993083333333, "bike_id": "5046d3fbe95935a0ac300094e19c6079", "type": "electric_scooter", "is_reserved": 0, "lon": -77.0328035}, {"fusion_lat": 0.0, "name": "9f303922b9e9c5d4d577bd4679965058", "is_disabled": 0, "rental_uris": {"android": "https://dc.lft.to/lastmile_qr_scan", "ios": "https://dc.lft.to/lastmile_qr_scan"}, "fusion_lon": 0.0, "lat": 38.861374833333336, "bike_id": "9f303922b9e9c5d4d577bd4679965058", "type": "electric_bike", "is_reserved": 0, "lon": -76.971714}, {"fusion_lat": 0.0, "name": "9198b05c0bebbb622d9bbd45ecab4f52", "is_disabled": 0, "rental_uris": {"android": "https://dc.lft.to/lastmile_qr_scan", "ios": "https://dc.lft.to/lastmile_qr_scan"}, "fusion_lon": 0.0, "lat": 38.89906333333333, "bike_id": "9198b05c0bebbb622d9bbd45ecab4f52", "type": "electric_scooter", "is_reserved": 0, "lon": -77.03965433333333}, {"fusion_lat": 0.0, "name": "584429db9fc9c1b2ccf9430dc8c350ea", "is_disabled": 0, "rental_uris": {"android": "https://dc.lft.to/lastmile_qr_scan", "ios": "https://dc.lft.to/lastmile_qr_scan"}, "fusion_lon": 0.0, "lat": 38.949811, "bike_id": "584429db9fc9c1b2ccf9430dc8c350ea", "type": "electric_scooter", "is_reserved": 0, "lon": -77.02696466666667}, {"fusion_lat": 0.0, "name": "b46b161ba07382b6a3fae73f2b5b6d01", "is_disabled": 0, "rental_uris": {"android": "https://dc.lft.to/lastmile_qr_scan", "ios": "https://dc.lft.to/lastmile_qr_scan"}, "fusion_lon": 0.0, "lat": 38.901692833333335, "bike_id": "b46b161ba07382b6a3fae73f2b5b6d01", "type": "electric_scooter", "is_reserved": 0, "lon": -77.02491333333333}, {"fusion_lat": 0.0, "name": "b41aa2dc594dc4726557ad67fb19e7b8", "is_disabled": 0, "rental_uris": {"android": "https://dc.lft.to/lastmile_qr_scan", "ios": "https://dc.lft.to/lastmile_qr_scan"}, "fusion_lon": 0.0, "lat": 38.91854683333333, "bike_id": "b41aa2dc594dc4726557ad67fb19e7b8", "type": "electric_scooter", "is_reserved": 0, "lon": -77.0459175}, {"fusion_lat": 0.0, "name": "2da8af3274fbd392a96c1184a5e110fd", "is_disabled": 0, "rental_uris": {"android": "https://dc.lft.to/lastmile_qr_scan", "ios": "https://dc.lft.to/lastmile_qr_scan"}, "fusion_lon": 0.0, "lat": 38.91710533333333, "bike_id": "2da8af3274fbd392a96c1184a5e110fd", "type": "electric_scooter", "is_reserved": 0, "lon": -77.03350383333333}, {"fusion_lat": 0.0, "name": "7ac49d5f72c307e6a8e23fdf08e45b8d", "is_disabled": 0, "rental_uris": {"android": "https://dc.lft.to/lastmile_qr_scan", "ios": "https://dc.lft.to/lastmile_qr_scan"}, "fusion_lon": 0.0, "lat": 38.926120833333336, "bike_id": "7ac49d5f72c307e6a8e23fdf08e45b8d", "type": "electric_scooter", "is_reserved": 0, "lon": -77.02162533333333}, {"fusion_lat": 0.0, "name": "b98cbf1cd3dc9c0c9873c0d903c11271", "is_disabled": 0, "rental_uris": {"android": "https://dc.lft.to/lastmile_qr_scan", "ios": "https://dc.lft.to/lastmile_qr_scan"}, "fusion_lon": 0.0, "lat": 38.9287885, "bike_id": "b98cbf1cd3dc9c0c9873c0d903c11271", "type": "electric_scooter", "is_reserved": 0, "lon": -77.033258}, {"fusion_lat": 0.0, "name": "49544a185d2dcc45fdb1281bcd258a1c", "is_disabled": 0, "rental_uris": {"android": "https://dc.lft.to/lastmile_qr_scan", "ios": "https://dc.lft.to/lastmile_qr_scan"}, "fusion_lon": 0.0, "lat": 38.9271415, "bike_id": "49544a185d2dcc45fdb1281bcd258a1c", "type": "electric_scooter", "is_reserved": 0, "lon": -77.02095166666666}, {"fusion_lat": 0.0, "name": "3f26010e4f23fa9f7072d856d84e3719", "is_disabled": 0, "rental_uris": {"android": "https://dc.lft.to/lastmile_qr_scan", "ios": "https://dc.lft.to/lastmile_qr_scan"}, "fusion_lon": 0.0, "lat": 38.921647166666666, "bike_id": "3f26010e4f23fa9f7072d856d84e3719", "type": "electric_scooter", "is_reserved": 0, "lon": -77.0209505}, {"fusion_lat": 0.0, "name": "a5f5172e0c25305386ab9d2847a301f6", "is_disabled": 0, "rental_uris": {"android": "https://dc.lft.to/lastmile_qr_scan", "ios": "https://dc.lft.to/lastmile_qr_scan"}, "fusion_lon": 0.0, "lat": 38.89560383333333, "bike_id": "a5f5172e0c25305386ab9d2847a301f6", "type": "electric_scooter", "is_reserved": 0, "lon": -76.99432316666666}, {"fusion_lat": 0.0, "name": "2e07785bdfd9812bab4977744b234582", "is_disabled": 0, "rental_uris": {"android": "https://dc.lft.to/lastmile_qr_scan", "ios": "https://dc.lft.to/lastmile_qr_scan"}, "fusion_lon": 0.0, "lat": 38.897024, "bike_id": "2e07785bdfd9812bab4977744b234582", "type": "electric_scooter", "is_reserved": 0, "lon": -77.0238235}, {"fusion_lat": 0.0, "name": "bffa82582f8260022c0e76eaeb65f9f0", "is_disabled": 0, "rental_uris": {"android": "https://dc.lft.to/lastmile_qr_scan", "ios": "https://dc.lft.to/lastmile_qr_scan"}, "fusion_lon": 0.0, "lat": 38.908109, "bike_id": "bffa82582f8260022c0e76eaeb65f9f0", "type": "electric_scooter", "is_reserved": 0, "lon": -77.04345466666666}, {"fusion_lat": 0.0, "name": "502ae45075639f440f2e15f3e174cf0c", "is_disabled": 0, "rental_uris": {"android": "https://dc.lft.to/lastmile_qr_scan", "ios": "https://dc.lft.to/lastmile_qr_scan"}, "fusion_lon": 0.0, "lat": 39.014163333333336, "bike_id": "502ae45075639f440f2e15f3e174cf0c", "type": "electric_bike", "is_reserved": 0, "lon": -77.0449715}, {"fusion_lat": 0.0, "name": "8dba44238f307f31305e8a64008c4f4a", "is_disabled": 0, "rental_uris": {"android": "https://dc.lft.to/lastmile_qr_scan", "ios": "https://dc.lft.to/lastmile_qr_scan"}, "fusion_lon": 0.0, "lat": 38.9172545, "bike_id": "8dba44238f307f31305e8a64008c4f4a", "type": "electric_scooter", "is_reserved": 0, "lon": -77.02810283333334}, {"fusion_lat": 0.0, "name": "1886041b5288ae0beded2165df78a262", "is_disabled": 0, "rental_uris": {"android": "https://dc.lft.to/lastmile_qr_scan", "ios": "https://dc.lft.to/lastmile_qr_scan"}, "fusion_lon": 0.0, "lat": 38.88504616666667, "bike_id": "1886041b5288ae0beded2165df78a262", "type": "electric_scooter", "is_reserved": 0, "lon": -76.99751833333333}, {"fusion_lat": 0.0, "name": "9620f4266d5bd015f70370620c6a691e", "is_disabled": 0, "rental_uris": {"android": "https://dc.lft.to/lastmile_qr_scan", "ios": "https://dc.lft.to/lastmile_qr_scan"}, "fusion_lon": 0.0, "lat": 38.949165666666666, "bike_id": "9620f4266d5bd015f70370620c6a691e", "type": "electric_scooter", "is_reserved": 0, "lon": -77.01857566666666}, {"fusion_lat": 0.0, "name": "adeaedc01080d39544f788f10ffe9c5b", "is_disabled": 0, "rental_uris": {"android": "https://dc.lft.to/lastmile_qr_scan", "ios": "https://dc.lft.to/lastmile_qr_scan"}, "fusion_lon": 0.0, "lat": 38.98819366666667, "bike_id": "adeaedc01080d39544f788f10ffe9c5b", "type": "electric_bike", "is_reserved": 0, "lon": -77.02648883333333}, {"fusion_lat": 0.0, "name": "57119777d92442d6e2ab313328d559c4", "is_disabled": 0, "rental_uris": {"android": "https://dc.lft.to/lastmile_qr_scan", "ios": "https://dc.lft.to/lastmile_qr_scan"}, "fusion_lon": 0.0, "lat": 38.93056983333334, "bike_id": "57119777d92442d6e2ab313328d559c4", "type": "electric_scooter", "is_reserved": 0, "lon": -77.03944516666667}, {"fusion_lat": 0.0, "name": "c9193d792b412e9a5ba22e56a983f3d7", "is_disabled": 0, "rental_uris": {"android": "https://dc.lft.to/lastmile_qr_scan", "ios": "https://dc.lft.to/lastmile_qr_scan"}, "fusion_lon": 0.0, "lat": 38.9048755, "bike_id": "c9193d792b412e9a5ba22e56a983f3d7", "type": "electric_scooter", "is_reserved": 0, "lon": -76.94956766666667}, {"fusion_lat": 0.0, "name": "56e89e23aa9497ba5fa5ea11ff6a9148", "is_disabled": 0, "rental_uris": {"android": "https://dc.lft.to/lastmile_qr_scan", "ios": "https://dc.lft.to/lastmile_qr_scan"}, "fusion_lon": 0.0, "lat": 38.900907, "bike_id": "56e89e23aa9497ba5fa5ea11ff6a9148", "type": "electric_bike", "is_reserved": 0, "lon": -77.0590305}, {"fusion_lat": 0.0, "name": "59a362a93cd34020aae89ac15a5e866c", "is_disabled": 0, "rental_uris": {"android": "https://dc.lft.to/lastmile_qr_scan", "ios": "https://dc.lft.to/lastmile_qr_scan"}, "fusion_lon": 0.0, "lat": 38.92797083333333, "bike_id": "59a362a93cd34020aae89ac15a5e866c", "type": "electric_scooter", "is_reserved": 0, "lon": -76.95555233333333}, {"fusion_lat": 0.0, "name": "eeaba9b0d9fc86a07071aef69829cb86", "is_disabled": 0, "rental_uris": {"android": "https://dc.lft.to/lastmile_qr_scan", "ios": "https://dc.lft.to/lastmile_qr_scan"}, "fusion_lon": 0.0, "lat": 38.922510833333334, "bike_id": "eeaba9b0d9fc86a07071aef69829cb86", "type": "electric_scooter", "is_reserved": 0, "lon": -77.03108716666667}, {"fusion_lat": 0.0, "name": "1f809439501b81fe7edf004b817a6f9e", "is_disabled": 0, "rental_uris": {"android": "https://dc.lft.to/lastmile_qr_scan", "ios": "https://dc.lft.to/lastmile_qr_scan"}, "fusion_lon": 0.0, "lat": 38.92402533333333, "bike_id": "1f809439501b81fe7edf004b817a6f9e", "type": "electric_scooter", "is_reserved": 0, "lon": -77.042755}, {"fusion_lat": 0.0, "name": "2f337104b4a2806170b5a8524c9e1595", "is_disabled": 0, "rental_uris": {"android": "https://dc.lft.to/lastmile_qr_scan", "ios": "https://dc.lft.to/lastmile_qr_scan"}, "fusion_lon": 0.0, "lat": 38.900809833333334, "bike_id": "2f337104b4a2806170b5a8524c9e1595", "type": "electric_scooter", "is_reserved": 0, "lon": -77.02150116666667}, {"fusion_lat": 0.0, "name": "4f5a7d5b4bff60bb0076cc17696cba42", "is_disabled": 0, "rental_uris": {"android": "https://dc.lft.to/lastmile_qr_scan", "ios": "https://dc.lft.to/lastmile_qr_scan"}, "fusion_lon": 0.0, "lat": 38.9260095, "bike_id": "4f5a7d5b4bff60bb0076cc17696cba42", "type": "electric_scooter", "is_reserved": 0, "lon": -77.02154983333334}, {"fusion_lat": 0.0, "name": "3df30a6e987f4eb1cb5350bfc4b98efc", "is_disabled": 0, "rental_uris": {"android": "https://dc.lft.to/lastmile_qr_scan", "ios": "https://dc.lft.to/lastmile_qr_scan"}, "fusion_lon": 0.0, "lat": 38.907718, "bike_id": "3df30a6e987f4eb1cb5350bfc4b98efc", "type": "electric_scooter", "is_reserved": 0, "lon": -77.06230866666667}, {"fusion_lat": 0.0, "name": "e86f624a3ceb4a83da973b38dde729f5", "is_disabled": 0, "rental_uris": {"android": "https://dc.lft.to/lastmile_qr_scan", "ios": "https://dc.lft.to/lastmile_qr_scan"}, "fusion_lon": 0.0, "lat": 38.918168, "bike_id": "e86f624a3ceb4a83da973b38dde729f5", "type": "electric_scooter", "is_reserved": 0, "lon": -77.02490583333334}, {"fusion_lat": 0.0, "name": "2b81c874e3badea89f7f20c12bf1d9c6", "is_disabled": 0, "rental_uris": {"android": "https://dc.lft.to/lastmile_qr_scan", "ios": "https://dc.lft.to/lastmile_qr_scan"}, "fusion_lon": 0.0, "lat": 38.9300045, "bike_id": "2b81c874e3badea89f7f20c12bf1d9c6", "type": "electric_scooter", "is_reserved": 0, "lon": -77.03240916666667}, {"fusion_lat": 0.0, "name": "086fad51fc4a1c0cec5dd7cb5d40af62", "is_disabled": 0, "rental_uris": {"android": "https://dc.lft.to/lastmile_qr_scan", "ios": "https://dc.lft.to/lastmile_qr_scan"}, "fusion_lon": 0.0, "lat": 38.947031833333334, "bike_id": "086fad51fc4a1c0cec5dd7cb5d40af62", "type": "electric_scooter", "is_reserved": 0, "lon": -77.01941433333333}, {"fusion_lat": 0.0, "name": "390a4d13d3bf7afba41f3d5f1514c0a4", "is_disabled": 0, "rental_uris": {"android": "https://dc.lft.to/lastmile_qr_scan", "ios": "https://dc.lft.to/lastmile_qr_scan"}, "fusion_lon": 0.0, "lat": 38.90031716666667, "bike_id": "390a4d13d3bf7afba41f3d5f1514c0a4", "type": "electric_scooter", "is_reserved": 0, "lon": -76.99134133333334}, {"fusion_lat": 0.0, "name": "00414da0d2f1088f12039e3475cd45be", "is_disabled": 0, "rental_uris": {"android": "https://dc.lft.to/lastmile_qr_scan", "ios": "https://dc.lft.to/lastmile_qr_scan"}, "fusion_lon": 0.0, "lat": 38.89221516666667, "bike_id": "00414da0d2f1088f12039e3475cd45be", "type": "electric_scooter", "is_reserved": 0, "lon": -77.045114}, {"fusion_lat": 0.0, "name": "d4a4793412a943e4d5d6f5b8d7f27e2e", "is_disabled": 0, "rental_uris": {"android": "https://dc.lft.to/lastmile_qr_scan", "ios": "https://dc.lft.to/lastmile_qr_scan"}, "fusion_lon": 0.0, "lat": 38.931831333333335, "bike_id": "d4a4793412a943e4d5d6f5b8d7f27e2e", "type": "electric_scooter", "is_reserved": 0, "lon": -77.04293033333333}, {"fusion_lat": 0.0, "name": "84a0baf051f78c8c5b523d34e5e376c1", "is_disabled": 0, "rental_uris": {"android": "https://dc.lft.to/lastmile_qr_scan", "ios": "https://dc.lft.to/lastmile_qr_scan"}, "fusion_lon": 0.0, "lat": 38.884587, "bike_id": "84a0baf051f78c8c5b523d34e5e376c1", "type": "electric_scooter", "is_reserved": 0, "lon": -76.9983875}, {"fusion_lat": 0.0, "name": "928f5e66096263a8cb8ae05c996a5884", "is_disabled": 0, "rental_uris": {"android": "https://dc.lft.to/lastmile_qr_scan", "ios": "https://dc.lft.to/lastmile_qr_scan"}, "fusion_lon": 0.0, "lat": 38.890296166666666, "bike_id": "928f5e66096263a8cb8ae05c996a5884", "type": "electric_scooter", "is_reserved": 0, "lon": -76.93749283333334}, {"fusion_lat": 0.0, "name": "c8532c584d7a0f596cc3685f8aa94dd6", "is_disabled": 0, "rental_uris": {"android": "https://dc.lft.to/lastmile_qr_scan", "ios": "https://dc.lft.to/lastmile_qr_scan"}, "fusion_lon": 0.0, "lat": 38.935862166666666, "bike_id": "c8532c584d7a0f596cc3685f8aa94dd6", "type": "electric_scooter", "is_reserved": 0, "lon": -77.02357383333333}, {"fusion_lat": 0.0, "name": "8a16b179d0c89a46f5ffdb1e05d2b6cd", "is_disabled": 0, "rental_uris": {"android": "https://dc.lft.to/lastmile_qr_scan", "ios": "https://dc.lft.to/lastmile_qr_scan"}, "fusion_lon": 0.0, "lat": 38.94674916666666, "bike_id": "8a16b179d0c89a46f5ffdb1e05d2b6cd", "type": "electric_scooter", "is_reserved": 0, "lon": -77.030969}, {"fusion_lat": 0.0, "name": "0d75e52b05e2d1a03526446d3427ede2", "is_disabled": 0, "rental_uris": {"android": "https://dc.lft.to/lastmile_qr_scan", "ios": "https://dc.lft.to/lastmile_qr_scan"}, "fusion_lon": 0.0, "lat": 38.9310075, "bike_id": "0d75e52b05e2d1a03526446d3427ede2", "type": "electric_scooter", "is_reserved": 0, "lon": -77.026631}, {"fusion_lat": 0.0, "name": "1da84cbb40e07751fabccb81beaed5f5", "is_disabled": 0, "rental_uris": {"android": "https://dc.lft.to/lastmile_qr_scan", "ios": "https://dc.lft.to/lastmile_qr_scan"}, "fusion_lon": 0.0, "lat": 38.9079605, "bike_id": "1da84cbb40e07751fabccb81beaed5f5", "type": "electric_scooter", "is_reserved": 0, "lon": -77.0435185}, {"fusion_lat": 0.0, "name": "d736a23a7686c023177bc7ed9d58a5c1", "is_disabled": 0, "rental_uris": {"android": "https://dc.lft.to/lastmile_qr_scan", "ios": "https://dc.lft.to/lastmile_qr_scan"}, "fusion_lon": 0.0, "lat": 38.9110455, "bike_id": "d736a23a7686c023177bc7ed9d58a5c1", "type": "electric_scooter", "is_reserved": 0, "lon": -77.01151533333334}, {"fusion_lat": 0.0, "name": "1e25f384a69f72f7c787572c1c435d99", "is_disabled": 0, "rental_uris": {"android": "https://dc.lft.to/lastmile_qr_scan", "ios": "https://dc.lft.to/lastmile_qr_scan"}, "fusion_lon": 0.0, "lat": 38.9570785, "bike_id": "1e25f384a69f72f7c787572c1c435d99", "type": "electric_scooter", "is_reserved": 0, "lon": -77.02397783333333}, {"fusion_lat": 0.0, "name": "a15c15e4724228f351780e4ab0fff67b", "is_disabled": 0, "rental_uris": {"android": "https://dc.lft.to/lastmile_qr_scan", "ios": "https://dc.lft.to/lastmile_qr_scan"}, "fusion_lon": 0.0, "lat": 38.92873066666667, "bike_id": "a15c15e4724228f351780e4ab0fff67b", "type": "electric_scooter", "is_reserved": 0, "lon": -77.03348433333333}, {"fusion_lat": 0.0, "name": "254213a8192058557521e0d4aa851d42", "is_disabled": 0, "rental_uris": {"android": "https://dc.lft.to/lastmile_qr_scan", "ios": "https://dc.lft.to/lastmile_qr_scan"}, "fusion_lon": 0.0, "lat": 38.8956615, "bike_id": "254213a8192058557521e0d4aa851d42", "type": "electric_scooter", "is_reserved": 0, "lon": -77.03377916666666}, {"fusion_lat": 0.0, "name": "90b2506758331e1d4a6bc269a376d8be", "is_disabled": 0, "rental_uris": {"android": "https://dc.lft.to/lastmile_qr_scan", "ios": "https://dc.lft.to/lastmile_qr_scan"}, "fusion_lon": 0.0, "lat": 38.8132765, "bike_id": "90b2506758331e1d4a6bc269a376d8be", "type": "electric_bike", "is_reserved": 0, "lon": -77.05084716666667}, {"fusion_lat": 0.0, "name": "b6187764d9b29b974f7a4a3d0cdd2c80", "is_disabled": 0, "rental_uris": {"android": "https://dc.lft.to/lastmile_qr_scan", "ios": "https://dc.lft.to/lastmile_qr_scan"}, "fusion_lon": 0.0, "lat": 38.9168815, "bike_id": "b6187764d9b29b974f7a4a3d0cdd2c80", "type": "electric_scooter", "is_reserved": 0, "lon": -77.02871716666667}, {"fusion_lat": 0.0, "name": "82fdf6d0d0e51ad97f47a5549d925446", "is_disabled": 0, "rental_uris": {"android": "https://dc.lft.to/lastmile_qr_scan", "ios": "https://dc.lft.to/lastmile_qr_scan"}, "fusion_lon": 0.0, "lat": 38.916094333333334, "bike_id": "82fdf6d0d0e51ad97f47a5549d925446", "type": "electric_scooter", "is_reserved": 0, "lon": -77.04341833333334}, {"fusion_lat": 0.0, "name": "e0ad1df443731ca3ecee7748424dc147", "is_disabled": 0, "rental_uris": {"android": "https://dc.lft.to/lastmile_qr_scan", "ios": "https://dc.lft.to/lastmile_qr_scan"}, "fusion_lon": 0.0, "lat": 38.9155355, "bike_id": "e0ad1df443731ca3ecee7748424dc147", "type": "electric_scooter", "is_reserved": 0, "lon": -77.03250783333333}, {"fusion_lat": 0.0, "name": "1c6d65b8b3f3546940ed87525b2cffbb", "is_disabled": 0, "rental_uris": {"android": "https://dc.lft.to/lastmile_qr_scan", "ios": "https://dc.lft.to/lastmile_qr_scan"}, "fusion_lon": 0.0, "lat": 38.91042516666667, "bike_id": "1c6d65b8b3f3546940ed87525b2cffbb", "type": "electric_scooter", "is_reserved": 0, "lon": -77.01280516666667}, {"fusion_lat": 0.0, "name": "2b20545a8a7fdc28382960e3bc56201b", "is_disabled": 0, "rental_uris": {"android": "https://dc.lft.to/lastmile_qr_scan", "ios": "https://dc.lft.to/lastmile_qr_scan"}, "fusion_lon": 0.0, "lat": 38.911202333333335, "bike_id": "2b20545a8a7fdc28382960e3bc56201b", "type": "electric_scooter", "is_reserved": 0, "lon": -77.04346}, {"fusion_lat": 0.0, "name": "f9ebf0440f8d87b1f8298ebde553dfc4", "is_disabled": 0, "rental_uris": {"android": "https://dc.lft.to/lastmile_qr_scan", "ios": "https://dc.lft.to/lastmile_qr_scan"}, "fusion_lon": 0.0, "lat": 38.899771333333334, "bike_id": "f9ebf0440f8d87b1f8298ebde553dfc4", "type": "electric_scooter", "is_reserved": 0, "lon": -77.02930033333334}, {"fusion_lat": 0.0, "name": "13fd7d8b6185cfb99e2f4217325748ef", "is_disabled": 0, "rental_uris": {"android": "https://dc.lft.to/lastmile_qr_scan", "ios": "https://dc.lft.to/lastmile_qr_scan"}, "fusion_lon": 0.0, "lat": 38.904229, "bike_id": "13fd7d8b6185cfb99e2f4217325748ef", "type": "electric_scooter", "is_reserved": 0, "lon": -77.01883583333333}, {"fusion_lat": 0.0, "name": "0fb6eb0597dc5192458f7954901fb8a2", "is_disabled": 0, "rental_uris": {"android": "https://dc.lft.to/lastmile_qr_scan", "ios": "https://dc.lft.to/lastmile_qr_scan"}, "fusion_lon": 0.0, "lat": 38.91109183333333, "bike_id": "0fb6eb0597dc5192458f7954901fb8a2", "type": "electric_scooter", "is_reserved": 0, "lon": -77.02917933333333}, {"fusion_lat": 0.0, "name": "db1967c676123eb3c93313b0c2eaaeca", "is_disabled": 0, "rental_uris": {"android": "https://dc.lft.to/lastmile_qr_scan", "ios": "https://dc.lft.to/lastmile_qr_scan"}, "fusion_lon": 0.0, "lat": 38.911023166666666, "bike_id": "db1967c676123eb3c93313b0c2eaaeca", "type": "electric_scooter", "is_reserved": 0, "lon": -77.03617216666666}, {"fusion_lat": 0.0, "name": "8099fa7ac0e0b99855d90e4cf23e20ab", "is_disabled": 0, "rental_uris": {"android": "https://dc.lft.to/lastmile_qr_scan", "ios": "https://dc.lft.to/lastmile_qr_scan"}, "fusion_lon": 0.0, "lat": 38.897383833333336, "bike_id": "8099fa7ac0e0b99855d90e4cf23e20ab", "type": "electric_scooter", "is_reserved": 0, "lon": -77.0250155}, {"fusion_lat": 0.0, "name": "69d34c3f4eb4a396276432e7dcbe491c", "is_disabled": 0, "rental_uris": {"android": "https://dc.lft.to/lastmile_qr_scan", "ios": "https://dc.lft.to/lastmile_qr_scan"}, "fusion_lon": 0.0, "lat": 38.924308833333335, "bike_id": "69d34c3f4eb4a396276432e7dcbe491c", "type": "electric_scooter", "is_reserved": 0, "lon": -77.04464}, {"fusion_lat": 0.0, "name": "5aebe8c62382529d39278a4ecfb83422", "is_disabled": 0, "rental_uris": {"android": "https://dc.lft.to/lastmile_qr_scan", "ios": "https://dc.lft.to/lastmile_qr_scan"}, "fusion_lon": 0.0, "lat": 38.9618455, "bike_id": "5aebe8c62382529d39278a4ecfb83422", "type": "electric_bike", "is_reserved": 0, "lon": -77.0526555}, {"fusion_lat": 0.0, "name": "d5ae70cce0fbfdc6a2b0e23ef8960b44", "is_disabled": 0, "rental_uris": {"android": "https://dc.lft.to/lastmile_qr_scan", "ios": "https://dc.lft.to/lastmile_qr_scan"}, "fusion_lon": 0.0, "lat": 38.9737745, "bike_id": "d5ae70cce0fbfdc6a2b0e23ef8960b44", "type": "electric_scooter", "is_reserved": 0, "lon": -77.01285566666667}, {"fusion_lat": 0.0, "name": "c51b98f44d62783f0ee3ca04b79b11af", "is_disabled": 0, "rental_uris": {"android": "https://dc.lft.to/lastmile_qr_scan", "ios": "https://dc.lft.to/lastmile_qr_scan"}, "fusion_lon": 0.0, "lat": 38.91195833333333, "bike_id": "c51b98f44d62783f0ee3ca04b79b11af", "type": "electric_scooter", "is_reserved": 0, "lon": -77.01197533333334}, {"fusion_lat": 0.0, "name": "fb72c58011e7eb83d7c1f80ae7d7553d", "is_disabled": 0, "rental_uris": {"android": "https://dc.lft.to/lastmile_qr_scan", "ios": "https://dc.lft.to/lastmile_qr_scan"}, "fusion_lon": 0.0, "lat": 38.89115916666667, "bike_id": "fb72c58011e7eb83d7c1f80ae7d7553d", "type": "electric_scooter", "is_reserved": 0, "lon": -76.94381816666667}, {"fusion_lat": 0.0, "name": "0fe20b99cca155a176410084086637bc", "is_disabled": 0, "rental_uris": {"android": "https://dc.lft.to/lastmile_qr_scan", "ios": "https://dc.lft.to/lastmile_qr_scan"}, "fusion_lon": 0.0, "lat": 38.8993785, "bike_id": "0fe20b99cca155a176410084086637bc", "type": "electric_scooter", "is_reserved": 0, "lon": -77.01454516666666}, {"fusion_lat": 0.0, "name": "0c1c96707e4d540da7e898d7b388889c", "is_disabled": 0, "rental_uris": {"android": "https://dc.lft.to/lastmile_qr_scan", "ios": "https://dc.lft.to/lastmile_qr_scan"}, "fusion_lon": 0.0, "lat": 38.891813166666665, "bike_id": "0c1c96707e4d540da7e898d7b388889c", "type": "electric_scooter", "is_reserved": 0, "lon": -77.02173466666666}, {"fusion_lat": 0.0, "name": "d7185b64d49b3e526305f7015733dea1", "is_disabled": 0, "rental_uris": {"android": "https://dc.lft.to/lastmile_qr_scan", "ios": "https://dc.lft.to/lastmile_qr_scan"}, "fusion_lon": 0.0, "lat": 38.9356045, "bike_id": "d7185b64d49b3e526305f7015733dea1", "type": "electric_scooter", "is_reserved": 0, "lon": -77.03484216666666}, {"fusion_lat": 0.0, "name": "26c1b422b850fade8dc6d7b0bd1dfe23", "is_disabled": 0, "rental_uris": {"android": "https://dc.lft.to/lastmile_qr_scan", "ios": "https://dc.lft.to/lastmile_qr_scan"}, "fusion_lon": 0.0, "lat": 38.902349666666666, "bike_id": "26c1b422b850fade8dc6d7b0bd1dfe23", "type": "electric_scooter", "is_reserved": 0, "lon": -77.01919566666666}, {"fusion_lat": 0.0, "name": "8859487b814df86af7515ec74e2ff06d", "is_disabled": 0, "rental_uris": {"android": "https://dc.lft.to/lastmile_qr_scan", "ios": "https://dc.lft.to/lastmile_qr_scan"}, "fusion_lon": 0.0, "lat": 38.9304335, "bike_id": "8859487b814df86af7515ec74e2ff06d", "type": "electric_scooter", "is_reserved": 0, "lon": -77.03355633333334}, {"fusion_lat": 0.0, "name": "15f4e68eaeea00e2b0c91a064a138095", "is_disabled": 0, "rental_uris": {"android": "https://dc.lft.to/lastmile_qr_scan", "ios": "https://dc.lft.to/lastmile_qr_scan"}, "fusion_lon": 0.0, "lat": 38.9306465, "bike_id": "15f4e68eaeea00e2b0c91a064a138095", "type": "electric_scooter", "is_reserved": 0, "lon": -77.02979633333334}, {"fusion_lat": 0.0, "name": "c8b9829f29bf0144d3c16e72b3c84e66", "is_disabled": 0, "rental_uris": {"android": "https://dc.lft.to/lastmile_qr_scan", "ios": "https://dc.lft.to/lastmile_qr_scan"}, "fusion_lon": 0.0, "lat": 38.91674616666667, "bike_id": "c8b9829f29bf0144d3c16e72b3c84e66", "type": "electric_scooter", "is_reserved": 0, "lon": -77.02715783333333}, {"fusion_lat": 0.0, "name": "4ad7cf19846429c3fb69b0218d69b807", "is_disabled": 0, "rental_uris": {"android": "https://dc.lft.to/lastmile_qr_scan", "ios": "https://dc.lft.to/lastmile_qr_scan"}, "fusion_lon": 0.0, "lat": 38.949172, "bike_id": "4ad7cf19846429c3fb69b0218d69b807", "type": "electric_scooter", "is_reserved": 0, "lon": -77.01852266666667}, {"fusion_lat": 0.0, "name": "f563fbd942e27c4bb95e7aed3e529b2e", "is_disabled": 0, "rental_uris": {"android": "https://dc.lft.to/lastmile_qr_scan", "ios": "https://dc.lft.to/lastmile_qr_scan"}, "fusion_lon": 0.0, "lat": 38.80005083333333, "bike_id": "f563fbd942e27c4bb95e7aed3e529b2e", "type": "electric_bike", "is_reserved": 0, "lon": -77.1299875}, {"fusion_lat": 0.0, "name": "45502101afcde9711359db51aae9ec9c", "is_disabled": 0, "rental_uris": {"android": "https://dc.lft.to/lastmile_qr_scan", "ios": "https://dc.lft.to/lastmile_qr_scan"}, "fusion_lon": 0.0, "lat": 38.902769, "bike_id": "45502101afcde9711359db51aae9ec9c", "type": "electric_scooter", "is_reserved": 0, "lon": -77.033684}, {"fusion_lat": 0.0, "name": "3bc864e587bc0b320d789f1d45d28d70", "is_disabled": 0, "rental_uris": {"android": "https://dc.lft.to/lastmile_qr_scan", "ios": "https://dc.lft.to/lastmile_qr_scan"}, "fusion_lon": 0.0, "lat": 38.91711183333334, "bike_id": "3bc864e587bc0b320d789f1d45d28d70", "type": "electric_scooter", "is_reserved": 0, "lon": -77.03467416666666}, {"fusion_lat": 0.0, "name": "967e65d606f571dbeb6819a0edd2ee4a", "is_disabled": 0, "rental_uris": {"android": "https://dc.lft.to/lastmile_qr_scan", "ios": "https://dc.lft.to/lastmile_qr_scan"}, "fusion_lon": 0.0, "lat": 38.842836166666665, "bike_id": "967e65d606f571dbeb6819a0edd2ee4a", "type": "electric_bike", "is_reserved": 0, "lon": -77.04493233333334}, {"fusion_lat": 0.0, "name": "c927ef09e5dcb0586cd394eab60033c8", "is_disabled": 0, "rental_uris": {"android": "https://dc.lft.to/lastmile_qr_scan", "ios": "https://dc.lft.to/lastmile_qr_scan"}, "fusion_lon": 0.0, "lat": 38.895653, "bike_id": "c927ef09e5dcb0586cd394eab60033c8", "type": "electric_bike", "is_reserved": 0, "lon": -77.12737883333334}, {"fusion_lat": 0.0, "name": "fa0bfc158c0c194e51e69ba46eae0bc6", "is_disabled": 0, "rental_uris": {"android": "https://dc.lft.to/lastmile_qr_scan", "ios": "https://dc.lft.to/lastmile_qr_scan"}, "fusion_lon": 0.0, "lat": 38.92688616666667, "bike_id": "fa0bfc158c0c194e51e69ba46eae0bc6", "type": "electric_scooter", "is_reserved": 0, "lon": -77.00777466666666}, {"fusion_lat": 0.0, "name": "7c059421cc45d1ca4da1da1edc475788", "is_disabled": 0, "rental_uris": {"android": "https://dc.lft.to/lastmile_qr_scan", "ios": "https://dc.lft.to/lastmile_qr_scan"}, "fusion_lon": 0.0, "lat": 38.85311166666666, "bike_id": "7c059421cc45d1ca4da1da1edc475788", "type": "electric_bike", "is_reserved": 0, "lon": -77.04602766666666}, {"fusion_lat": 0.0, "name": "40989ea971bc29317f283b1991bcbc1a", "is_disabled": 0, "rental_uris": {"android": "https://dc.lft.to/lastmile_qr_scan", "ios": "https://dc.lft.to/lastmile_qr_scan"}, "fusion_lon": 0.0, "lat": 38.929448, "bike_id": "40989ea971bc29317f283b1991bcbc1a", "type": "electric_scooter", "is_reserved": 0, "lon": -77.03461016666667}, {"fusion_lat": 0.0, "name": "80a1603cf7768a22d014367af2114e8d", "is_disabled": 0, "rental_uris": {"android": "https://dc.lft.to/lastmile_qr_scan", "ios": "https://dc.lft.to/lastmile_qr_scan"}, "fusion_lon": 0.0, "lat": 38.91130183333333, "bike_id": "80a1603cf7768a22d014367af2114e8d", "type": "electric_scooter", "is_reserved": 0, "lon": -77.01050283333333}, {"fusion_lat": 0.0, "name": "cad2833766ad1151014390edca829bb4", "is_disabled": 0, "rental_uris": {"android": "https://dc.lft.to/lastmile_qr_scan", "ios": "https://dc.lft.to/lastmile_qr_scan"}, "fusion_lon": 0.0, "lat": 38.89297233333333, "bike_id": "cad2833766ad1151014390edca829bb4", "type": "electric_scooter", "is_reserved": 0, "lon": -77.0465745}, {"fusion_lat": 0.0, "name": "5fc08d52b2e1180f5f9614cc1014c350", "is_disabled": 0, "rental_uris": {"android": "https://dc.lft.to/lastmile_qr_scan", "ios": "https://dc.lft.to/lastmile_qr_scan"}, "fusion_lon": 0.0, "lat": 38.91466166666667, "bike_id": "5fc08d52b2e1180f5f9614cc1014c350", "type": "electric_scooter", "is_reserved": 0, "lon": -77.03894866666667}, {"fusion_lat": 0.0, "name": "d3085f584c35911732446c3650612232", "is_disabled": 0, "rental_uris": {"android": "https://dc.lft.to/lastmile_qr_scan", "ios": "https://dc.lft.to/lastmile_qr_scan"}, "fusion_lon": 0.0, "lat": 38.91551966666667, "bike_id": "d3085f584c35911732446c3650612232", "type": "electric_scooter", "is_reserved": 0, "lon": -77.03816983333333}, {"fusion_lat": 0.0, "name": "7d57334dfe58f4329bfb62dfa51f38a3", "is_disabled": 0, "rental_uris": {"android": "https://dc.lft.to/lastmile_qr_scan", "ios": "https://dc.lft.to/lastmile_qr_scan"}, "fusion_lon": 0.0, "lat": 38.92944833333333, "bike_id": "7d57334dfe58f4329bfb62dfa51f38a3", "type": "electric_scooter", "is_reserved": 0, "lon": -77.03284116666667}, {"fusion_lat": 0.0, "name": "4e092d09d24d0f63cc6b202eebabae4e", "is_disabled": 0, "rental_uris": {"android": "https://dc.lft.to/lastmile_qr_scan", "ios": "https://dc.lft.to/lastmile_qr_scan"}, "fusion_lon": 0.0, "lat": 38.921038, "bike_id": "4e092d09d24d0f63cc6b202eebabae4e", "type": "electric_scooter", "is_reserved": 0, "lon": -77.07476083333333}, {"fusion_lat": 0.0, "name": "12a427b371b86476527dccc33c692cfa", "is_disabled": 0, "rental_uris": {"android": "https://dc.lft.to/lastmile_qr_scan", "ios": "https://dc.lft.to/lastmile_qr_scan"}, "fusion_lon": 0.0, "lat": 38.898723833333335, "bike_id": "12a427b371b86476527dccc33c692cfa", "type": "electric_scooter", "is_reserved": 0, "lon": -77.02035}, {"fusion_lat": 0.0, "name": "879cc402637cb8cbf8b798fd05fd6f96", "is_disabled": 0, "rental_uris": {"android": "https://dc.lft.to/lastmile_qr_scan", "ios": "https://dc.lft.to/lastmile_qr_scan"}, "fusion_lon": 0.0, "lat": 38.93859066666667, "bike_id": "879cc402637cb8cbf8b798fd05fd6f96", "type": "electric_scooter", "is_reserved": 0, "lon": -77.0245665}, {"fusion_lat": 0.0, "name": "e4c3e591699bf422ca174a7c563340ed", "is_disabled": 0, "rental_uris": {"android": "https://dc.lft.to/lastmile_qr_scan", "ios": "https://dc.lft.to/lastmile_qr_scan"}, "fusion_lon": 0.0, "lat": 38.873728666666665, "bike_id": "e4c3e591699bf422ca174a7c563340ed", "type": "electric_scooter", "is_reserved": 0, "lon": -77.00157566666667}, {"fusion_lat": 0.0, "name": "6c456c32cec9cfa1de0ed9cf0f009a3d", "is_disabled": 0, "rental_uris": {"android": "https://dc.lft.to/lastmile_qr_scan", "ios": "https://dc.lft.to/lastmile_qr_scan"}, "fusion_lon": 0.0, "lat": 38.928158333333336, "bike_id": "6c456c32cec9cfa1de0ed9cf0f009a3d", "type": "electric_scooter", "is_reserved": 0, "lon": -77.043631}, {"fusion_lat": 0.0, "name": "e9312c9a0c44d455f1980ce40671d050", "is_disabled": 0, "rental_uris": {"android": "https://dc.lft.to/lastmile_qr_scan", "ios": "https://dc.lft.to/lastmile_qr_scan"}, "fusion_lon": 0.0, "lat": 38.900108333333336, "bike_id": "e9312c9a0c44d455f1980ce40671d050", "type": "electric_scooter", "is_reserved": 0, "lon": -77.00385566666667}, {"fusion_lat": 0.0, "name": "f495abb78d28cffd1803ba30e531c8f9", "is_disabled": 0, "rental_uris": {"android": "https://dc.lft.to/lastmile_qr_scan", "ios": "https://dc.lft.to/lastmile_qr_scan"}, "fusion_lon": 0.0, "lat": 38.90946666666667, "bike_id": "f495abb78d28cffd1803ba30e531c8f9", "type": "electric_scooter", "is_reserved": 0, "lon": -77.0218765}, {"fusion_lat": 0.0, "name": "ccab294eca3b501c7edaf510ef537771", "is_disabled": 0, "rental_uris": {"android": "https://dc.lft.to/lastmile_qr_scan", "ios": "https://dc.lft.to/lastmile_qr_scan"}, "fusion_lon": 0.0, "lat": 38.895818, "bike_id": "ccab294eca3b501c7edaf510ef537771", "type": "electric_scooter", "is_reserved": 0, "lon": -77.0294845}, {"fusion_lat": 0.0, "name": "27016a4a50bc3334a1ebb032eb23fb6b", "is_disabled": 0, "rental_uris": {"android": "https://dc.lft.to/lastmile_qr_scan", "ios": "https://dc.lft.to/lastmile_qr_scan"}, "fusion_lon": 0.0, "lat": 38.925040333333335, "bike_id": "27016a4a50bc3334a1ebb032eb23fb6b", "type": "electric_scooter", "is_reserved": 0, "lon": -77.0238005}, {"fusion_lat": 0.0, "name": "d30470e05bbb607c2aeace7589f2b058", "is_disabled": 0, "rental_uris": {"android": "https://dc.lft.to/lastmile_qr_scan", "ios": "https://dc.lft.to/lastmile_qr_scan"}, "fusion_lon": 0.0, "lat": 38.85699283333334, "bike_id": "d30470e05bbb607c2aeace7589f2b058", "type": "electric_scooter", "is_reserved": 0, "lon": -76.995935}, {"fusion_lat": 0.0, "name": "97770ff3c409cb6e9bd3c90299326f93", "is_disabled": 0, "rental_uris": {"android": "https://dc.lft.to/lastmile_qr_scan", "ios": "https://dc.lft.to/lastmile_qr_scan"}, "fusion_lon": 0.0, "lat": 38.916050166666665, "bike_id": "97770ff3c409cb6e9bd3c90299326f93", "type": "electric_scooter", "is_reserved": 0, "lon": -77.03209766666667}, {"fusion_lat": 0.0, "name": "8438f7b684ec08754315f42962d3f57e", "is_disabled": 0, "rental_uris": {"android": "https://dc.lft.to/lastmile_qr_scan", "ios": "https://dc.lft.to/lastmile_qr_scan"}, "fusion_lon": 0.0, "lat": 38.8879795, "bike_id": "8438f7b684ec08754315f42962d3f57e", "type": "electric_bike", "is_reserved": 0, "lon": -76.9299985}, {"fusion_lat": 0.0, "name": "aaf996a3b0bd4836f1b8523791f33e40", "is_disabled": 0, "rental_uris": {"android": "https://dc.lft.to/lastmile_qr_scan", "ios": "https://dc.lft.to/lastmile_qr_scan"}, "fusion_lon": 0.0, "lat": 38.902773, "bike_id": "aaf996a3b0bd4836f1b8523791f33e40", "type": "electric_scooter", "is_reserved": 0, "lon": -77.0167975}, {"fusion_lat": 0.0, "name": "a04c4c07d5c24dc2de9ec1312612c37f", "is_disabled": 0, "rental_uris": {"android": "https://dc.lft.to/lastmile_qr_scan", "ios": "https://dc.lft.to/lastmile_qr_scan"}, "fusion_lon": 0.0, "lat": 38.8360345, "bike_id": "a04c4c07d5c24dc2de9ec1312612c37f", "type": "electric_bike", "is_reserved": 0, "lon": -77.0038265}, {"fusion_lat": 0.0, "name": "b17416e48078eb000a0e480836f7da04", "is_disabled": 0, "rental_uris": {"android": "https://dc.lft.to/lastmile_qr_scan", "ios": "https://dc.lft.to/lastmile_qr_scan"}, "fusion_lon": 0.0, "lat": 38.895488666666665, "bike_id": "b17416e48078eb000a0e480836f7da04", "type": "electric_scooter", "is_reserved": 0, "lon": -77.01118883333334}, {"fusion_lat": 0.0, "name": "460ec2ea3f70d7d1d47abfa7d2c27309", "is_disabled": 0, "rental_uris": {"android": "https://dc.lft.to/lastmile_qr_scan", "ios": "https://dc.lft.to/lastmile_qr_scan"}, "fusion_lon": 0.0, "lat": 38.9164755, "bike_id": "460ec2ea3f70d7d1d47abfa7d2c27309", "type": "electric_scooter", "is_reserved": 0, "lon": -77.0228035}, {"fusion_lat": 0.0, "name": "b6a8e53366611abfd114b33b73aa3e46", "is_disabled": 0, "rental_uris": {"android": "https://dc.lft.to/lastmile_qr_scan", "ios": "https://dc.lft.to/lastmile_qr_scan"}, "fusion_lon": 0.0, "lat": 38.908018166666665, "bike_id": "b6a8e53366611abfd114b33b73aa3e46", "type": "electric_scooter", "is_reserved": 0, "lon": -77.04343683333333}, {"fusion_lat": 0.0, "name": "57b23c32a981aab1aa62044a9d4c3671", "is_disabled": 0, "rental_uris": {"android": "https://dc.lft.to/lastmile_qr_scan", "ios": "https://dc.lft.to/lastmile_qr_scan"}, "fusion_lon": 0.0, "lat": 38.9111015, "bike_id": "57b23c32a981aab1aa62044a9d4c3671", "type": "electric_scooter", "is_reserved": 0, "lon": -77.027908}, {"fusion_lat": 0.0, "name": "a29612ce45c29adedd24c4fd61e4115d", "is_disabled": 0, "rental_uris": {"android": "https://dc.lft.to/lastmile_qr_scan", "ios": "https://dc.lft.to/lastmile_qr_scan"}, "fusion_lon": 0.0, "lat": 38.8796815, "bike_id": "a29612ce45c29adedd24c4fd61e4115d", "type": "electric_bike", "is_reserved": 0, "lon": -76.91612933333333}, {"fusion_lat": 0.0, "name": "6ccefcf4ca7de6ee3e550d7f32a1b481", "is_disabled": 0, "rental_uris": {"android": "https://dc.lft.to/lastmile_qr_scan", "ios": "https://dc.lft.to/lastmile_qr_scan"}, "fusion_lon": 0.0, "lat": 38.9620145, "bike_id": "6ccefcf4ca7de6ee3e550d7f32a1b481", "type": "electric_bike", "is_reserved": 0, "lon": -77.02789666666666}, {"fusion_lat": 0.0, "name": "d55a2503b8dca78d6ed49eb726d47142", "is_disabled": 0, "rental_uris": {"android": "https://dc.lft.to/lastmile_qr_scan", "ios": "https://dc.lft.to/lastmile_qr_scan"}, "fusion_lon": 0.0, "lat": 38.900388666666665, "bike_id": "d55a2503b8dca78d6ed49eb726d47142", "type": "electric_scooter", "is_reserved": 0, "lon": -76.9855845}, {"fusion_lat": 0.0, "name": "f79fc11eb2e85d712855e07a348c5571", "is_disabled": 0, "rental_uris": {"android": "https://dc.lft.to/lastmile_qr_scan", "ios": "https://dc.lft.to/lastmile_qr_scan"}, "fusion_lon": 0.0, "lat": 38.934156333333334, "bike_id": "f79fc11eb2e85d712855e07a348c5571", "type": "electric_scooter", "is_reserved": 0, "lon": -77.04277833333333}, {"fusion_lat": 0.0, "name": "6eb054a2214033679d6e96499a4e7d94", "is_disabled": 0, "rental_uris": {"android": "https://dc.lft.to/lastmile_qr_scan", "ios": "https://dc.lft.to/lastmile_qr_scan"}, "fusion_lon": 0.0, "lat": 38.89741266666667, "bike_id": "6eb054a2214033679d6e96499a4e7d94", "type": "electric_scooter", "is_reserved": 0, "lon": -77.021501}, {"fusion_lat": 0.0, "name": "743016473986e0ee8cf43f7c6171e7ec", "is_disabled": 0, "rental_uris": {"android": "https://dc.lft.to/lastmile_qr_scan", "ios": "https://dc.lft.to/lastmile_qr_scan"}, "fusion_lon": 0.0, "lat": 38.9110955, "bike_id": "743016473986e0ee8cf43f7c6171e7ec", "type": "electric_scooter", "is_reserved": 0, "lon": -77.038317}, {"fusion_lat": 0.0, "name": "419742f69eb7d4708ded4ae2f021a13c", "is_disabled": 0, "rental_uris": {"android": "https://dc.lft.to/lastmile_qr_scan", "ios": "https://dc.lft.to/lastmile_qr_scan"}, "fusion_lon": 0.0, "lat": 38.924223, "bike_id": "419742f69eb7d4708ded4ae2f021a13c", "type": "electric_scooter", "is_reserved": 0, "lon": -77.01948666666667}, {"fusion_lat": 0.0, "name": "e61a2b35047f5541e93e6a18d1150450", "is_disabled": 0, "rental_uris": {"android": "https://dc.lft.to/lastmile_qr_scan", "ios": "https://dc.lft.to/lastmile_qr_scan"}, "fusion_lon": 0.0, "lat": 38.938796833333335, "bike_id": "e61a2b35047f5541e93e6a18d1150450", "type": "electric_scooter", "is_reserved": 0, "lon": -77.024577}, {"fusion_lat": 0.0, "name": "db5fb59dca0a1f13bb24c87e50810bb4", "is_disabled": 0, "rental_uris": {"android": "https://dc.lft.to/lastmile_qr_scan", "ios": "https://dc.lft.to/lastmile_qr_scan"}, "fusion_lon": 0.0, "lat": 38.9132315, "bike_id": "db5fb59dca0a1f13bb24c87e50810bb4", "type": "electric_scooter", "is_reserved": 0, "lon": -77.021419}, {"fusion_lat": 0.0, "name": "fd7b659bc0247df25bcfc22d61133b37", "is_disabled": 0, "rental_uris": {"android": "https://dc.lft.to/lastmile_qr_scan", "ios": "https://dc.lft.to/lastmile_qr_scan"}, "fusion_lon": 0.0, "lat": 38.92542383333333, "bike_id": "fd7b659bc0247df25bcfc22d61133b37", "type": "electric_scooter", "is_reserved": 0, "lon": -77.03829466666667}, {"fusion_lat": 0.0, "name": "a644a0bc77ce840ac4d86a14a27a0a08", "is_disabled": 0, "rental_uris": {"android": "https://dc.lft.to/lastmile_qr_scan", "ios": "https://dc.lft.to/lastmile_qr_scan"}, "fusion_lon": 0.0, "lat": 38.902336166666664, "bike_id": "a644a0bc77ce840ac4d86a14a27a0a08", "type": "electric_scooter", "is_reserved": 0, "lon": -77.01662283333333}, {"fusion_lat": 0.0, "name": "00a8baf076648b15f16ca6101cf7409e", "is_disabled": 0, "rental_uris": {"android": "https://dc.lft.to/lastmile_qr_scan", "ios": "https://dc.lft.to/lastmile_qr_scan"}, "fusion_lon": 0.0, "lat": 38.907285, "bike_id": "00a8baf076648b15f16ca6101cf7409e", "type": "electric_scooter", "is_reserved": 0, "lon": -77.004986}, {"fusion_lat": 0.0, "name": "3bed3b59eac1cd7270c4106c27e81c9e", "is_disabled": 0, "rental_uris": {"android": "https://dc.lft.to/lastmile_qr_scan", "ios": "https://dc.lft.to/lastmile_qr_scan"}, "fusion_lon": 0.0, "lat": 38.90030216666667, "bike_id": "3bed3b59eac1cd7270c4106c27e81c9e", "type": "electric_scooter", "is_reserved": 0, "lon": -76.988503}, {"fusion_lat": 0.0, "name": "d728d6b65b500c4aa3137cef869017d9", "is_disabled": 0, "rental_uris": {"android": "https://dc.lft.to/lastmile_qr_scan", "ios": "https://dc.lft.to/lastmile_qr_scan"}, "fusion_lon": 0.0, "lat": 38.8845535, "bike_id": "d728d6b65b500c4aa3137cef869017d9", "type": "electric_scooter", "is_reserved": 0, "lon": -76.99836216666667}, {"fusion_lat": 0.0, "name": "ed61de6575a7a8c1c5e5458cfc47b060", "is_disabled": 0, "rental_uris": {"android": "https://dc.lft.to/lastmile_qr_scan", "ios": "https://dc.lft.to/lastmile_qr_scan"}, "fusion_lon": 0.0, "lat": 38.9390165, "bike_id": "ed61de6575a7a8c1c5e5458cfc47b060", "type": "electric_scooter", "is_reserved": 0, "lon": -77.03263783333334}, {"fusion_lat": 0.0, "name": "40f3ed6b997d04c64daba80366fa0286", "is_disabled": 0, "rental_uris": {"android": "https://dc.lft.to/lastmile_qr_scan", "ios": "https://dc.lft.to/lastmile_qr_scan"}, "fusion_lon": 0.0, "lat": 38.892209, "bike_id": "40f3ed6b997d04c64daba80366fa0286", "type": "electric_scooter", "is_reserved": 0, "lon": -77.04197083333334}, {"fusion_lat": 0.0, "name": "8796304f168b40d5ac7c8d5337e10c60", "is_disabled": 0, "rental_uris": {"android": "https://dc.lft.to/lastmile_qr_scan", "ios": "https://dc.lft.to/lastmile_qr_scan"}, "fusion_lon": 0.0, "lat": 38.927926666666664, "bike_id": "8796304f168b40d5ac7c8d5337e10c60", "type": "electric_scooter", "is_reserved": 0, "lon": -77.02720283333333}, {"fusion_lat": 0.0, "name": "7173cb81b17c5caba1444a0f8cb4d63b", "is_disabled": 0, "rental_uris": {"android": "https://dc.lft.to/lastmile_qr_scan", "ios": "https://dc.lft.to/lastmile_qr_scan"}, "fusion_lon": 0.0, "lat": 38.896852333333335, "bike_id": "7173cb81b17c5caba1444a0f8cb4d63b", "type": "electric_scooter", "is_reserved": 0, "lon": -76.9370925}, {"fusion_lat": 0.0, "name": "92cd2e2c29b6fca2c7c2d81e31cfb8a6", "is_disabled": 0, "rental_uris": {"android": "https://dc.lft.to/lastmile_qr_scan", "ios": "https://dc.lft.to/lastmile_qr_scan"}, "fusion_lon": 0.0, "lat": 38.939315, "bike_id": "92cd2e2c29b6fca2c7c2d81e31cfb8a6", "type": "electric_scooter", "is_reserved": 0, "lon": -77.07480183333334}, {"fusion_lat": 0.0, "name": "8c81cc5630812abde8776b72f3b1523c", "is_disabled": 0, "rental_uris": {"android": "https://dc.lft.to/lastmile_qr_scan", "ios": "https://dc.lft.to/lastmile_qr_scan"}, "fusion_lon": 0.0, "lat": 38.892318333333336, "bike_id": "8c81cc5630812abde8776b72f3b1523c", "type": "electric_scooter", "is_reserved": 0, "lon": -77.03176433333333}, {"fusion_lat": 0.0, "name": "5c5727e5f219ff831d53a598adc82d65", "is_disabled": 0, "rental_uris": {"android": "https://dc.lft.to/lastmile_qr_scan", "ios": "https://dc.lft.to/lastmile_qr_scan"}, "fusion_lon": 0.0, "lat": 38.802947333333336, "bike_id": "5c5727e5f219ff831d53a598adc82d65", "type": "electric_bike", "is_reserved": 0, "lon": -77.059387}, {"fusion_lat": 0.0, "name": "0b1cb84eb8952ea75a2cabdc0e37e215", "is_disabled": 0, "rental_uris": {"android": "https://dc.lft.to/lastmile_qr_scan", "ios": "https://dc.lft.to/lastmile_qr_scan"}, "fusion_lon": 0.0, "lat": 38.905351833333334, "bike_id": "0b1cb84eb8952ea75a2cabdc0e37e215", "type": "electric_scooter", "is_reserved": 0, "lon": -77.05670916666666}, {"fusion_lat": 0.0, "name": "50f3681b019e67c772bdd81a72c2ef8f", "is_disabled": 0, "rental_uris": {"android": "https://dc.lft.to/lastmile_qr_scan", "ios": "https://dc.lft.to/lastmile_qr_scan"}, "fusion_lon": 0.0, "lat": 38.90156566666667, "bike_id": "50f3681b019e67c772bdd81a72c2ef8f", "type": "electric_scooter", "is_reserved": 0, "lon": -77.02307266666666}, {"fusion_lat": 0.0, "name": "a8ec0f515ae78f3b0eed6f8a12e4cbe2", "is_disabled": 0, "rental_uris": {"android": "https://dc.lft.to/lastmile_qr_scan", "ios": "https://dc.lft.to/lastmile_qr_scan"}, "fusion_lon": 0.0, "lat": 38.923166333333334, "bike_id": "a8ec0f515ae78f3b0eed6f8a12e4cbe2", "type": "electric_scooter", "is_reserved": 0, "lon": -77.02038683333333}, {"fusion_lat": 0.0, "name": "cde714584edb258ebc3abf4e7bcdd233", "is_disabled": 0, "rental_uris": {"android": "https://dc.lft.to/lastmile_qr_scan", "ios": "https://dc.lft.to/lastmile_qr_scan"}, "fusion_lon": 0.0, "lat": 38.9292745, "bike_id": "cde714584edb258ebc3abf4e7bcdd233", "type": "electric_scooter", "is_reserved": 0, "lon": -77.02335816666667}, {"fusion_lat": 0.0, "name": "4f473b096c79a0bd1df0b7039d7e0684", "is_disabled": 0, "rental_uris": {"android": "https://dc.lft.to/lastmile_qr_scan", "ios": "https://dc.lft.to/lastmile_qr_scan"}, "fusion_lon": 0.0, "lat": 38.90730666666666, "bike_id": "4f473b096c79a0bd1df0b7039d7e0684", "type": "electric_scooter", "is_reserved": 0, "lon": -77.02893083333333}, {"fusion_lat": 0.0, "name": "2cefeb32091c8c4f5d999d08373c0ef7", "is_disabled": 0, "rental_uris": {"android": "https://dc.lft.to/lastmile_qr_scan", "ios": "https://dc.lft.to/lastmile_qr_scan"}, "fusion_lon": 0.0, "lat": 38.93077916666667, "bike_id": "2cefeb32091c8c4f5d999d08373c0ef7", "type": "electric_scooter", "is_reserved": 0, "lon": -77.07762383333333}, {"fusion_lat": 0.0, "name": "fbc3b3f4746abb9dfa3be87a81dc5cbd", "is_disabled": 0, "rental_uris": {"android": "https://dc.lft.to/lastmile_qr_scan", "ios": "https://dc.lft.to/lastmile_qr_scan"}, "fusion_lon": 0.0, "lat": 38.919140166666665, "bike_id": "fbc3b3f4746abb9dfa3be87a81dc5cbd", "type": "electric_scooter", "is_reserved": 0, "lon": -77.041531}, {"fusion_lat": 0.0, "name": "7c1cfd5613d385145acdc4f2d23c589d", "is_disabled": 0, "rental_uris": {"android": "https://dc.lft.to/lastmile_qr_scan", "ios": "https://dc.lft.to/lastmile_qr_scan"}, "fusion_lon": 0.0, "lat": 38.90395816666667, "bike_id": "7c1cfd5613d385145acdc4f2d23c589d", "type": "electric_scooter", "is_reserved": 0, "lon": -76.990095}, {"fusion_lat": 0.0, "name": "27bd36bc194912e43381b31405afeabc", "is_disabled": 0, "rental_uris": {"android": "https://dc.lft.to/lastmile_qr_scan", "ios": "https://dc.lft.to/lastmile_qr_scan"}, "fusion_lon": 0.0, "lat": 38.9523485, "bike_id": "27bd36bc194912e43381b31405afeabc", "type": "electric_scooter", "is_reserved": 0, "lon": -76.990071}, {"fusion_lat": 0.0, "name": "47a5c8e8b1795cfa32566a5c21573962", "is_disabled": 0, "rental_uris": {"android": "https://dc.lft.to/lastmile_qr_scan", "ios": "https://dc.lft.to/lastmile_qr_scan"}, "fusion_lon": 0.0, "lat": 38.926012666666665, "bike_id": "47a5c8e8b1795cfa32566a5c21573962", "type": "electric_scooter", "is_reserved": 0, "lon": -77.02156}, {"fusion_lat": 0.0, "name": "b8e00d35293c4d2aa03f52ae5e5e428b", "is_disabled": 0, "rental_uris": {"android": "https://dc.lft.to/lastmile_qr_scan", "ios": "https://dc.lft.to/lastmile_qr_scan"}, "fusion_lon": 0.0, "lat": 38.921552166666665, "bike_id": "b8e00d35293c4d2aa03f52ae5e5e428b", "type": "electric_scooter", "is_reserved": 0, "lon": -77.0335825}, {"fusion_lat": 0.0, "name": "f91da1ea97b1d12cdbe34e6a7cea6f82", "is_disabled": 0, "rental_uris": {"android": "https://dc.lft.to/lastmile_qr_scan", "ios": "https://dc.lft.to/lastmile_qr_scan"}, "fusion_lon": 0.0, "lat": 38.93524333333333, "bike_id": "f91da1ea97b1d12cdbe34e6a7cea6f82", "type": "electric_scooter", "is_reserved": 0, "lon": -77.03262166666667}, {"fusion_lat": 0.0, "name": "b565928fb5332840d521445e65a02ba6", "is_disabled": 0, "rental_uris": {"android": "https://dc.lft.to/lastmile_qr_scan", "ios": "https://dc.lft.to/lastmile_qr_scan"}, "fusion_lon": 0.0, "lat": 38.90408166666667, "bike_id": "b565928fb5332840d521445e65a02ba6", "type": "electric_scooter", "is_reserved": 0, "lon": -76.97330233333334}, {"fusion_lat": 0.0, "name": "ab16ebd63e5a5c8de775d8ec79d75cfd", "is_disabled": 0, "rental_uris": {"android": "https://dc.lft.to/lastmile_qr_scan", "ios": "https://dc.lft.to/lastmile_qr_scan"}, "fusion_lon": 0.0, "lat": 38.90256316666667, "bike_id": "ab16ebd63e5a5c8de775d8ec79d75cfd", "type": "electric_scooter", "is_reserved": 0, "lon": -76.97455683333334}, {"fusion_lat": 0.0, "name": "392e8ed866d1e0051b9537ec5edf3eea", "is_disabled": 0, "rental_uris": {"android": "https://dc.lft.to/lastmile_qr_scan", "ios": "https://dc.lft.to/lastmile_qr_scan"}, "fusion_lon": 0.0, "lat": 38.93547566666667, "bike_id": "392e8ed866d1e0051b9537ec5edf3eea", "type": "electric_scooter", "is_reserved": 0, "lon": -77.02220083333333}, {"fusion_lat": 0.0, "name": "c7c6a6a277410a14c0a6c3f10af581dd", "is_disabled": 0, "rental_uris": {"android": "https://dc.lft.to/lastmile_qr_scan", "ios": "https://dc.lft.to/lastmile_qr_scan"}, "fusion_lon": 0.0, "lat": 38.9306055, "bike_id": "c7c6a6a277410a14c0a6c3f10af581dd", "type": "electric_scooter", "is_reserved": 0, "lon": -77.03941433333334}, {"fusion_lat": 0.0, "name": "7d96e78af6b8de43844c788cb20bb71a", "is_disabled": 0, "rental_uris": {"android": "https://dc.lft.to/lastmile_qr_scan", "ios": "https://dc.lft.to/lastmile_qr_scan"}, "fusion_lon": 0.0, "lat": 38.906566833333336, "bike_id": "7d96e78af6b8de43844c788cb20bb71a", "type": "electric_scooter", "is_reserved": 0, "lon": -77.02958983333333}, {"fusion_lat": 0.0, "name": "55386be82f87d2badfedf94d7378123c", "is_disabled": 0, "rental_uris": {"android": "https://dc.lft.to/lastmile_qr_scan", "ios": "https://dc.lft.to/lastmile_qr_scan"}, "fusion_lon": 0.0, "lat": 38.91117916666666, "bike_id": "55386be82f87d2badfedf94d7378123c", "type": "electric_scooter", "is_reserved": 0, "lon": -76.99766816666667}, {"fusion_lat": 0.0, "name": "28b4bfd0f51ab1626059ed9259310834", "is_disabled": 0, "rental_uris": {"android": "https://dc.lft.to/lastmile_qr_scan", "ios": "https://dc.lft.to/lastmile_qr_scan"}, "fusion_lon": 0.0, "lat": 38.95917, "bike_id": "28b4bfd0f51ab1626059ed9259310834", "type": "electric_scooter", "is_reserved": 0, "lon": -77.08485166666667}, {"fusion_lat": 0.0, "name": "952c481fd22ca00a08aad393b1cfbd92", "is_disabled": 0, "rental_uris": {"android": "https://dc.lft.to/lastmile_qr_scan", "ios": "https://dc.lft.to/lastmile_qr_scan"}, "fusion_lon": 0.0, "lat": 38.9450885, "bike_id": "952c481fd22ca00a08aad393b1cfbd92", "type": "electric_bike", "is_reserved": 0, "lon": -77.00671283333334}, {"fusion_lat": 0.0, "name": "358ff6194224df1b32c967b1f9d58586", "is_disabled": 0, "rental_uris": {"android": "https://dc.lft.to/lastmile_qr_scan", "ios": "https://dc.lft.to/lastmile_qr_scan"}, "fusion_lon": 0.0, "lat": 38.9268175, "bike_id": "358ff6194224df1b32c967b1f9d58586", "type": "electric_scooter", "is_reserved": 0, "lon": -77.022547}, {"fusion_lat": 0.0, "name": "cec656368b51455e2988ca66abc1eb6b", "is_disabled": 0, "rental_uris": {"android": "https://dc.lft.to/lastmile_qr_scan", "ios": "https://dc.lft.to/lastmile_qr_scan"}, "fusion_lon": 0.0, "lat": 38.949803, "bike_id": "cec656368b51455e2988ca66abc1eb6b", "type": "electric_scooter", "is_reserved": 0, "lon": -77.026997}, {"fusion_lat": 0.0, "name": "e64c6280fa2ef3368b7a00f68635a32f", "is_disabled": 0, "rental_uris": {"android": "https://dc.lft.to/lastmile_qr_scan", "ios": "https://dc.lft.to/lastmile_qr_scan"}, "fusion_lon": 0.0, "lat": 38.9253755, "bike_id": "e64c6280fa2ef3368b7a00f68635a32f", "type": "electric_scooter", "is_reserved": 0, "lon": -77.05112316666667}, {"fusion_lat": 0.0, "name": "88d5d0efe207041a9509e4b245ae34b6", "is_disabled": 0, "rental_uris": {"android": "https://dc.lft.to/lastmile_qr_scan", "ios": "https://dc.lft.to/lastmile_qr_scan"}, "fusion_lon": 0.0, "lat": 38.868511833333336, "bike_id": "88d5d0efe207041a9509e4b245ae34b6", "type": "electric_scooter", "is_reserved": 0, "lon": -76.98831233333334}, {"fusion_lat": 0.0, "name": "c59f937a8b8038c4dab8261058bbd8b2", "is_disabled": 0, "rental_uris": {"android": "https://dc.lft.to/lastmile_qr_scan", "ios": "https://dc.lft.to/lastmile_qr_scan"}, "fusion_lon": 0.0, "lat": 38.875715666666665, "bike_id": "c59f937a8b8038c4dab8261058bbd8b2", "type": "electric_scooter", "is_reserved": 0, "lon": -77.00742966666667}, {"fusion_lat": 0.0, "name": "8bf77c5ddfa31bc9087b5a952d54a506", "is_disabled": 0, "rental_uris": {"android": "https://dc.lft.to/lastmile_qr_scan", "ios": "https://dc.lft.to/lastmile_qr_scan"}, "fusion_lon": 0.0, "lat": 38.9166425, "bike_id": "8bf77c5ddfa31bc9087b5a952d54a506", "type": "electric_bike", "is_reserved": 0, "lon": -76.98233116666667}, {"fusion_lat": 0.0, "name": "0e2e213a01dc61190e13bdc89678bd07", "is_disabled": 0, "rental_uris": {"android": "https://dc.lft.to/lastmile_qr_scan", "ios": "https://dc.lft.to/lastmile_qr_scan"}, "fusion_lon": 0.0, "lat": 38.88740166666667, "bike_id": "0e2e213a01dc61190e13bdc89678bd07", "type": "electric_scooter", "is_reserved": 0, "lon": -77.02173116666667}, {"fusion_lat": 0.0, "name": "c2c02fa4f6b3fff4c321412cb23278d8", "is_disabled": 0, "rental_uris": {"android": "https://dc.lft.to/lastmile_qr_scan", "ios": "https://dc.lft.to/lastmile_qr_scan"}, "fusion_lon": 0.0, "lat": 38.94388166666667, "bike_id": "c2c02fa4f6b3fff4c321412cb23278d8", "type": "electric_scooter", "is_reserved": 0, "lon": -77.03210333333334}, {"fusion_lat": 0.0, "name": "11f6102fe6ed054ed0b0ff71927735d2", "is_disabled": 0, "rental_uris": {"android": "https://dc.lft.to/lastmile_qr_scan", "ios": "https://dc.lft.to/lastmile_qr_scan"}, "fusion_lon": 0.0, "lat": 38.953473333333335, "bike_id": "11f6102fe6ed054ed0b0ff71927735d2", "type": "electric_scooter", "is_reserved": 0, "lon": -77.07953833333333}, {"fusion_lat": 0.0, "name": "8ab8191967b07799ce701163e9740baa", "is_disabled": 0, "rental_uris": {"android": "https://dc.lft.to/lastmile_qr_scan", "ios": "https://dc.lft.to/lastmile_qr_scan"}, "fusion_lon": 0.0, "lat": 38.8951925, "bike_id": "8ab8191967b07799ce701163e9740baa", "type": "electric_scooter", "is_reserved": 0, "lon": -76.98086866666667}, {"fusion_lat": 0.0, "name": "b68fdbdcaae1128892de36971b07e5dc", "is_disabled": 0, "rental_uris": {"android": "https://dc.lft.to/lastmile_qr_scan", "ios": "https://dc.lft.to/lastmile_qr_scan"}, "fusion_lon": 0.0, "lat": 38.921159, "bike_id": "b68fdbdcaae1128892de36971b07e5dc", "type": "electric_scooter", "is_reserved": 0, "lon": -77.03161616666667}, {"fusion_lat": 0.0, "name": "b2d84828a818e42ee273914cc34fb04f", "is_disabled": 0, "rental_uris": {"android": "https://dc.lft.to/lastmile_qr_scan", "ios": "https://dc.lft.to/lastmile_qr_scan"}, "fusion_lon": 0.0, "lat": 38.9170705, "bike_id": "b2d84828a818e42ee273914cc34fb04f", "type": "electric_scooter", "is_reserved": 0, "lon": -77.02743816666667}, {"fusion_lat": 0.0, "name": "1fe4733a13a73c4a53a2c32e066408b1", "is_disabled": 0, "rental_uris": {"android": "https://dc.lft.to/lastmile_qr_scan", "ios": "https://dc.lft.to/lastmile_qr_scan"}, "fusion_lon": 0.0, "lat": 38.884227833333334, "bike_id": "1fe4733a13a73c4a53a2c32e066408b1", "type": "electric_scooter", "is_reserved": 0, "lon": -77.02899966666666}, {"fusion_lat": 0.0, "name": "e10d4512897addc613e442140dd1fe8e", "is_disabled": 0, "rental_uris": {"android": "https://dc.lft.to/lastmile_qr_scan", "ios": "https://dc.lft.to/lastmile_qr_scan"}, "fusion_lon": 0.0, "lat": 38.923500833333335, "bike_id": "e10d4512897addc613e442140dd1fe8e", "type": "electric_scooter", "is_reserved": 0, "lon": -76.99250683333334}, {"fusion_lat": 0.0, "name": "63498af2b5850b4558e45129953f2e24", "is_disabled": 0, "rental_uris": {"android": "https://dc.lft.to/lastmile_qr_scan", "ios": "https://dc.lft.to/lastmile_qr_scan"}, "fusion_lon": 0.0, "lat": 38.84755633333333, "bike_id": "63498af2b5850b4558e45129953f2e24", "type": "electric_scooter", "is_reserved": 0, "lon": -76.99499116666667}, {"fusion_lat": 0.0, "name": "48f2d781e2db3785a0a6049d2104d04d", "is_disabled": 0, "rental_uris": {"android": "https://dc.lft.to/lastmile_qr_scan", "ios": "https://dc.lft.to/lastmile_qr_scan"}, "fusion_lon": 0.0, "lat": 38.94516316666667, "bike_id": "48f2d781e2db3785a0a6049d2104d04d", "type": "electric_scooter", "is_reserved": 0, "lon": -77.0388855}, {"fusion_lat": 0.0, "name": "4afdd2b67ad441f02b7200a8ef5abcef", "is_disabled": 0, "rental_uris": {"android": "https://dc.lft.to/lastmile_qr_scan", "ios": "https://dc.lft.to/lastmile_qr_scan"}, "fusion_lon": 0.0, "lat": 38.90014683333333, "bike_id": "4afdd2b67ad441f02b7200a8ef5abcef", "type": "electric_scooter", "is_reserved": 0, "lon": -77.03167216666667}, {"fusion_lat": 0.0, "name": "84f49f419ce2970ffb974df4f06cfff9", "is_disabled": 0, "rental_uris": {"android": "https://dc.lft.to/lastmile_qr_scan", "ios": "https://dc.lft.to/lastmile_qr_scan"}, "fusion_lon": 0.0, "lat": 38.88991033333333, "bike_id": "84f49f419ce2970ffb974df4f06cfff9", "type": "electric_scooter", "is_reserved": 0, "lon": -76.92985383333334}, {"fusion_lat": 0.0, "name": "52561a75c02ea646f92f5572372ecdc2", "is_disabled": 0, "rental_uris": {"android": "https://dc.lft.to/lastmile_qr_scan", "ios": "https://dc.lft.to/lastmile_qr_scan"}, "fusion_lon": 0.0, "lat": 38.93703033333333, "bike_id": "52561a75c02ea646f92f5572372ecdc2", "type": "electric_scooter", "is_reserved": 0, "lon": -77.061059}, {"fusion_lat": 0.0, "name": "1cd72364f54e9a188e6a21dd10c30699", "is_disabled": 0, "rental_uris": {"android": "https://dc.lft.to/lastmile_qr_scan", "ios": "https://dc.lft.to/lastmile_qr_scan"}, "fusion_lon": 0.0, "lat": 38.935830833333334, "bike_id": "1cd72364f54e9a188e6a21dd10c30699", "type": "electric_scooter", "is_reserved": 0, "lon": -77.02378466666667}, {"fusion_lat": 0.0, "name": "cdb7fa00f2fe1ef6660c0855d835c1f4", "is_disabled": 0, "rental_uris": {"android": "https://dc.lft.to/lastmile_qr_scan", "ios": "https://dc.lft.to/lastmile_qr_scan"}, "fusion_lon": 0.0, "lat": 38.887538, "bike_id": "cdb7fa00f2fe1ef6660c0855d835c1f4", "type": "electric_scooter", "is_reserved": 0, "lon": -76.99784883333334}, {"fusion_lat": 0.0, "name": "fe59201318ab4b16f9a4a647f9ccf0a8", "is_disabled": 0, "rental_uris": {"android": "https://dc.lft.to/lastmile_qr_scan", "ios": "https://dc.lft.to/lastmile_qr_scan"}, "fusion_lon": 0.0, "lat": 38.90119416666667, "bike_id": "fe59201318ab4b16f9a4a647f9ccf0a8", "type": "electric_scooter", "is_reserved": 0, "lon": -77.0401475}, {"fusion_lat": 0.0, "name": "5abfb6a2ebedd7cb9549964daf170d5b", "is_disabled": 0, "rental_uris": {"android": "https://dc.lft.to/lastmile_qr_scan", "ios": "https://dc.lft.to/lastmile_qr_scan"}, "fusion_lon": 0.0, "lat": 38.9102975, "bike_id": "5abfb6a2ebedd7cb9549964daf170d5b", "type": "electric_scooter", "is_reserved": 0, "lon": -77.04266566666666}, {"fusion_lat": 0.0, "name": "b1bf2ea28543998510e63cdcf4d5e93a", "is_disabled": 0, "rental_uris": {"android": "https://dc.lft.to/lastmile_qr_scan", "ios": "https://dc.lft.to/lastmile_qr_scan"}, "fusion_lon": 0.0, "lat": 38.926471666666664, "bike_id": "b1bf2ea28543998510e63cdcf4d5e93a", "type": "electric_scooter", "is_reserved": 0, "lon": -77.03859}, {"fusion_lat": 0.0, "name": "d074d968ddef38e88f598c7144f95e83", "is_disabled": 0, "rental_uris": {"android": "https://dc.lft.to/lastmile_qr_scan", "ios": "https://dc.lft.to/lastmile_qr_scan"}, "fusion_lon": 0.0, "lat": 38.92611016666667, "bike_id": "d074d968ddef38e88f598c7144f95e83", "type": "electric_scooter", "is_reserved": 0, "lon": -77.02157816666667}, {"fusion_lat": 0.0, "name": "be24a1147d905f757bfe9ffed84669e4", "is_disabled": 0, "rental_uris": {"android": "https://dc.lft.to/lastmile_qr_scan", "ios": "https://dc.lft.to/lastmile_qr_scan"}, "fusion_lon": 0.0, "lat": 38.89197083333333, "bike_id": "be24a1147d905f757bfe9ffed84669e4", "type": "electric_scooter", "is_reserved": 0, "lon": -77.0222465}, {"fusion_lat": 0.0, "name": "b409fabc443cade1a2d98c9ecbc31a0b", "is_disabled": 0, "rental_uris": {"android": "https://dc.lft.to/lastmile_qr_scan", "ios": "https://dc.lft.to/lastmile_qr_scan"}, "fusion_lon": 0.0, "lat": 38.899899166666664, "bike_id": "b409fabc443cade1a2d98c9ecbc31a0b", "type": "electric_scooter", "is_reserved": 0, "lon": -77.05502783333333}, {"fusion_lat": 0.0, "name": "872475f5bd967332c1a815c170611ee7", "is_disabled": 0, "rental_uris": {"android": "https://dc.lft.to/lastmile_qr_scan", "ios": "https://dc.lft.to/lastmile_qr_scan"}, "fusion_lon": 0.0, "lat": 38.91026166666666, "bike_id": "872475f5bd967332c1a815c170611ee7", "type": "electric_scooter", "is_reserved": 0, "lon": -77.03338766666667}, {"fusion_lat": 0.0, "name": "994f9c1a9caab0118fcad960e4ae2e90", "is_disabled": 0, "rental_uris": {"android": "https://dc.lft.to/lastmile_qr_scan", "ios": "https://dc.lft.to/lastmile_qr_scan"}, "fusion_lon": 0.0, "lat": 38.91645783333333, "bike_id": "994f9c1a9caab0118fcad960e4ae2e90", "type": "electric_scooter", "is_reserved": 0, "lon": -77.0479645}, {"fusion_lat": 0.0, "name": "fec01ca23e76d2ab1b3cda8a6ccb3f69", "is_disabled": 0, "rental_uris": {"android": "https://dc.lft.to/lastmile_qr_scan", "ios": "https://dc.lft.to/lastmile_qr_scan"}, "fusion_lon": 0.0, "lat": 39.036086166666664, "bike_id": "fec01ca23e76d2ab1b3cda8a6ccb3f69", "type": "electric_bike", "is_reserved": 0, "lon": -77.05539083333333}, {"fusion_lat": 0.0, "name": "71e7f2ced4cba8bfb0c29b78f42bc247", "is_disabled": 0, "rental_uris": {"android": "https://dc.lft.to/lastmile_qr_scan", "ios": "https://dc.lft.to/lastmile_qr_scan"}, "fusion_lon": 0.0, "lat": 38.9208175, "bike_id": "71e7f2ced4cba8bfb0c29b78f42bc247", "type": "electric_bike", "is_reserved": 0, "lon": -77.07196133333333}, {"fusion_lat": 0.0, "name": "8664b7aaa24c95e511606b1bd1c98dc8", "is_disabled": 0, "rental_uris": {"android": "https://dc.lft.to/lastmile_qr_scan", "ios": "https://dc.lft.to/lastmile_qr_scan"}, "fusion_lon": 0.0, "lat": 38.91043833333333, "bike_id": "8664b7aaa24c95e511606b1bd1c98dc8", "type": "electric_scooter", "is_reserved": 0, "lon": -77.03829716666667}, {"fusion_lat": 0.0, "name": "ff964caaae027bb7f74c1a16ace6a849", "is_disabled": 0, "rental_uris": {"android": "https://dc.lft.to/lastmile_qr_scan", "ios": "https://dc.lft.to/lastmile_qr_scan"}, "fusion_lon": 0.0, "lat": 38.914836, "bike_id": "ff964caaae027bb7f74c1a16ace6a849", "type": "electric_scooter", "is_reserved": 0, "lon": -77.04274633333333}, {"fusion_lat": 0.0, "name": "2e553476b9554667e87dbd471e0974d6", "is_disabled": 0, "rental_uris": {"android": "https://dc.lft.to/lastmile_qr_scan", "ios": "https://dc.lft.to/lastmile_qr_scan"}, "fusion_lon": 0.0, "lat": 38.91972966666667, "bike_id": "2e553476b9554667e87dbd471e0974d6", "type": "electric_scooter", "is_reserved": 0, "lon": -77.07093633333334}, {"fusion_lat": 0.0, "name": "0730b466ccca17efc6b3f2e799d881e1", "is_disabled": 0, "rental_uris": {"android": "https://dc.lft.to/lastmile_qr_scan", "ios": "https://dc.lft.to/lastmile_qr_scan"}, "fusion_lon": 0.0, "lat": 38.90536633333333, "bike_id": "0730b466ccca17efc6b3f2e799d881e1", "type": "electric_scooter", "is_reserved": 0, "lon": -77.05679516666666}, {"fusion_lat": 0.0, "name": "bf9f0346a28fc0eb2d10d57c1afed82d", "is_disabled": 0, "rental_uris": {"android": "https://dc.lft.to/lastmile_qr_scan", "ios": "https://dc.lft.to/lastmile_qr_scan"}, "fusion_lon": 0.0, "lat": 38.937015833333334, "bike_id": "bf9f0346a28fc0eb2d10d57c1afed82d", "type": "electric_scooter", "is_reserved": 0, "lon": -77.06103616666667}, {"fusion_lat": 0.0, "name": "6668e11776c3b4e96a23deab736625b3", "is_disabled": 0, "rental_uris": {"android": "https://dc.lft.to/lastmile_qr_scan", "ios": "https://dc.lft.to/lastmile_qr_scan"}, "fusion_lon": 0.0, "lat": 38.9095815, "bike_id": "6668e11776c3b4e96a23deab736625b3", "type": "electric_scooter", "is_reserved": 0, "lon": -77.0486165}, {"fusion_lat": 0.0, "name": "fb41c92befaf164a97e9ea2c9c0a1b3f", "is_disabled": 0, "rental_uris": {"android": "https://dc.lft.to/lastmile_qr_scan", "ios": "https://dc.lft.to/lastmile_qr_scan"}, "fusion_lon": 0.0, "lat": 38.8975125, "bike_id": "fb41c92befaf164a97e9ea2c9c0a1b3f", "type": "electric_scooter", "is_reserved": 0, "lon": -77.027906}, {"fusion_lat": 0.0, "name": "821c3bea61caaebff0921d4e3c1b5427", "is_disabled": 0, "rental_uris": {"android": "https://dc.lft.to/lastmile_qr_scan", "ios": "https://dc.lft.to/lastmile_qr_scan"}, "fusion_lon": 0.0, "lat": 38.95656116666667, "bike_id": "821c3bea61caaebff0921d4e3c1b5427", "type": "electric_scooter", "is_reserved": 0, "lon": -77.033298}, {"fusion_lat": 0.0, "name": "dc75d8f8c5780a8307260cc83e49b6c5", "is_disabled": 0, "rental_uris": {"android": "https://dc.lft.to/lastmile_qr_scan", "ios": "https://dc.lft.to/lastmile_qr_scan"}, "fusion_lon": 0.0, "lat": 38.9241165, "bike_id": "dc75d8f8c5780a8307260cc83e49b6c5", "type": "electric_scooter", "is_reserved": 0, "lon": -77.02010366666667}, {"fusion_lat": 0.0, "name": "4fab0ca4190d038d6668005bd39c7359", "is_disabled": 0, "rental_uris": {"android": "https://dc.lft.to/lastmile_qr_scan", "ios": "https://dc.lft.to/lastmile_qr_scan"}, "fusion_lon": 0.0, "lat": 38.92203083333333, "bike_id": "4fab0ca4190d038d6668005bd39c7359", "type": "electric_scooter", "is_reserved": 0, "lon": -77.0413}, {"fusion_lat": 0.0, "name": "8f8bcfbce708848954d9f064ae12d89c", "is_disabled": 0, "rental_uris": {"android": "https://dc.lft.to/lastmile_qr_scan", "ios": "https://dc.lft.to/lastmile_qr_scan"}, "fusion_lon": 0.0, "lat": 38.95627316666667, "bike_id": "8f8bcfbce708848954d9f064ae12d89c", "type": "electric_bike", "is_reserved": 0, "lon": -76.93875016666667}, {"fusion_lat": 0.0, "name": "a10a37e200becbeacab757319deddda6", "is_disabled": 0, "rental_uris": {"android": "https://dc.lft.to/lastmile_qr_scan", "ios": "https://dc.lft.to/lastmile_qr_scan"}, "fusion_lon": 0.0, "lat": 38.92220316666667, "bike_id": "a10a37e200becbeacab757319deddda6", "type": "electric_scooter", "is_reserved": 0, "lon": -77.04244516666667}, {"fusion_lat": 0.0, "name": "0a216166f9a61cf19be7f638994fb96a", "is_disabled": 0, "rental_uris": {"android": "https://dc.lft.to/lastmile_qr_scan", "ios": "https://dc.lft.to/lastmile_qr_scan"}, "fusion_lon": 0.0, "lat": 38.9452525, "bike_id": "0a216166f9a61cf19be7f638994fb96a", "type": "electric_scooter", "is_reserved": 0, "lon": -77.0208095}, {"fusion_lat": 0.0, "name": "e36111dcffb491f828a9e3fa65d80843", "is_disabled": 0, "rental_uris": {"android": "https://dc.lft.to/lastmile_qr_scan", "ios": "https://dc.lft.to/lastmile_qr_scan"}, "fusion_lon": 0.0, "lat": 38.9147895, "bike_id": "e36111dcffb491f828a9e3fa65d80843", "type": "electric_scooter", "is_reserved": 0, "lon": -77.03260866666666}, {"fusion_lat": 0.0, "name": "5f8d5925b227eca356f4455b4133b0c1", "is_disabled": 0, "rental_uris": {"android": "https://dc.lft.to/lastmile_qr_scan", "ios": "https://dc.lft.to/lastmile_qr_scan"}, "fusion_lon": 0.0, "lat": 38.8922305, "bike_id": "5f8d5925b227eca356f4455b4133b0c1", "type": "electric_scooter", "is_reserved": 0, "lon": -77.02632133333333}, {"fusion_lat": 0.0, "name": "0e8bc193f3433ab5f4035c2a8b45cb14", "is_disabled": 0, "rental_uris": {"android": "https://dc.lft.to/lastmile_qr_scan", "ios": "https://dc.lft.to/lastmile_qr_scan"}, "fusion_lon": 0.0, "lat": 38.89489966666667, "bike_id": "0e8bc193f3433ab5f4035c2a8b45cb14", "type": "electric_scooter", "is_reserved": 0, "lon": -77.0110335}, {"fusion_lat": 0.0, "name": "c5c1e0a200d1ded27ae0251920976ff6", "is_disabled": 0, "rental_uris": {"android": "https://dc.lft.to/lastmile_qr_scan", "ios": "https://dc.lft.to/lastmile_qr_scan"}, "fusion_lon": 0.0, "lat": 38.919641, "bike_id": "c5c1e0a200d1ded27ae0251920976ff6", "type": "electric_scooter", "is_reserved": 0, "lon": -77.01793216666667}, {"fusion_lat": 0.0, "name": "50e366a147dc010a741efc27f201805e", "is_disabled": 0, "rental_uris": {"android": "https://dc.lft.to/lastmile_qr_scan", "ios": "https://dc.lft.to/lastmile_qr_scan"}, "fusion_lon": 0.0, "lat": 39.0107695, "bike_id": "50e366a147dc010a741efc27f201805e", "type": "electric_bike", "is_reserved": 0, "lon": -76.91062833333334}, {"fusion_lat": 0.0, "name": "c4c67aeb85a996938b38c148f3a4c12e", "is_disabled": 0, "rental_uris": {"android": "https://dc.lft.to/lastmile_qr_scan", "ios": "https://dc.lft.to/lastmile_qr_scan"}, "fusion_lon": 0.0, "lat": 38.8921985, "bike_id": "c4c67aeb85a996938b38c148f3a4c12e", "type": "electric_scooter", "is_reserved": 0, "lon": -77.02630116666667}, {"fusion_lat": 0.0, "name": "2f4c3ca5b3b9181b7c59a4604109c876", "is_disabled": 0, "rental_uris": {"android": "https://dc.lft.to/lastmile_qr_scan", "ios": "https://dc.lft.to/lastmile_qr_scan"}, "fusion_lon": 0.0, "lat": 38.93048183333333, "bike_id": "2f4c3ca5b3b9181b7c59a4604109c876", "type": "electric_scooter", "is_reserved": 0, "lon": -77.04062883333333}, {"fusion_lat": 0.0, "name": "8ae6da152490534e7267f5db2fe328b7", "is_disabled": 0, "rental_uris": {"android": "https://dc.lft.to/lastmile_qr_scan", "ios": "https://dc.lft.to/lastmile_qr_scan"}, "fusion_lon": 0.0, "lat": 38.89299666666667, "bike_id": "8ae6da152490534e7267f5db2fe328b7", "type": "electric_scooter", "is_reserved": 0, "lon": -77.046581}, {"fusion_lat": 0.0, "name": "552d699ed0375f4204dc54e7a20f79d9", "is_disabled": 0, "rental_uris": {"android": "https://dc.lft.to/lastmile_qr_scan", "ios": "https://dc.lft.to/lastmile_qr_scan"}, "fusion_lon": 0.0, "lat": 38.89471116666667, "bike_id": "552d699ed0375f4204dc54e7a20f79d9", "type": "electric_scooter", "is_reserved": 0, "lon": -77.01035733333333}, {"fusion_lat": 0.0, "name": "2fbe099cb8b32dbb19c240c3669bdce0", "is_disabled": 0, "rental_uris": {"android": "https://dc.lft.to/lastmile_qr_scan", "ios": "https://dc.lft.to/lastmile_qr_scan"}, "fusion_lon": 0.0, "lat": 38.917013, "bike_id": "2fbe099cb8b32dbb19c240c3669bdce0", "type": "electric_scooter", "is_reserved": 0, "lon": -77.040397}, {"fusion_lat": 0.0, "name": "1fb0430bfc4f70eafd13a1f96a61fe05", "is_disabled": 0, "rental_uris": {"android": "https://dc.lft.to/lastmile_qr_scan", "ios": "https://dc.lft.to/lastmile_qr_scan"}, "fusion_lon": 0.0, "lat": 38.929007166666665, "bike_id": "1fb0430bfc4f70eafd13a1f96a61fe05", "type": "electric_scooter", "is_reserved": 0, "lon": -77.03760183333333}, {"fusion_lat": 0.0, "name": "fc0ed393635f76f69664790c46d12b67", "is_disabled": 0, "rental_uris": {"android": "https://dc.lft.to/lastmile_qr_scan", "ios": "https://dc.lft.to/lastmile_qr_scan"}, "fusion_lon": 0.0, "lat": 38.91449883333333, "bike_id": "fc0ed393635f76f69664790c46d12b67", "type": "electric_scooter", "is_reserved": 0, "lon": -77.01279133333334}, {"fusion_lat": 0.0, "name": "64be8efe024b1aa3bc7bf397b35b75b0", "is_disabled": 0, "rental_uris": {"android": "https://dc.lft.to/lastmile_qr_scan", "ios": "https://dc.lft.to/lastmile_qr_scan"}, "fusion_lon": 0.0, "lat": 38.9352105, "bike_id": "64be8efe024b1aa3bc7bf397b35b75b0", "type": "electric_scooter", "is_reserved": 0, "lon": -77.030792}, {"fusion_lat": 0.0, "name": "a811a3b793eb7ab19b9c1054d48be03d", "is_disabled": 0, "rental_uris": {"android": "https://dc.lft.to/lastmile_qr_scan", "ios": "https://dc.lft.to/lastmile_qr_scan"}, "fusion_lon": 0.0, "lat": 38.93574683333333, "bike_id": "a811a3b793eb7ab19b9c1054d48be03d", "type": "electric_scooter", "is_reserved": 0, "lon": -77.01925416666667}, {"fusion_lat": 0.0, "name": "1194bb5040b4c643aacd96daf65cac95", "is_disabled": 0, "rental_uris": {"android": "https://dc.lft.to/lastmile_qr_scan", "ios": "https://dc.lft.to/lastmile_qr_scan"}, "fusion_lon": 0.0, "lat": 38.91711166666666, "bike_id": "1194bb5040b4c643aacd96daf65cac95", "type": "electric_scooter", "is_reserved": 0, "lon": -77.0355455}, {"fusion_lat": 0.0, "name": "896732e34491bffae36e9550f5854ad5", "is_disabled": 0, "rental_uris": {"android": "https://dc.lft.to/lastmile_qr_scan", "ios": "https://dc.lft.to/lastmile_qr_scan"}, "fusion_lon": 0.0, "lat": 38.94855733333333, "bike_id": "896732e34491bffae36e9550f5854ad5", "type": "electric_scooter", "is_reserved": 0, "lon": -77.0256995}, {"fusion_lat": 0.0, "name": "6649cf3d60d02c44bae2f3c9c86c24a8", "is_disabled": 0, "rental_uris": {"android": "https://dc.lft.to/lastmile_qr_scan", "ios": "https://dc.lft.to/lastmile_qr_scan"}, "fusion_lon": 0.0, "lat": 38.94270983333333, "bike_id": "6649cf3d60d02c44bae2f3c9c86c24a8", "type": "electric_scooter", "is_reserved": 0, "lon": -77.03251966666667}, {"fusion_lat": 0.0, "name": "78f1ee499fe0cae55b7b7fa245bf830c", "is_disabled": 0, "rental_uris": {"android": "https://dc.lft.to/lastmile_qr_scan", "ios": "https://dc.lft.to/lastmile_qr_scan"}, "fusion_lon": 0.0, "lat": 38.83510283333333, "bike_id": "78f1ee499fe0cae55b7b7fa245bf830c", "type": "electric_bike", "is_reserved": 0, "lon": -76.9867495}, {"fusion_lat": 0.0, "name": "83e95ed0bd508d7d7367029cdeb92e1e", "is_disabled": 0, "rental_uris": {"android": "https://dc.lft.to/lastmile_qr_scan", "ios": "https://dc.lft.to/lastmile_qr_scan"}, "fusion_lon": 0.0, "lat": 38.887303, "bike_id": "83e95ed0bd508d7d7367029cdeb92e1e", "type": "electric_scooter", "is_reserved": 0, "lon": -77.03176333333333}, {"fusion_lat": 0.0, "name": "a8d45034f110bff21c11f1eda3b4b289", "is_disabled": 0, "rental_uris": {"android": "https://dc.lft.to/lastmile_qr_scan", "ios": "https://dc.lft.to/lastmile_qr_scan"}, "fusion_lon": 0.0, "lat": 38.900347333333336, "bike_id": "a8d45034f110bff21c11f1eda3b4b289", "type": "electric_scooter", "is_reserved": 0, "lon": -77.00199216666667}, {"fusion_lat": 0.0, "name": "9ae354b77a4b19d175669c9934ffc333", "is_disabled": 0, "rental_uris": {"android": "https://dc.lft.to/lastmile_qr_scan", "ios": "https://dc.lft.to/lastmile_qr_scan"}, "fusion_lon": 0.0, "lat": 38.9155185, "bike_id": "9ae354b77a4b19d175669c9934ffc333", "type": "electric_scooter", "is_reserved": 0, "lon": -77.0113155}, {"fusion_lat": 0.0, "name": "a197b11dc525142f3e1b0c02130e1182", "is_disabled": 0, "rental_uris": {"android": "https://dc.lft.to/lastmile_qr_scan", "ios": "https://dc.lft.to/lastmile_qr_scan"}, "fusion_lon": 0.0, "lat": 38.8840345, "bike_id": "a197b11dc525142f3e1b0c02130e1182", "type": "electric_scooter", "is_reserved": 0, "lon": -76.9858005}, {"fusion_lat": 0.0, "name": "153f35ec822520847d3f26c2f7096316", "is_disabled": 0, "rental_uris": {"android": "https://dc.lft.to/lastmile_qr_scan", "ios": "https://dc.lft.to/lastmile_qr_scan"}, "fusion_lon": 0.0, "lat": 38.90365383333334, "bike_id": "153f35ec822520847d3f26c2f7096316", "type": "electric_scooter", "is_reserved": 0, "lon": -77.05491366666666}, {"fusion_lat": 0.0, "name": "484d8603b4db0d9e911b98c42cd3b818", "is_disabled": 0, "rental_uris": {"android": "https://dc.lft.to/lastmile_qr_scan", "ios": "https://dc.lft.to/lastmile_qr_scan"}, "fusion_lon": 0.0, "lat": 38.897212, "bike_id": "484d8603b4db0d9e911b98c42cd3b818", "type": "electric_scooter", "is_reserved": 0, "lon": -77.007175}, {"fusion_lat": 0.0, "name": "b0f915cdd75a8589d5484c37c562d695", "is_disabled": 0, "rental_uris": {"android": "https://dc.lft.to/lastmile_qr_scan", "ios": "https://dc.lft.to/lastmile_qr_scan"}, "fusion_lon": 0.0, "lat": 38.8867685, "bike_id": "b0f915cdd75a8589d5484c37c562d695", "type": "electric_scooter", "is_reserved": 0, "lon": -77.013797}, {"fusion_lat": 0.0, "name": "f9bd7a9b202f6524e0766df8238c4f45", "is_disabled": 0, "rental_uris": {"android": "https://dc.lft.to/lastmile_qr_scan", "ios": "https://dc.lft.to/lastmile_qr_scan"}, "fusion_lon": 0.0, "lat": 38.94008683333333, "bike_id": "f9bd7a9b202f6524e0766df8238c4f45", "type": "electric_scooter", "is_reserved": 0, "lon": -77.084166}, {"fusion_lat": 0.0, "name": "09a9fb957e0a1c8826141c6fd393bd7f", "is_disabled": 0, "rental_uris": {"android": "https://dc.lft.to/lastmile_qr_scan", "ios": "https://dc.lft.to/lastmile_qr_scan"}, "fusion_lon": 0.0, "lat": 38.907718, "bike_id": "09a9fb957e0a1c8826141c6fd393bd7f", "type": "electric_scooter", "is_reserved": 0, "lon": -77.05594366666666}, {"fusion_lat": 0.0, "name": "7ee8fb7f5bc545fbb51b99a6bba29d83", "is_disabled": 0, "rental_uris": {"android": "https://dc.lft.to/lastmile_qr_scan", "ios": "https://dc.lft.to/lastmile_qr_scan"}, "fusion_lon": 0.0, "lat": 38.90062833333333, "bike_id": "7ee8fb7f5bc545fbb51b99a6bba29d83", "type": "electric_scooter", "is_reserved": 0, "lon": -76.93384333333333}, {"fusion_lat": 0.0, "name": "000ee593de81bcbe3822f05331a9bc29", "is_disabled": 0, "rental_uris": {"android": "https://dc.lft.to/lastmile_qr_scan", "ios": "https://dc.lft.to/lastmile_qr_scan"}, "fusion_lon": 0.0, "lat": 38.92293333333333, "bike_id": "000ee593de81bcbe3822f05331a9bc29", "type": "electric_scooter", "is_reserved": 0, "lon": -77.07316033333333}, {"fusion_lat": 0.0, "name": "2ec25c2c9221c589ad7711212ddc0cb1", "is_disabled": 0, "rental_uris": {"android": "https://dc.lft.to/lastmile_qr_scan", "ios": "https://dc.lft.to/lastmile_qr_scan"}, "fusion_lon": 0.0, "lat": 38.90289033333333, "bike_id": "2ec25c2c9221c589ad7711212ddc0cb1", "type": "electric_scooter", "is_reserved": 0, "lon": -76.99034483333334}, {"fusion_lat": 0.0, "name": "eb07931f8c2ec5552f2fe04188469ef8", "is_disabled": 0, "rental_uris": {"android": "https://dc.lft.to/lastmile_qr_scan", "ios": "https://dc.lft.to/lastmile_qr_scan"}, "fusion_lon": 0.0, "lat": 38.91803016666667, "bike_id": "eb07931f8c2ec5552f2fe04188469ef8", "type": "electric_scooter", "is_reserved": 0, "lon": -77.03443116666666}, {"fusion_lat": 0.0, "name": "9220ea944fe988bff7cea8754434f190", "is_disabled": 0, "rental_uris": {"android": "https://dc.lft.to/lastmile_qr_scan", "ios": "https://dc.lft.to/lastmile_qr_scan"}, "fusion_lon": 0.0, "lat": 38.91677333333333, "bike_id": "9220ea944fe988bff7cea8754434f190", "type": "electric_scooter", "is_reserved": 0, "lon": -77.032125}, {"fusion_lat": 0.0, "name": "5af02fd9aaaaf672d72c5a058591ed50", "is_disabled": 0, "rental_uris": {"android": "https://dc.lft.to/lastmile_qr_scan", "ios": "https://dc.lft.to/lastmile_qr_scan"}, "fusion_lon": 0.0, "lat": 38.9005045, "bike_id": "5af02fd9aaaaf672d72c5a058591ed50", "type": "electric_scooter", "is_reserved": 0, "lon": -77.00065883333333}, {"fusion_lat": 0.0, "name": "0155b6f8c9bd379cfa4a7c54076de129", "is_disabled": 0, "rental_uris": {"android": "https://dc.lft.to/lastmile_qr_scan", "ios": "https://dc.lft.to/lastmile_qr_scan"}, "fusion_lon": 0.0, "lat": 38.89612283333334, "bike_id": "0155b6f8c9bd379cfa4a7c54076de129", "type": "electric_bike", "is_reserved": 0, "lon": -77.02212933333334}, {"fusion_lat": 0.0, "name": "44da48e27a36b9961d3ea5c68c033a5e", "is_disabled": 0, "rental_uris": {"android": "https://dc.lft.to/lastmile_qr_scan", "ios": "https://dc.lft.to/lastmile_qr_scan"}, "fusion_lon": 0.0, "lat": 38.895759166666664, "bike_id": "44da48e27a36b9961d3ea5c68c033a5e", "type": "electric_bike", "is_reserved": 0, "lon": -77.02181183333333}, {"fusion_lat": 0.0, "name": "1ed35e7eb46e58c3d47c3e1262cd37c1", "is_disabled": 0, "rental_uris": {"android": "https://dc.lft.to/lastmile_qr_scan", "ios": "https://dc.lft.to/lastmile_qr_scan"}, "fusion_lon": 0.0, "lat": 38.99523416666667, "bike_id": "1ed35e7eb46e58c3d47c3e1262cd37c1", "type": "electric_bike", "is_reserved": 0, "lon": -77.02910516666667}, {"fusion_lat": 0.0, "name": "f3e80eb6c426204e8f5c9b2d9eefcc5a", "is_disabled": 0, "rental_uris": {"android": "https://dc.lft.to/lastmile_qr_scan", "ios": "https://dc.lft.to/lastmile_qr_scan"}, "fusion_lon": 0.0, "lat": 38.9060775, "bike_id": "f3e80eb6c426204e8f5c9b2d9eefcc5a", "type": "electric_scooter", "is_reserved": 0, "lon": -77.0647575}, {"fusion_lat": 0.0, "name": "35356bc47b1fd3c01646945ed6a54a4d", "is_disabled": 0, "rental_uris": {"android": "https://dc.lft.to/lastmile_qr_scan", "ios": "https://dc.lft.to/lastmile_qr_scan"}, "fusion_lon": 0.0, "lat": 38.926688, "bike_id": "35356bc47b1fd3c01646945ed6a54a4d", "type": "electric_scooter", "is_reserved": 0, "lon": -77.03052266666667}, {"fusion_lat": 0.0, "name": "cf18634c9c30a4fb34d2d605286ce97c", "is_disabled": 0, "rental_uris": {"android": "https://dc.lft.to/lastmile_qr_scan", "ios": "https://dc.lft.to/lastmile_qr_scan"}, "fusion_lon": 0.0, "lat": 38.944304333333335, "bike_id": "cf18634c9c30a4fb34d2d605286ce97c", "type": "electric_bike", "is_reserved": 0, "lon": -77.02602316666666}, {"fusion_lat": 0.0, "name": "38fd1305ea11e5ac95e9b531d3216f92", "is_disabled": 0, "rental_uris": {"android": "https://dc.lft.to/lastmile_qr_scan", "ios": "https://dc.lft.to/lastmile_qr_scan"}, "fusion_lon": 0.0, "lat": 38.890863333333336, "bike_id": "38fd1305ea11e5ac95e9b531d3216f92", "type": "electric_scooter", "is_reserved": 0, "lon": -76.919328}, {"fusion_lat": 0.0, "name": "498e2f0fc9568c4165d809546bfe94ab", "is_disabled": 0, "rental_uris": {"android": "https://dc.lft.to/lastmile_qr_scan", "ios": "https://dc.lft.to/lastmile_qr_scan"}, "fusion_lon": 0.0, "lat": 38.88748016666667, "bike_id": "498e2f0fc9568c4165d809546bfe94ab", "type": "electric_scooter", "is_reserved": 0, "lon": -77.031577}, {"fusion_lat": 0.0, "name": "5f2318e41488abb8e253b921b13d0936", "is_disabled": 0, "rental_uris": {"android": "https://dc.lft.to/lastmile_qr_scan", "ios": "https://dc.lft.to/lastmile_qr_scan"}, "fusion_lon": 0.0, "lat": 38.9359525, "bike_id": "5f2318e41488abb8e253b921b13d0936", "type": "electric_scooter", "is_reserved": 0, "lon": -77.023015}, {"fusion_lat": 0.0, "name": "1452da26b818567e5a703375263bfc0c", "is_disabled": 0, "rental_uris": {"android": "https://dc.lft.to/lastmile_qr_scan", "ios": "https://dc.lft.to/lastmile_qr_scan"}, "fusion_lon": 0.0, "lat": 38.90773733333333, "bike_id": "1452da26b818567e5a703375263bfc0c", "type": "electric_scooter", "is_reserved": 0, "lon": -77.03207166666667}, {"fusion_lat": 0.0, "name": "9bec7ab0276de357ac7b8dc38c766275", "is_disabled": 0, "rental_uris": {"android": "https://dc.lft.to/lastmile_qr_scan", "ios": "https://dc.lft.to/lastmile_qr_scan"}, "fusion_lon": 0.0, "lat": 38.89472266666667, "bike_id": "9bec7ab0276de357ac7b8dc38c766275", "type": "electric_scooter", "is_reserved": 0, "lon": -77.02167216666666}, {"fusion_lat": 0.0, "name": "bbab0dedf06551ca6ccc776815d13fa2", "is_disabled": 0, "rental_uris": {"android": "https://dc.lft.to/lastmile_qr_scan", "ios": "https://dc.lft.to/lastmile_qr_scan"}, "fusion_lon": 0.0, "lat": 38.918049, "bike_id": "bbab0dedf06551ca6ccc776815d13fa2", "type": "electric_scooter", "is_reserved": 0, "lon": -77.033021}, {"fusion_lat": 0.0, "name": "fab5b35f2536506251b7729011d50528", "is_disabled": 0, "rental_uris": {"android": "https://dc.lft.to/lastmile_qr_scan", "ios": "https://dc.lft.to/lastmile_qr_scan"}, "fusion_lon": 0.0, "lat": 38.901412666666666, "bike_id": "fab5b35f2536506251b7729011d50528", "type": "electric_scooter", "is_reserved": 0, "lon": -77.02189716666666}, {"fusion_lat": 0.0, "name": "0dfbe06fd70a9fb8b94e2a85f7d87a19", "is_disabled": 0, "rental_uris": {"android": "https://dc.lft.to/lastmile_qr_scan", "ios": "https://dc.lft.to/lastmile_qr_scan"}, "fusion_lon": 0.0, "lat": 38.9311965, "bike_id": "0dfbe06fd70a9fb8b94e2a85f7d87a19", "type": "electric_bike", "is_reserved": 0, "lon": -77.036189}, {"fusion_lat": 0.0, "name": "8a904001601509418c254103974cb009", "is_disabled": 0, "rental_uris": {"android": "https://dc.lft.to/lastmile_qr_scan", "ios": "https://dc.lft.to/lastmile_qr_scan"}, "fusion_lon": 0.0, "lat": 38.7902095, "bike_id": "8a904001601509418c254103974cb009", "type": "electric_bike", "is_reserved": 0, "lon": -77.01545766666666}, {"fusion_lat": 0.0, "name": "819dc5b5ea1195a745814679de5a51ee", "is_disabled": 0, "rental_uris": {"android": "https://dc.lft.to/lastmile_qr_scan", "ios": "https://dc.lft.to/lastmile_qr_scan"}, "fusion_lon": 0.0, "lat": 38.88578233333333, "bike_id": "819dc5b5ea1195a745814679de5a51ee", "type": "electric_scooter", "is_reserved": 0, "lon": -77.0121035}, {"fusion_lat": 0.0, "name": "3a90fe84e2312f1365b686d77dba6706", "is_disabled": 0, "rental_uris": {"android": "https://dc.lft.to/lastmile_qr_scan", "ios": "https://dc.lft.to/lastmile_qr_scan"}, "fusion_lon": 0.0, "lat": 38.92121483333333, "bike_id": "3a90fe84e2312f1365b686d77dba6706", "type": "electric_scooter", "is_reserved": 0, "lon": -77.04699116666667}, {"fusion_lat": 0.0, "name": "d94e635b1ce001b597fa5dd11ad27a15", "is_disabled": 0, "rental_uris": {"android": "https://dc.lft.to/lastmile_qr_scan", "ios": "https://dc.lft.to/lastmile_qr_scan"}, "fusion_lon": 0.0, "lat": 38.892170166666666, "bike_id": "d94e635b1ce001b597fa5dd11ad27a15", "type": "electric_scooter", "is_reserved": 0, "lon": -77.0314015}, {"fusion_lat": 0.0, "name": "c37d9746269db3bf6cd9d7a595a19bfa", "is_disabled": 0, "rental_uris": {"android": "https://dc.lft.to/lastmile_qr_scan", "ios": "https://dc.lft.to/lastmile_qr_scan"}, "fusion_lon": 0.0, "lat": 38.928932, "bike_id": "c37d9746269db3bf6cd9d7a595a19bfa", "type": "electric_bike", "is_reserved": 0, "lon": -77.23178916666667}, {"fusion_lat": 0.0, "name": "acb65a76bf2aff8f4fec4fa68f0020fa", "is_disabled": 0, "rental_uris": {"android": "https://dc.lft.to/lastmile_qr_scan", "ios": "https://dc.lft.to/lastmile_qr_scan"}, "fusion_lon": 0.0, "lat": 38.89897416666667, "bike_id": "acb65a76bf2aff8f4fec4fa68f0020fa", "type": "electric_scooter", "is_reserved": 0, "lon": -77.015211}, {"fusion_lat": 0.0, "name": "aa5b4af11a2c2aeede3e85ec839dd4a4", "is_disabled": 0, "rental_uris": {"android": "https://dc.lft.to/lastmile_qr_scan", "ios": "https://dc.lft.to/lastmile_qr_scan"}, "fusion_lon": 0.0, "lat": 38.938689833333335, "bike_id": "aa5b4af11a2c2aeede3e85ec839dd4a4", "type": "electric_scooter", "is_reserved": 0, "lon": -77.02470633333333}, {"fusion_lat": 0.0, "name": "130f1ea0b6dd45b126e2b861d21c75aa", "is_disabled": 0, "rental_uris": {"android": "https://dc.lft.to/lastmile_qr_scan", "ios": "https://dc.lft.to/lastmile_qr_scan"}, "fusion_lon": 0.0, "lat": 38.90084933333333, "bike_id": "130f1ea0b6dd45b126e2b861d21c75aa", "type": "electric_scooter", "is_reserved": 0, "lon": -76.98333716666667}, {"fusion_lat": 0.0, "name": "fd7f6d2850689848e3433b45b704d922", "is_disabled": 0, "rental_uris": {"android": "https://dc.lft.to/lastmile_qr_scan", "ios": "https://dc.lft.to/lastmile_qr_scan"}, "fusion_lon": 0.0, "lat": 38.910372, "bike_id": "fd7f6d2850689848e3433b45b704d922", "type": "electric_scooter", "is_reserved": 0, "lon": -77.00828983333334}, {"fusion_lat": 0.0, "name": "51b100a805f3af5815e1bce99decfcf8", "is_disabled": 0, "rental_uris": {"android": "https://dc.lft.to/lastmile_qr_scan", "ios": "https://dc.lft.to/lastmile_qr_scan"}, "fusion_lon": 0.0, "lat": 38.95287783333333, "bike_id": "51b100a805f3af5815e1bce99decfcf8", "type": "electric_scooter", "is_reserved": 0, "lon": -77.0686985}, {"fusion_lat": 0.0, "name": "3bee9a2b9893735174211e520517cd5a", "is_disabled": 0, "rental_uris": {"android": "https://dc.lft.to/lastmile_qr_scan", "ios": "https://dc.lft.to/lastmile_qr_scan"}, "fusion_lon": 0.0, "lat": 38.915700666666666, "bike_id": "3bee9a2b9893735174211e520517cd5a", "type": "electric_scooter", "is_reserved": 0, "lon": -77.03844716666667}, {"fusion_lat": 0.0, "name": "12fa57f49d9457b9b467743e5b9953d9", "is_disabled": 0, "rental_uris": {"android": "https://dc.lft.to/lastmile_qr_scan", "ios": "https://dc.lft.to/lastmile_qr_scan"}, "fusion_lon": 0.0, "lat": 38.925457, "bike_id": "12fa57f49d9457b9b467743e5b9953d9", "type": "electric_scooter", "is_reserved": 0, "lon": -77.038412}, {"fusion_lat": 0.0, "name": "a4654fd0697ba357f282fe096e8798ee", "is_disabled": 0, "rental_uris": {"android": "https://dc.lft.to/lastmile_qr_scan", "ios": "https://dc.lft.to/lastmile_qr_scan"}, "fusion_lon": 0.0, "lat": 38.92033466666667, "bike_id": "a4654fd0697ba357f282fe096e8798ee", "type": "electric_scooter", "is_reserved": 0, "lon": -77.0176495}, {"fusion_lat": 0.0, "name": "9638ace10af5d0bd295e991c6f05b8eb", "is_disabled": 0, "rental_uris": {"android": "https://dc.lft.to/lastmile_qr_scan", "ios": "https://dc.lft.to/lastmile_qr_scan"}, "fusion_lon": 0.0, "lat": 38.882325, "bike_id": "9638ace10af5d0bd295e991c6f05b8eb", "type": "electric_scooter", "is_reserved": 0, "lon": -77.02615316666666}, {"fusion_lat": 0.0, "name": "ca195598e0e74ec2434da19683858543", "is_disabled": 0, "rental_uris": {"android": "https://dc.lft.to/lastmile_qr_scan", "ios": "https://dc.lft.to/lastmile_qr_scan"}, "fusion_lon": 0.0, "lat": 38.92445466666667, "bike_id": "ca195598e0e74ec2434da19683858543", "type": "electric_scooter", "is_reserved": 0, "lon": -77.02711883333333}, {"fusion_lat": 0.0, "name": "554b95d47393a3393c5753f915afa90c", "is_disabled": 0, "rental_uris": {"android": "https://dc.lft.to/lastmile_qr_scan", "ios": "https://dc.lft.to/lastmile_qr_scan"}, "fusion_lon": 0.0, "lat": 38.92610083333334, "bike_id": "554b95d47393a3393c5753f915afa90c", "type": "electric_scooter", "is_reserved": 0, "lon": -77.02164316666666}, {"fusion_lat": 0.0, "name": "6ee28f36fa58850749c97d1393d092a7", "is_disabled": 0, "rental_uris": {"android": "https://dc.lft.to/lastmile_qr_scan", "ios": "https://dc.lft.to/lastmile_qr_scan"}, "fusion_lon": 0.0, "lat": 38.87813, "bike_id": "6ee28f36fa58850749c97d1393d092a7", "type": "electric_scooter", "is_reserved": 0, "lon": -77.0132395}, {"fusion_lat": 0.0, "name": "ee7ccca4cd16d051c7a07aeccf29b293", "is_disabled": 0, "rental_uris": {"android": "https://dc.lft.to/lastmile_qr_scan", "ios": "https://dc.lft.to/lastmile_qr_scan"}, "fusion_lon": 0.0, "lat": 38.89989533333333, "bike_id": "ee7ccca4cd16d051c7a07aeccf29b293", "type": "electric_scooter", "is_reserved": 0, "lon": -76.9900745}, {"fusion_lat": 0.0, "name": "1883db59a54e4099e455b7d1f7b2261e", "is_disabled": 0, "rental_uris": {"android": "https://dc.lft.to/lastmile_qr_scan", "ios": "https://dc.lft.to/lastmile_qr_scan"}, "fusion_lon": 0.0, "lat": 38.9225715, "bike_id": "1883db59a54e4099e455b7d1f7b2261e", "type": "electric_scooter", "is_reserved": 0, "lon": -77.035232}, {"fusion_lat": 0.0, "name": "2af3653c2e81d3bd0d88e6969216b978", "is_disabled": 0, "rental_uris": {"android": "https://dc.lft.to/lastmile_qr_scan", "ios": "https://dc.lft.to/lastmile_qr_scan"}, "fusion_lon": 0.0, "lat": 38.88442933333333, "bike_id": "2af3653c2e81d3bd0d88e6969216b978", "type": "electric_scooter", "is_reserved": 0, "lon": -76.98591133333333}, {"fusion_lat": 0.0, "name": "dab919a202dd2bca4c2238e3a8aefb59", "is_disabled": 0, "rental_uris": {"android": "https://dc.lft.to/lastmile_qr_scan", "ios": "https://dc.lft.to/lastmile_qr_scan"}, "fusion_lon": 0.0, "lat": 38.9335775, "bike_id": "dab919a202dd2bca4c2238e3a8aefb59", "type": "electric_scooter", "is_reserved": 0, "lon": -77.02441783333333}, {"fusion_lat": 0.0, "name": "0f1f6e90b880571a08d8e30d5fd4546f", "is_disabled": 0, "rental_uris": {"android": "https://dc.lft.to/lastmile_qr_scan", "ios": "https://dc.lft.to/lastmile_qr_scan"}, "fusion_lon": 0.0, "lat": 38.898764166666666, "bike_id": "0f1f6e90b880571a08d8e30d5fd4546f", "type": "electric_scooter", "is_reserved": 0, "lon": -76.93184066666667}, {"fusion_lat": 0.0, "name": "6a7667cca56f0e647b78e9e2419fb65b", "is_disabled": 0, "rental_uris": {"android": "https://dc.lft.to/lastmile_qr_scan", "ios": "https://dc.lft.to/lastmile_qr_scan"}, "fusion_lon": 0.0, "lat": 38.887355666666664, "bike_id": "6a7667cca56f0e647b78e9e2419fb65b", "type": "electric_scooter", "is_reserved": 0, "lon": -77.02210333333333}, {"fusion_lat": 0.0, "name": "9742894283e6ac01340e7841890e140b", "is_disabled": 0, "rental_uris": {"android": "https://dc.lft.to/lastmile_qr_scan", "ios": "https://dc.lft.to/lastmile_qr_scan"}, "fusion_lon": 0.0, "lat": 38.932932666666666, "bike_id": "9742894283e6ac01340e7841890e140b", "type": "electric_scooter", "is_reserved": 0, "lon": -77.0280035}, {"fusion_lat": 0.0, "name": "a11731ec818bf735ddd9fdd4aca4d029", "is_disabled": 0, "rental_uris": {"android": "https://dc.lft.to/lastmile_qr_scan", "ios": "https://dc.lft.to/lastmile_qr_scan"}, "fusion_lon": 0.0, "lat": 38.962202166666664, "bike_id": "a11731ec818bf735ddd9fdd4aca4d029", "type": "electric_bike", "is_reserved": 0, "lon": -77.02629183333333}, {"fusion_lat": 0.0, "name": "3361d3e8762e4c64311c40ea0b9474c1", "is_disabled": 0, "rental_uris": {"android": "https://dc.lft.to/lastmile_qr_scan", "ios": "https://dc.lft.to/lastmile_qr_scan"}, "fusion_lon": 0.0, "lat": 38.917094, "bike_id": "3361d3e8762e4c64311c40ea0b9474c1", "type": "electric_scooter", "is_reserved": 0, "lon": -77.03863233333334}, {"fusion_lat": 0.0, "name": "3ef56158bae4bfcbfb4351e7e35ead53", "is_disabled": 0, "rental_uris": {"android": "https://dc.lft.to/lastmile_qr_scan", "ios": "https://dc.lft.to/lastmile_qr_scan"}, "fusion_lon": 0.0, "lat": 38.9279415, "bike_id": "3ef56158bae4bfcbfb4351e7e35ead53", "type": "electric_scooter", "is_reserved": 0, "lon": -77.04302133333333}, {"fusion_lat": 0.0, "name": "63d0cdf8a2ef0af3bab2db06a715c865", "is_disabled": 0, "rental_uris": {"android": "https://dc.lft.to/lastmile_qr_scan", "ios": "https://dc.lft.to/lastmile_qr_scan"}, "fusion_lon": 0.0, "lat": 38.89623316666667, "bike_id": "63d0cdf8a2ef0af3bab2db06a715c865", "type": "electric_scooter", "is_reserved": 0, "lon": -77.02272566666667}, {"fusion_lat": 0.0, "name": "480b97436dd37b63e579d8b05dea9770", "is_disabled": 0, "rental_uris": {"android": "https://dc.lft.to/lastmile_qr_scan", "ios": "https://dc.lft.to/lastmile_qr_scan"}, "fusion_lon": 0.0, "lat": 38.907328666666665, "bike_id": "480b97436dd37b63e579d8b05dea9770", "type": "electric_scooter", "is_reserved": 0, "lon": -77.04768866666667}, {"fusion_lat": 0.0, "name": "1c4299c1d6af15b39806488d4a5cabee", "is_disabled": 0, "rental_uris": {"android": "https://dc.lft.to/lastmile_qr_scan", "ios": "https://dc.lft.to/lastmile_qr_scan"}, "fusion_lon": 0.0, "lat": 38.9397625, "bike_id": "1c4299c1d6af15b39806488d4a5cabee", "type": "electric_scooter", "is_reserved": 0, "lon": -77.0287365}, {"fusion_lat": 0.0, "name": "e377050fd18c123828062767bf2e85e4", "is_disabled": 0, "rental_uris": {"android": "https://dc.lft.to/lastmile_qr_scan", "ios": "https://dc.lft.to/lastmile_qr_scan"}, "fusion_lon": 0.0, "lat": 38.91111683333333, "bike_id": "e377050fd18c123828062767bf2e85e4", "type": "electric_scooter", "is_reserved": 0, "lon": -77.00999716666666}, {"fusion_lat": 0.0, "name": "4a256700e61fe7c1af5a262f99dbb8b1", "is_disabled": 0, "rental_uris": {"android": "https://dc.lft.to/lastmile_qr_scan", "ios": "https://dc.lft.to/lastmile_qr_scan"}, "fusion_lon": 0.0, "lat": 38.8900805, "bike_id": "4a256700e61fe7c1af5a262f99dbb8b1", "type": "electric_scooter", "is_reserved": 0, "lon": -76.93739516666666}, {"fusion_lat": 0.0, "name": "3b4b1661a14d0d5c79b2c772fe5f128d", "is_disabled": 0, "rental_uris": {"android": "https://dc.lft.to/lastmile_qr_scan", "ios": "https://dc.lft.to/lastmile_qr_scan"}, "fusion_lon": 0.0, "lat": 38.88733116666667, "bike_id": "3b4b1661a14d0d5c79b2c772fe5f128d", "type": "electric_bike", "is_reserved": 0, "lon": -77.01534666666667}, {"fusion_lat": 0.0, "name": "2d61ccb684060ada15038f24d54aced1", "is_disabled": 0, "rental_uris": {"android": "https://dc.lft.to/lastmile_qr_scan", "ios": "https://dc.lft.to/lastmile_qr_scan"}, "fusion_lon": 0.0, "lat": 38.89725833333333, "bike_id": "2d61ccb684060ada15038f24d54aced1", "type": "electric_scooter", "is_reserved": 0, "lon": -77.02751583333334}, {"fusion_lat": 0.0, "name": "7b9edaac1e78f443f1cd02037b2b2d08", "is_disabled": 0, "rental_uris": {"android": "https://dc.lft.to/lastmile_qr_scan", "ios": "https://dc.lft.to/lastmile_qr_scan"}, "fusion_lon": 0.0, "lat": 38.90823916666667, "bike_id": "7b9edaac1e78f443f1cd02037b2b2d08", "type": "electric_scooter", "is_reserved": 0, "lon": -77.00103266666666}, {"fusion_lat": 0.0, "name": "ac74f4759f6b896543cac369c78ef9f2", "is_disabled": 0, "rental_uris": {"android": "https://dc.lft.to/lastmile_qr_scan", "ios": "https://dc.lft.to/lastmile_qr_scan"}, "fusion_lon": 0.0, "lat": 38.89604633333333, "bike_id": "ac74f4759f6b896543cac369c78ef9f2", "type": "electric_scooter", "is_reserved": 0, "lon": -76.98112883333333}, {"fusion_lat": 0.0, "name": "ea1d835e1116402778d49add71a726ef", "is_disabled": 0, "rental_uris": {"android": "https://dc.lft.to/lastmile_qr_scan", "ios": "https://dc.lft.to/lastmile_qr_scan"}, "fusion_lon": 0.0, "lat": 38.90673066666667, "bike_id": "ea1d835e1116402778d49add71a726ef", "type": "electric_scooter", "is_reserved": 0, "lon": -77.0240935}, {"fusion_lat": 0.0, "name": "fcd9d6dbf13db85df76d1bab3050ed26", "is_disabled": 0, "rental_uris": {"android": "https://dc.lft.to/lastmile_qr_scan", "ios": "https://dc.lft.to/lastmile_qr_scan"}, "fusion_lon": 0.0, "lat": 38.8874, "bike_id": "fcd9d6dbf13db85df76d1bab3050ed26", "type": "electric_scooter", "is_reserved": 0, "lon": -77.021796}, {"fusion_lat": 0.0, "name": "f73740fc1d5c2271bd059075e4502f11", "is_disabled": 0, "rental_uris": {"android": "https://dc.lft.to/lastmile_qr_scan", "ios": "https://dc.lft.to/lastmile_qr_scan"}, "fusion_lon": 0.0, "lat": 38.93185716666667, "bike_id": "f73740fc1d5c2271bd059075e4502f11", "type": "electric_scooter", "is_reserved": 0, "lon": -77.019623}, {"fusion_lat": 0.0, "name": "4924a2ff7a5cb0555838152c59cc59b2", "is_disabled": 0, "rental_uris": {"android": "https://dc.lft.to/lastmile_qr_scan", "ios": "https://dc.lft.to/lastmile_qr_scan"}, "fusion_lon": 0.0, "lat": 38.91383883333334, "bike_id": "4924a2ff7a5cb0555838152c59cc59b2", "type": "electric_scooter", "is_reserved": 0, "lon": -77.01802616666667}, {"fusion_lat": 0.0, "name": "5b28460e14b30f91d62cd98c2849ac26", "is_disabled": 0, "rental_uris": {"android": "https://dc.lft.to/lastmile_qr_scan", "ios": "https://dc.lft.to/lastmile_qr_scan"}, "fusion_lon": 0.0, "lat": 38.924586166666664, "bike_id": "5b28460e14b30f91d62cd98c2849ac26", "type": "electric_scooter", "is_reserved": 0, "lon": -77.0802965}, {"fusion_lat": 0.0, "name": "b30087c7cf7ea6b40ca2fa9b94bb7d70", "is_disabled": 0, "rental_uris": {"android": "https://dc.lft.to/lastmile_qr_scan", "ios": "https://dc.lft.to/lastmile_qr_scan"}, "fusion_lon": 0.0, "lat": 38.9079225, "bike_id": "b30087c7cf7ea6b40ca2fa9b94bb7d70", "type": "electric_scooter", "is_reserved": 0, "lon": -77.04179633333334}, {"fusion_lat": 0.0, "name": "8d087d73ad54ce6a73bc75cec79f27e8", "is_disabled": 0, "rental_uris": {"android": "https://dc.lft.to/lastmile_qr_scan", "ios": "https://dc.lft.to/lastmile_qr_scan"}, "fusion_lon": 0.0, "lat": 38.912553333333335, "bike_id": "8d087d73ad54ce6a73bc75cec79f27e8", "type": "electric_scooter", "is_reserved": 0, "lon": -77.044472}, {"fusion_lat": 0.0, "name": "7bc480ea83fcf4de464e98670a02fcec", "is_disabled": 0, "rental_uris": {"android": "https://dc.lft.to/lastmile_qr_scan", "ios": "https://dc.lft.to/lastmile_qr_scan"}, "fusion_lon": 0.0, "lat": 38.906322333333335, "bike_id": "7bc480ea83fcf4de464e98670a02fcec", "type": "electric_scooter", "is_reserved": 0, "lon": -77.018929}, {"fusion_lat": 0.0, "name": "ead7cb720a7d437135aeefca1ea9bb4d", "is_disabled": 0, "rental_uris": {"android": "https://dc.lft.to/lastmile_qr_scan", "ios": "https://dc.lft.to/lastmile_qr_scan"}, "fusion_lon": 0.0, "lat": 38.929748000000004, "bike_id": "ead7cb720a7d437135aeefca1ea9bb4d", "type": "electric_scooter", "is_reserved": 0, "lon": -77.0418815}, {"fusion_lat": 0.0, "name": "b5c6a3695ec9fc9a1413578c4eb676ad", "is_disabled": 0, "rental_uris": {"android": "https://dc.lft.to/lastmile_qr_scan", "ios": "https://dc.lft.to/lastmile_qr_scan"}, "fusion_lon": 0.0, "lat": 38.87932716666667, "bike_id": "b5c6a3695ec9fc9a1413578c4eb676ad", "type": "electric_scooter", "is_reserved": 0, "lon": -77.00420266666667}, {"fusion_lat": 0.0, "name": "0603abbf0588f62371f61fffb2aee766", "is_disabled": 0, "rental_uris": {"android": "https://dc.lft.to/lastmile_qr_scan", "ios": "https://dc.lft.to/lastmile_qr_scan"}, "fusion_lon": 0.0, "lat": 38.952467, "bike_id": "0603abbf0588f62371f61fffb2aee766", "type": "electric_scooter", "is_reserved": 0, "lon": -77.0238005}, {"fusion_lat": 0.0, "name": "174d81b3c59e245aef9d738b95b81f01", "is_disabled": 0, "rental_uris": {"android": "https://dc.lft.to/lastmile_qr_scan", "ios": "https://dc.lft.to/lastmile_qr_scan"},