{"data": {"bikes": [{"rental_uris": {"ios": "https://dc.lft.to/lastmile_qr_scan", "android": "https://dc.lft.to/lastmile_qr_scan"}, "lat": 38.914869333333336, "is_disabled": 0, "bike_id": "0ce259fd289c579bc47e106fe34851b7", "name": "0ce259fd289c579bc47e106fe34851b7", "type": "electric_scooter", "fusion_lon": 0.0, "is_reserved": 0, "fusion_lat": 0.0, "lon": -77.0132795}, {"rental_uris": {"ios": "https://dc.lft.to/lastmile_qr_scan", "android": "https://dc.lft.to/lastmile_qr_scan"}, "lat": 38.84269883333333, "is_disabled": 0, "bike_id": "a0b61b648faf58bdcdbd8c4e3fe02d9f", "name": "a0b61b648faf58bdcdbd8c4e3fe02d9f", "type": "electric_bike", "fusion_lon": 0.0, "is_reserved": 0, "fusion_lat": 0.0, "lon": -77.11423983333333}, {"rental_uris": {"ios": "https://dc.lft.to/lastmile_qr_scan", "android": "https://dc.lft.to/lastmile_qr_scan"}, "lat": 38.81325483333333, "is_disabled": 0, "bike_id": "953cfcca87fcd477ce542b17a972de5f", "name": "953cfcca87fcd477ce542b17a972de5f", "type": "electric_bike", "fusion_lon": 0.0, "is_reserved": 0, "fusion_lat": 0.0, "lon": -77.0508895}, {"rental_uris": {"ios": "https://dc.lft.to/lastmile_qr_scan", "android": "https://dc.lft.to/lastmile_qr_scan"}, "lat": 38.887369666666665, "is_disabled": 0, "bike_id": "040825ff0b57a5f55c7f988be0b72644", "name": "040825ff0b57a5f55c7f988be0b72644", "type": "electric_scooter", "fusion_lon": 0.0, "is_reserved": 0, "fusion_lat": 0.0, "lon": -77.01538383333333}, {"rental_uris": {"ios": "https://dc.lft.to/lastmile_qr_scan", "android": "https://dc.lft.to/lastmile_qr_scan"}, "lat": 38.90268066666667, "is_disabled": 0, "bike_id": "668f7b288394d9ad9cab419a7f929baa", "name": "668f7b288394d9ad9cab419a7f929baa", "type": "electric_scooter", "fusion_lon": 0.0, "is_reserved": 0, "fusion_lat": 0.0, "lon": -77.03000016666667}, {"rental_uris": {"ios": "https://dc.lft.to/lastmile_qr_scan", "android": "https://dc.lft.to/lastmile_qr_scan"}, "lat": 38.88458683333333, "is_disabled": 0, "bike_id": "9e07b8b508c4a020c6997cb10a35faaf", "name": "9e07b8b508c4a020c6997cb10a35faaf", "type": "electric_scooter", "fusion_lon": 0.0, "is_reserved": 0, "fusion_lat": 0.0, "lon": -77.02905916666667}, {"rental_uris": {"ios": "https://dc.lft.to/lastmile_qr_scan", "android": "https://dc.lft.to/lastmile_qr_scan"}, "lat": 38.862098, "is_disabled": 0, "bike_id": "8562f1323861187608f760c4c67987ef", "name": "8562f1323861187608f760c4c67987ef", "type": "electric_scooter", "fusion_lon": 0.0, "is_reserved": 0, "fusion_lat": 0.0, "lon": -76.99475433333333}, {"rental_uris": {"ios": "https://dc.lft.to/lastmile_qr_scan", "android": "https://dc.lft.to/lastmile_qr_scan"}, "lat": 38.902741666666664, "is_disabled": 0, "bike_id": "22badb2de58a3daba2ad449e21e2c97b", "name": "22badb2de58a3daba2ad449e21e2c97b", "type": "electric_scooter", "fusion_lon": 0.0, "is_reserved": 0, "fusion_lat": 0.0, "lon": -77.02845933333333}, {"rental_uris": {"ios": "https://dc.lft.to/lastmile_qr_scan", "android": "https://dc.lft.to/lastmile_qr_scan"}, "lat": 38.9119285, "is_disabled": 0, "bike_id": "6c78d88b0a528487719be768f0d3502b", "name": "6c78d88b0a528487719be768f0d3502b", "type": "electric_scooter", "fusion_lon": 0.0, "is_reserved": 0, "fusion_lat": 0.0, "lon": -77.03211}, {"rental_uris": {"ios": "https://dc.lft.to/lastmile_qr_scan", "android": "https://dc.lft.to/lastmile_qr_scan"}, "lat": 38.90575366666667, "is_disabled": 0, "bike_id": "e11d89474a34f56231e9127a5a617b32", "name": "e11d89474a34f56231e9127a5a617b32", "type": "electric_scooter", "fusion_lon": 0.0, "is_reserved": 0, "fusion_lat": 0.0, "lon": -77.005909}, {"rental_uris": {"ios": "https://dc.lft.to/lastmile_qr_scan", "android": "https://dc.lft.to/lastmile_qr_scan"}, "lat": 38.914322166666665, "is_disabled": 0, "bike_id": "d5c51bf739f029ab7bade0016fd5cc3e", "name": "d5c51bf739f029ab7bade0016fd5cc3e", "type": "electric_scooter", "fusion_lon": 0.0, "is_reserved": 0, "fusion_lat": 0.0, "lon": -77.02819266666667}, {"rental_uris": {"ios": "https://dc.lft.to/lastmile_qr_scan", "android": "https://dc.lft.to/lastmile_qr_scan"}, "lat": 38.86594733333333, "is_disabled": 0, "bike_id": "c5213abb0c7259e493302fefdd2f2d8c", "name": "c5213abb0c7259e493302fefdd2f2d8c", "type": "electric_bike", "fusion_lon": 0.0, "is_reserved": 0, "fusion_lat": 0.0, "lon": -76.93225183333334}, {"rental_uris": {"ios": "https://dc.lft.to/lastmile_qr_scan", "android": "https://dc.lft.to/lastmile_qr_scan"}, "lat": 38.874603666666665, "is_disabled": 0, "bike_id": "f9064c1061541853efc1dfb5355bdfec", "name": "f9064c1061541853efc1dfb5355bdfec", "type": "electric_scooter", "fusion_lon": 0.0, "is_reserved": 0, "fusion_lat": 0.0, "lon": -77.00609083333333}, {"rental_uris": {"ios": "https://dc.lft.to/lastmile_qr_scan", "android": "https://dc.lft.to/lastmile_qr_scan"}, "lat": 38.9086405, "is_disabled": 0, "bike_id": "6d128a36ce7fea84d34c18896b94e53c", "name": "6d128a36ce7fea84d34c18896b94e53c", "type": "electric_scooter", "fusion_lon": 0.0, "is_reserved": 0, "fusion_lat": 0.0, "lon": -77.04555733333333}, {"rental_uris": {"ios": "https://dc.lft.to/lastmile_qr_scan", "android": "https://dc.lft.to/lastmile_qr_scan"}, "lat": 38.95565833333333, "is_disabled": 0, "bike_id": "c9cd36653f5ffa7992f08aedbaba2cb0", "name": "c9cd36653f5ffa7992f08aedbaba2cb0", "type": "electric_scooter", "fusion_lon": 0.0, "is_reserved": 0, "fusion_lat": 0.0, "lon": -77.006309}, {"rental_uris": {"ios": "https://dc.lft.to/lastmile_qr_scan", "android": "https://dc.lft.to/lastmile_qr_scan"}, "lat": 38.94131683333333, "is_disabled": 0, "bike_id": "c5b55e2004c2f342384ee0025e7e14f7", "name": "c5b55e2004c2f342384ee0025e7e14f7", "type": "electric_scooter", "fusion_lon": 0.0, "is_reserved": 0, "fusion_lat": 0.0, "lon": -77.09206666666667}, {"rental_uris": {"ios": "https://dc.lft.to/lastmile_qr_scan", "android": "https://dc.lft.to/lastmile_qr_scan"}, "lat": 38.90270566666667, "is_disabled": 0, "bike_id": "0783a2bf2195fb50eef69e9b8cafacea", "name": "0783a2bf2195fb50eef69e9b8cafacea", "type": "electric_scooter", "fusion_lon": 0.0, "is_reserved": 0, "fusion_lat": 0.0, "lon": -77.034543}, {"rental_uris": {"ios": "https://dc.lft.to/lastmile_qr_scan", "android": "https://dc.lft.to/lastmile_qr_scan"}, "lat": 38.900713333333336, "is_disabled": 0, "bike_id": "7eb6a38e8c2d8779a1150f86635639c0", "name": "7eb6a38e8c2d8779a1150f86635639c0", "type": "electric_scooter", "fusion_lon": 0.0, "is_reserved": 0, "fusion_lat": 0.0, "lon": -77.00197283333334}, {"rental_uris": {"ios": "https://dc.lft.to/lastmile_qr_scan", "android": "https://dc.lft.to/lastmile_qr_scan"}, "lat": 38.917628666666666, "is_disabled": 0, "bike_id": "e690df2b07209cd80f8919f55f7b1ca0", "name": "e690df2b07209cd80f8919f55f7b1ca0", "type": "electric_scooter", "fusion_lon": 0.0, "is_reserved": 0, "fusion_lat": 0.0, "lon": -77.02484916666667}, {"rental_uris": {"ios": "https://dc.lft.to/lastmile_qr_scan", "android": "https://dc.lft.to/lastmile_qr_scan"}, "lat": 38.85220483333333, "is_disabled": 0, "bike_id": "4f47a3a5cbcfb6dd9b99f48ca4bd58ae", "name": "4f47a3a5cbcfb6dd9b99f48ca4bd58ae", "type": "electric_bike", "fusion_lon": 0.0, "is_reserved": 0, "fusion_lat": 0.0, "lon": -77.12957383333334}, {"rental_uris": {"ios": "https://dc.lft.to/lastmile_qr_scan", "android": "https://dc.lft.to/lastmile_qr_scan"}, "lat": 38.8948545, "is_disabled": 0, "bike_id": "79299bacd3b82458962d11d88f3bc483", "name": "79299bacd3b82458962d11d88f3bc483", "type": "electric_scooter", "fusion_lon": 0.0, "is_reserved": 0, "fusion_lat": 0.0, "lon": -76.99515116666667}, {"rental_uris": {"ios": "https://dc.lft.to/lastmile_qr_scan", "android": "https://dc.lft.to/lastmile_qr_scan"}, "lat": 38.912550833333334, "is_disabled": 0, "bike_id": "329d255b2aff6b104ce5cbd0ba506f39", "name": "329d255b2aff6b104ce5cbd0ba506f39", "type": "electric_scooter", "fusion_lon": 0.0, "is_reserved": 0, "fusion_lat": 0.0, "lon": -77.00930566666666}, {"rental_uris": {"ios": "https://dc.lft.to/lastmile_qr_scan", "android": "https://dc.lft.to/lastmile_qr_scan"}, "lat": 38.90501833333333, "is_disabled": 0, "bike_id": "f747c31b48dd069ec85e7817df6f0e1f", "name": "f747c31b48dd069ec85e7817df6f0e1f", "type": "electric_scooter", "fusion_lon": 0.0, "is_reserved": 0, "fusion_lat": 0.0, "lon": -77.04087483333333}, {"rental_uris": {"ios": "https://dc.lft.to/lastmile_qr_scan", "android": "https://dc.lft.to/lastmile_qr_scan"}, "lat": 38.91332666666667, "is_disabled": 0, "bike_id": "a1cd054f6e0229b681845e52b728fbd9", "name": "a1cd054f6e0229b681845e52b728fbd9", "type": "electric_scooter", "fusion_lon": 0.0, "is_reserved": 0, "fusion_lat": 0.0, "lon": -77.0452715}, {"rental_uris": {"ios": "https://dc.lft.to/lastmile_qr_scan", "android": "https://dc.lft.to/lastmile_qr_scan"}, "lat": 38.903754666666664, "is_disabled": 0, "bike_id": "5184634c54ba0742a84eae7e0d0e0900", "name": "5184634c54ba0742a84eae7e0d0e0900", "type": "electric_scooter", "fusion_lon": 0.0, "is_reserved": 0, "fusion_lat": 0.0, "lon": -77.01641683333334}, {"rental_uris": {"ios": "https://dc.lft.to/lastmile_qr_scan", "android": "https://dc.lft.to/lastmile_qr_scan"}, "lat": 38.90566883333334, "is_disabled": 0, "bike_id": "0465ecff6382b3596e2fa8a34211bebe", "name": "0465ecff6382b3596e2fa8a34211bebe", "type": "electric_scooter", "fusion_lon": 0.0, "is_reserved": 0, "fusion_lat": 0.0, "lon": -77.005846}, {"rental_uris": {"ios": "https://dc.lft.to/lastmile_qr_scan", "android": "https://dc.lft.to/lastmile_qr_scan"}, "lat": 38.898299333333334, "is_disabled": 0, "bike_id": "94135d808c8049826c8d6ff1e3787c5c", "name": "94135d808c8049826c8d6ff1e3787c5c", "type": "electric_scooter", "fusion_lon": 0.0, "is_reserved": 0, "fusion_lat": 0.0, "lon": -77.0331085}, {"rental_uris": {"ios": "https://dc.lft.to/lastmile_qr_scan", "android": "https://dc.lft.to/lastmile_qr_scan"}, "lat": 38.943261, "is_disabled": 0, "bike_id": "8c4d387bb47da629d7cfacef0fae346f", "name": "8c4d387bb47da629d7cfacef0fae346f", "type": "electric_scooter", "fusion_lon": 0.0, "is_reserved": 0, "fusion_lat": 0.0, "lon": -77.07367266666667}, {"rental_uris": {"ios": "https://dc.lft.to/lastmile_qr_scan", "android": "https://dc.lft.to/lastmile_qr_scan"}, "lat": 38.908280833333336, "is_disabled": 0, "bike_id": "880664f9fcc3f27c1d075f416c9d66c5", "name": "880664f9fcc3f27c1d075f416c9d66c5", "type": "electric_scooter", "fusion_lon": 0.0, "is_reserved": 0, "fusion_lat": 0.0, "lon": -77.036566}, {"rental_uris": {"ios": "https://dc.lft.to/lastmile_qr_scan", "android": "https://dc.lft.to/lastmile_qr_scan"}, "lat": 38.900174, "is_disabled": 0, "bike_id": "ce20b919b486d7b06550d84a8c9d279f", "name": "ce20b919b486d7b06550d84a8c9d279f", "type": "electric_scooter", "fusion_lon": 0.0, "is_reserved": 0, "fusion_lat": 0.0, "lon": -77.04029433333334}, {"rental_uris": {"ios": "https://dc.lft.to/lastmile_qr_scan", "android": "https://dc.lft.to/lastmile_qr_scan"}, "lat": 38.92871066666667, "is_disabled": 0, "bike_id": "e47cd6189d41bc9c535bafd32e895bb5", "name": "e47cd6189d41bc9c535bafd32e895bb5", "type": "electric_scooter", "fusion_lon": 0.0, "is_reserved": 0, "fusion_lat": 0.0, "lon": -76.99031966666666}, {"rental_uris": {"ios": "https://dc.lft.to/lastmile_qr_scan", "android": "https://dc.lft.to/lastmile_qr_scan"}, "lat": 38.927535666666664, "is_disabled": 0, "bike_id": "7ca7ada75e3e1f9e8ce08208397a1463", "name": "7ca7ada75e3e1f9e8ce08208397a1463", "type": "electric_scooter", "fusion_lon": 0.0, "is_reserved": 0, "fusion_lat": 0.0, "lon": -77.03299633333333}, {"rental_uris": {"ios": "https://dc.lft.to/lastmile_qr_scan", "android": "https://dc.lft.to/lastmile_qr_scan"}, "lat": 38.93105383333334, "is_disabled": 0, "bike_id": "4da5e32cfa71e124c3ccd810ab4cd033", "name": "4da5e32cfa71e124c3ccd810ab4cd033", "type": "electric_scooter", "fusion_lon": 0.0, "is_reserved": 0, "fusion_lat": 0.0, "lon": -77.03832783333333}, {"rental_uris": {"ios": "https://dc.lft.to/lastmile_qr_scan", "android": "https://dc.lft.to/lastmile_qr_scan"}, "lat": 38.875518166666666, "is_disabled": 0, "bike_id": "7b66a934ee594e2773e5ce0e28e9dcdb", "name": "7b66a934ee594e2773e5ce0e28e9dcdb", "type": "electric_scooter", "fusion_lon": 0.0, "is_reserved": 0, "fusion_lat": 0.0, "lon": -76.96488383333333}, {"rental_uris": {"ios": "https://dc.lft.to/lastmile_qr_scan", "android": "https://dc.lft.to/lastmile_qr_scan"}, "lat": 38.855858166666664, "is_disabled": 0, "bike_id": "ee7ec164d39eb446f14de3fd93090e60", "name": "ee7ec164d39eb446f14de3fd93090e60", "type": "electric_scooter", "fusion_lon": 0.0, "is_reserved": 0, "fusion_lat": 0.0, "lon": -76.98557566666666}, {"rental_uris": {"ios": "https://dc.lft.to/lastmile_qr_scan", "android": "https://dc.lft.to/lastmile_qr_scan"}, "lat": 38.82730933333333, "is_disabled": 0, "bike_id": "0c230a3f7e1afe079b78ab39c25dbebc", "name": "0c230a3f7e1afe079b78ab39c25dbebc", "type": "electric_bike", "fusion_lon": 0.0, "is_reserved": 0, "fusion_lat": 0.0, "lon": -77.00864666666666}, {"rental_uris": {"ios": "https://dc.lft.to/lastmile_qr_scan", "android": "https://dc.lft.to/lastmile_qr_scan"}, "lat": 38.9387975, "is_disabled": 0, "bike_id": "52292f5cef1d831ae0bec3a1a8c7bd28", "name": "52292f5cef1d831ae0bec3a1a8c7bd28", "type": "electric_scooter", "fusion_lon": 0.0, "is_reserved": 0, "fusion_lat": 0.0, "lon": -77.02479883333334}, {"rental_uris": {"ios": "https://dc.lft.to/lastmile_qr_scan", "android": "https://dc.lft.to/lastmile_qr_scan"}, "lat": 38.880444833333335, "is_disabled": 0, "bike_id": "4139eca12802d06e9720ab4fe590ed5b", "name": "4139eca12802d06e9720ab4fe590ed5b", "type": "electric_bike", "fusion_lon": 0.0, "is_reserved": 0, "fusion_lat": 0.0, "lon": -77.02526816666666}, {"rental_uris": {"ios": "https://dc.lft.to/lastmile_qr_scan", "android": "https://dc.lft.to/lastmile_qr_scan"}, "lat": 38.9088665, "is_disabled": 0, "bike_id": "7ef0f62a6d722ae2faa3fe1b1f79fe2f", "name": "7ef0f62a6d722ae2faa3fe1b1f79fe2f", "type": "electric_scooter", "fusion_lon": 0.0, "is_reserved": 0, "fusion_lat": 0.0, "lon": -77.03466466666667}, {"rental_uris": {"ios": "https://dc.lft.to/lastmile_qr_scan", "android": "https://dc.lft.to/lastmile_qr_scan"}, "lat": 38.9348615, "is_disabled": 0, "bike_id": "e6877f785b986ff16cbadc11f86ca902", "name": "e6877f785b986ff16cbadc11f86ca902", "type": "electric_scooter", "fusion_lon": 0.0, "is_reserved": 0, "fusion_lat": 0.0, "lon": -77.07280916666667}, {"rental_uris": {"ios": "https://dc.lft.to/lastmile_qr_scan", "android": "https://dc.lft.to/lastmile_qr_scan"}, "lat": 38.9098265, "is_disabled": 0, "bike_id": "9bbf4e397e5f2acf06d6d3af9fc9a23d", "name": "9bbf4e397e5f2acf06d6d3af9fc9a23d", "type": "electric_scooter", "fusion_lon": 0.0, "is_reserved": 0, "fusion_lat": 0.0, "lon": -77.03375733333333}, {"rental_uris": {"ios": "https://dc.lft.to/lastmile_qr_scan", "android": "https://dc.lft.to/lastmile_qr_scan"}, "lat": 38.923773, "is_disabled": 0, "bike_id": "74415b2fe19c413c3cefca98b508b636", "name": "74415b2fe19c413c3cefca98b508b636", "type": "electric_scooter", "fusion_lon": 0.0, "is_reserved": 0, "fusion_lat": 0.0, "lon": -77.04027933333333}, {"rental_uris": {"ios": "https://dc.lft.to/lastmile_qr_scan", "android": "https://dc.lft.to/lastmile_qr_scan"}, "lat": 38.905120333333336, "is_disabled": 0, "bike_id": "1ad4c509022d0f0a37b41515ad6e9e71", "name": "1ad4c509022d0f0a37b41515ad6e9e71", "type": "electric_scooter", "fusion_lon": 0.0, "is_reserved": 0, "fusion_lat": 0.0, "lon": -77.0406485}, {"rental_uris": {"ios": "https://dc.lft.to/lastmile_qr_scan", "android": "https://dc.lft.to/lastmile_qr_scan"}, "lat": 38.892275, "is_disabled": 0, "bike_id": "81b17b95a76cbacd86b6698e0183ea39", "name": "81b17b95a76cbacd86b6698e0183ea39", "type": "electric_scooter", "fusion_lon": 0.0, "is_reserved": 0, "fusion_lat": 0.0, "lon": -77.02827183333333}, {"rental_uris": {"ios": "https://dc.lft.to/lastmile_qr_scan", "android": "https://dc.lft.to/lastmile_qr_scan"}, "lat": 38.9228675, "is_disabled": 0, "bike_id": "92ad2cf9a834685821765ba065c69f96", "name": "92ad2cf9a834685821765ba065c69f96", "type": "electric_scooter", "fusion_lon": 0.0, "is_reserved": 0, "fusion_lat": 0.0, "lon": -76.9977935}, {"rental_uris": {"ios": "https://dc.lft.to/lastmile_qr_scan", "android": "https://dc.lft.to/lastmile_qr_scan"}, "lat": 38.88770516666666, "is_disabled": 0, "bike_id": "89bf4782c3d5d5b08da6d7381e52aeb9", "name": "89bf4782c3d5d5b08da6d7381e52aeb9", "type": "electric_scooter", "fusion_lon": 0.0, "is_reserved": 0, "fusion_lat": 0.0, "lon": -77.02170933333333}, {"rental_uris": {"ios": "https://dc.lft.to/lastmile_qr_scan", "android": "https://dc.lft.to/lastmile_qr_scan"}, "lat": 38.85247733333333, "is_disabled": 0, "bike_id": "875a4b6be83c052e3a278188ad8070f7", "name": "875a4b6be83c052e3a278188ad8070f7", "type": "electric_bike", "fusion_lon": 0.0, "is_reserved": 0, "fusion_lat": 0.0, "lon": -77.11431066666667}, {"rental_uris": {"ios": "https://dc.lft.to/lastmile_qr_scan", "android": "https://dc.lft.to/lastmile_qr_scan"}, "lat": 38.876588166666664, "is_disabled": 0, "bike_id": "444b033a774f5fecac677427bdf2cad1", "name": "444b033a774f5fecac677427bdf2cad1", "type": "electric_scooter", "fusion_lon": 0.0, "is_reserved": 0, "fusion_lat": 0.0, "lon": -76.99334583333334}, {"rental_uris": {"ios": "https://dc.lft.to/lastmile_qr_scan", "android": "https://dc.lft.to/lastmile_qr_scan"}, "lat": 38.86482766666666, "is_disabled": 0, "bike_id": "8cdd5c8d0c0388417819974b7b6c961c", "name": "8cdd5c8d0c0388417819974b7b6c961c", "type": "electric_scooter", "fusion_lon": 0.0, "is_reserved": 0, "fusion_lat": 0.0, "lon": -76.98359783333333}, {"rental_uris": {"ios": "https://dc.lft.to/lastmile_qr_scan", "android": "https://dc.lft.to/lastmile_qr_scan"}, "lat": 38.9001725, "is_disabled": 0, "bike_id": "5ebc23da071d47693c091ce04f8f8e63", "name": "5ebc23da071d47693c091ce04f8f8e63", "type": "electric_scooter", "fusion_lon": 0.0, "is_reserved": 0, "fusion_lat": 0.0, "lon": -77.04499766666666}, {"rental_uris": {"ios": "https://dc.lft.to/lastmile_qr_scan", "android": "https://dc.lft.to/lastmile_qr_scan"}, "lat": 38.901536, "is_disabled": 0, "bike_id": "e4d262d3fe2225ec3078adfb59a444cb", "name": "e4d262d3fe2225ec3078adfb59a444cb", "type": "electric_scooter", "fusion_lon": 0.0, "is_reserved": 0, "fusion_lat": 0.0, "lon": -77.0330625}, {"rental_uris": {"ios": "https://dc.lft.to/lastmile_qr_scan", "android": "https://dc.lft.to/lastmile_qr_scan"}, "lat": 38.925039166666664, "is_disabled": 0, "bike_id": "ea1fc7eda50bf47f55518de90fb66923", "name": "ea1fc7eda50bf47f55518de90fb66923", "type": "electric_bike", "fusion_lon": 0.0, "is_reserved": 0, "fusion_lat": 0.0, "lon": -77.05749516666667}, {"rental_uris": {"ios": "https://dc.lft.to/lastmile_qr_scan", "android": "https://dc.lft.to/lastmile_qr_scan"}, "lat": 38.904241166666665, "is_disabled": 0, "bike_id": "4c2633cf38ad30adc55b26fe755811db", "name": "4c2633cf38ad30adc55b26fe755811db", "type": "electric_scooter", "fusion_lon": 0.0, "is_reserved": 0, "fusion_lat": 0.0, "lon": -77.03128566666666}, {"rental_uris": {"ios": "https://dc.lft.to/lastmile_qr_scan", "android": "https://dc.lft.to/lastmile_qr_scan"}, "lat": 38.9039195, "is_disabled": 0, "bike_id": "991fe92fec3ebffad088a1c8445c8908", "name": "991fe92fec3ebffad088a1c8445c8908", "type": "electric_scooter", "fusion_lon": 0.0, "is_reserved": 0, "fusion_lat": 0.0, "lon": -77.04380533333334}, {"rental_uris": {"ios": "https://dc.lft.to/lastmile_qr_scan", "android": "https://dc.lft.to/lastmile_qr_scan"}, "lat": 38.86858483333334, "is_disabled": 0, "bike_id": "8e9219c5302a1f8d710bdd636eb6d18b", "name": "8e9219c5302a1f8d710bdd636eb6d18b", "type": "electric_bike", "fusion_lon": 0.0, "is_reserved": 0, "fusion_lat": 0.0, "lon": -76.91655766666666}, {"rental_uris": {"ios": "https://dc.lft.to/lastmile_qr_scan", "android": "https://dc.lft.to/lastmile_qr_scan"}, "lat": 38.891611833333336, "is_disabled": 0, "bike_id": "e955f49607480cf58b28dff2b0c5442b", "name": "e955f49607480cf58b28dff2b0c5442b", "type": "electric_scooter", "fusion_lon": 0.0, "is_reserved": 0, "fusion_lat": 0.0, "lon": -76.95414566666666}, {"rental_uris": {"ios": "https://dc.lft.to/lastmile_qr_scan", "android": "https://dc.lft.to/lastmile_qr_scan"}, "lat": 38.91763233333333, "is_disabled": 0, "bike_id": "11894cd021eedaff4f895f4cd6c618fd", "name": "11894cd021eedaff4f895f4cd6c618fd", "type": "electric_scooter", "fusion_lon": 0.0, "is_reserved": 0, "fusion_lat": 0.0, "lon": -77.0390945}, {"rental_uris": {"ios": "https://dc.lft.to/lastmile_qr_scan", "android": "https://dc.lft.to/lastmile_qr_scan"}, "lat": 38.91317183333334, "is_disabled": 0, "bike_id": "1a35f942fb63c34d9f7a68aec90ae86e", "name": "1a35f942fb63c34d9f7a68aec90ae86e", "type": "electric_scooter", "fusion_lon": 0.0, "is_reserved": 0, "fusion_lat": 0.0, "lon": -77.04051466666667}, {"rental_uris": {"ios": "https://dc.lft.to/lastmile_qr_scan", "android": "https://dc.lft.to/lastmile_qr_scan"}, "lat": 38.91098683333333, "is_disabled": 0, "bike_id": "ae2cdca770c5c1f4db477c586cab45f2", "name": "ae2cdca770c5c1f4db477c586cab45f2", "type": "electric_scooter", "fusion_lon": 0.0, "is_reserved": 0, "fusion_lat": 0.0, "lon": -77.07346516666667}, {"rental_uris": {"ios": "https://dc.lft.to/lastmile_qr_scan", "android": "https://dc.lft.to/lastmile_qr_scan"}, "lat": 38.89736583333333, "is_disabled": 0, "bike_id": "e1568523f84a2edd80d7b4e11a4e1a36", "name": "e1568523f84a2edd80d7b4e11a4e1a36", "type": "electric_bike", "fusion_lon": 0.0, "is_reserved": 0, "fusion_lat": 0.0, "lon": -77.12264183333333}, {"rental_uris": {"ios": "https://dc.lft.to/lastmile_qr_scan", "android": "https://dc.lft.to/lastmile_qr_scan"}, "lat": 38.879126666666664, "is_disabled": 0, "bike_id": "fe178e0218d51c4ead04ea3f7bcd4688", "name": "fe178e0218d51c4ead04ea3f7bcd4688", "type": "electric_scooter", "fusion_lon": 0.0, "is_reserved": 0, "fusion_lat": 0.0, "lon": -76.99126816666667}, {"rental_uris": {"ios": "https://dc.lft.to/lastmile_qr_scan", "android": "https://dc.lft.to/lastmile_qr_scan"}, "lat": 38.912390333333335, "is_disabled": 0, "bike_id": "642136423af0d14e52f310979c45ce1c", "name": "642136423af0d14e52f310979c45ce1c", "type": "electric_scooter", "fusion_lon": 0.0, "is_reserved": 0, "fusion_lat": 0.0, "lon": -77.04473283333333}, {"rental_uris": {"ios": "https://dc.lft.to/lastmile_qr_scan", "android": "https://dc.lft.to/lastmile_qr_scan"}, "lat": 38.92588633333333, "is_disabled": 0, "bike_id": "7e5647a6061651bab02f2cbf6c6d76cc", "name": "7e5647a6061651bab02f2cbf6c6d76cc", "type": "electric_scooter", "fusion_lon": 0.0, "is_reserved": 0, "fusion_lat": 0.0, "lon": -77.02611433333334}, {"rental_uris": {"ios": "https://dc.lft.to/lastmile_qr_scan", "android": "https://dc.lft.to/lastmile_qr_scan"}, "lat": 38.89883716666667, "is_disabled": 0, "bike_id": "4d5df791df2991130838491f0c653e94", "name": "4d5df791df2991130838491f0c653e94", "type": "electric_scooter", "fusion_lon": 0.0, "is_reserved": 0, "fusion_lat": 0.0, "lon": -76.92954133333333}, {"rental_uris": {"ios": "https://dc.lft.to/lastmile_qr_scan", "android": "https://dc.lft.to/lastmile_qr_scan"}, "lat": 38.929505666666664, "is_disabled": 0, "bike_id": "209d1763d9e06726509751ed949e3f93", "name": "209d1763d9e06726509751ed949e3f93", "type": "electric_scooter", "fusion_lon": 0.0, "is_reserved": 0, "fusion_lat": 0.0, "lon": -77.03421266666666}, {"rental_uris": {"ios": "https://dc.lft.to/lastmile_qr_scan", "android": "https://dc.lft.to/lastmile_qr_scan"}, "lat": 38.8973945, "is_disabled": 0, "bike_id": "d5456c449a3ae8d1a9a5ac91be53bfc8", "name": "d5456c449a3ae8d1a9a5ac91be53bfc8", "type": "electric_scooter", "fusion_lon": 0.0, "is_reserved": 0, "fusion_lat": 0.0, "lon": -77.00378633333334}, {"rental_uris": {"ios": "https://dc.lft.to/lastmile_qr_scan", "android": "https://dc.lft.to/lastmile_qr_scan"}, "lat": 38.996661, "is_disabled": 0, "bike_id": "ddbb15ed2eb49a523e844ef55ce2aea6", "name": "ddbb15ed2eb49a523e844ef55ce2aea6", "type": "electric_bike", "fusion_lon": 0.0, "is_reserved": 0, "fusion_lat": 0.0, "lon": -77.03785283333333}, {"rental_uris": {"ios": "https://dc.lft.to/lastmile_qr_scan", "android": "https://dc.lft.to/lastmile_qr_scan"}, "lat": 38.91558583333333, "is_disabled": 0, "bike_id": "1f39b0c4e2ec62e34115f932724a927b", "name": "1f39b0c4e2ec62e34115f932724a927b", "type": "electric_scooter", "fusion_lon": 0.0, "is_reserved": 0, "fusion_lat": 0.0, "lon": -77.046381}, {"rental_uris": {"ios": "https://dc.lft.to/lastmile_qr_scan", "android": "https://dc.lft.to/lastmile_qr_scan"}, "lat": 38.88484866666667, "is_disabled": 0, "bike_id": "87a064ca15ac097ad2e39b252a9ca2e1", "name": "87a064ca15ac097ad2e39b252a9ca2e1", "type": "electric_bike", "fusion_lon": 0.0, "is_reserved": 0, "fusion_lat": 0.0, "lon": -76.99702183333333}, {"rental_uris": {"ios": "https://dc.lft.to/lastmile_qr_scan", "android": "https://dc.lft.to/lastmile_qr_scan"}, "lat": 38.90024416666667, "is_disabled": 0, "bike_id": "8345de4fe0c11e6ee6a76a73ba7066d0", "name": "8345de4fe0c11e6ee6a76a73ba7066d0", "type": "electric_scooter", "fusion_lon": 0.0, "is_reserved": 0, "fusion_lat": 0.0, "lon": -77.01724183333333}, {"rental_uris": {"ios": "https://dc.lft.to/lastmile_qr_scan", "android": "https://dc.lft.to/lastmile_qr_scan"}, "lat": 38.893336166666664, "is_disabled": 0, "bike_id": "634ecbbc3a7f02f46d779563ac822fbd", "name": "634ecbbc3a7f02f46d779563ac822fbd", "type": "electric_scooter", "fusion_lon": 0.0, "is_reserved": 0, "fusion_lat": 0.0, "lon": -77.012103}, {"rental_uris": {"ios": "https://dc.lft.to/lastmile_qr_scan", "android": "https://dc.lft.to/lastmile_qr_scan"}, "lat": 38.916693333333335, "is_disabled": 0, "bike_id": "5f6272cccf67d8b20c57dee11ebca007", "name": "5f6272cccf67d8b20c57dee11ebca007", "type": "electric_scooter", "fusion_lon": 0.0, "is_reserved": 0, "fusion_lat": 0.0, "lon": -77.02395666666666}, {"rental_uris": {"ios": "https://dc.lft.to/lastmile_qr_scan", "android": "https://dc.lft.to/lastmile_qr_scan"}, "lat": 38.89893633333333, "is_disabled": 0, "bike_id": "a23e0935dbfc3bc31120269e2d923c38", "name": "a23e0935dbfc3bc31120269e2d923c38", "type": "electric_bike", "fusion_lon": 0.0, "is_reserved": 0, "fusion_lat": 0.0, "lon": -76.98388483333333}, {"rental_uris": {"ios": "https://dc.lft.to/lastmile_qr_scan", "android": "https://dc.lft.to/lastmile_qr_scan"}, "lat": 38.86910983333333, "is_disabled": 0, "bike_id": "57341b78ad1f3e0cf091f5268cb2c74b", "name": "57341b78ad1f3e0cf091f5268cb2c74b", "type": "electric_bike", "fusion_lon": 0.0, "is_reserved": 0, "fusion_lat": 0.0, "lon": -77.13176933333334}, {"rental_uris": {"ios": "https://dc.lft.to/lastmile_qr_scan", "android": "https://dc.lft.to/lastmile_qr_scan"}, "lat": 38.905167666666664, "is_disabled": 0, "bike_id": "772805619321c82600b2c0b892b9de30", "name": "772805619321c82600b2c0b892b9de30", "type": "electric_scooter", "fusion_lon": 0.0, "is_reserved": 0, "fusion_lat": 0.0, "lon": -77.04788233333333}, {"rental_uris": {"ios": "https://dc.lft.to/lastmile_qr_scan", "android": "https://dc.lft.to/lastmile_qr_scan"}, "lat": 38.88046033333333, "is_disabled": 0, "bike_id": "cd71a43d2456fb0a2db1c818d41d3773", "name": "cd71a43d2456fb0a2db1c818d41d3773", "type": "electric_scooter", "fusion_lon": 0.0, "is_reserved": 0, "fusion_lat": 0.0, "lon": -77.0306585}, {"rental_uris": {"ios": "https://dc.lft.to/lastmile_qr_scan", "android": "https://dc.lft.to/lastmile_qr_scan"}, "lat": 38.911032, "is_disabled": 0, "bike_id": "3a5064517126636b74d70c0b347e226f", "name": "3a5064517126636b74d70c0b347e226f", "type": "electric_scooter", "fusion_lon": 0.0, "is_reserved": 0, "fusion_lat": 0.0, "lon": -77.02805966666666}, {"rental_uris": {"ios": "https://dc.lft.to/lastmile_qr_scan", "android": "https://dc.lft.to/lastmile_qr_scan"}, "lat": 38.89187116666667, "is_disabled": 0, "bike_id": "65fe56a1b043a7e321f1c574fee78dea", "name": "65fe56a1b043a7e321f1c574fee78dea", "type": "electric_scooter", "fusion_lon": 0.0, "is_reserved": 0, "fusion_lat": 0.0, "lon": -77.00335233333334}, {"rental_uris": {"ios": "https://dc.lft.to/lastmile_qr_scan", "android": "https://dc.lft.to/lastmile_qr_scan"}, "lat": 38.90987416666667, "is_disabled": 0, "bike_id": "7402c70d15e67853ceb01806db976ca8", "name": "7402c70d15e67853ceb01806db976ca8", "type": "electric_scooter", "fusion_lon": 0.0, "is_reserved": 0, "fusion_lat": 0.0, "lon": -77.04255133333334}, {"rental_uris": {"ios": "https://dc.lft.to/lastmile_qr_scan", "android": "https://dc.lft.to/lastmile_qr_scan"}, "lat": 38.9427965, "is_disabled": 0, "bike_id": "5748f42dff6348eae085c0da6521b03a", "name": "5748f42dff6348eae085c0da6521b03a", "type": "electric_scooter", "fusion_lon": 0.0, "is_reserved": 0, "fusion_lat": 0.0, "lon": -77.02931533333333}, {"rental_uris": {"ios": "https://dc.lft.to/lastmile_qr_scan", "android": "https://dc.lft.to/lastmile_qr_scan"}, "lat": 38.90528233333333, "is_disabled": 0, "bike_id": "5b0581416157c25d9deaa9bd048e4b78", "name": "5b0581416157c25d9deaa9bd048e4b78", "type": "electric_scooter", "fusion_lon": 0.0, "is_reserved": 0, "fusion_lat": 0.0, "lon": -77.05106766666667}, {"rental_uris": {"ios": "https://dc.lft.to/lastmile_qr_scan", "android": "https://dc.lft.to/lastmile_qr_scan"}, "lat": 38.8637755, "is_disabled": 0, "bike_id": "70e9c5c655257ddd99fd012af4cd81f9", "name": "70e9c5c655257ddd99fd012af4cd81f9", "type": "electric_bike", "fusion_lon": 0.0, "is_reserved": 0, "fusion_lat": 0.0, "lon": -77.12900566666667}, {"rental_uris": {"ios": "https://dc.lft.to/lastmile_qr_scan", "android": "https://dc.lft.to/lastmile_qr_scan"}, "lat": 38.90997333333333, "is_disabled": 0, "bike_id": "a59b936f0fb7862a5d288c26c7a9d76d", "name": "a59b936f0fb7862a5d288c26c7a9d76d", "type": "electric_scooter", "fusion_lon": 0.0, "is_reserved": 0, "fusion_lat": 0.0, "lon": -77.03987583333333}, {"rental_uris": {"ios": "https://dc.lft.to/lastmile_qr_scan", "android": "https://dc.lft.to/lastmile_qr_scan"}, "lat": 38.92426733333333, "is_disabled": 0, "bike_id": "7982cf92b0aafb18a83231ac5a831b35", "name": "7982cf92b0aafb18a83231ac5a831b35", "type": "electric_scooter", "fusion_lon": 0.0, "is_reserved": 0, "fusion_lat": 0.0, "lon": -77.04045133333334}, {"rental_uris": {"ios": "https://dc.lft.to/lastmile_qr_scan", "android": "https://dc.lft.to/lastmile_qr_scan"}, "lat": 39.022996666666664, "is_disabled": 0, "bike_id": "1de4c7a476d798de2fdb96c0f6a621d6", "name": "1de4c7a476d798de2fdb96c0f6a621d6", "type": "electric_bike", "fusion_lon": 0.0, "is_reserved": 0, "fusion_lat": 0.0, "lon": -77.02109033333333}, {"rental_uris": {"ios": "https://dc.lft.to/lastmile_qr_scan", "android": "https://dc.lft.to/lastmile_qr_scan"}, "lat": 38.9366605, "is_disabled": 0, "bike_id": "6130bb43af880c431ca4d9263a36d894", "name": "6130bb43af880c431ca4d9263a36d894", "type": "electric_scooter", "fusion_lon": 0.0, "is_reserved": 0, "fusion_lat": 0.0, "lon": -77.03262183333334}, {"rental_uris": {"ios": "https://dc.lft.to/lastmile_qr_scan", "android": "https://dc.lft.to/lastmile_qr_scan"}, "lat": 38.9058, "is_disabled": 0, "bike_id": "fa4e2f7363cdf47a4722afc330b28992", "name": "fa4e2f7363cdf47a4722afc330b28992", "type": "electric_scooter", "fusion_lon": 0.0, "is_reserved": 0, "fusion_lat": 0.0, "lon": -77.0466835}, {"rental_uris": {"ios": "https://dc.lft.to/lastmile_qr_scan", "android": "https://dc.lft.to/lastmile_qr_scan"}, "lat": 38.89554866666667, "is_disabled": 0, "bike_id": "791ab4189d76333ec0dcc7a7913c5cc1", "name": "791ab4189d76333ec0dcc7a7913c5cc1", "type": "electric_scooter", "fusion_lon": 0.0, "is_reserved": 0, "fusion_lat": 0.0, "lon": -77.046752}, {"rental_uris": {"ios": "https://dc.lft.to/lastmile_qr_scan", "android": "https://dc.lft.to/lastmile_qr_scan"}, "lat": 38.8923405, "is_disabled": 0, "bike_id": "fec105f27d70bed9293331deb32b2ce9", "name": "fec105f27d70bed9293331deb32b2ce9", "type": "electric_scooter", "fusion_lon": 0.0, "is_reserved": 0, "fusion_lat": 0.0, "lon": -77.02831116666667}, {"rental_uris": {"ios": "https://dc.lft.to/lastmile_qr_scan", "android": "https://dc.lft.to/lastmile_qr_scan"}, "lat": 38.875339833333335, "is_disabled": 0, "bike_id": "2c4bb45208fd7fc2481534b30eea56fd", "name": "2c4bb45208fd7fc2481534b30eea56fd", "type": "electric_scooter", "fusion_lon": 0.0, "is_reserved": 0, "fusion_lat": 0.0, "lon": -77.00555966666667}, {"rental_uris": {"ios": "https://dc.lft.to/lastmile_qr_scan", "android": "https://dc.lft.to/lastmile_qr_scan"}, "lat": 38.90913966666667, "is_disabled": 0, "bike_id": "9524341e75fa706419b36ec44c2fc771", "name": "9524341e75fa706419b36ec44c2fc771", "type": "electric_scooter", "fusion_lon": 0.0, "is_reserved": 0, "fusion_lat": 0.0, "lon": -77.00306733333333}, {"rental_uris": {"ios": "https://dc.lft.to/lastmile_qr_scan", "android": "https://dc.lft.to/lastmile_qr_scan"}, "lat": 38.93907, "is_disabled": 0, "bike_id": "07458bfa34de23ba033f257550516c1f", "name": "07458bfa34de23ba033f257550516c1f", "type": "electric_scooter", "fusion_lon": 0.0, "is_reserved": 0, "fusion_lat": 0.0, "lon": -77.06044016666667}, {"rental_uris": {"ios": "https://dc.lft.to/lastmile_qr_scan", "android": "https://dc.lft.to/lastmile_qr_scan"}, "lat": 38.907823666666665, "is_disabled": 0, "bike_id": "60a12656451a68082d5b129a1e1de810", "name": "60a12656451a68082d5b129a1e1de810", "type": "electric_scooter", "fusion_lon": 0.0, "is_reserved": 0, "fusion_lat": 0.0, "lon": -77.06407716666666}, {"rental_uris": {"ios": "https://dc.lft.to/lastmile_qr_scan", "android": "https://dc.lft.to/lastmile_qr_scan"}, "lat": 38.92232583333333, "is_disabled": 0, "bike_id": "25239b3ced7904384647b6e9749e3458", "name": "25239b3ced7904384647b6e9749e3458", "type": "electric_bike", "fusion_lon": 0.0, "is_reserved": 0, "fusion_lat": 0.0, "lon": -77.04342033333333}, {"rental_uris": {"ios": "https://dc.lft.to/lastmile_qr_scan", "android": "https://dc.lft.to/lastmile_qr_scan"}, "lat": 38.89873, "is_disabled": 0, "bike_id": "1dd610f21fae3a513f6691b9344d6f62", "name": "1dd610f21fae3a513f6691b9344d6f62", "type": "electric_scooter", "fusion_lon": 0.0, "is_reserved": 0, "fusion_lat": 0.0, "lon": -76.94665716666667}, {"rental_uris": {"ios": "https://dc.lft.to/lastmile_qr_scan", "android": "https://dc.lft.to/lastmile_qr_scan"}, "lat": 38.9143315, "is_disabled": 0, "bike_id": "0211f98090b61327a30be597b7191100", "name": "0211f98090b61327a30be597b7191100", "type": "electric_scooter", "fusion_lon": 0.0, "is_reserved": 0, "fusion_lat": 0.0, "lon": -77.00199616666667}, {"rental_uris": {"ios": "https://dc.lft.to/lastmile_qr_scan", "android": "https://dc.lft.to/lastmile_qr_scan"}, "lat": 38.908184166666665, "is_disabled": 0, "bike_id": "131290faaa0a218e614ddb4517522e87", "name": "131290faaa0a218e614ddb4517522e87", "type": "electric_scooter", "fusion_lon": 0.0, "is_reserved": 0, "fusion_lat": 0.0, "lon": -77.03947066666667}, {"rental_uris": {"ios": "https://dc.lft.to/lastmile_qr_scan", "android": "https://dc.lft.to/lastmile_qr_scan"}, "lat": 38.8961955, "is_disabled": 0, "bike_id": "c8bb8a0bb676e1cfcc1d6717623d87c0", "name": "c8bb8a0bb676e1cfcc1d6717623d87c0", "type": "electric_scooter", "fusion_lon": 0.0, "is_reserved": 0, "fusion_lat": 0.0, "lon": -77.01161633333334}, {"rental_uris": {"ios": "https://dc.lft.to/lastmile_qr_scan", "android": "https://dc.lft.to/lastmile_qr_scan"}, "lat": 38.9027315, "is_disabled": 0, "bike_id": "4458358403d8326dc79339742ab0ccd5", "name": "4458358403d8326dc79339742ab0ccd5", "type": "electric_scooter", "fusion_lon": 0.0, "is_reserved": 0, "fusion_lat": 0.0, "lon": -77.03440616666667}, {"rental_uris": {"ios": "https://dc.lft.to/lastmile_qr_scan", "android": "https://dc.lft.to/lastmile_qr_scan"}, "lat": 38.912681166666665, "is_disabled": 0, "bike_id": "48ecf9757f5d8597f2fcb242d9fb5046", "name": "48ecf9757f5d8597f2fcb242d9fb5046", "type": "electric_scooter", "fusion_lon": 0.0, "is_reserved": 0, "fusion_lat": 0.0, "lon": -77.04550516666667}, {"rental_uris": {"ios": "https://dc.lft.to/lastmile_qr_scan", "android": "https://dc.lft.to/lastmile_qr_scan"}, "lat": 38.89992766666667, "is_disabled": 0, "bike_id": "968618b60d9402e883de54c36ab29996", "name": "968618b60d9402e883de54c36ab29996", "type": "electric_scooter", "fusion_lon": 0.0, "is_reserved": 0, "fusion_lat": 0.0, "lon": -77.03180516666667}, {"rental_uris": {"ios": "https://dc.lft.to/lastmile_qr_scan", "android": "https://dc.lft.to/lastmile_qr_scan"}, "lat": 38.920685666666664, "is_disabled": 0, "bike_id": "161124fafc5646644224c2f5f042a0f0", "name": "161124fafc5646644224c2f5f042a0f0", "type": "electric_scooter", "fusion_lon": 0.0, "is_reserved": 0, "fusion_lat": 0.0, "lon": -77.04249433333334}, {"rental_uris": {"ios": "https://dc.lft.to/lastmile_qr_scan", "android": "https://dc.lft.to/lastmile_qr_scan"}, "lat": 38.92973766666667, "is_disabled": 0, "bike_id": "5f12e98866d41caf5ff4a849cf5e32ad", "name": "5f12e98866d41caf5ff4a849cf5e32ad", "type": "electric_bike", "fusion_lon": 0.0, "is_reserved": 0, "fusion_lat": 0.0, "lon": -77.05614766666666}, {"rental_uris": {"ios": "https://dc.lft.to/lastmile_qr_scan", "android": "https://dc.lft.to/lastmile_qr_scan"}, "lat": 38.876511666666666, "is_disabled": 0, "bike_id": "8fdd2a5cfa1c6ad892524464e77afaba", "name": "8fdd2a5cfa1c6ad892524464e77afaba", "type": "electric_scooter", "fusion_lon": 0.0, "is_reserved": 0, "fusion_lat": 0.0, "lon": -76.96506883333333}, {"rental_uris": {"ios": "https://dc.lft.to/lastmile_qr_scan", "android": "https://dc.lft.to/lastmile_qr_scan"}, "lat": 38.9077145, "is_disabled": 0, "bike_id": "6de4f4f52a1a9277909a35d74e4cea1a", "name": "6de4f4f52a1a9277909a35d74e4cea1a", "type": "electric_scooter", "fusion_lon": 0.0, "is_reserved": 0, "fusion_lat": 0.0, "lon": -77.03201616666666}, {"rental_uris": {"ios": "https://dc.lft.to/lastmile_qr_scan", "android": "https://dc.lft.to/lastmile_qr_scan"}, "lat": 38.9095935, "is_disabled": 0, "bike_id": "0ce072c965cf3013fae509c6c00a1bba", "name": "0ce072c965cf3013fae509c6c00a1bba", "type": "electric_scooter", "fusion_lon": 0.0, "is_reserved": 0, "fusion_lat": 0.0, "lon": -77.0347585}, {"rental_uris": {"ios": "https://dc.lft.to/lastmile_qr_scan", "android": "https://dc.lft.to/lastmile_qr_scan"}, "lat": 38.940482833333334, "is_disabled": 0, "bike_id": "a1f53fe9f61a9e356167e778945fc310", "name": "a1f53fe9f61a9e356167e778945fc310", "type": "electric_scooter", "fusion_lon": 0.0, "is_reserved": 0, "fusion_lat": 0.0, "lon": -77.07571983333334}, {"rental_uris": {"ios": "https://dc.lft.to/lastmile_qr_scan", "android": "https://dc.lft.to/lastmile_qr_scan"}, "lat": 38.906197666666664, "is_disabled": 0, "bike_id": "63aca75c2f75c548745719b680e0cd29", "name": "63aca75c2f75c548745719b680e0cd29", "type": "electric_scooter", "fusion_lon": 0.0, "is_reserved": 0, "fusion_lat": 0.0, "lon": -77.02697716666667}, {"rental_uris": {"ios": "https://dc.lft.to/lastmile_qr_scan", "android": "https://dc.lft.to/lastmile_qr_scan"}, "lat": 39.1056695, "is_disabled": 0, "bike_id": "46a3f94ed1872dad5e16525288c175a7", "name": "46a3f94ed1872dad5e16525288c175a7", "type": "electric_bike", "fusion_lon": 0.0, "is_reserved": 0, "fusion_lat": 0.0, "lon": -77.1526795}, {"rental_uris": {"ios": "https://dc.lft.to/lastmile_qr_scan", "android": "https://dc.lft.to/lastmile_qr_scan"}, "lat": 38.92448666666667, "is_disabled": 0, "bike_id": "6a268c2f9c534e719b83fcf668cebcf8", "name": "6a268c2f9c534e719b83fcf668cebcf8", "type": "electric_bike", "fusion_lon": 0.0, "is_reserved": 0, "fusion_lat": 0.0, "lon": -76.96836416666666}, {"rental_uris": {"ios": "https://dc.lft.to/lastmile_qr_scan", "android": "https://dc.lft.to/lastmile_qr_scan"}, "lat": 38.93017583333334, "is_disabled": 0, "bike_id": "faaa105b6ee1bf1f618e095f75dcbb6b", "name": "faaa105b6ee1bf1f618e095f75dcbb6b", "type": "electric_scooter", "fusion_lon": 0.0, "is_reserved": 0, "fusion_lat": 0.0, "lon": -77.038041}, {"rental_uris": {"ios": "https://dc.lft.to/lastmile_qr_scan", "android": "https://dc.lft.to/lastmile_qr_scan"}, "lat": 38.8617525, "is_disabled": 0, "bike_id": "16d77d8e90b3086ad6ce8c22338063c3", "name": "16d77d8e90b3086ad6ce8c22338063c3", "type": "electric_scooter", "fusion_lon": 0.0, "is_reserved": 0, "fusion_lat": 0.0, "lon": -76.98329983333333}, {"rental_uris": {"ios": "https://dc.lft.to/lastmile_qr_scan", "android": "https://dc.lft.to/lastmile_qr_scan"}, "lat": 38.9558635, "is_disabled": 0, "bike_id": "63402cfcac75be81ff658398e209f521", "name": "63402cfcac75be81ff658398e209f521", "type": "electric_scooter", "fusion_lon": 0.0, "is_reserved": 0, "fusion_lat": 0.0, "lon": -77.03652566666666}, {"rental_uris": {"ios": "https://dc.lft.to/lastmile_qr_scan", "android": "https://dc.lft.to/lastmile_qr_scan"}, "lat": 38.916457333333334, "is_disabled": 0, "bike_id": "b909705d0304a6dcb6ec645e224429da", "name": "b909705d0304a6dcb6ec645e224429da", "type": "electric_scooter", "fusion_lon": 0.0, "is_reserved": 0, "fusion_lat": 0.0, "lon": -77.02274516666667}, {"rental_uris": {"ios": "https://dc.lft.to/lastmile_qr_scan", "android": "https://dc.lft.to/lastmile_qr_scan"}, "lat": 38.90650616666667, "is_disabled": 0, "bike_id": "1d0a6e230d997207c5f3e27abc00f5d7", "name": "1d0a6e230d997207c5f3e27abc00f5d7", "type": "electric_scooter", "fusion_lon": 0.0, "is_reserved": 0, "fusion_lat": 0.0, "lon": -77.05315183333333}, {"rental_uris": {"ios": "https://dc.lft.to/lastmile_qr_scan", "android": "https://dc.lft.to/lastmile_qr_scan"}, "lat": 38.93044366666667, "is_disabled": 0, "bike_id": "0840ae9dcab535d0205a5e30e5df0496", "name": "0840ae9dcab535d0205a5e30e5df0496", "type": "electric_scooter", "fusion_lon": 0.0, "is_reserved": 0, "fusion_lat": 0.0, "lon": -77.04137083333333}, {"rental_uris": {"ios": "https://dc.lft.to/lastmile_qr_scan", "android": "https://dc.lft.to/lastmile_qr_scan"}, "lat": 38.89218183333333, "is_disabled": 0, "bike_id": "1ccd858e430c453ce286cca37ace4d3a", "name": "1ccd858e430c453ce286cca37ace4d3a", "type": "electric_scooter", "fusion_lon": 0.0, "is_reserved": 0, "fusion_lat": 0.0, "lon": -77.0296835}, {"rental_uris": {"ios": "https://dc.lft.to/lastmile_qr_scan", "android": "https://dc.lft.to/lastmile_qr_scan"}, "lat": 39.05812983333333, "is_disabled": 0, "bike_id": "3aef18ffbb426e764e809710a5d9eb43", "name": "3aef18ffbb426e764e809710a5d9eb43", "type": "electric_bike", "fusion_lon": 0.0, "is_reserved": 0, "fusion_lat": 0.0, "lon": -77.12625683333333}, {"rental_uris": {"ios": "https://dc.lft.to/lastmile_qr_scan", "android": "https://dc.lft.to/lastmile_qr_scan"}, "lat": 38.90727666666667, "is_disabled": 0, "bike_id": "43885e9e4363573bc087e4f61a624714", "name": "43885e9e4363573bc087e4f61a624714", "type": "electric_scooter", "fusion_lon": 0.0, "is_reserved": 0, "fusion_lat": 0.0, "lon": -77.04237}, {"rental_uris": {"ios": "https://dc.lft.to/lastmile_qr_scan", "android": "https://dc.lft.to/lastmile_qr_scan"}, "lat": 38.90383833333333, "is_disabled": 0, "bike_id": "909fb4a5af68a13c50fbe99be76c91dd", "name": "909fb4a5af68a13c50fbe99be76c91dd", "type": "electric_scooter", "fusion_lon": 0.0, "is_reserved": 0, "fusion_lat": 0.0, "lon": -77.02968983333334}, {"rental_uris": {"ios": "https://dc.lft.to/lastmile_qr_scan", "android": "https://dc.lft.to/lastmile_qr_scan"}, "lat": 38.857939, "is_disabled": 0, "bike_id": "593c4c7b7f83eebb068a8b3af886d421", "name": "593c4c7b7f83eebb068a8b3af886d421", "type": "electric_bike", "fusion_lon": 0.0, "is_reserved": 0, "fusion_lat": 0.0, "lon": -76.98742233333333}, {"rental_uris": {"ios": "https://dc.lft.to/lastmile_qr_scan", "android": "https://dc.lft.to/lastmile_qr_scan"}, "lat": 38.91041283333333, "is_disabled": 0, "bike_id": "641b5a636598bcc3cbe15b93bc1eb36a", "name": "641b5a636598bcc3cbe15b93bc1eb36a", "type": "electric_scooter", "fusion_lon": 0.0, "is_reserved": 0, "fusion_lat": 0.0, "lon": -77.03127833333333}, {"rental_uris": {"ios": "https://dc.lft.to/lastmile_qr_scan", "android": "https://dc.lft.to/lastmile_qr_scan"}, "lat": 38.84425566666667, "is_disabled": 0, "bike_id": "a8897f21e024448b3eeb3e400ba3c86d", "name": "a8897f21e024448b3eeb3e400ba3c86d", "type": "electric_scooter", "fusion_lon": 0.0, "is_reserved": 0, "fusion_lat": 0.0, "lon": -76.99827833333333}, {"rental_uris": {"ios": "https://dc.lft.to/lastmile_qr_scan", "android": "https://dc.lft.to/lastmile_qr_scan"}, "lat": 38.90495816666667, "is_disabled": 0, "bike_id": "2aa4c409eeeb3613ac40d6d781e93142", "name": "2aa4c409eeeb3613ac40d6d781e93142", "type": "electric_scooter", "fusion_lon": 0.0, "is_reserved": 0, "fusion_lat": 0.0, "lon": -77.02962183333334}, {"rental_uris": {"ios": "https://dc.lft.to/lastmile_qr_scan", "android": "https://dc.lft.to/lastmile_qr_scan"}, "lat": 38.9031765, "is_disabled": 0, "bike_id": "0e6120ace8ad8308192cb93215d06bcd", "name": "0e6120ace8ad8308192cb93215d06bcd", "type": "electric_scooter", "fusion_lon": 0.0, "is_reserved": 0, "fusion_lat": 0.0, "lon": -77.03821816666667}, {"rental_uris": {"ios": "https://dc.lft.to/lastmile_qr_scan", "android": "https://dc.lft.to/lastmile_qr_scan"}, "lat": 38.895567, "is_disabled": 0, "bike_id": "a8a0266781681a89c6cafe6910b73681", "name": "a8a0266781681a89c6cafe6910b73681", "type": "electric_scooter", "fusion_lon": 0.0, "is_reserved": 0, "fusion_lat": 0.0, "lon": -77.0467625}, {"rental_uris": {"ios": "https://dc.lft.to/lastmile_qr_scan", "android": "https://dc.lft.to/lastmile_qr_scan"}, "lat": 38.926383666666666, "is_disabled": 0, "bike_id": "98df7320c61fec95db37ecd120e83ecc", "name": "98df7320c61fec95db37ecd120e83ecc", "type": "electric_scooter", "fusion_lon": 0.0, "is_reserved": 0, "fusion_lat": 0.0, "lon": -77.025091}, {"rental_uris": {"ios": "https://dc.lft.to/lastmile_qr_scan", "android": "https://dc.lft.to/lastmile_qr_scan"}, "lat": 38.8996985, "is_disabled": 0, "bike_id": "56ee618beacd7ae152f28563f79b1d89", "name": "56ee618beacd7ae152f28563f79b1d89", "type": "electric_scooter", "fusion_lon": 0.0, "is_reserved": 0, "fusion_lat": 0.0, "lon": -76.93759983333334}, {"rental_uris": {"ios": "https://dc.lft.to/lastmile_qr_scan", "android": "https://dc.lft.to/lastmile_qr_scan"}, "lat": 38.88344466666667, "is_disabled": 0, "bike_id": "7829d815853ee861c1da952298c61b96", "name": "7829d815853ee861c1da952298c61b96", "type": "electric_scooter", "fusion_lon": 0.0, "is_reserved": 0, "fusion_lat": 0.0, "lon": -77.01674716666666}, {"rental_uris": {"ios": "https://dc.lft.to/lastmile_qr_scan", "android": "https://dc.lft.to/lastmile_qr_scan"}, "lat": 38.9038425, "is_disabled": 0, "bike_id": "605d367f23b414c139cdda3de79999f3", "name": "605d367f23b414c139cdda3de79999f3", "type": "electric_scooter", "fusion_lon": 0.0, "is_reserved": 0, "fusion_lat": 0.0, "lon": -77.04485433333333}, {"rental_uris": {"ios": "https://dc.lft.to/lastmile_qr_scan", "android": "https://dc.lft.to/lastmile_qr_scan"}, "lat": 38.89356, "is_disabled": 0, "bike_id": "600044d63fa07b4119784b0500c1ac2d", "name": "600044d63fa07b4119784b0500c1ac2d", "type": "electric_scooter", "fusion_lon": 0.0, "is_reserved": 0, "fusion_lat": 0.0, "lon": -77.0033685}, {"rental_uris": {"ios": "https://dc.lft.to/lastmile_qr_scan", "android": "https://dc.lft.to/lastmile_qr_scan"}, "lat": 38.876417000000004, "is_disabled": 0, "bike_id": "53a690c3e96157a1b86353cf2700e8bf", "name": "53a690c3e96157a1b86353cf2700e8bf", "type": "electric_scooter", "fusion_lon": 0.0, "is_reserved": 0, "fusion_lat": 0.0, "lon": -77.00380866666667}, {"rental_uris": {"ios": "https://dc.lft.to/lastmile_qr_scan", "android": "https://dc.lft.to/lastmile_qr_scan"}, "lat": 38.990430833333335, "is_disabled": 0, "bike_id": "66432a012eb40c00c8782e0470a21fbb", "name": "66432a012eb40c00c8782e0470a21fbb", "type": "electric_bike", "fusion_lon": 0.0, "is_reserved": 0, "fusion_lat": 0.0, "lon": -77.06942316666667}, {"rental_uris": {"ios": "https://dc.lft.to/lastmile_qr_scan", "android": "https://dc.lft.to/lastmile_qr_scan"}, "lat": 38.9056125, "is_disabled": 0, "bike_id": "7f503a98a66183637603f2595ae02f61", "name": "7f503a98a66183637603f2595ae02f61", "type": "electric_scooter", "fusion_lon": 0.0, "is_reserved": 0, "fusion_lat": 0.0, "lon": -76.9814565}, {"rental_uris": {"ios": "https://dc.lft.to/lastmile_qr_scan", "android": "https://dc.lft.to/lastmile_qr_scan"}, "lat": 38.9287315, "is_disabled": 0, "bike_id": "9247a6ceab055d0ab1b8be87263ec2b2", "name": "9247a6ceab055d0ab1b8be87263ec2b2", "type": "electric_scooter", "fusion_lon": 0.0, "is_reserved": 0, "fusion_lat": 0.0, "lon": -77.03446366666667}, {"rental_uris": {"ios": "https://dc.lft.to/lastmile_qr_scan", "android": "https://dc.lft.to/lastmile_qr_scan"}, "lat": 38.9172335, "is_disabled": 0, "bike_id": "97d2c60f62cfcc395726fa4929ba0ff4", "name": "97d2c60f62cfcc395726fa4929ba0ff4", "type": "electric_scooter", "fusion_lon": 0.0, "is_reserved": 0, "fusion_lat": 0.0, "lon": -77.0270445}, {"rental_uris": {"ios": "https://dc.lft.to/lastmile_qr_scan", "android": "https://dc.lft.to/lastmile_qr_scan"}, "lat": 38.93848533333333, "is_disabled": 0, "bike_id": "f8d15746f482e9f3da0528ca8338c752", "name": "f8d15746f482e9f3da0528ca8338c752", "type": "electric_scooter", "fusion_lon": 0.0, "is_reserved": 0, "fusion_lat": 0.0, "lon": -77.0246855}, {"rental_uris": {"ios": "https://dc.lft.to/lastmile_qr_scan", "android": "https://dc.lft.to/lastmile_qr_scan"}, "lat": 38.903962666666665, "is_disabled": 0, "bike_id": "cf979e1f9b6e83682506d1b38b51f0b1", "name": "cf979e1f9b6e83682506d1b38b51f0b1", "type": "electric_scooter", "fusion_lon": 0.0, "is_reserved": 0, "fusion_lat": 0.0, "lon": -77.040517}, {"rental_uris": {"ios": "https://dc.lft.to/lastmile_qr_scan", "android": "https://dc.lft.to/lastmile_qr_scan"}, "lat": 38.91679416666667, "is_disabled": 0, "bike_id": "09af9d1f3b5b58e33506ae70c5347424", "name": "09af9d1f3b5b58e33506ae70c5347424", "type": "electric_scooter", "fusion_lon": 0.0, "is_reserved": 0, "fusion_lat": 0.0, "lon": -77.03179016666667}, {"rental_uris": {"ios": "https://dc.lft.to/lastmile_qr_scan", "android": "https://dc.lft.to/lastmile_qr_scan"}, "lat": 38.900306666666665, "is_disabled": 0, "bike_id": "00179aad74c1a9dacfd2f61b9f5bc910", "name": "00179aad74c1a9dacfd2f61b9f5bc910", "type": "electric_scooter", "fusion_lon": 0.0, "is_reserved": 0, "fusion_lat": 0.0, "lon": -77.00042533333334}, {"rental_uris": {"ios": "https://dc.lft.to/lastmile_qr_scan", "android": "https://dc.lft.to/lastmile_qr_scan"}, "lat": 38.90622883333333, "is_disabled": 0, "bike_id": "14cd342b49a48f0e98ed95e15736a634", "name": "14cd342b49a48f0e98ed95e15736a634", "type": "electric_bike", "fusion_lon": 0.0, "is_reserved": 0, "fusion_lat": 0.0, "lon": -77.0701895}, {"rental_uris": {"ios": "https://dc.lft.to/lastmile_qr_scan", "android": "https://dc.lft.to/lastmile_qr_scan"}, "lat": 38.957635333333336, "is_disabled": 0, "bike_id": "d9cf103960d3c748a404afbf692f8330", "name": "d9cf103960d3c748a404afbf692f8330", "type": "electric_scooter", "fusion_lon": 0.0, "is_reserved": 0, "fusion_lat": 0.0, "lon": -77.01590016666667}, {"rental_uris": {"ios": "https://dc.lft.to/lastmile_qr_scan", "android": "https://dc.lft.to/lastmile_qr_scan"}, "lat": 38.92720166666667, "is_disabled": 0, "bike_id": "f5da7732f8b9e46afd3c4b5e18e6e843", "name": "f5da7732f8b9e46afd3c4b5e18e6e843", "type": "electric_scooter", "fusion_lon": 0.0, "is_reserved": 0, "fusion_lat": 0.0, "lon": -77.02392216666667}, {"rental_uris": {"ios": "https://dc.lft.to/lastmile_qr_scan", "android": "https://dc.lft.to/lastmile_qr_scan"}, "lat": 38.89134933333333, "is_disabled": 0, "bike_id": "a535b9a160b6584fed0ee702c8fc70bf", "name": "a535b9a160b6584fed0ee702c8fc70bf", "type": "electric_scooter", "fusion_lon": 0.0, "is_reserved": 0, "fusion_lat": 0.0, "lon": -76.95183416666667}, {"rental_uris": {"ios": "https://dc.lft.to/lastmile_qr_scan", "android": "https://dc.lft.to/lastmile_qr_scan"}, "lat": 38.8462165, "is_disabled": 0, "bike_id": "d7beb5ca24d4f2c274a0420840de36c5", "name": "d7beb5ca24d4f2c274a0420840de36c5", "type": "electric_scooter", "fusion_lon": 0.0, "is_reserved": 0, "fusion_lat": 0.0, "lon": -76.99631016666666}, {"rental_uris": {"ios": "https://dc.lft.to/lastmile_qr_scan", "android": "https://dc.lft.to/lastmile_qr_scan"}, "lat": 38.924117333333335, "is_disabled": 0, "bike_id": "9a718570bc51c946c14670a12525f09b", "name": "9a718570bc51c946c14670a12525f09b", "type": "electric_scooter", "fusion_lon": 0.0, "is_reserved": 0, "fusion_lat": 0.0, "lon": -77.01939783333333}, {"rental_uris": {"ios": "https://dc.lft.to/lastmile_qr_scan", "android": "https://dc.lft.to/lastmile_qr_scan"}, "lat": 38.9697105, "is_disabled": 0, "bike_id": "1bb3f8da34775b3e65ba46af6af3d19a", "name": "1bb3f8da34775b3e65ba46af6af3d19a", "type": "electric_bike", "fusion_lon": 0.0, "is_reserved": 0, "fusion_lat": 0.0, "lon": -76.93451466666667}, {"rental_uris": {"ios": "https://dc.lft.to/lastmile_qr_scan", "android": "https://dc.lft.to/lastmile_qr_scan"}, "lat": 38.988292333333334, "is_disabled": 0, "bike_id": "1785749ef8d34bf41901cb96c23acc78", "name": "1785749ef8d34bf41901cb96c23acc78", "type": "electric_bike", "fusion_lon": 0.0, "is_reserved": 0, "fusion_lat": 0.0, "lon": -76.98750283333334}, {"rental_uris": {"ios": "https://dc.lft.to/lastmile_qr_scan", "android": "https://dc.lft.to/lastmile_qr_scan"}, "lat": 38.84427766666667, "is_disabled": 0, "bike_id": "b230e8b98f3fab8d4540b6cc269164b1", "name": "b230e8b98f3fab8d4540b6cc269164b1", "type": "electric_scooter", "fusion_lon": 0.0, "is_reserved": 0, "fusion_lat": 0.0, "lon": -76.99780566666666}, {"rental_uris": {"ios": "https://dc.lft.to/lastmile_qr_scan", "android": "https://dc.lft.to/lastmile_qr_scan"}, "lat": 38.9342925, "is_disabled": 0, "bike_id": "9d36081bf0fde59f9c8dfb95a8184dd0", "name": "9d36081bf0fde59f9c8dfb95a8184dd0", "type": "electric_scooter", "fusion_lon": 0.0, "is_reserved": 0, "fusion_lat": 0.0, "lon": -77.0327205}, {"rental_uris": {"ios": "https://dc.lft.to/lastmile_qr_scan", "android": "https://dc.lft.to/lastmile_qr_scan"}, "lat": 38.90220716666666, "is_disabled": 0, "bike_id": "691d54d3bb8e545fdfb9f4e8634d9d8d", "name": "691d54d3bb8e545fdfb9f4e8634d9d8d", "type": "electric_scooter", "fusion_lon": 0.0, "is_reserved": 0, "fusion_lat": 0.0, "lon": -77.051482}, {"rental_uris": {"ios": "https://dc.lft.to/lastmile_qr_scan", "android": "https://dc.lft.to/lastmile_qr_scan"}, "lat": 38.90186816666667, "is_disabled": 0, "bike_id": "e8e8d0b21209547eb0a2c40e35e6aac3", "name": "e8e8d0b21209547eb0a2c40e35e6aac3", "type": "electric_scooter", "fusion_lon": 0.0, "is_reserved": 0, "fusion_lat": 0.0, "lon": -76.934642}, {"rental_uris": {"ios": "https://dc.lft.to/lastmile_qr_scan", "android": "https://dc.lft.to/lastmile_qr_scan"}, "lat": 38.89573633333333, "is_disabled": 0, "bike_id": "67ab4d8b476b712c02b53151f48086f2", "name": "67ab4d8b476b712c02b53151f48086f2", "type": "electric_scooter", "fusion_lon": 0.0, "is_reserved": 0, "fusion_lat": 0.0, "lon": -77.02158216666666}, {"rental_uris": {"ios": "https://dc.lft.to/lastmile_qr_scan", "android": "https://dc.lft.to/lastmile_qr_scan"}, "lat": 38.91786883333333, "is_disabled": 0, "bike_id": "eb7342fe14405d4d8d2cf85bdb058470", "name": "eb7342fe14405d4d8d2cf85bdb058470", "type": "electric_scooter", "fusion_lon": 0.0, "is_reserved": 0, "fusion_lat": 0.0, "lon": -77.02296216666667}, {"rental_uris": {"ios": "https://dc.lft.to/lastmile_qr_scan", "android": "https://dc.lft.to/lastmile_qr_scan"}, "lat": 38.901245, "is_disabled": 0, "bike_id": "9b0426754e80e561a4418ce5e33335ba", "name": "9b0426754e80e561a4418ce5e33335ba", "type": "electric_scooter", "fusion_lon": 0.0, "is_reserved": 0, "fusion_lat": 0.0, "lon": -77.03087416666666}, {"rental_uris": {"ios": "https://dc.lft.to/lastmile_qr_scan", "android": "https://dc.lft.to/lastmile_qr_scan"}, "lat": 38.922435666666665, "is_disabled": 0, "bike_id": "41ec0da6b2eac676b72052a6e3a041df", "name": "41ec0da6b2eac676b72052a6e3a041df", "type": "electric_scooter", "fusion_lon": 0.0, "is_reserved": 0, "fusion_lat": 0.0, "lon": -77.04399733333334}, {"rental_uris": {"ios": "https://dc.lft.to/lastmile_qr_scan", "android": "https://dc.lft.to/lastmile_qr_scan"}, "lat": 39.089061, "is_disabled": 0, "bike_id": "113798be08fc606ea5f5d87d7e5606f1", "name": "113798be08fc606ea5f5d87d7e5606f1", "type": "electric_bike", "fusion_lon": 0.0, "is_reserved": 0, "fusion_lat": 0.0, "lon": -77.17846066666667}, {"rental_uris": {"ios": "https://dc.lft.to/lastmile_qr_scan", "android": "https://dc.lft.to/lastmile_qr_scan"}, "lat": 39.054561, "is_disabled": 0, "bike_id": "6a014eb536eb9f78c26f31697089e363", "name": "6a014eb536eb9f78c26f31697089e363", "type": "electric_bike", "fusion_lon": 0.0, "is_reserved": 0, "fusion_lat": 0.0, "lon": -77.043102}, {"rental_uris": {"ios": "https://dc.lft.to/lastmile_qr_scan", "android": "https://dc.lft.to/lastmile_qr_scan"}, "lat": 38.930007833333335, "is_disabled": 0, "bike_id": "b77a041ff9f0a72cca0cf38388bba055", "name": "b77a041ff9f0a72cca0cf38388bba055", "type": "electric_scooter", "fusion_lon": 0.0, "is_reserved": 0, "fusion_lat": 0.0, "lon": -77.02357316666667}, {"rental_uris": {"ios": "https://dc.lft.to/lastmile_qr_scan", "android": "https://dc.lft.to/lastmile_qr_scan"}, "lat": 38.9356375, "is_disabled": 0, "bike_id": "a213d4d24182343e30e1fc4be719bf9d", "name": "a213d4d24182343e30e1fc4be719bf9d", "type": "electric_scooter", "fusion_lon": 0.0, "is_reserved": 0, "fusion_lat": 0.0, "lon": -77.08210066666666}, {"rental_uris": {"ios": "https://dc.lft.to/lastmile_qr_scan", "android": "https://dc.lft.to/lastmile_qr_scan"}, "lat": 38.900399, "is_disabled": 0, "bike_id": "0986ee33ce203fdaaa3b155449ecd993", "name": "0986ee33ce203fdaaa3b155449ecd993", "type": "electric_scooter", "fusion_lon": 0.0, "is_reserved": 0, "fusion_lat": 0.0, "lon": -77.0122635}, {"rental_uris": {"ios": "https://dc.lft.to/lastmile_qr_scan", "android": "https://dc.lft.to/lastmile_qr_scan"}, "lat": 38.9499815, "is_disabled": 0, "bike_id": "e9832412115751c280a24b62e72b46df", "name": "e9832412115751c280a24b62e72b46df", "type": "electric_scooter", "fusion_lon": 0.0, "is_reserved": 0, "fusion_lat": 0.0, "lon": -77.02707366666667}, {"rental_uris": {"ios": "https://dc.lft.to/lastmile_qr_scan", "android": "https://dc.lft.to/lastmile_qr_scan"}, "lat": 38.909834333333336, "is_disabled": 0, "bike_id": "179d196e69517242fddd6d5bf8fb4536", "name": "179d196e69517242fddd6d5bf8fb4536", "type": "electric_scooter", "fusion_lon": 0.0, "is_reserved": 0, "fusion_lat": 0.0, "lon": -77.0461105}, {"rental_uris": {"ios": "https://dc.lft.to/lastmile_qr_scan", "android": "https://dc.lft.to/lastmile_qr_scan"}, "lat": 38.92066466666667, "is_disabled": 0, "bike_id": "0fffa6cbfb03662bf541048fae2ec330", "name": "0fffa6cbfb03662bf541048fae2ec330", "type": "electric_scooter", "fusion_lon": 0.0, "is_reserved": 0, "fusion_lat": 0.0, "lon": -77.03818166666667}, {"rental_uris": {"ios": "https://dc.lft.to/lastmile_qr_scan", "android": "https://dc.lft.to/lastmile_qr_scan"}, "lat": 38.89228883333333, "is_disabled": 0, "bike_id": "73c6d3f13ad4c249f6286dc9d5666900", "name": "73c6d3f13ad4c249f6286dc9d5666900", "type": "electric_scooter", "fusion_lon": 0.0, "is_reserved": 0, "fusion_lat": 0.0, "lon": -77.02719}, {"rental_uris": {"ios": "https://dc.lft.to/lastmile_qr_scan", "android": "https://dc.lft.to/lastmile_qr_scan"}, "lat": 38.92409383333333, "is_disabled": 0, "bike_id": "c1a5971308b49b7386f3cbeb6214aac5", "name": "c1a5971308b49b7386f3cbeb6214aac5", "type": "electric_scooter", "fusion_lon": 0.0, "is_reserved": 0, "fusion_lat": 0.0, "lon": -77.04036533333333}, {"rental_uris": {"ios": "https://dc.lft.to/lastmile_qr_scan", "android": "https://dc.lft.to/lastmile_qr_scan"}, "lat": 38.93065283333333, "is_disabled": 0, "bike_id": "2d277e21ec2d0dfe17c364a0d7a76336", "name": "2d277e21ec2d0dfe17c364a0d7a76336", "type": "electric_scooter", "fusion_lon": 0.0, "is_reserved": 0, "fusion_lat": 0.0, "lon": -77.02803683333333}, {"rental_uris": {"ios": "https://dc.lft.to/lastmile_qr_scan", "android": "https://dc.lft.to/lastmile_qr_scan"}, "lat": 38.89079533333334, "is_disabled": 0, "bike_id": "3f1dc88afce5da4e8cac2caa6f216399", "name": "3f1dc88afce5da4e8cac2caa6f216399", "type": "electric_scooter", "fusion_lon": 0.0, "is_reserved": 0, "fusion_lat": 0.0, "lon": -76.91920666666667}, {"rental_uris": {"ios": "https://dc.lft.to/lastmile_qr_scan", "android": "https://dc.lft.to/lastmile_qr_scan"}, "lat": 38.903885333333335, "is_disabled": 0, "bike_id": "ae0f9694a9f34f83ff5fd0ffed144206", "name": "ae0f9694a9f34f83ff5fd0ffed144206", "type": "electric_scooter", "fusion_lon": 0.0, "is_reserved": 0, "fusion_lat": 0.0, "lon": -77.0489025}, {"rental_uris": {"ios": "https://dc.lft.to/lastmile_qr_scan", "android": "https://dc.lft.to/lastmile_qr_scan"}, "lat": 38.89895083333333, "is_disabled": 0, "bike_id": "5341df94032dcd6fce31cb65f0cbcf49", "name": "5341df94032dcd6fce31cb65f0cbcf49", "type": "electric_scooter", "fusion_lon": 0.0, "is_reserved": 0, "fusion_lat": 0.0, "lon": -76.99660483333334}, {"rental_uris": {"ios": "https://dc.lft.to/lastmile_qr_scan", "android": "https://dc.lft.to/lastmile_qr_scan"}, "lat": 38.90066433333333, "is_disabled": 0, "bike_id": "b9674e39bc8935de281bd5bb760a3e9c", "name": "b9674e39bc8935de281bd5bb760a3e9c", "type": "electric_scooter", "fusion_lon": 0.0, "is_reserved": 0, "fusion_lat": 0.0, "lon": -77.0482975}, {"rental_uris": {"ios": "https://dc.lft.to/lastmile_qr_scan", "android": "https://dc.lft.to/lastmile_qr_scan"}, "lat": 38.9178765, "is_disabled": 0, "bike_id": "8b2682e22c96e84d1aa765098a01a21a", "name": "8b2682e22c96e84d1aa765098a01a21a", "type": "electric_scooter", "fusion_lon": 0.0, "is_reserved": 0, "fusion_lat": 0.0, "lon": -77.04554416666667}, {"rental_uris": {"ios": "https://dc.lft.to/lastmile_qr_scan", "android": "https://dc.lft.to/lastmile_qr_scan"}, "lat": 38.919167, "is_disabled": 0, "bike_id": "60f138737befb84b2d01138aa3b5d069", "name": "60f138737befb84b2d01138aa3b5d069", "type": "electric_scooter", "fusion_lon": 0.0, "is_reserved": 0, "fusion_lat": 0.0, "lon": -77.03121283333333}, {"rental_uris": {"ios": "https://dc.lft.to/lastmile_qr_scan", "android": "https://dc.lft.to/lastmile_qr_scan"}, "lat": 38.896952666666664, "is_disabled": 0, "bike_id": "a8c0b6b639de046dec3821a68147586f", "name": "a8c0b6b639de046dec3821a68147586f", "type": "electric_bike", "fusion_lon": 0.0, "is_reserved": 0, "fusion_lat": 0.0, "lon": -77.0885355}, {"rental_uris": {"ios": "https://dc.lft.to/lastmile_qr_scan", "android": "https://dc.lft.to/lastmile_qr_scan"}, "lat": 38.89804783333334, "is_disabled": 0, "bike_id": "469f21209d626bb644728d920fad3092", "name": "469f21209d626bb644728d920fad3092", "type": "electric_bike", "fusion_lon": 0.0, "is_reserved": 0, "fusion_lat": 0.0, "lon": -77.00593483333333}, {"rental_uris": {"ios": "https://dc.lft.to/lastmile_qr_scan", "android": "https://dc.lft.to/lastmile_qr_scan"}, "lat": 38.877035, "is_disabled": 0, "bike_id": "f7109946d6b4c4ccf3613905ff8afed4", "name": "f7109946d6b4c4ccf3613905ff8afed4", "type": "electric_scooter", "fusion_lon": 0.0, "is_reserved": 0, "fusion_lat": 0.0, "lon": -77.01661433333334}, {"rental_uris": {"ios": "https://dc.lft.to/lastmile_qr_scan", "android": "https://dc.lft.to/lastmile_qr_scan"}, "lat": 38.87660066666667, "is_disabled": 0, "bike_id": "d12d14676e6297480e70fad08e6f4800", "name": "d12d14676e6297480e70fad08e6f4800", "type": "electric_scooter", "fusion_lon": 0.0, "is_reserved": 0, "fusion_lat": 0.0, "lon": -77.01955266666667}, {"rental_uris": {"ios": "https://dc.lft.to/lastmile_qr_scan", "android": "https://dc.lft.to/lastmile_qr_scan"}, "lat": 38.9039375, "is_disabled": 0, "bike_id": "9ffa9b39a0e00769053e896cf1062bf0", "name": "9ffa9b39a0e00769053e896cf1062bf0", "type": "electric_scooter", "fusion_lon": 0.0, "is_reserved": 0, "fusion_lat": 0.0, "lon": -77.033684}, {"rental_uris": {"ios": "https://dc.lft.to/lastmile_qr_scan", "android": "https://dc.lft.to/lastmile_qr_scan"}, "lat": 38.900738833333335, "is_disabled": 0, "bike_id": "52e4e4fb81fa0c3952f70d1fa8a97129", "name": "52e4e4fb81fa0c3952f70d1fa8a97129", "type": "electric_scooter", "fusion_lon": 0.0, "is_reserved": 0, "fusion_lat": 0.0, "lon": -77.002056}, {"rental_uris": {"ios": "https://dc.lft.to/lastmile_qr_scan", "android": "https://dc.lft.to/lastmile_qr_scan"}, "lat": 38.95194883333333, "is_disabled": 0, "bike_id": "c6f166aa0a09e0984dce97a5fe8835e8", "name": "c6f166aa0a09e0984dce97a5fe8835e8", "type": "electric_scooter", "fusion_lon": 0.0, "is_reserved": 0, "fusion_lat": 0.0, "lon": -77.0279305}, {"rental_uris": {"ios": "https://dc.lft.to/lastmile_qr_scan", "android": "https://dc.lft.to/lastmile_qr_scan"}, "lat": 38.93858816666667, "is_disabled": 0, "bike_id": "d322feba28da06cb9d7c772ab3080fdf", "name": "d322feba28da06cb9d7c772ab3080fdf", "type": "electric_scooter", "fusion_lon": 0.0, "is_reserved": 0, "fusion_lat": 0.0, "lon": -77.0247485}, {"rental_uris": {"ios": "https://dc.lft.to/lastmile_qr_scan", "android": "https://dc.lft.to/lastmile_qr_scan"}, "lat": 38.906248166666664, "is_disabled": 0, "bike_id": "6002858e50bd9b33db9d4514fc8e429e", "name": "6002858e50bd9b33db9d4514fc8e429e", "type": "electric_scooter", "fusion_lon": 0.0, "is_reserved": 0, "fusion_lat": 0.0, "lon": -77.03439466666667}, {"rental_uris": {"ios": "https://dc.lft.to/lastmile_qr_scan", "android": "https://dc.lft.to/lastmile_qr_scan"}, "lat": 38.9067165, "is_disabled": 0, "bike_id": "3556bd9731779dc9290e1e8244f711a9", "name": "3556bd9731779dc9290e1e8244f711a9", "type": "electric_bike", "fusion_lon": 0.0, "is_reserved": 0, "fusion_lat": 0.0, "lon": -77.04164233333333}, {"rental_uris": {"ios": "https://dc.lft.to/lastmile_qr_scan", "android": "https://dc.lft.to/lastmile_qr_scan"}, "lat": 38.91151333333333, "is_disabled": 0, "bike_id": "e2b962a6d3af24509f8654415e549cf1", "name": "e2b962a6d3af24509f8654415e549cf1", "type": "electric_scooter", "fusion_lon": 0.0, "is_reserved": 0, "fusion_lat": 0.0, "lon": -77.04829433333333}, {"rental_uris": {"ios": "https://dc.lft.to/lastmile_qr_scan", "android": "https://dc.lft.to/lastmile_qr_scan"}, "lat": 38.90711366666667, "is_disabled": 0, "bike_id": "fec79bdc7a0ca77bad4fcb52921ecb94", "name": "fec79bdc7a0ca77bad4fcb52921ecb94", "type": "electric_scooter", "fusion_lon": 0.0, "is_reserved": 0, "fusion_lat": 0.0, "lon": -76.98695666666667}, {"rental_uris": {"ios": "https://dc.lft.to/lastmile_qr_scan", "android": "https://dc.lft.to/lastmile_qr_scan"}, "lat": 38.887439, "is_disabled": 0, "bike_id": "08249e6b7869e27f68893b4ce0f7dd7a", "name": "08249e6b7869e27f68893b4ce0f7dd7a", "type": "electric_scooter", "fusion_lon": 0.0, "is_reserved": 0, "fusion_lat": 0.0, "lon": -77.02829383333334}, {"rental_uris": {"ios": "https://dc.lft.to/lastmile_qr_scan", "android": "https://dc.lft.to/lastmile_qr_scan"}, "lat": 38.93556683333333, "is_disabled": 0, "bike_id": "c3fac60d2d0e7b727a4e190d7053fdc7", "name": "c3fac60d2d0e7b727a4e190d7053fdc7", "type": "electric_scooter", "fusion_lon": 0.0, "is_reserved": 0, "fusion_lat": 0.0, "lon": -77.03464}, {"rental_uris": {"ios": "https://dc.lft.to/lastmile_qr_scan", "android": "https://dc.lft.to/lastmile_qr_scan"}, "lat": 38.8948375, "is_disabled": 0, "bike_id": "2eef664b60a8fe7b4b7a6379b8f3b5fa", "name": "2eef664b60a8fe7b4b7a6379b8f3b5fa", "type": "electric_scooter", "fusion_lon": 0.0, "is_reserved": 0, "fusion_lat": 0.0, "lon": -77.04540933333334}, {"rental_uris": {"ios": "https://dc.lft.to/lastmile_qr_scan", "android": "https://dc.lft.to/lastmile_qr_scan"}, "lat": 38.937427666666665, "is_disabled": 0, "bike_id": "31282f48c972cf278df94082638437da", "name": "31282f48c972cf278df94082638437da", "type": "electric_scooter", "fusion_lon": 0.0, "is_reserved": 0, "fusion_lat": 0.0, "lon": -77.034978}, {"rental_uris": {"ios": "https://dc.lft.to/lastmile_qr_scan", "android": "https://dc.lft.to/lastmile_qr_scan"}, "lat": 38.9203475, "is_disabled": 0, "bike_id": "00c044343f7781e9413c3381272dc4bb", "name": "00c044343f7781e9413c3381272dc4bb", "type": "electric_scooter", "fusion_lon": 0.0, "is_reserved": 0, "fusion_lat": 0.0, "lon": -76.97023133333333}, {"rental_uris": {"ios": "https://dc.lft.to/lastmile_qr_scan", "android": "https://dc.lft.to/lastmile_qr_scan"}, "lat": 38.89646583333333, "is_disabled": 0, "bike_id": "a53bd77e22d3333c754277f227ede314", "name": "a53bd77e22d3333c754277f227ede314", "type": "electric_bike", "fusion_lon": 0.0, "is_reserved": 0, "fusion_lat": 0.0, "lon": -76.9478855}, {"rental_uris": {"ios": "https://dc.lft.to/lastmile_qr_scan", "android": "https://dc.lft.to/lastmile_qr_scan"}, "lat": 38.84292116666667, "is_disabled": 0, "bike_id": "dcf5980e706257701b57d46eb7ddebe0", "name": "dcf5980e706257701b57d46eb7ddebe0", "type": "electric_scooter", "fusion_lon": 0.0, "is_reserved": 0, "fusion_lat": 0.0, "lon": -76.99079583333334}, {"rental_uris": {"ios": "https://dc.lft.to/lastmile_qr_scan", "android": "https://dc.lft.to/lastmile_qr_scan"}, "lat": 38.89817033333333, "is_disabled": 0, "bike_id": "80644bb1ec0ab9e0b526c8dc13d3129a", "name": "80644bb1ec0ab9e0b526c8dc13d3129a", "type": "electric_scooter", "fusion_lon": 0.0, "is_reserved": 0, "fusion_lat": 0.0, "lon": -77.03333066666667}, {"rental_uris": {"ios": "https://dc.lft.to/lastmile_qr_scan", "android": "https://dc.lft.to/lastmile_qr_scan"}, "lat": 38.89246383333333, "is_disabled": 0, "bike_id": "68c0f875a7eedfe2ada860d087e786ed", "name": "68c0f875a7eedfe2ada860d087e786ed", "type": "electric_scooter", "fusion_lon": 0.0, "is_reserved": 0, "fusion_lat": 0.0, "lon": -77.03175116666667}, {"rental_uris": {"ios": "https://dc.lft.to/lastmile_qr_scan", "android": "https://dc.lft.to/lastmile_qr_scan"}, "lat": 38.903984, "is_disabled": 0, "bike_id": "8e7f8d5cff84fc80ee1a972df3935c5b", "name": "8e7f8d5cff84fc80ee1a972df3935c5b", "type": "electric_scooter", "fusion_lon": 0.0, "is_reserved": 0, "fusion_lat": 0.0, "lon": -77.0511335}, {"rental_uris": {"ios": "https://dc.lft.to/lastmile_qr_scan", "android": "https://dc.lft.to/lastmile_qr_scan"}, "lat": 38.939165333333335, "is_disabled": 0, "bike_id": "944acd4db11ff949363e549b232effe9", "name": "944acd4db11ff949363e549b232effe9", "type": "electric_scooter", "fusion_lon": 0.0, "is_reserved": 0, "fusion_lat": 0.0, "lon": -77.01901283333333}, {"rental_uris": {"ios": "https://dc.lft.to/lastmile_qr_scan", "android": "https://dc.lft.to/lastmile_qr_scan"}, "lat": 38.9025785, "is_disabled": 0, "bike_id": "22b1ccf3832e94e920f7e9bfa4a5a2f5", "name": "22b1ccf3832e94e920f7e9bfa4a5a2f5", "type": "electric_scooter", "fusion_lon": 0.0, "is_reserved": 0, "fusion_lat": 0.0, "lon": -77.00275033333334}, {"rental_uris": {"ios": "https://dc.lft.to/lastmile_qr_scan", "android": "https://dc.lft.to/lastmile_qr_scan"}, "lat": 38.9189325, "is_disabled": 0, "bike_id": "3a227e88233a969ba9947c94ea4bb73d", "name": "3a227e88233a969ba9947c94ea4bb73d", "type": "electric_scooter", "fusion_lon": 0.0, "is_reserved": 0, "fusion_lat": 0.0, "lon": -77.03769433333333}, {"rental_uris": {"ios": "https://dc.lft.to/lastmile_qr_scan", "android": "https://dc.lft.to/lastmile_qr_scan"}, "lat": 38.89608316666666, "is_disabled": 0, "bike_id": "620a6ded4db0522eae84a596e53323c8", "name": "620a6ded4db0522eae84a596e53323c8", "type": "electric_scooter", "fusion_lon": 0.0, "is_reserved": 0, "fusion_lat": 0.0, "lon": -77.04717783333334}, {"rental_uris": {"ios": "https://dc.lft.to/lastmile_qr_scan", "android": "https://dc.lft.to/lastmile_qr_scan"}, "lat": 38.89726, "is_disabled": 0, "bike_id": "3f918952093fdf9553971805a31ee7fd", "name": "3f918952093fdf9553971805a31ee7fd", "type": "electric_scooter", "fusion_lon": 0.0, "is_reserved": 0, "fusion_lat": 0.0, "lon": -77.02665716666667}, {"rental_uris": {"ios": "https://dc.lft.to/lastmile_qr_scan", "android": "https://dc.lft.to/lastmile_qr_scan"}, "lat": 38.90595966666667, "is_disabled": 0, "bike_id": "be3d285f65b091876b5f107a472da8f4", "name": "be3d285f65b091876b5f107a472da8f4", "type": "electric_scooter", "fusion_lon": 0.0, "is_reserved": 0, "fusion_lat": 0.0, "lon": -77.070114}, {"rental_uris": {"ios": "https://dc.lft.to/lastmile_qr_scan", "android": "https://dc.lft.to/lastmile_qr_scan"}, "lat": 38.88746833333333, "is_disabled": 0, "bike_id": "a496becd61b79b162e946ffd0dfb9868", "name": "a496becd61b79b162e946ffd0dfb9868", "type": "electric_scooter", "fusion_lon": 0.0, "is_reserved": 0, "fusion_lat": 0.0, "lon": -77.02170433333333}, {"rental_uris": {"ios": "https://dc.lft.to/lastmile_qr_scan", "android": "https://dc.lft.to/lastmile_qr_scan"}, "lat": 38.912657, "is_disabled": 0, "bike_id": "f06334734c02f0028dd51ea03fd73261", "name": "f06334734c02f0028dd51ea03fd73261", "type": "electric_scooter", "fusion_lon": 0.0, "is_reserved": 0, "fusion_lat": 0.0, "lon": -77.04446966666667}, {"rental_uris": {"ios": "https://dc.lft.to/lastmile_qr_scan", "android": "https://dc.lft.to/lastmile_qr_scan"}, "lat": 38.9037885, "is_disabled": 0, "bike_id": "64d7f470484cb4e3fbf98aefaedc8693", "name": "64d7f470484cb4e3fbf98aefaedc8693", "type": "electric_scooter", "fusion_lon": 0.0, "is_reserved": 0, "fusion_lat": 0.0, "lon": -77.03321916666667}, {"rental_uris": {"ios": "https://dc.lft.to/lastmile_qr_scan", "android": "https://dc.lft.to/lastmile_qr_scan"}, "lat": 38.9114145, "is_disabled": 0, "bike_id": "ad532489c158c22b2e14433a22abb7ad", "name": "ad532489c158c22b2e14433a22abb7ad", "type": "electric_scooter", "fusion_lon": 0.0, "is_reserved": 0, "fusion_lat": 0.0, "lon": -77.02805916666667}, {"rental_uris": {"ios": "https://dc.lft.to/lastmile_qr_scan", "android": "https://dc.lft.to/lastmile_qr_scan"}, "lat": 38.907433, "is_disabled": 0, "bike_id": "4c3beef9eda804650fbdfa52aca4f7e8", "name": "4c3beef9eda804650fbdfa52aca4f7e8", "type": "electric_scooter", "fusion_lon": 0.0, "is_reserved": 0, "fusion_lat": 0.0, "lon": -77.03853583333333}, {"rental_uris": {"ios": "https://dc.lft.to/lastmile_qr_scan", "android": "https://dc.lft.to/lastmile_qr_scan"}, "lat": 38.94204083333333, "is_disabled": 0, "bike_id": "cca90f4e4c54b5ce6d076d2f4a842465", "name": "cca90f4e4c54b5ce6d076d2f4a842465", "type": "electric_scooter", "fusion_lon": 0.0, "is_reserved": 0, "fusion_lat": 0.0, "lon": -77.02503583333333}, {"rental_uris": {"ios": "https://dc.lft.to/lastmile_qr_scan", "android": "https://dc.lft.to/lastmile_qr_scan"}, "lat": 38.903121166666665, "is_disabled": 0, "bike_id": "719e6fb31142ed3ee1dd4ee4b1c42752", "name": "719e6fb31142ed3ee1dd4ee4b1c42752", "type": "electric_scooter", "fusion_lon": 0.0, "is_reserved": 0, "fusion_lat": 0.0, "lon": -77.04332633333334}, {"rental_uris": {"ios": "https://dc.lft.to/lastmile_qr_scan", "android": "https://dc.lft.to/lastmile_qr_scan"}, "lat": 38.906333833333335, "is_disabled": 0, "bike_id": "9a9f8866697de483ebc14adfb001b245", "name": "9a9f8866697de483ebc14adfb001b245", "type": "electric_scooter", "fusion_lon": 0.0, "is_reserved": 0, "fusion_lat": 0.0, "lon": -77.0397975}, {"rental_uris": {"ios": "https://dc.lft.to/lastmile_qr_scan", "android": "https://dc.lft.to/lastmile_qr_scan"}, "lat": 38.850673, "is_disabled": 0, "bike_id": "3a2d25a96f778ad1c46156c94e243d10", "name": "3a2d25a96f778ad1c46156c94e243d10", "type": "electric_bike", "fusion_lon": 0.0, "is_reserved": 0, "fusion_lat": 0.0, "lon": -76.97329366666666}, {"rental_uris": {"ios": "https://dc.lft.to/lastmile_qr_scan", "android": "https://dc.lft.to/lastmile_qr_scan"}, "lat": 38.90343683333333, "is_disabled": 0, "bike_id": "8bf29605db4b12dcbafb26f7faa024f6", "name": "8bf29605db4b12dcbafb26f7faa024f6", "type": "electric_scooter", "fusion_lon": 0.0, "is_reserved": 0, "fusion_lat": 0.0, "lon": -77.043221}, {"rental_uris": {"ios": "https://dc.lft.to/lastmile_qr_scan", "android": "https://dc.lft.to/lastmile_qr_scan"}, "lat": 38.878566, "is_disabled": 0, "bike_id": "7b0bad1d84c74120732f989c58c5525f", "name": "7b0bad1d84c74120732f989c58c5525f", "type": "electric_scooter", "fusion_lon": 0.0, "is_reserved": 0, "fusion_lat": 0.0, "lon": -77.01936866666667}, {"rental_uris": {"ios": "https://dc.lft.to/lastmile_qr_scan", "android": "https://dc.lft.to/lastmile_qr_scan"}, "lat": 38.92654666666667, "is_disabled": 0, "bike_id": "2fe7ec0eb95d4524a9dc4e145b759e9d", "name": "2fe7ec0eb95d4524a9dc4e145b759e9d", "type": "electric_scooter", "fusion_lon": 0.0, "is_reserved": 0, "fusion_lat": 0.0, "lon": -77.02472516666667}, {"rental_uris": {"ios": "https://dc.lft.to/lastmile_qr_scan", "android": "https://dc.lft.to/lastmile_qr_scan"}, "lat": 38.89595216666667, "is_disabled": 0, "bike_id": "6060376f6b7f5a2cd0215825ab9388a2", "name": "6060376f6b7f5a2cd0215825ab9388a2", "type": "electric_scooter", "fusion_lon": 0.0, "is_reserved": 0, "fusion_lat": 0.0, "lon": -77.02134033333333}, {"rental_uris": {"ios": "https://dc.lft.to/lastmile_qr_scan", "android": "https://dc.lft.to/lastmile_qr_scan"}, "lat": 38.95258883333333, "is_disabled": 0, "bike_id": "0b820d257e9b61f6062f2d3cd1e0ab6e", "name": "0b820d257e9b61f6062f2d3cd1e0ab6e", "type": "electric_scooter", "fusion_lon": 0.0, "is_reserved": 0, "fusion_lat": 0.0, "lon": -77.00243816666666}, {"rental_uris": {"ios": "https://dc.lft.to/lastmile_qr_scan", "android": "https://dc.lft.to/lastmile_qr_scan"}, "lat": 38.91599716666666, "is_disabled": 0, "bike_id": "feb30e32ab1723028363c289dc11d358", "name": "feb30e32ab1723028363c289dc11d358", "type": "electric_scooter", "fusion_lon": 0.0, "is_reserved": 0, "fusion_lat": 0.0, "lon": -77.02700883333333}, {"rental_uris": {"ios": "https://dc.lft.to/lastmile_qr_scan", "android": "https://dc.lft.to/lastmile_qr_scan"}, "lat": 38.90565683333333, "is_disabled": 0, "bike_id": "7b6a9b489b7a5a294d1cc354e1c6a103", "name": "7b6a9b489b7a5a294d1cc354e1c6a103", "type": "electric_scooter", "fusion_lon": 0.0, "is_reserved": 0, "fusion_lat": 0.0, "lon": -77.02399616666666}, {"rental_uris": {"ios": "https://dc.lft.to/lastmile_qr_scan", "android": "https://dc.lft.to/lastmile_qr_scan"}, "lat": 38.90447283333334, "is_disabled": 0, "bike_id": "62dbb8e23283802681bf9b589a23581f", "name": "62dbb8e23283802681bf9b589a23581f", "type": "electric_scooter", "fusion_lon": 0.0, "is_reserved": 0, "fusion_lat": 0.0, "lon": -77.01993316666666}, {"rental_uris": {"ios": "https://dc.lft.to/lastmile_qr_scan", "android": "https://dc.lft.to/lastmile_qr_scan"}, "lat": 38.962098833333336, "is_disabled": 0, "bike_id": "5fac02aaf4d5f5cb528dbe2e76231db0", "name": "5fac02aaf4d5f5cb528dbe2e76231db0", "type": "electric_scooter", "fusion_lon": 0.0, "is_reserved": 0, "fusion_lat": 0.0, "lon": -77.02344316666667}, {"rental_uris": {"ios": "https://dc.lft.to/lastmile_qr_scan", "android": "https://dc.lft.to/lastmile_qr_scan"}, "lat": 38.91913, "is_disabled": 0, "bike_id": "e8f1519cc6861f06465f44b6ff8d3081", "name": "e8f1519cc6861f06465f44b6ff8d3081", "type": "electric_scooter", "fusion_lon": 0.0, "is_reserved": 0, "fusion_lat": 0.0, "lon": -77.07865516666666}, {"rental_uris": {"ios": "https://dc.lft.to/lastmile_qr_scan", "android": "https://dc.lft.to/lastmile_qr_scan"}, "lat": 38.93610066666667, "is_disabled": 0, "bike_id": "f76587d30e0f002eba3c2c039aec5cae", "name": "f76587d30e0f002eba3c2c039aec5cae", "type": "electric_scooter", "fusion_lon": 0.0, "is_reserved": 0, "fusion_lat": 0.0, "lon": -77.0372965}, {"rental_uris": {"ios": "https://dc.lft.to/lastmile_qr_scan", "android": "https://dc.lft.to/lastmile_qr_scan"}, "lat": 38.89967716666666, "is_disabled": 0, "bike_id": "2cf3d05d92fde37654f732e67c2e9de2", "name": "2cf3d05d92fde37654f732e67c2e9de2", "type": "electric_scooter", "fusion_lon": 0.0, "is_reserved": 0, "fusion_lat": 0.0, "lon": -77.02479566666666}, {"rental_uris": {"ios": "https://dc.lft.to/lastmile_qr_scan", "android": "https://dc.lft.to/lastmile_qr_scan"}, "lat": 38.92315883333333, "is_disabled": 0, "bike_id": "b319fbfbea42ab56d1d593ae6ed0c1fb", "name": "b319fbfbea42ab56d1d593ae6ed0c1fb", "type": "electric_scooter", "fusion_lon": 0.0, "is_reserved": 0, "fusion_lat": 0.0, "lon": -77.02967216666667}, {"rental_uris": {"ios": "https://dc.lft.to/lastmile_qr_scan", "android": "https://dc.lft.to/lastmile_qr_scan"}, "lat": 38.904128, "is_disabled": 0, "bike_id": "b64ec18d2e7232cd0e7f4f37ccfabb79", "name": "b64ec18d2e7232cd0e7f4f37ccfabb79", "type": "electric_scooter", "fusion_lon": 0.0, "is_reserved": 0, "fusion_lat": 0.0, "lon": -77.04341266666667}, {"rental_uris": {"ios": "https://dc.lft.to/lastmile_qr_scan", "android": "https://dc.lft.to/lastmile_qr_scan"}, "lat": 38.91295816666667, "is_disabled": 0, "bike_id": "b1854379c52a6192834e3cc0bd1bb1e8", "name": "b1854379c52a6192834e3cc0bd1bb1e8", "type": "electric_scooter", "fusion_lon": 0.0, "is_reserved": 0, "fusion_lat": 0.0, "lon": -77.00902783333333}, {"rental_uris": {"ios": "https://dc.lft.to/lastmile_qr_scan", "android": "https://dc.lft.to/lastmile_qr_scan"}, "lat": 38.90362533333333, "is_disabled": 0, "bike_id": "7a30c8ab4b9db1c1beae4739b6c6ea4f", "name": "7a30c8ab4b9db1c1beae4739b6c6ea4f", "type": "electric_scooter", "fusion_lon": 0.0, "is_reserved": 0, "fusion_lat": 0.0, "lon": -77.035278}, {"rental_uris": {"ios": "https://dc.lft.to/lastmile_qr_scan", "android": "https://dc.lft.to/lastmile_qr_scan"}, "lat": 38.91574083333333, "is_disabled": 0, "bike_id": "a6db44faa757449ca79c6f554fed6bd5", "name": "a6db44faa757449ca79c6f554fed6bd5", "type": "electric_scooter", "fusion_lon": 0.0, "is_reserved": 0, "fusion_lat": 0.0, "lon": -77.00590766666667}, {"rental_uris": {"ios": "https://dc.lft.to/lastmile_qr_scan", "android": "https://dc.lft.to/lastmile_qr_scan"}, "lat": 38.922240333333335, "is_disabled": 0, "bike_id": "33d856f917da9ecaf71cb29a71cf355a", "name": "33d856f917da9ecaf71cb29a71cf355a", "type": "electric_scooter", "fusion_lon": 0.0, "is_reserved": 0, "fusion_lat": 0.0, "lon": -77.043355}, {"rental_uris": {"ios": "https://dc.lft.to/lastmile_qr_scan", "android": "https://dc.lft.to/lastmile_qr_scan"}, "lat": 38.86238916666667, "is_disabled": 0, "bike_id": "dcbc3183f3025a6b1c2c0178c49be385", "name": "dcbc3183f3025a6b1c2c0178c49be385", "type": "electric_scooter", "fusion_lon": 0.0, "is_reserved": 0, "fusion_lat": 0.0, "lon": -76.99481883333333}, {"rental_uris": {"ios": "https://dc.lft.to/lastmile_qr_scan", "android": "https://dc.lft.to/lastmile_qr_scan"}, "lat": 38.890130166666665, "is_disabled": 0, "bike_id": "9d013870aa61459d8a10baca83862bee", "name": "9d013870aa61459d8a10baca83862bee", "type": "electric_scooter", "fusion_lon": 0.0, "is_reserved": 0, "fusion_lat": 0.0, "lon": -76.93837666666667}, {"rental_uris": {"ios": "https://dc.lft.to/lastmile_qr_scan", "android": "https://dc.lft.to/lastmile_qr_scan"}, "lat": 39.02423, "is_disabled": 0, "bike_id": "5a9038c75f81691396777d05f1c2d5aa", "name": "5a9038c75f81691396777d05f1c2d5aa", "type": "electric_bike", "fusion_lon": 0.0, "is_reserved": 0, "fusion_lat": 0.0, "lon": -77.125061}, {"rental_uris": {"ios": "https://dc.lft.to/lastmile_qr_scan", "android": "https://dc.lft.to/lastmile_qr_scan"}, "lat": 38.892218, "is_disabled": 0, "bike_id": "313a7db4dc898b541f67a25cc7a55a73", "name": "313a7db4dc898b541f67a25cc7a55a73", "type": "electric_scooter", "fusion_lon": 0.0, "is_reserved": 0, "fusion_lat": 0.0, "lon": -77.03224466666667}, {"rental_uris": {"ios": "https://dc.lft.to/lastmile_qr_scan", "android": "https://dc.lft.to/lastmile_qr_scan"}, "lat": 38.9126735, "is_disabled": 0, "bike_id": "f6567544c22f14a35582002dacb5deb1", "name": "f6567544c22f14a35582002dacb5deb1", "type": "electric_scooter", "fusion_lon": 0.0, "is_reserved": 0, "fusion_lat": 0.0, "lon": -77.03729916666667}, {"rental_uris": {"ios": "https://dc.lft.to/lastmile_qr_scan", "android": "https://dc.lft.to/lastmile_qr_scan"}, "lat": 38.923437666666665, "is_disabled": 0, "bike_id": "fac40542a72774330ad23f6c0226170b", "name": "fac40542a72774330ad23f6c0226170b", "type": "electric_scooter", "fusion_lon": 0.0, "is_reserved": 0, "fusion_lat": 0.0, "lon": -77.05116783333334}, {"rental_uris": {"ios": "https://dc.lft.to/lastmile_qr_scan", "android": "https://dc.lft.to/lastmile_qr_scan"}, "lat": 38.9024295, "is_disabled": 0, "bike_id": "f137a6cab7a20cf3ab75e73fd0a542c2", "name": "f137a6cab7a20cf3ab75e73fd0a542c2", "type": "electric_scooter", "fusion_lon": 0.0, "is_reserved": 0, "fusion_lat": 0.0, "lon": -77.00203916666666}, {"rental_uris": {"ios": "https://dc.lft.to/lastmile_qr_scan", "android": "https://dc.lft.to/lastmile_qr_scan"}, "lat": 38.903856, "is_disabled": 0, "bike_id": "42a2a99b1f59113fde6063571782503f", "name": "42a2a99b1f59113fde6063571782503f", "type": "electric_scooter", "fusion_lon": 0.0, "is_reserved": 0, "fusion_lat": 0.0, "lon": -77.02598583333334}, {"rental_uris": {"ios": "https://dc.lft.to/lastmile_qr_scan", "android": "https://dc.lft.to/lastmile_qr_scan"}, "lat": 38.93449616666667, "is_disabled": 0, "bike_id": "4ac1b394500977203d11269de283e45d", "name": "4ac1b394500977203d11269de283e45d", "type": "electric_scooter", "fusion_lon": 0.0, "is_reserved": 0, "fusion_lat": 0.0, "lon": -77.02721916666667}, {"rental_uris": {"ios": "https://dc.lft.to/lastmile_qr_scan", "android": "https://dc.lft.to/lastmile_qr_scan"}, "lat": 38.902447, "is_disabled": 0, "bike_id": "f1afa76ad181c7bec3b8a16129dee1ad", "name": "f1afa76ad181c7bec3b8a16129dee1ad", "type": "electric_scooter", "fusion_lon": 0.0, "is_reserved": 0, "fusion_lat": 0.0, "lon": -77.04475466666666}, {"rental_uris": {"ios": "https://dc.lft.to/lastmile_qr_scan", "android": "https://dc.lft.to/lastmile_qr_scan"}, "lat": 38.90541233333333, "is_disabled": 0, "bike_id": "ae505206f97ff6b11a09c9fcf1b0d08b", "name": "ae505206f97ff6b11a09c9fcf1b0d08b", "type": "electric_scooter", "fusion_lon": 0.0, "is_reserved": 0, "fusion_lat": 0.0, "lon": -77.03972816666666}, {"rental_uris": {"ios": "https://dc.lft.to/lastmile_qr_scan", "android": "https://dc.lft.to/lastmile_qr_scan"}, "lat": 38.86574983333333, "is_disabled": 0, "bike_id": "1ca9b42a904bd1a865d4f46dcfa593fa", "name": "1ca9b42a904bd1a865d4f46dcfa593fa", "type": "electric_scooter", "fusion_lon": 0.0, "is_reserved": 0, "fusion_lat": 0.0, "lon": -76.974168}, {"rental_uris": {"ios": "https://dc.lft.to/lastmile_qr_scan", "android": "https://dc.lft.to/lastmile_qr_scan"}, "lat": 38.89717616666667, "is_disabled": 0, "bike_id": "9db2f3abdcfa7adcb084fb1fdd4eecbe", "name": "9db2f3abdcfa7adcb084fb1fdd4eecbe", "type": "electric_scooter", "fusion_lon": 0.0, "is_reserved": 0, "fusion_lat": 0.0, "lon": -77.00454666666667}, {"rental_uris": {"ios": "https://dc.lft.to/lastmile_qr_scan", "android": "https://dc.lft.to/lastmile_qr_scan"}, "lat": 38.87307333333333, "is_disabled": 0, "bike_id": "dd080740a7f0450ce76c955f4e2d1aed", "name": "dd080740a7f0450ce76c955f4e2d1aed", "type": "electric_scooter", "fusion_lon": 0.0, "is_reserved": 0, "fusion_lat": 0.0, "lon": -77.01098216666666}, {"rental_uris": {"ios": "https://dc.lft.to/lastmile_qr_scan", "android": "https://dc.lft.to/lastmile_qr_scan"}, "lat": 38.9086545, "is_disabled": 0, "bike_id": "fdcbb8c9f94aa368efb43dfba1b71c22", "name": "fdcbb8c9f94aa368efb43dfba1b71c22", "type": "electric_scooter", "fusion_lon": 0.0, "is_reserved": 0, "fusion_lat": 0.0, "lon": -77.03295433333334}, {"rental_uris": {"ios": "https://dc.lft.to/lastmile_qr_scan", "android": "https://dc.lft.to/lastmile_qr_scan"}, "lat": 38.89953116666667, "is_disabled": 0, "bike_id": "ecc67f070be41638af22edd481b8b339", "name": "ecc67f070be41638af22edd481b8b339", "type": "electric_scooter", "fusion_lon": 0.0, "is_reserved": 0, "fusion_lat": 0.0, "lon": -76.985656}, {"rental_uris": {"ios": "https://dc.lft.to/lastmile_qr_scan", "android": "https://dc.lft.to/lastmile_qr_scan"}, "lat": 38.9054725, "is_disabled": 0, "bike_id": "a6f0262ff4622bb6c618eba33a46fdd3", "name": "a6f0262ff4622bb6c618eba33a46fdd3", "type": "electric_scooter", "fusion_lon": 0.0, "is_reserved": 0, "fusion_lat": 0.0, "lon": -77.02997466666666}, {"rental_uris": {"ios": "https://dc.lft.to/lastmile_qr_scan", "android": "https://dc.lft.to/lastmile_qr_scan"}, "lat": 38.93036416666666, "is_disabled": 0, "bike_id": "ee6824b684f8a7670cb3fb6d40f8b24e", "name": "ee6824b684f8a7670cb3fb6d40f8b24e", "type": "electric_scooter", "fusion_lon": 0.0, "is_reserved": 0, "fusion_lat": 0.0, "lon": -77.03309216666666}, {"rental_uris": {"ios": "https://dc.lft.to/lastmile_qr_scan", "android": "https://dc.lft.to/lastmile_qr_scan"}, "lat": 38.9106665, "is_disabled": 0, "bike_id": "04ad439c0436b81311aac6e74b5ac117", "name": "04ad439c0436b81311aac6e74b5ac117", "type": "electric_scooter", "fusion_lon": 0.0, "is_reserved": 0, "fusion_lat": 0.0, "lon": -77.04260766666667}, {"rental_uris": {"ios": "https://dc.lft.to/lastmile_qr_scan", "android": "https://dc.lft.to/lastmile_qr_scan"}, "lat": 38.902392, "is_disabled": 0, "bike_id": "c11914f331c50dc46e4aa6414d304b39", "name": "c11914f331c50dc46e4aa6414d304b39", "type": "electric_scooter", "fusion_lon": 0.0, "is_reserved": 0, "fusion_lat": 0.0, "lon": -77.04533666666667}, {"rental_uris": {"ios": "https://dc.lft.to/lastmile_qr_scan", "android": "https://dc.lft.to/lastmile_qr_scan"}, "lat": 38.96775016666667, "is_disabled": 0, "bike_id": "afbf0da6604235074cedb708e5504f8e", "name": "afbf0da6604235074cedb708e5504f8e", "type": "electric_bike", "fusion_lon": 0.0, "is_reserved": 0, "fusion_lat": 0.0, "lon": -77.09159833333334}, {"rental_uris": {"ios": "https://dc.lft.to/lastmile_qr_scan", "android": "https://dc.lft.to/lastmile_qr_scan"}, "lat": 38.91037, "is_disabled": 0, "bike_id": "a59b7fe6c4b2f72effccf7d11120c0eb", "name": "a59b7fe6c4b2f72effccf7d11120c0eb", "type": "electric_scooter", "fusion_lon": 0.0, "is_reserved": 0, "fusion_lat": 0.0, "lon": -77.03368933333333}, {"rental_uris": {"ios": "https://dc.lft.to/lastmile_qr_scan", "android": "https://dc.lft.to/lastmile_qr_scan"}, "lat": 38.91622016666667, "is_disabled": 0, "bike_id": "b3dd80f0adb49455ecfa648c00651acf", "name": "b3dd80f0adb49455ecfa648c00651acf", "type": "electric_bike", "fusion_lon": 0.0, "is_reserved": 0, "fusion_lat": 0.0, "lon": -77.032691}, {"rental_uris": {"ios": "https://dc.lft.to/lastmile_qr_scan", "android": "https://dc.lft.to/lastmile_qr_scan"}, "lat": 38.97377083333333, "is_disabled": 0, "bike_id": "8ae6a3e60dbe3403281b15fadba2fe27", "name": "8ae6a3e60dbe3403281b15fadba2fe27", "type": "electric_scooter", "fusion_lon": 0.0, "is_reserved": 0, "fusion_lat": 0.0, "lon": -77.03123316666667}, {"rental_uris": {"ios": "https://dc.lft.to/lastmile_qr_scan", "android": "https://dc.lft.to/lastmile_qr_scan"}, "lat": 38.89298433333333, "is_disabled": 0, "bike_id": "595d53fb7485c0e5452566575c53474c", "name": "595d53fb7485c0e5452566575c53474c", "type": "electric_scooter", "fusion_lon": 0.0, "is_reserved": 0, "fusion_lat": 0.0, "lon": -77.04658966666666}, {"rental_uris": {"ios": "https://dc.lft.to/lastmile_qr_scan", "android": "https://dc.lft.to/lastmile_qr_scan"}, "lat": 38.937605833333336, "is_disabled": 0, "bike_id": "4a98c99c125ea662392f8af37228f665", "name": "4a98c99c125ea662392f8af37228f665", "type": "electric_scooter", "fusion_lon": 0.0, "is_reserved": 0, "fusion_lat": 0.0, "lon": -77.03279516666667}, {"rental_uris": {"ios": "https://dc.lft.to/lastmile_qr_scan", "android": "https://dc.lft.to/lastmile_qr_scan"}, "lat": 38.91597016666667, "is_disabled": 0, "bike_id": "2d185cac2fbf74962a3ac6ea75327290", "name": "2d185cac2fbf74962a3ac6ea75327290", "type": "electric_scooter", "fusion_lon": 0.0, "is_reserved": 0, "fusion_lat": 0.0, "lon": -77.04528083333334}, {"rental_uris": {"ios": "https://dc.lft.to/lastmile_qr_scan", "android": "https://dc.lft.to/lastmile_qr_scan"}, "lat": 38.874396833333336, "is_disabled": 0, "bike_id": "7dbab9ac5b704bb9f14da5d222bc909e", "name": "7dbab9ac5b704bb9f14da5d222bc909e", "type": "electric_scooter", "fusion_lon": 0.0, "is_reserved": 0, "fusion_lat": 0.0, "lon": -77.04413316666667}, {"rental_uris": {"ios": "https://dc.lft.to/lastmile_qr_scan", "android": "https://dc.lft.to/lastmile_qr_scan"}, "lat": 38.911685166666665, "is_disabled": 0, "bike_id": "609535fb2d2e1a9d9e1a83cda4b65015", "name": "609535fb2d2e1a9d9e1a83cda4b65015", "type": "electric_scooter", "fusion_lon": 0.0, "is_reserved": 0, "fusion_lat": 0.0, "lon": -77.03855566666667}, {"rental_uris": {"ios": "https://dc.lft.to/lastmile_qr_scan", "android": "https://dc.lft.to/lastmile_qr_scan"}, "lat": 38.87711083333333, "is_disabled": 0, "bike_id": "86ebd282417633eb5f2d880249cb97a1", "name": "86ebd282417633eb5f2d880249cb97a1", "type": "electric_scooter", "fusion_lon": 0.0, "is_reserved": 0, "fusion_lat": 0.0, "lon": -77.01732816666667}, {"rental_uris": {"ios": "https://dc.lft.to/lastmile_qr_scan", "android": "https://dc.lft.to/lastmile_qr_scan"}, "lat": 38.91284983333333, "is_disabled": 0, "bike_id": "293b4e81e152c17801a77ad9cfb24b8d", "name": "293b4e81e152c17801a77ad9cfb24b8d", "type": "electric_scooter", "fusion_lon": 0.0, "is_reserved": 0, "fusion_lat": 0.0, "lon": -77.02280616666667}, {"rental_uris": {"ios": "https://dc.lft.to/lastmile_qr_scan", "android": "https://dc.lft.to/lastmile_qr_scan"}, "lat": 38.8553275, "is_disabled": 0, "bike_id": "dfd9938451275210c9ccff027745cc2c", "name": "dfd9938451275210c9ccff027745cc2c", "type": "electric_scooter", "fusion_lon": 0.0, "is_reserved": 0, "fusion_lat": 0.0, "lon": -76.96922016666667}, {"rental_uris": {"ios": "https://dc.lft.to/lastmile_qr_scan", "android": "https://dc.lft.to/lastmile_qr_scan"}, "lat": 38.8943845, "is_disabled": 0, "bike_id": "444f7192acfd42e92ba5b50bea93e6d6", "name": "444f7192acfd42e92ba5b50bea93e6d6", "type": "electric_scooter", "fusion_lon": 0.0, "is_reserved": 0, "fusion_lat": 0.0, "lon": -77.02099966666667}, {"rental_uris": {"ios": "https://dc.lft.to/lastmile_qr_scan", "android": "https://dc.lft.to/lastmile_qr_scan"}, "lat": 38.91358533333333, "is_disabled": 0, "bike_id": "cecaefad4674bfc259dcc368e9f2dfd8", "name": "cecaefad4674bfc259dcc368e9f2dfd8", "type": "electric_scooter", "fusion_lon": 0.0, "is_reserved": 0, "fusion_lat": 0.0, "lon": -77.02217483333334}, {"rental_uris": {"ios": "https://dc.lft.to/lastmile_qr_scan", "android": "https://dc.lft.to/lastmile_qr_scan"}, "lat": 38.90445833333333, "is_disabled": 0, "bike_id": "aec52fcf4f1ba61c37a6e48b21134753", "name": "aec52fcf4f1ba61c37a6e48b21134753", "type": "electric_scooter", "fusion_lon": 0.0, "is_reserved": 0, "fusion_lat": 0.0, "lon": -77.039534}, {"rental_uris": {"ios": "https://dc.lft.to/lastmile_qr_scan", "android": "https://dc.lft.to/lastmile_qr_scan"}, "lat": 38.9049775, "is_disabled": 0, "bike_id": "105835e0226cdfebd896f433042f8fcc", "name": "105835e0226cdfebd896f433042f8fcc", "type": "electric_scooter", "fusion_lon": 0.0, "is_reserved": 0, "fusion_lat": 0.0, "lon": -77.046626}, {"rental_uris": {"ios": "https://dc.lft.to/lastmile_qr_scan", "android": "https://dc.lft.to/lastmile_qr_scan"}, "lat": 38.895636, "is_disabled": 0, "bike_id": "bffcd3a7c20ce1590e297ca1825c9ad2", "name": "bffcd3a7c20ce1590e297ca1825c9ad2", "type": "electric_scooter", "fusion_lon": 0.0, "is_reserved": 0, "fusion_lat": 0.0, "lon": -77.0089915}, {"rental_uris": {"ios": "https://dc.lft.to/lastmile_qr_scan", "android": "https://dc.lft.to/lastmile_qr_scan"}, "lat": 38.922587, "is_disabled": 0, "bike_id": "cd4a0279e1e2830c731240148f5f40b0", "name": "cd4a0279e1e2830c731240148f5f40b0", "type": "electric_scooter", "fusion_lon": 0.0, "is_reserved": 0, "fusion_lat": 0.0, "lon": -77.03217083333334}, {"rental_uris": {"ios": "https://dc.lft.to/lastmile_qr_scan", "android": "https://dc.lft.to/lastmile_qr_scan"}, "lat": 38.9339975, "is_disabled": 0, "bike_id": "dce127ca9fe98e4391850c8870bd15df", "name": "dce127ca9fe98e4391850c8870bd15df", "type": "electric_scooter", "fusion_lon": 0.0, "is_reserved": 0, "fusion_lat": 0.0, "lon": -77.027317}, {"rental_uris": {"ios": "https://dc.lft.to/lastmile_qr_scan", "android": "https://dc.lft.to/lastmile_qr_scan"}, "lat": 38.92593083333333, "is_disabled": 0, "bike_id": "a33478d6f1f21622eb276baf9bb2e4a2", "name": "a33478d6f1f21622eb276baf9bb2e4a2", "type": "electric_scooter", "fusion_lon": 0.0, "is_reserved": 0, "fusion_lat": 0.0, "lon": -77.03987583333333}, {"rental_uris": {"ios": "https://dc.lft.to/lastmile_qr_scan", "android": "https://dc.lft.to/lastmile_qr_scan"}, "lat": 38.95643233333333, "is_disabled": 0, "bike_id": "62a6eb1352efaa172aac4145735d6cff", "name": "62a6eb1352efaa172aac4145735d6cff", "type": "electric_scooter", "fusion_lon": 0.0, "is_reserved": 0, "fusion_lat": 0.0, "lon": -77.03627583333333}, {"rental_uris": {"ios": "https://dc.lft.to/lastmile_qr_scan", "android": "https://dc.lft.to/lastmile_qr_scan"}, "lat": 38.934012, "is_disabled": 0, "bike_id": "9a918ca1837f40fffe0a4c1c53366a57", "name": "9a918ca1837f40fffe0a4c1c53366a57", "type": "electric_scooter", "fusion_lon": 0.0, "is_reserved": 0, "fusion_lat": 0.0, "lon": -76.98028283333333}, {"rental_uris": {"ios": "https://dc.lft.to/lastmile_qr_scan", "android": "https://dc.lft.to/lastmile_qr_scan"}, "lat": 38.917199333333336, "is_disabled": 0, "bike_id": "00eb025a0b370a60260e3141006408ef", "name": "00eb025a0b370a60260e3141006408ef", "type": "electric_scooter", "fusion_lon": 0.0, "is_reserved": 0, "fusion_lat": 0.0, "lon": -77.0228785}, {"rental_uris": {"ios": "https://dc.lft.to/lastmile_qr_scan", "android": "https://dc.lft.to/lastmile_qr_scan"}, "lat": 38.90383666666666, "is_disabled": 0, "bike_id": "63ddeaf6ed09791f3909eb28f52500a9", "name": "63ddeaf6ed09791f3909eb28f52500a9", "type": "electric_scooter", "fusion_lon": 0.0, "is_reserved": 0, "fusion_lat": 0.0, "lon": -77.02827216666667}, {"rental_uris": {"ios": "https://dc.lft.to/lastmile_qr_scan", "android": "https://dc.lft.to/lastmile_qr_scan"}, "lat": 38.924071166666664, "is_disabled": 0, "bike_id": "9a191b2a478c05f8941b73e274fcec87", "name": "9a191b2a478c05f8941b73e274fcec87", "type": "electric_scooter", "fusion_lon": 0.0, "is_reserved": 0, "fusion_lat": 0.0, "lon": -77.05635183333334}, {"rental_uris": {"ios": "https://dc.lft.to/lastmile_qr_scan", "android": "https://dc.lft.to/lastmile_qr_scan"}, "lat": 38.917152, "is_disabled": 0, "bike_id": "cd0e9a05d52bbf18906cab69fce3813c", "name": "cd0e9a05d52bbf18906cab69fce3813c", "type": "electric_scooter", "fusion_lon": 0.0, "is_reserved": 0, "fusion_lat": 0.0, "lon": -77.09206783333333}, {"rental_uris": {"ios": "https://dc.lft.to/lastmile_qr_scan", "android": "https://dc.lft.to/lastmile_qr_scan"}, "lat": 38.95642733333333, "is_disabled": 0, "bike_id": "cb67fb58eab7b4b7095bbe03858b7779", "name": "cb67fb58eab7b4b7095bbe03858b7779", "type": "electric_scooter", "fusion_lon": 0.0, "is_reserved": 0, "fusion_lat": 0.0, "lon": -77.03295966666667}, {"rental_uris": {"ios": "https://dc.lft.to/lastmile_qr_scan", "android": "https://dc.lft.to/lastmile_qr_scan"}, "lat": 38.90308683333333, "is_disabled": 0, "bike_id": "4e2f8bd75e222fed9b4c6ffaaaf15fdc", "name": "4e2f8bd75e222fed9b4c6ffaaaf15fdc", "type": "electric_scooter", "fusion_lon": 0.0, "is_reserved": 0, "fusion_lat": 0.0, "lon": -77.0342305}, {"rental_uris": {"ios": "https://dc.lft.to/lastmile_qr_scan", "android": "https://dc.lft.to/lastmile_qr_scan"}, "lat": 38.975781, "is_disabled": 0, "bike_id": "c740c687543f840c8fb6d61e78c66202", "name": "c740c687543f840c8fb6d61e78c66202", "type": "electric_bike", "fusion_lon": 0.0, "is_reserved": 0, "fusion_lat": 0.0, "lon": -76.9639135}, {"rental_uris": {"ios": "https://dc.lft.to/lastmile_qr_scan", "android": "https://dc.lft.to/lastmile_qr_scan"}, "lat": 38.92000516666667, "is_disabled": 0, "bike_id": "e2d4a923180f271c6219e1bbd51c4102", "name": "e2d4a923180f271c6219e1bbd51c4102", "type": "electric_bike", "fusion_lon": 0.0, "is_reserved": 0, "fusion_lat": 0.0, "lon": -76.9852685}, {"rental_uris": {"ios": "https://dc.lft.to/lastmile_qr_scan", "android": "https://dc.lft.to/lastmile_qr_scan"}, "lat": 38.862671166666665, "is_disabled": 0, "bike_id": "a09d9818e4696c2e88c5560bfd014529", "name": "a09d9818e4696c2e88c5560bfd014529", "type": "electric_bike", "fusion_lon": 0.0, "is_reserved": 0, "fusion_lat": 0.0, "lon": -76.99469533333334}, {"rental_uris": {"ios": "https://dc.lft.to/lastmile_qr_scan", "android": "https://dc.lft.to/lastmile_qr_scan"}, "lat": 38.92639, "is_disabled": 0, "bike_id": "690f31abd7caafccff81e7726adc3a27", "name": "690f31abd7caafccff81e7726adc3a27", "type": "electric_scooter", "fusion_lon": 0.0, "is_reserved": 0, "fusion_lat": 0.0, "lon": -77.03787883333334}, {"rental_uris": {"ios": "https://dc.lft.to/lastmile_qr_scan", "android": "https://dc.lft.to/lastmile_qr_scan"}, "lat": 38.899716833333336, "is_disabled": 0, "bike_id": "33c68e4a2aa55b3045fa159c4d3ab18c", "name": "33c68e4a2aa55b3045fa159c4d3ab18c", "type": "electric_scooter", "fusion_lon": 0.0, "is_reserved": 0, "fusion_lat": 0.0, "lon": -77.047869}, {"rental_uris": {"ios": "https://dc.lft.to/lastmile_qr_scan", "android": "https://dc.lft.to/lastmile_qr_scan"}, "lat": 38.99224183333333, "is_disabled": 0, "bike_id": "13fa94bffec05448e93ba6e68dc7216b", "name": "13fa94bffec05448e93ba6e68dc7216b", "type": "electric_bike", "fusion_lon": 0.0, "is_reserved": 0, "fusion_lat": 0.0, "lon": -76.87778133333333},