{"data": {"bikes": [{"lat": 38.89221233333333, "is_reserved": 0, "lon": -77.04650633333334, "fusion_lon": 0.0, "fusion_lat": 0.0, "is_disabled": 0, "type": "electric_scooter", "bike_id": "cb535b19a19c64f9a39252c7fbfc1b04", "rental_uris": {"android": "https://dc.lft.to/lastmile_qr_scan", "ios": "https://dc.lft.to/lastmile_qr_scan"}, "name": "cb535b19a19c64f9a39252c7fbfc1b04"}, {"lat": 38.908799333333334, "is_reserved": 0, "lon": -77.023086, "fusion_lon": 0.0, "fusion_lat": 0.0, "is_disabled": 0, "type": "electric_scooter", "bike_id": "ba2c60c53fb7a86b32edc8ec24e84602", "rental_uris": {"android": "https://dc.lft.to/lastmile_qr_scan", "ios": "https://dc.lft.to/lastmile_qr_scan"}, "name": "ba2c60c53fb7a86b32edc8ec24e84602"}, {"lat": 38.914136, "is_reserved": 0, "lon": -77.0258555, "fusion_lon": 0.0, "fusion_lat": 0.0, "is_disabled": 0, "type": "electric_scooter", "bike_id": "c6df40aea4ed78d5c8d1b1a121ee002e", "rental_uris": {"android": "https://dc.lft.to/lastmile_qr_scan", "ios": "https://dc.lft.to/lastmile_qr_scan"}, "name": "c6df40aea4ed78d5c8d1b1a121ee002e"}, {"lat": 38.89587383333333, "is_reserved": 0, "lon": -77.03954716666667, "fusion_lon": 0.0, "fusion_lat": 0.0, "is_disabled": 0, "type": "electric_scooter", "bike_id": "682b990c2f2bbb050b82c3c5c1b99774", "rental_uris": {"android": "https://dc.lft.to/lastmile_qr_scan", "ios": "https://dc.lft.to/lastmile_qr_scan"}, "name": "682b990c2f2bbb050b82c3c5c1b99774"}, {"lat": 38.917271666666664, "is_reserved": 0, "lon": -77.03460283333334, "fusion_lon": 0.0, "fusion_lat": 0.0, "is_disabled": 0, "type": "electric_scooter", "bike_id": "b192150f63b80566d8770370d924215e", "rental_uris": {"android": "https://dc.lft.to/lastmile_qr_scan", "ios": "https://dc.lft.to/lastmile_qr_scan"}, "name": "b192150f63b80566d8770370d924215e"}, {"lat": 38.89612783333333, "is_reserved": 0, "lon": -76.9073755, "fusion_lon": 0.0, "fusion_lat": 0.0, "is_disabled": 0, "type": "electric_bike", "bike_id": "4f13034f7ffe2c244ea4a78a09293231", "rental_uris": {"android": "https://dc.lft.to/lastmile_qr_scan", "ios": "https://dc.lft.to/lastmile_qr_scan"}, "name": "4f13034f7ffe2c244ea4a78a09293231"}, {"lat": 38.8998035, "is_reserved": 0, "lon": -77.02213683333333, "fusion_lon": 0.0, "fusion_lat": 0.0, "is_disabled": 0, "type": "electric_scooter", "bike_id": "39cfd43913d38fd3898194c0ccdb98c4", "rental_uris": {"android": "https://dc.lft.to/lastmile_qr_scan", "ios": "https://dc.lft.to/lastmile_qr_scan"}, "name": "39cfd43913d38fd3898194c0ccdb98c4"}, {"lat": 38.93575233333333, "is_reserved": 0, "lon": -77.0196905, "fusion_lon": 0.0, "fusion_lat": 0.0, "is_disabled": 0, "type": "electric_scooter", "bike_id": "00ef3e25a3e28c4e56c89f4c66bde00b", "rental_uris": {"android": "https://dc.lft.to/lastmile_qr_scan", "ios": "https://dc.lft.to/lastmile_qr_scan"}, "name": "00ef3e25a3e28c4e56c89f4c66bde00b"}, {"lat": 38.90689, "is_reserved": 0, "lon": -77.03589833333334, "fusion_lon": 0.0, "fusion_lat": 0.0, "is_disabled": 0, "type": "electric_scooter", "bike_id": "d2ec9fb4773db4d92ff978969f2ce783", "rental_uris": {"android": "https://dc.lft.to/lastmile_qr_scan", "ios": "https://dc.lft.to/lastmile_qr_scan"}, "name": "d2ec9fb4773db4d92ff978969f2ce783"}, {"lat": 38.89745683333334, "is_reserved": 0, "lon": -77.03159533333333, "fusion_lon": 0.0, "fusion_lat": 0.0, "is_disabled": 0, "type": "electric_scooter", "bike_id": "18a61cd7eddfcae14ba42de9a3c5c204", "rental_uris": {"android": "https://dc.lft.to/lastmile_qr_scan", "ios": "https://dc.lft.to/lastmile_qr_scan"}, "name": "18a61cd7eddfcae14ba42de9a3c5c204"}, {"lat": 38.91372283333333, "is_reserved": 0, "lon": -77.04132, "fusion_lon": 0.0, "fusion_lat": 0.0, "is_disabled": 0, "type": "electric_scooter", "bike_id": "e852ef05f0ca6e3d0b5138e09b250983", "rental_uris": {"android": "https://dc.lft.to/lastmile_qr_scan", "ios": "https://dc.lft.to/lastmile_qr_scan"}, "name": "e852ef05f0ca6e3d0b5138e09b250983"}, {"lat": 38.900708, "is_reserved": 0, "lon": -77.04691066666666, "fusion_lon": 0.0, "fusion_lat": 0.0, "is_disabled": 0, "type": "electric_scooter", "bike_id": "cb3a0597d37691714695fcb497320e83", "rental_uris": {"android": "https://dc.lft.to/lastmile_qr_scan", "ios": "https://dc.lft.to/lastmile_qr_scan"}, "name": "cb3a0597d37691714695fcb497320e83"}, {"lat": 38.932360833333334, "is_reserved": 0, "lon": -76.97423966666666, "fusion_lon": 0.0, "fusion_lat": 0.0, "is_disabled": 0, "type": "electric_bike", "bike_id": "d74adebc95a478721a6ea55a8a2f1eb4", "rental_uris": {"android": "https://dc.lft.to/lastmile_qr_scan", "ios": "https://dc.lft.to/lastmile_qr_scan"}, "name": "d74adebc95a478721a6ea55a8a2f1eb4"}, {"lat": 38.913820666666666, "is_reserved": 0, "lon": -77.01705416666667, "fusion_lon": 0.0, "fusion_lat": 0.0, "is_disabled": 0, "type": "electric_scooter", "bike_id": "2a044ca9675bfb84aa25439f80a9333e", "rental_uris": {"android": "https://dc.lft.to/lastmile_qr_scan", "ios": "https://dc.lft.to/lastmile_qr_scan"}, "name": "2a044ca9675bfb84aa25439f80a9333e"}, {"lat": 38.915678166666666, "is_reserved": 0, "lon": -77.015883, "fusion_lon": 0.0, "fusion_lat": 0.0, "is_disabled": 0, "type": "electric_scooter", "bike_id": "3a4c95a8ac3332e34d3b6f9e15c09728", "rental_uris": {"android": "https://dc.lft.to/lastmile_qr_scan", "ios": "https://dc.lft.to/lastmile_qr_scan"}, "name": "3a4c95a8ac3332e34d3b6f9e15c09728"}, {"lat": 38.9002805, "is_reserved": 0, "lon": -76.98742016666667, "fusion_lon": 0.0, "fusion_lat": 0.0, "is_disabled": 0, "type": "electric_scooter", "bike_id": "eb3f789ee1122e0428818b6370794084", "rental_uris": {"android": "https://dc.lft.to/lastmile_qr_scan", "ios": "https://dc.lft.to/lastmile_qr_scan"}, "name": "eb3f789ee1122e0428818b6370794084"}, {"lat": 38.91286783333334, "is_reserved": 0, "lon": -77.02388733333333, "fusion_lon": 0.0, "fusion_lat": 0.0, "is_disabled": 0, "type": "electric_scooter", "bike_id": "89fa06fcb44d31f69361238f346786af", "rental_uris": {"android": "https://dc.lft.to/lastmile_qr_scan", "ios": "https://dc.lft.to/lastmile_qr_scan"}, "name": "89fa06fcb44d31f69361238f346786af"}, {"lat": 38.9038895, "is_reserved": 0, "lon": -77.04016866666667, "fusion_lon": 0.0, "fusion_lat": 0.0, "is_disabled": 0, "type": "electric_scooter", "bike_id": "4b051f0a52fbe49fe4fa202a497aa7cf", "rental_uris": {"android": "https://dc.lft.to/lastmile_qr_scan", "ios": "https://dc.lft.to/lastmile_qr_scan"}, "name": "4b051f0a52fbe49fe4fa202a497aa7cf"}, {"lat": 38.91834716666666, "is_reserved": 0, "lon": -77.032154, "fusion_lon": 0.0, "fusion_lat": 0.0, "is_disabled": 0, "type": "electric_scooter", "bike_id": "a5bd1ace36d71970d4fc1510f7c185d4", "rental_uris": {"android": "https://dc.lft.to/lastmile_qr_scan", "ios": "https://dc.lft.to/lastmile_qr_scan"}, "name": "a5bd1ace36d71970d4fc1510f7c185d4"}, {"lat": 38.89666066666667, "is_reserved": 0, "lon": -76.93208033333333, "fusion_lon": 0.0, "fusion_lat": 0.0, "is_disabled": 0, "type": "electric_scooter", "bike_id": "200b0bd110e21242e2c997710bd699f5", "rental_uris": {"android": "https://dc.lft.to/lastmile_qr_scan", "ios": "https://dc.lft.to/lastmile_qr_scan"}, "name": "200b0bd110e21242e2c997710bd699f5"}, {"lat": 38.91894883333333, "is_reserved": 0, "lon": -77.03644083333333, "fusion_lon": 0.0, "fusion_lat": 0.0, "is_disabled": 0, "type": "electric_scooter", "bike_id": "b600b6f875a7de1bf5d7391899dc236a", "rental_uris": {"android": "https://dc.lft.to/lastmile_qr_scan", "ios": "https://dc.lft.to/lastmile_qr_scan"}, "name": "b600b6f875a7de1bf5d7391899dc236a"}, {"lat": 38.905721, "is_reserved": 0, "lon": -77.04343483333334, "fusion_lon": 0.0, "fusion_lat": 0.0, "is_disabled": 0, "type": "electric_scooter", "bike_id": "9be433d39a7d1512f8cd5bba64da7cc7", "rental_uris": {"android": "https://dc.lft.to/lastmile_qr_scan", "ios": "https://dc.lft.to/lastmile_qr_scan"}, "name": "9be433d39a7d1512f8cd5bba64da7cc7"}, {"lat": 38.899906333333334, "is_reserved": 0, "lon": -77.0270605, "fusion_lon": 0.0, "fusion_lat": 0.0, "is_disabled": 0, "type": "electric_scooter", "bike_id": "68d6e363484107bf78f360734f2a385b", "rental_uris": {"android": "https://dc.lft.to/lastmile_qr_scan", "ios": "https://dc.lft.to/lastmile_qr_scan"}, "name": "68d6e363484107bf78f360734f2a385b"}, {"lat": 38.906382, "is_reserved": 0, "lon": -77.04162783333334, "fusion_lon": 0.0, "fusion_lat": 0.0, "is_disabled": 0, "type": "electric_scooter", "bike_id": "cb78764f555efb437d9c14ad5b8f255d", "rental_uris": {"android": "https://dc.lft.to/lastmile_qr_scan", "ios": "https://dc.lft.to/lastmile_qr_scan"}, "name": "cb78764f555efb437d9c14ad5b8f255d"}, {"lat": 38.901605833333335, "is_reserved": 0, "lon": -77.04738433333333, "fusion_lon": 0.0, "fusion_lat": 0.0, "is_disabled": 0, "type": "electric_scooter", "bike_id": "d38812889e4a802f19d4fe3429169890", "rental_uris": {"android": "https://dc.lft.to/lastmile_qr_scan", "ios": "https://dc.lft.to/lastmile_qr_scan"}, "name": "d38812889e4a802f19d4fe3429169890"}, {"lat": 38.900613166666666, "is_reserved": 0, "lon": -76.99632066666666, "fusion_lon": 0.0, "fusion_lat": 0.0, "is_disabled": 0, "type": "electric_scooter", "bike_id": "17d82cc590b23e2e32f43c6ae2bf7f56", "rental_uris": {"android": "https://dc.lft.to/lastmile_qr_scan", "ios": "https://dc.lft.to/lastmile_qr_scan"}, "name": "17d82cc590b23e2e32f43c6ae2bf7f56"}, {"lat": 38.90231933333333, "is_reserved": 0, "lon": -77.0383155, "fusion_lon": 0.0, "fusion_lat": 0.0, "is_disabled": 0, "type": "electric_scooter", "bike_id": "6963b51d6c4a8daf3831d18c42476c75", "rental_uris": {"android": "https://dc.lft.to/lastmile_qr_scan", "ios": "https://dc.lft.to/lastmile_qr_scan"}, "name": "6963b51d6c4a8daf3831d18c42476c75"}, {"lat": 38.996605333333335, "is_reserved": 0, "lon": -77.038452, "fusion_lon": 0.0, "fusion_lat": 0.0, "is_disabled": 0, "type": "electric_bike", "bike_id": "31edd717a55b7d4d8da48820281645cd", "rental_uris": {"android": "https://dc.lft.to/lastmile_qr_scan", "ios": "https://dc.lft.to/lastmile_qr_scan"}, "name": "31edd717a55b7d4d8da48820281645cd"}, {"lat": 38.9222845, "is_reserved": 0, "lon": -77.0282785, "fusion_lon": 0.0, "fusion_lat": 0.0, "is_disabled": 0, "type": "electric_scooter", "bike_id": "f3a9f010f1a47b79f7acf97d9ff3edd9", "rental_uris": {"android": "https://dc.lft.to/lastmile_qr_scan", "ios": "https://dc.lft.to/lastmile_qr_scan"}, "name": "f3a9f010f1a47b79f7acf97d9ff3edd9"}, {"lat": 38.91843716666666, "is_reserved": 0, "lon": -77.048309, "fusion_lon": 0.0, "fusion_lat": 0.0, "is_disabled": 0, "type": "electric_scooter", "bike_id": "ff98bef5ea5936946e7f3d82f9272eb3", "rental_uris": {"android": "https://dc.lft.to/lastmile_qr_scan", "ios": "https://dc.lft.to/lastmile_qr_scan"}, "name": "ff98bef5ea5936946e7f3d82f9272eb3"}, {"lat": 38.916909, "is_reserved": 0, "lon": -77.025972, "fusion_lon": 0.0, "fusion_lat": 0.0, "is_disabled": 0, "type": "electric_scooter", "bike_id": "b5d82cf8dd8120ab54c34768ef68eb0c", "rental_uris": {"android": "https://dc.lft.to/lastmile_qr_scan", "ios": "https://dc.lft.to/lastmile_qr_scan"}, "name": "b5d82cf8dd8120ab54c34768ef68eb0c"}, {"lat": 38.92453116666667, "is_reserved": 0, "lon": -77.03300883333333, "fusion_lon": 0.0, "fusion_lat": 0.0, "is_disabled": 0, "type": "electric_scooter", "bike_id": "24ad84a0a7d85812279dd7ebe0a9f852", "rental_uris": {"android": "https://dc.lft.to/lastmile_qr_scan", "ios": "https://dc.lft.to/lastmile_qr_scan"}, "name": "24ad84a0a7d85812279dd7ebe0a9f852"}, {"lat": 38.93522466666667, "is_reserved": 0, "lon": -77.0307455, "fusion_lon": 0.0, "fusion_lat": 0.0, "is_disabled": 0, "type": "electric_scooter", "bike_id": "3b1f6b6ed5da73aafeffe47db3f17035", "rental_uris": {"android": "https://dc.lft.to/lastmile_qr_scan", "ios": "https://dc.lft.to/lastmile_qr_scan"}, "name": "3b1f6b6ed5da73aafeffe47db3f17035"}, {"lat": 38.924603, "is_reserved": 0, "lon": -77.0215575, "fusion_lon": 0.0, "fusion_lat": 0.0, "is_disabled": 0, "type": "electric_scooter", "bike_id": "a30e026a0430fd4ef34a7fcf6a1519c6", "rental_uris": {"android": "https://dc.lft.to/lastmile_qr_scan", "ios": "https://dc.lft.to/lastmile_qr_scan"}, "name": "a30e026a0430fd4ef34a7fcf6a1519c6"}, {"lat": 38.90961866666667, "is_reserved": 0, "lon": -77.02215083333333, "fusion_lon": 0.0, "fusion_lat": 0.0, "is_disabled": 0, "type": "electric_scooter", "bike_id": "baa53c350658479be4963833df898897", "rental_uris": {"android": "https://dc.lft.to/lastmile_qr_scan", "ios": "https://dc.lft.to/lastmile_qr_scan"}, "name": "baa53c350658479be4963833df898897"}, {"lat": 38.926065666666666, "is_reserved": 0, "lon": -77.039614, "fusion_lon": 0.0, "fusion_lat": 0.0, "is_disabled": 0, "type": "electric_scooter", "bike_id": "be806889579d2da8249cc3815f933960", "rental_uris": {"android": "https://dc.lft.to/lastmile_qr_scan", "ios": "https://dc.lft.to/lastmile_qr_scan"}, "name": "be806889579d2da8249cc3815f933960"}, {"lat": 38.938295833333335, "is_reserved": 0, "lon": -76.943145, "fusion_lon": 0.0, "fusion_lat": 0.0, "is_disabled": 0, "type": "electric_bike", "bike_id": "eadb00b797b1d874b59d9087c3b15cce", "rental_uris": {"android": "https://dc.lft.to/lastmile_qr_scan", "ios": "https://dc.lft.to/lastmile_qr_scan"}, "name": "eadb00b797b1d874b59d9087c3b15cce"}, {"lat": 38.92573816666667, "is_reserved": 0, "lon": -77.03533716666666, "fusion_lon": 0.0, "fusion_lat": 0.0, "is_disabled": 0, "type": "electric_scooter", "bike_id": "066dc9335d1f6bdfab3db834aa879b27", "rental_uris": {"android": "https://dc.lft.to/lastmile_qr_scan", "ios": "https://dc.lft.to/lastmile_qr_scan"}, "name": "066dc9335d1f6bdfab3db834aa879b27"}, {"lat": 38.89951666666666, "is_reserved": 0, "lon": -77.05095433333334, "fusion_lon": 0.0, "fusion_lat": 0.0, "is_disabled": 0, "type": "electric_scooter", "bike_id": "5b543e76994037640dde0cb71777dd21", "rental_uris": {"android": "https://dc.lft.to/lastmile_qr_scan", "ios": "https://dc.lft.to/lastmile_qr_scan"}, "name": "5b543e76994037640dde0cb71777dd21"}, {"lat": 38.8097475, "is_reserved": 0, "lon": -77.08628966666667, "fusion_lon": 0.0, "fusion_lat": 0.0, "is_disabled": 0, "type": "electric_bike", "bike_id": "32a8cb63ae76bf809b4cf042b41eb0aa", "rental_uris": {"android": "https://dc.lft.to/lastmile_qr_scan", "ios": "https://dc.lft.to/lastmile_qr_scan"}, "name": "32a8cb63ae76bf809b4cf042b41eb0aa"}, {"lat": 38.89217583333333, "is_reserved": 0, "lon": -77.02222233333333, "fusion_lon": 0.0, "fusion_lat": 0.0, "is_disabled": 0, "type": "electric_scooter", "bike_id": "466facbe00571b4dde1401a40ef135c4", "rental_uris": {"android": "https://dc.lft.to/lastmile_qr_scan", "ios": "https://dc.lft.to/lastmile_qr_scan"}, "name": "466facbe00571b4dde1401a40ef135c4"}, {"lat": 38.886540833333335, "is_reserved": 0, "lon": -77.0282365, "fusion_lon": 0.0, "fusion_lat": 0.0, "is_disabled": 0, "type": "electric_scooter", "bike_id": "df42d3c367306a57fce0836046ea13ee", "rental_uris": {"android": "https://dc.lft.to/lastmile_qr_scan", "ios": "https://dc.lft.to/lastmile_qr_scan"}, "name": "df42d3c367306a57fce0836046ea13ee"}, {"lat": 38.898781666666665, "is_reserved": 0, "lon": -77.03278033333333, "fusion_lon": 0.0, "fusion_lat": 0.0, "is_disabled": 0, "type": "electric_scooter", "bike_id": "29f9c37cd6f55df9aa66dfe2db885295", "rental_uris": {"android": "https://dc.lft.to/lastmile_qr_scan", "ios": "https://dc.lft.to/lastmile_qr_scan"}, "name": "29f9c37cd6f55df9aa66dfe2db885295"}, {"lat": 38.917963, "is_reserved": 0, "lon": -77.03445233333333, "fusion_lon": 0.0, "fusion_lat": 0.0, "is_disabled": 0, "type": "electric_scooter", "bike_id": "01cce0bffc187b3c6feab808c6a8825a", "rental_uris": {"android": "https://dc.lft.to/lastmile_qr_scan", "ios": "https://dc.lft.to/lastmile_qr_scan"}, "name": "01cce0bffc187b3c6feab808c6a8825a"}, {"lat": 38.9223235, "is_reserved": 0, "lon": -77.02331983333333, "fusion_lon": 0.0, "fusion_lat": 0.0, "is_disabled": 0, "type": "electric_scooter", "bike_id": "3588a3c1bfe4f0bcdf11a38cface4722", "rental_uris": {"android": "https://dc.lft.to/lastmile_qr_scan", "ios": "https://dc.lft.to/lastmile_qr_scan"}, "name": "3588a3c1bfe4f0bcdf11a38cface4722"}, {"lat": 38.930445666666664, "is_reserved": 0, "lon": -77.03277133333333, "fusion_lon": 0.0, "fusion_lat": 0.0, "is_disabled": 0, "type": "electric_scooter", "bike_id": "a1f12303cffee8431c4833a5d19f5711", "rental_uris": {"android": "https://dc.lft.to/lastmile_qr_scan", "ios": "https://dc.lft.to/lastmile_qr_scan"}, "name": "a1f12303cffee8431c4833a5d19f5711"}, {"lat": 38.915565, "is_reserved": 0, "lon": -77.02281833333333, "fusion_lon": 0.0, "fusion_lat": 0.0, "is_disabled": 0, "type": "electric_scooter", "bike_id": "02e02872d93945afc8c84cd011ef7afb", "rental_uris": {"android": "https://dc.lft.to/lastmile_qr_scan", "ios": "https://dc.lft.to/lastmile_qr_scan"}, "name": "02e02872d93945afc8c84cd011ef7afb"}, {"lat": 38.9231115, "is_reserved": 0, "lon": -77.04217266666667, "fusion_lon": 0.0, "fusion_lat": 0.0, "is_disabled": 0, "type": "electric_scooter", "bike_id": "293dff8dd717256c4c9aca9ae200e549", "rental_uris": {"android": "https://dc.lft.to/lastmile_qr_scan", "ios": "https://dc.lft.to/lastmile_qr_scan"}, "name": "293dff8dd717256c4c9aca9ae200e549"}, {"lat": 38.87179583333333, "is_reserved": 0, "lon": -77.00607866666667, "fusion_lon": 0.0, "fusion_lat": 0.0, "is_disabled": 0, "type": "electric_scooter", "bike_id": "530df0aa57c688669b34bad6877d7454", "rental_uris": {"android": "https://dc.lft.to/lastmile_qr_scan", "ios": "https://dc.lft.to/lastmile_qr_scan"}, "name": "530df0aa57c688669b34bad6877d7454"}, {"lat": 38.923798, "is_reserved": 0, "lon": -77.05152333333334, "fusion_lon": 0.0, "fusion_lat": 0.0, "is_disabled": 0, "type": "electric_scooter", "bike_id": "33d030014641a05154b82f869c357064", "rental_uris": {"android": "https://dc.lft.to/lastmile_qr_scan", "ios": "https://dc.lft.to/lastmile_qr_scan"}, "name": "33d030014641a05154b82f869c357064"}, {"lat": 38.97496916666667, "is_reserved": 0, "lon": -77.01693683333333, "fusion_lon": 0.0, "fusion_lat": 0.0, "is_disabled": 0, "type": "electric_scooter", "bike_id": "3762b854f99326436be387a1d2a17ad2", "rental_uris": {"android": "https://dc.lft.to/lastmile_qr_scan", "ios": "https://dc.lft.to/lastmile_qr_scan"}, "name": "3762b854f99326436be387a1d2a17ad2"}, {"lat": 38.8933705, "is_reserved": 0, "lon": -77.02859166666667, "fusion_lon": 0.0, "fusion_lat": 0.0, "is_disabled": 0, "type": "electric_scooter", "bike_id": "0bf9bcff5f70674fa47298d0c304e848", "rental_uris": {"android": "https://dc.lft.to/lastmile_qr_scan", "ios": "https://dc.lft.to/lastmile_qr_scan"}, "name": "0bf9bcff5f70674fa47298d0c304e848"}, {"lat": 38.91244183333333, "is_reserved": 0, "lon": -77.03659816666666, "fusion_lon": 0.0, "fusion_lat": 0.0, "is_disabled": 0, "type": "electric_scooter", "bike_id": "ec1624a232b961e07b72536f1e4bef68", "rental_uris": {"android": "https://dc.lft.to/lastmile_qr_scan", "ios": "https://dc.lft.to/lastmile_qr_scan"}, "name": "ec1624a232b961e07b72536f1e4bef68"}, {"lat": 38.91248183333333, "is_reserved": 0, "lon": -77.02426983333334, "fusion_lon": 0.0, "fusion_lat": 0.0, "is_disabled": 0, "type": "electric_scooter", "bike_id": "f2475488dfd1dfc358255185260b39f5", "rental_uris": {"android": "https://dc.lft.to/lastmile_qr_scan", "ios": "https://dc.lft.to/lastmile_qr_scan"}, "name": "f2475488dfd1dfc358255185260b39f5"}, {"lat": 38.953708166666665, "is_reserved": 0, "lon": -76.979694, "fusion_lon": 0.0, "fusion_lat": 0.0, "is_disabled": 0, "type": "electric_bike", "bike_id": "a797f1453401d6a09acc0e643c920993", "rental_uris": {"android": "https://dc.lft.to/lastmile_qr_scan", "ios": "https://dc.lft.to/lastmile_qr_scan"}, "name": "a797f1453401d6a09acc0e643c920993"}, {"lat": 38.90157583333333, "is_reserved": 0, "lon": -76.9763075, "fusion_lon": 0.0, "fusion_lat": 0.0, "is_disabled": 0, "type": "electric_scooter", "bike_id": "5133e780b4cde218ab25e8b7e62f8b23", "rental_uris": {"android": "https://dc.lft.to/lastmile_qr_scan", "ios": "https://dc.lft.to/lastmile_qr_scan"}, "name": "5133e780b4cde218ab25e8b7e62f8b23"}, {"lat": 38.880255166666664, "is_reserved": 0, "lon": -77.02231216666667, "fusion_lon": 0.0, "fusion_lat": 0.0, "is_disabled": 0, "type": "electric_scooter", "bike_id": "d2fe5b607cf866f55bd670e0051d9ea1", "rental_uris": {"android": "https://dc.lft.to/lastmile_qr_scan", "ios": "https://dc.lft.to/lastmile_qr_scan"}, "name": "d2fe5b607cf866f55bd670e0051d9ea1"}, {"lat": 38.89610366666667, "is_reserved": 0, "lon": -76.987436, "fusion_lon": 0.0, "fusion_lat": 0.0, "is_disabled": 0, "type": "electric_bike", "bike_id": "bd58adc1ff58b4c03b91358ea598a0c6", "rental_uris": {"android": "https://dc.lft.to/lastmile_qr_scan", "ios": "https://dc.lft.to/lastmile_qr_scan"}, "name": "bd58adc1ff58b4c03b91358ea598a0c6"}, {"lat": 38.81329866666667, "is_reserved": 0, "lon": -77.05113583333333, "fusion_lon": 0.0, "fusion_lat": 0.0, "is_disabled": 0, "type": "electric_bike", "bike_id": "d6510f6b0eca95d164c73a63634189bf", "rental_uris": {"android": "https://dc.lft.to/lastmile_qr_scan", "ios": "https://dc.lft.to/lastmile_qr_scan"}, "name": "d6510f6b0eca95d164c73a63634189bf"}, {"lat": 38.914901, "is_reserved": 0, "lon": -77.03710633333333, "fusion_lon": 0.0, "fusion_lat": 0.0, "is_disabled": 0, "type": "electric_scooter", "bike_id": "34f063aa311234111aa989d98c970f99", "rental_uris": {"android": "https://dc.lft.to/lastmile_qr_scan", "ios": "https://dc.lft.to/lastmile_qr_scan"}, "name": "34f063aa311234111aa989d98c970f99"}, {"lat": 38.9087435, "is_reserved": 0, "lon": -77.04105483333333, "fusion_lon": 0.0, "fusion_lat": 0.0, "is_disabled": 0, "type": "electric_scooter", "bike_id": "1f5e8afdb20744f0e991db94e002dc2e", "rental_uris": {"android": "https://dc.lft.to/lastmile_qr_scan", "ios": "https://dc.lft.to/lastmile_qr_scan"}, "name": "1f5e8afdb20744f0e991db94e002dc2e"}, {"lat": 38.928536333333334, "is_reserved": 0, "lon": -77.0329615, "fusion_lon": 0.0, "fusion_lat": 0.0, "is_disabled": 0, "type": "electric_scooter", "bike_id": "7cd09e64c05af04aeea59f4cd749c2d0", "rental_uris": {"android": "https://dc.lft.to/lastmile_qr_scan", "ios": "https://dc.lft.to/lastmile_qr_scan"}, "name": "7cd09e64c05af04aeea59f4cd749c2d0"}, {"lat": 38.89820316666667, "is_reserved": 0, "lon": -77.044973, "fusion_lon": 0.0, "fusion_lat": 0.0, "is_disabled": 0, "type": "electric_scooter", "bike_id": "e8c3a44cf72871cad0a6edfd8ac6baa4", "rental_uris": {"android": "https://dc.lft.to/lastmile_qr_scan", "ios": "https://dc.lft.to/lastmile_qr_scan"}, "name": "e8c3a44cf72871cad0a6edfd8ac6baa4"}, {"lat": 38.87297616666667, "is_reserved": 0, "lon": -76.96906316666667, "fusion_lon": 0.0, "fusion_lat": 0.0, "is_disabled": 0, "type": "electric_scooter", "bike_id": "76a33625c8fb8aa38cbcacd7bb0c6f28", "rental_uris": {"android": "https://dc.lft.to/lastmile_qr_scan", "ios": "https://dc.lft.to/lastmile_qr_scan"}, "name": "76a33625c8fb8aa38cbcacd7bb0c6f28"}, {"lat": 38.88471533333333, "is_reserved": 0, "lon": -77.03197416666667, "fusion_lon": 0.0, "fusion_lat": 0.0, "is_disabled": 0, "type": "electric_scooter", "bike_id": "1f852100e174935fea6b10f48fb57972", "rental_uris": {"android": "https://dc.lft.to/lastmile_qr_scan", "ios": "https://dc.lft.to/lastmile_qr_scan"}, "name": "1f852100e174935fea6b10f48fb57972"}, {"lat": 38.87503566666667, "is_reserved": 0, "lon": -77.00934716666667, "fusion_lon": 0.0, "fusion_lat": 0.0, "is_disabled": 0, "type": "electric_scooter", "bike_id": "fe9de1efb46069a71279220326a7204c", "rental_uris": {"android": "https://dc.lft.to/lastmile_qr_scan", "ios": "https://dc.lft.to/lastmile_qr_scan"}, "name": "fe9de1efb46069a71279220326a7204c"}, {"lat": 38.895040333333334, "is_reserved": 0, "lon": -77.02294883333333, "fusion_lon": 0.0, "fusion_lat": 0.0, "is_disabled": 0, "type": "electric_scooter", "bike_id": "5acc7e2e576b5da73c049c603bf6699c", "rental_uris": {"android": "https://dc.lft.to/lastmile_qr_scan", "ios": "https://dc.lft.to/lastmile_qr_scan"}, "name": "5acc7e2e576b5da73c049c603bf6699c"}, {"lat": 38.928244166666666, "is_reserved": 0, "lon": -77.0225805, "fusion_lon": 0.0, "fusion_lat": 0.0, "is_disabled": 0, "type": "electric_scooter", "bike_id": "7d8fed2351ff64c0a8ecaf4a8f87d1b0", "rental_uris": {"android": "https://dc.lft.to/lastmile_qr_scan", "ios": "https://dc.lft.to/lastmile_qr_scan"}, "name": "7d8fed2351ff64c0a8ecaf4a8f87d1b0"}, {"lat": 38.8771395, "is_reserved": 0, "lon": -77.01754683333333, "fusion_lon": 0.0, "fusion_lat": 0.0, "is_disabled": 0, "type": "electric_scooter", "bike_id": "f8fed846d0ea748e10d7de73027b0de6", "rental_uris": {"android": "https://dc.lft.to/lastmile_qr_scan", "ios": "https://dc.lft.to/lastmile_qr_scan"}, "name": "f8fed846d0ea748e10d7de73027b0de6"}, {"lat": 38.9204135, "is_reserved": 0, "lon": -77.04190783333334, "fusion_lon": 0.0, "fusion_lat": 0.0, "is_disabled": 0, "type": "electric_scooter", "bike_id": "a0c9da98ed96b03cfaabc1a84b937c18", "rental_uris": {"android": "https://dc.lft.to/lastmile_qr_scan", "ios": "https://dc.lft.to/lastmile_qr_scan"}, "name": "a0c9da98ed96b03cfaabc1a84b937c18"}, {"lat": 38.90528783333333, "is_reserved": 0, "lon": -77.06160066666666, "fusion_lon": 0.0, "fusion_lat": 0.0, "is_disabled": 0, "type": "electric_scooter", "bike_id": "7a050ce4605121d1d0839e021f6f8ae6", "rental_uris": {"android": "https://dc.lft.to/lastmile_qr_scan", "ios": "https://dc.lft.to/lastmile_qr_scan"}, "name": "7a050ce4605121d1d0839e021f6f8ae6"}, {"lat": 38.90946816666667, "is_reserved": 0, "lon": -77.03449066666667, "fusion_lon": 0.0, "fusion_lat": 0.0, "is_disabled": 0, "type": "electric_scooter", "bike_id": "f0bc0a1a63b5706f0e3e6ee233dcd826", "rental_uris": {"android": "https://dc.lft.to/lastmile_qr_scan", "ios": "https://dc.lft.to/lastmile_qr_scan"}, "name": "f0bc0a1a63b5706f0e3e6ee233dcd826"}, {"lat": 38.9096535, "is_reserved": 0, "lon": -77.01106683333333, "fusion_lon": 0.0, "fusion_lat": 0.0, "is_disabled": 0, "type": "electric_scooter", "bike_id": "d9c57670f2d390f10e8f4c87e444bc53", "rental_uris": {"android": "https://dc.lft.to/lastmile_qr_scan", "ios": "https://dc.lft.to/lastmile_qr_scan"}, "name": "d9c57670f2d390f10e8f4c87e444bc53"}, {"lat": 38.89840133333333, "is_reserved": 0, "lon": -77.04988366666667, "fusion_lon": 0.0, "fusion_lat": 0.0, "is_disabled": 0, "type": "electric_scooter", "bike_id": "8f764543ed4abfcfac6aa34966225ccd", "rental_uris": {"android": "https://dc.lft.to/lastmile_qr_scan", "ios": "https://dc.lft.to/lastmile_qr_scan"}, "name": "8f764543ed4abfcfac6aa34966225ccd"}, {"lat": 38.9084355, "is_reserved": 0, "lon": -77.01259166666667, "fusion_lon": 0.0, "fusion_lat": 0.0, "is_disabled": 0, "type": "electric_scooter", "bike_id": "729b688c118940c5858faf4f01dcad7b", "rental_uris": {"android": "https://dc.lft.to/lastmile_qr_scan", "ios": "https://dc.lft.to/lastmile_qr_scan"}, "name": "729b688c118940c5858faf4f01dcad7b"}, {"lat": 38.92093883333333, "is_reserved": 0, "lon": -77.0230815, "fusion_lon": 0.0, "fusion_lat": 0.0, "is_disabled": 0, "type": "electric_scooter", "bike_id": "7b92d278ea642c2f9b64b895057b6d50", "rental_uris": {"android": "https://dc.lft.to/lastmile_qr_scan", "ios": "https://dc.lft.to/lastmile_qr_scan"}, "name": "7b92d278ea642c2f9b64b895057b6d50"}, {"lat": 38.9213145, "is_reserved": 0, "lon": -77.0040285, "fusion_lon": 0.0, "fusion_lat": 0.0, "is_disabled": 0, "type": "electric_scooter", "bike_id": "b867a4bf1d902b75ee2c3d57d173a66c", "rental_uris": {"android": "https://dc.lft.to/lastmile_qr_scan", "ios": "https://dc.lft.to/lastmile_qr_scan"}, "name": "b867a4bf1d902b75ee2c3d57d173a66c"}, {"lat": 38.9031925, "is_reserved": 0, "lon": -77.04009583333334, "fusion_lon": 0.0, "fusion_lat": 0.0, "is_disabled": 0, "type": "electric_scooter", "bike_id": "a93b1eeab824fcc3129b283de943c7e1", "rental_uris": {"android": "https://dc.lft.to/lastmile_qr_scan", "ios": "https://dc.lft.to/lastmile_qr_scan"}, "name": "a93b1eeab824fcc3129b283de943c7e1"}, {"lat": 38.93700283333333, "is_reserved": 0, "lon": -77.023987, "fusion_lon": 0.0, "fusion_lat": 0.0, "is_disabled": 0, "type": "electric_scooter", "bike_id": "1bf31875e19f86bd5c30d541860ce2a1", "rental_uris": {"android": "https://dc.lft.to/lastmile_qr_scan", "ios": "https://dc.lft.to/lastmile_qr_scan"}, "name": "1bf31875e19f86bd5c30d541860ce2a1"}, {"lat": 38.914927666666664, "is_reserved": 0, "lon": -77.04086416666667, "fusion_lon": 0.0, "fusion_lat": 0.0, "is_disabled": 0, "type": "electric_scooter", "bike_id": "230934da67389c2f5d4f6cc41fe6fc09", "rental_uris": {"android": "https://dc.lft.to/lastmile_qr_scan", "ios": "https://dc.lft.to/lastmile_qr_scan"}, "name": "230934da67389c2f5d4f6cc41fe6fc09"}, {"lat": 38.925384666666666, "is_reserved": 0, "lon": -77.00716266666667, "fusion_lon": 0.0, "fusion_lat": 0.0, "is_disabled": 0, "type": "electric_scooter", "bike_id": "cc93211337400fd01c9a44bb7479b4c9", "rental_uris": {"android": "https://dc.lft.to/lastmile_qr_scan", "ios": "https://dc.lft.to/lastmile_qr_scan"}, "name": "cc93211337400fd01c9a44bb7479b4c9"}, {"lat": 38.88147266666667, "is_reserved": 0, "lon": -76.983279, "fusion_lon": 0.0, "fusion_lat": 0.0, "is_disabled": 0, "type": "electric_scooter", "bike_id": "f09c938f293ebf057e1bb637557749c7", "rental_uris": {"android": "https://dc.lft.to/lastmile_qr_scan", "ios": "https://dc.lft.to/lastmile_qr_scan"}, "name": "f09c938f293ebf057e1bb637557749c7"}, {"lat": 38.916385, "is_reserved": 0, "lon": -77.08856783333333, "fusion_lon": 0.0, "fusion_lat": 0.0, "is_disabled": 0, "type": "electric_scooter", "bike_id": "e193912fc791d8779e7901c84e0a6f78", "rental_uris": {"android": "https://dc.lft.to/lastmile_qr_scan", "ios": "https://dc.lft.to/lastmile_qr_scan"}, "name": "e193912fc791d8779e7901c84e0a6f78"}, {"lat": 38.897444666666665, "is_reserved": 0, "lon": -76.98136983333333, "fusion_lon": 0.0, "fusion_lat": 0.0, "is_disabled": 0, "type": "electric_scooter", "bike_id": "a13332f36dffad7b219c3415afdc8b72", "rental_uris": {"android": "https://dc.lft.to/lastmile_qr_scan", "ios": "https://dc.lft.to/lastmile_qr_scan"}, "name": "a13332f36dffad7b219c3415afdc8b72"}, {"lat": 38.896097166666664, "is_reserved": 0, "lon": -77.02208783333333, "fusion_lon": 0.0, "fusion_lat": 0.0, "is_disabled": 0, "type": "electric_scooter", "bike_id": "849af5f671be03df89e25ab7c4eddec9", "rental_uris": {"android": "https://dc.lft.to/lastmile_qr_scan", "ios": "https://dc.lft.to/lastmile_qr_scan"}, "name": "849af5f671be03df89e25ab7c4eddec9"}, {"lat": 38.91681083333334, "is_reserved": 0, "lon": -77.02977416666667, "fusion_lon": 0.0, "fusion_lat": 0.0, "is_disabled": 0, "type": "electric_scooter", "bike_id": "7d944218f75e687a7ac27b71e327c5e5", "rental_uris": {"android": "https://dc.lft.to/lastmile_qr_scan", "ios": "https://dc.lft.to/lastmile_qr_scan"}, "name": "7d944218f75e687a7ac27b71e327c5e5"}, {"lat": 38.912457, "is_reserved": 0, "lon": -77.00427883333333, "fusion_lon": 0.0, "fusion_lat": 0.0, "is_disabled": 0, "type": "electric_scooter", "bike_id": "888086eb7931062178d9a702af889014", "rental_uris": {"android": "https://dc.lft.to/lastmile_qr_scan", "ios": "https://dc.lft.to/lastmile_qr_scan"}, "name": "888086eb7931062178d9a702af889014"}, {"lat": 38.80390966666667, "is_reserved": 0, "lon": -77.05567433333333, "fusion_lon": 0.0, "fusion_lat": 0.0, "is_disabled": 0, "type": "electric_bike", "bike_id": "467dcc3fc5d58673a901b65d2710b124", "rental_uris": {"android": "https://dc.lft.to/lastmile_qr_scan", "ios": "https://dc.lft.to/lastmile_qr_scan"}, "name": "467dcc3fc5d58673a901b65d2710b124"}, {"lat": 38.89357116666667, "is_reserved": 0, "lon": -76.9494115, "fusion_lon": 0.0, "fusion_lat": 0.0, "is_disabled": 0, "type": "electric_scooter", "bike_id": "3da427e28059d50bdc1a36f56a325f4a", "rental_uris": {"android": "https://dc.lft.to/lastmile_qr_scan", "ios": "https://dc.lft.to/lastmile_qr_scan"}, "name": "3da427e28059d50bdc1a36f56a325f4a"}, {"lat": 38.949222, "is_reserved": 0, "lon": -77.00765333333334, "fusion_lon": 0.0, "fusion_lat": 0.0, "is_disabled": 0, "type": "electric_scooter", "bike_id": "67c21d0feb4e1184401d2fda0622c9c9", "rental_uris": {"android": "https://dc.lft.to/lastmile_qr_scan", "ios": "https://dc.lft.to/lastmile_qr_scan"}, "name": "67c21d0feb4e1184401d2fda0622c9c9"}, {"lat": 38.90988216666667, "is_reserved": 0, "lon": -77.03199016666667, "fusion_lon": 0.0, "fusion_lat": 0.0, "is_disabled": 0, "type": "electric_scooter", "bike_id": "e74b1e89b88c0966f88376d900337f29", "rental_uris": {"android": "https://dc.lft.to/lastmile_qr_scan", "ios": "https://dc.lft.to/lastmile_qr_scan"}, "name": "e74b1e89b88c0966f88376d900337f29"}, {"lat": 38.923680833333336, "is_reserved": 0, "lon": -77.01937816666667, "fusion_lon": 0.0, "fusion_lat": 0.0, "is_disabled": 0, "type": "electric_scooter", "bike_id": "32f601a6ffb0a3946953d15046795b1a", "rental_uris": {"android": "https://dc.lft.to/lastmile_qr_scan", "ios": "https://dc.lft.to/lastmile_qr_scan"}, "name": "32f601a6ffb0a3946953d15046795b1a"}, {"lat": 38.895035666666665, "is_reserved": 0, "lon": -77.02298233333333, "fusion_lon": 0.0, "fusion_lat": 0.0, "is_disabled": 0, "type": "electric_scooter", "bike_id": "6c71b87b5b8af8fbe0a0901a33eeeb60", "rental_uris": {"android": "https://dc.lft.to/lastmile_qr_scan", "ios": "https://dc.lft.to/lastmile_qr_scan"}, "name": "6c71b87b5b8af8fbe0a0901a33eeeb60"}, {"lat": 38.8651115, "is_reserved": 0, "lon": -77.12940583333334, "fusion_lon": 0.0, "fusion_lat": 0.0, "is_disabled": 0, "type": "electric_bike", "bike_id": "87ead81f04768a44b75268ee6ffad4bf", "rental_uris": {"android": "https://dc.lft.to/lastmile_qr_scan", "ios": "https://dc.lft.to/lastmile_qr_scan"}, "name": "87ead81f04768a44b75268ee6ffad4bf"}, {"lat": 38.919846666666665, "is_reserved": 0, "lon": -77.0218755, "fusion_lon": 0.0, "fusion_lat": 0.0, "is_disabled": 0, "type": "electric_scooter", "bike_id": "b622f9dba9a27f2faa6a123282e06cb8", "rental_uris": {"android": "https://dc.lft.to/lastmile_qr_scan", "ios": "https://dc.lft.to/lastmile_qr_scan"}, "name": "b622f9dba9a27f2faa6a123282e06cb8"}, {"lat": 38.91542116666667, "is_reserved": 0, "lon": -77.01975883333333, "fusion_lon": 0.0, "fusion_lat": 0.0, "is_disabled": 0, "type": "electric_scooter", "bike_id": "99f9dc5d23987eedd00a7bf440ac5b13", "rental_uris": {"android": "https://dc.lft.to/lastmile_qr_scan", "ios": "https://dc.lft.to/lastmile_qr_scan"}, "name": "99f9dc5d23987eedd00a7bf440ac5b13"}, {"lat": 38.91270816666667, "is_reserved": 0, "lon": -77.0222165, "fusion_lon": 0.0, "fusion_lat": 0.0, "is_disabled": 0, "type": "electric_scooter", "bike_id": "1bd72cfb324ccf2d0e5f8e7769c80d66", "rental_uris": {"android": "https://dc.lft.to/lastmile_qr_scan", "ios": "https://dc.lft.to/lastmile_qr_scan"}, "name": "1bd72cfb324ccf2d0e5f8e7769c80d66"}, {"lat": 38.91062983333333, "is_reserved": 0, "lon": -77.0263255, "fusion_lon": 0.0, "fusion_lat": 0.0, "is_disabled": 0, "type": "electric_scooter", "bike_id": "77ccf7a80395803940d54d8267786f55", "rental_uris": {"android": "https://dc.lft.to/lastmile_qr_scan", "ios": "https://dc.lft.to/lastmile_qr_scan"}, "name": "77ccf7a80395803940d54d8267786f55"}, {"lat": 38.923837166666665, "is_reserved": 0, "lon": -77.03661433333333, "fusion_lon": 0.0, "fusion_lat": 0.0, "is_disabled": 0, "type": "electric_scooter", "bike_id": "e5e5618aae6e6fc21f7343c2c80526de", "rental_uris": {"android": "https://dc.lft.to/lastmile_qr_scan", "ios": "https://dc.lft.to/lastmile_qr_scan"}, "name": "e5e5618aae6e6fc21f7343c2c80526de"}, {"lat": 38.910274666666666, "is_reserved": 0, "lon": -77.0075995, "fusion_lon": 0.0, "fusion_lat": 0.0, "is_disabled": 0, "type": "electric_scooter", "bike_id": "33fab52292692e0885149897273e7f91", "rental_uris": {"android": "https://dc.lft.to/lastmile_qr_scan", "ios": "https://dc.lft.to/lastmile_qr_scan"}, "name": "33fab52292692e0885149897273e7f91"}, {"lat": 38.898288, "is_reserved": 0, "lon": -77.024209, "fusion_lon": 0.0, "fusion_lat": 0.0, "is_disabled": 0, "type": "electric_scooter", "bike_id": "073197e0f251146e4847b2490dd64a46", "rental_uris": {"android": "https://dc.lft.to/lastmile_qr_scan", "ios": "https://dc.lft.to/lastmile_qr_scan"}, "name": "073197e0f251146e4847b2490dd64a46"}, {"lat": 38.895256833333335, "is_reserved": 0, "lon": -77.00337666666667, "fusion_lon": 0.0, "fusion_lat": 0.0, "is_disabled": 0, "type": "electric_scooter", "bike_id": "736d28da9eabd85ff5460f8807e85079", "rental_uris": {"android": "https://dc.lft.to/lastmile_qr_scan", "ios": "https://dc.lft.to/lastmile_qr_scan"}, "name": "736d28da9eabd85ff5460f8807e85079"}, {"lat": 38.874997, "is_reserved": 0, "lon": -77.00122683333333, "fusion_lon": 0.0, "fusion_lat": 0.0, "is_disabled": 0, "type": "electric_scooter", "bike_id": "3c0d7c94ce03166719b11de2ddad7d15", "rental_uris": {"android": "https://dc.lft.to/lastmile_qr_scan", "ios": "https://dc.lft.to/lastmile_qr_scan"}, "name": "3c0d7c94ce03166719b11de2ddad7d15"}, {"lat": 38.908682, "is_reserved": 0, "lon": -76.93338183333333, "fusion_lon": 0.0, "fusion_lat": 0.0, "is_disabled": 0, "type": "electric_scooter", "bike_id": "bbd13317a8b3ae41f4d834af364dae2e", "rental_uris": {"android": "https://dc.lft.to/lastmile_qr_scan", "ios": "https://dc.lft.to/lastmile_qr_scan"}, "name": "bbd13317a8b3ae41f4d834af364dae2e"}, {"lat": 38.94924016666667, "is_reserved": 0, "lon": -77.018587, "fusion_lon": 0.0, "fusion_lat": 0.0, "is_disabled": 0, "type": "electric_scooter", "bike_id": "b9a8625e3bcd1c0cbfd21f28076a5d11", "rental_uris": {"android": "https://dc.lft.to/lastmile_qr_scan", "ios": "https://dc.lft.to/lastmile_qr_scan"}, "name": "b9a8625e3bcd1c0cbfd21f28076a5d11"}, {"lat": 38.8942715, "is_reserved": 0, "lon": -77.03971883333334, "fusion_lon": 0.0, "fusion_lat": 0.0, "is_disabled": 0, "type": "electric_scooter", "bike_id": "47bcc63c76dd27a2b7de182fb38c95c6", "rental_uris": {"android": "https://dc.lft.to/lastmile_qr_scan", "ios": "https://dc.lft.to/lastmile_qr_scan"}, "name": "47bcc63c76dd27a2b7de182fb38c95c6"}, {"lat": 38.91736083333333, "is_reserved": 0, "lon": -77.03453883333333, "fusion_lon": 0.0, "fusion_lat": 0.0, "is_disabled": 0, "type": "electric_scooter", "bike_id": "6940253ed88bd9254531d5fafdd03829", "rental_uris": {"android": "https://dc.lft.to/lastmile_qr_scan", "ios": "https://dc.lft.to/lastmile_qr_scan"}, "name": "6940253ed88bd9254531d5fafdd03829"}, {"lat": 38.897265166666664, "is_reserved": 0, "lon": -77.0221755, "fusion_lon": 0.0, "fusion_lat": 0.0, "is_disabled": 0, "type": "electric_scooter", "bike_id": "f3c5cccbdbfef578df75d9c6f7130e48", "rental_uris": {"android": "https://dc.lft.to/lastmile_qr_scan", "ios": "https://dc.lft.to/lastmile_qr_scan"}, "name": "f3c5cccbdbfef578df75d9c6f7130e48"}, {"lat": 38.920315333333335, "is_reserved": 0, "lon": -77.03078416666666, "fusion_lon": 0.0, "fusion_lat": 0.0, "is_disabled": 0, "type": "electric_scooter", "bike_id": "6ce259781de0e86fab3a2c1317ca5c76", "rental_uris": {"android": "https://dc.lft.to/lastmile_qr_scan", "ios": "https://dc.lft.to/lastmile_qr_scan"}, "name": "6ce259781de0e86fab3a2c1317ca5c76"}, {"lat": 38.9140725, "is_reserved": 0, "lon": -77.04279416666667, "fusion_lon": 0.0, "fusion_lat": 0.0, "is_disabled": 0, "type": "electric_scooter", "bike_id": "4d7a5a67677729b724e9e7f1336c48df", "rental_uris": {"android": "https://dc.lft.to/lastmile_qr_scan", "ios": "https://dc.lft.to/lastmile_qr_scan"}, "name": "4d7a5a67677729b724e9e7f1336c48df"}, {"lat": 38.91657333333333, "is_reserved": 0, "lon": -77.03178466666667, "fusion_lon": 0.0, "fusion_lat": 0.0, "is_disabled": 0, "type": "electric_scooter", "bike_id": "a1a200334227b7cf89261adbfdb79ffc", "rental_uris": {"android": "https://dc.lft.to/lastmile_qr_scan", "ios": "https://dc.lft.to/lastmile_qr_scan"}, "name": "a1a200334227b7cf89261adbfdb79ffc"}, {"lat": 38.90327, "is_reserved": 0, "lon": -77.01642733333334, "fusion_lon": 0.0, "fusion_lat": 0.0, "is_disabled": 0, "type": "electric_scooter", "bike_id": "04ceacdbc6d4c09f3a4b6095f5157eca", "rental_uris": {"android": "https://dc.lft.to/lastmile_qr_scan", "ios": "https://dc.lft.to/lastmile_qr_scan"}, "name": "04ceacdbc6d4c09f3a4b6095f5157eca"}, {"lat": 38.90262766666667, "is_reserved": 0, "lon": -77.0466305, "fusion_lon": 0.0, "fusion_lat": 0.0, "is_disabled": 0, "type": "electric_scooter", "bike_id": "1135f1df18f9195c695a0506e5b1ed3f", "rental_uris": {"android": "https://dc.lft.to/lastmile_qr_scan", "ios": "https://dc.lft.to/lastmile_qr_scan"}, "name": "1135f1df18f9195c695a0506e5b1ed3f"}, {"lat": 38.93431533333333, "is_reserved": 0, "lon": -77.040035, "fusion_lon": 0.0, "fusion_lat": 0.0, "is_disabled": 0, "type": "electric_scooter", "bike_id": "649ab4342de0f3ffdee9699e534406b3", "rental_uris": {"android": "https://dc.lft.to/lastmile_qr_scan", "ios": "https://dc.lft.to/lastmile_qr_scan"}, "name": "649ab4342de0f3ffdee9699e534406b3"}, {"lat": 38.90246966666667, "is_reserved": 0, "lon": -77.02477783333333, "fusion_lon": 0.0, "fusion_lat": 0.0, "is_disabled": 0, "type": "electric_scooter", "bike_id": "53faac0d700e6bbf43fd401b20fd5228", "rental_uris": {"android": "https://dc.lft.to/lastmile_qr_scan", "ios": "https://dc.lft.to/lastmile_qr_scan"}, "name": "53faac0d700e6bbf43fd401b20fd5228"}, {"lat": 38.884094166666664, "is_reserved": 0, "lon": -76.94822883333333, "fusion_lon": 0.0, "fusion_lat": 0.0, "is_disabled": 0, "type": "electric_scooter", "bike_id": "2d2d06af8899cba661ca30c6804567af", "rental_uris": {"android": "https://dc.lft.to/lastmile_qr_scan", "ios": "https://dc.lft.to/lastmile_qr_scan"}, "name": "2d2d06af8899cba661ca30c6804567af"}, {"lat": 38.93174416666667, "is_reserved": 0, "lon": -77.0233405, "fusion_lon": 0.0, "fusion_lat": 0.0, "is_disabled": 0, "type": "electric_scooter", "bike_id": "3b4085b0e1ef755ca2dd3e395800b8b4", "rental_uris": {"android": "https://dc.lft.to/lastmile_qr_scan", "ios": "https://dc.lft.to/lastmile_qr_scan"}, "name": "3b4085b0e1ef755ca2dd3e395800b8b4"}, {"lat": 38.897478666666665, "is_reserved": 0, "lon": -77.029858, "fusion_lon": 0.0, "fusion_lat": 0.0, "is_disabled": 0, "type": "electric_scooter", "bike_id": "678ad7bf203d929be557089123613020", "rental_uris": {"android": "https://dc.lft.to/lastmile_qr_scan", "ios": "https://dc.lft.to/lastmile_qr_scan"}, "name": "678ad7bf203d929be557089123613020"}, {"lat": 38.92419116666667, "is_reserved": 0, "lon": -77.019452, "fusion_lon": 0.0, "fusion_lat": 0.0, "is_disabled": 0, "type": "electric_scooter", "bike_id": "0910079cd9d2644e7c32d13eae341fe1", "rental_uris": {"android": "https://dc.lft.to/lastmile_qr_scan", "ios": "https://dc.lft.to/lastmile_qr_scan"}, "name": "0910079cd9d2644e7c32d13eae341fe1"}, {"lat": 38.9225, "is_reserved": 0, "lon": -77.04247183333334, "fusion_lon": 0.0, "fusion_lat": 0.0, "is_disabled": 0, "type": "electric_scooter", "bike_id": "701218d2dc1dbe2cd5f9cc48f33cc881", "rental_uris": {"android": "https://dc.lft.to/lastmile_qr_scan", "ios": "https://dc.lft.to/lastmile_qr_scan"}, "name": "701218d2dc1dbe2cd5f9cc48f33cc881"}, {"lat": 38.93491783333333, "is_reserved": 0, "lon": -77.028482, "fusion_lon": 0.0, "fusion_lat": 0.0, "is_disabled": 0, "type": "electric_scooter", "bike_id": "c333fdede92bd7d154ff3a082f5f465a", "rental_uris": {"android": "https://dc.lft.to/lastmile_qr_scan", "ios": "https://dc.lft.to/lastmile_qr_scan"}, "name": "c333fdede92bd7d154ff3a082f5f465a"}, {"lat": 38.931581666666666, "is_reserved": 0, "lon": -77.0362235, "fusion_lon": 0.0, "fusion_lat": 0.0, "is_disabled": 0, "type": "electric_scooter", "bike_id": "da34f5882107aedd1a9426bfcda54521", "rental_uris": {"android": "https://dc.lft.to/lastmile_qr_scan", "ios": "https://dc.lft.to/lastmile_qr_scan"}, "name": "da34f5882107aedd1a9426bfcda54521"}, {"lat": 38.90194416666667, "is_reserved": 0, "lon": -76.928947, "fusion_lon": 0.0, "fusion_lat": 0.0, "is_disabled": 0, "type": "electric_scooter", "bike_id": "2f79b7d1d3118fc14761ef651581330f", "rental_uris": {"android": "https://dc.lft.to/lastmile_qr_scan", "ios": "https://dc.lft.to/lastmile_qr_scan"}, "name": "2f79b7d1d3118fc14761ef651581330f"}, {"lat": 38.904374, "is_reserved": 0, "lon": -77.06291166666666, "fusion_lon": 0.0, "fusion_lat": 0.0, "is_disabled": 0, "type": "electric_bike", "bike_id": "aa42ab6080449d5bbbbca602409dfab7", "rental_uris": {"android": "https://dc.lft.to/lastmile_qr_scan", "ios": "https://dc.lft.to/lastmile_qr_scan"}, "name": "aa42ab6080449d5bbbbca602409dfab7"}, {"lat": 38.8963045, "is_reserved": 0, "lon": -77.02612933333333, "fusion_lon": 0.0, "fusion_lat": 0.0, "is_disabled": 0, "type": "electric_scooter", "bike_id": "c155794781af840864c8072b758c705f", "rental_uris": {"android": "https://dc.lft.to/lastmile_qr_scan", "ios": "https://dc.lft.to/lastmile_qr_scan"}, "name": "c155794781af840864c8072b758c705f"}, {"lat": 38.89195183333333, "is_reserved": 0, "lon": -77.02377116666666, "fusion_lon": 0.0, "fusion_lat": 0.0, "is_disabled": 0, "type": "electric_scooter", "bike_id": "2c8977a91eec86efd8ac219dfdee1492", "rental_uris": {"android": "https://dc.lft.to/lastmile_qr_scan", "ios": "https://dc.lft.to/lastmile_qr_scan"}, "name": "2c8977a91eec86efd8ac219dfdee1492"}, {"lat": 38.8309775, "is_reserved": 0, "lon": -77.04289233333333, "fusion_lon": 0.0, "fusion_lat": 0.0, "is_disabled": 0, "type": "electric_bike", "bike_id": "fab3ac110790d0ad43b354e73d7c1f75", "rental_uris": {"android": "https://dc.lft.to/lastmile_qr_scan", "ios": "https://dc.lft.to/lastmile_qr_scan"}, "name": "fab3ac110790d0ad43b354e73d7c1f75"}, {"lat": 38.887347, "is_reserved": 0, "lon": -77.01509166666666, "fusion_lon": 0.0, "fusion_lat": 0.0, "is_disabled": 0, "type": "electric_scooter", "bike_id": "50df2cb373a9e78e040f2cb71c8cc7b0", "rental_uris": {"android": "https://dc.lft.to/lastmile_qr_scan", "ios": "https://dc.lft.to/lastmile_qr_scan"}, "name": "50df2cb373a9e78e040f2cb71c8cc7b0"}, {"lat": 38.952523666666664, "is_reserved": 0, "lon": -77.01961366666667, "fusion_lon": 0.0, "fusion_lat": 0.0, "is_disabled": 0, "type": "electric_scooter", "bike_id": "e4322730e752bfe8a294701d4f1f1b92", "rental_uris": {"android": "https://dc.lft.to/lastmile_qr_scan", "ios": "https://dc.lft.to/lastmile_qr_scan"}, "name": "e4322730e752bfe8a294701d4f1f1b92"}, {"lat": 38.934250166666665, "is_reserved": 0, "lon": -77.04007, "fusion_lon": 0.0, "fusion_lat": 0.0, "is_disabled": 0, "type": "electric_scooter", "bike_id": "b4679eed550a2f2241554c770817a5ae", "rental_uris": {"android": "https://dc.lft.to/lastmile_qr_scan", "ios": "https://dc.lft.to/lastmile_qr_scan"}, "name": "b4679eed550a2f2241554c770817a5ae"}, {"lat": 38.916086166666666, "is_reserved": 0, "lon": -77.08534216666666, "fusion_lon": 0.0, "fusion_lat": 0.0, "is_disabled": 0, "type": "electric_scooter", "bike_id": "c6aee54b0c6a0a44fbfd6e6398111a0a", "rental_uris": {"android": "https://dc.lft.to/lastmile_qr_scan", "ios": "https://dc.lft.to/lastmile_qr_scan"}, "name": "c6aee54b0c6a0a44fbfd6e6398111a0a"}, {"lat": 38.9286175, "is_reserved": 0, "lon": -77.03295133333333, "fusion_lon": 0.0, "fusion_lat": 0.0, "is_disabled": 0, "type": "electric_scooter", "bike_id": "89b897a6b1554bbb2ecc494ffcda8d91", "rental_uris": {"android": "https://dc.lft.to/lastmile_qr_scan", "ios": "https://dc.lft.to/lastmile_qr_scan"}, "name": "89b897a6b1554bbb2ecc494ffcda8d91"}, {"lat": 38.907506166666664, "is_reserved": 0, "lon": -77.07163883333334, "fusion_lon": 0.0, "fusion_lat": 0.0, "is_disabled": 0, "type": "electric_scooter", "bike_id": "741d37e4aa62bfc1912dcf72ef0f1bd0", "rental_uris": {"android": "https://dc.lft.to/lastmile_qr_scan", "ios": "https://dc.lft.to/lastmile_qr_scan"}, "name": "741d37e4aa62bfc1912dcf72ef0f1bd0"}, {"lat": 38.984585, "is_reserved": 0, "lon": -76.97054916666667, "fusion_lon": 0.0, "fusion_lat": 0.0, "is_disabled": 0, "type": "electric_bike", "bike_id": "eaa526ea32444ba1d18e678738ac9740", "rental_uris": {"android": "https://dc.lft.to/lastmile_qr_scan", "ios": "https://dc.lft.to/lastmile_qr_scan"}, "name": "eaa526ea32444ba1d18e678738ac9740"}, {"lat": 38.91006616666667, "is_reserved": 0, "lon": -77.0366925, "fusion_lon": 0.0, "fusion_lat": 0.0, "is_disabled": 0, "type": "electric_scooter", "bike_id": "a0ad22da31b054eef7b3c3e6270bc27e", "rental_uris": {"android": "https://dc.lft.to/lastmile_qr_scan", "ios": "https://dc.lft.to/lastmile_qr_scan"}, "name": "a0ad22da31b054eef7b3c3e6270bc27e"}, {"lat": 38.90234233333334, "is_reserved": 0, "lon": -77.0380085, "fusion_lon": 0.0, "fusion_lat": 0.0, "is_disabled": 0, "type": "electric_scooter", "bike_id": "1656ee1cbb4095ea4f6f80093504337f", "rental_uris": {"android": "https://dc.lft.to/lastmile_qr_scan", "ios": "https://dc.lft.to/lastmile_qr_scan"}, "name": "1656ee1cbb4095ea4f6f80093504337f"}, {"lat": 38.91444466666667, "is_reserved": 0, "lon": -77.02191266666667, "fusion_lon": 0.0, "fusion_lat": 0.0, "is_disabled": 0, "type": "electric_scooter", "bike_id": "4ebc080663c932c4c180ceb936b5ae7f", "rental_uris": {"android": "https://dc.lft.to/lastmile_qr_scan", "ios": "https://dc.lft.to/lastmile_qr_scan"}, "name": "4ebc080663c932c4c180ceb936b5ae7f"}, {"lat": 38.900383, "is_reserved": 0, "lon": -76.9983785, "fusion_lon": 0.0, "fusion_lat": 0.0, "is_disabled": 0, "type": "electric_scooter", "bike_id": "684e24555415c8f5f873e3bfde2fb657", "rental_uris": {"android": "https://dc.lft.to/lastmile_qr_scan", "ios": "https://dc.lft.to/lastmile_qr_scan"}, "name": "684e24555415c8f5f873e3bfde2fb657"}, {"lat": 38.931040333333335, "is_reserved": 0, "lon": -77.03507633333334, "fusion_lon": 0.0, "fusion_lat": 0.0, "is_disabled": 0, "type": "electric_scooter", "bike_id": "c990d860f189060afa4bd45c2f36fe7b", "rental_uris": {"android": "https://dc.lft.to/lastmile_qr_scan", "ios": "https://dc.lft.to/lastmile_qr_scan"}, "name": "c990d860f189060afa4bd45c2f36fe7b"}, {"lat": 38.9016965, "is_reserved": 0, "lon": -77.03243, "fusion_lon": 0.0, "fusion_lat": 0.0, "is_disabled": 0, "type": "electric_scooter", "bike_id": "56db8b5e8873347c5ab7467b3d16f33e", "rental_uris": {"android": "https://dc.lft.to/lastmile_qr_scan", "ios": "https://dc.lft.to/lastmile_qr_scan"}, "name": "56db8b5e8873347c5ab7467b3d16f33e"}, {"lat": 38.896693166666665, "is_reserved": 0, "lon": -77.0054875, "fusion_lon": 0.0, "fusion_lat": 0.0, "is_disabled": 0, "type": "electric_scooter", "bike_id": "a0cee7912936dd6008fd10fb91155e9a", "rental_uris": {"android": "https://dc.lft.to/lastmile_qr_scan", "ios": "https://dc.lft.to/lastmile_qr_scan"}, "name": "a0cee7912936dd6008fd10fb91155e9a"}, {"lat": 38.92293766666667, "is_reserved": 0, "lon": -77.029657, "fusion_lon": 0.0, "fusion_lat": 0.0, "is_disabled": 0, "type": "electric_scooter", "bike_id": "171e3308a614e2608837184d916b163e", "rental_uris": {"android": "https://dc.lft.to/lastmile_qr_scan", "ios": "https://dc.lft.to/lastmile_qr_scan"}, "name": "171e3308a614e2608837184d916b163e"}, {"lat": 38.911795166666664, "is_reserved": 0, "lon": -77.0448035, "fusion_lon": 0.0, "fusion_lat": 0.0, "is_disabled": 0, "type": "electric_scooter", "bike_id": "515ae53dab3d922d0d3e4e92c9795f48", "rental_uris": {"android": "https://dc.lft.to/lastmile_qr_scan", "ios": "https://dc.lft.to/lastmile_qr_scan"}, "name": "515ae53dab3d922d0d3e4e92c9795f48"}, {"lat": 38.9206, "is_reserved": 0, "lon": -77.0422595, "fusion_lon": 0.0, "fusion_lat": 0.0, "is_disabled": 0, "type": "electric_scooter", "bike_id": "36fa151444d06027079c27f755a095bf", "rental_uris": {"android": "https://dc.lft.to/lastmile_qr_scan", "ios": "https://dc.lft.to/lastmile_qr_scan"}, "name": "36fa151444d06027079c27f755a095bf"}, {"lat": 38.94410833333333, "is_reserved": 0, "lon": -77.06391316666667, "fusion_lon": 0.0, "fusion_lat": 0.0, "is_disabled": 0, "type": "electric_scooter", "bike_id": "3404d6af6d88d117aa2aad920e340309", "rental_uris": {"android": "https://dc.lft.to/lastmile_qr_scan", "ios": "https://dc.lft.to/lastmile_qr_scan"}, "name": "3404d6af6d88d117aa2aad920e340309"}, {"lat": 38.908937333333334, "is_reserved": 0, "lon": -77.02807383333334, "fusion_lon": 0.0, "fusion_lat": 0.0, "is_disabled": 0, "type": "electric_scooter", "bike_id": "135f44f38ca81b6d629e86044673211a", "rental_uris": {"android": "https://dc.lft.to/lastmile_qr_scan", "ios": "https://dc.lft.to/lastmile_qr_scan"}, "name": "135f44f38ca81b6d629e86044673211a"}, {"lat": 38.917995, "is_reserved": 0, "lon": -77.03441366666667, "fusion_lon": 0.0, "fusion_lat": 0.0, "is_disabled": 0, "type": "electric_scooter", "bike_id": "5c3a2e41caafb1ca4f25781a85da965a", "rental_uris": {"android": "https://dc.lft.to/lastmile_qr_scan", "ios": "https://dc.lft.to/lastmile_qr_scan"}, "name": "5c3a2e41caafb1ca4f25781a85da965a"}, {"lat": 38.897305833333334, "is_reserved": 0, "lon": -77.01957783333333, "fusion_lon": 0.0, "fusion_lat": 0.0, "is_disabled": 0, "type": "electric_scooter", "bike_id": "7a7f9b9b64635a6e86abc59f81f35fb2", "rental_uris": {"android": "https://dc.lft.to/lastmile_qr_scan", "ios": "https://dc.lft.to/lastmile_qr_scan"}, "name": "7a7f9b9b64635a6e86abc59f81f35fb2"}, {"lat": 38.93172766666667, "is_reserved": 0, "lon": -77.0562335, "fusion_lon": 0.0, "fusion_lat": 0.0, "is_disabled": 0, "type": "electric_scooter", "bike_id": "1fca99072bbafa082f4cebf387e34a70", "rental_uris": {"android": "https://dc.lft.to/lastmile_qr_scan", "ios": "https://dc.lft.to/lastmile_qr_scan"}, "name": "1fca99072bbafa082f4cebf387e34a70"}, {"lat": 38.89879466666667, "is_reserved": 0, "lon": -77.033241, "fusion_lon": 0.0, "fusion_lat": 0.0, "is_disabled": 0, "type": "electric_scooter", "bike_id": "ec62bea0a28c7ac54d5e0e60b7c77637", "rental_uris": {"android": "https://dc.lft.to/lastmile_qr_scan", "ios": "https://dc.lft.to/lastmile_qr_scan"}, "name": "ec62bea0a28c7ac54d5e0e60b7c77637"}, {"lat": 38.9111335, "is_reserved": 0, "lon": -77.03148666666667, "fusion_lon": 0.0, "fusion_lat": 0.0, "is_disabled": 0, "type": "electric_scooter", "bike_id": "848eac88f9c3ef52cbb4b208a6f51a85", "rental_uris": {"android": "https://dc.lft.to/lastmile_qr_scan", "ios": "https://dc.lft.to/lastmile_qr_scan"}, "name": "848eac88f9c3ef52cbb4b208a6f51a85"}, {"lat": 38.916026, "is_reserved": 0, "lon": -77.01741016666666, "fusion_lon": 0.0, "fusion_lat": 0.0, "is_disabled": 0, "type": "electric_scooter", "bike_id": "f3931f87a0ccfbc8bf8b460256755a4b", "rental_uris": {"android": "https://dc.lft.to/lastmile_qr_scan", "ios": "https://dc.lft.to/lastmile_qr_scan"}, "name": "f3931f87a0ccfbc8bf8b460256755a4b"}, {"lat": 38.92204916666667, "is_reserved": 0, "lon": -77.03405033333334, "fusion_lon": 0.0, "fusion_lat": 0.0, "is_disabled": 0, "type": "electric_scooter", "bike_id": "125470d52197b6766c2e57784cba501c", "rental_uris": {"android": "https://dc.lft.to/lastmile_qr_scan", "ios": "https://dc.lft.to/lastmile_qr_scan"}, "name": "125470d52197b6766c2e57784cba501c"}, {"lat": 38.91953683333333, "is_reserved": 0, "lon": -77.041537, "fusion_lon": 0.0, "fusion_lat": 0.0, "is_disabled": 0, "type": "electric_scooter", "bike_id": "2bef4016c9311e5e736f10e6d46467ce", "rental_uris": {"android": "https://dc.lft.to/lastmile_qr_scan", "ios": "https://dc.lft.to/lastmile_qr_scan"}, "name": "2bef4016c9311e5e736f10e6d46467ce"}, {"lat": 38.927445166666665, "is_reserved": 0, "lon": -77.054087, "fusion_lon": 0.0, "fusion_lat": 0.0, "is_disabled": 0, "type": "electric_scooter", "bike_id": "edd3fb2fdff28e5b10da670bbe141d62", "rental_uris": {"android": "https://dc.lft.to/lastmile_qr_scan", "ios": "https://dc.lft.to/lastmile_qr_scan"}, "name": "edd3fb2fdff28e5b10da670bbe141d62"}, {"lat": 38.90862933333333, "is_reserved": 0, "lon": -77.04258183333333, "fusion_lon": 0.0, "fusion_lat": 0.0, "is_disabled": 0, "type": "electric_scooter", "bike_id": "0e331cbf48cc623911df2bed6f5a8517", "rental_uris": {"android": "https://dc.lft.to/lastmile_qr_scan", "ios": "https://dc.lft.to/lastmile_qr_scan"}, "name": "0e331cbf48cc623911df2bed6f5a8517"}, {"lat": 38.91618583333333, "is_reserved": 0, "lon": -77.03048133333333, "fusion_lon": 0.0, "fusion_lat": 0.0, "is_disabled": 0, "type": "electric_scooter", "bike_id": "cbaffa95fa02eddfdcc6d2588cc2c8c0", "rental_uris": {"android": "https://dc.lft.to/lastmile_qr_scan", "ios": "https://dc.lft.to/lastmile_qr_scan"}, "name": "cbaffa95fa02eddfdcc6d2588cc2c8c0"}, {"lat": 38.8737875, "is_reserved": 0, "lon": -77.00065766666667, "fusion_lon": 0.0, "fusion_lat": 0.0, "is_disabled": 0, "type": "electric_scooter", "bike_id": "288e8f91cdef3835992f4942ca14a82e", "rental_uris": {"android": "https://dc.lft.to/lastmile_qr_scan", "ios": "https://dc.lft.to/lastmile_qr_scan"}, "name": "288e8f91cdef3835992f4942ca14a82e"}, {"lat": 38.9181645, "is_reserved": 0, "lon": -77.02716166666667, "fusion_lon": 0.0, "fusion_lat": 0.0, "is_disabled": 0, "type": "electric_scooter", "bike_id": "2787ccc139effcd95591533b85e2afe8", "rental_uris": {"android": "https://dc.lft.to/lastmile_qr_scan", "ios": "https://dc.lft.to/lastmile_qr_scan"}, "name": "2787ccc139effcd95591533b85e2afe8"}, {"lat": 38.90574766666667, "is_reserved": 0, "lon": -77.01506183333333, "fusion_lon": 0.0, "fusion_lat": 0.0, "is_disabled": 0, "type": "electric_scooter", "bike_id": "55fb71814569f4fa41ba190f83dc94d5", "rental_uris": {"android": "https://dc.lft.to/lastmile_qr_scan", "ios": "https://dc.lft.to/lastmile_qr_scan"}, "name": "55fb71814569f4fa41ba190f83dc94d5"}, {"lat": 38.902846, "is_reserved": 0, "lon": -77.04689133333333, "fusion_lon": 0.0, "fusion_lat": 0.0, "is_disabled": 0, "type": "electric_scooter", "bike_id": "09911f032527f906f7bef3ae5e67ea7f", "rental_uris": {"android": "https://dc.lft.to/lastmile_qr_scan", "ios": "https://dc.lft.to/lastmile_qr_scan"}, "name": "09911f032527f906f7bef3ae5e67ea7f"}, {"lat": 38.88117783333333, "is_reserved": 0, "lon": -77.01650883333333, "fusion_lon": 0.0, "fusion_lat": 0.0, "is_disabled": 0, "type": "electric_scooter", "bike_id": "5af829c43920210ce238e6d510c08c58", "rental_uris": {"android": "https://dc.lft.to/lastmile_qr_scan", "ios": "https://dc.lft.to/lastmile_qr_scan"}, "name": "5af829c43920210ce238e6d510c08c58"}, {"lat": 38.91316116666667, "is_reserved": 0, "lon": -77.018946, "fusion_lon": 0.0, "fusion_lat": 0.0, "is_disabled": 0, "type": "electric_scooter", "bike_id": "611afa981360e98dc33635a38caf6e15", "rental_uris": {"android": "https://dc.lft.to/lastmile_qr_scan", "ios": "https://dc.lft.to/lastmile_qr_scan"}, "name": "611afa981360e98dc33635a38caf6e15"}, {"lat": 38.898314, "is_reserved": 0, "lon": -77.04545133333333, "fusion_lon": 0.0, "fusion_lat": 0.0, "is_disabled": 0, "type": "electric_scooter", "bike_id": "9c58784dfe753580e58016ae2eb0fbdf", "rental_uris": {"android": "https://dc.lft.to/lastmile_qr_scan", "ios": "https://dc.lft.to/lastmile_qr_scan"}, "name": "9c58784dfe753580e58016ae2eb0fbdf"}, {"lat": 38.901546833333335, "is_reserved": 0, "lon": -76.97692683333334, "fusion_lon": 0.0, "fusion_lat": 0.0, "is_disabled": 0, "type": "electric_bike", "bike_id": "0a31cd532e25c882840b0475f7da63e3", "rental_uris": {"android": "https://dc.lft.to/lastmile_qr_scan", "ios": "https://dc.lft.to/lastmile_qr_scan"}, "name": "0a31cd532e25c882840b0475f7da63e3"}, {"lat": 38.8771515, "is_reserved": 0, "lon": -77.00328516666667, "fusion_lon": 0.0, "fusion_lat": 0.0, "is_disabled": 0, "type": "electric_scooter", "bike_id": "1c9b8b4e97f6b7c17b9aed3bde9f1faa", "rental_uris": {"android": "https://dc.lft.to/lastmile_qr_scan", "ios": "https://dc.lft.to/lastmile_qr_scan"}, "name": "1c9b8b4e97f6b7c17b9aed3bde9f1faa"}, {"lat": 38.906853, "is_reserved": 0, "lon": -77.02696166666666, "fusion_lon": 0.0, "fusion_lat": 0.0, "is_disabled": 0, "type": "electric_scooter", "bike_id": "9cc9dedb43f869f66e2b8ea9bce8def2", "rental_uris": {"android": "https://dc.lft.to/lastmile_qr_scan", "ios": "https://dc.lft.to/lastmile_qr_scan"}, "name": "9cc9dedb43f869f66e2b8ea9bce8def2"}, {"lat": 38.902499, "is_reserved": 0, "lon": -77.01726983333333, "fusion_lon": 0.0, "fusion_lat": 0.0, "is_disabled": 0, "type": "electric_bike", "bike_id": "b71b66a27e5c9c414497565892c3377b", "rental_uris": {"android": "https://dc.lft.to/lastmile_qr_scan", "ios": "https://dc.lft.to/lastmile_qr_scan"}, "name": "b71b66a27e5c9c414497565892c3377b"}, {"lat": 38.9259045, "is_reserved": 0, "lon": -77.03223766666666, "fusion_lon": 0.0, "fusion_lat": 0.0, "is_disabled": 0, "type": "electric_scooter", "bike_id": "be92271bc406a8b04874f87c560d422b", "rental_uris": {"android": "https://dc.lft.to/lastmile_qr_scan", "ios": "https://dc.lft.to/lastmile_qr_scan"}, "name": "be92271bc406a8b04874f87c560d422b"}, {"lat": 38.90047233333333, "is_reserved": 0, "lon": -77.00070833333334, "fusion_lon": 0.0, "fusion_lat": 0.0, "is_disabled": 0, "type": "electric_scooter", "bike_id": "bca6b6610cc9e67df79982a866077cad", "rental_uris": {"android": "https://dc.lft.to/lastmile_qr_scan", "ios": "https://dc.lft.to/lastmile_qr_scan"}, "name": "bca6b6610cc9e67df79982a866077cad"}, {"lat": 38.8962135, "is_reserved": 0, "lon": -77.039534, "fusion_lon": 0.0, "fusion_lat": 0.0, "is_disabled": 0, "type": "electric_scooter", "bike_id": "68f19f8b7911101d5c3367a2a795b6ad", "rental_uris": {"android": "https://dc.lft.to/lastmile_qr_scan", "ios": "https://dc.lft.to/lastmile_qr_scan"}, "name": "68f19f8b7911101d5c3367a2a795b6ad"}, {"lat": 38.90040283333333, "is_reserved": 0, "lon": -76.9981075, "fusion_lon": 0.0, "fusion_lat": 0.0, "is_disabled": 0, "type": "electric_scooter", "bike_id": "2c12c2eac9f95ac6ffd0c52fefcf9505", "rental_uris": {"android": "https://dc.lft.to/lastmile_qr_scan", "ios": "https://dc.lft.to/lastmile_qr_scan"}, "name": "2c12c2eac9f95ac6ffd0c52fefcf9505"}, {"lat": 38.8650405, "is_reserved": 0, "lon": -76.990127, "fusion_lon": 0.0, "fusion_lat": 0.0, "is_disabled": 0, "type": "electric_scooter", "bike_id": "f47c50ee49d276fb3c845187fef6ff9e", "rental_uris": {"android": "https://dc.lft.to/lastmile_qr_scan", "ios": "https://dc.lft.to/lastmile_qr_scan"}, "name": "f47c50ee49d276fb3c845187fef6ff9e"}, {"lat": 38.86236733333333, "is_reserved": 0, "lon": -76.952826, "fusion_lon": 0.0, "fusion_lat": 0.0, "is_disabled": 0, "type": "electric_bike", "bike_id": "e1d42ac96b52f01fa1b97cc235b76d80", "rental_uris": {"android": "https://dc.lft.to/lastmile_qr_scan", "ios": "https://dc.lft.to/lastmile_qr_scan"}, "name": "e1d42ac96b52f01fa1b97cc235b76d80"}, {"lat": 38.884336, "is_reserved": 0, "lon": -77.0034985, "fusion_lon": 0.0, "fusion_lat": 0.0, "is_disabled": 0, "type": "electric_scooter", "bike_id": "adf2557f15e8189abf126c1bf4372e93", "rental_uris": {"android": "https://dc.lft.to/lastmile_qr_scan", "ios": "https://dc.lft.to/lastmile_qr_scan"}, "name": "adf2557f15e8189abf126c1bf4372e93"}, {"lat": 38.90352733333334, "is_reserved": 0, "lon": -77.04527616666667, "fusion_lon": 0.0, "fusion_lat": 0.0, "is_disabled": 0, "type": "electric_scooter", "bike_id": "933efa2b7120d50a4f470782b8631835", "rental_uris": {"android": "https://dc.lft.to/lastmile_qr_scan", "ios": "https://dc.lft.to/lastmile_qr_scan"}, "name": "933efa2b7120d50a4f470782b8631835"}, {"lat": 38.902414, "is_reserved": 0, "lon": -77.00193916666667, "fusion_lon": 0.0, "fusion_lat": 0.0, "is_disabled": 0, "type": "electric_scooter", "bike_id": "91993be5cab1a268e0db2c270af6e0be", "rental_uris": {"android": "https://dc.lft.to/lastmile_qr_scan", "ios": "https://dc.lft.to/lastmile_qr_scan"}, "name": "91993be5cab1a268e0db2c270af6e0be"}, {"lat": 38.939075, "is_reserved": 0, "lon": -77.06073033333334, "fusion_lon": 0.0, "fusion_lat": 0.0, "is_disabled": 0, "type": "electric_scooter", "bike_id": "9f56d0a24113f0cd3b72b400607a66fd", "rental_uris": {"android": "https://dc.lft.to/lastmile_qr_scan", "ios": "https://dc.lft.to/lastmile_qr_scan"}, "name": "9f56d0a24113f0cd3b72b400607a66fd"}, {"lat": 38.9086045, "is_reserved": 0, "lon": -77.040692, "fusion_lon": 0.0, "fusion_lat": 0.0, "is_disabled": 0, "type": "electric_scooter", "bike_id": "1f61f591cee9388d089bc2d40ebf9982", "rental_uris": {"android": "https://dc.lft.to/lastmile_qr_scan", "ios": "https://dc.lft.to/lastmile_qr_scan"}, "name": "1f61f591cee9388d089bc2d40ebf9982"}, {"lat": 38.90264783333333, "is_reserved": 0, "lon": -77.003251, "fusion_lon": 0.0, "fusion_lat": 0.0, "is_disabled": 0, "type": "electric_scooter", "bike_id": "e268a72017baee51cd2b28c85a022d56", "rental_uris": {"android": "https://dc.lft.to/lastmile_qr_scan", "ios": "https://dc.lft.to/lastmile_qr_scan"}, "name": "e268a72017baee51cd2b28c85a022d56"}, {"lat": 38.899641, "is_reserved": 0, "lon": -77.04511433333333, "fusion_lon": 0.0, "fusion_lat": 0.0, "is_disabled": 0, "type": "electric_scooter", "bike_id": "ffe45fdd78fdf133c50d0b82b7da7ab5", "rental_uris": {"android": "https://dc.lft.to/lastmile_qr_scan", "ios": "https://dc.lft.to/lastmile_qr_scan"}, "name": "ffe45fdd78fdf133c50d0b82b7da7ab5"}, {"lat": 38.91485516666667, "is_reserved": 0, "lon": -77.02174616666667, "fusion_lon": 0.0, "fusion_lat": 0.0, "is_disabled": 0, "type": "electric_scooter", "bike_id": "4af7d5326ab615e46b2a85af198c835c", "rental_uris": {"android": "https://dc.lft.to/lastmile_qr_scan", "ios": "https://dc.lft.to/lastmile_qr_scan"}, "name": "4af7d5326ab615e46b2a85af198c835c"}, {"lat": 38.918652333333334, "is_reserved": 0, "lon": -77.041583, "fusion_lon": 0.0, "fusion_lat": 0.0, "is_disabled": 0, "type": "electric_scooter", "bike_id": "3cea5f65cf8cd89d10c0be094c32d7d0", "rental_uris": {"android": "https://dc.lft.to/lastmile_qr_scan", "ios": "https://dc.lft.to/lastmile_qr_scan"}, "name": "3cea5f65cf8cd89d10c0be094c32d7d0"}, {"lat": 38.928247166666665, "is_reserved": 0, "lon": -77.02255083333333, "fusion_lon": 0.0, "fusion_lat": 0.0, "is_disabled": 0, "type": "electric_scooter", "bike_id": "ca6e6009f5713054b02ae7d8d9d4c363", "rental_uris": {"android": "https://dc.lft.to/lastmile_qr_scan", "ios": "https://dc.lft.to/lastmile_qr_scan"}, "name": "ca6e6009f5713054b02ae7d8d9d4c363"}, {"lat": 38.893513166666665, "is_reserved": 0, "lon": -77.18743333333333, "fusion_lon": 0.0, "fusion_lat": 0.0, "is_disabled": 0, "type": "electric_bike", "bike_id": "7b310dd244896d46fe58fe5ad677b3d2", "rental_uris": {"android": "https://dc.lft.to/lastmile_qr_scan", "ios": "https://dc.lft.to/lastmile_qr_scan"}, "name": "7b310dd244896d46fe58fe5ad677b3d2"}, {"lat": 38.89606033333333, "is_reserved": 0, "lon": -77.02657166666667, "fusion_lon": 0.0, "fusion_lat": 0.0, "is_disabled": 0, "type": "electric_scooter", "bike_id": "b54bb42d6f1bf60273cb9233bb9fae28", "rental_uris": {"android": "https://dc.lft.to/lastmile_qr_scan", "ios": "https://dc.lft.to/lastmile_qr_scan"}, "name": "b54bb42d6f1bf60273cb9233bb9fae28"}, {"lat": 38.91318316666667, "is_reserved": 0, "lon": -77.03331033333333, "fusion_lon": 0.0, "fusion_lat": 0.0, "is_disabled": 0, "type": "electric_scooter", "bike_id": "cad1954c1a9485840e0f0f987c62808f", "rental_uris": {"android": "https://dc.lft.to/lastmile_qr_scan", "ios": "https://dc.lft.to/lastmile_qr_scan"}, "name": "cad1954c1a9485840e0f0f987c62808f"}, {"lat": 38.927819666666664, "is_reserved": 0, "lon": -77.05256433333334, "fusion_lon": 0.0, "fusion_lat": 0.0, "is_disabled": 0, "type": "electric_scooter", "bike_id": "b69e0455121b0d3b41b3c6807235b4d0", "rental_uris": {"android": "https://dc.lft.to/lastmile_qr_scan", "ios": "https://dc.lft.to/lastmile_qr_scan"}, "name": "b69e0455121b0d3b41b3c6807235b4d0"}, {"lat": 38.86249016666667, "is_reserved": 0, "lon": -76.99258166666667, "fusion_lon": 0.0, "fusion_lat": 0.0, "is_disabled": 0, "type": "electric_scooter", "bike_id": "21b37ba02faba8642c4fd0ee02b307f8", "rental_uris": {"android": "https://dc.lft.to/lastmile_qr_scan", "ios": "https://dc.lft.to/lastmile_qr_scan"}, "name": "21b37ba02faba8642c4fd0ee02b307f8"}, {"lat": 38.903100333333335, "is_reserved": 0, "lon": -77.03457616666667, "fusion_lon": 0.0, "fusion_lat": 0.0, "is_disabled": 0, "type": "electric_scooter", "bike_id": "ccfb93287985509f042a6b958346b027", "rental_uris": {"android": "https://dc.lft.to/lastmile_qr_scan", "ios": "https://dc.lft.to/lastmile_qr_scan"}, "name": "ccfb93287985509f042a6b958346b027"}, {"lat": 38.9066725, "is_reserved": 0, "lon": -77.07133766666666, "fusion_lon": 0.0, "fusion_lat": 0.0, "is_disabled": 0, "type": "electric_scooter", "bike_id": "67dc8e1f3c1878b65ac8a667a4e7c160", "rental_uris": {"android": "https://dc.lft.to/lastmile_qr_scan", "ios": "https://dc.lft.to/lastmile_qr_scan"}, "name": "67dc8e1f3c1878b65ac8a667a4e7c160"}, {"lat": 38.92627366666667, "is_reserved": 0, "lon": -77.03786616666666, "fusion_lon": 0.0, "fusion_lat": 0.0, "is_disabled": 0, "type": "electric_scooter", "bike_id": "7154a7eed20c4861a741fff762af2b36", "rental_uris": {"android": "https://dc.lft.to/lastmile_qr_scan", "ios": "https://dc.lft.to/lastmile_qr_scan"}, "name": "7154a7eed20c4861a741fff762af2b36"}, {"lat": 38.898427166666664, "is_reserved": 0, "lon": -77.03314883333333, "fusion_lon": 0.0, "fusion_lat": 0.0, "is_disabled": 0, "type": "electric_scooter", "bike_id": "f7d8b09daec67bed2fb3fe424a68aa3d", "rental_uris": {"android": "https://dc.lft.to/lastmile_qr_scan", "ios": "https://dc.lft.to/lastmile_qr_scan"}, "name": "f7d8b09daec67bed2fb3fe424a68aa3d"}, {"lat": 38.90982316666667, "is_reserved": 0, "lon": -77.04264916666666, "fusion_lon": 0.0, "fusion_lat": 0.0, "is_disabled": 0, "type": "electric_scooter", "bike_id": "2149ad9408be9fb69b1cdba1571e21cd", "rental_uris": {"android": "https://dc.lft.to/lastmile_qr_scan", "ios": "https://dc.lft.to/lastmile_qr_scan"}, "name": "2149ad9408be9fb69b1cdba1571e21cd"}, {"lat": 38.878164, "is_reserved": 0, "lon": -76.97165416666667, "fusion_lon": 0.0, "fusion_lat": 0.0, "is_disabled": 0, "type": "electric_scooter", "bike_id": "f693b3e1c786a90b74ce8796662fdcea", "rental_uris": {"android": "https://dc.lft.to/lastmile_qr_scan", "ios": "https://dc.lft.to/lastmile_qr_scan"}, "name": "f693b3e1c786a90b74ce8796662fdcea"}, {"lat": 38.928651333333335, "is_reserved": 0, "lon": -77.0323565, "fusion_lon": 0.0, "fusion_lat": 0.0, "is_disabled": 0, "type": "electric_scooter", "bike_id": "78eeed8987ba9f567b0bc19a87621092", "rental_uris": {"android": "https://dc.lft.to/lastmile_qr_scan", "ios": "https://dc.lft.to/lastmile_qr_scan"}, "name": "78eeed8987ba9f567b0bc19a87621092"}, {"lat": 38.9192135, "is_reserved": 0, "lon": -77.0249795, "fusion_lon": 0.0, "fusion_lat": 0.0, "is_disabled": 0, "type": "electric_scooter", "bike_id": "71091afa6461b4bb0a0a274a6b148550", "rental_uris": {"android": "https://dc.lft.to/lastmile_qr_scan", "ios": "https://dc.lft.to/lastmile_qr_scan"}, "name": "71091afa6461b4bb0a0a274a6b148550"}, {"lat": 38.99092616666667, "is_reserved": 0, "lon": -76.99379666666667, "fusion_lon": 0.0, "fusion_lat": 0.0, "is_disabled": 0, "type": "electric_bike", "bike_id": "30a81b8d68ef8b9e7c860e73a79088e0", "rental_uris": {"android": "https://dc.lft.to/lastmile_qr_scan", "ios": "https://dc.lft.to/lastmile_qr_scan"}, "name": "30a81b8d68ef8b9e7c860e73a79088e0"}, {"lat": 38.89299916666667, "is_reserved": 0, "lon": -77.04505833333333, "fusion_lon": 0.0, "fusion_lat": 0.0, "is_disabled": 0, "type": "electric_scooter", "bike_id": "70111943de2546298c9cdf536b799a2a", "rental_uris": {"android": "https://dc.lft.to/lastmile_qr_scan", "ios": "https://dc.lft.to/lastmile_qr_scan"}, "name": "70111943de2546298c9cdf536b799a2a"}, {"lat": 38.90112216666667, "is_reserved": 0, "lon": -77.03166733333333, "fusion_lon": 0.0, "fusion_lat": 0.0, "is_disabled": 0, "type": "electric_scooter", "bike_id": "e016c8158395456739fec6572c9dc468", "rental_uris": {"android": "https://dc.lft.to/lastmile_qr_scan", "ios": "https://dc.lft.to/lastmile_qr_scan"}, "name": "e016c8158395456739fec6572c9dc468"}, {"lat": 38.916779166666664, "is_reserved": 0, "lon": -76.98175333333333, "fusion_lon": 0.0, "fusion_lat": 0.0, "is_disabled": 0, "type": "electric_scooter", "bike_id": "ea5bcd9834c2c5b393a34709df17a27d", "rental_uris": {"android": "https://dc.lft.to/lastmile_qr_scan", "ios": "https://dc.lft.to/lastmile_qr_scan"}, "name": "ea5bcd9834c2c5b393a34709df17a27d"}, {"lat": 38.92850716666667, "is_reserved": 0, "lon": -77.05424716666667, "fusion_lon": 0.0, "fusion_lat": 0.0, "is_disabled": 0, "type": "electric_scooter", "bike_id": "258e9ca3a5dd975d0b13500b4ab23ad4", "rental_uris": {"android": "https://dc.lft.to/lastmile_qr_scan", "ios": "https://dc.lft.to/lastmile_qr_scan"}, "name": "258e9ca3a5dd975d0b13500b4ab23ad4"}, {"lat": 38.91323783333333, "is_reserved": 0, "lon": -77.03185983333333, "fusion_lon": 0.0, "fusion_lat": 0.0, "is_disabled": 0, "type": "electric_scooter", "bike_id": "89d74e7e33213bd4b6884c64f1eb773b", "rental_uris": {"android": "https://dc.lft.to/lastmile_qr_scan", "ios": "https://dc.lft.to/lastmile_qr_scan"}, "name": "89d74e7e33213bd4b6884c64f1eb773b"}, {"lat": 38.895106166666665, "is_reserved": 0, "lon": -77.0033935, "fusion_lon": 0.0, "fusion_lat": 0.0, "is_disabled": 0, "type": "electric_scooter", "bike_id": "a86ee134c4cebd4a72666a61b06a4740", "rental_uris": {"android": "https://dc.lft.to/lastmile_qr_scan", "ios": "https://dc.lft.to/lastmile_qr_scan"}, "name": "a86ee134c4cebd4a72666a61b06a4740"}, {"lat": 38.90135, "is_reserved": 0, "lon": -77.041762, "fusion_lon": 0.0, "fusion_lat": 0.0, "is_disabled": 0, "type": "electric_scooter", "bike_id": "0907952c4f4c789363b7b1e44d9f7b79", "rental_uris": {"android": "https://dc.lft.to/lastmile_qr_scan", "ios": "https://dc.lft.to/lastmile_qr_scan"}, "name": "0907952c4f4c789363b7b1e44d9f7b79"}, {"lat": 38.8983075, "is_reserved": 0, "lon": -77.04429583333334, "fusion_lon": 0.0, "fusion_lat": 0.0, "is_disabled": 0, "type": "electric_scooter", "bike_id": "818e79b2ce41833cde685d4ab3cb69e4", "rental_uris": {"android": "https://dc.lft.to/lastmile_qr_scan", "ios": "https://dc.lft.to/lastmile_qr_scan"}, "name": "818e79b2ce41833cde685d4ab3cb69e4"}, {"lat": 38.89838616666667, "is_reserved": 0, "lon": -77.02624133333333, "fusion_lon": 0.0, "fusion_lat": 0.0, "is_disabled": 0, "type": "electric_scooter", "bike_id": "fe321fa678ed578526761243a6857fb4", "rental_uris": {"android": "https://dc.lft.to/lastmile_qr_scan", "ios": "https://dc.lft.to/lastmile_qr_scan"}, "name": "fe321fa678ed578526761243a6857fb4"}, {"lat": 38.88496883333333, "is_reserved": 0, "lon": -77.00891583333333, "fusion_lon": 0.0, "fusion_lat": 0.0, "is_disabled": 0, "type": "electric_scooter", "bike_id": "d6d1bb15566eac248646e807a5562370", "rental_uris": {"android": "https://dc.lft.to/lastmile_qr_scan", "ios": "https://dc.lft.to/lastmile_qr_scan"}, "name": "d6d1bb15566eac248646e807a5562370"}, {"lat": 38.902598166666664, "is_reserved": 0, "lon": -77.029992, "fusion_lon": 0.0, "fusion_lat": 0.0, "is_disabled": 0, "type": "electric_scooter", "bike_id": "b6a45566b63a4e23eb528eff60d47667", "rental_uris": {"android": "https://dc.lft.to/lastmile_qr_scan", "ios": "https://dc.lft.to/lastmile_qr_scan"}, "name": "b6a45566b63a4e23eb528eff60d47667"}, {"lat": 38.9170755, "is_reserved": 0, "lon": -77.02792216666667, "fusion_lon": 0.0, "fusion_lat": 0.0, "is_disabled": 0, "type": "electric_scooter", "bike_id": "0dc79ada20f209bf82f2d86a950e9309", "rental_uris": {"android": "https://dc.lft.to/lastmile_qr_scan", "ios": "https://dc.lft.to/lastmile_qr_scan"}, "name": "0dc79ada20f209bf82f2d86a950e9309"}, {"lat": 38.926173666666664, "is_reserved": 0, "lon": -77.04222316666667, "fusion_lon": 0.0, "fusion_lat": 0.0, "is_disabled": 0, "type": "electric_scooter", "bike_id": "5fbb096b6156c4c18fc11d5787b712c8", "rental_uris": {"android": "https://dc.lft.to/lastmile_qr_scan", "ios": "https://dc.lft.to/lastmile_qr_scan"}, "name": "5fbb096b6156c4c18fc11d5787b712c8"}, {"lat": 38.93430933333333, "is_reserved": 0, "lon": -77.0558595, "fusion_lon": 0.0, "fusion_lat": 0.0, "is_disabled": 0, "type": "electric_scooter", "bike_id": "fea8865b73ab6a8c67cba0bbb416a92f", "rental_uris": {"android": "https://dc.lft.to/lastmile_qr_scan", "ios": "https://dc.lft.to/lastmile_qr_scan"}, "name": "fea8865b73ab6a8c67cba0bbb416a92f"}, {"lat": 38.95624683333333, "is_reserved": 0, "lon": -77.02915083333333, "fusion_lon": 0.0, "fusion_lat": 0.0, "is_disabled": 0, "type": "electric_scooter", "bike_id": "ad40ed54b3b9703ef70573c8c819ae66", "rental_uris": {"android": "https://dc.lft.to/lastmile_qr_scan", "ios": "https://dc.lft.to/lastmile_qr_scan"}, "name": "ad40ed54b3b9703ef70573c8c819ae66"}, {"lat": 38.8761585, "is_reserved": 0, "lon": -77.0056735, "fusion_lon": 0.0, "fusion_lat": 0.0, "is_disabled": 0, "type": "electric_scooter", "bike_id": "38cf856d19219403540a69581c399b6a", "rental_uris": {"android": "https://dc.lft.to/lastmile_qr_scan", "ios": "https://dc.lft.to/lastmile_qr_scan"}, "name": "38cf856d19219403540a69581c399b6a"}, {"lat": 38.9402155, "is_reserved": 0, "lon": -76.9921935, "fusion_lon": 0.0, "fusion_lat": 0.0, "is_disabled": 0, "type": "electric_bike", "bike_id": "d039d6a4e238cfec1db084beed35dd6a", "rental_uris": {"android": "https://dc.lft.to/lastmile_qr_scan", "ios": "https://dc.lft.to/lastmile_qr_scan"}, "name": "d039d6a4e238cfec1db084beed35dd6a"}, {"lat": 38.901978, "is_reserved": 0, "lon": -76.982092, "fusion_lon": 0.0, "fusion_lat": 0.0, "is_disabled": 0, "type": "electric_scooter", "bike_id": "4ae60c0729faa840853a65f85d7b06b8", "rental_uris": {"android": "https://dc.lft.to/lastmile_qr_scan", "ios": "https://dc.lft.to/lastmile_qr_scan"}, "name": "4ae60c0729faa840853a65f85d7b06b8"}, {"lat": 38.909446333333335, "is_reserved": 0, "lon": -77.034513, "fusion_lon": 0.0, "fusion_lat": 0.0, "is_disabled": 0, "type": "electric_scooter", "bike_id": "af8605646aaa564799e274f1dcb01355", "rental_uris": {"android": "https://dc.lft.to/lastmile_qr_scan", "ios": "https://dc.lft.to/lastmile_qr_scan"}, "name": "af8605646aaa564799e274f1dcb01355"}, {"lat": 38.91764833333333, "is_reserved": 0, "lon": -77.03850683333333, "fusion_lon": 0.0, "fusion_lat": 0.0, "is_disabled": 0, "type": "electric_scooter", "bike_id": "83d472ed7a4e8bae47e2a994e4f7e081", "rental_uris": {"android": "https://dc.lft.to/lastmile_qr_scan", "ios": "https://dc.lft.to/lastmile_qr_scan"}, "name": "83d472ed7a4e8bae47e2a994e4f7e081"}, {"lat": 38.92849366666667, "is_reserved": 0, "lon": -77.0542585, "fusion_lon": 0.0, "fusion_lat": 0.0, "is_disabled": 0, "type": "electric_scooter", "bike_id": "0780407db5ef6df15de2af2558c022b3", "rental_uris": {"android": "https://dc.lft.to/lastmile_qr_scan", "ios": "https://dc.lft.to/lastmile_qr_scan"}, "name": "0780407db5ef6df15de2af2558c022b3"}, {"lat": 38.903782166666666, "is_reserved": 0, "lon": -77.0319475, "fusion_lon": 0.0, "fusion_lat": 0.0, "is_disabled": 0, "type": "electric_scooter", "bike_id": "06495a5bb7568d47a2566ff1d205de82", "rental_uris": {"android": "https://dc.lft.to/lastmile_qr_scan", "ios": "https://dc.lft.to/lastmile_qr_scan"}, "name": "06495a5bb7568d47a2566ff1d205de82"}, {"lat": 38.89229366666667, "is_reserved": 0, "lon": -77.02384233333333, "fusion_lon": 0.0, "fusion_lat": 0.0, "is_disabled": 0, "type": "electric_scooter", "bike_id": "2f6f998d7f2871a372c9748aaba96adf", "rental_uris": {"android": "https://dc.lft.to/lastmile_qr_scan", "ios": "https://dc.lft.to/lastmile_qr_scan"}, "name": "2f6f998d7f2871a372c9748aaba96adf"}, {"lat": 38.9149835, "is_reserved": 0, "lon": -77.01219416666666, "fusion_lon": 0.0, "fusion_lat": 0.0, "is_disabled": 0, "type": "electric_scooter", "bike_id": "ffb834cf90a37c7d5476c0afae17f709", "rental_uris": {"android": "https://dc.lft.to/lastmile_qr_scan", "ios": "https://dc.lft.to/lastmile_qr_scan"}, "name": "ffb834cf90a37c7d5476c0afae17f709"}, {"lat": 38.911124, "is_reserved": 0, "lon": -77.03920483333333, "fusion_lon": 0.0, "fusion_lat": 0.0, "is_disabled": 0, "type": "electric_scooter", "bike_id": "edbc45f3320c4ef37157e0ddaadc1cde", "rental_uris": {"android": "https://dc.lft.to/lastmile_qr_scan", "ios": "https://dc.lft.to/lastmile_qr_scan"}, "name": "edbc45f3320c4ef37157e0ddaadc1cde"}, {"lat": 38.897312666666664, "is_reserved": 0, "lon": -77.025762, "fusion_lon": 0.0, "fusion_lat": 0.0, "is_disabled": 0, "type": "electric_scooter", "bike_id": "cb13512e86e268fa0e8f563e063a3087", "rental_uris": {"android": "https://dc.lft.to/lastmile_qr_scan", "ios": "https://dc.lft.to/lastmile_qr_scan"}, "name": "cb13512e86e268fa0e8f563e063a3087"}, {"lat": 38.897543666666664, "is_reserved": 0, "lon": -77.0300435, "fusion_lon": 0.0, "fusion_lat": 0.0, "is_disabled": 0, "type": "electric_scooter", "bike_id": "a44ab030faedf4cf1a2bf96bfcda3afa", "rental_uris": {"android": "https://dc.lft.to/lastmile_qr_scan", "ios": "https://dc.lft.to/lastmile_qr_scan"}, "name": "a44ab030faedf4cf1a2bf96bfcda3afa"}, {"lat": 38.91143833333334, "is_reserved": 0, "lon": -77.00662916666667, "fusion_lon": 0.0, "fusion_lat": 0.0, "is_disabled": 0, "type": "electric_scooter", "bike_id": "1b1840482a0affdb57621ac032307139", "rental_uris": {"android": "https://dc.lft.to/lastmile_qr_scan", "ios": "https://dc.lft.to/lastmile_qr_scan"}, "name": "1b1840482a0affdb57621ac032307139"}, {"lat": 38.90085166666667, "is_reserved": 0, "lon": -76.98337616666667, "fusion_lon": 0.0, "fusion_lat": 0.0, "is_disabled": 0, "type": "electric_scooter", "bike_id": "3ecfdd9fd9f2b1d1b5da9a0d1dbc2449", "rental_uris": {"android": "https://dc.lft.to/lastmile_qr_scan", "ios": "https://dc.lft.to/lastmile_qr_scan"}, "name": "3ecfdd9fd9f2b1d1b5da9a0d1dbc2449"}, {"lat": 38.946142333333334, "is_reserved": 0, "lon": -77.096755, "fusion_lon": 0.0, "fusion_lat": 0.0, "is_disabled": 0, "type": "electric_bike", "bike_id": "cf05c87e85f02fe1446489ea84e9133e", "rental_uris": {"android": "https://dc.lft.to/lastmile_qr_scan", "ios": "https://dc.lft.to/lastmile_qr_scan"}, "name": "cf05c87e85f02fe1446489ea84e9133e"}, {"lat": 38.8935525, "is_reserved": 0, "lon": -76.92592333333333, "fusion_lon": 0.0, "fusion_lat": 0.0, "is_disabled": 0, "type": "electric_scooter", "bike_id": "b2c58d1beb1a317d9ebf8707d0714e8f", "rental_uris": {"android": "https://dc.lft.to/lastmile_qr_scan", "ios": "https://dc.lft.to/lastmile_qr_scan"}, "name": "b2c58d1beb1a317d9ebf8707d0714e8f"}, {"lat": 38.906429333333335, "is_reserved": 0, "lon": -77.03901266666666, "fusion_lon": 0.0, "fusion_lat": 0.0, "is_disabled": 0, "type": "electric_scooter", "bike_id": "79b80a70181de916d8d9d48472101b62", "rental_uris": {"android": "https://dc.lft.to/lastmile_qr_scan", "ios": "https://dc.lft.to/lastmile_qr_scan"}, "name": "79b80a70181de916d8d9d48472101b62"}, {"lat": 38.887136166666664, "is_reserved": 0, "lon": -77.01781633333333, "fusion_lon": 0.0, "fusion_lat": 0.0, "is_disabled": 0, "type": "electric_scooter", "bike_id": "051fc3dc1117d9b8c0be7d5e6ba78c82", "rental_uris": {"android": "https://dc.lft.to/lastmile_qr_scan", "ios": "https://dc.lft.to/lastmile_qr_scan"}, "name": "051fc3dc1117d9b8c0be7d5e6ba78c82"}, {"lat": 38.900719333333335, "is_reserved": 0, "lon": -77.0271455, "fusion_lon": 0.0, "fusion_lat": 0.0, "is_disabled": 0, "type": "electric_scooter", "bike_id": "efb05ec7ad9c0c0c4952f003d937a591", "rental_uris": {"android": "https://dc.lft.to/lastmile_qr_scan", "ios": "https://dc.lft.to/lastmile_qr_scan"}, "name": "efb05ec7ad9c0c0c4952f003d937a591"}, {"lat": 38.89748016666667, "is_reserved": 0, "lon": -77.02503516666667, "fusion_lon": 0.0, "fusion_lat": 0.0, "is_disabled": 0, "type": "electric_scooter", "bike_id": "563e0f227fcbc0ffdfca35146f0f7b6b", "rental_uris": {"android": "https://dc.lft.to/lastmile_qr_scan", "ios": "https://dc.lft.to/lastmile_qr_scan"}, "name": "563e0f227fcbc0ffdfca35146f0f7b6b"}, {"lat": 38.91099716666667, "is_reserved": 0, "lon": -77.02232666666667, "fusion_lon": 0.0, "fusion_lat": 0.0, "is_disabled": 0, "type": "electric_scooter", "bike_id": "17702b19c246693cfaa808830cc80b66", "rental_uris": {"android": "https://dc.lft.to/lastmile_qr_scan", "ios": "https://dc.lft.to/lastmile_qr_scan"}, "name": "17702b19c246693cfaa808830cc80b66"}, {"lat": 38.90171616666667, "is_reserved": 0, "lon": -76.92657216666667, "fusion_lon": 0.0, "fusion_lat": 0.0, "is_disabled": 0, "type": "electric_scooter", "bike_id": "651e2f72afad7feb6ab423da8d8922dc", "rental_uris": {"android": "https://dc.lft.to/lastmile_qr_scan", "ios": "https://dc.lft.to/lastmile_qr_scan"}, "name": "651e2f72afad7feb6ab423da8d8922dc"}, {"lat": 38.97369166666667, "is_reserved": 0, "lon": -77.0185695, "fusion_lon": 0.0, "fusion_lat": 0.0, "is_disabled": 0, "type": "electric_scooter", "bike_id": "f7fee774c24e04cde79261c6ef9e7bdc", "rental_uris": {"android": "https://dc.lft.to/lastmile_qr_scan", "ios": "https://dc.lft.to/lastmile_qr_scan"}, "name": "f7fee774c24e04cde79261c6ef9e7bdc"}, {"lat": 38.89821333333333, "is_reserved": 0, "lon": -77.02941416666667, "fusion_lon": 0.0, "fusion_lat": 0.0, "is_disabled": 0, "type": "electric_scooter", "bike_id": "68017d31d6804350ef8ecbdf58fac437", "rental_uris": {"android": "https://dc.lft.to/lastmile_qr_scan", "ios": "https://dc.lft.to/lastmile_qr_scan"}, "name": "68017d31d6804350ef8ecbdf58fac437"}, {"lat": 38.92022016666667, "is_reserved": 0, "lon": -77.010313, "fusion_lon": 0.0, "fusion_lat": 0.0, "is_disabled": 0, "type": "electric_scooter", "bike_id": "8343a0da1a8ae537ad513a8b6daf7006", "rental_uris": {"android": "https://dc.lft.to/lastmile_qr_scan", "ios": "https://dc.lft.to/lastmile_qr_scan"}, "name": "8343a0da1a8ae537ad513a8b6daf7006"}, {"lat": 38.9056715, "is_reserved": 0, "lon": -77.02494166666666, "fusion_lon": 0.0, "fusion_lat": 0.0, "is_disabled": 0, "type": "electric_scooter", "bike_id": "1ca194ed090870d94867b67d68a209ed", "rental_uris": {"android": "https://dc.lft.to/lastmile_qr_scan", "ios": "https://dc.lft.to/lastmile_qr_scan"}, "name": "1ca194ed090870d94867b67d68a209ed"}, {"lat": 38.9003825, "is_reserved": 0, "lon": -76.99848666666666, "fusion_lon": 0.0, "fusion_lat": 0.0, "is_disabled": 0, "type": "electric_scooter", "bike_id": "6abba62e26db42d42009db504687ac8f", "rental_uris": {"android": "https://dc.lft.to/lastmile_qr_scan", "ios": "https://dc.lft.to/lastmile_qr_scan"}, "name": "6abba62e26db42d42009db504687ac8f"}, {"lat": 38.91691516666667, "is_reserved": 0, "lon": -77.0119815, "fusion_lon": 0.0, "fusion_lat": 0.0, "is_disabled": 0, "type": "electric_scooter", "bike_id": "e61e7d28dd082ba47f367de253a065ad", "rental_uris": {"android": "https://dc.lft.to/lastmile_qr_scan", "ios": "https://dc.lft.to/lastmile_qr_scan"}, "name": "e61e7d28dd082ba47f367de253a065ad"}, {"lat": 38.92052266666666, "is_reserved": 0, "lon": -77.033608, "fusion_lon": 0.0, "fusion_lat": 0.0, "is_disabled": 0, "type": "electric_scooter", "bike_id": "4f1ba449141e07e246cad87d766d6adf", "rental_uris": {"android": "https://dc.lft.to/lastmile_qr_scan", "ios": "https://dc.lft.to/lastmile_qr_scan"}, "name": "4f1ba449141e07e246cad87d766d6adf"}, {"lat": 38.90714, "is_reserved": 0, "lon": -77.01463933333334, "fusion_lon": 0.0, "fusion_lat": 0.0, "is_disabled": 0, "type": "electric_scooter", "bike_id": "5c2970113386ee721a4fc89fe69634f9", "rental_uris": {"android": "https://dc.lft.to/lastmile_qr_scan", "ios": "https://dc.lft.to/lastmile_qr_scan"}, "name": "5c2970113386ee721a4fc89fe69634f9"}, {"lat": 38.87156233333333, "is_reserved": 0, "lon": -77.0070315, "fusion_lon": 0.0, "fusion_lat": 0.0, "is_disabled": 0, "type": "electric_scooter", "bike_id": "c7bb4bfca0acf28cbb3495bfb110b4f9", "rental_uris": {"android": "https://dc.lft.to/lastmile_qr_scan", "ios": "https://dc.lft.to/lastmile_qr_scan"}, "name": "c7bb4bfca0acf28cbb3495bfb110b4f9"}, {"lat": 38.899156833333336, "is_reserved": 0, "lon": -77.02818466666666, "fusion_lon": 0.0, "fusion_lat": 0.0, "is_disabled": 0, "type": "electric_scooter", "bike_id": "5c461d4d71d7efadcc2045aa68515e8d", "rental_uris": {"android": "https://dc.lft.to/lastmile_qr_scan", "ios": "https://dc.lft.to/lastmile_qr_scan"}, "name": "5c461d4d71d7efadcc2045aa68515e8d"}, {"lat": 38.9170645, "is_reserved": 0, "lon": -77.02458933333334, "fusion_lon": 0.0, "fusion_lat": 0.0, "is_disabled": 0, "type": "electric_scooter", "bike_id": "f7f62f1ebd5d49b512b39b9a29e75609", "rental_uris": {"android": "https://dc.lft.to/lastmile_qr_scan", "ios": "https://dc.lft.to/lastmile_qr_scan"}, "name": "f7f62f1ebd5d49b512b39b9a29e75609"}, {"lat": 38.8954595, "is_reserved": 0, "lon": -76.98249933333334, "fusion_lon": 0.0, "fusion_lat": 0.0, "is_disabled": 0, "type": "electric_scooter", "bike_id": "88b8eb5e3e60d1b346084964bd35f8bd", "rental_uris": {"android": "https://dc.lft.to/lastmile_qr_scan", "ios": "https://dc.lft.to/lastmile_qr_scan"}, "name": "88b8eb5e3e60d1b346084964bd35f8bd"}, {"lat": 38.9236405, "is_reserved": 0, "lon": -77.019543, "fusion_lon": 0.0, "fusion_lat": 0.0, "is_disabled": 0, "type": "electric_scooter", "bike_id": "315a9ef14c1c035b8f0e48b81b8e5723", "rental_uris": {"android": "https://dc.lft.to/lastmile_qr_scan", "ios": "https://dc.lft.to/lastmile_qr_scan"}, "name": "315a9ef14c1c035b8f0e48b81b8e5723"}, {"lat": 38.91006933333333, "is_reserved": 0, "lon": -77.03457616666667, "fusion_lon": 0.0, "fusion_lat": 0.0, "is_disabled": 0, "type": "electric_scooter", "bike_id": "81dabcb35349f4de951d3e67a2cd9ca1", "rental_uris": {"android": "https://dc.lft.to/lastmile_qr_scan", "ios": "https://dc.lft.to/lastmile_qr_scan"}, "name": "81dabcb35349f4de951d3e67a2cd9ca1"}, {"lat": 38.90924866666667, "is_reserved": 0, "lon": -77.02285016666667, "fusion_lon": 0.0, "fusion_lat": 0.0, "is_disabled": 0, "type": "electric_scooter", "bike_id": "b65fe982d1d3e543d86af57b9fc27c9c", "rental_uris": {"android": "https://dc.lft.to/lastmile_qr_scan", "ios": "https://dc.lft.to/lastmile_qr_scan"}, "name": "b65fe982d1d3e543d86af57b9fc27c9c"}, {"lat": 38.911073, "is_reserved": 0, "lon": -77.04329066666666, "fusion_lon": 0.0, "fusion_lat": 0.0, "is_disabled": 0, "type": "electric_scooter", "bike_id": "47692b914b4a843bee1cdbbc1dcdf236", "rental_uris": {"android": "https://dc.lft.to/lastmile_qr_scan", "ios": "https://dc.lft.to/lastmile_qr_scan"}, "name": "47692b914b4a843bee1cdbbc1dcdf236"}, {"lat": 38.9105305, "is_reserved": 0, "lon": -77.03088116666666, "fusion_lon": 0.0, "fusion_lat": 0.0, "is_disabled": 0, "type": "electric_scooter", "bike_id": "bec269d8332f0d6a8ae6deac693b4b29", "rental_uris": {"android": "https://dc.lft.to/lastmile_qr_scan", "ios": "https://dc.lft.to/lastmile_qr_scan"}, "name": "bec269d8332f0d6a8ae6deac693b4b29"}, {"lat": 38.9116045, "is_reserved": 0, "lon": -77.07764733333333, "fusion_lon": 0.0, "fusion_lat": 0.0, "is_disabled": 0, "type": "electric_scooter", "bike_id": "8cfed58bd85d34ff85415e2772a78708", "rental_uris": {"android": "https://dc.lft.to/lastmile_qr_scan", "ios": "https://dc.lft.to/lastmile_qr_scan"}, "name": "8cfed58bd85d34ff85415e2772a78708"}, {"lat": 38.9401715, "is_reserved": 0, "lon": -76.9761395, "fusion_lon": 0.0, "fusion_lat": 0.0, "is_disabled": 0, "type": "electric_scooter", "bike_id": "d42ed5d517b4e3ffc7ac2c19a5c8a5c9", "rental_uris": {"android": "https://dc.lft.to/lastmile_qr_scan", "ios": "https://dc.lft.to/lastmile_qr_scan"}, "name": "d42ed5d517b4e3ffc7ac2c19a5c8a5c9"}, {"lat": 38.89480366666667, "is_reserved": 0, "lon": -76.94858666666667, "fusion_lon": 0.0, "fusion_lat": 0.0, "is_disabled": 0, "type": "electric_scooter", "bike_id": "09b6c34823f528da132f21eda1f7fe03", "rental_uris": {"android": "https://dc.lft.to/lastmile_qr_scan", "ios": "https://dc.lft.to/lastmile_qr_scan"}, "name": "09b6c34823f528da132f21eda1f7fe03"}, {"lat": 38.9097025, "is_reserved": 0, "lon": -77.021795, "fusion_lon": 0.0, "fusion_lat": 0.0, "is_disabled": 0, "type": "electric_scooter", "bike_id": "9e0e0588b5228eb42349b20c8655e10d", "rental_uris": {"android": "https://dc.lft.to/lastmile_qr_scan", "ios": "https://dc.lft.to/lastmile_qr_scan"}, "name": "9e0e0588b5228eb42349b20c8655e10d"}, {"lat": 38.9046575, "is_reserved": 0, "lon": -77.01945533333334, "fusion_lon": 0.0, "fusion_lat": 0.0, "is_disabled": 0, "type": "electric_scooter", "bike_id": "cfbb82b5296f8fe344f3673596e8efe1", "rental_uris": {"android": "https://dc.lft.to/lastmile_qr_scan", "ios": "https://dc.lft.to/lastmile_qr_scan"}, "name": "cfbb82b5296f8fe344f3673596e8efe1"}, {"lat": 38.9142305, "is_reserved": 0, "lon": -77.0198945, "fusion_lon": 0.0, "fusion_lat": 0.0, "is_disabled": 0, "type": "electric_scooter", "bike_id": "f5f98be48b5c0dd9a0fee332e285d13a", "rental_uris": {"android": "https://dc.lft.to/lastmile_qr_scan", "ios": "https://dc.lft.to/lastmile_qr_scan"}, "name": "f5f98be48b5c0dd9a0fee332e285d13a"}, {"lat": 38.9305635, "is_reserved": 0, "lon": -77.03633666666667, "fusion_lon": 0.0, "fusion_lat": 0.0, "is_disabled": 0, "type": "electric_scooter", "bike_id": "ebbb09b410cc92fee6a8c3d6f5f2ad2c", "rental_uris": {"android": "https://dc.lft.to/lastmile_qr_scan", "ios": "https://dc.lft.to/lastmile_qr_scan"}, "name": "ebbb09b410cc92fee6a8c3d6f5f2ad2c"}, {"lat": 38.88037216666667, "is_reserved": 0, "lon": -77.019858, "fusion_lon": 0.0, "fusion_lat": 0.0, "is_disabled": 0, "type": "electric_scooter", "bike_id": "ea3e7237ee20476811920dc441282f7e", "rental_uris": {"android": "https://dc.lft.to/lastmile_qr_scan", "ios": "https://dc.lft.to/lastmile_qr_scan"}, "name": "ea3e7237ee20476811920dc441282f7e"}, {"lat": 38.88710833333333, "is_reserved": 0, "lon": -77.0019275, "fusion_lon": 0.0, "fusion_lat": 0.0, "is_disabled": 0, "type": "electric_scooter", "bike_id": "9cd9c408a17af9d3b6bd5f6fe1dca057", "rental_uris": {"android": "https://dc.lft.to/lastmile_qr_scan", "ios": "https://dc.lft.to/lastmile_qr_scan"}, "name": "9cd9c408a17af9d3b6bd5f6fe1dca057"}, {"lat": 38.921116, "is_reserved": 0, "lon": -77.018041, "fusion_lon": 0.0, "fusion_lat": 0.0, "is_disabled": 0, "type": "electric_scooter", "bike_id": "f14913d7572a835a51049b757209556e", "rental_uris": {"android": "https://dc.lft.to/lastmile_qr_scan", "ios": "https://dc.lft.to/lastmile_qr_scan"}, "name": "f14913d7572a835a51049b757209556e"}, {"lat": 38.914141, "is_reserved": 0, "lon": -77.02116133333334, "fusion_lon": 0.0, "fusion_lat": 0.0, "is_disabled": 0, "type": "electric_scooter", "bike_id": "d50304013044997273656b2d180879a4", "rental_uris": {"android": "https://dc.lft.to/lastmile_qr_scan", "ios": "https://dc.lft.to/lastmile_qr_scan"}, "name": "d50304013044997273656b2d180879a4"}, {"lat": 38.863726, "is_reserved": 0, "lon": -76.990625, "fusion_lon": 0.0, "fusion_lat": 0.0, "is_disabled": 0, "type": "electric_scooter", "bike_id": "5335cb43132186334247a239b7722271", "rental_uris": {"android": "https://dc.lft.to/lastmile_qr_scan", "ios": "https://dc.lft.to/lastmile_qr_scan"}, "name": "5335cb43132186334247a239b7722271"}, {"lat": 38.9031045, "is_reserved": 0, "lon": -77.0485925, "fusion_lon": 0.0, "fusion_lat": 0.0, "is_disabled": 0, "type": "electric_scooter", "bike_id": "6a17fbf595eb85d53611771a1f41ed85", "rental_uris": {"android": "https://dc.lft.to/lastmile_qr_scan", "ios": "https://dc.lft.to/lastmile_qr_scan"}, "name": "6a17fbf595eb85d53611771a1f41ed85"}, {"lat": 38.96735366666667, "is_reserved": 0, "lon": -76.96040716666667, "fusion_lon": 0.0, "fusion_lat": 0.0, "is_disabled": 0, "type": "electric_bike", "bike_id": "ebe6371439262b3c891f1bf4972efb89", "rental_uris": {"android": "https://dc.lft.to/lastmile_qr_scan", "ios": "https://dc.lft.to/lastmile_qr_scan"}, "name": "ebe6371439262b3c891f1bf4972efb89"}, {"lat": 38.92333633333333, "is_reserved": 0, "lon": -77.05361283333333, "fusion_lon": 0.0, "fusion_lat": 0.0, "is_disabled": 0, "type": "electric_bike", "bike_id": "b062f163a7f74b3c1657be6c879167a7", "rental_uris": {"android": "https://dc.lft.to/lastmile_qr_scan", "ios": "https://dc.lft.to/lastmile_qr_scan"}, "name": "b062f163a7f74b3c1657be6c879167a7"}, {"lat": 38.921298166666666, "is_reserved": 0, "lon": -77.01807916666667, "fusion_lon": 0.0, "fusion_lat": 0.0, "is_disabled": 0, "type": "electric_scooter", "bike_id": "1a5a3d0fba2a36a1870fa077851631a4", "rental_uris": {"android": "https://dc.lft.to/lastmile_qr_scan", "ios": "https://dc.lft.to/lastmile_qr_scan"}, "name": "1a5a3d0fba2a36a1870fa077851631a4"}, {"lat": 38.933056, "is_reserved": 0, "lon": -77.02914766666666, "fusion_lon": 0.0, "fusion_lat": 0.0, "is_disabled": 0, "type": "electric_scooter", "bike_id": "fe04452d492c9f44d48ece554483c9f1", "rental_uris": {"android": "https://dc.lft.to/lastmile_qr_scan", "ios": "https://dc.lft.to/lastmile_qr_scan"}, "name": "fe04452d492c9f44d48ece554483c9f1"}, {"lat": 38.887391, "is_reserved": 0, "lon": -77.01532033333334, "fusion_lon": 0.0, "fusion_lat": 0.0, "is_disabled": 0, "type": "electric_scooter", "bike_id": "d046b77fac5af8ba82da571f7fd7eefb", "rental_uris": {"android": "https://dc.lft.to/lastmile_qr_scan", "ios": "https://dc.lft.to/lastmile_qr_scan"}, "name": "d046b77fac5af8ba82da571f7fd7eefb"}, {"lat": 38.887118, "is_reserved": 0, "lon": -77.01771616666667, "fusion_lon": 0.0, "fusion_lat": 0.0, "is_disabled": 0, "type": "electric_scooter", "bike_id": "b6b67f1901693906f2e77966c34a37a7", "rental_uris": {"android": "https://dc.lft.to/lastmile_qr_scan", "ios": "https://dc.lft.to/lastmile_qr_scan"}, "name": "b6b67f1901693906f2e77966c34a37a7"}, {"lat": 38.903919333333334, "is_reserved": 0, "lon": -76.98948783333333, "fusion_lon": 0.0, "fusion_lat": 0.0, "is_disabled": 0, "type": "electric_scooter", "bike_id": "4a93d8b119a732b00e15fef225d65aaf", "rental_uris": {"android": "https://dc.lft.to/lastmile_qr_scan", "ios": "https://dc.lft.to/lastmile_qr_scan"}, "name": "4a93d8b119a732b00e15fef225d65aaf"}, {"lat": 38.9176825, "is_reserved": 0, "lon": -77.0150775, "fusion_lon": 0.0, "fusion_lat": 0.0, "is_disabled": 0, "type": "electric_scooter", "bike_id": "3a6de0e42ef112d604844ddce60e9ad9", "rental_uris": {"android": "https://dc.lft.to/lastmile_qr_scan", "ios": "https://dc.lft.to/lastmile_qr_scan"}, "name": "3a6de0e42ef112d604844ddce60e9ad9"}, {"lat": 38.916874, "is_reserved": 0, "lon": -77.02651533333334, "fusion_lon": 0.0, "fusion_lat": 0.0, "is_disabled": 0, "type": "electric_scooter", "bike_id": "ad05ec005e699a48d017ab0b7afd903a", "rental_uris": {"android": "https://dc.lft.to/lastmile_qr_scan", "ios": "https://dc.lft.to/lastmile_qr_scan"}, "name": "ad05ec005e699a48d017ab0b7afd903a"}, {"lat": 38.92658216666667, "is_reserved": 0, "lon": -77.03726283333333, "fusion_lon": 0.0, "fusion_lat": 0.0, "is_disabled": 0, "type": "electric_scooter", "bike_id": "909e45d822e19092144512765111638b", "rental_uris": {"android": "https://dc.lft.to/lastmile_qr_scan", "ios": "https://dc.lft.to/lastmile_qr_scan"}, "name": "909e45d822e19092144512765111638b"}, {"lat": 38.936719833333335, "is_reserved": 0, "lon": -76.99073866666667, "fusion_lon": 0.0, "fusion_lat": 0.0, "is_disabled": 0, "type": "electric_bike", "bike_id": "8776b54a107e7e40990161b253a5e463", "rental_uris": {"android": "https://dc.lft.to/lastmile_qr_scan", "ios": "https://dc.lft.to/lastmile_qr_scan"}, "name": "8776b54a107e7e40990161b253a5e463"}, {"lat": 38.90557, "is_reserved": 0, "lon": -77.027164, "fusion_lon": 0.0, "fusion_lat": 0.0, "is_disabled": 0, "type": "electric_scooter", "bike_id": "597ee00b294941c7fef9a95c19451e23", "rental_uris": {"android": "https://dc.lft.to/lastmile_qr_scan", "ios": "https://dc.lft.to/lastmile_qr_scan"}, "name": "597ee00b294941c7fef9a95c19451e23"}, {"lat": 38.910039, "is_reserved": 0, "lon": -77.034557, "fusion_lon": 0.0, "fusion_lat": 0.0, "is_disabled": 0, "type": "electric_scooter", "bike_id": "c3cfe6c7bd88c01139a12eff71da1092", "rental_uris": {"android": "https://dc.lft.to/lastmile_qr_scan", "ios": "https://dc.lft.to/lastmile_qr_scan"}, "name": "c3cfe6c7bd88c01139a12eff71da1092"}, {"lat": 38.934326, "is_reserved": 0, "lon": -77.03287033333334, "fusion_lon": 0.0, "fusion_lat": 0.0, "is_disabled": 0, "type": "electric_scooter", "bike_id": "6bb121751cb7bedc9b98dcd97f788c45", "rental_uris": {"android": "https://dc.lft.to/lastmile_qr_scan", "ios": "https://dc.lft.to/lastmile_qr_scan"}, "name": "6bb121751cb7bedc9b98dcd97f788c45"}, {"lat": 38.900324166666664, "is_reserved": 0, "lon": -76.99838266666667, "fusion_lon": 0.0, "fusion_lat": 0.0, "is_disabled": 0, "type": "electric_scooter", "bike_id": "58cfe2d0ef742087c73dc0c9c3a9ca8e", "rental_uris": {"android": "https://dc.lft.to/lastmile_qr_scan", "ios": "https://dc.lft.to/lastmile_qr_scan"}, "name": "58cfe2d0ef742087c73dc0c9c3a9ca8e"}, {"lat": 38.90546766666667, "is_reserved": 0, "lon": -77.04081583333334, "fusion_lon": 0.0, "fusion_lat": 0.0, "is_disabled": 0, "type": "electric_scooter", "bike_id": "dbc684a6008c8fe904204cf0aa091886", "rental_uris": {"android": "https://dc.lft.to/lastmile_qr_scan", "ios": "https://dc.lft.to/lastmile_qr_scan"}, "name": "dbc684a6008c8fe904204cf0aa091886"}, {"lat": 38.88114183333333, "is_reserved": 0, "lon": -77.01653983333334, "fusion_lon": 0.0, "fusion_lat": 0.0, "is_disabled": 0, "type": "electric_scooter", "bike_id": "b8d7d9432ef67e1dced8db2d00443b42", "rental_uris": {"android": "https://dc.lft.to/lastmile_qr_scan", "ios": "https://dc.lft.to/lastmile_qr_scan"}, "name": "b8d7d9432ef67e1dced8db2d00443b42"},