{"data": {"bikes": [{"type": "electric_scooter", "rental_uris": {"ios": "https://dc.lft.to/lastmile_qr_scan", "android": "https://dc.lft.to/lastmile_qr_scan"}, "lon": -77.04054916666666, "fusion_lon": 0.0, "is_disabled": 0, "lat": 38.899038, "bike_id": "6eb348d13542054220113e5cd63daadd", "name": "6eb348d13542054220113e5cd63daadd", "is_reserved": 0, "fusion_lat": 0.0}, {"type": "electric_scooter", "rental_uris": {"ios": "https://dc.lft.to/lastmile_qr_scan", "android": "https://dc.lft.to/lastmile_qr_scan"}, "lon": -77.00340016666667, "fusion_lon": 0.0, "is_disabled": 0, "lat": 38.88741316666667, "bike_id": "4dcd858a4b3c76f0fdea6ef1f7507aba", "name": "4dcd858a4b3c76f0fdea6ef1f7507aba", "is_reserved": 0, "fusion_lat": 0.0}, {"type": "electric_scooter", "rental_uris": {"ios": "https://dc.lft.to/lastmile_qr_scan", "android": "https://dc.lft.to/lastmile_qr_scan"}, "lon": -77.027221, "fusion_lon": 0.0, "is_disabled": 0, "lat": 38.95183883333333, "bike_id": "575a576ad03db9b698a94aed0f81de7e", "name": "575a576ad03db9b698a94aed0f81de7e", "is_reserved": 0, "fusion_lat": 0.0}, {"type": "electric_scooter", "rental_uris": {"ios": "https://dc.lft.to/lastmile_qr_scan", "android": "https://dc.lft.to/lastmile_qr_scan"}, "lon": -77.03635816666667, "fusion_lon": 0.0, "is_disabled": 0, "lat": 38.902765333333335, "bike_id": "37528f8275b7f2f462f03a13780d99c7", "name": "37528f8275b7f2f462f03a13780d99c7", "is_reserved": 0, "fusion_lat": 0.0}, {"type": "electric_scooter", "rental_uris": {"ios": "https://dc.lft.to/lastmile_qr_scan", "android": "https://dc.lft.to/lastmile_qr_scan"}, "lon": -77.03181883333333, "fusion_lon": 0.0, "is_disabled": 0, "lat": 38.913245833333335, "bike_id": "48f8eaa4aac2d2f87be1028d49dbed4e", "name": "48f8eaa4aac2d2f87be1028d49dbed4e", "is_reserved": 0, "fusion_lat": 0.0}, {"type": "electric_scooter", "rental_uris": {"ios": "https://dc.lft.to/lastmile_qr_scan", "android": "https://dc.lft.to/lastmile_qr_scan"}, "lon": -77.02470166666667, "fusion_lon": 0.0, "is_disabled": 0, "lat": 38.91940916666667, "bike_id": "d3b9b04ce42e02d053967ffe50f50f0a", "name": "d3b9b04ce42e02d053967ffe50f50f0a", "is_reserved": 0, "fusion_lat": 0.0}, {"type": "electric_scooter", "rental_uris": {"ios": "https://dc.lft.to/lastmile_qr_scan", "android": "https://dc.lft.to/lastmile_qr_scan"}, "lon": -77.07336433333333, "fusion_lon": 0.0, "is_disabled": 0, "lat": 38.924919333333335, "bike_id": "23d46943f3a7879584ebb30ee1b16937", "name": "23d46943f3a7879584ebb30ee1b16937", "is_reserved": 0, "fusion_lat": 0.0}, {"type": "electric_scooter", "rental_uris": {"ios": "https://dc.lft.to/lastmile_qr_scan", "android": "https://dc.lft.to/lastmile_qr_scan"}, "lon": -77.03935216666666, "fusion_lon": 0.0, "is_disabled": 0, "lat": 38.915533, "bike_id": "7ee60c67241341846e4401583f552586", "name": "7ee60c67241341846e4401583f552586", "is_reserved": 0, "fusion_lat": 0.0}, {"type": "electric_scooter", "rental_uris": {"ios": "https://dc.lft.to/lastmile_qr_scan", "android": "https://dc.lft.to/lastmile_qr_scan"}, "lon": -77.03663116666667, "fusion_lon": 0.0, "is_disabled": 0, "lat": 38.917205, "bike_id": "26b5f1ef522ad9c468ea414e31667fa4", "name": "26b5f1ef522ad9c468ea414e31667fa4", "is_reserved": 0, "fusion_lat": 0.0}, {"type": "electric_scooter", "rental_uris": {"ios": "https://dc.lft.to/lastmile_qr_scan", "android": "https://dc.lft.to/lastmile_qr_scan"}, "lon": -77.03167, "fusion_lon": 0.0, "is_disabled": 0, "lat": 38.89995483333333, "bike_id": "6edf0660709bd1dde160c5a048c8fb5f", "name": "6edf0660709bd1dde160c5a048c8fb5f", "is_reserved": 0, "fusion_lat": 0.0}, {"type": "electric_scooter", "rental_uris": {"ios": "https://dc.lft.to/lastmile_qr_scan", "android": "https://dc.lft.to/lastmile_qr_scan"}, "lon": -77.03294616666666, "fusion_lon": 0.0, "is_disabled": 0, "lat": 38.925554166666664, "bike_id": "04701b8200e63663c74a992a8b8141f4", "name": "04701b8200e63663c74a992a8b8141f4", "is_reserved": 0, "fusion_lat": 0.0}, {"type": "electric_scooter", "rental_uris": {"ios": "https://dc.lft.to/lastmile_qr_scan", "android": "https://dc.lft.to/lastmile_qr_scan"}, "lon": -77.0216335, "fusion_lon": 0.0, "is_disabled": 0, "lat": 38.92612, "bike_id": "61c94993132533eee3ca8018721605e2", "name": "61c94993132533eee3ca8018721605e2", "is_reserved": 0, "fusion_lat": 0.0}, {"type": "electric_scooter", "rental_uris": {"ios": "https://dc.lft.to/lastmile_qr_scan", "android": "https://dc.lft.to/lastmile_qr_scan"}, "lon": -77.0402865, "fusion_lon": 0.0, "is_disabled": 0, "lat": 38.924429, "bike_id": "58066ce5594799fcf39534aef165d6ce", "name": "58066ce5594799fcf39534aef165d6ce", "is_reserved": 0, "fusion_lat": 0.0}, {"type": "electric_scooter", "rental_uris": {"ios": "https://dc.lft.to/lastmile_qr_scan", "android": "https://dc.lft.to/lastmile_qr_scan"}, "lon": -77.04487283333333, "fusion_lon": 0.0, "is_disabled": 0, "lat": 38.911652833333335, "bike_id": "3b5257476311cd5a3a4ac70fbfb46118", "name": "3b5257476311cd5a3a4ac70fbfb46118", "is_reserved": 0, "fusion_lat": 0.0}, {"type": "electric_scooter", "rental_uris": {"ios": "https://dc.lft.to/lastmile_qr_scan", "android": "https://dc.lft.to/lastmile_qr_scan"}, "lon": -77.04020733333333, "fusion_lon": 0.0, "is_disabled": 0, "lat": 38.92359733333333, "bike_id": "32e4a292f5cb1e9a03932139620a8c27", "name": "32e4a292f5cb1e9a03932139620a8c27", "is_reserved": 0, "fusion_lat": 0.0}, {"type": "electric_scooter", "rental_uris": {"ios": "https://dc.lft.to/lastmile_qr_scan", "android": "https://dc.lft.to/lastmile_qr_scan"}, "lon": -77.0120255, "fusion_lon": 0.0, "is_disabled": 0, "lat": 38.903175, "bike_id": "c6a8f2ded01e3bcb0178265c5a4ca057", "name": "c6a8f2ded01e3bcb0178265c5a4ca057", "is_reserved": 0, "fusion_lat": 0.0}, {"type": "electric_scooter", "rental_uris": {"ios": "https://dc.lft.to/lastmile_qr_scan", "android": "https://dc.lft.to/lastmile_qr_scan"}, "lon": -76.99779016666666, "fusion_lon": 0.0, "is_disabled": 0, "lat": 38.84424383333333, "bike_id": "71204f9c8936e2707c2e80a257f7697c", "name": "71204f9c8936e2707c2e80a257f7697c", "is_reserved": 0, "fusion_lat": 0.0}, {"type": "electric_scooter", "rental_uris": {"ios": "https://dc.lft.to/lastmile_qr_scan", "android": "https://dc.lft.to/lastmile_qr_scan"}, "lon": -77.040456, "fusion_lon": 0.0, "is_disabled": 0, "lat": 38.9140695, "bike_id": "f4cf429c161c389b77b7639f19ad0469", "name": "f4cf429c161c389b77b7639f19ad0469", "is_reserved": 0, "fusion_lat": 0.0}, {"type": "electric_scooter", "rental_uris": {"ios": "https://dc.lft.to/lastmile_qr_scan", "android": "https://dc.lft.to/lastmile_qr_scan"}, "lon": -77.02127033333333, "fusion_lon": 0.0, "is_disabled": 0, "lat": 38.8875065, "bike_id": "ac321d31a566f6c5f1b5161e63ee7e5e", "name": "ac321d31a566f6c5f1b5161e63ee7e5e", "is_reserved": 0, "fusion_lat": 0.0}, {"type": "electric_scooter", "rental_uris": {"ios": "https://dc.lft.to/lastmile_qr_scan", "android": "https://dc.lft.to/lastmile_qr_scan"}, "lon": -76.95759533333333, "fusion_lon": 0.0, "is_disabled": 0, "lat": 38.884313166666665, "bike_id": "ffcd2526ea584dbc5c0cbaaf1579dda4", "name": "ffcd2526ea584dbc5c0cbaaf1579dda4", "is_reserved": 0, "fusion_lat": 0.0}, {"type": "electric_scooter", "rental_uris": {"ios": "https://dc.lft.to/lastmile_qr_scan", "android": "https://dc.lft.to/lastmile_qr_scan"}, "lon": -77.0320365, "fusion_lon": 0.0, "is_disabled": 0, "lat": 38.90944983333333, "bike_id": "ddaccaae4a0c701908b0e3b4d64106d5", "name": "ddaccaae4a0c701908b0e3b4d64106d5", "is_reserved": 0, "fusion_lat": 0.0}, {"type": "electric_scooter", "rental_uris": {"ios": "https://dc.lft.to/lastmile_qr_scan", "android": "https://dc.lft.to/lastmile_qr_scan"}, "lon": -77.03446433333333, "fusion_lon": 0.0, "is_disabled": 0, "lat": 38.93091183333333, "bike_id": "efd443908ed2415901a6b35e2d39320b", "name": "efd443908ed2415901a6b35e2d39320b", "is_reserved": 0, "fusion_lat": 0.0}, {"type": "electric_scooter", "rental_uris": {"ios": "https://dc.lft.to/lastmile_qr_scan", "android": "https://dc.lft.to/lastmile_qr_scan"}, "lon": -76.95530016666666, "fusion_lon": 0.0, "is_disabled": 0, "lat": 38.887791666666665, "bike_id": "a05b93304f60605f31f2a18f8734591a", "name": "a05b93304f60605f31f2a18f8734591a", "is_reserved": 0, "fusion_lat": 0.0}, {"type": "electric_scooter", "rental_uris": {"ios": "https://dc.lft.to/lastmile_qr_scan", "android": "https://dc.lft.to/lastmile_qr_scan"}, "lon": -77.02707283333334, "fusion_lon": 0.0, "is_disabled": 0, "lat": 38.90668333333333, "bike_id": "0c6978896b7aac300d879b4592cf928b", "name": "0c6978896b7aac300d879b4592cf928b", "is_reserved": 0, "fusion_lat": 0.0}, {"type": "electric_bike", "rental_uris": {"ios": "https://dc.lft.to/lastmile_qr_scan", "android": "https://dc.lft.to/lastmile_qr_scan"}, "lon": -77.10601933333334, "fusion_lon": 0.0, "is_disabled": 0, "lat": 38.928960333333336, "bike_id": "4a39d1d7c14168b09758061a0320375b", "name": "4a39d1d7c14168b09758061a0320375b", "is_reserved": 0, "fusion_lat": 0.0}, {"type": "electric_scooter", "rental_uris": {"ios": "https://dc.lft.to/lastmile_qr_scan", "android": "https://dc.lft.to/lastmile_qr_scan"}, "lon": -77.01140733333334, "fusion_lon": 0.0, "is_disabled": 0, "lat": 38.91700133333333, "bike_id": "fa8ee159f9b8000662763f664ec8ef75", "name": "fa8ee159f9b8000662763f664ec8ef75", "is_reserved": 0, "fusion_lat": 0.0}, {"type": "electric_scooter", "rental_uris": {"ios": "https://dc.lft.to/lastmile_qr_scan", "android": "https://dc.lft.to/lastmile_qr_scan"}, "lon": -76.94154933333333, "fusion_lon": 0.0, "is_disabled": 0, "lat": 38.88363433333333, "bike_id": "ae821f3a87faf5b1e9547933d479ac95", "name": "ae821f3a87faf5b1e9547933d479ac95", "is_reserved": 0, "fusion_lat": 0.0}, {"type": "electric_scooter", "rental_uris": {"ios": "https://dc.lft.to/lastmile_qr_scan", "android": "https://dc.lft.to/lastmile_qr_scan"}, "lon": -77.02626183333334, "fusion_lon": 0.0, "is_disabled": 0, "lat": 38.925403, "bike_id": "3bf7162c5c0e80da2383bf058943035f", "name": "3bf7162c5c0e80da2383bf058943035f", "is_reserved": 0, "fusion_lat": 0.0}, {"type": "electric_bike", "rental_uris": {"ios": "https://dc.lft.to/lastmile_qr_scan", "android": "https://dc.lft.to/lastmile_qr_scan"}, "lon": -76.924844, "fusion_lon": 0.0, "is_disabled": 0, "lat": 38.958940166666665, "bike_id": "7248f558b3fb4f42e1960cda1d4b15bd", "name": "7248f558b3fb4f42e1960cda1d4b15bd", "is_reserved": 0, "fusion_lat": 0.0}, {"type": "electric_scooter", "rental_uris": {"ios": "https://dc.lft.to/lastmile_qr_scan", "android": "https://dc.lft.to/lastmile_qr_scan"}, "lon": -77.00608066666666, "fusion_lon": 0.0, "is_disabled": 0, "lat": 38.90567766666667, "bike_id": "7fcb1537834154b18161d6d62e62f8ac", "name": "7fcb1537834154b18161d6d62e62f8ac", "is_reserved": 0, "fusion_lat": 0.0}, {"type": "electric_scooter", "rental_uris": {"ios": "https://dc.lft.to/lastmile_qr_scan", "android": "https://dc.lft.to/lastmile_qr_scan"}, "lon": -77.029672, "fusion_lon": 0.0, "is_disabled": 0, "lat": 38.91685, "bike_id": "68d4cf39709ee587aee88f85eac57823", "name": "68d4cf39709ee587aee88f85eac57823", "is_reserved": 0, "fusion_lat": 0.0}, {"type": "electric_scooter", "rental_uris": {"ios": "https://dc.lft.to/lastmile_qr_scan", "android": "https://dc.lft.to/lastmile_qr_scan"}, "lon": -76.9652925, "fusion_lon": 0.0, "is_disabled": 0, "lat": 38.8762545, "bike_id": "7874e63a8e6e34135a61e961cdeeea2f", "name": "7874e63a8e6e34135a61e961cdeeea2f", "is_reserved": 0, "fusion_lat": 0.0}, {"type": "electric_scooter", "rental_uris": {"ios": "https://dc.lft.to/lastmile_qr_scan", "android": "https://dc.lft.to/lastmile_qr_scan"}, "lon": -77.00603483333333, "fusion_lon": 0.0, "is_disabled": 0, "lat": 38.9056255, "bike_id": "fcd4127968bfb206a97ea2c5f5ef6c09", "name": "fcd4127968bfb206a97ea2c5f5ef6c09", "is_reserved": 0, "fusion_lat": 0.0}, {"type": "electric_scooter", "rental_uris": {"ios": "https://dc.lft.to/lastmile_qr_scan", "android": "https://dc.lft.to/lastmile_qr_scan"}, "lon": -77.05861133333333, "fusion_lon": 0.0, "is_disabled": 0, "lat": 38.93613, "bike_id": "44de9e0f5b9fdd8c7fea423046d3cd38", "name": "44de9e0f5b9fdd8c7fea423046d3cd38", "is_reserved": 0, "fusion_lat": 0.0}, {"type": "electric_scooter", "rental_uris": {"ios": "https://dc.lft.to/lastmile_qr_scan", "android": "https://dc.lft.to/lastmile_qr_scan"}, "lon": -77.01762416666666, "fusion_lon": 0.0, "is_disabled": 0, "lat": 38.90252783333333, "bike_id": "cae888cefa98944056a3a6a2f66d6788", "name": "cae888cefa98944056a3a6a2f66d6788", "is_reserved": 0, "fusion_lat": 0.0}, {"type": "electric_scooter", "rental_uris": {"ios": "https://dc.lft.to/lastmile_qr_scan", "android": "https://dc.lft.to/lastmile_qr_scan"}, "lon": -77.0216945, "fusion_lon": 0.0, "is_disabled": 0, "lat": 38.94285683333333, "bike_id": "00f50aa5aa268e63acae1d6bd5e18e3c", "name": "00f50aa5aa268e63acae1d6bd5e18e3c", "is_reserved": 0, "fusion_lat": 0.0}, {"type": "electric_scooter", "rental_uris": {"ios": "https://dc.lft.to/lastmile_qr_scan", "android": "https://dc.lft.to/lastmile_qr_scan"}, "lon": -77.0121275, "fusion_lon": 0.0, "is_disabled": 0, "lat": 38.90040966666667, "bike_id": "5f5f546f6779f154b63a2f44c35e2c1a", "name": "5f5f546f6779f154b63a2f44c35e2c1a", "is_reserved": 0, "fusion_lat": 0.0}, {"type": "electric_scooter", "rental_uris": {"ios": "https://dc.lft.to/lastmile_qr_scan", "android": "https://dc.lft.to/lastmile_qr_scan"}, "lon": -77.039404, "fusion_lon": 0.0, "is_disabled": 0, "lat": 38.8989005, "bike_id": "141c2cbf325a4f523cbffddc9bf9aee1", "name": "141c2cbf325a4f523cbffddc9bf9aee1", "is_reserved": 0, "fusion_lat": 0.0}, {"type": "electric_scooter", "rental_uris": {"ios": "https://dc.lft.to/lastmile_qr_scan", "android": "https://dc.lft.to/lastmile_qr_scan"}, "lon": -77.080993, "fusion_lon": 0.0, "is_disabled": 0, "lat": 38.906966, "bike_id": "d9e24fe6a92c4742e154aa34348a1600", "name": "d9e24fe6a92c4742e154aa34348a1600", "is_reserved": 0, "fusion_lat": 0.0}, {"type": "electric_scooter", "rental_uris": {"ios": "https://dc.lft.to/lastmile_qr_scan", "android": "https://dc.lft.to/lastmile_qr_scan"}, "lon": -77.01845683333333, "fusion_lon": 0.0, "is_disabled": 0, "lat": 38.94634766666667, "bike_id": "7e020409e22675b89cbefe4f69847b2f", "name": "7e020409e22675b89cbefe4f69847b2f", "is_reserved": 0, "fusion_lat": 0.0}, {"type": "electric_scooter", "rental_uris": {"ios": "https://dc.lft.to/lastmile_qr_scan", "android": "https://dc.lft.to/lastmile_qr_scan"}, "lon": -77.0452795, "fusion_lon": 0.0, "is_disabled": 0, "lat": 38.91821433333333, "bike_id": "dcbcdfd8ee969d065fd1b94cb3dd5af6", "name": "dcbcdfd8ee969d065fd1b94cb3dd5af6", "is_reserved": 0, "fusion_lat": 0.0}, {"type": "electric_scooter", "rental_uris": {"ios": "https://dc.lft.to/lastmile_qr_scan", "android": "https://dc.lft.to/lastmile_qr_scan"}, "lon": -77.03132966666666, "fusion_lon": 0.0, "is_disabled": 0, "lat": 38.8922405, "bike_id": "8da17bf2e97e76732accef4636dff169", "name": "8da17bf2e97e76732accef4636dff169", "is_reserved": 0, "fusion_lat": 0.0}, {"type": "electric_scooter", "rental_uris": {"ios": "https://dc.lft.to/lastmile_qr_scan", "android": "https://dc.lft.to/lastmile_qr_scan"}, "lon": -77.02763816666666, "fusion_lon": 0.0, "is_disabled": 0, "lat": 38.9073445, "bike_id": "e324059a8690a1aea65b61600fef1259", "name": "e324059a8690a1aea65b61600fef1259", "is_reserved": 0, "fusion_lat": 0.0}, {"type": "electric_scooter", "rental_uris": {"ios": "https://dc.lft.to/lastmile_qr_scan", "android": "https://dc.lft.to/lastmile_qr_scan"}, "lon": -77.02203333333334, "fusion_lon": 0.0, "is_disabled": 0, "lat": 38.89639716666667, "bike_id": "57240557f92ff67f761dfd38220f6c83", "name": "57240557f92ff67f761dfd38220f6c83", "is_reserved": 0, "fusion_lat": 0.0}, {"type": "electric_scooter", "rental_uris": {"ios": "https://dc.lft.to/lastmile_qr_scan", "android": "https://dc.lft.to/lastmile_qr_scan"}, "lon": -77.02763333333333, "fusion_lon": 0.0, "is_disabled": 0, "lat": 38.907327, "bike_id": "9ed3d44430d0fee4ba60ef831b5d1787", "name": "9ed3d44430d0fee4ba60ef831b5d1787", "is_reserved": 0, "fusion_lat": 0.0}, {"type": "electric_bike", "rental_uris": {"ios": "https://dc.lft.to/lastmile_qr_scan", "android": "https://dc.lft.to/lastmile_qr_scan"}, "lon": -76.93547016666666, "fusion_lon": 0.0, "is_disabled": 0, "lat": 38.95185, "bike_id": "5060c965560550cdea6c800aa5fe699a", "name": "5060c965560550cdea6c800aa5fe699a", "is_reserved": 0, "fusion_lat": 0.0}, {"type": "electric_scooter", "rental_uris": {"ios": "https://dc.lft.to/lastmile_qr_scan", "android": "https://dc.lft.to/lastmile_qr_scan"}, "lon": -77.08028916666666, "fusion_lon": 0.0, "is_disabled": 0, "lat": 38.909234166666664, "bike_id": "0f3db619e20571e3c094ff17756c7107", "name": "0f3db619e20571e3c094ff17756c7107", "is_reserved": 0, "fusion_lat": 0.0}, {"type": "electric_scooter", "rental_uris": {"ios": "https://dc.lft.to/lastmile_qr_scan", "android": "https://dc.lft.to/lastmile_qr_scan"}, "lon": -77.01776133333334, "fusion_lon": 0.0, "is_disabled": 0, "lat": 38.8871365, "bike_id": "c89fa97d6550ce75fb6cb6a8cd3204a5", "name": "c89fa97d6550ce75fb6cb6a8cd3204a5", "is_reserved": 0, "fusion_lat": 0.0}, {"type": "electric_scooter", "rental_uris": {"ios": "https://dc.lft.to/lastmile_qr_scan", "android": "https://dc.lft.to/lastmile_qr_scan"}, "lon": -77.0428165, "fusion_lon": 0.0, "is_disabled": 0, "lat": 38.91032666666667, "bike_id": "882684a5cf95cb02ee08fdb409b2c5e5", "name": "882684a5cf95cb02ee08fdb409b2c5e5", "is_reserved": 0, "fusion_lat": 0.0}, {"type": "electric_scooter", "rental_uris": {"ios": "https://dc.lft.to/lastmile_qr_scan", "android": "https://dc.lft.to/lastmile_qr_scan"}, "lon": -76.93369166666666, "fusion_lon": 0.0, "is_disabled": 0, "lat": 38.89552883333333, "bike_id": "5ea56c5ad362177499d302eb6ed6f08e", "name": "5ea56c5ad362177499d302eb6ed6f08e", "is_reserved": 0, "fusion_lat": 0.0}, {"type": "electric_bike", "rental_uris": {"ios": "https://dc.lft.to/lastmile_qr_scan", "android": "https://dc.lft.to/lastmile_qr_scan"}, "lon": -77.00274083333333, "fusion_lon": 0.0, "is_disabled": 0, "lat": 38.91170433333333, "bike_id": "5fa1b4c88c6e2f1365c53fceeeef2a53", "name": "5fa1b4c88c6e2f1365c53fceeeef2a53", "is_reserved": 0, "fusion_lat": 0.0}, {"type": "electric_scooter", "rental_uris": {"ios": "https://dc.lft.to/lastmile_qr_scan", "android": "https://dc.lft.to/lastmile_qr_scan"}, "lon": -77.03498983333333, "fusion_lon": 0.0, "is_disabled": 0, "lat": 38.9247975, "bike_id": "0d7f9f7a3a1e3ca00f87ed641c3cdb01", "name": "0d7f9f7a3a1e3ca00f87ed641c3cdb01", "is_reserved": 0, "fusion_lat": 0.0}, {"type": "electric_scooter", "rental_uris": {"ios": "https://dc.lft.to/lastmile_qr_scan", "android": "https://dc.lft.to/lastmile_qr_scan"}, "lon": -77.03353883333334, "fusion_lon": 0.0, "is_disabled": 0, "lat": 38.8925225, "bike_id": "6dc65b299798a8ebd65ee956e38c05bd", "name": "6dc65b299798a8ebd65ee956e38c05bd", "is_reserved": 0, "fusion_lat": 0.0}, {"type": "electric_scooter", "rental_uris": {"ios": "https://dc.lft.to/lastmile_qr_scan", "android": "https://dc.lft.to/lastmile_qr_scan"}, "lon": -76.93736933333334, "fusion_lon": 0.0, "is_disabled": 0, "lat": 38.890166666666666, "bike_id": "f91fb6758f71cf22920b6e75ae570ee2", "name": "f91fb6758f71cf22920b6e75ae570ee2", "is_reserved": 0, "fusion_lat": 0.0}, {"type": "electric_scooter", "rental_uris": {"ios": "https://dc.lft.to/lastmile_qr_scan", "android": "https://dc.lft.to/lastmile_qr_scan"}, "lon": -77.02188683333334, "fusion_lon": 0.0, "is_disabled": 0, "lat": 38.91137333333333, "bike_id": "764852d522e753ba6a22bd4e7fde7ce0", "name": "764852d522e753ba6a22bd4e7fde7ce0", "is_reserved": 0, "fusion_lat": 0.0}, {"type": "electric_scooter", "rental_uris": {"ios": "https://dc.lft.to/lastmile_qr_scan", "android": "https://dc.lft.to/lastmile_qr_scan"}, "lon": -77.03214116666666, "fusion_lon": 0.0, "is_disabled": 0, "lat": 38.914292, "bike_id": "ebc981f60a65ffd924ffb3837d01c117", "name": "ebc981f60a65ffd924ffb3837d01c117", "is_reserved": 0, "fusion_lat": 0.0}, {"type": "electric_scooter", "rental_uris": {"ios": "https://dc.lft.to/lastmile_qr_scan", "android": "https://dc.lft.to/lastmile_qr_scan"}, "lon": -77.01950366666667, "fusion_lon": 0.0, "is_disabled": 0, "lat": 38.90228616666667, "bike_id": "2b4973daa8974470e2f85e8d617fef1c", "name": "2b4973daa8974470e2f85e8d617fef1c", "is_reserved": 0, "fusion_lat": 0.0}, {"type": "electric_scooter", "rental_uris": {"ios": "https://dc.lft.to/lastmile_qr_scan", "android": "https://dc.lft.to/lastmile_qr_scan"}, "lon": -77.00609533333333, "fusion_lon": 0.0, "is_disabled": 0, "lat": 38.871797, "bike_id": "d1dc68dd149d8c32e5802864a7dbb7c0", "name": "d1dc68dd149d8c32e5802864a7dbb7c0", "is_reserved": 0, "fusion_lat": 0.0}, {"type": "electric_bike", "rental_uris": {"ios": "https://dc.lft.to/lastmile_qr_scan", "android": "https://dc.lft.to/lastmile_qr_scan"}, "lon": -77.03401083333334, "fusion_lon": 0.0, "is_disabled": 0, "lat": 38.91920833333333, "bike_id": "57d58c65cc483e654a3e3f72dd2e4f75", "name": "57d58c65cc483e654a3e3f72dd2e4f75", "is_reserved": 0, "fusion_lat": 0.0}, {"type": "electric_scooter", "rental_uris": {"ios": "https://dc.lft.to/lastmile_qr_scan", "android": "https://dc.lft.to/lastmile_qr_scan"}, "lon": -77.04681966666666, "fusion_lon": 0.0, "is_disabled": 0, "lat": 38.917036833333334, "bike_id": "d1a46a3024024abf78206a9144493b4c", "name": "d1a46a3024024abf78206a9144493b4c", "is_reserved": 0, "fusion_lat": 0.0}, {"type": "electric_scooter", "rental_uris": {"ios": "https://dc.lft.to/lastmile_qr_scan", "android": "https://dc.lft.to/lastmile_qr_scan"}, "lon": -77.0297335, "fusion_lon": 0.0, "is_disabled": 0, "lat": 38.923263, "bike_id": "36e9ba4fe3b0fbb2a9a9b41ab1d659ba", "name": "36e9ba4fe3b0fbb2a9a9b41ab1d659ba", "is_reserved": 0, "fusion_lat": 0.0}, {"type": "electric_scooter", "rental_uris": {"ios": "https://dc.lft.to/lastmile_qr_scan", "android": "https://dc.lft.to/lastmile_qr_scan"}, "lon": -77.04363466666666, "fusion_lon": 0.0, "is_disabled": 0, "lat": 38.90238183333334, "bike_id": "b6b09989dd3825fc00c389a7cad36941", "name": "b6b09989dd3825fc00c389a7cad36941", "is_reserved": 0, "fusion_lat": 0.0}, {"type": "electric_scooter", "rental_uris": {"ios": "https://dc.lft.to/lastmile_qr_scan", "android": "https://dc.lft.to/lastmile_qr_scan"}, "lon": -77.0433895, "fusion_lon": 0.0, "is_disabled": 0, "lat": 38.892261833333336, "bike_id": "9d8573cfbacb6efe7ac3da0da814e19e", "name": "9d8573cfbacb6efe7ac3da0da814e19e", "is_reserved": 0, "fusion_lat": 0.0}, {"type": "electric_scooter", "rental_uris": {"ios": "https://dc.lft.to/lastmile_qr_scan", "android": "https://dc.lft.to/lastmile_qr_scan"}, "lon": -77.03177766666667, "fusion_lon": 0.0, "is_disabled": 0, "lat": 38.914194333333334, "bike_id": "e1b06ed81cd2d9f2414e4e6b0e7e6e33", "name": "e1b06ed81cd2d9f2414e4e6b0e7e6e33", "is_reserved": 0, "fusion_lat": 0.0}, {"type": "electric_scooter", "rental_uris": {"ios": "https://dc.lft.to/lastmile_qr_scan", "android": "https://dc.lft.to/lastmile_qr_scan"}, "lon": -76.99163633333333, "fusion_lon": 0.0, "is_disabled": 0, "lat": 38.859482166666666, "bike_id": "e35bb0f45737e5957508595cf8af5327", "name": "e35bb0f45737e5957508595cf8af5327", "is_reserved": 0, "fusion_lat": 0.0}, {"type": "electric_scooter", "rental_uris": {"ios": "https://dc.lft.to/lastmile_qr_scan", "android": "https://dc.lft.to/lastmile_qr_scan"}, "lon": -76.951335, "fusion_lon": 0.0, "is_disabled": 0, "lat": 38.865446166666665, "bike_id": "c70fd3dd90475b4dfc539a17de86d9a2", "name": "c70fd3dd90475b4dfc539a17de86d9a2", "is_reserved": 0, "fusion_lat": 0.0}, {"type": "electric_scooter", "rental_uris": {"ios": "https://dc.lft.to/lastmile_qr_scan", "android": "https://dc.lft.to/lastmile_qr_scan"}, "lon": -77.00452683333333, "fusion_lon": 0.0, "is_disabled": 0, "lat": 38.897343666666664, "bike_id": "4a9a446d8b69fd2f138fd4a7829ab3cf", "name": "4a9a446d8b69fd2f138fd4a7829ab3cf", "is_reserved": 0, "fusion_lat": 0.0}, {"type": "electric_scooter", "rental_uris": {"ios": "https://dc.lft.to/lastmile_qr_scan", "android": "https://dc.lft.to/lastmile_qr_scan"}, "lon": -77.03664333333333, "fusion_lon": 0.0, "is_disabled": 0, "lat": 38.917249, "bike_id": "5b832b1c04de01421facb6eb24ce3a23", "name": "5b832b1c04de01421facb6eb24ce3a23", "is_reserved": 0, "fusion_lat": 0.0}, {"type": "electric_scooter", "rental_uris": {"ios": "https://dc.lft.to/lastmile_qr_scan", "android": "https://dc.lft.to/lastmile_qr_scan"}, "lon": -77.00157533333334, "fusion_lon": 0.0, "is_disabled": 0, "lat": 38.90141216666667, "bike_id": "0ee155bdf14b3a7ed6635f419edac7dc", "name": "0ee155bdf14b3a7ed6635f419edac7dc", "is_reserved": 0, "fusion_lat": 0.0}, {"type": "electric_scooter", "rental_uris": {"ios": "https://dc.lft.to/lastmile_qr_scan", "android": "https://dc.lft.to/lastmile_qr_scan"}, "lon": -77.03708233333333, "fusion_lon": 0.0, "is_disabled": 0, "lat": 38.928601, "bike_id": "6bf49dd7c2b6d1ab51da6baad0cef18e", "name": "6bf49dd7c2b6d1ab51da6baad0cef18e", "is_reserved": 0, "fusion_lat": 0.0}, {"type": "electric_scooter", "rental_uris": {"ios": "https://dc.lft.to/lastmile_qr_scan", "android": "https://dc.lft.to/lastmile_qr_scan"}, "lon": -77.03862016666666, "fusion_lon": 0.0, "is_disabled": 0, "lat": 38.9025185, "bike_id": "ff8edebd1fa8871bc085d0041ffd1df6", "name": "ff8edebd1fa8871bc085d0041ffd1df6", "is_reserved": 0, "fusion_lat": 0.0}, {"type": "electric_scooter", "rental_uris": {"ios": "https://dc.lft.to/lastmile_qr_scan", "android": "https://dc.lft.to/lastmile_qr_scan"}, "lon": -76.97662166666667, "fusion_lon": 0.0, "is_disabled": 0, "lat": 38.898538, "bike_id": "08bbf3aa81160a97f4225a5b85f27922", "name": "08bbf3aa81160a97f4225a5b85f27922", "is_reserved": 0, "fusion_lat": 0.0}, {"type": "electric_scooter", "rental_uris": {"ios": "https://dc.lft.to/lastmile_qr_scan", "android": "https://dc.lft.to/lastmile_qr_scan"}, "lon": -76.9419075, "fusion_lon": 0.0, "is_disabled": 0, "lat": 38.897511333333334, "bike_id": "63b81c91690cd3d97841bc86f2927257", "name": "63b81c91690cd3d97841bc86f2927257", "is_reserved": 0, "fusion_lat": 0.0}, {"type": "electric_scooter", "rental_uris": {"ios": "https://dc.lft.to/lastmile_qr_scan", "android": "https://dc.lft.to/lastmile_qr_scan"}, "lon": -77.02599833333333, "fusion_lon": 0.0, "is_disabled": 0, "lat": 38.916935, "bike_id": "4b71c22578c9ab68c2af701c5c3619ea", "name": "4b71c22578c9ab68c2af701c5c3619ea", "is_reserved": 0, "fusion_lat": 0.0}, {"type": "electric_scooter", "rental_uris": {"ios": "https://dc.lft.to/lastmile_qr_scan", "android": "https://dc.lft.to/lastmile_qr_scan"}, "lon": -77.01943716666666, "fusion_lon": 0.0, "is_disabled": 0, "lat": 38.949293833333336, "bike_id": "658ae273b8b391d74d59aba4d773d490", "name": "658ae273b8b391d74d59aba4d773d490", "is_reserved": 0, "fusion_lat": 0.0}, {"type": "electric_scooter", "rental_uris": {"ios": "https://dc.lft.to/lastmile_qr_scan", "android": "https://dc.lft.to/lastmile_qr_scan"}, "lon": -77.04032066666667, "fusion_lon": 0.0, "is_disabled": 0, "lat": 38.9180755, "bike_id": "72eadfe182f478a61e76fae0b5c20c55", "name": "72eadfe182f478a61e76fae0b5c20c55", "is_reserved": 0, "fusion_lat": 0.0}, {"type": "electric_scooter", "rental_uris": {"ios": "https://dc.lft.to/lastmile_qr_scan", "android": "https://dc.lft.to/lastmile_qr_scan"}, "lon": -77.02584033333333, "fusion_lon": 0.0, "is_disabled": 0, "lat": 38.909648833333335, "bike_id": "51327a95a12c596e4d2479b2f74f01fd", "name": "51327a95a12c596e4d2479b2f74f01fd", "is_reserved": 0, "fusion_lat": 0.0}, {"type": "electric_bike", "rental_uris": {"ios": "https://dc.lft.to/lastmile_qr_scan", "android": "https://dc.lft.to/lastmile_qr_scan"}, "lon": -77.1201735, "fusion_lon": 0.0, "is_disabled": 0, "lat": 38.855146500000004, "bike_id": "07839a965aebdc2b7e5135135ccd6e32", "name": "07839a965aebdc2b7e5135135ccd6e32", "is_reserved": 0, "fusion_lat": 0.0}, {"type": "electric_scooter", "rental_uris": {"ios": "https://dc.lft.to/lastmile_qr_scan", "android": "https://dc.lft.to/lastmile_qr_scan"}, "lon": -77.03416, "fusion_lon": 0.0, "is_disabled": 0, "lat": 38.922360833333336, "bike_id": "250499bc418369cf5d5104d730b1a822", "name": "250499bc418369cf5d5104d730b1a822", "is_reserved": 0, "fusion_lat": 0.0}, {"type": "electric_scooter", "rental_uris": {"ios": "https://dc.lft.to/lastmile_qr_scan", "android": "https://dc.lft.to/lastmile_qr_scan"}, "lon": -77.0343165, "fusion_lon": 0.0, "is_disabled": 0, "lat": 38.907288333333334, "bike_id": "37c821009c2ee94dee5ed86dff637b93", "name": "37c821009c2ee94dee5ed86dff637b93", "is_reserved": 0, "fusion_lat": 0.0}, {"type": "electric_scooter", "rental_uris": {"ios": "https://dc.lft.to/lastmile_qr_scan", "android": "https://dc.lft.to/lastmile_qr_scan"}, "lon": -77.02289233333333, "fusion_lon": 0.0, "is_disabled": 0, "lat": 38.91731433333333, "bike_id": "84be149b28b7cf776ed03630b0a5f891", "name": "84be149b28b7cf776ed03630b0a5f891", "is_reserved": 0, "fusion_lat": 0.0}, {"type": "electric_scooter", "rental_uris": {"ios": "https://dc.lft.to/lastmile_qr_scan", "android": "https://dc.lft.to/lastmile_qr_scan"}, "lon": -77.02351333333333, "fusion_lon": 0.0, "is_disabled": 0, "lat": 38.91781183333333, "bike_id": "a545fa9d264aed7a6368624f3447d556", "name": "a545fa9d264aed7a6368624f3447d556", "is_reserved": 0, "fusion_lat": 0.0}, {"type": "electric_scooter", "rental_uris": {"ios": "https://dc.lft.to/lastmile_qr_scan", "android": "https://dc.lft.to/lastmile_qr_scan"}, "lon": -77.03151966666667, "fusion_lon": 0.0, "is_disabled": 0, "lat": 38.915625666666664, "bike_id": "82e1405a1945ac9ddff799c0377f51b5", "name": "82e1405a1945ac9ddff799c0377f51b5", "is_reserved": 0, "fusion_lat": 0.0}, {"type": "electric_scooter", "rental_uris": {"ios": "https://dc.lft.to/lastmile_qr_scan", "android": "https://dc.lft.to/lastmile_qr_scan"}, "lon": -77.03189583333334, "fusion_lon": 0.0, "is_disabled": 0, "lat": 38.907930666666665, "bike_id": "f4828ad387e94947cc81169f4d6524a4", "name": "f4828ad387e94947cc81169f4d6524a4", "is_reserved": 0, "fusion_lat": 0.0}, {"type": "electric_bike", "rental_uris": {"ios": "https://dc.lft.to/lastmile_qr_scan", "android": "https://dc.lft.to/lastmile_qr_scan"}, "lon": -76.96906316666667, "fusion_lon": 0.0, "is_disabled": 0, "lat": 38.84611183333333, "bike_id": "4611e1359db0ffb7c19fd141cc7fcbd0", "name": "4611e1359db0ffb7c19fd141cc7fcbd0", "is_reserved": 0, "fusion_lat": 0.0}, {"type": "electric_scooter", "rental_uris": {"ios": "https://dc.lft.to/lastmile_qr_scan", "android": "https://dc.lft.to/lastmile_qr_scan"}, "lon": -77.04210733333333, "fusion_lon": 0.0, "is_disabled": 0, "lat": 38.9074115, "bike_id": "4ddc268db29b8af825a8393595c61169", "name": "4ddc268db29b8af825a8393595c61169", "is_reserved": 0, "fusion_lat": 0.0}, {"type": "electric_scooter", "rental_uris": {"ios": "https://dc.lft.to/lastmile_qr_scan", "android": "https://dc.lft.to/lastmile_qr_scan"}, "lon": -77.02680766666667, "fusion_lon": 0.0, "is_disabled": 0, "lat": 38.906025, "bike_id": "dc27121907926c691c9c9bfd792b813e", "name": "dc27121907926c691c9c9bfd792b813e", "is_reserved": 0, "fusion_lat": 0.0}, {"type": "electric_bike", "rental_uris": {"ios": "https://dc.lft.to/lastmile_qr_scan", "android": "https://dc.lft.to/lastmile_qr_scan"}, "lon": -77.03897633333334, "fusion_lon": 0.0, "is_disabled": 0, "lat": 38.922166833333335, "bike_id": "c7e495b8e482b6897e0f1245ee6afcbc", "name": "c7e495b8e482b6897e0f1245ee6afcbc", "is_reserved": 0, "fusion_lat": 0.0}, {"type": "electric_bike", "rental_uris": {"ios": "https://dc.lft.to/lastmile_qr_scan", "android": "https://dc.lft.to/lastmile_qr_scan"}, "lon": -77.04928933333333, "fusion_lon": 0.0, "is_disabled": 0, "lat": 39.029334666666664, "bike_id": "e11d0471ef81de48b25d2058ba1bcf00", "name": "e11d0471ef81de48b25d2058ba1bcf00", "is_reserved": 0, "fusion_lat": 0.0}, {"type": "electric_scooter", "rental_uris": {"ios": "https://dc.lft.to/lastmile_qr_scan", "android": "https://dc.lft.to/lastmile_qr_scan"}, "lon": -77.0443265, "fusion_lon": 0.0, "is_disabled": 0, "lat": 38.921283833333334, "bike_id": "94bcae97f693e169ffa237dd05c3d2b7", "name": "94bcae97f693e169ffa237dd05c3d2b7", "is_reserved": 0, "fusion_lat": 0.0}, {"type": "electric_scooter", "rental_uris": {"ios": "https://dc.lft.to/lastmile_qr_scan", "android": "https://dc.lft.to/lastmile_qr_scan"}, "lon": -77.00519983333334, "fusion_lon": 0.0, "is_disabled": 0, "lat": 38.896771666666666, "bike_id": "acb112213bcdd56494181ddc61599069", "name": "acb112213bcdd56494181ddc61599069", "is_reserved": 0, "fusion_lat": 0.0}, {"type": "electric_scooter", "rental_uris": {"ios": "https://dc.lft.to/lastmile_qr_scan", "android": "https://dc.lft.to/lastmile_qr_scan"}, "lon": -77.034779, "fusion_lon": 0.0, "is_disabled": 0, "lat": 38.928725, "bike_id": "c3cb54ec2316adca6e67b57aa7d2e024", "name": "c3cb54ec2316adca6e67b57aa7d2e024", "is_reserved": 0, "fusion_lat": 0.0}, {"type": "electric_scooter", "rental_uris": {"ios": "https://dc.lft.to/lastmile_qr_scan", "android": "https://dc.lft.to/lastmile_qr_scan"}, "lon": -77.03904466666667, "fusion_lon": 0.0, "is_disabled": 0, "lat": 38.90243816666667, "bike_id": "8967cc5abdad948734068fa62ed91ae6", "name": "8967cc5abdad948734068fa62ed91ae6", "is_reserved": 0, "fusion_lat": 0.0}, {"type": "electric_scooter", "rental_uris": {"ios": "https://dc.lft.to/lastmile_qr_scan", "android": "https://dc.lft.to/lastmile_qr_scan"}, "lon": -77.03866466666666, "fusion_lon": 0.0, "is_disabled": 0, "lat": 38.90977516666667, "bike_id": "1bc618a6d9e945e55b74db71edc05918", "name": "1bc618a6d9e945e55b74db71edc05918", "is_reserved": 0, "fusion_lat": 0.0}, {"type": "electric_scooter", "rental_uris": {"ios": "https://dc.lft.to/lastmile_qr_scan", "android": "https://dc.lft.to/lastmile_qr_scan"}, "lon": -77.07708983333333, "fusion_lon": 0.0, "is_disabled": 0, "lat": 38.94388516666667, "bike_id": "1f0c4f2d12707e0cba091aea52d7df3a", "name": "1f0c4f2d12707e0cba091aea52d7df3a", "is_reserved": 0, "fusion_lat": 0.0}, {"type": "electric_scooter", "rental_uris": {"ios": "https://dc.lft.to/lastmile_qr_scan", "android": "https://dc.lft.to/lastmile_qr_scan"}, "lon": -77.049111, "fusion_lon": 0.0, "is_disabled": 0, "lat": 38.9009765, "bike_id": "e527453e2e7cb9e0937668b4ebb0eda2", "name": "e527453e2e7cb9e0937668b4ebb0eda2", "is_reserved": 0, "fusion_lat": 0.0}, {"type": "electric_bike", "rental_uris": {"ios": "https://dc.lft.to/lastmile_qr_scan", "android": "https://dc.lft.to/lastmile_qr_scan"}, "lon": -77.07119866666666, "fusion_lon": 0.0, "is_disabled": 0, "lat": 38.80065916666667, "bike_id": "08ce89fae79cde99a7b10adc95e16d61", "name": "08ce89fae79cde99a7b10adc95e16d61", "is_reserved": 0, "fusion_lat": 0.0}, {"type": "electric_scooter", "rental_uris": {"ios": "https://dc.lft.to/lastmile_qr_scan", "android": "https://dc.lft.to/lastmile_qr_scan"}, "lon": -77.03197366666667, "fusion_lon": 0.0, "is_disabled": 0, "lat": 38.91839316666667, "bike_id": "158340a749be883c3558cfa5dd1737be", "name": "158340a749be883c3558cfa5dd1737be", "is_reserved": 0, "fusion_lat": 0.0}, {"type": "electric_bike", "rental_uris": {"ios": "https://dc.lft.to/lastmile_qr_scan", "android": "https://dc.lft.to/lastmile_qr_scan"}, "lon": -77.024687, "fusion_lon": 0.0, "is_disabled": 0, "lat": 38.952957166666664, "bike_id": "486c1861e4fe6e90b7abad5dd2a1c329", "name": "486c1861e4fe6e90b7abad5dd2a1c329", "is_reserved": 0, "fusion_lat": 0.0}, {"type": "electric_scooter", "rental_uris": {"ios": "https://dc.lft.to/lastmile_qr_scan", "android": "https://dc.lft.to/lastmile_qr_scan"}, "lon": -77.04087133333333, "fusion_lon": 0.0, "is_disabled": 0, "lat": 38.91695683333333, "bike_id": "699941281b55388755abc8696f03ec51", "name": "699941281b55388755abc8696f03ec51", "is_reserved": 0, "fusion_lat": 0.0}, {"type": "electric_scooter", "rental_uris": {"ios": "https://dc.lft.to/lastmile_qr_scan", "android": "https://dc.lft.to/lastmile_qr_scan"}, "lon": -76.988861, "fusion_lon": 0.0, "is_disabled": 0, "lat": 38.866551, "bike_id": "13a2cfc6e893e098ee92d9cd683e9b6e", "name": "13a2cfc6e893e098ee92d9cd683e9b6e", "is_reserved": 0, "fusion_lat": 0.0}, {"type": "electric_scooter", "rental_uris": {"ios": "https://dc.lft.to/lastmile_qr_scan", "android": "https://dc.lft.to/lastmile_qr_scan"}, "lon": -76.99624583333333, "fusion_lon": 0.0, "is_disabled": 0, "lat": 38.899980666666664, "bike_id": "f8426bed5ae8e4bc41fe08b9521dddfc", "name": "f8426bed5ae8e4bc41fe08b9521dddfc", "is_reserved": 0, "fusion_lat": 0.0}, {"type": "electric_scooter", "rental_uris": {"ios": "https://dc.lft.to/lastmile_qr_scan", "android": "https://dc.lft.to/lastmile_qr_scan"}, "lon": -77.0205755, "fusion_lon": 0.0, "is_disabled": 0, "lat": 38.9085135, "bike_id": "74b8ec4b2abd604a2fec1e1320be64ab", "name": "74b8ec4b2abd604a2fec1e1320be64ab", "is_reserved": 0, "fusion_lat": 0.0}, {"type": "electric_scooter", "rental_uris": {"ios": "https://dc.lft.to/lastmile_qr_scan", "android": "https://dc.lft.to/lastmile_qr_scan"}, "lon": -76.94875666666667, "fusion_lon": 0.0, "is_disabled": 0, "lat": 38.895007166666666, "bike_id": "905ffa1bb4d12c70027f4362c6e3c59c", "name": "905ffa1bb4d12c70027f4362c6e3c59c", "is_reserved": 0, "fusion_lat": 0.0}, {"type": "electric_bike", "rental_uris": {"ios": "https://dc.lft.to/lastmile_qr_scan", "android": "https://dc.lft.to/lastmile_qr_scan"}, "lon": -77.06329966666667, "fusion_lon": 0.0, "is_disabled": 0, "lat": 38.92108316666667, "bike_id": "deff9c7d5246d23656aeb28bc5eaa971", "name": "deff9c7d5246d23656aeb28bc5eaa971", "is_reserved": 0, "fusion_lat": 0.0}, {"type": "electric_scooter", "rental_uris": {"ios": "https://dc.lft.to/lastmile_qr_scan", "android": "https://dc.lft.to/lastmile_qr_scan"}, "lon": -77.02489183333333, "fusion_lon": 0.0, "is_disabled": 0, "lat": 38.919538833333334, "bike_id": "bc81192c571caa9e82255c95bef19a8f", "name": "bc81192c571caa9e82255c95bef19a8f", "is_reserved": 0, "fusion_lat": 0.0}, {"type": "electric_scooter", "rental_uris": {"ios": "https://dc.lft.to/lastmile_qr_scan", "android": "https://dc.lft.to/lastmile_qr_scan"}, "lon": -76.999113, "fusion_lon": 0.0, "is_disabled": 0, "lat": 38.89889016666667, "bike_id": "e7c14614ea54203203170d3f4f9fb7fc", "name": "e7c14614ea54203203170d3f4f9fb7fc", "is_reserved": 0, "fusion_lat": 0.0}, {"type": "electric_scooter", "rental_uris": {"ios": "https://dc.lft.to/lastmile_qr_scan", "android": "https://dc.lft.to/lastmile_qr_scan"}, "lon": -77.02248683333333, "fusion_lon": 0.0, "is_disabled": 0, "lat": 38.878656166666666, "bike_id": "0a647b01030e9daba609ba311d94bb68", "name": "0a647b01030e9daba609ba311d94bb68", "is_reserved": 0, "fusion_lat": 0.0}, {"type": "electric_scooter", "rental_uris": {"ios": "https://dc.lft.to/lastmile_qr_scan", "android": "https://dc.lft.to/lastmile_qr_scan"}, "lon": -77.02839416666667, "fusion_lon": 0.0, "is_disabled": 0, "lat": 38.892276333333335, "bike_id": "3b942c764359f02070dd69f4ebe2efa6", "name": "3b942c764359f02070dd69f4ebe2efa6", "is_reserved": 0, "fusion_lat": 0.0}, {"type": "electric_scooter", "rental_uris": {"ios": "https://dc.lft.to/lastmile_qr_scan", "android": "https://dc.lft.to/lastmile_qr_scan"}, "lon": -77.0248725, "fusion_lon": 0.0, "is_disabled": 0, "lat": 38.919533, "bike_id": "e075e51343d54a564bc318b9c0aa686c", "name": "e075e51343d54a564bc318b9c0aa686c", "is_reserved": 0, "fusion_lat": 0.0}, {"type": "electric_bike", "rental_uris": {"ios": "https://dc.lft.to/lastmile_qr_scan", "android": "https://dc.lft.to/lastmile_qr_scan"}, "lon": -77.0497785, "fusion_lon": 0.0, "is_disabled": 0, "lat": 38.83221483333333, "bike_id": "2b2b49428b302fb58ddb7bb31b048bf8", "name": "2b2b49428b302fb58ddb7bb31b048bf8", "is_reserved": 0, "fusion_lat": 0.0}, {"type": "electric_scooter", "rental_uris": {"ios": "https://dc.lft.to/lastmile_qr_scan", "android": "https://dc.lft.to/lastmile_qr_scan"}, "lon": -76.9951645, "fusion_lon": 0.0, "is_disabled": 0, "lat": 38.862578666666664, "bike_id": "47b3b115262fbf2f275a14e803b99295", "name": "47b3b115262fbf2f275a14e803b99295", "is_reserved": 0, "fusion_lat": 0.0}, {"type": "electric_scooter", "rental_uris": {"ios": "https://dc.lft.to/lastmile_qr_scan", "android": "https://dc.lft.to/lastmile_qr_scan"}, "lon": -77.04514383333333, "fusion_lon": 0.0, "is_disabled": 0, "lat": 38.91967833333333, "bike_id": "aae583a4fa4d8fe2527ecf5c5488a53d", "name": "aae583a4fa4d8fe2527ecf5c5488a53d", "is_reserved": 0, "fusion_lat": 0.0}, {"type": "electric_scooter", "rental_uris": {"ios": "https://dc.lft.to/lastmile_qr_scan", "android": "https://dc.lft.to/lastmile_qr_scan"}, "lon": -76.98988366666667, "fusion_lon": 0.0, "is_disabled": 0, "lat": 38.864991333333336, "bike_id": "0c9a021ada24c4d7baf8c7eaa596e488", "name": "0c9a021ada24c4d7baf8c7eaa596e488", "is_reserved": 0, "fusion_lat": 0.0}, {"type": "electric_scooter", "rental_uris": {"ios": "https://dc.lft.to/lastmile_qr_scan", "android": "https://dc.lft.to/lastmile_qr_scan"}, "lon": -77.04473633333333, "fusion_lon": 0.0, "is_disabled": 0, "lat": 38.90938883333333, "bike_id": "8b01b86d7f0ba3bc7cba36466fd0ae6c", "name": "8b01b86d7f0ba3bc7cba36466fd0ae6c", "is_reserved": 0, "fusion_lat": 0.0}, {"type": "electric_scooter", "rental_uris": {"ios": "https://dc.lft.to/lastmile_qr_scan", "android": "https://dc.lft.to/lastmile_qr_scan"}, "lon": -77.03582966666667, "fusion_lon": 0.0, "is_disabled": 0, "lat": 38.934780333333336, "bike_id": "cd4e1c9ffe7d12caed3291569ce2da74", "name": "cd4e1c9ffe7d12caed3291569ce2da74", "is_reserved": 0, "fusion_lat": 0.0}, {"type": "electric_scooter", "rental_uris": {"ios": "https://dc.lft.to/lastmile_qr_scan", "android": "https://dc.lft.to/lastmile_qr_scan"}, "lon": -77.002095, "fusion_lon": 0.0, "is_disabled": 0, "lat": 38.9204765, "bike_id": "297c8e7594ba5c12dde01a4168946cd2", "name": "297c8e7594ba5c12dde01a4168946cd2", "is_reserved": 0, "fusion_lat": 0.0}, {"type": "electric_scooter", "rental_uris": {"ios": "https://dc.lft.to/lastmile_qr_scan", "android": "https://dc.lft.to/lastmile_qr_scan"}, "lon": -77.02772066666667, "fusion_lon": 0.0, "is_disabled": 0, "lat": 38.89705933333333, "bike_id": "236c7c22dcef3f88a90e469674d657ff", "name": "236c7c22dcef3f88a90e469674d657ff", "is_reserved": 0, "fusion_lat": 0.0}, {"type": "electric_scooter", "rental_uris": {"ios": "https://dc.lft.to/lastmile_qr_scan", "android": "https://dc.lft.to/lastmile_qr_scan"}, "lon": -77.0523245, "fusion_lon": 0.0, "is_disabled": 0, "lat": 38.9246825, "bike_id": "8311ecf117cda6587c036ba33804afd0", "name": "8311ecf117cda6587c036ba33804afd0", "is_reserved": 0, "fusion_lat": 0.0}, {"type": "electric_scooter", "rental_uris": {"ios": "https://dc.lft.to/lastmile_qr_scan", "android": "https://dc.lft.to/lastmile_qr_scan"}, "lon": -77.03599833333334, "fusion_lon": 0.0, "is_disabled": 0, "lat": 38.91694416666667, "bike_id": "c19c475afd34aa4135b703e7e8f60b1b", "name": "c19c475afd34aa4135b703e7e8f60b1b", "is_reserved": 0, "fusion_lat": 0.0}, {"type": "electric_bike", "rental_uris": {"ios": "https://dc.lft.to/lastmile_qr_scan", "android": "https://dc.lft.to/lastmile_qr_scan"}, "lon": -77.11802083333333, "fusion_lon": 0.0, "is_disabled": 0, "lat": 38.87373816666667, "bike_id": "e7d9b57f9d03a45fa55c68a040c446df", "name": "e7d9b57f9d03a45fa55c68a040c446df", "is_reserved": 0, "fusion_lat": 0.0}, {"type": "electric_scooter", "rental_uris": {"ios": "https://dc.lft.to/lastmile_qr_scan", "android": "https://dc.lft.to/lastmile_qr_scan"}, "lon": -77.0229605, "fusion_lon": 0.0, "is_disabled": 0, "lat": 38.9144045, "bike_id": "8a27ff57e28042f5f71b3f52b9201dd0", "name": "8a27ff57e28042f5f71b3f52b9201dd0", "is_reserved": 0, "fusion_lat": 0.0}, {"type": "electric_scooter", "rental_uris": {"ios": "https://dc.lft.to/lastmile_qr_scan", "android": "https://dc.lft.to/lastmile_qr_scan"}, "lon": -76.96526483333334, "fusion_lon": 0.0, "is_disabled": 0, "lat": 38.876268, "bike_id": "d6c605c77b723cd5488d96f26aaaa2db", "name": "d6c605c77b723cd5488d96f26aaaa2db", "is_reserved": 0, "fusion_lat": 0.0}, {"type": "electric_scooter", "rental_uris": {"ios": "https://dc.lft.to/lastmile_qr_scan", "android": "https://dc.lft.to/lastmile_qr_scan"}, "lon": -77.03902016666666, "fusion_lon": 0.0, "is_disabled": 0, "lat": 38.906573333333334, "bike_id": "9729f31931e8600727318a80b0e5b4d5", "name": "9729f31931e8600727318a80b0e5b4d5", "is_reserved": 0, "fusion_lat": 0.0}, {"type": "electric_scooter", "rental_uris": {"ios": "https://dc.lft.to/lastmile_qr_scan", "android": "https://dc.lft.to/lastmile_qr_scan"}, "lon": -77.04524383333333, "fusion_lon": 0.0, "is_disabled": 0, "lat": 38.91600583333334, "bike_id": "9e3e6255c729fe43c8fc960b15dd9dd3", "name": "9e3e6255c729fe43c8fc960b15dd9dd3", "is_reserved": 0, "fusion_lat": 0.0}, {"type": "electric_scooter", "rental_uris": {"ios": "https://dc.lft.to/lastmile_qr_scan", "android": "https://dc.lft.to/lastmile_qr_scan"}, "lon": -77.01557033333333, "fusion_lon": 0.0, "is_disabled": 0, "lat": 38.9267595, "bike_id": "244679f1a437e73a500db6f3ea672e3c", "name": "244679f1a437e73a500db6f3ea672e3c", "is_reserved": 0, "fusion_lat": 0.0}, {"type": "electric_scooter", "rental_uris": {"ios": "https://dc.lft.to/lastmile_qr_scan", "android": "https://dc.lft.to/lastmile_qr_scan"}, "lon": -77.04480183333334, "fusion_lon": 0.0, "is_disabled": 0, "lat": 38.911176, "bike_id": "e47807127804b89e2688c4d7f1a05bc1", "name": "e47807127804b89e2688c4d7f1a05bc1", "is_reserved": 0, "fusion_lat": 0.0}, {"type": "electric_scooter", "rental_uris": {"ios": "https://dc.lft.to/lastmile_qr_scan", "android": "https://dc.lft.to/lastmile_qr_scan"}, "lon": -77.04982216666667, "fusion_lon": 0.0, "is_disabled": 0, "lat": 38.90130416666667, "bike_id": "b0c7a7f2866e68e98a8e0b6eaf0f6ae9", "name": "b0c7a7f2866e68e98a8e0b6eaf0f6ae9", "is_reserved": 0, "fusion_lat": 0.0}, {"type": "electric_scooter", "rental_uris": {"ios": "https://dc.lft.to/lastmile_qr_scan", "android": "https://dc.lft.to/lastmile_qr_scan"}, "lon": -76.9651985, "fusion_lon": 0.0, "is_disabled": 0, "lat": 38.8763005, "bike_id": "35834eb511c8beec03948a9a2f4ff7f0", "name": "35834eb511c8beec03948a9a2f4ff7f0", "is_reserved": 0, "fusion_lat": 0.0}, {"type": "electric_bike", "rental_uris": {"ios": "https://dc.lft.to/lastmile_qr_scan", "android": "https://dc.lft.to/lastmile_qr_scan"}, "lon": -77.025367, "fusion_lon": 0.0, "is_disabled": 0, "lat": 38.93981766666667, "bike_id": "cc9197349549dff41fd24c1d216be089", "name": "cc9197349549dff41fd24c1d216be089", "is_reserved": 0, "fusion_lat": 0.0}, {"type": "electric_scooter", "rental_uris": {"ios": "https://dc.lft.to/lastmile_qr_scan", "android": "https://dc.lft.to/lastmile_qr_scan"}, "lon": -76.9373645, "fusion_lon": 0.0, "is_disabled": 0, "lat": 38.89015933333334, "bike_id": "ff8fcbe9664e39266e57fd91265125ad", "name": "ff8fcbe9664e39266e57fd91265125ad", "is_reserved": 0, "fusion_lat": 0.0}, {"type": "electric_scooter", "rental_uris": {"ios": "https://dc.lft.to/lastmile_qr_scan", "android": "https://dc.lft.to/lastmile_qr_scan"}, "lon": -77.02988233333333, "fusion_lon": 0.0, "is_disabled": 0, "lat": 38.90724683333333, "bike_id": "f2be9302fe10056836aaaa90b79a0172", "name": "f2be9302fe10056836aaaa90b79a0172", "is_reserved": 0, "fusion_lat": 0.0}, {"type": "electric_bike", "rental_uris": {"ios": "https://dc.lft.to/lastmile_qr_scan", "android": "https://dc.lft.to/lastmile_qr_scan"}, "lon": -77.02621866666667, "fusion_lon": 0.0, "is_disabled": 0, "lat": 38.969294, "bike_id": "6dfe707e5abc4a3132027a97742ea689", "name": "6dfe707e5abc4a3132027a97742ea689", "is_reserved": 0, "fusion_lat": 0.0}, {"type": "electric_scooter", "rental_uris": {"ios": "https://dc.lft.to/lastmile_qr_scan", "android": "https://dc.lft.to/lastmile_qr_scan"}, "lon": -77.02676733333334, "fusion_lon": 0.0, "is_disabled": 0, "lat": 38.916979833333336, "bike_id": "3618adc3b777934a15a5d8f64881d94d", "name": "3618adc3b777934a15a5d8f64881d94d", "is_reserved": 0, "fusion_lat": 0.0}, {"type": "electric_scooter", "rental_uris": {"ios": "https://dc.lft.to/lastmile_qr_scan", "android": "https://dc.lft.to/lastmile_qr_scan"}, "lon": -77.033408, "fusion_lon": 0.0, "is_disabled": 0, "lat": 38.89224033333333, "bike_id": "11e441b21ab96be173e0daa2ecdf6abd", "name": "11e441b21ab96be173e0daa2ecdf6abd", "is_reserved": 0, "fusion_lat": 0.0}, {"type": "electric_scooter", "rental_uris": {"ios": "https://dc.lft.to/lastmile_qr_scan", "android": "https://dc.lft.to/lastmile_qr_scan"}, "lon": -77.04470916666666, "fusion_lon": 0.0, "is_disabled": 0, "lat": 38.91115683333334, "bike_id": "8910c4f7d4074e9040ee2141a0680216", "name": "8910c4f7d4074e9040ee2141a0680216", "is_reserved": 0, "fusion_lat": 0.0}, {"type": "electric_scooter", "rental_uris": {"ios": "https://dc.lft.to/lastmile_qr_scan", "android": "https://dc.lft.to/lastmile_qr_scan"}, "lon": -77.038414, "fusion_lon": 0.0, "is_disabled": 0, "lat": 38.91760816666667, "bike_id": "24552a53dbef0eb1f0064d348d48cd70", "name": "24552a53dbef0eb1f0064d348d48cd70", "is_reserved": 0, "fusion_lat": 0.0}, {"type": "electric_scooter", "rental_uris": {"ios": "https://dc.lft.to/lastmile_qr_scan", "android": "https://dc.lft.to/lastmile_qr_scan"}, "lon": -76.919121, "fusion_lon": 0.0, "is_disabled": 0, "lat": 38.8857725, "bike_id": "05c5be312e783381977817d50e47cd4f", "name": "05c5be312e783381977817d50e47cd4f", "is_reserved": 0, "fusion_lat": 0.0}, {"type": "electric_scooter", "rental_uris": {"ios": "https://dc.lft.to/lastmile_qr_scan", "android": "https://dc.lft.to/lastmile_qr_scan"}, "lon": -77.04113, "fusion_lon": 0.0, "is_disabled": 0, "lat": 38.91699633333333, "bike_id": "47b28de86e64c0b0bddad949cb2c005d", "name": "47b28de86e64c0b0bddad949cb2c005d", "is_reserved": 0, "fusion_lat": 0.0}, {"type": "electric_scooter", "rental_uris": {"ios": "https://dc.lft.to/lastmile_qr_scan", "android": "https://dc.lft.to/lastmile_qr_scan"}, "lon": -77.0468625, "fusion_lon": 0.0, "is_disabled": 0, "lat": 38.90103766666667, "bike_id": "ead20e07903b9ec43e698a4639bd08e2", "name": "ead20e07903b9ec43e698a4639bd08e2", "is_reserved": 0, "fusion_lat": 0.0}, {"type": "electric_scooter", "rental_uris": {"ios": "https://dc.lft.to/lastmile_qr_scan", "android": "https://dc.lft.to/lastmile_qr_scan"}, "lon": -77.040138, "fusion_lon": 0.0, "is_disabled": 0, "lat": 38.91841516666667, "bike_id": "d10370284bc9aa6e96b45e430c327b53", "name": "d10370284bc9aa6e96b45e430c327b53", "is_reserved": 0, "fusion_lat": 0.0}, {"type": "electric_scooter", "rental_uris": {"ios": "https://dc.lft.to/lastmile_qr_scan", "android": "https://dc.lft.to/lastmile_qr_scan"}, "lon": -77.003488, "fusion_lon": 0.0, "is_disabled": 0, "lat": 38.89567366666667, "bike_id": "27e6c1174842dae2f6c0248554916585", "name": "27e6c1174842dae2f6c0248554916585", "is_reserved": 0, "fusion_lat": 0.0}, {"type": "electric_scooter", "rental_uris": {"ios": "https://dc.lft.to/lastmile_qr_scan", "android": "https://dc.lft.to/lastmile_qr_scan"}, "lon": -77.03952716666667, "fusion_lon": 0.0, "is_disabled": 0, "lat": 38.899094, "bike_id": "0815694a43c6130f8cf0da75faef869b", "name": "0815694a43c6130f8cf0da75faef869b", "is_reserved": 0, "fusion_lat": 0.0}, {"type": "electric_scooter", "rental_uris": {"ios": "https://dc.lft.to/lastmile_qr_scan", "android": "https://dc.lft.to/lastmile_qr_scan"}, "lon": -77.02383566666667, "fusion_lon": 0.0, "is_disabled": 0, "lat": 38.91741866666667, "bike_id": "0a9dcfd63ea3f140482145fbdd3c959e", "name": "0a9dcfd63ea3f140482145fbdd3c959e", "is_reserved": 0, "fusion_lat": 0.0}, {"type": "electric_scooter", "rental_uris": {"ios": "https://dc.lft.to/lastmile_qr_scan", "android": "https://dc.lft.to/lastmile_qr_scan"}, "lon": -77.043773, "fusion_lon": 0.0, "is_disabled": 0, "lat": 38.908310666666665, "bike_id": "37dd052c12e00f551635d4a3c7409d48", "name": "37dd052c12e00f551635d4a3c7409d48", "is_reserved": 0, "fusion_lat": 0.0}, {"type": "electric_bike", "rental_uris": {"ios": "https://dc.lft.to/lastmile_qr_scan", "android": "https://dc.lft.to/lastmile_qr_scan"}, "lon": -77.035144, "fusion_lon": 0.0, "is_disabled": 0, "lat": 38.96204133333333, "bike_id": "ebdc731a0baa0ac40940c84ff1adadbd", "name": "ebdc731a0baa0ac40940c84ff1adadbd", "is_reserved": 0, "fusion_lat": 0.0}, {"type": "electric_scooter", "rental_uris": {"ios": "https://dc.lft.to/lastmile_qr_scan", "android": "https://dc.lft.to/lastmile_qr_scan"}, "lon": -77.0300195, "fusion_lon": 0.0, "is_disabled": 0, "lat": 38.92968966666667, "bike_id": "05e0a3e71d7284c2c03b417c8c794ca4", "name": "05e0a3e71d7284c2c03b417c8c794ca4", "is_reserved": 0, "fusion_lat": 0.0}, {"type": "electric_scooter", "rental_uris": {"ios": "https://dc.lft.to/lastmile_qr_scan", "android": "https://dc.lft.to/lastmile_qr_scan"}, "lon": -77.04057333333333, "fusion_lon": 0.0, "is_disabled": 0, "lat": 38.899016, "bike_id": "c83597116702192ef6b87f6baab90bed", "name": "c83597116702192ef6b87f6baab90bed", "is_reserved": 0, "fusion_lat": 0.0}, {"type": "electric_scooter", "rental_uris": {"ios": "https://dc.lft.to/lastmile_qr_scan", "android": "https://dc.lft.to/lastmile_qr_scan"}, "lon": -77.041655, "fusion_lon": 0.0, "is_disabled": 0, "lat": 38.9176675, "bike_id": "4a2a2281e43f36ca22393c29fdb161e3", "name": "4a2a2281e43f36ca22393c29fdb161e3", "is_reserved": 0, "fusion_lat": 0.0}, {"type": "electric_scooter", "rental_uris": {"ios": "https://dc.lft.to/lastmile_qr_scan", "android": "https://dc.lft.to/lastmile_qr_scan"}, "lon": -77.001909, "fusion_lon": 0.0, "is_disabled": 0, "lat": 38.900408, "bike_id": "e72523ea9a7119a8387c7af76845fe1c", "name": "e72523ea9a7119a8387c7af76845fe1c", "is_reserved": 0, "fusion_lat": 0.0}, {"type": "electric_bike", "rental_uris": {"ios": "https://dc.lft.to/lastmile_qr_scan", "android": "https://dc.lft.to/lastmile_qr_scan"}, "lon": -77.0492445, "fusion_lon": 0.0, "is_disabled": 0, "lat": 38.81349133333333, "bike_id": "83af88e30e453831b9e970f4ad937ff6", "name": "83af88e30e453831b9e970f4ad937ff6", "is_reserved": 0, "fusion_lat": 0.0}, {"type": "electric_scooter", "rental_uris": {"ios": "https://dc.lft.to/lastmile_qr_scan", "android": "https://dc.lft.to/lastmile_qr_scan"}, "lon": -77.02581083333334, "fusion_lon": 0.0, "is_disabled": 0, "lat": 38.901450833333335, "bike_id": "7af5a58047fd368aa058da6f61c63678", "name": "7af5a58047fd368aa058da6f61c63678", "is_reserved": 0, "fusion_lat": 0.0}, {"type": "electric_bike", "rental_uris": {"ios": "https://dc.lft.to/lastmile_qr_scan", "android": "https://dc.lft.to/lastmile_qr_scan"}, "lon": -76.9835635, "fusion_lon": 0.0, "is_disabled": 0, "lat": 38.8943695, "bike_id": "747cee25dd80bd4020c78f6bc068ea6c", "name": "747cee25dd80bd4020c78f6bc068ea6c", "is_reserved": 0, "fusion_lat": 0.0}, {"type": "electric_scooter", "rental_uris": {"ios": "https://dc.lft.to/lastmile_qr_scan", "android": "https://dc.lft.to/lastmile_qr_scan"}, "lon": -77.00218433333333, "fusion_lon": 0.0, "is_disabled": 0, "lat": 38.90426466666667, "bike_id": "3637718ba385d7a948647157090b1056", "name": "3637718ba385d7a948647157090b1056", "is_reserved": 0, "fusion_lat": 0.0}, {"type": "electric_scooter", "rental_uris": {"ios": "https://dc.lft.to/lastmile_qr_scan", "android": "https://dc.lft.to/lastmile_qr_scan"}, "lon": -77.0266795, "fusion_lon": 0.0, "is_disabled": 0, "lat": 38.899337333333335, "bike_id": "ed038aaa7d9eb58972c0f9e1f74b2190", "name": "ed038aaa7d9eb58972c0f9e1f74b2190", "is_reserved": 0, "fusion_lat": 0.0}, {"type": "electric_bike", "rental_uris": {"ios": "https://dc.lft.to/lastmile_qr_scan", "android": "https://dc.lft.to/lastmile_qr_scan"}, "lon": -77.1874415, "fusion_lon": 0.0, "is_disabled": 0, "lat": 38.893531833333334, "bike_id": "2da21ba91744bfcbaf084c4172494d7f", "name": "2da21ba91744bfcbaf084c4172494d7f", "is_reserved": 0, "fusion_lat": 0.0}, {"type": "electric_scooter", "rental_uris": {"ios": "https://dc.lft.to/lastmile_qr_scan", "android": "https://dc.lft.to/lastmile_qr_scan"}, "lon": -77.02688033333334, "fusion_lon": 0.0, "is_disabled": 0, "lat": 38.916920166666664, "bike_id": "c463dfa41a185ca22964c5d0086bb389", "name": "c463dfa41a185ca22964c5d0086bb389", "is_reserved": 0, "fusion_lat": 0.0}, {"type": "electric_bike", "rental_uris": {"ios": "https://dc.lft.to/lastmile_qr_scan", "android": "https://dc.lft.to/lastmile_qr_scan"}, "lon": -77.044153, "fusion_lon": 0.0, "is_disabled": 0, "lat": 39.01564233333333, "bike_id": "88150c1d345b5468055e07e2eae95762", "name": "88150c1d345b5468055e07e2eae95762", "is_reserved": 0, "fusion_lat": 0.0}, {"type": "electric_scooter", "rental_uris": {"ios": "https://dc.lft.to/lastmile_qr_scan", "android": "https://dc.lft.to/lastmile_qr_scan"}, "lon": -77.02592633333333, "fusion_lon": 0.0, "is_disabled": 0, "lat": 38.90530366666667, "bike_id": "8fa99608aaf1cc70bc9bccfcfb869bdb", "name": "8fa99608aaf1cc70bc9bccfcfb869bdb", "is_reserved": 0, "fusion_lat": 0.0}, {"type": "electric_scooter", "rental_uris": {"ios": "https://dc.lft.to/lastmile_qr_scan", "android": "https://dc.lft.to/lastmile_qr_scan"}, "lon": -77.04366783333333, "fusion_lon": 0.0, "is_disabled": 0, "lat": 38.89220733333333, "bike_id": "86a2cad7c01a237266b53b48224e138d", "name": "86a2cad7c01a237266b53b48224e138d", "is_reserved": 0, "fusion_lat": 0.0}, {"type": "electric_scooter", "rental_uris": {"ios": "https://dc.lft.to/lastmile_qr_scan", "android": "https://dc.lft.to/lastmile_qr_scan"}, "lon": -77.02338433333334, "fusion_lon": 0.0, "is_disabled": 0, "lat": 38.91780266666667, "bike_id": "2cda033145b643b633b352d17325a1d2", "name": "2cda033145b643b633b352d17325a1d2", "is_reserved": 0, "fusion_lat": 0.0}, {"type": "electric_scooter", "rental_uris": {"ios": "https://dc.lft.to/lastmile_qr_scan", "android": "https://dc.lft.to/lastmile_qr_scan"}, "lon": -77.04461533333334, "fusion_lon": 0.0, "is_disabled": 0, "lat": 38.915277, "bike_id": "9bd72eb113264147eed7588e45d310e6", "name": "9bd72eb113264147eed7588e45d310e6", "is_reserved": 0, "fusion_lat": 0.0}, {"type": "electric_scooter", "rental_uris": {"ios": "https://dc.lft.to/lastmile_qr_scan", "android": "https://dc.lft.to/lastmile_qr_scan"}, "lon": -77.040302, "fusion_lon": 0.0, "is_disabled": 0, "lat": 38.91805216666667, "bike_id": "cc2a87a0d71c4f13fb0c90cc35d0e0ac", "name": "cc2a87a0d71c4f13fb0c90cc35d0e0ac", "is_reserved": 0, "fusion_lat": 0.0}, {"type": "electric_scooter", "rental_uris": {"ios": "https://dc.lft.to/lastmile_qr_scan", "android": "https://dc.lft.to/lastmile_qr_scan"}, "lon": -77.0279265, "fusion_lon": 0.0, "is_disabled": 0, "lat": 38.96129333333333, "bike_id": "d8d1c0a81cf04fb0ac55afbac7c6d44e", "name": "d8d1c0a81cf04fb0ac55afbac7c6d44e", "is_reserved": 0, "fusion_lat": 0.0}, {"type": "electric_scooter", "rental_uris": {"ios": "https://dc.lft.to/lastmile_qr_scan", "android": "https://dc.lft.to/lastmile_qr_scan"}, "lon": -77.04007916666667, "fusion_lon": 0.0, "is_disabled": 0, "lat": 38.92206383333333, "bike_id": "3b762b52899340e952afafb5720cfc19", "name": "3b762b52899340e952afafb5720cfc19", "is_reserved": 0, "fusion_lat": 0.0}, {"type": "electric_scooter", "rental_uris": {"ios": "https://dc.lft.to/lastmile_qr_scan", "android": "https://dc.lft.to/lastmile_qr_scan"}, "lon": -77.04224766666667, "fusion_lon": 0.0, "is_disabled": 0, "lat": 38.907860166666666, "bike_id": "2be6b23373a981cf117cc32a8246ed27", "name": "2be6b23373a981cf117cc32a8246ed27", "is_reserved": 0, "fusion_lat": 0.0}, {"type": "electric_scooter", "rental_uris": {"ios": "https://dc.lft.to/lastmile_qr_scan", "android": "https://dc.lft.to/lastmile_qr_scan"}, "lon": -77.03078766666667, "fusion_lon": 0.0, "is_disabled": 0, "lat": 38.911085666666665, "bike_id": "2aece88943b5db6488ac379c52a55a15", "name": "2aece88943b5db6488ac379c52a55a15", "is_reserved": 0, "fusion_lat": 0.0}, {"type": "electric_scooter", "rental_uris": {"ios": "https://dc.lft.to/lastmile_qr_scan", "android": "https://dc.lft.to/lastmile_qr_scan"}, "lon": -76.94636366666667, "fusion_lon": 0.0, "is_disabled": 0, "lat": 38.89844466666667, "bike_id": "80391cc4001a5f43f8b245fc9f34d46a", "name": "80391cc4001a5f43f8b245fc9f34d46a", "is_reserved": 0, "fusion_lat": 0.0}, {"type": "electric_bike", "rental_uris": {"ios": "https://dc.lft.to/lastmile_qr_scan", "android": "https://dc.lft.to/lastmile_qr_scan"}, "lon": -76.990189, "fusion_lon": 0.0, "is_disabled": 0, "lat": 38.878715666666665, "bike_id": "9be36a8f1eb552ae42a292116e6b86ed", "name": "9be36a8f1eb552ae42a292116e6b86ed", "is_reserved": 0, "fusion_lat": 0.0}, {"type": "electric_scooter", "rental_uris": {"ios": "https://dc.lft.to/lastmile_qr_scan", "android": "https://dc.lft.to/lastmile_qr_scan"}, "lon": -77.03660616666667, "fusion_lon": 0.0, "is_disabled": 0, "lat": 38.91723416666667, "bike_id": "73c695bb3f918295b0d8d4eedb7c2180", "name": "73c695bb3f918295b0d8d4eedb7c2180", "is_reserved": 0, "fusion_lat": 0.0}, {"type": "electric_scooter", "rental_uris": {"ios": "https://dc.lft.to/lastmile_qr_scan", "android": "https://dc.lft.to/lastmile_qr_scan"}, "lon": -77.03296133333333, "fusion_lon": 0.0, "is_disabled": 0, "lat": 38.89927516666667, "bike_id": "54ec3044cb515b29cd9e5b7bf366bf16", "name": "54ec3044cb515b29cd9e5b7bf366bf16", "is_reserved": 0, "fusion_lat": 0.0}, {"type": "electric_scooter", "rental_uris": {"ios": "https://dc.lft.to/lastmile_qr_scan", "android": "https://dc.lft.to/lastmile_qr_scan"}, "lon": -77.038539, "fusion_lon": 0.0, "is_disabled": 0, "lat": 38.93255533333333, "bike_id": "90ca2fef07b1c269077eadfd1fb94cd4", "name": "90ca2fef07b1c269077eadfd1fb94cd4", "is_reserved": 0, "fusion_lat": 0.0}, {"type": "electric_scooter", "rental_uris": {"ios": "https://dc.lft.to/lastmile_qr_scan", "android": "https://dc.lft.to/lastmile_qr_scan"}, "lon": -77.03859783333333, "fusion_lon": 0.0, "is_disabled": 0, "lat": 38.91562866666666, "bike_id": "10ee6704c96bc37d5296ef05eacbacb8", "name": "10ee6704c96bc37d5296ef05eacbacb8", "is_reserved": 0, "fusion_lat": 0.0}, {"type": "electric_scooter", "rental_uris": {"ios": "https://dc.lft.to/lastmile_qr_scan", "android": "https://dc.lft.to/lastmile_qr_scan"}, "lon": -77.02607233333333, "fusion_lon": 0.0, "is_disabled": 0, "lat": 38.91409616666667, "bike_id": "cd0c773de6074b1815afbb2ea482b995", "name": "cd0c773de6074b1815afbb2ea482b995", "is_reserved": 0, "fusion_lat": 0.0}, {"type": "electric_scooter", "rental_uris": {"ios": "https://dc.lft.to/lastmile_qr_scan", "android": "https://dc.lft.to/lastmile_qr_scan"}, "lon": -77.01332283333333, "fusion_lon": 0.0, "is_disabled": 0, "lat": 38.88145183333334, "bike_id": "c4f78eb56af5d77762cdb9e2444aae1f", "name": "c4f78eb56af5d77762cdb9e2444aae1f", "is_reserved": 0, "fusion_lat": 0.0}, {"type": "electric_bike", "rental_uris": {"ios": "https://dc.lft.to/lastmile_qr_scan", "android": "https://dc.lft.to/lastmile_qr_scan"}, "lon": -76.93650166666667, "fusion_lon": 0.0, "is_disabled": 0, "lat": 38.871508166666665, "bike_id": "0cac81e01aceff75caa4726efd19ac36", "name": "0cac81e01aceff75caa4726efd19ac36", "is_reserved": 0, "fusion_lat": 0.0}, {"type": "electric_scooter", "rental_uris": {"ios": "https://dc.lft.to/lastmile_qr_scan", "android": "https://dc.lft.to/lastmile_qr_scan"}, "lon": -76.926227, "fusion_lon": 0.0, "is_disabled": 0, "lat": 38.88459666666667, "bike_id": "54895a3717b6d2894ac28a005836271a", "name": "54895a3717b6d2894ac28a005836271a", "is_reserved": 0, "fusion_lat": 0.0}, {"type": "electric_scooter", "rental_uris": {"ios": "https://dc.lft.to/lastmile_qr_scan", "android": "https://dc.lft.to/lastmile_qr_scan"}, "lon": -77.03453466666667, "fusion_lon": 0.0, "is_disabled": 0, "lat": 38.904162666666664, "bike_id": "59aa4b66b711963ee27bf1ad8ab6cae3", "name": "59aa4b66b711963ee27bf1ad8ab6cae3", "is_reserved": 0, "fusion_lat": 0.0}, {"type": "electric_scooter", "rental_uris": {"ios": "https://dc.lft.to/lastmile_qr_scan", "android": "https://dc.lft.to/lastmile_qr_scan"}, "lon": -77.02658566666666, "fusion_lon": 0.0, "is_disabled": 0, "lat": 38.89217633333333, "bike_id": "59f05aab7f0b89985e9cdeb8a21da7ed", "name": "59f05aab7f0b89985e9cdeb8a21da7ed", "is_reserved": 0, "fusion_lat": 0.0}, {"type": "electric_scooter", "rental_uris": {"ios": "https://dc.lft.to/lastmile_qr_scan", "android": "https://dc.lft.to/lastmile_qr_scan"}, "lon": -77.04661433333334, "fusion_lon": 0.0, "is_disabled": 0, "lat": 38.89240266666667, "bike_id": "a47f80e5016c060cc57f75671067a5a7", "name": "a47f80e5016c060cc57f75671067a5a7", "is_reserved": 0, "fusion_lat": 0.0}, {"type": "electric_scooter", "rental_uris": {"ios": "https://dc.lft.to/lastmile_qr_scan", "android": "https://dc.lft.to/lastmile_qr_scan"}, "lon": -77.02323466666667, "fusion_lon": 0.0, "is_disabled": 0, "lat": 38.916893333333334, "bike_id": "1be4d243920a954558727ebf1b9c34af", "name": "1be4d243920a954558727ebf1b9c34af", "is_reserved": 0, "fusion_lat": 0.0}, {"type": "electric_scooter", "rental_uris": {"ios": "https://dc.lft.to/lastmile_qr_scan", "android": "https://dc.lft.to/lastmile_qr_scan"}, "lon": -77.03797016666667, "fusion_lon": 0.0, "is_disabled": 0, "lat": 38.92621916666667, "bike_id": "4fbb87b96775d37206894a509ffabbb6", "name": "4fbb87b96775d37206894a509ffabbb6", "is_reserved": 0, "fusion_lat": 0.0}, {"type": "electric_scooter", "rental_uris": {"ios": "https://dc.lft.to/lastmile_qr_scan", "android": "https://dc.lft.to/lastmile_qr_scan"}, "lon": -76.99595216666667, "fusion_lon": 0.0, "is_disabled": 0, "lat": 38.884356333333336, "bike_id": "3626bc98c0d6f384eb1d0e4bb9c4bfa0", "name": "3626bc98c0d6f384eb1d0e4bb9c4bfa0", "is_reserved": 0, "fusion_lat": 0.0}, {"type": "electric_scooter", "rental_uris": {"ios": "https://dc.lft.to/lastmile_qr_scan", "android": "https://dc.lft.to/lastmile_qr_scan"}, "lon": -77.04518083333333, "fusion_lon": 0.0, "is_disabled": 0, "lat": 38.918209166666664, "bike_id": "3e10c49fd90fea2b1fbf69a96bd64694", "name": "3e10c49fd90fea2b1fbf69a96bd64694", "is_reserved": 0, "fusion_lat": 0.0}, {"type": "electric_scooter", "rental_uris": {"ios": "https://dc.lft.to/lastmile_qr_scan", "android": "https://dc.lft.to/lastmile_qr_scan"}, "lon": -76.96870833333334, "fusion_lon": 0.0, "is_disabled": 0, "lat": 38.870938833333334, "bike_id": "65a744eef80cf8cc27ce337eddb76d30", "name": "65a744eef80cf8cc27ce337eddb76d30", "is_reserved": 0, "fusion_lat": 0.0}, {"type": "electric_scooter", "rental_uris": {"ios": "https://dc.lft.to/lastmile_qr_scan", "android": "https://dc.lft.to/lastmile_qr_scan"}, "lon": -77.04506033333334, "fusion_lon": 0.0, "is_disabled": 0, "lat": 38.89222216666667, "bike_id": "06ae932910cbf4c21697cbd298adca0f", "name": "06ae932910cbf4c21697cbd298adca0f", "is_reserved": 0, "fusion_lat": 0.0}, {"type": "electric_scooter", "rental_uris": {"ios": "https://dc.lft.to/lastmile_qr_scan", "android": "https://dc.lft.to/lastmile_qr_scan"}, "lon": -77.03374666666667, "fusion_lon": 0.0, "is_disabled": 0, "lat": 38.88762066666666, "bike_id": "05640815ec5c93c9e08f25db21d1eca5", "name": "05640815ec5c93c9e08f25db21d1eca5", "is_reserved": 0, "fusion_lat": 0.0}, {"type": "electric_scooter", "rental_uris": {"ios": "https://dc.lft.to/lastmile_qr_scan", "android": "https://dc.lft.to/lastmile_qr_scan"}, "lon": -77.02778133333334, "fusion_lon": 0.0, "is_disabled": 0, "lat": 38.892216833333336, "bike_id": "5ad21a4f82c4a4fdb93487c7f74df5cc", "name": "5ad21a4f82c4a4fdb93487c7f74df5cc", "is_reserved": 0, "fusion_lat": 0.0}, {"type": "electric_scooter", "rental_uris": {"ios": "https://dc.lft.to/lastmile_qr_scan", "android": "https://dc.lft.to/lastmile_qr_scan"}, "lon": -76.9660255, "fusion_lon": 0.0, "is_disabled": 0, "lat": 38.873833166666664, "bike_id": "5c1944a3cf8e9e142b1257642e0b38d1", "name": "5c1944a3cf8e9e142b1257642e0b38d1", "is_reserved": 0, "fusion_lat": 0.0}, {"type": "electric_scooter", "rental_uris": {"ios": "https://dc.lft.to/lastmile_qr_scan", "android": "https://dc.lft.to/lastmile_qr_scan"}, "lon": -77.04372366666666, "fusion_lon": 0.0, "is_disabled": 0, "lat": 38.921177166666666, "bike_id": "8548c366d2f17c5204fb7ed289ac1b4c", "name": "8548c366d2f17c5204fb7ed289ac1b4c", "is_reserved": 0, "fusion_lat": 0.0}, {"type": "electric_scooter", "rental_uris": {"ios": "https://dc.lft.to/lastmile_qr_scan", "android": "https://dc.lft.to/lastmile_qr_scan"}, "lon": -77.03855333333334, "fusion_lon": 0.0, "is_disabled": 0, "lat": 38.932601166666664, "bike_id": "e5f1263c86d6cdecad45302a6611c766", "name": "e5f1263c86d6cdecad45302a6611c766", "is_reserved": 0, "fusion_lat": 0.0}, {"type": "electric_scooter", "rental_uris": {"ios": "https://dc.lft.to/lastmile_qr_scan", "android": "https://dc.lft.to/lastmile_qr_scan"}, "lon": -77.040075, "fusion_lon": 0.0, "is_disabled": 0, "lat": 38.9216675, "bike_id": "d93aa0247d5c09c5e228c0892a186917", "name": "d93aa0247d5c09c5e228c0892a186917", "is_reserved": 0, "fusion_lat": 0.0}, {"type": "electric_scooter", "rental_uris": {"ios": "https://dc.lft.to/lastmile_qr_scan", "android": "https://dc.lft.to/lastmile_qr_scan"}, "lon": -77.03188633333333, "fusion_lon": 0.0, "is_disabled": 0, "lat": 38.9079455, "bike_id": "6c67b27e42542008bece52c51ae72deb", "name": "6c67b27e42542008bece52c51ae72deb", "is_reserved": 0, "fusion_lat": 0.0}, {"type": "electric_scooter", "rental_uris": {"ios": "https://dc.lft.to/lastmile_qr_scan", "android": "https://dc.lft.to/lastmile_qr_scan"}, "lon": -77.02971716666667, "fusion_lon": 0.0, "is_disabled": 0, "lat": 38.916764666666666, "bike_id": "f4c20d550315b1e577d404ffaa15199a", "name": "f4c20d550315b1e577d404ffaa15199a", "is_reserved": 0, "fusion_lat": 0.0}, {"type": "electric_scooter", "rental_uris": {"ios": "https://dc.lft.to/lastmile_qr_scan", "android": "https://dc.lft.to/lastmile_qr_scan"}, "lon": -77.00222566666666, "fusion_lon": 0.0, "is_disabled": 0, "lat": 38.92509916666667, "bike_id": "c217d9227f1f3bbe0c868962809a2aba", "name": "c217d9227f1f3bbe0c868962809a2aba", "is_reserved": 0, "fusion_lat": 0.0}, {"type": "electric_scooter", "rental_uris": {"ios": "https://dc.lft.to/lastmile_qr_scan", "android": "https://dc.lft.to/lastmile_qr_scan"}, "lon": -77.02330933333333, "fusion_lon": 0.0, "is_disabled": 0, "lat": 38.936014, "bike_id": "3ca5359a109b62bfd8bbe4cd63a5785f", "name": "3ca5359a109b62bfd8bbe4cd63a5785f", "is_reserved": 0, "fusion_lat": 0.0}, {"type": "electric_scooter", "rental_uris": {"ios": "https://dc.lft.to/lastmile_qr_scan", "android": "https://dc.lft.to/lastmile_qr_scan"}, "lon": -77.04160766666666, "fusion_lon": 0.0, "is_disabled": 0, "lat": 38.9151755, "bike_id": "5a07ebcc31bc6e2259266393f788734d", "name": "5a07ebcc31bc6e2259266393f788734d", "is_reserved": 0, "fusion_lat": 0.0}, {"type": "electric_bike", "rental_uris": {"ios": "https://dc.lft.to/lastmile_qr_scan", "android": "https://dc.lft.to/lastmile_qr_scan"}, "lon": -76.98106883333334, "fusion_lon": 0.0, "is_disabled": 0, "lat": 38.8773275, "bike_id": "7eb936e60191636483c7c1c4d66c43ef", "name": "7eb936e60191636483c7c1c4d66c43ef", "is_reserved": 0, "fusion_lat": 0.0}, {"type": "electric_scooter", "rental_uris": {"ios": "https://dc.lft.to/lastmile_qr_scan", "android": "https://dc.lft.to/lastmile_qr_scan"}, "lon": -77.02592933333334, "fusion_lon": 0.0, "is_disabled": 0, "lat": 38.94201533333333, "bike_id": "178a7897b02df0ca6e0700d12e39d021", "name": "178a7897b02df0ca6e0700d12e39d021", "is_reserved": 0, "fusion_lat": 0.0}, {"type": "electric_scooter", "rental_uris": {"ios": "https://dc.lft.to/lastmile_qr_scan", "android": "https://dc.lft.to/lastmile_qr_scan"}, "lon": -77.03504816666667, "fusion_lon": 0.0, "is_disabled": 0, "lat": 38.917118333333335, "bike_id": "8e70f7f61672551f2dbb0e699cef4951", "name": "8e70f7f61672551f2dbb0e699cef4951", "is_reserved": 0, "fusion_lat": 0.0}, {"type": "electric_scooter", "rental_uris": {"ios": "https://dc.lft.to/lastmile_qr_scan", "android": "https://dc.lft.to/lastmile_qr_scan"}, "lon": -77.00575016666667, "fusion_lon": 0.0, "is_disabled": 0, "lat": 38.9057475, "bike_id": "5fe7bee3ec0261058478fa0114dd0b53", "name": "5fe7bee3ec0261058478fa0114dd0b53", "is_reserved": 0, "fusion_lat": 0.0}, {"type": "electric_scooter", "rental_uris": {"ios": "https://dc.lft.to/lastmile_qr_scan", "android": "https://dc.lft.to/lastmile_qr_scan"}, "lon": -77.0201405, "fusion_lon": 0.0, "is_disabled": 0, "lat": 38.89867566666667, "bike_id": "7a9537fd467851cd4f6c6cbd966fd01c", "name": "7a9537fd467851cd4f6c6cbd966fd01c", "is_reserved": 0, "fusion_lat": 0.0}, {"type": "electric_scooter", "rental_uris": {"ios": "https://dc.lft.to/lastmile_qr_scan", "android": "https://dc.lft.to/lastmile_qr_scan"}, "lon": -77.04419616666667, "fusion_lon": 0.0, "is_disabled": 0, "lat": 38.902338, "bike_id": "d9bb2753fb195a4708964396162fef29", "name": "d9bb2753fb195a4708964396162fef29", "is_reserved": 0, "fusion_lat": 0.0}, {"type": "electric_scooter", "rental_uris": {"ios": "https://dc.lft.to/lastmile_qr_scan", "android": "https://dc.lft.to/lastmile_qr_scan"}, "lon": -77.02291483333333, "fusion_lon": 0.0, "is_disabled": 0, "lat": 38.916863166666666, "bike_id": "1e3365ad20b68a20fccf01be419871b5", "name": "1e3365ad20b68a20fccf01be419871b5", "is_reserved": 0, "fusion_lat": 0.0}, {"type": "electric_scooter", "rental_uris": {"ios": "https://dc.lft.to/lastmile_qr_scan", "android": "https://dc.lft.to/lastmile_qr_scan"}, "lon": -77.04522383333334, "fusion_lon": 0.0, "is_disabled": 0, "lat": 38.93315916666667, "bike_id": "8953a3d2261ed5980a26f24808986ae5", "name": "8953a3d2261ed5980a26f24808986ae5", "is_reserved": 0, "fusion_lat": 0.0}, {"type": "electric_scooter", "rental_uris": {"ios": "https://dc.lft.to/lastmile_qr_scan", "android": "https://dc.lft.to/lastmile_qr_scan"}, "lon": -77.021959, "fusion_lon": 0.0, "is_disabled": 0, "lat": 38.9108395, "bike_id": "34216dad235d04595a3a0bc854ee4a3f", "name": "34216dad235d04595a3a0bc854ee4a3f", "is_reserved": 0, "fusion_lat": 0.0}, {"type": "electric_scooter", "rental_uris": {"ios": "https://dc.lft.to/lastmile_qr_scan", "android": "https://dc.lft.to/lastmile_qr_scan"}, "lon": -77.04028366666667, "fusion_lon": 0.0, "is_disabled": 0, "lat": 38.922134166666666, "bike_id": "25eec74b49618f89df0fc2856ea377e7", "name": "25eec74b49618f89df0fc2856ea377e7", "is_reserved": 0, "fusion_lat": 0.0}, {"type": "electric_scooter", "rental_uris": {"ios": "https://dc.lft.to/lastmile_qr_scan", "android": "https://dc.lft.to/lastmile_qr_scan"}, "lon": -77.03164566666666, "fusion_lon": 0.0, "is_disabled": 0, "lat": 38.89225166666667, "bike_id": "18503b86c8210b6aaaf65a3ba20ad3cc", "name": "18503b86c8210b6aaaf65a3ba20ad3cc", "is_reserved": 0, "fusion_lat": 0.0}, {"type": "electric_scooter", "rental_uris": {"ios": "https://dc.lft.to/lastmile_qr_scan", "android": "https://dc.lft.to/lastmile_qr_scan"}, "lon": -77.04661633333333, "fusion_lon": 0.0, "is_disabled": 0, "lat": 38.892376166666665, "bike_id": "5e3cf4d635ccbc5d1532a37fefcf004d", "name": "5e3cf4d635ccbc5d1532a37fefcf004d", "is_reserved": 0, "fusion_lat": 0.0}, {"type": "electric_scooter", "rental_uris": {"ios": "https://dc.lft.to/lastmile_qr_scan", "android": "https://dc.lft.to/lastmile_qr_scan"}, "lon": -77.034489, "fusion_lon": 0.0, "is_disabled": 0, "lat": 38.907343833333336, "bike_id": "8b233198134568e5347cba763a7733f5", "name": "8b233198134568e5347cba763a7733f5", "is_reserved": 0, "fusion_lat": 0.0}, {"type": "electric_scooter", "rental_uris": {"ios": "https://dc.lft.to/lastmile_qr_scan", "android": "https://dc.lft.to/lastmile_qr_scan"}, "lon": -77.031674, "fusion_lon": 0.0, "is_disabled": 0, "lat": 38.897929833333336, "bike_id": "10093f74e4ca06142c50699fec6870a8", "name": "10093f74e4ca06142c50699fec6870a8", "is_reserved": 0, "fusion_lat": 0.0}, {"type": "electric_scooter", "rental_uris": {"ios": "https://dc.lft.to/lastmile_qr_scan", "android": "https://dc.lft.to/lastmile_qr_scan"}, "lon": -76.97744383333334, "fusion_lon": 0.0, "is_disabled": 0, "lat": 38.868275833333335, "bike_id": "06e84fa1047e619cd4533f3d1a5e479d", "name": "06e84fa1047e619cd4533f3d1a5e479d", "is_reserved": 0, "fusion_lat": 0.0}, {"type": "electric_scooter", "rental_uris": {"ios": "https://dc.lft.to/lastmile_qr_scan", "android": "https://dc.lft.to/lastmile_qr_scan"}, "lon": -77.03943366666667, "fusion_lon": 0.0, "is_disabled": 0, "lat": 38.915783833333336, "bike_id": "5e75b5cbe7e542825a74232dd9a3c025", "name": "5e75b5cbe7e542825a74232dd9a3c025", "is_reserved": 0, "fusion_lat": 0.0}, {"type": "electric_bike", "rental_uris": {"ios": "https://dc.lft.to/lastmile_qr_scan", "android": "https://dc.lft.to/lastmile_qr_scan"}, "lon": -76.946254, "fusion_lon": 0.0, "is_disabled": 0, "lat": 38.83234083333333, "bike_id": "67915cc937daacd30d4f1e5178b73054", "name": "67915cc937daacd30d4f1e5178b73054", "is_reserved": 0, "fusion_lat": 0.0}, {"type": "electric_scooter", "rental_uris": {"ios": "https://dc.lft.to/lastmile_qr_scan", "android": "https://dc.lft.to/lastmile_qr_scan"}, "lon": -77.0176385, "fusion_lon": 0.0, "is_disabled": 0, "lat": 38.8767215, "bike_id": "aedb58aa3ec54c79f2e9ecb3e31662d6", "name": "aedb58aa3ec54c79f2e9ecb3e31662d6", "is_reserved": 0, "fusion_lat": 0.0}, {"type": "electric_scooter", "rental_uris": {"ios": "https://dc.lft.to/lastmile_qr_scan", "android": "https://dc.lft.to/lastmile_qr_scan"}, "lon": -77.0316415, "fusion_lon": 0.0, "is_disabled": 0, "lat": 38.892223333333334, "bike_id": "78d2b64a51537a47fd4943e7bce739c9", "name": "78d2b64a51537a47fd4943e7bce739c9", "is_reserved": 0, "fusion_lat": 0.0}, {"type": "electric_scooter", "rental_uris": {"ios": "https://dc.lft.to/lastmile_qr_scan", "android": "https://dc.lft.to/lastmile_qr_scan"}, "lon": -77.03630016666666, "fusion_lon": 0.0, "is_disabled": 0, "lat": 38.937413166666666, "bike_id": "cf0c3ac777ca870bc181ed9f68d36482", "name": "cf0c3ac777ca870bc181ed9f68d36482", "is_reserved": 0, "fusion_lat": 0.0}, {"type": "electric_scooter", "rental_uris": {"ios": "https://dc.lft.to/lastmile_qr_scan", "android": "https://dc.lft.to/lastmile_qr_scan"}, "lon": -77.046566, "fusion_lon": 0.0, "is_disabled": 0, "lat": 38.896459666666665, "bike_id": "900e93ae9a2574aefba8b14c43925986", "name": "900e93ae9a2574aefba8b14c43925986", "is_reserved": 0, "fusion_lat": 0.0}, {"type": "electric_scooter", "rental_uris": {"ios": "https://dc.lft.to/lastmile_qr_scan", "android": "https://dc.lft.to/lastmile_qr_scan"}, "lon": -77.0531405, "fusion_lon": 0.0, "is_disabled": 0, "lat": 38.900793666666665, "bike_id": "6322334e170dcc00ec5840a4a49cb5e3", "name": "6322334e170dcc00ec5840a4a49cb5e3", "is_reserved": 0, "fusion_lat": 0.0}, {"type": "electric_scooter", "rental_uris": {"ios": "https://dc.lft.to/lastmile_qr_scan", "android": "https://dc.lft.to/lastmile_qr_scan"}, "lon": -77.03999016666667, "fusion_lon": 0.0, "is_disabled": 0, "lat": 38.91413133333333, "bike_id": "af07038b01b0a689d8879b891d5d72f4", "name": "af07038b01b0a689d8879b891d5d72f4", "is_reserved": 0, "fusion_lat": 0.0}, {"type": "electric_scooter", "rental_uris": {"ios": "https://dc.lft.to/lastmile_qr_scan", "android": "https://dc.lft.to/lastmile_qr_scan"}, "lon": -77.04654583333334, "fusion_lon": 0.0, "is_disabled": 0, "lat": 38.90553583333333, "bike_id": "77296b71c237399d8cf803710396df86", "name": "77296b71c237399d8cf803710396df86", "is_reserved": 0, "fusion_lat": 0.0}, {"type": "electric_scooter", "rental_uris": {"ios": "https://dc.lft.to/lastmile_qr_scan", "android": "https://dc.lft.to/lastmile_qr_scan"}, "lon": -77.04660283333334, "fusion_lon": 0.0, "is_disabled": 0, "lat": 38.892396166666664, "bike_id": "afb1383708f8f3ec94ab563ba57b5ecb", "name": "afb1383708f8f3ec94ab563ba57b5ecb", "is_reserved": 0, "fusion_lat": 0.0}, {"type": "electric_scooter", "rental_uris": {"ios": "https://dc.lft.to/lastmile_qr_scan", "android": "https://dc.lft.to/lastmile_qr_scan"}, "lon": -77.039751, "fusion_lon": 0.0, "is_disabled": 0, "lat": 38.898976, "bike_id": "bd424366b6aab30ce9fdcfd7a1c009d7", "name": "bd424366b6aab30ce9fdcfd7a1c009d7", "is_reserved": 0, "fusion_lat": 0.0}, {"type": "electric_scooter", "rental_uris": {"ios": "https://dc.lft.to/lastmile_qr_scan", "android": "https://dc.lft.to/lastmile_qr_scan"}, "lon": -77.04647133333333, "fusion_lon": 0.0, "is_disabled": 0, "lat": 38.8922325, "bike_id": "79ff4ad710b881b5b418720095ccace1", "name": "79ff4ad710b881b5b418720095ccace1", "is_reserved": 0, "fusion_lat": 0.0}, {"type": "electric_scooter", "rental_uris": {"ios": "https://dc.lft.to/lastmile_qr_scan", "android": "https://dc.lft.to/lastmile_qr_scan"}, "lon": -76.94638, "fusion_lon": 0.0, "is_disabled": 0, "lat": 38.89843533333333, "bike_id": "67fe3f066696f6b197eb71ed3403756c", "name": "67fe3f066696f6b197eb71ed3403756c", "is_reserved": 0, "fusion_lat": 0.0}, {"type": "electric_scooter", "rental_uris": {"ios": "https://dc.lft.to/lastmile_qr_scan", "android": "https://dc.lft.to/lastmile_qr_scan"}, "lon": -77.026538, "fusion_lon": 0.0, "is_disabled": 0, "lat": 38.92476533333333, "bike_id": "c5cd6377d44ed43edfcc0c4fc7126c45", "name": "c5cd6377d44ed43edfcc0c4fc7126c45", "is_reserved": 0, "fusion_lat": 0.0}, {"type": "electric_scooter", "rental_uris": {"ios": "https://dc.lft.to/lastmile_qr_scan", "android": "https://dc.lft.to/lastmile_qr_scan"}, "lon": -76.98697633333333, "fusion_lon": 0.0, "is_disabled": 0, "lat": 38.86717066666667, "bike_id": "93e9181d59bdc3bb9af22c949d4e540b", "name": "93e9181d59bdc3bb9af22c949d4e540b", "is_reserved": 0, "fusion_lat": 0.0}, {"type": "electric_scooter", "rental_uris": {"ios": "https://dc.lft.to/lastmile_qr_scan", "android": "https://dc.lft.to/lastmile_qr_scan"}, "lon": -77.03449, "fusion_lon": 0.0, "is_disabled": 0, "lat": 38.907337, "bike_id": "a36a99040c27bda237f8d77c937f17d1", "name": "a36a99040c27bda237f8d77c937f17d1", "is_reserved": 0, "fusion_lat": 0.0}, {"type": "electric_scooter", "rental_uris": {"ios": "https://dc.lft.to/lastmile_qr_scan", "android": "https://dc.lft.to/lastmile_qr_scan"}, "lon": -76.98360033333333, "fusion_lon": 0.0, "is_disabled": 0, "lat": 38.887453, "bike_id": "9cf19a613817c8f7b03930b6b9691c6f", "name": "9cf19a613817c8f7b03930b6b9691c6f", "is_reserved": 0, "fusion_lat": 0.0}, {"type": "electric_scooter", "rental_uris": {"ios": "https://dc.lft.to/lastmile_qr_scan", "android": "https://dc.lft.to/lastmile_qr_scan"}, "lon": -77.0256305, "fusion_lon": 0.0, "is_disabled": 0, "lat": 38.92383233333334, "bike_id": "adf03661585b936ba8a870ebc2ef94c7", "name": "adf03661585b936ba8a870ebc2ef94c7", "is_reserved": 0, "fusion_lat": 0.0}, {"type": "electric_scooter", "rental_uris": {"ios": "https://dc.lft.to/lastmile_qr_scan", "android": "https://dc.lft.to/lastmile_qr_scan"}, "lon": -77.05810433333333, "fusion_lon": 0.0, "is_disabled": 0, "lat": 38.902757, "bike_id": "71495cd38326e9e1a8c3696901378431", "name": "71495cd38326e9e1a8c3696901378431", "is_reserved": 0, "fusion_lat": 0.0}, {"type": "electric_scooter", "rental_uris": {"ios": "https://dc.lft.to/lastmile_qr_scan", "android": "https://dc.lft.to/lastmile_qr_scan"}, "lon": -77.040316, "fusion_lon": 0.0, "is_disabled": 0, "lat": 38.92443933333333, "bike_id": "0e12ba7bf5b37610e43a6120227a2ba6", "name": "0e12ba7bf5b37610e43a6120227a2ba6", "is_reserved": 0, "fusion_lat": 0.0}, {"type": "electric_bike", "rental_uris": {"ios": "https://dc.lft.to/lastmile_qr_scan", "android": "https://dc.lft.to/lastmile_qr_scan"}, "lon": -76.97586266666667, "fusion_lon": 0.0, "is_disabled": 0, "lat": 38.840239833333335, "bike_id": "bc8648cbae489cbbffeadee08ce2c616", "name": "bc8648cbae489cbbffeadee08ce2c616", "is_reserved": 0, "fusion_lat": 0.0}, {"type": "electric_scooter", "rental_uris": {"ios": "https://dc.lft.to/lastmile_qr_scan", "android": "https://dc.lft.to/lastmile_qr_scan"}, "lon": -77.03254183333334, "fusion_lon": 0.0, "is_disabled": 0, "lat": 38.9044565, "bike_id": "d7860eaab0e738156c29e358dfe85943", "name": "d7860eaab0e738156c29e358dfe85943", "is_reserved": 0, "fusion_lat": 0.0}, {"type": "electric_scooter", "rental_uris": {"ios": "https://dc.lft.to/lastmile_qr_scan", "android": "https://dc.lft.to/lastmile_qr_scan"}, "lon": -76.98963433333333, "fusion_lon": 0.0, "is_disabled": 0, "lat": 38.90945516666667, "bike_id": "b4c32b555c525c7bb72ee1b2fe48abe3", "name": "b4c32b555c525c7bb72ee1b2fe48abe3", "is_reserved": 0, "fusion_lat": 0.0}, {"type": "electric_scooter", "rental_uris": {"ios": "https://dc.lft.to/lastmile_qr_scan", "android": "https://dc.lft.to/lastmile_qr_scan"}, "lon": -76.93763533333333, "fusion_lon": 0.0, "is_disabled": 0, "lat": 38.890369166666666, "bike_id": "ecd4b92bcf5da2fbed1a201593bb5af6", "name": "ecd4b92bcf5da2fbed1a201593bb5af6", "is_reserved": 0, "fusion_lat": 0.0}, {"type": "electric_scooter", "rental_uris": {"ios": "https://dc.lft.to/lastmile_qr_scan", "android": "https://dc.lft.to/lastmile_qr_scan"}, "lon": -77.026761, "fusion_lon": 0.0, "is_disabled": 0, "lat": 38.900670166666664, "bike_id": "61bb7c722396e9461e6d9c177fe548e4", "name": "61bb7c722396e9461e6d9c177fe548e4", "is_reserved": 0, "fusion_lat": 0.0}, {"type": "electric_scooter", "rental_uris": {"ios": "https://dc.lft.to/lastmile_qr_scan", "android": "https://dc.lft.to/lastmile_qr_scan"}, "lon": -77.07289566666667, "fusion_lon": 0.0, "is_disabled": 0, "lat": 38.935318, "bike_id": "ec4dcc704a21a4b4ef8ddaf51f685915", "name": "ec4dcc704a21a4b4ef8ddaf51f685915", "is_reserved": 0, "fusion_lat": 0.0}, {"type": "electric_scooter", "rental_uris": {"ios": "https://dc.lft.to/lastmile_qr_scan", "android": "https://dc.lft.to/lastmile_qr_scan"}, "lon": -77.01108266666667, "fusion_lon": 0.0, "is_disabled": 0, "lat": 38.90352133333333, "bike_id": "60970ee8a97d33f29236fa5688117ceb", "name": "60970ee8a97d33f29236fa5688117ceb", "is_reserved": 0, "fusion_lat": 0.0}, {"type": "electric_scooter", "rental_uris": {"ios": "https://dc.lft.to/lastmile_qr_scan", "android": "https://dc.lft.to/lastmile_qr_scan"}, "lon": -77.02535866666666, "fusion_lon": 0.0, "is_disabled": 0, "lat": 38.92373716666667, "bike_id": "8b885c5fffb8c4f171852ff22cd49d83", "name": "8b885c5fffb8c4f171852ff22cd49d83", "is_reserved": 0, "fusion_lat": 0.0}, {"type": "electric_scooter", "rental_uris": {"ios": "https://dc.lft.to/lastmile_qr_scan", "android": "https://dc.lft.to/lastmile_qr_scan"}, "lon": -77.0219555, "fusion_lon": 0.0, "is_disabled": 0, "lat": 38.932924166666666, "bike_id": "8bde9062cdb4806544ab7a1a766a5b97", "name": "8bde9062cdb4806544ab7a1a766a5b97", "is_reserved": 0, "fusion_lat": 0.0}, {"type": "electric_scooter", "rental_uris": {"ios": "https://dc.lft.to/lastmile_qr_scan", "android": "https://dc.lft.to/lastmile_qr_scan"}, "lon": -77.013711, "fusion_lon": 0.0, "is_disabled": 0, "lat": 38.892309166666664, "bike_id": "85979ad3608d2b665854db5b01686d01", "name": "85979ad3608d2b665854db5b01686d01", "is_reserved": 0, "fusion_lat": 0.0}, {"type": "electric_scooter", "rental_uris": {"ios": "https://dc.lft.to/lastmile_qr_scan", "android": "https://dc.lft.to/lastmile_qr_scan"}, "lon": -77.0219235, "fusion_lon": 0.0, "is_disabled": 0, "lat": 38.91479733333333, "bike_id": "fa67bfe7b48d1fe2bb901999596c78bf", "name": "fa67bfe7b48d1fe2bb901999596c78bf", "is_reserved": 0, "fusion_lat": 0.0}, {"type": "electric_scooter", "rental_uris": {"ios": "https://dc.lft.to/lastmile_qr_scan", "android": "https://dc.lft.to/lastmile_qr_scan"}, "lon": -77.02415133333334, "fusion_lon": 0.0, "is_disabled": 0, "lat": 38.895233833333336, "bike_id": "bb79f8721d8c90bd7e47f18cce14bae9", "name": "bb79f8721d8c90bd7e47f18cce14bae9", "is_reserved": 0, "fusion_lat": 0.0}, {"type": "electric_scooter", "rental_uris": {"ios": "https://dc.lft.to/lastmile_qr_scan", "android": "https://dc.lft.to/lastmile_qr_scan"}, "lon": -76.98989016666667, "fusion_lon": 0.0, "is_disabled": 0, "lat": 38.86498366666667, "bike_id": "d27b70d09264ccc8181ec98fda196b24", "name": "d27b70d09264ccc8181ec98fda196b24", "is_reserved": 0, "fusion_lat": 0.0}, {"type": "electric_scooter", "rental_uris": {"ios": "https://dc.lft.to/lastmile_qr_scan", "android": "https://dc.lft.to/lastmile_qr_scan"}, "lon": -77.03763516666666, "fusion_lon": 0.0, "is_disabled": 0, "lat": 38.91693183333334, "bike_id": "ca08f0865b8864cb748917db6d760744", "name": "ca08f0865b8864cb748917db6d760744", "is_reserved": 0, "fusion_lat": 0.0}, {"type": "electric_scooter", "rental_uris": {"ios": "https://dc.lft.to/lastmile_qr_scan", "android": "https://dc.lft.to/lastmile_qr_scan"}, "lon": -77.04539683333333, "fusion_lon": 0.0, "is_disabled": 0, "lat": 38.913266166666666, "bike_id": "82c1fc6dce767afa2e8a0c10175ff11a", "name": "82c1fc6dce767afa2e8a0c10175ff11a", "is_reserved": 0, "fusion_lat": 0.0}, {"type": "electric_scooter", "rental_uris": {"ios": "https://dc.lft.to/lastmile_qr_scan", "android": "https://dc.lft.to/lastmile_qr_scan"}, "lon": -77.037025, "fusion_lon": 0.0, "is_disabled": 0, "lat": 38.928318166666664, "bike_id": "fb726d40ff86ad8f1c6e308e2bcba95e", "name": "fb726d40ff86ad8f1c6e308e2bcba95e", "is_reserved": 0, "fusion_lat": 0.0}, {"type": "electric_scooter", "rental_uris": {"ios": "https://dc.lft.to/lastmile_qr_scan", "android": "https://dc.lft.to/lastmile_qr_scan"}, "lon": -77.05029466666667, "fusion_lon": 0.0, "is_disabled": 0, "lat": 38.923609666666664, "bike_id": "2f400e1d33ba6ffdd7c4a3a696448675", "name": "2f400e1d33ba6ffdd7c4a3a696448675", "is_reserved": 0, "fusion_lat": 0.0}, {"type": "electric_scooter", "rental_uris": {"ios": "https://dc.lft.to/lastmile_qr_scan", "android": "https://dc.lft.to/lastmile_qr_scan"}, "lon": -77.04519883333333, "fusion_lon": 0.0, "is_disabled": 0, "lat": 38.903721, "bike_id": "edc78f9e95bdddb522f34079cacd1788", "name": "edc78f9e95bdddb522f34079cacd1788", "is_reserved": 0, "fusion_lat": 0.0}, {"type": "electric_scooter", "rental_uris": {"ios": "https://dc.lft.to/lastmile_qr_scan", "android": "https://dc.lft.to/lastmile_qr_scan"}, "lon": -77.05130416666667, "fusion_lon": 0.0, "is_disabled": 0, "lat": 38.92364116666667, "bike_id": "f1ca1696d693a91fab4395872c4dc8cf", "name": "f1ca1696d693a91fab4395872c4dc8cf", "is_reserved": 0, "fusion_lat": 0.0}, {"type": "electric_scooter", "rental_uris": {"ios": "https://dc.lft.to/lastmile_qr_scan", "android": "https://dc.lft.to/lastmile_qr_scan"}, "lon": -77.02424116666667, "fusion_lon": 0.0, "is_disabled": 0, "lat": 38.90564583333333, "bike_id": "7b349e9d8325b236d2f70c7ac5dd5893", "name": "7b349e9d8325b236d2f70c7ac5dd5893", "is_reserved": 0, "fusion_lat": 0.0}, {"type": "electric_scooter", "rental_uris": {"ios": "https://dc.lft.to/lastmile_qr_scan", "android": "https://dc.lft.to/lastmile_qr_scan"}, "lon": -77.04246183333333, "fusion_lon": 0.0, "is_disabled": 0, "lat": 38.92196083333333, "bike_id": "cb00601dd0a519217b2ad9241327b042", "name": "cb00601dd0a519217b2ad9241327b042", "is_reserved": 0, "fusion_lat": 0.0}, {"type": "electric_scooter", "rental_uris": {"ios": "https://dc.lft.to/lastmile_qr_scan", "android": "https://dc.lft.to/lastmile_qr_scan"}, "lon": -77.046541, "fusion_lon": 0.0, "is_disabled": 0, "lat": 38.9054785, "bike_id": "4a4d3e6650894c891b909cdc94638213", "name": "4a4d3e6650894c891b909cdc94638213", "is_reserved": 0, "fusion_lat": 0.0}, {"type": "electric_scooter", "rental_uris": {"ios": "https://dc.lft.to/lastmile_qr_scan", "android": "https://dc.lft.to/lastmile_qr_scan"}, "lon": -77.04032316666667, "fusion_lon": 0.0, "is_disabled": 0, "lat": 38.918033333333334, "bike_id": "4c984442e7ae4153bc8650b483367908", "name": "4c984442e7ae4153bc8650b483367908", "is_reserved": 0, "fusion_lat": 0.0}, {"type": "electric_scooter", "rental_uris": {"ios": "https://dc.lft.to/lastmile_qr_scan", "android": "https://dc.lft.to/lastmile_qr_scan"}, "lon": -77.05518833333333, "fusion_lon": 0.0, "is_disabled": 0, "lat": 38.944114166666665, "bike_id": "bbc26272bd56fa0f1e8874833361c47f", "name": "bbc26272bd56fa0f1e8874833361c47f", "is_reserved": 0, "fusion_lat": 0.0}, {"type": "electric_scooter", "rental_uris": {"ios": "https://dc.lft.to/lastmile_qr_scan", "android": "https://dc.lft.to/lastmile_qr_scan"}, "lon": -77.03147933333334, "fusion_lon": 0.0, "is_disabled": 0, "lat": 38.91110166666667, "bike_id": "4b3b923c934b60f0b23a3b3f18ebdced", "name": "4b3b923c934b60f0b23a3b3f18ebdced", "is_reserved": 0, "fusion_lat": 0.0}, {"type": "electric_scooter", "rental_uris": {"ios": "https://dc.lft.to/lastmile_qr_scan", "android": "https://dc.lft.to/lastmile_qr_scan"}, "lon": -77.0447735, "fusion_lon": 0.0, "is_disabled": 0, "lat": 38.91111816666667, "bike_id": "fbf85ebc4692c0f5e1a3a88511de91fa", "name": "fbf85ebc4692c0f5e1a3a88511de91fa", "is_reserved": 0, "fusion_lat": 0.0}, {"type": "electric_scooter", "rental_uris": {"ios": "https://dc.lft.to/lastmile_qr_scan", "android": "https://dc.lft.to/lastmile_qr_scan"}, "lon": -77.04214833333333, "fusion_lon": 0.0, "is_disabled": 0, "lat": 38.911219333333335, "bike_id": "9fb59b1595841c6c8666b3a7d319913f", "name": "9fb59b1595841c6c8666b3a7d319913f", "is_reserved": 0, "fusion_lat": 0.0}, {"type": "electric_scooter", "rental_uris": {"ios": "https://dc.lft.to/lastmile_qr_scan", "android": "https://dc.lft.to/lastmile_qr_scan"}, "lon": -77.028074, "fusion_lon": 0.0, "is_disabled": 0, "lat": 38.8922725, "bike_id": "64c4b30184b528fd13d279f4da123f12", "name": "64c4b30184b528fd13d279f4da123f12", "is_reserved": 0, "fusion_lat": 0.0}, {"type": "electric_scooter", "rental_uris": {"ios": "https://dc.lft.to/lastmile_qr_scan", "android": "https://dc.lft.to/lastmile_qr_scan"}, "lon": -77.03383233333334, "fusion_lon": 0.0, "is_disabled": 0, "lat": 38.90964816666666, "bike_id": "7ef497f863ccc990e633136f902f1aa6", "name": "7ef497f863ccc990e633136f902f1aa6", "is_reserved": 0, "fusion_lat": 0.0}, {"type": "electric_scooter", "rental_uris": {"ios": "https://dc.lft.to/lastmile_qr_scan", "android": "https://dc.lft.to/lastmile_qr_scan"}, "lon": -77.02187416666666, "fusion_lon": 0.0, "is_disabled": 0, "lat": 38.90616516666667, "bike_id": "5bf63b748146c1f68f01f8c56e6fc9fa", "name": "5bf63b748146c1f68f01f8c56e6fc9fa", "is_reserved": 0, "fusion_lat": 0.0}, {"type": "electric_scooter", "rental_uris": {"ios": "https://dc.lft.to/lastmile_qr_scan", "android": "https://dc.lft.to/lastmile_qr_scan"}, "lon": -77.02005416666667, "fusion_lon": 0.0, "is_disabled": 0, "lat": 38.9156675, "bike_id": "38e6ef4e7984defe369277c0f5230600", "name": "38e6ef4e7984defe369277c0f5230600", "is_reserved": 0, "fusion_lat": 0.0}, {"type": "electric_scooter", "rental_uris": {"ios": "https://dc.lft.to/lastmile_qr_scan", "android": "https://dc.lft.to/lastmile_qr_scan"}, "lon": -76.91166916666667, "fusion_lon": 0.0, "is_disabled": 0, "lat": 38.89403733333333, "bike_id": "421cf12eaa0d3d5cc8b5058a803ca2e4", "name": "421cf12eaa0d3d5cc8b5058a803ca2e4", "is_reserved": 0, "fusion_lat": 0.0}, {"type": "electric_scooter", "rental_uris": {"ios": "https://dc.lft.to/lastmile_qr_scan", "android": "https://dc.lft.to/lastmile_qr_scan"}, "lon": -77.02626183333334, "fusion_lon": 0.0, "is_disabled": 0, "lat": 38.89222383333333, "bike_id": "f444723b41b0e3255db0e6285bdd4265", "name": "f444723b41b0e3255db0e6285bdd4265", "is_reserved": 0, "fusion_lat": 0.0}, {"type": "electric_scooter", "rental_uris": {"ios": "https://dc.lft.to/lastmile_qr_scan", "android": "https://dc.lft.to/lastmile_qr_scan"}, "lon": -76.99946583333333, "fusion_lon": 0.0, "is_disabled": 0, "lat": 38.84296066666667, "bike_id": "2621a143eba5a1e5baf07edb7e206877", "name": "2621a143eba5a1e5baf07edb7e206877", "is_reserved": 0, "fusion_lat": 0.0}, {"type": "electric_scooter", "rental_uris": {"ios": "https://dc.lft.to/lastmile_qr_scan", "android": "https://dc.lft.to/lastmile_qr_scan"}, "lon": -77.02977166666666, "fusion_lon": 0.0, "is_disabled": 0, "lat": 38.916933, "bike_id": "e33eacb490654dea7b5ed813da396412", "name": "e33eacb490654dea7b5ed813da396412", "is_reserved": 0, "fusion_lat": 0.0}, {"type": "electric_scooter", "rental_uris": {"ios": "https://dc.lft.to/lastmile_qr_scan", "android": "https://dc.lft.to/lastmile_qr_scan"}, "lon": -77.03215583333333, "fusion_lon": 0.0, "is_disabled": 0, "lat": 38.89223116666667, "bike_id": "b10eefbb0890d9bb6db905f04d09c0dd", "name": "b10eefbb0890d9bb6db905f04d09c0dd", "is_reserved": 0, "fusion_lat": 0.0}, {"type": "electric_scooter", "rental_uris": {"ios": "https://dc.lft.to/lastmile_qr_scan", "android": "https://dc.lft.to/lastmile_qr_scan"}, "lon": -77.0314345, "fusion_lon": 0.0, "is_disabled": 0, "lat": 38.916937833333336, "bike_id": "879930179a865d68be8a37d67715604f", "name": "879930179a865d68be8a37d67715604f", "is_reserved": 0, "fusion_lat": 0.0}, {"type": "electric_scooter", "rental_uris": {"ios": "https://dc.lft.to/lastmile_qr_scan", "android": "https://dc.lft.to/lastmile_qr_scan"}, "lon": -77.03237716666666, "fusion_lon": 0.0, "is_disabled": 0, "lat": 38.92801983333333, "bike_id": "db89b901699fbfd573474a2db86fe88e", "name": "db89b901699fbfd573474a2db86fe88e", "is_reserved": 0, "fusion_lat": 0.0}, {"type": "electric_scooter", "rental_uris": {"ios": "https://dc.lft.to/lastmile_qr_scan", "android": "https://dc.lft.to/lastmile_qr_scan"}, "lon": -77.02239183333333, "fusion_lon": 0.0, "is_disabled": 0, "lat": 38.922362666666665, "bike_id": "dac16cfd6c9f1b0f84c12510af4d956e", "name": "dac16cfd6c9f1b0f84c12510af4d956e", "is_reserved": 0, "fusion_lat": 0.0}, {"type": "electric_scooter", "rental_uris": {"ios": "https://dc.lft.to/lastmile_qr_scan", "android": "https://dc.lft.to/lastmile_qr_scan"}, "lon": -77.034417, "fusion_lon": 0.0, "is_disabled": 0, "lat": 38.91870866666667, "bike_id": "2b893aaafc8d372fa5fa9f35a6a89ae6", "name": "2b893aaafc8d372fa5fa9f35a6a89ae6", "is_reserved": 0, "fusion_lat": 0.0}, {"type": "electric_scooter", "rental_uris": {"ios": "https://dc.lft.to/lastmile_qr_scan", "android": "https://dc.lft.to/lastmile_qr_scan"}, "lon": -77.0386505, "fusion_lon": 0.0, "is_disabled": 0, "lat": 38.91558716666667, "bike_id": "0c8cb4b64c505f86ce22da500ee04d13", "name": "0c8cb4b64c505f86ce22da500ee04d13", "is_reserved": 0, "fusion_lat": 0.0}, {"type": "electric_bike", "rental_uris": {"ios": "https://dc.lft.to/lastmile_qr_scan", "android": "https://dc.lft.to/lastmile_qr_scan"}, "lon": -77.223331, "fusion_lon": 0.0, "is_disabled": 0, "lat": 38.918087166666666, "bike_id": "a28ae6c19f517d59845b944b4c7ee9ab", "name": "a28ae6c19f517d59845b944b4c7ee9ab", "is_reserved": 0, "fusion_lat": 0.0}, {"type": "electric_scooter", "rental_uris": {"ios": "https://dc.lft.to/lastmile_qr_scan", "android": "https://dc.lft.to/lastmile_qr_scan"}, "lon": -77.0112185, "fusion_lon": 0.0, "is_disabled": 0, "lat": 38.920314, "bike_id": "653c6e5abeb3e0732e7f5b57d5fd4c7d", "name": "653c6e5abeb3e0732e7f5b57d5fd4c7d", "is_reserved": 0, "fusion_lat": 0.0}, {"type": "electric_scooter", "rental_uris": {"ios": "https://dc.lft.to/lastmile_qr_scan", "android": "https://dc.lft.to/lastmile_qr_scan"}, "lon": -77.02660033333333, "fusion_lon": 0.0, "is_disabled": 0, "lat": 38.916951833333336, "bike_id": "1f6bd13aa7fb8c747a9933353a8adcee", "name": "1f6bd13aa7fb8c747a9933353a8adcee", "is_reserved": 0, "fusion_lat": 0.0}, {"type": "electric_scooter", "rental_uris": {"ios": "https://dc.lft.to/lastmile_qr_scan", "android": "https://dc.lft.to/lastmile_qr_scan"}, "lon": -77.03531733333334, "fusion_lon": 0.0, "is_disabled": 0, "lat": 38.91827283333333, "bike_id": "29a886f7bb1cf938a8d14cc3b87de2e1", "name": "29a886f7bb1cf938a8d14cc3b87de2e1", "is_reserved": 0, "fusion_lat": 0.0}, {"type": "electric_bike", "rental_uris": {"ios": "https://dc.lft.to/lastmile_qr_scan", "android": "https://dc.lft.to/lastmile_qr_scan"}, "lon": -77.00873916666667, "fusion_lon": 0.0, "is_disabled": 0, "lat": 38.875154, "bike_id": "fe72be3912a3389e5449b040f750de53", "name": "fe72be3912a3389e5449b040f750de53", "is_reserved": 0, "fusion_lat": 0.0}, {"type": "electric_scooter", "rental_uris": {"ios": "https://dc.lft.to/lastmile_qr_scan", "android": "https://dc.lft.to/lastmile_qr_scan"}, "lon": -77.0487505, "fusion_lon": 0.0, "is_disabled": 0, "lat": 38.904654666666666, "bike_id": "d9becadead52b6ce0cf054a163781b5f", "name": "d9becadead52b6ce0cf054a163781b5f", "is_reserved": 0, "fusion_lat": 0.0}, {"type": "electric_scooter", "rental_uris": {"ios": "https://dc.lft.to/lastmile_qr_scan", "android": "https://dc.lft.to/lastmile_qr_scan"}, "lon": -76.9361415, "fusion_lon": 0.0, "is_disabled": 0, "lat": 38.886725166666665, "bike_id": "9f441de7548ec8a1ee457b3d22579615", "name": "9f441de7548ec8a1ee457b3d22579615", "is_reserved": 0, "fusion_lat": 0.0}, {"type": "electric_scooter", "rental_uris": {"ios": "https://dc.lft.to/lastmile_qr_scan", "android": "https://dc.lft.to/lastmile_qr_scan"}, "lon": -77.03343583333333, "fusion_lon": 0.0, "is_disabled": 0, "lat": 38.928838666666664, "bike_id": "4709e78c340bd2bca4ab2a0d309ccebe", "name": "4709e78c340bd2bca4ab2a0d309ccebe", "is_reserved": 0, "fusion_lat": 0.0}, {"type": "electric_scooter", "rental_uris": {"ios": "https://dc.lft.to/lastmile_qr_scan", "android": "https://dc.lft.to/lastmile_qr_scan"}, "lon": -77.028958, "fusion_lon": 0.0, "is_disabled": 0, "lat": 38.90272983333333, "bike_id": "d90314fe8ac50c5e6d943c8a3f133985", "name": "d90314fe8ac50c5e6d943c8a3f133985", "is_reserved": 0, "fusion_lat": 0.0},