{"data": {"bikes": [{"lat": 38.89222216666667, "fusion_lon": 0.0, "lon": -77.04379683333333, "is_disabled": 0, "type": "electric_scooter", "name": "04be2080813687bbf9775ba9ff5c88e9", "fusion_lat": 0.0, "rental_uris": {"android": "https://dc.lft.to/lastmile_qr_scan", "ios": "https://dc.lft.to/lastmile_qr_scan"}, "bike_id": "04be2080813687bbf9775ba9ff5c88e9", "is_reserved": 0}, {"lat": 38.90148683333334, "fusion_lon": 0.0, "lon": -77.04885566666667, "is_disabled": 0, "type": "electric_scooter", "name": "e6c06d6fb7da7304117275da692447b2", "fusion_lat": 0.0, "rental_uris": {"android": "https://dc.lft.to/lastmile_qr_scan", "ios": "https://dc.lft.to/lastmile_qr_scan"}, "bike_id": "e6c06d6fb7da7304117275da692447b2", "is_reserved": 0}, {"lat": 38.8978025, "fusion_lon": 0.0, "lon": -77.02580133333333, "is_disabled": 0, "type": "electric_scooter", "name": "70f32f3926782a4250a2179e69c10b04", "fusion_lat": 0.0, "rental_uris": {"android": "https://dc.lft.to/lastmile_qr_scan", "ios": "https://dc.lft.to/lastmile_qr_scan"}, "bike_id": "70f32f3926782a4250a2179e69c10b04", "is_reserved": 0}, {"lat": 38.89221583333333, "fusion_lon": 0.0, "lon": -77.03163866666667, "is_disabled": 0, "type": "electric_scooter", "name": "7dfca317ad00499946fdd6fdb1d84369", "fusion_lat": 0.0, "rental_uris": {"android": "https://dc.lft.to/lastmile_qr_scan", "ios": "https://dc.lft.to/lastmile_qr_scan"}, "bike_id": "7dfca317ad00499946fdd6fdb1d84369", "is_reserved": 0}, {"lat": 38.89616633333333, "fusion_lon": 0.0, "lon": -76.99298, "is_disabled": 0, "type": "electric_scooter", "name": "c29e54ca52514bbd127cfef272376b2a", "fusion_lat": 0.0, "rental_uris": {"android": "https://dc.lft.to/lastmile_qr_scan", "ios": "https://dc.lft.to/lastmile_qr_scan"}, "bike_id": "c29e54ca52514bbd127cfef272376b2a", "is_reserved": 0}, {"lat": 38.913344333333335, "fusion_lon": 0.0, "lon": -77.0481595, "is_disabled": 0, "type": "electric_scooter", "name": "e8885c0923b9a33c3740fca09bd116ee", "fusion_lat": 0.0, "rental_uris": {"android": "https://dc.lft.to/lastmile_qr_scan", "ios": "https://dc.lft.to/lastmile_qr_scan"}, "bike_id": "e8885c0923b9a33c3740fca09bd116ee", "is_reserved": 0}, {"lat": 38.9525425, "fusion_lon": 0.0, "lon": -77.00208583333334, "is_disabled": 0, "type": "electric_scooter", "name": "278f0c41012a1a6bb49e8acadeecb5aa", "fusion_lat": 0.0, "rental_uris": {"android": "https://dc.lft.to/lastmile_qr_scan", "ios": "https://dc.lft.to/lastmile_qr_scan"}, "bike_id": "278f0c41012a1a6bb49e8acadeecb5aa", "is_reserved": 0}, {"lat": 38.9176305, "fusion_lon": 0.0, "lon": -77.03140133333333, "is_disabled": 0, "type": "electric_scooter", "name": "2a1062e0134edc08a6f837abb6ad0031", "fusion_lat": 0.0, "rental_uris": {"android": "https://dc.lft.to/lastmile_qr_scan", "ios": "https://dc.lft.to/lastmile_qr_scan"}, "bike_id": "2a1062e0134edc08a6f837abb6ad0031", "is_reserved": 0}, {"lat": 38.90019366666667, "fusion_lon": 0.0, "lon": -77.0021595, "is_disabled": 0, "type": "electric_scooter", "name": "f6113711d83c96d0dfc317eddae89297", "fusion_lat": 0.0, "rental_uris": {"android": "https://dc.lft.to/lastmile_qr_scan", "ios": "https://dc.lft.to/lastmile_qr_scan"}, "bike_id": "f6113711d83c96d0dfc317eddae89297", "is_reserved": 0}, {"lat": 38.91248266666667, "fusion_lon": 0.0, "lon": -77.04332933333333, "is_disabled": 0, "type": "electric_scooter", "name": "32a07b896d330816495489c5bff0aac3", "fusion_lat": 0.0, "rental_uris": {"android": "https://dc.lft.to/lastmile_qr_scan", "ios": "https://dc.lft.to/lastmile_qr_scan"}, "bike_id": "32a07b896d330816495489c5bff0aac3", "is_reserved": 0}, {"lat": 38.922898333333336, "fusion_lon": 0.0, "lon": -77.0224445, "is_disabled": 0, "type": "electric_scooter", "name": "295b2f5eceae819605548503fc25f3ae", "fusion_lat": 0.0, "rental_uris": {"android": "https://dc.lft.to/lastmile_qr_scan", "ios": "https://dc.lft.to/lastmile_qr_scan"}, "bike_id": "295b2f5eceae819605548503fc25f3ae", "is_reserved": 0}, {"lat": 38.88989216666667, "fusion_lon": 0.0, "lon": -76.9310925, "is_disabled": 0, "type": "electric_scooter", "name": "dc96dac1334cf4e1108dcc2007321e87", "fusion_lat": 0.0, "rental_uris": {"android": "https://dc.lft.to/lastmile_qr_scan", "ios": "https://dc.lft.to/lastmile_qr_scan"}, "bike_id": "dc96dac1334cf4e1108dcc2007321e87", "is_reserved": 0}, {"lat": 38.91987683333333, "fusion_lon": 0.0, "lon": -76.97301283333333, "is_disabled": 0, "type": "electric_scooter", "name": "275985e16e1539769582e61f2bd4fb65", "fusion_lat": 0.0, "rental_uris": {"android": "https://dc.lft.to/lastmile_qr_scan", "ios": "https://dc.lft.to/lastmile_qr_scan"}, "bike_id": "275985e16e1539769582e61f2bd4fb65", "is_reserved": 0}, {"lat": 38.945278333333334, "fusion_lon": 0.0, "lon": -77.020886, "is_disabled": 0, "type": "electric_scooter", "name": "bd95dca05cf18edc37a228fd21baefa6", "fusion_lat": 0.0, "rental_uris": {"android": "https://dc.lft.to/lastmile_qr_scan", "ios": "https://dc.lft.to/lastmile_qr_scan"}, "bike_id": "bd95dca05cf18edc37a228fd21baefa6", "is_reserved": 0}, {"lat": 38.90718533333333, "fusion_lon": 0.0, "lon": -77.03168966666667, "is_disabled": 0, "type": "electric_scooter", "name": "e62a58233156d8f11e24d6524490c855", "fusion_lat": 0.0, "rental_uris": {"android": "https://dc.lft.to/lastmile_qr_scan", "ios": "https://dc.lft.to/lastmile_qr_scan"}, "bike_id": "e62a58233156d8f11e24d6524490c855", "is_reserved": 0}, {"lat": 38.9236765, "fusion_lon": 0.0, "lon": -77.0191295, "is_disabled": 0, "type": "electric_scooter", "name": "bf0184c53702b78a604f3146285e4dca", "fusion_lat": 0.0, "rental_uris": {"android": "https://dc.lft.to/lastmile_qr_scan", "ios": "https://dc.lft.to/lastmile_qr_scan"}, "bike_id": "bf0184c53702b78a604f3146285e4dca", "is_reserved": 0}, {"lat": 38.87775383333334, "fusion_lon": 0.0, "lon": -76.9951, "is_disabled": 0, "type": "electric_scooter", "name": "1c325a0d91d7879a6207fb1757be2bb3", "fusion_lat": 0.0, "rental_uris": {"android": "https://dc.lft.to/lastmile_qr_scan", "ios": "https://dc.lft.to/lastmile_qr_scan"}, "bike_id": "1c325a0d91d7879a6207fb1757be2bb3", "is_reserved": 0}, {"lat": 38.89648316666667, "fusion_lon": 0.0, "lon": -77.03330366666667, "is_disabled": 0, "type": "electric_scooter", "name": "bb4b95062ad463d66ad3f14c22a19f73", "fusion_lat": 0.0, "rental_uris": {"android": "https://dc.lft.to/lastmile_qr_scan", "ios": "https://dc.lft.to/lastmile_qr_scan"}, "bike_id": "bb4b95062ad463d66ad3f14c22a19f73", "is_reserved": 0}, {"lat": 38.92845333333333, "fusion_lon": 0.0, "lon": -77.03251216666666, "is_disabled": 0, "type": "electric_scooter", "name": "348c1b7117ea7ff29b4cd930b3e753bb", "fusion_lat": 0.0, "rental_uris": {"android": "https://dc.lft.to/lastmile_qr_scan", "ios": "https://dc.lft.to/lastmile_qr_scan"}, "bike_id": "348c1b7117ea7ff29b4cd930b3e753bb", "is_reserved": 0}, {"lat": 38.911858333333335, "fusion_lon": 0.0, "lon": -77.03490016666667, "is_disabled": 0, "type": "electric_scooter", "name": "aa2803b354b34eef540306cacf94e6b0", "fusion_lat": 0.0, "rental_uris": {"android": "https://dc.lft.to/lastmile_qr_scan", "ios": "https://dc.lft.to/lastmile_qr_scan"}, "bike_id": "aa2803b354b34eef540306cacf94e6b0", "is_reserved": 0}, {"lat": 38.911918, "fusion_lon": 0.0, "lon": -77.00508216666667, "is_disabled": 0, "type": "electric_scooter", "name": "791ba5cacd72f375b525c89d344557e4", "fusion_lat": 0.0, "rental_uris": {"android": "https://dc.lft.to/lastmile_qr_scan", "ios": "https://dc.lft.to/lastmile_qr_scan"}, "bike_id": "791ba5cacd72f375b525c89d344557e4", "is_reserved": 0}, {"lat": 38.908268166666666, "fusion_lon": 0.0, "lon": -77.039131, "is_disabled": 0, "type": "electric_scooter", "name": "c296b6b6cb745d7390a2953268503ded", "fusion_lat": 0.0, "rental_uris": {"android": "https://dc.lft.to/lastmile_qr_scan", "ios": "https://dc.lft.to/lastmile_qr_scan"}, "bike_id": "c296b6b6cb745d7390a2953268503ded", "is_reserved": 0}, {"lat": 38.907326833333336, "fusion_lon": 0.0, "lon": -76.98696833333334, "is_disabled": 0, "type": "electric_scooter", "name": "0db77605e2ee0d364dfb59ddcf87eb4e", "fusion_lat": 0.0, "rental_uris": {"android": "https://dc.lft.to/lastmile_qr_scan", "ios": "https://dc.lft.to/lastmile_qr_scan"}, "bike_id": "0db77605e2ee0d364dfb59ddcf87eb4e", "is_reserved": 0}, {"lat": 38.91131266666667, "fusion_lon": 0.0, "lon": -77.0168385, "is_disabled": 0, "type": "electric_scooter", "name": "793fd251645b44d33ae261fa3965c4a9", "fusion_lat": 0.0, "rental_uris": {"android": "https://dc.lft.to/lastmile_qr_scan", "ios": "https://dc.lft.to/lastmile_qr_scan"}, "bike_id": "793fd251645b44d33ae261fa3965c4a9", "is_reserved": 0}, {"lat": 39.0431735, "fusion_lon": 0.0, "lon": -77.05158833333333, "is_disabled": 0, "type": "electric_bike", "name": "2f411ad118d6b173ddb07048e9363e88", "fusion_lat": 0.0, "rental_uris": {"android": "https://dc.lft.to/lastmile_qr_scan", "ios": "https://dc.lft.to/lastmile_qr_scan"}, "bike_id": "2f411ad118d6b173ddb07048e9363e88", "is_reserved": 0}, {"lat": 38.89903066666667, "fusion_lon": 0.0, "lon": -77.0325275, "is_disabled": 0, "type": "electric_scooter", "name": "f3bf77d9efa8c91828113a512fe99ad9", "fusion_lat": 0.0, "rental_uris": {"android": "https://dc.lft.to/lastmile_qr_scan", "ios": "https://dc.lft.to/lastmile_qr_scan"}, "bike_id": "f3bf77d9efa8c91828113a512fe99ad9", "is_reserved": 0}, {"lat": 38.93710133333333, "fusion_lon": 0.0, "lon": -77.02944466666666, "is_disabled": 0, "type": "electric_scooter", "name": "5f9ace2ec4de72e50fee0ce3bfcd4826", "fusion_lat": 0.0, "rental_uris": {"android": "https://dc.lft.to/lastmile_qr_scan", "ios": "https://dc.lft.to/lastmile_qr_scan"}, "bike_id": "5f9ace2ec4de72e50fee0ce3bfcd4826", "is_reserved": 0}, {"lat": 38.9222365, "fusion_lon": 0.0, "lon": -77.04335866666666, "is_disabled": 0, "type": "electric_scooter", "name": "5a0d024e6c2b21c9736acb4c9b96ecee", "fusion_lat": 0.0, "rental_uris": {"android": "https://dc.lft.to/lastmile_qr_scan", "ios": "https://dc.lft.to/lastmile_qr_scan"}, "bike_id": "5a0d024e6c2b21c9736acb4c9b96ecee", "is_reserved": 0}, {"lat": 38.9171795, "fusion_lon": 0.0, "lon": -77.02901216666666, "is_disabled": 0, "type": "electric_scooter", "name": "e9c90ce6b6bd54e31a6650ab09b04e0b", "fusion_lat": 0.0, "rental_uris": {"android": "https://dc.lft.to/lastmile_qr_scan", "ios": "https://dc.lft.to/lastmile_qr_scan"}, "bike_id": "e9c90ce6b6bd54e31a6650ab09b04e0b", "is_reserved": 0}, {"lat": 38.862347166666666, "fusion_lon": 0.0, "lon": -76.99490316666666, "is_disabled": 0, "type": "electric_scooter", "name": "ed495d9b7e00084f18f6a75b7e115a53", "fusion_lat": 0.0, "rental_uris": {"android": "https://dc.lft.to/lastmile_qr_scan", "ios": "https://dc.lft.to/lastmile_qr_scan"}, "bike_id": "ed495d9b7e00084f18f6a75b7e115a53", "is_reserved": 0}, {"lat": 38.90028566666667, "fusion_lon": 0.0, "lon": -77.03206816666666, "is_disabled": 0, "type": "electric_scooter", "name": "0415c0b73ab3d587510a4c3b6e583af7", "fusion_lat": 0.0, "rental_uris": {"android": "https://dc.lft.to/lastmile_qr_scan", "ios": "https://dc.lft.to/lastmile_qr_scan"}, "bike_id": "0415c0b73ab3d587510a4c3b6e583af7", "is_reserved": 0}, {"lat": 38.92438633333333, "fusion_lon": 0.0, "lon": -77.0403565, "is_disabled": 0, "type": "electric_scooter", "name": "f1b78e3682d7b211cb15b4f048f97418", "fusion_lat": 0.0, "rental_uris": {"android": "https://dc.lft.to/lastmile_qr_scan", "ios": "https://dc.lft.to/lastmile_qr_scan"}, "bike_id": "f1b78e3682d7b211cb15b4f048f97418", "is_reserved": 0}, {"lat": 38.88347666666667, "fusion_lon": 0.0, "lon": -77.0263565, "is_disabled": 0, "type": "electric_scooter", "name": "12cd7d432217333185d6c5a49babe935", "fusion_lat": 0.0, "rental_uris": {"android": "https://dc.lft.to/lastmile_qr_scan", "ios": "https://dc.lft.to/lastmile_qr_scan"}, "bike_id": "12cd7d432217333185d6c5a49babe935", "is_reserved": 0}, {"lat": 38.924361, "fusion_lon": 0.0, "lon": -77.04033566666666, "is_disabled": 0, "type": "electric_scooter", "name": "b33d75c2eaafac8309bd853f9d4a3ff2", "fusion_lat": 0.0, "rental_uris": {"android": "https://dc.lft.to/lastmile_qr_scan", "ios": "https://dc.lft.to/lastmile_qr_scan"}, "bike_id": "b33d75c2eaafac8309bd853f9d4a3ff2", "is_reserved": 0}, {"lat": 38.938329833333334, "fusion_lon": 0.0, "lon": -76.99481633333333, "is_disabled": 0, "type": "electric_bike", "name": "c37cf65e0bd2f86b6662400e3adbbbc0", "fusion_lat": 0.0, "rental_uris": {"android": "https://dc.lft.to/lastmile_qr_scan", "ios": "https://dc.lft.to/lastmile_qr_scan"}, "bike_id": "c37cf65e0bd2f86b6662400e3adbbbc0", "is_reserved": 0}, {"lat": 38.892169333333335, "fusion_lon": 0.0, "lon": -77.02017966666666, "is_disabled": 0, "type": "electric_scooter", "name": "da59abb2d045cf2f59eebb446c704cb8", "fusion_lat": 0.0, "rental_uris": {"android": "https://dc.lft.to/lastmile_qr_scan", "ios": "https://dc.lft.to/lastmile_qr_scan"}, "bike_id": "da59abb2d045cf2f59eebb446c704cb8", "is_reserved": 0}, {"lat": 38.9050705, "fusion_lon": 0.0, "lon": -76.99613633333334, "is_disabled": 0, "type": "electric_scooter", "name": "6c6924030c1ff79e84b736f1f453276a", "fusion_lat": 0.0, "rental_uris": {"android": "https://dc.lft.to/lastmile_qr_scan", "ios": "https://dc.lft.to/lastmile_qr_scan"}, "bike_id": "6c6924030c1ff79e84b736f1f453276a", "is_reserved": 0}, {"lat": 38.932875833333334, "fusion_lon": 0.0, "lon": -77.0230855, "is_disabled": 0, "type": "electric_scooter", "name": "7ef2b714fcf6e84c14bcafaee64b7e0d", "fusion_lat": 0.0, "rental_uris": {"android": "https://dc.lft.to/lastmile_qr_scan", "ios": "https://dc.lft.to/lastmile_qr_scan"}, "bike_id": "7ef2b714fcf6e84c14bcafaee64b7e0d", "is_reserved": 0}, {"lat": 38.8960625, "fusion_lon": 0.0, "lon": -76.99973416666667, "is_disabled": 0, "type": "electric_scooter", "name": "bd004b4f07ad0a1eefd7cdcd8854175a", "fusion_lat": 0.0, "rental_uris": {"android": "https://dc.lft.to/lastmile_qr_scan", "ios": "https://dc.lft.to/lastmile_qr_scan"}, "bike_id": "bd004b4f07ad0a1eefd7cdcd8854175a", "is_reserved": 0}, {"lat": 38.90508, "fusion_lon": 0.0, "lon": -77.04816316666667, "is_disabled": 0, "type": "electric_scooter", "name": "97e49e0cfcfacdd08a82af21b2f7d293", "fusion_lat": 0.0, "rental_uris": {"android": "https://dc.lft.to/lastmile_qr_scan", "ios": "https://dc.lft.to/lastmile_qr_scan"}, "bike_id": "97e49e0cfcfacdd08a82af21b2f7d293", "is_reserved": 0}, {"lat": 38.8601405, "fusion_lon": 0.0, "lon": -76.985102, "is_disabled": 0, "type": "electric_scooter", "name": "0a752d7728fed99117aa87541db38738", "fusion_lat": 0.0, "rental_uris": {"android": "https://dc.lft.to/lastmile_qr_scan", "ios": "https://dc.lft.to/lastmile_qr_scan"}, "bike_id": "0a752d7728fed99117aa87541db38738", "is_reserved": 0}, {"lat": 38.902262, "fusion_lon": 0.0, "lon": -77.02811983333334, "is_disabled": 0, "type": "electric_scooter", "name": "34aeec60f6da3093f88997fb6385630c", "fusion_lat": 0.0, "rental_uris": {"android": "https://dc.lft.to/lastmile_qr_scan", "ios": "https://dc.lft.to/lastmile_qr_scan"}, "bike_id": "34aeec60f6da3093f88997fb6385630c", "is_reserved": 0}, {"lat": 38.88420416666666, "fusion_lon": 0.0, "lon": -77.01768333333334, "is_disabled": 0, "type": "electric_scooter", "name": "ea14a0b41109e6642155d245b034e2e7", "fusion_lat": 0.0, "rental_uris": {"android": "https://dc.lft.to/lastmile_qr_scan", "ios": "https://dc.lft.to/lastmile_qr_scan"}, "bike_id": "ea14a0b41109e6642155d245b034e2e7", "is_reserved": 0}, {"lat": 38.8874, "fusion_lon": 0.0, "lon": -77.01535766666667, "is_disabled": 0, "type": "electric_scooter", "name": "518fe43b955f2d1b199fcc575c9e3d5a", "fusion_lat": 0.0, "rental_uris": {"android": "https://dc.lft.to/lastmile_qr_scan", "ios": "https://dc.lft.to/lastmile_qr_scan"}, "bike_id": "518fe43b955f2d1b199fcc575c9e3d5a", "is_reserved": 0}, {"lat": 38.90005133333333, "fusion_lon": 0.0, "lon": -77.00693, "is_disabled": 0, "type": "electric_scooter", "name": "9ebf6daea3f265983631d56358e9631d", "fusion_lat": 0.0, "rental_uris": {"android": "https://dc.lft.to/lastmile_qr_scan", "ios": "https://dc.lft.to/lastmile_qr_scan"}, "bike_id": "9ebf6daea3f265983631d56358e9631d", "is_reserved": 0}, {"lat": 38.9050955, "fusion_lon": 0.0, "lon": -77.04657583333334, "is_disabled": 0, "type": "electric_scooter", "name": "0157e473b265b29cbaf970e19c1253ad", "fusion_lat": 0.0, "rental_uris": {"android": "https://dc.lft.to/lastmile_qr_scan", "ios": "https://dc.lft.to/lastmile_qr_scan"}, "bike_id": "0157e473b265b29cbaf970e19c1253ad", "is_reserved": 0}, {"lat": 38.916921, "fusion_lon": 0.0, "lon": -77.02596633333333, "is_disabled": 0, "type": "electric_scooter", "name": "2fbcf8f323cb2cefc12075f29f7752c5", "fusion_lat": 0.0, "rental_uris": {"android": "https://dc.lft.to/lastmile_qr_scan", "ios": "https://dc.lft.to/lastmile_qr_scan"}, "bike_id": "2fbcf8f323cb2cefc12075f29f7752c5", "is_reserved": 0}, {"lat": 38.927497, "fusion_lon": 0.0, "lon": -77.0327585, "is_disabled": 0, "type": "electric_scooter", "name": "13a73507536a1b4475cb6fa845dae4a6", "fusion_lat": 0.0, "rental_uris": {"android": "https://dc.lft.to/lastmile_qr_scan", "ios": "https://dc.lft.to/lastmile_qr_scan"}, "bike_id": "13a73507536a1b4475cb6fa845dae4a6", "is_reserved": 0}, {"lat": 38.92260366666667, "fusion_lon": 0.0, "lon": -77.03519733333333, "is_disabled": 0, "type": "electric_scooter", "name": "153ffcefffb2620d11cdfb2739e55f25", "fusion_lat": 0.0, "rental_uris": {"android": "https://dc.lft.to/lastmile_qr_scan", "ios": "https://dc.lft.to/lastmile_qr_scan"}, "bike_id": "153ffcefffb2620d11cdfb2739e55f25", "is_reserved": 0}, {"lat": 38.92247533333333, "fusion_lon": 0.0, "lon": -77.030687, "is_disabled": 0, "type": "electric_scooter", "name": "3b23882ca01046438fe48f9e3d1fb2ec", "fusion_lat": 0.0, "rental_uris": {"android": "https://dc.lft.to/lastmile_qr_scan", "ios": "https://dc.lft.to/lastmile_qr_scan"}, "bike_id": "3b23882ca01046438fe48f9e3d1fb2ec", "is_reserved": 0}, {"lat": 38.969646833333336, "fusion_lon": 0.0, "lon": -76.95749833333333, "is_disabled": 0, "type": "electric_bike", "name": "0cb8acc606ecb7bd5021ff7d2e16f607", "fusion_lat": 0.0, "rental_uris": {"android": "https://dc.lft.to/lastmile_qr_scan", "ios": "https://dc.lft.to/lastmile_qr_scan"}, "bike_id": "0cb8acc606ecb7bd5021ff7d2e16f607", "is_reserved": 0}, {"lat": 38.92161383333333, "fusion_lon": 0.0, "lon": -77.03379666666666, "is_disabled": 0, "type": "electric_scooter", "name": "5aaf42a60f07300af2f9a0c458d27b6a", "fusion_lat": 0.0, "rental_uris": {"android": "https://dc.lft.to/lastmile_qr_scan", "ios": "https://dc.lft.to/lastmile_qr_scan"}, "bike_id": "5aaf42a60f07300af2f9a0c458d27b6a", "is_reserved": 0}, {"lat": 38.919247666666664, "fusion_lon": 0.0, "lon": -77.03175816666666, "is_disabled": 0, "type": "electric_scooter", "name": "ea81d1ea4f8e0efee770d2f3d746b858", "fusion_lat": 0.0, "rental_uris": {"android": "https://dc.lft.to/lastmile_qr_scan", "ios": "https://dc.lft.to/lastmile_qr_scan"}, "bike_id": "ea81d1ea4f8e0efee770d2f3d746b858", "is_reserved": 0}, {"lat": 38.932294166666665, "fusion_lon": 0.0, "lon": -77.18123483333333, "is_disabled": 0, "type": "electric_bike", "name": "e1ef1b103f3a6e115b04f5082ad60a8e", "fusion_lat": 0.0, "rental_uris": {"android": "https://dc.lft.to/lastmile_qr_scan", "ios": "https://dc.lft.to/lastmile_qr_scan"}, "bike_id": "e1ef1b103f3a6e115b04f5082ad60a8e", "is_reserved": 0}, {"lat": 38.95193533333333, "fusion_lon": 0.0, "lon": -77.02617633333334, "is_disabled": 0, "type": "electric_scooter", "name": "a3f46f989843e8353ee00e73f443ceed", "fusion_lat": 0.0, "rental_uris": {"android": "https://dc.lft.to/lastmile_qr_scan", "ios": "https://dc.lft.to/lastmile_qr_scan"}, "bike_id": "a3f46f989843e8353ee00e73f443ceed", "is_reserved": 0}, {"lat": 38.898947666666665, "fusion_lon": 0.0, "lon": -76.9938525, "is_disabled": 0, "type": "electric_scooter", "name": "95ea3580f01ea06ab4367284f536eb2c", "fusion_lat": 0.0, "rental_uris": {"android": "https://dc.lft.to/lastmile_qr_scan", "ios": "https://dc.lft.to/lastmile_qr_scan"}, "bike_id": "95ea3580f01ea06ab4367284f536eb2c", "is_reserved": 0}, {"lat": 38.95330966666667, "fusion_lon": 0.0, "lon": -76.9543555, "is_disabled": 0, "type": "electric_bike", "name": "5dca05de67d73a42bea2d8cff5e746f3", "fusion_lat": 0.0, "rental_uris": {"android": "https://dc.lft.to/lastmile_qr_scan", "ios": "https://dc.lft.to/lastmile_qr_scan"}, "bike_id": "5dca05de67d73a42bea2d8cff5e746f3", "is_reserved": 0}, {"lat": 38.881422, "fusion_lon": 0.0, "lon": -77.01226366666667, "is_disabled": 0, "type": "electric_scooter", "name": "b792a5391f246eb1a68c13bf65af428f", "fusion_lat": 0.0, "rental_uris": {"android": "https://dc.lft.to/lastmile_qr_scan", "ios": "https://dc.lft.to/lastmile_qr_scan"}, "bike_id": "b792a5391f246eb1a68c13bf65af428f", "is_reserved": 0}, {"lat": 38.9126445, "fusion_lon": 0.0, "lon": -77.0410375, "is_disabled": 0, "type": "electric_scooter", "name": "23fa8d2367fa761adb50eead7dd7dd69", "fusion_lat": 0.0, "rental_uris": {"android": "https://dc.lft.to/lastmile_qr_scan", "ios": "https://dc.lft.to/lastmile_qr_scan"}, "bike_id": "23fa8d2367fa761adb50eead7dd7dd69", "is_reserved": 0}, {"lat": 38.896065166666666, "fusion_lon": 0.0, "lon": -77.049882, "is_disabled": 0, "type": "electric_scooter", "name": "b85bffdd7e64904fad7b7b808961a947", "fusion_lat": 0.0, "rental_uris": {"android": "https://dc.lft.to/lastmile_qr_scan", "ios": "https://dc.lft.to/lastmile_qr_scan"}, "bike_id": "b85bffdd7e64904fad7b7b808961a947", "is_reserved": 0}, {"lat": 38.91375166666667, "fusion_lon": 0.0, "lon": -77.03138383333334, "is_disabled": 0, "type": "electric_scooter", "name": "61fd0d5224c3a6de9b8504f3d5c615aa", "fusion_lat": 0.0, "rental_uris": {"android": "https://dc.lft.to/lastmile_qr_scan", "ios": "https://dc.lft.to/lastmile_qr_scan"}, "bike_id": "61fd0d5224c3a6de9b8504f3d5c615aa", "is_reserved": 0}, {"lat": 38.896365833333334, "fusion_lon": 0.0, "lon": -77.03204316666667, "is_disabled": 0, "type": "electric_scooter", "name": "f40761f688530039211521083f72aee1", "fusion_lat": 0.0, "rental_uris": {"android": "https://dc.lft.to/lastmile_qr_scan", "ios": "https://dc.lft.to/lastmile_qr_scan"}, "bike_id": "f40761f688530039211521083f72aee1", "is_reserved": 0}, {"lat": 38.89428683333333, "fusion_lon": 0.0, "lon": -77.04003566666667, "is_disabled": 0, "type": "electric_scooter", "name": "408b1532079e8113f21974f8ec3c021e", "fusion_lat": 0.0, "rental_uris": {"android": "https://dc.lft.to/lastmile_qr_scan", "ios": "https://dc.lft.to/lastmile_qr_scan"}, "bike_id": "408b1532079e8113f21974f8ec3c021e", "is_reserved": 0}, {"lat": 38.91634033333333, "fusion_lon": 0.0, "lon": -77.04799333333334, "is_disabled": 0, "type": "electric_scooter", "name": "e8b1375c13b2a2ac5a8b25b02c4c8ece", "fusion_lat": 0.0, "rental_uris": {"android": "https://dc.lft.to/lastmile_qr_scan", "ios": "https://dc.lft.to/lastmile_qr_scan"}, "bike_id": "e8b1375c13b2a2ac5a8b25b02c4c8ece", "is_reserved": 0}, {"lat": 38.9262555, "fusion_lon": 0.0, "lon": -77.04326933333333, "is_disabled": 0, "type": "electric_scooter", "name": "5822409b518a74800aedfe524adf69bf", "fusion_lat": 0.0, "rental_uris": {"android": "https://dc.lft.to/lastmile_qr_scan", "ios": "https://dc.lft.to/lastmile_qr_scan"}, "bike_id": "5822409b518a74800aedfe524adf69bf", "is_reserved": 0}, {"lat": 38.912575833333335, "fusion_lon": 0.0, "lon": -77.07318266666667, "is_disabled": 0, "type": "electric_scooter", "name": "5a51ac835a19cf8edd0a4e6ef9816cc1", "fusion_lat": 0.0, "rental_uris": {"android": "https://dc.lft.to/lastmile_qr_scan", "ios": "https://dc.lft.to/lastmile_qr_scan"}, "bike_id": "5a51ac835a19cf8edd0a4e6ef9816cc1", "is_reserved": 0}, {"lat": 38.90565933333333, "fusion_lon": 0.0, "lon": -77.030726, "is_disabled": 0, "type": "electric_scooter", "name": "9143b6698cfb975ed7d49fcebbca71e5", "fusion_lat": 0.0, "rental_uris": {"android": "https://dc.lft.to/lastmile_qr_scan", "ios": "https://dc.lft.to/lastmile_qr_scan"}, "bike_id": "9143b6698cfb975ed7d49fcebbca71e5", "is_reserved": 0}, {"lat": 38.927459166666665, "fusion_lon": 0.0, "lon": -77.036381, "is_disabled": 0, "type": "electric_scooter", "name": "f5b7c589af31718eae707d6dea798087", "fusion_lat": 0.0, "rental_uris": {"android": "https://dc.lft.to/lastmile_qr_scan", "ios": "https://dc.lft.to/lastmile_qr_scan"}, "bike_id": "f5b7c589af31718eae707d6dea798087", "is_reserved": 0}, {"lat": 38.950751833333335, "fusion_lon": 0.0, "lon": -76.9956635, "is_disabled": 0, "type": "electric_scooter", "name": "7b1f2dc5706dd8c984c8327658e7bbf7", "fusion_lat": 0.0, "rental_uris": {"android": "https://dc.lft.to/lastmile_qr_scan", "ios": "https://dc.lft.to/lastmile_qr_scan"}, "bike_id": "7b1f2dc5706dd8c984c8327658e7bbf7", "is_reserved": 0}, {"lat": 38.90832433333333, "fusion_lon": 0.0, "lon": -77.0743555, "is_disabled": 0, "type": "electric_scooter", "name": "4e30784612877859e5b370e18d1d1a35", "fusion_lat": 0.0, "rental_uris": {"android": "https://dc.lft.to/lastmile_qr_scan", "ios": "https://dc.lft.to/lastmile_qr_scan"}, "bike_id": "4e30784612877859e5b370e18d1d1a35", "is_reserved": 0}, {"lat": 38.8527705, "fusion_lon": 0.0, "lon": -76.99582616666666, "is_disabled": 0, "type": "electric_bike", "name": "88a075afcbe01a4e13b35bc11e3731dc", "fusion_lat": 0.0, "rental_uris": {"android": "https://dc.lft.to/lastmile_qr_scan", "ios": "https://dc.lft.to/lastmile_qr_scan"}, "bike_id": "88a075afcbe01a4e13b35bc11e3731dc", "is_reserved": 0}, {"lat": 38.91572683333333, "fusion_lon": 0.0, "lon": -77.03185166666667, "is_disabled": 0, "type": "electric_scooter", "name": "9b4a1a1de309bf82ea17c1fcc46db195", "fusion_lat": 0.0, "rental_uris": {"android": "https://dc.lft.to/lastmile_qr_scan", "ios": "https://dc.lft.to/lastmile_qr_scan"}, "bike_id": "9b4a1a1de309bf82ea17c1fcc46db195", "is_reserved": 0}, {"lat": 38.881286833333334, "fusion_lon": 0.0, "lon": -77.01635766666666, "is_disabled": 0, "type": "electric_scooter", "name": "06a1896cc694efa46e67da8e20441dcc", "fusion_lat": 0.0, "rental_uris": {"android": "https://dc.lft.to/lastmile_qr_scan", "ios": "https://dc.lft.to/lastmile_qr_scan"}, "bike_id": "06a1896cc694efa46e67da8e20441dcc", "is_reserved": 0}, {"lat": 38.90533633333333, "fusion_lon": 0.0, "lon": -77.05953066666666, "is_disabled": 0, "type": "electric_scooter", "name": "1a2360fd98bec05a98761f798dcc2a9c", "fusion_lat": 0.0, "rental_uris": {"android": "https://dc.lft.to/lastmile_qr_scan", "ios": "https://dc.lft.to/lastmile_qr_scan"}, "bike_id": "1a2360fd98bec05a98761f798dcc2a9c", "is_reserved": 0}, {"lat": 38.9156585, "fusion_lon": 0.0, "lon": -77.03358666666666, "is_disabled": 0, "type": "electric_scooter", "name": "960fbb5f9c6643c9db5e4758be0f1087", "fusion_lat": 0.0, "rental_uris": {"android": "https://dc.lft.to/lastmile_qr_scan", "ios": "https://dc.lft.to/lastmile_qr_scan"}, "bike_id": "960fbb5f9c6643c9db5e4758be0f1087", "is_reserved": 0}, {"lat": 38.8961125, "fusion_lon": 0.0, "lon": -77.04601466666666, "is_disabled": 0, "type": "electric_scooter", "name": "ae94f5f3365a6506b80f870074bc95a4", "fusion_lat": 0.0, "rental_uris": {"android": "https://dc.lft.to/lastmile_qr_scan", "ios": "https://dc.lft.to/lastmile_qr_scan"}, "bike_id": "ae94f5f3365a6506b80f870074bc95a4", "is_reserved": 0}, {"lat": 38.89609033333333, "fusion_lon": 0.0, "lon": -77.04978683333333, "is_disabled": 0, "type": "electric_scooter", "name": "7adb2a2e1a1ac286047b4129b1f6f0e4", "fusion_lat": 0.0, "rental_uris": {"android": "https://dc.lft.to/lastmile_qr_scan", "ios": "https://dc.lft.to/lastmile_qr_scan"}, "bike_id": "7adb2a2e1a1ac286047b4129b1f6f0e4", "is_reserved": 0}, {"lat": 38.905583, "fusion_lon": 0.0, "lon": -77.04284683333333, "is_disabled": 0, "type": "electric_scooter", "name": "9803fce7b795c03011c112c264395359", "fusion_lat": 0.0, "rental_uris": {"android": "https://dc.lft.to/lastmile_qr_scan", "ios": "https://dc.lft.to/lastmile_qr_scan"}, "bike_id": "9803fce7b795c03011c112c264395359", "is_reserved": 0}, {"lat": 38.887673666666664, "fusion_lon": 0.0, "lon": -76.95580216666667, "is_disabled": 0, "type": "electric_scooter", "name": "8b227c2f461f64cbd2b5335e667d049c", "fusion_lat": 0.0, "rental_uris": {"android": "https://dc.lft.to/lastmile_qr_scan", "ios": "https://dc.lft.to/lastmile_qr_scan"}, "bike_id": "8b227c2f461f64cbd2b5335e667d049c", "is_reserved": 0}, {"lat": 38.92514516666667, "fusion_lon": 0.0, "lon": -77.02357733333334, "is_disabled": 0, "type": "electric_scooter", "name": "fd9dd4fbd251ca7495542d88a5afb7ce", "fusion_lat": 0.0, "rental_uris": {"android": "https://dc.lft.to/lastmile_qr_scan", "ios": "https://dc.lft.to/lastmile_qr_scan"}, "bike_id": "fd9dd4fbd251ca7495542d88a5afb7ce", "is_reserved": 0}, {"lat": 38.900855, "fusion_lon": 0.0, "lon": -76.99366033333334, "is_disabled": 0, "type": "electric_scooter", "name": "c6c1777dc71e9f1ff86dea0360d2a203", "fusion_lat": 0.0, "rental_uris": {"android": "https://dc.lft.to/lastmile_qr_scan", "ios": "https://dc.lft.to/lastmile_qr_scan"}, "bike_id": "c6c1777dc71e9f1ff86dea0360d2a203", "is_reserved": 0}, {"lat": 38.94182083333333, "fusion_lon": 0.0, "lon": -77.02533516666666, "is_disabled": 0, "type": "electric_scooter", "name": "5783417c7bd630e8dc1f6c8c5c95a616", "fusion_lat": 0.0, "rental_uris": {"android": "https://dc.lft.to/lastmile_qr_scan", "ios": "https://dc.lft.to/lastmile_qr_scan"}, "bike_id": "5783417c7bd630e8dc1f6c8c5c95a616", "is_reserved": 0}, {"lat": 38.92613133333333, "fusion_lon": 0.0, "lon": -77.02164083333334, "is_disabled": 0, "type": "electric_scooter", "name": "5395d934f87c86a5d475c2942b3dcf2c", "fusion_lat": 0.0, "rental_uris": {"android": "https://dc.lft.to/lastmile_qr_scan", "ios": "https://dc.lft.to/lastmile_qr_scan"}, "bike_id": "5395d934f87c86a5d475c2942b3dcf2c", "is_reserved": 0}, {"lat": 38.9011235, "fusion_lon": 0.0, "lon": -77.0398455, "is_disabled": 0, "type": "electric_scooter", "name": "fc8aeb89ccf144d744898629587258fe", "fusion_lat": 0.0, "rental_uris": {"android": "https://dc.lft.to/lastmile_qr_scan", "ios": "https://dc.lft.to/lastmile_qr_scan"}, "bike_id": "fc8aeb89ccf144d744898629587258fe", "is_reserved": 0}, {"lat": 38.917275, "fusion_lon": 0.0, "lon": -77.0297345, "is_disabled": 0, "type": "electric_scooter", "name": "cb597f60a93b64c91776d0be21bf4778", "fusion_lat": 0.0, "rental_uris": {"android": "https://dc.lft.to/lastmile_qr_scan", "ios": "https://dc.lft.to/lastmile_qr_scan"}, "bike_id": "cb597f60a93b64c91776d0be21bf4778", "is_reserved": 0}, {"lat": 38.92366233333333, "fusion_lon": 0.0, "lon": -77.01922016666667, "is_disabled": 0, "type": "electric_scooter", "name": "c0e6aed2754cfb734da9a9c335d99eff", "fusion_lat": 0.0, "rental_uris": {"android": "https://dc.lft.to/lastmile_qr_scan", "ios": "https://dc.lft.to/lastmile_qr_scan"}, "bike_id": "c0e6aed2754cfb734da9a9c335d99eff", "is_reserved": 0}, {"lat": 38.905719500000004, "fusion_lon": 0.0, "lon": -77.05917816666667, "is_disabled": 0, "type": "electric_scooter", "name": "60b978c49c4c969af1068630a48a9c93", "fusion_lat": 0.0, "rental_uris": {"android": "https://dc.lft.to/lastmile_qr_scan", "ios": "https://dc.lft.to/lastmile_qr_scan"}, "bike_id": "60b978c49c4c969af1068630a48a9c93", "is_reserved": 0}, {"lat": 38.89500483333333, "fusion_lon": 0.0, "lon": -77.00945783333333, "is_disabled": 0, "type": "electric_scooter", "name": "a13fe718ff73515d496afd994641dc7c", "fusion_lat": 0.0, "rental_uris": {"android": "https://dc.lft.to/lastmile_qr_scan", "ios": "https://dc.lft.to/lastmile_qr_scan"}, "bike_id": "a13fe718ff73515d496afd994641dc7c", "is_reserved": 0}, {"lat": 38.89794116666667, "fusion_lon": 0.0, "lon": -77.045005, "is_disabled": 0, "type": "electric_scooter", "name": "3b5e3dbca444ab3181c0a41cb36a1f20", "fusion_lat": 0.0, "rental_uris": {"android": "https://dc.lft.to/lastmile_qr_scan", "ios": "https://dc.lft.to/lastmile_qr_scan"}, "bike_id": "3b5e3dbca444ab3181c0a41cb36a1f20", "is_reserved": 0}, {"lat": 38.935716, "fusion_lon": 0.0, "lon": -77.021243, "is_disabled": 0, "type": "electric_scooter", "name": "3229c1ccb1ffb3fb44782437ce29fbe0", "fusion_lat": 0.0, "rental_uris": {"android": "https://dc.lft.to/lastmile_qr_scan", "ios": "https://dc.lft.to/lastmile_qr_scan"}, "bike_id": "3229c1ccb1ffb3fb44782437ce29fbe0", "is_reserved": 0}, {"lat": 38.899170166666664, "fusion_lon": 0.0, "lon": -76.93365466666667, "is_disabled": 0, "type": "electric_scooter", "name": "818a3be5d57d4417a3a85e9acf4e8253", "fusion_lat": 0.0, "rental_uris": {"android": "https://dc.lft.to/lastmile_qr_scan", "ios": "https://dc.lft.to/lastmile_qr_scan"}, "bike_id": "818a3be5d57d4417a3a85e9acf4e8253", "is_reserved": 0}, {"lat": 38.88721816666666, "fusion_lon": 0.0, "lon": -77.0220075, "is_disabled": 0, "type": "electric_scooter", "name": "863818fe501540bf53fc430cc604dc5b", "fusion_lat": 0.0, "rental_uris": {"android": "https://dc.lft.to/lastmile_qr_scan", "ios": "https://dc.lft.to/lastmile_qr_scan"}, "bike_id": "863818fe501540bf53fc430cc604dc5b", "is_reserved": 0}, {"lat": 38.902195, "fusion_lon": 0.0, "lon": -77.04334666666666, "is_disabled": 0, "type": "electric_scooter", "name": "d070141e773597b9c0722c66d8af627b", "fusion_lat": 0.0, "rental_uris": {"android": "https://dc.lft.to/lastmile_qr_scan", "ios": "https://dc.lft.to/lastmile_qr_scan"}, "bike_id": "d070141e773597b9c0722c66d8af627b", "is_reserved": 0}, {"lat": 38.852058666666665, "fusion_lon": 0.0, "lon": -77.10129966666666, "is_disabled": 0, "type": "electric_bike", "name": "a27ad6ecc50ab7b00a1ba29a2e26d16a", "fusion_lat": 0.0, "rental_uris": {"android": "https://dc.lft.to/lastmile_qr_scan", "ios": "https://dc.lft.to/lastmile_qr_scan"}, "bike_id": "a27ad6ecc50ab7b00a1ba29a2e26d16a", "is_reserved": 0}, {"lat": 38.946715166666664, "fusion_lon": 0.0, "lon": -76.98304666666667, "is_disabled": 0, "type": "electric_bike", "name": "2dd37e644b6c053cabe10d76c2eed094", "fusion_lat": 0.0, "rental_uris": {"android": "https://dc.lft.to/lastmile_qr_scan", "ios": "https://dc.lft.to/lastmile_qr_scan"}, "bike_id": "2dd37e644b6c053cabe10d76c2eed094", "is_reserved": 0}, {"lat": 38.893699, "fusion_lon": 0.0, "lon": -76.94988116666667, "is_disabled": 0, "type": "electric_scooter", "name": "699613b8d4c1fb32d26f11ddacebeb0a", "fusion_lat": 0.0, "rental_uris": {"android": "https://dc.lft.to/lastmile_qr_scan", "ios": "https://dc.lft.to/lastmile_qr_scan"}, "bike_id": "699613b8d4c1fb32d26f11ddacebeb0a", "is_reserved": 0}, {"lat": 38.917171333333336, "fusion_lon": 0.0, "lon": -77.038583, "is_disabled": 0, "type": "electric_scooter", "name": "f59c5195b75045f613b2e1a4486593f8", "fusion_lat": 0.0, "rental_uris": {"android": "https://dc.lft.to/lastmile_qr_scan", "ios": "https://dc.lft.to/lastmile_qr_scan"}, "bike_id": "f59c5195b75045f613b2e1a4486593f8", "is_reserved": 0}, {"lat": 38.9179155, "fusion_lon": 0.0, "lon": -77.04274716666667, "is_disabled": 0, "type": "electric_scooter", "name": "d5befdb7068adf574ca1d25671cced8c", "fusion_lat": 0.0, "rental_uris": {"android": "https://dc.lft.to/lastmile_qr_scan", "ios": "https://dc.lft.to/lastmile_qr_scan"}, "bike_id": "d5befdb7068adf574ca1d25671cced8c", "is_reserved": 0}, {"lat": 38.92146266666666, "fusion_lon": 0.0, "lon": -77.03505733333333, "is_disabled": 0, "type": "electric_scooter", "name": "eaf36fd6986929d7d32998a9103084e9", "fusion_lat": 0.0, "rental_uris": {"android": "https://dc.lft.to/lastmile_qr_scan", "ios": "https://dc.lft.to/lastmile_qr_scan"}, "bike_id": "eaf36fd6986929d7d32998a9103084e9", "is_reserved": 0}, {"lat": 38.95628033333333, "fusion_lon": 0.0, "lon": -77.02455633333334, "is_disabled": 0, "type": "electric_scooter", "name": "0e0e1fef2c67524dc08f63918f62ccad", "fusion_lat": 0.0, "rental_uris": {"android": "https://dc.lft.to/lastmile_qr_scan", "ios": "https://dc.lft.to/lastmile_qr_scan"}, "bike_id": "0e0e1fef2c67524dc08f63918f62ccad", "is_reserved": 0}, {"lat": 38.91269966666667, "fusion_lon": 0.0, "lon": -77.01606066666666, "is_disabled": 0, "type": "electric_scooter", "name": "e454467e22f787e6bce687e6491756e5", "fusion_lat": 0.0, "rental_uris": {"android": "https://dc.lft.to/lastmile_qr_scan", "ios": "https://dc.lft.to/lastmile_qr_scan"}, "bike_id": "e454467e22f787e6bce687e6491756e5", "is_reserved": 0}, {"lat": 38.8923015, "fusion_lon": 0.0, "lon": -77.02177633333334, "is_disabled": 0, "type": "electric_scooter", "name": "787ef0675b83f2c70d05694a957fa603", "fusion_lat": 0.0, "rental_uris": {"android": "https://dc.lft.to/lastmile_qr_scan", "ios": "https://dc.lft.to/lastmile_qr_scan"}, "bike_id": "787ef0675b83f2c70d05694a957fa603", "is_reserved": 0}, {"lat": 38.90726183333334, "fusion_lon": 0.0, "lon": -77.0408285, "is_disabled": 0, "type": "electric_scooter", "name": "84e5c2260eca5450583ee85446946f79", "fusion_lat": 0.0, "rental_uris": {"android": "https://dc.lft.to/lastmile_qr_scan", "ios": "https://dc.lft.to/lastmile_qr_scan"}, "bike_id": "84e5c2260eca5450583ee85446946f79", "is_reserved": 0}, {"lat": 38.91182633333333, "fusion_lon": 0.0, "lon": -77.04347166666666, "is_disabled": 0, "type": "electric_scooter", "name": "27f8fa8e3672decad03828ef42479187", "fusion_lat": 0.0, "rental_uris": {"android": "https://dc.lft.to/lastmile_qr_scan", "ios": "https://dc.lft.to/lastmile_qr_scan"}, "bike_id": "27f8fa8e3672decad03828ef42479187", "is_reserved": 0}, {"lat": 38.91983183333333, "fusion_lon": 0.0, "lon": -77.03328633333334, "is_disabled": 0, "type": "electric_scooter", "name": "1b8f9ff1d534f766ee4a436ff06c0ed7", "fusion_lat": 0.0, "rental_uris": {"android": "https://dc.lft.to/lastmile_qr_scan", "ios": "https://dc.lft.to/lastmile_qr_scan"}, "bike_id": "1b8f9ff1d534f766ee4a436ff06c0ed7", "is_reserved": 0}, {"lat": 38.892314166666665, "fusion_lon": 0.0, "lon": -77.03192533333333, "is_disabled": 0, "type": "electric_scooter", "name": "c0fcd153351c211a3f680f2acd1b115e", "fusion_lat": 0.0, "rental_uris": {"android": "https://dc.lft.to/lastmile_qr_scan", "ios": "https://dc.lft.to/lastmile_qr_scan"}, "bike_id": "c0fcd153351c211a3f680f2acd1b115e", "is_reserved": 0}, {"lat": 38.90112933333333, "fusion_lon": 0.0, "lon": -77.03181333333333, "is_disabled": 0, "type": "electric_scooter", "name": "90f0307e5d9be784079a233e0db7c42f", "fusion_lat": 0.0, "rental_uris": {"android": "https://dc.lft.to/lastmile_qr_scan", "ios": "https://dc.lft.to/lastmile_qr_scan"}, "bike_id": "90f0307e5d9be784079a233e0db7c42f", "is_reserved": 0}, {"lat": 38.90264233333333, "fusion_lon": 0.0, "lon": -77.0174845, "is_disabled": 0, "type": "electric_scooter", "name": "4c304dc13d0dda326e6a1db7b16f7efc", "fusion_lat": 0.0, "rental_uris": {"android": "https://dc.lft.to/lastmile_qr_scan", "ios": "https://dc.lft.to/lastmile_qr_scan"}, "bike_id": "4c304dc13d0dda326e6a1db7b16f7efc", "is_reserved": 0}, {"lat": 38.92328883333333, "fusion_lon": 0.0, "lon": -77.01950233333334, "is_disabled": 0, "type": "electric_scooter", "name": "881fda877cc530f2daacc38d985575a7", "fusion_lat": 0.0, "rental_uris": {"android": "https://dc.lft.to/lastmile_qr_scan", "ios": "https://dc.lft.to/lastmile_qr_scan"}, "bike_id": "881fda877cc530f2daacc38d985575a7", "is_reserved": 0}, {"lat": 38.942079166666666, "fusion_lon": 0.0, "lon": -77.02511716666666, "is_disabled": 0, "type": "electric_scooter", "name": "525ec2679b0343ce12cbf98891cb150a", "fusion_lat": 0.0, "rental_uris": {"android": "https://dc.lft.to/lastmile_qr_scan", "ios": "https://dc.lft.to/lastmile_qr_scan"}, "bike_id": "525ec2679b0343ce12cbf98891cb150a", "is_reserved": 0}, {"lat": 38.885082, "fusion_lon": 0.0, "lon": -77.020223, "is_disabled": 0, "type": "electric_scooter", "name": "14c6fea91f3c4666a931fd670cb60817", "fusion_lat": 0.0, "rental_uris": {"android": "https://dc.lft.to/lastmile_qr_scan", "ios": "https://dc.lft.to/lastmile_qr_scan"}, "bike_id": "14c6fea91f3c4666a931fd670cb60817", "is_reserved": 0}, {"lat": 38.865556, "fusion_lon": 0.0, "lon": -76.98873866666666, "is_disabled": 0, "type": "electric_scooter", "name": "6527c7e5818f4365c959c02d55e9abb7", "fusion_lat": 0.0, "rental_uris": {"android": "https://dc.lft.to/lastmile_qr_scan", "ios": "https://dc.lft.to/lastmile_qr_scan"}, "bike_id": "6527c7e5818f4365c959c02d55e9abb7", "is_reserved": 0}, {"lat": 38.92904733333334, "fusion_lon": 0.0, "lon": -77.0321175, "is_disabled": 0, "type": "electric_scooter", "name": "6ff9361e5bea3e0df2f2de99350d2522", "fusion_lat": 0.0, "rental_uris": {"android": "https://dc.lft.to/lastmile_qr_scan", "ios": "https://dc.lft.to/lastmile_qr_scan"}, "bike_id": "6ff9361e5bea3e0df2f2de99350d2522", "is_reserved": 0}, {"lat": 38.89804633333333, "fusion_lon": 0.0, "lon": -77.03311466666666, "is_disabled": 0, "type": "electric_scooter", "name": "236bd45dc75616d09c7bcbce854c3e17", "fusion_lat": 0.0, "rental_uris": {"android": "https://dc.lft.to/lastmile_qr_scan", "ios": "https://dc.lft.to/lastmile_qr_scan"}, "bike_id": "236bd45dc75616d09c7bcbce854c3e17", "is_reserved": 0}, {"lat": 38.91403733333333, "fusion_lon": 0.0, "lon": -77.03289933333333, "is_disabled": 0, "type": "electric_scooter", "name": "8351d0d356088dcfa93f121323a55829", "fusion_lat": 0.0, "rental_uris": {"android": "https://dc.lft.to/lastmile_qr_scan", "ios": "https://dc.lft.to/lastmile_qr_scan"}, "bike_id": "8351d0d356088dcfa93f121323a55829", "is_reserved": 0}, {"lat": 38.90120233333333, "fusion_lon": 0.0, "lon": -77.04025383333334, "is_disabled": 0, "type": "electric_scooter", "name": "cf759aa8058d5f3fe2c2922ad5e18524", "fusion_lat": 0.0, "rental_uris": {"android": "https://dc.lft.to/lastmile_qr_scan", "ios": "https://dc.lft.to/lastmile_qr_scan"}, "bike_id": "cf759aa8058d5f3fe2c2922ad5e18524", "is_reserved": 0}, {"lat": 38.81200233333333, "fusion_lon": 0.0, "lon": -77.10840916666666, "is_disabled": 0, "type": "electric_bike", "name": "3fb6a0d4893dee931c2e8ce86e5a1be5", "fusion_lat": 0.0, "rental_uris": {"android": "https://dc.lft.to/lastmile_qr_scan", "ios": "https://dc.lft.to/lastmile_qr_scan"}, "bike_id": "3fb6a0d4893dee931c2e8ce86e5a1be5", "is_reserved": 0}, {"lat": 38.971298833333336, "fusion_lon": 0.0, "lon": -77.03167916666666, "is_disabled": 0, "type": "electric_bike", "name": "7795dcb84a591c019a391273cc68b54a", "fusion_lat": 0.0, "rental_uris": {"android": "https://dc.lft.to/lastmile_qr_scan", "ios": "https://dc.lft.to/lastmile_qr_scan"}, "bike_id": "7795dcb84a591c019a391273cc68b54a", "is_reserved": 0}, {"lat": 38.893164666666664, "fusion_lon": 0.0, "lon": -76.92916416666667, "is_disabled": 0, "type": "electric_scooter", "name": "a25ae7ade8ea5e870d2c78d25e5eaa0c", "fusion_lat": 0.0, "rental_uris": {"android": "https://dc.lft.to/lastmile_qr_scan", "ios": "https://dc.lft.to/lastmile_qr_scan"}, "bike_id": "a25ae7ade8ea5e870d2c78d25e5eaa0c", "is_reserved": 0}, {"lat": 38.865083166666665, "fusion_lon": 0.0, "lon": -76.990031, "is_disabled": 0, "type": "electric_scooter", "name": "953021d92d9507037a4ed1a1cc4ca8d8", "fusion_lat": 0.0, "rental_uris": {"android": "https://dc.lft.to/lastmile_qr_scan", "ios": "https://dc.lft.to/lastmile_qr_scan"}, "bike_id": "953021d92d9507037a4ed1a1cc4ca8d8", "is_reserved": 0}, {"lat": 38.904302666666666, "fusion_lon": 0.0, "lon": -77.04343833333333, "is_disabled": 0, "type": "electric_scooter", "name": "8ee2b55d36297ced43a8e0c28ec85f5f", "fusion_lat": 0.0, "rental_uris": {"android": "https://dc.lft.to/lastmile_qr_scan", "ios": "https://dc.lft.to/lastmile_qr_scan"}, "bike_id": "8ee2b55d36297ced43a8e0c28ec85f5f", "is_reserved": 0}, {"lat": 38.917130666666665, "fusion_lon": 0.0, "lon": -77.03318383333334, "is_disabled": 0, "type": "electric_scooter", "name": "be970241824934e5791e4df8f3c08ec6", "fusion_lat": 0.0, "rental_uris": {"android": "https://dc.lft.to/lastmile_qr_scan", "ios": "https://dc.lft.to/lastmile_qr_scan"}, "bike_id": "be970241824934e5791e4df8f3c08ec6", "is_reserved": 0}, {"lat": 38.90641033333333, "fusion_lon": 0.0, "lon": -77.06904416666667, "is_disabled": 0, "type": "electric_scooter", "name": "4cfd01829332df1a83726c86ecf425f4", "fusion_lat": 0.0, "rental_uris": {"android": "https://dc.lft.to/lastmile_qr_scan", "ios": "https://dc.lft.to/lastmile_qr_scan"}, "bike_id": "4cfd01829332df1a83726c86ecf425f4", "is_reserved": 0}, {"lat": 38.9306845, "fusion_lon": 0.0, "lon": -77.02002866666666, "is_disabled": 0, "type": "electric_scooter", "name": "25dd6d08cb02c6d758b6913391ba3ab7", "fusion_lat": 0.0, "rental_uris": {"android": "https://dc.lft.to/lastmile_qr_scan", "ios": "https://dc.lft.to/lastmile_qr_scan"}, "bike_id": "25dd6d08cb02c6d758b6913391ba3ab7", "is_reserved": 0}, {"lat": 38.9012905, "fusion_lon": 0.0, "lon": -77.043373, "is_disabled": 0, "type": "electric_scooter", "name": "d25b6917920c4538e90acd55289e598a", "fusion_lat": 0.0, "rental_uris": {"android": "https://dc.lft.to/lastmile_qr_scan", "ios": "https://dc.lft.to/lastmile_qr_scan"}, "bike_id": "d25b6917920c4538e90acd55289e598a", "is_reserved": 0}, {"lat": 38.90066233333334, "fusion_lon": 0.0, "lon": -77.04535283333334, "is_disabled": 0, "type": "electric_scooter", "name": "0fc86c0e3c138e13c8068506aa41d1f7", "fusion_lat": 0.0, "rental_uris": {"android": "https://dc.lft.to/lastmile_qr_scan", "ios": "https://dc.lft.to/lastmile_qr_scan"}, "bike_id": "0fc86c0e3c138e13c8068506aa41d1f7", "is_reserved": 0}, {"lat": 38.93424866666667, "fusion_lon": 0.0, "lon": -77.04402316666666, "is_disabled": 0, "type": "electric_scooter", "name": "b4eab26aff030febf1f0979d744ac22d", "fusion_lat": 0.0, "rental_uris": {"android": "https://dc.lft.to/lastmile_qr_scan", "ios": "https://dc.lft.to/lastmile_qr_scan"}, "bike_id": "b4eab26aff030febf1f0979d744ac22d", "is_reserved": 0}, {"lat": 38.922347, "fusion_lon": 0.0, "lon": -77.03663666666667, "is_disabled": 0, "type": "electric_scooter", "name": "7ce1206c2c2c743d30254fd9bc77bb32", "fusion_lat": 0.0, "rental_uris": {"android": "https://dc.lft.to/lastmile_qr_scan", "ios": "https://dc.lft.to/lastmile_qr_scan"}, "bike_id": "7ce1206c2c2c743d30254fd9bc77bb32", "is_reserved": 0}, {"lat": 38.926102666666665, "fusion_lon": 0.0, "lon": -77.0216265, "is_disabled": 0, "type": "electric_scooter", "name": "87e6f423c9d17268ee9cc4c66f2ffd63", "fusion_lat": 0.0, "rental_uris": {"android": "https://dc.lft.to/lastmile_qr_scan", "ios": "https://dc.lft.to/lastmile_qr_scan"}, "bike_id": "87e6f423c9d17268ee9cc4c66f2ffd63", "is_reserved": 0}, {"lat": 38.88505466666667, "fusion_lon": 0.0, "lon": -76.99756416666666, "is_disabled": 0, "type": "electric_scooter", "name": "b7a69ba0472b771462f9765f090931a5", "fusion_lat": 0.0, "rental_uris": {"android": "https://dc.lft.to/lastmile_qr_scan", "ios": "https://dc.lft.to/lastmile_qr_scan"}, "bike_id": "b7a69ba0472b771462f9765f090931a5", "is_reserved": 0}, {"lat": 38.89967, "fusion_lon": 0.0, "lon": -76.98674616666666, "is_disabled": 0, "type": "electric_bike", "name": "32a390cd2a736b54ce90a13c626abd0c", "fusion_lat": 0.0, "rental_uris": {"android": "https://dc.lft.to/lastmile_qr_scan", "ios": "https://dc.lft.to/lastmile_qr_scan"}, "bike_id": "32a390cd2a736b54ce90a13c626abd0c", "is_reserved": 0}, {"lat": 38.92882783333334, "fusion_lon": 0.0, "lon": -77.013588, "is_disabled": 0, "type": "electric_scooter", "name": "caacd4354337530f14acdac06e312d38", "fusion_lat": 0.0, "rental_uris": {"android": "https://dc.lft.to/lastmile_qr_scan", "ios": "https://dc.lft.to/lastmile_qr_scan"}, "bike_id": "caacd4354337530f14acdac06e312d38", "is_reserved": 0}, {"lat": 38.9008095, "fusion_lon": 0.0, "lon": -77.03203783333333, "is_disabled": 0, "type": "electric_scooter", "name": "d5ff5070e6c1fccb0f67a9ccb688ebaa", "fusion_lat": 0.0, "rental_uris": {"android": "https://dc.lft.to/lastmile_qr_scan", "ios": "https://dc.lft.to/lastmile_qr_scan"}, "bike_id": "d5ff5070e6c1fccb0f67a9ccb688ebaa", "is_reserved": 0}, {"lat": 38.904380333333336, "fusion_lon": 0.0, "lon": -76.98498, "is_disabled": 0, "type": "electric_scooter", "name": "89d90aea01c53fbe4059c4d126e41309", "fusion_lat": 0.0, "rental_uris": {"android": "https://dc.lft.to/lastmile_qr_scan", "ios": "https://dc.lft.to/lastmile_qr_scan"}, "bike_id": "89d90aea01c53fbe4059c4d126e41309", "is_reserved": 0}, {"lat": 38.906323666666665, "fusion_lon": 0.0, "lon": -77.0515225, "is_disabled": 0, "type": "electric_scooter", "name": "42cf93585ea739e278a434faffed2bbe", "fusion_lat": 0.0, "rental_uris": {"android": "https://dc.lft.to/lastmile_qr_scan", "ios": "https://dc.lft.to/lastmile_qr_scan"}, "bike_id": "42cf93585ea739e278a434faffed2bbe", "is_reserved": 0}, {"lat": 38.949117, "fusion_lon": 0.0, "lon": -77.078795, "is_disabled": 0, "type": "electric_scooter", "name": "5ced2c7af42157fd7d68102775987b6c", "fusion_lat": 0.0, "rental_uris": {"android": "https://dc.lft.to/lastmile_qr_scan", "ios": "https://dc.lft.to/lastmile_qr_scan"}, "bike_id": "5ced2c7af42157fd7d68102775987b6c", "is_reserved": 0}, {"lat": 38.92224866666667, "fusion_lon": 0.0, "lon": -77.04243266666667, "is_disabled": 0, "type": "electric_scooter", "name": "8a4d19c5f591aec06a83c1fee83e2def", "fusion_lat": 0.0, "rental_uris": {"android": "https://dc.lft.to/lastmile_qr_scan", "ios": "https://dc.lft.to/lastmile_qr_scan"}, "bike_id": "8a4d19c5f591aec06a83c1fee83e2def", "is_reserved": 0}, {"lat": 38.92254533333333, "fusion_lon": 0.0, "lon": -77.03525416666666, "is_disabled": 0, "type": "electric_scooter", "name": "69e0151cd2bd205c86ad6e12d030b312", "fusion_lat": 0.0, "rental_uris": {"android": "https://dc.lft.to/lastmile_qr_scan", "ios": "https://dc.lft.to/lastmile_qr_scan"}, "bike_id": "69e0151cd2bd205c86ad6e12d030b312", "is_reserved": 0}, {"lat": 38.968172, "fusion_lon": 0.0, "lon": -77.07225166666667, "is_disabled": 0, "type": "electric_bike", "name": "afa8fe7e3e34555d43e5676715683aae", "fusion_lat": 0.0, "rental_uris": {"android": "https://dc.lft.to/lastmile_qr_scan", "ios": "https://dc.lft.to/lastmile_qr_scan"}, "bike_id": "afa8fe7e3e34555d43e5676715683aae", "is_reserved": 0}, {"lat": 38.919165, "fusion_lon": 0.0, "lon": -77.02619866666667, "is_disabled": 0, "type": "electric_scooter", "name": "e3a4d5caf1df09e093d3d8ff57eb71a6", "fusion_lat": 0.0, "rental_uris": {"android": "https://dc.lft.to/lastmile_qr_scan", "ios": "https://dc.lft.to/lastmile_qr_scan"}, "bike_id": "e3a4d5caf1df09e093d3d8ff57eb71a6", "is_reserved": 0}, {"lat": 38.8963235, "fusion_lon": 0.0, "lon": -77.0401185, "is_disabled": 0, "type": "electric_scooter", "name": "18c116089d57e16763f697a1e5824711", "fusion_lat": 0.0, "rental_uris": {"android": "https://dc.lft.to/lastmile_qr_scan", "ios": "https://dc.lft.to/lastmile_qr_scan"}, "bike_id": "18c116089d57e16763f697a1e5824711", "is_reserved": 0}, {"lat": 38.9296675, "fusion_lon": 0.0, "lon": -77.03256016666667, "is_disabled": 0, "type": "electric_scooter", "name": "07d7de200535be792468ea4723b7d09b", "fusion_lat": 0.0, "rental_uris": {"android": "https://dc.lft.to/lastmile_qr_scan", "ios": "https://dc.lft.to/lastmile_qr_scan"}, "bike_id": "07d7de200535be792468ea4723b7d09b", "is_reserved": 0}, {"lat": 38.92336866666667, "fusion_lon": 0.0, "lon": -77.02151883333333, "is_disabled": 0, "type": "electric_scooter", "name": "27e5208d333837658304ca9d299d6e5e", "fusion_lat": 0.0, "rental_uris": {"android": "https://dc.lft.to/lastmile_qr_scan", "ios": "https://dc.lft.to/lastmile_qr_scan"}, "bike_id": "27e5208d333837658304ca9d299d6e5e", "is_reserved": 0}, {"lat": 38.89559633333333, "fusion_lon": 0.0, "lon": -77.02908883333333, "is_disabled": 0, "type": "electric_scooter", "name": "d829d21eacceabfd3692a4b2f481e445", "fusion_lat": 0.0, "rental_uris": {"android": "https://dc.lft.to/lastmile_qr_scan", "ios": "https://dc.lft.to/lastmile_qr_scan"}, "bike_id": "d829d21eacceabfd3692a4b2f481e445", "is_reserved": 0}, {"lat": 38.9101405, "fusion_lon": 0.0, "lon": -77.06489816666667, "is_disabled": 0, "type": "electric_scooter", "name": "577cb9fb14369afc2eb5a379772d3e04", "fusion_lat": 0.0, "rental_uris": {"android": "https://dc.lft.to/lastmile_qr_scan", "ios": "https://dc.lft.to/lastmile_qr_scan"}, "bike_id": "577cb9fb14369afc2eb5a379772d3e04", "is_reserved": 0}, {"lat": 38.924219, "fusion_lon": 0.0, "lon": -77.03548333333333, "is_disabled": 0, "type": "electric_scooter", "name": "2f5a2419ed4ca123f6aae2f8e6fbd55b", "fusion_lat": 0.0, "rental_uris": {"android": "https://dc.lft.to/lastmile_qr_scan", "ios": "https://dc.lft.to/lastmile_qr_scan"}, "bike_id": "2f5a2419ed4ca123f6aae2f8e6fbd55b", "is_reserved": 0}, {"lat": 38.90369166666667, "fusion_lon": 0.0, "lon": -77.03579683333334, "is_disabled": 0, "type": "electric_scooter", "name": "7d7ef3ddbff207e42b888bdce53ca2ac", "fusion_lat": 0.0, "rental_uris": {"android": "https://dc.lft.to/lastmile_qr_scan", "ios": "https://dc.lft.to/lastmile_qr_scan"}, "bike_id": "7d7ef3ddbff207e42b888bdce53ca2ac", "is_reserved": 0}, {"lat": 38.892228833333334, "fusion_lon": 0.0, "lon": -77.02620166666667, "is_disabled": 0, "type": "electric_scooter", "name": "fa973daa8421b82c90112b28b4f06b0b", "fusion_lat": 0.0, "rental_uris": {"android": "https://dc.lft.to/lastmile_qr_scan", "ios": "https://dc.lft.to/lastmile_qr_scan"}, "bike_id": "fa973daa8421b82c90112b28b4f06b0b", "is_reserved": 0}, {"lat": 38.88747633333333, "fusion_lon": 0.0, "lon": -77.03183233333333, "is_disabled": 0, "type": "electric_scooter", "name": "7749b8b8fabba08c1ddaa22c10d51918", "fusion_lat": 0.0, "rental_uris": {"android": "https://dc.lft.to/lastmile_qr_scan", "ios": "https://dc.lft.to/lastmile_qr_scan"}, "bike_id": "7749b8b8fabba08c1ddaa22c10d51918", "is_reserved": 0}, {"lat": 38.931700166666666, "fusion_lon": 0.0, "lon": -76.99625866666666, "is_disabled": 0, "type": "electric_scooter", "name": "41f18a952baaae6b221b948959f7aa01", "fusion_lat": 0.0, "rental_uris": {"android": "https://dc.lft.to/lastmile_qr_scan", "ios": "https://dc.lft.to/lastmile_qr_scan"}, "bike_id": "41f18a952baaae6b221b948959f7aa01", "is_reserved": 0}, {"lat": 38.900468833333335, "fusion_lon": 0.0, "lon": -77.024569, "is_disabled": 0, "type": "electric_scooter", "name": "3dea1acbd7b96c601ba2df386d1235d7", "fusion_lat": 0.0, "rental_uris": {"android": "https://dc.lft.to/lastmile_qr_scan", "ios": "https://dc.lft.to/lastmile_qr_scan"}, "bike_id": "3dea1acbd7b96c601ba2df386d1235d7", "is_reserved": 0}, {"lat": 38.92913983333333, "fusion_lon": 0.0, "lon": -77.0375595, "is_disabled": 0, "type": "electric_scooter", "name": "ca086dd6ac2fb7cdd40d83b551fe7b38", "fusion_lat": 0.0, "rental_uris": {"android": "https://dc.lft.to/lastmile_qr_scan", "ios": "https://dc.lft.to/lastmile_qr_scan"}, "bike_id": "ca086dd6ac2fb7cdd40d83b551fe7b38", "is_reserved": 0}, {"lat": 38.9111185, "fusion_lon": 0.0, "lon": -77.02081216666667, "is_disabled": 0, "type": "electric_scooter", "name": "43b40d2bb7236397faca4d2a463b7218", "fusion_lat": 0.0, "rental_uris": {"android": "https://dc.lft.to/lastmile_qr_scan", "ios": "https://dc.lft.to/lastmile_qr_scan"}, "bike_id": "43b40d2bb7236397faca4d2a463b7218", "is_reserved": 0}, {"lat": 38.914921, "fusion_lon": 0.0, "lon": -77.0218685, "is_disabled": 0, "type": "electric_scooter", "name": "fede3054b35213c52a5a8b4c09ae2384", "fusion_lat": 0.0, "rental_uris": {"android": "https://dc.lft.to/lastmile_qr_scan", "ios": "https://dc.lft.to/lastmile_qr_scan"}, "bike_id": "fede3054b35213c52a5a8b4c09ae2384", "is_reserved": 0}, {"lat": 38.918415833333334, "fusion_lon": 0.0, "lon": -77.05948783333334, "is_disabled": 0, "type": "electric_scooter", "name": "df4b4bb3436eab32093a91a4e569d584", "fusion_lat": 0.0, "rental_uris": {"android": "https://dc.lft.to/lastmile_qr_scan", "ios": "https://dc.lft.to/lastmile_qr_scan"}, "bike_id": "df4b4bb3436eab32093a91a4e569d584", "is_reserved": 0}, {"lat": 38.889614, "fusion_lon": 0.0, "lon": -76.93710033333333, "is_disabled": 0, "type": "electric_scooter", "name": "ed1cfac2ae1291043deebc8fdd4b0f15", "fusion_lat": 0.0, "rental_uris": {"android": "https://dc.lft.to/lastmile_qr_scan", "ios": "https://dc.lft.to/lastmile_qr_scan"}, "bike_id": "ed1cfac2ae1291043deebc8fdd4b0f15", "is_reserved": 0}, {"lat": 38.887392166666665, "fusion_lon": 0.0, "lon": -77.02583, "is_disabled": 0, "type": "electric_scooter", "name": "6a29927986479afc60addb3afe48df9f", "fusion_lat": 0.0, "rental_uris": {"android": "https://dc.lft.to/lastmile_qr_scan", "ios": "https://dc.lft.to/lastmile_qr_scan"}, "bike_id": "6a29927986479afc60addb3afe48df9f", "is_reserved": 0}, {"lat": 38.952011, "fusion_lon": 0.0, "lon": -77.02735333333334, "is_disabled": 0, "type": "electric_scooter", "name": "1aba9b7a4ff8de7158f2bceff30fdef8", "fusion_lat": 0.0, "rental_uris": {"android": "https://dc.lft.to/lastmile_qr_scan", "ios": "https://dc.lft.to/lastmile_qr_scan"}, "bike_id": "1aba9b7a4ff8de7158f2bceff30fdef8", "is_reserved": 0}, {"lat": 38.909180666666664, "fusion_lon": 0.0, "lon": -77.03185033333334, "is_disabled": 0, "type": "electric_scooter", "name": "fb5c0cf220d1fc1c15b24e5f18b360ba", "fusion_lat": 0.0, "rental_uris": {"android": "https://dc.lft.to/lastmile_qr_scan", "ios": "https://dc.lft.to/lastmile_qr_scan"}, "bike_id": "fb5c0cf220d1fc1c15b24e5f18b360ba", "is_reserved": 0}, {"lat": 38.904126166666664, "fusion_lon": 0.0, "lon": -76.97328566666667, "is_disabled": 0, "type": "electric_scooter", "name": "37e3a5aad1b94df59c4c642bb91bc1fc", "fusion_lat": 0.0, "rental_uris": {"android": "https://dc.lft.to/lastmile_qr_scan", "ios": "https://dc.lft.to/lastmile_qr_scan"}, "bike_id": "37e3a5aad1b94df59c4c642bb91bc1fc", "is_reserved": 0}, {"lat": 38.90867683333333, "fusion_lon": 0.0, "lon": -77.03230116666667, "is_disabled": 0, "type": "electric_scooter", "name": "9aae57566601fd5441aadf86908d63fc", "fusion_lat": 0.0, "rental_uris": {"android": "https://dc.lft.to/lastmile_qr_scan", "ios": "https://dc.lft.to/lastmile_qr_scan"}, "bike_id": "9aae57566601fd5441aadf86908d63fc", "is_reserved": 0}, {"lat": 38.894682333333336, "fusion_lon": 0.0, "lon": -77.0231415, "is_disabled": 0, "type": "electric_scooter", "name": "8f6532d95fed81cfeff724d5262d56b5", "fusion_lat": 0.0, "rental_uris": {"android": "https://dc.lft.to/lastmile_qr_scan", "ios": "https://dc.lft.to/lastmile_qr_scan"}, "bike_id": "8f6532d95fed81cfeff724d5262d56b5", "is_reserved": 0}, {"lat": 38.93767116666667, "fusion_lon": 0.0, "lon": -77.0326285, "is_disabled": 0, "type": "electric_scooter", "name": "d9c9bc0e9472b33fe1cd04fb06769f9a", "fusion_lat": 0.0, "rental_uris": {"android": "https://dc.lft.to/lastmile_qr_scan", "ios": "https://dc.lft.to/lastmile_qr_scan"}, "bike_id": "d9c9bc0e9472b33fe1cd04fb06769f9a", "is_reserved": 0}, {"lat": 38.89220616666667, "fusion_lon": 0.0, "lon": -77.0315715, "is_disabled": 0, "type": "electric_scooter", "name": "7f58fdcb5226befbe8f8ff1b331efada", "fusion_lat": 0.0, "rental_uris": {"android": "https://dc.lft.to/lastmile_qr_scan", "ios": "https://dc.lft.to/lastmile_qr_scan"}, "bike_id": "7f58fdcb5226befbe8f8ff1b331efada", "is_reserved": 0}, {"lat": 38.864166, "fusion_lon": 0.0, "lon": -76.991342, "is_disabled": 0, "type": "electric_scooter", "name": "020d1cac843ef7a15cf1059323331666", "fusion_lat": 0.0, "rental_uris": {"android": "https://dc.lft.to/lastmile_qr_scan", "ios": "https://dc.lft.to/lastmile_qr_scan"}, "bike_id": "020d1cac843ef7a15cf1059323331666", "is_reserved": 0}, {"lat": 38.955499333333336, "fusion_lon": 0.0, "lon": -77.06922733333333, "is_disabled": 0, "type": "electric_bike", "name": "e0316d75a824112c59cedbca2561db44", "fusion_lat": 0.0, "rental_uris": {"android": "https://dc.lft.to/lastmile_qr_scan", "ios": "https://dc.lft.to/lastmile_qr_scan"}, "bike_id": "e0316d75a824112c59cedbca2561db44", "is_reserved": 0}, {"lat": 38.924855666666666, "fusion_lon": 0.0, "lon": -77.02134966666667, "is_disabled": 0, "type": "electric_scooter", "name": "3e56c9b76ba469d365ccc7ea4e462886", "fusion_lat": 0.0, "rental_uris": {"android": "https://dc.lft.to/lastmile_qr_scan", "ios": "https://dc.lft.to/lastmile_qr_scan"}, "bike_id": "3e56c9b76ba469d365ccc7ea4e462886", "is_reserved": 0}, {"lat": 38.9622595, "fusion_lon": 0.0, "lon": -77.02628516666667, "is_disabled": 0, "type": "electric_bike", "name": "43c804be18e677f52f2f0754c298b29a", "fusion_lat": 0.0, "rental_uris": {"android": "https://dc.lft.to/lastmile_qr_scan", "ios": "https://dc.lft.to/lastmile_qr_scan"}, "bike_id": "43c804be18e677f52f2f0754c298b29a", "is_reserved": 0}, {"lat": 38.9370845, "fusion_lon": 0.0, "lon": -77.0610195, "is_disabled": 0, "type": "electric_scooter", "name": "3929732fa0809e4f169fc772067979f8", "fusion_lat": 0.0, "rental_uris": {"android": "https://dc.lft.to/lastmile_qr_scan", "ios": "https://dc.lft.to/lastmile_qr_scan"}, "bike_id": "3929732fa0809e4f169fc772067979f8", "is_reserved": 0}, {"lat": 38.8669305, "fusion_lon": 0.0, "lon": -76.98607933333334, "is_disabled": 0, "type": "electric_scooter", "name": "0f99bc4c0b6365924f48b8277b7ed416", "fusion_lat": 0.0, "rental_uris": {"android": "https://dc.lft.to/lastmile_qr_scan", "ios": "https://dc.lft.to/lastmile_qr_scan"}, "bike_id": "0f99bc4c0b6365924f48b8277b7ed416", "is_reserved": 0}, {"lat": 38.927375166666664, "fusion_lon": 0.0, "lon": -77.03246266666666, "is_disabled": 0, "type": "electric_scooter", "name": "cc9079d2400799d10dfcc2e00b69cb82", "fusion_lat": 0.0, "rental_uris": {"android": "https://dc.lft.to/lastmile_qr_scan", "ios": "https://dc.lft.to/lastmile_qr_scan"}, "bike_id": "cc9079d2400799d10dfcc2e00b69cb82", "is_reserved": 0}, {"lat": 38.92752633333333, "fusion_lon": 0.0, "lon": -77.02533066666666, "is_disabled": 0, "type": "electric_scooter", "name": "10815067c749f84fc757dabad6f51ca6", "fusion_lat": 0.0, "rental_uris": {"android": "https://dc.lft.to/lastmile_qr_scan", "ios": "https://dc.lft.to/lastmile_qr_scan"}, "bike_id": "10815067c749f84fc757dabad6f51ca6", "is_reserved": 0}, {"lat": 38.90019, "fusion_lon": 0.0, "lon": -76.98696366666667, "is_disabled": 0, "type": "electric_scooter", "name": "cdad2e1b4d0b6288bffb08d0c658e735", "fusion_lat": 0.0, "rental_uris": {"android": "https://dc.lft.to/lastmile_qr_scan", "ios": "https://dc.lft.to/lastmile_qr_scan"}, "bike_id": "cdad2e1b4d0b6288bffb08d0c658e735", "is_reserved": 0}, {"lat": 38.8883075, "fusion_lon": 0.0, "lon": -76.99365366666666, "is_disabled": 0, "type": "electric_scooter", "name": "e920e2ddb17450e6e5a804215c94b0dd", "fusion_lat": 0.0, "rental_uris": {"android": "https://dc.lft.to/lastmile_qr_scan", "ios": "https://dc.lft.to/lastmile_qr_scan"}, "bike_id": "e920e2ddb17450e6e5a804215c94b0dd", "is_reserved": 0}, {"lat": 38.916289666666664, "fusion_lon": 0.0, "lon": -77.03200933333333, "is_disabled": 0, "type": "electric_scooter", "name": "520b93f8224306f3d76aa6af53e35fdc", "fusion_lat": 0.0, "rental_uris": {"android": "https://dc.lft.to/lastmile_qr_scan", "ios": "https://dc.lft.to/lastmile_qr_scan"}, "bike_id": "520b93f8224306f3d76aa6af53e35fdc", "is_reserved": 0}, {"lat": 38.92814083333333, "fusion_lon": 0.0, "lon": -77.05446516666666, "is_disabled": 0, "type": "electric_scooter", "name": "e25d318996322ef47bcd61f5a5149cd1", "fusion_lat": 0.0, "rental_uris": {"android": "https://dc.lft.to/lastmile_qr_scan", "ios": "https://dc.lft.to/lastmile_qr_scan"}, "bike_id": "e25d318996322ef47bcd61f5a5149cd1", "is_reserved": 0}, {"lat": 38.94987533333333, "fusion_lon": 0.0, "lon": -77.02703733333334, "is_disabled": 0, "type": "electric_scooter", "name": "2f3e3eba042cb2b8afd0b490cfeaaff1", "fusion_lat": 0.0, "rental_uris": {"android": "https://dc.lft.to/lastmile_qr_scan", "ios": "https://dc.lft.to/lastmile_qr_scan"}, "bike_id": "2f3e3eba042cb2b8afd0b490cfeaaff1", "is_reserved": 0}, {"lat": 38.97520466666667, "fusion_lon": 0.0, "lon": -77.017415, "is_disabled": 0, "type": "electric_scooter", "name": "21663029a15f51caf5c6aac6d7270504", "fusion_lat": 0.0, "rental_uris": {"android": "https://dc.lft.to/lastmile_qr_scan", "ios": "https://dc.lft.to/lastmile_qr_scan"}, "bike_id": "21663029a15f51caf5c6aac6d7270504", "is_reserved": 0}, {"lat": 38.86662616666667, "fusion_lon": 0.0, "lon": -76.98510216666666, "is_disabled": 0, "type": "electric_scooter", "name": "4c0a73738ad59ea0c7070a2ccf5a6f33", "fusion_lat": 0.0, "rental_uris": {"android": "https://dc.lft.to/lastmile_qr_scan", "ios": "https://dc.lft.to/lastmile_qr_scan"}, "bike_id": "4c0a73738ad59ea0c7070a2ccf5a6f33", "is_reserved": 0}, {"lat": 38.90037433333333, "fusion_lon": 0.0, "lon": -76.98062366666667, "is_disabled": 0, "type": "electric_scooter", "name": "6130a3ba764154f33444afcf11788650", "fusion_lat": 0.0, "rental_uris": {"android": "https://dc.lft.to/lastmile_qr_scan", "ios": "https://dc.lft.to/lastmile_qr_scan"}, "bike_id": "6130a3ba764154f33444afcf11788650", "is_reserved": 0}, {"lat": 38.92095883333333, "fusion_lon": 0.0, "lon": -77.02314233333334, "is_disabled": 0, "type": "electric_scooter", "name": "2f395eb93a6f9c8da25fa713a911ff81", "fusion_lat": 0.0, "rental_uris": {"android": "https://dc.lft.to/lastmile_qr_scan", "ios": "https://dc.lft.to/lastmile_qr_scan"}, "bike_id": "2f395eb93a6f9c8da25fa713a911ff81", "is_reserved": 0}, {"lat": 38.941808333333334, "fusion_lon": 0.0, "lon": -77.025554, "is_disabled": 0, "type": "electric_scooter", "name": "2130f95626dc8eaf8bb30af084ff97c1", "fusion_lat": 0.0, "rental_uris": {"android": "https://dc.lft.to/lastmile_qr_scan", "ios": "https://dc.lft.to/lastmile_qr_scan"}, "bike_id": "2130f95626dc8eaf8bb30af084ff97c1", "is_reserved": 0}, {"lat": 38.894292666666665, "fusion_lon": 0.0, "lon": -77.0240515, "is_disabled": 0, "type": "electric_scooter", "name": "4cca23c13722b0d67372252ff933f94e", "fusion_lat": 0.0, "rental_uris": {"android": "https://dc.lft.to/lastmile_qr_scan", "ios": "https://dc.lft.to/lastmile_qr_scan"}, "bike_id": "4cca23c13722b0d67372252ff933f94e", "is_reserved": 0}, {"lat": 38.87338883333334, "fusion_lon": 0.0, "lon": -77.10620333333334, "is_disabled": 0, "type": "electric_bike", "name": "3fd6f18bca577bc07a60a275b7afdd0b", "fusion_lat": 0.0, "rental_uris": {"android": "https://dc.lft.to/lastmile_qr_scan", "ios": "https://dc.lft.to/lastmile_qr_scan"}, "bike_id": "3fd6f18bca577bc07a60a275b7afdd0b", "is_reserved": 0}, {"lat": 38.878752, "fusion_lon": 0.0, "lon": -76.99019, "is_disabled": 0, "type": "electric_bike", "name": "a6f21f3bed2c1aa146913e1a9b4febed", "fusion_lat": 0.0, "rental_uris": {"android": "https://dc.lft.to/lastmile_qr_scan", "ios": "https://dc.lft.to/lastmile_qr_scan"}, "bike_id": "a6f21f3bed2c1aa146913e1a9b4febed", "is_reserved": 0}, {"lat": 38.89361533333334, "fusion_lon": 0.0, "lon": -77.003319, "is_disabled": 0, "type": "electric_scooter", "name": "761fbbb91942634beac8b4c52c117250", "fusion_lat": 0.0, "rental_uris": {"android": "https://dc.lft.to/lastmile_qr_scan", "ios": "https://dc.lft.to/lastmile_qr_scan"}, "bike_id": "761fbbb91942634beac8b4c52c117250", "is_reserved": 0}, {"lat": 38.91882616666667, "fusion_lon": 0.0, "lon": -77.029521, "is_disabled": 0, "type": "electric_scooter", "name": "2d01cce1605c28ec8417b262922e4f92", "fusion_lat": 0.0, "rental_uris": {"android": "https://dc.lft.to/lastmile_qr_scan", "ios": "https://dc.lft.to/lastmile_qr_scan"}, "bike_id": "2d01cce1605c28ec8417b262922e4f92", "is_reserved": 0}, {"lat": 38.967151, "fusion_lon": 0.0, "lon": -77.01866933333334, "is_disabled": 0, "type": "electric_scooter", "name": "283306b9e592ce5b9d335415d6e9503e", "fusion_lat": 0.0, "rental_uris": {"android": "https://dc.lft.to/lastmile_qr_scan", "ios": "https://dc.lft.to/lastmile_qr_scan"}, "bike_id": "283306b9e592ce5b9d335415d6e9503e", "is_reserved": 0}, {"lat": 38.89249783333333, "fusion_lon": 0.0, "lon": -77.01722283333334, "is_disabled": 0, "type": "electric_scooter", "name": "a04b2173c99fdf6484f9b90c1f65152e", "fusion_lat": 0.0, "rental_uris": {"android": "https://dc.lft.to/lastmile_qr_scan", "ios": "https://dc.lft.to/lastmile_qr_scan"}, "bike_id": "a04b2173c99fdf6484f9b90c1f65152e", "is_reserved": 0}, {"lat": 38.906509, "fusion_lon": 0.0, "lon": -77.04814033333334, "is_disabled": 0, "type": "electric_scooter", "name": "eefe72bb0d7e298f93a458f17a998e6c", "fusion_lat": 0.0, "rental_uris": {"android": "https://dc.lft.to/lastmile_qr_scan", "ios": "https://dc.lft.to/lastmile_qr_scan"}, "bike_id": "eefe72bb0d7e298f93a458f17a998e6c", "is_reserved": 0}, {"lat": 38.934363166666664, "fusion_lon": 0.0, "lon": -76.998813, "is_disabled": 0, "type": "electric_scooter", "name": "f5d05272833af1165adb2da667ae1a19", "fusion_lat": 0.0, "rental_uris": {"android": "https://dc.lft.to/lastmile_qr_scan", "ios": "https://dc.lft.to/lastmile_qr_scan"}, "bike_id": "f5d05272833af1165adb2da667ae1a19", "is_reserved": 0}, {"lat": 38.900685333333335, "fusion_lon": 0.0, "lon": -77.0489645, "is_disabled": 0, "type": "electric_scooter", "name": "c637dbcb70c1863a409f6a5066c4eb09", "fusion_lat": 0.0, "rental_uris": {"android": "https://dc.lft.to/lastmile_qr_scan", "ios": "https://dc.lft.to/lastmile_qr_scan"}, "bike_id": "c637dbcb70c1863a409f6a5066c4eb09", "is_reserved": 0}, {"lat": 38.90719933333333, "fusion_lon": 0.0, "lon": -77.0513, "is_disabled": 0, "type": "electric_bike", "name": "60068ff9db77d5989f91fae7d4900a00", "fusion_lat": 0.0, "rental_uris": {"android": "https://dc.lft.to/lastmile_qr_scan", "ios": "https://dc.lft.to/lastmile_qr_scan"}, "bike_id": "60068ff9db77d5989f91fae7d4900a00", "is_reserved": 0}, {"lat": 38.920978833333336, "fusion_lon": 0.0, "lon": -77.04377733333334, "is_disabled": 0, "type": "electric_scooter", "name": "e75fe39ff5f288de52357ea7c1e7ec22", "fusion_lat": 0.0, "rental_uris": {"android": "https://dc.lft.to/lastmile_qr_scan", "ios": "https://dc.lft.to/lastmile_qr_scan"}, "bike_id": "e75fe39ff5f288de52357ea7c1e7ec22", "is_reserved": 0}, {"lat": 38.915389166666664, "fusion_lon": 0.0, "lon": -77.03211016666667, "is_disabled": 0, "type": "electric_scooter", "name": "204555855ab4821ce786295bca3984bf", "fusion_lat": 0.0, "rental_uris": {"android": "https://dc.lft.to/lastmile_qr_scan", "ios": "https://dc.lft.to/lastmile_qr_scan"}, "bike_id": "204555855ab4821ce786295bca3984bf", "is_reserved": 0}, {"lat": 38.950891666666664, "fusion_lon": 0.0, "lon": -77.02316833333333, "is_disabled": 0, "type": "electric_scooter", "name": "f559ad2ead8051bdf90eb94dd645caba", "fusion_lat": 0.0, "rental_uris": {"android": "https://dc.lft.to/lastmile_qr_scan", "ios": "https://dc.lft.to/lastmile_qr_scan"}, "bike_id": "f559ad2ead8051bdf90eb94dd645caba", "is_reserved": 0}, {"lat": 38.911325166666664, "fusion_lon": 0.0, "lon": -77.03670716666667, "is_disabled": 0, "type": "electric_scooter", "name": "3c10abcf3547553e0fc450c44a2865dc", "fusion_lat": 0.0, "rental_uris": {"android": "https://dc.lft.to/lastmile_qr_scan", "ios": "https://dc.lft.to/lastmile_qr_scan"}, "bike_id": "3c10abcf3547553e0fc450c44a2865dc", "is_reserved": 0}, {"lat": 38.89220533333334, "fusion_lon": 0.0, "lon": -77.0262605, "is_disabled": 0, "type": "electric_scooter", "name": "21d249253236bb59e3045a7f67353e4e", "fusion_lat": 0.0, "rental_uris": {"android": "https://dc.lft.to/lastmile_qr_scan", "ios": "https://dc.lft.to/lastmile_qr_scan"}, "bike_id": "21d249253236bb59e3045a7f67353e4e", "is_reserved": 0}, {"lat": 38.862359833333336, "fusion_lon": 0.0, "lon": -76.99487533333334, "is_disabled": 0, "type": "electric_scooter", "name": "5d5d4ff818a3b308401b028e6a3e3a7b", "fusion_lat": 0.0, "rental_uris": {"android": "https://dc.lft.to/lastmile_qr_scan", "ios": "https://dc.lft.to/lastmile_qr_scan"}, "bike_id": "5d5d4ff818a3b308401b028e6a3e3a7b", "is_reserved": 0}, {"lat": 38.918521, "fusion_lon": 0.0, "lon": -77.01670916666667, "is_disabled": 0, "type": "electric_scooter", "name": "5bd829ad58a3544d67e3bbff31e94a58", "fusion_lat": 0.0, "rental_uris": {"android": "https://dc.lft.to/lastmile_qr_scan", "ios": "https://dc.lft.to/lastmile_qr_scan"}, "bike_id": "5bd829ad58a3544d67e3bbff31e94a58", "is_reserved": 0}, {"lat": 38.9245335, "fusion_lon": 0.0, "lon": -77.0410265, "is_disabled": 0, "type": "electric_scooter", "name": "bc0279754a24347ec30b60f0e8e9c676", "fusion_lat": 0.0, "rental_uris": {"android": "https://dc.lft.to/lastmile_qr_scan", "ios": "https://dc.lft.to/lastmile_qr_scan"}, "bike_id": "bc0279754a24347ec30b60f0e8e9c676", "is_reserved": 0}, {"lat": 38.9043795, "fusion_lon": 0.0, "lon": -77.0532565, "is_disabled": 0, "type": "electric_scooter", "name": "ff36f6eb84b5b47bfcfffcce888e0721", "fusion_lat": 0.0, "rental_uris": {"android": "https://dc.lft.to/lastmile_qr_scan", "ios": "https://dc.lft.to/lastmile_qr_scan"}, "bike_id": "ff36f6eb84b5b47bfcfffcce888e0721", "is_reserved": 0}, {"lat": 38.907019, "fusion_lon": 0.0, "lon": -77.0016765, "is_disabled": 0, "type": "electric_scooter", "name": "88dccd0072425a2220bd41267775f8f9", "fusion_lat": 0.0, "rental_uris": {"android": "https://dc.lft.to/lastmile_qr_scan", "ios": "https://dc.lft.to/lastmile_qr_scan"}, "bike_id": "88dccd0072425a2220bd41267775f8f9", "is_reserved": 0}, {"lat": 38.905778, "fusion_lon": 0.0, "lon": -77.03739933333334, "is_disabled": 0, "type": "electric_scooter", "name": "6c75c44d3a20662d026b49ae0bbd52ea", "fusion_lat": 0.0, "rental_uris": {"android": "https://dc.lft.to/lastmile_qr_scan", "ios": "https://dc.lft.to/lastmile_qr_scan"}, "bike_id": "6c75c44d3a20662d026b49ae0bbd52ea", "is_reserved": 0}, {"lat": 38.9050325, "fusion_lon": 0.0, "lon": -77.03442066666666, "is_disabled": 0, "type": "electric_scooter", "name": "8d6fd7f6a59ee04103bb70809349499d", "fusion_lat": 0.0, "rental_uris": {"android": "https://dc.lft.to/lastmile_qr_scan", "ios": "https://dc.lft.to/lastmile_qr_scan"}, "bike_id": "8d6fd7f6a59ee04103bb70809349499d", "is_reserved": 0}, {"lat": 38.94229766666667, "fusion_lon": 0.0, "lon": -76.96621733333333, "is_disabled": 0, "type": "electric_bike", "name": "9d60b640cf070519c1961166f0dd18a5", "fusion_lat": 0.0, "rental_uris": {"android": "https://dc.lft.to/lastmile_qr_scan", "ios": "https://dc.lft.to/lastmile_qr_scan"}, "bike_id": "9d60b640cf070519c1961166f0dd18a5", "is_reserved": 0}, {"lat": 38.880103, "fusion_lon": 0.0, "lon": -77.02483716666667, "is_disabled": 0, "type": "electric_scooter", "name": "989798b7a8673f0df5169dc88db7a270", "fusion_lat": 0.0, "rental_uris": {"android": "https://dc.lft.to/lastmile_qr_scan", "ios": "https://dc.lft.to/lastmile_qr_scan"}, "bike_id": "989798b7a8673f0df5169dc88db7a270", "is_reserved": 0}, {"lat": 38.90366316666667, "fusion_lon": 0.0, "lon": -77.044916, "is_disabled": 0, "type": "electric_scooter", "name": "80ae3638af24685ad006e2c3ba7a1708", "fusion_lat": 0.0, "rental_uris": {"android": "https://dc.lft.to/lastmile_qr_scan", "ios": "https://dc.lft.to/lastmile_qr_scan"}, "bike_id": "80ae3638af24685ad006e2c3ba7a1708", "is_reserved": 0}, {"lat": 38.8727855, "fusion_lon": 0.0, "lon": -77.23319766666667, "is_disabled": 0, "type": "electric_bike", "name": "94cfe080a37bdc3cbc71a3f9f70fcb9b", "fusion_lat": 0.0, "rental_uris": {"android": "https://dc.lft.to/lastmile_qr_scan", "ios": "https://dc.lft.to/lastmile_qr_scan"}, "bike_id": "94cfe080a37bdc3cbc71a3f9f70fcb9b", "is_reserved": 0}, {"lat": 38.867005, "fusion_lon": 0.0, "lon": -76.985914, "is_disabled": 0, "type": "electric_scooter", "name": "5fc252e81f82867bf72a003c24cb1790", "fusion_lat": 0.0, "rental_uris": {"android": "https://dc.lft.to/lastmile_qr_scan", "ios": "https://dc.lft.to/lastmile_qr_scan"}, "bike_id": "5fc252e81f82867bf72a003c24cb1790", "is_reserved": 0}, {"lat": 38.8653895, "fusion_lon": 0.0, "lon": -76.9870685, "is_disabled": 0, "type": "electric_scooter", "name": "bf22856491ca9548b70c2d4400fa4758", "fusion_lat": 0.0, "rental_uris": {"android": "https://dc.lft.to/lastmile_qr_scan", "ios": "https://dc.lft.to/lastmile_qr_scan"}, "bike_id": "bf22856491ca9548b70c2d4400fa4758", "is_reserved": 0}, {"lat": 38.910212, "fusion_lon": 0.0, "lon": -77.228001, "is_disabled": 0, "type": "electric_bike", "name": "8cbbc04c63a16b7c9cc1ee06361e8ab6", "fusion_lat": 0.0, "rental_uris": {"android": "https://dc.lft.to/lastmile_qr_scan", "ios": "https://dc.lft.to/lastmile_qr_scan"}, "bike_id": "8cbbc04c63a16b7c9cc1ee06361e8ab6", "is_reserved": 0}, {"lat": 38.90257033333334, "fusion_lon": 0.0, "lon": -77.01694983333333, "is_disabled": 0, "type": "electric_scooter", "name": "594eca21c81a8ad80000f0fccb3c67c9", "fusion_lat": 0.0, "rental_uris": {"android": "https://dc.lft.to/lastmile_qr_scan", "ios": "https://dc.lft.to/lastmile_qr_scan"}, "bike_id": "594eca21c81a8ad80000f0fccb3c67c9", "is_reserved": 0}, {"lat": 38.96142433333333, "fusion_lon": 0.0, "lon": -77.02293983333334, "is_disabled": 0, "type": "electric_bike", "name": "d0eb20fe9bafcb4de5f1d991b1e6ad54", "fusion_lat": 0.0, "rental_uris": {"android": "https://dc.lft.to/lastmile_qr_scan", "ios": "https://dc.lft.to/lastmile_qr_scan"}, "bike_id": "d0eb20fe9bafcb4de5f1d991b1e6ad54", "is_reserved": 0}, {"lat": 38.94207083333333, "fusion_lon": 0.0, "lon": -77.025181, "is_disabled": 0, "type": "electric_scooter", "name": "b53e9a9a3aac4242d1ab7441822eb4d6", "fusion_lat": 0.0, "rental_uris": {"android": "https://dc.lft.to/lastmile_qr_scan", "ios": "https://dc.lft.to/lastmile_qr_scan"}, "bike_id": "b53e9a9a3aac4242d1ab7441822eb4d6", "is_reserved": 0}, {"lat": 38.82909333333333, "fusion_lon": 0.0, "lon": -76.99783133333334, "is_disabled": 0, "type": "electric_bike", "name": "508d4469c75f18c0527a1558de2dd0b0", "fusion_lat": 0.0, "rental_uris": {"android": "https://dc.lft.to/lastmile_qr_scan", "ios": "https://dc.lft.to/lastmile_qr_scan"}, "bike_id": "508d4469c75f18c0527a1558de2dd0b0", "is_reserved": 0}, {"lat": 38.903984666666666, "fusion_lon": 0.0, "lon": -77.06299366666667, "is_disabled": 0, "type": "electric_scooter", "name": "1f2b50e929cfcc7da7dc0adc8ed35513", "fusion_lat": 0.0, "rental_uris": {"android": "https://dc.lft.to/lastmile_qr_scan", "ios": "https://dc.lft.to/lastmile_qr_scan"}, "bike_id": "1f2b50e929cfcc7da7dc0adc8ed35513", "is_reserved": 0}, {"lat": 38.91111383333333, "fusion_lon": 0.0, "lon": -77.02174533333333, "is_disabled": 0, "type": "electric_scooter", "name": "079a3f18ce25c64e695192aa5680a1f1", "fusion_lat": 0.0, "rental_uris": {"android": "https://dc.lft.to/lastmile_qr_scan", "ios": "https://dc.lft.to/lastmile_qr_scan"}, "bike_id": "079a3f18ce25c64e695192aa5680a1f1", "is_reserved": 0}, {"lat": 38.89371583333333, "fusion_lon": 0.0, "lon": -76.949977, "is_disabled": 0, "type": "electric_scooter", "name": "3f7f9f4c7749c6066c87f7181c75ccb8", "fusion_lat": 0.0, "rental_uris": {"android": "https://dc.lft.to/lastmile_qr_scan", "ios": "https://dc.lft.to/lastmile_qr_scan"}, "bike_id": "3f7f9f4c7749c6066c87f7181c75ccb8", "is_reserved": 0}, {"lat": 38.899301666666666, "fusion_lon": 0.0, "lon": -77.03221616666667, "is_disabled": 0, "type": "electric_scooter", "name": "78fb6d8a223a1ddf3ae5b8091354dc67", "fusion_lat": 0.0, "rental_uris": {"android": "https://dc.lft.to/lastmile_qr_scan", "ios": "https://dc.lft.to/lastmile_qr_scan"}, "bike_id": "78fb6d8a223a1ddf3ae5b8091354dc67", "is_reserved": 0}, {"lat": 38.89952266666667, "fusion_lon": 0.0, "lon": -77.045141, "is_disabled": 0, "type": "electric_scooter", "name": "b9c44c8dd297c9d89f13d14c9489c3b2", "fusion_lat": 0.0, "rental_uris": {"android": "https://dc.lft.to/lastmile_qr_scan", "ios": "https://dc.lft.to/lastmile_qr_scan"}, "bike_id": "b9c44c8dd297c9d89f13d14c9489c3b2", "is_reserved": 0}, {"lat": 38.9342915, "fusion_lon": 0.0, "lon": -77.02844466666667, "is_disabled": 0, "type": "electric_scooter", "name": "2cdfaa5e9ac7e5ca97d3f4292653b3bd", "fusion_lat": 0.0, "rental_uris": {"android": "https://dc.lft.to/lastmile_qr_scan", "ios": "https://dc.lft.to/lastmile_qr_scan"}, "bike_id": "2cdfaa5e9ac7e5ca97d3f4292653b3bd", "is_reserved": 0}, {"lat": 38.921154666666666, "fusion_lon": 0.0, "lon": -77.02026133333334, "is_disabled": 0, "type": "electric_scooter", "name": "e8734cc87b535d5e2473e152a6f9e435", "fusion_lat": 0.0, "rental_uris": {"android": "https://dc.lft.to/lastmile_qr_scan", "ios": "https://dc.lft.to/lastmile_qr_scan"}, "bike_id": "e8734cc87b535d5e2473e152a6f9e435", "is_reserved": 0}, {"lat": 38.90404266666667, "fusion_lon": 0.0, "lon": -77.043421, "is_disabled": 0, "type": "electric_scooter", "name": "f2d8b2c7a40bf9b5b1c1d54777a65edb", "fusion_lat": 0.0, "rental_uris": {"android": "https://dc.lft.to/lastmile_qr_scan", "ios": "https://dc.lft.to/lastmile_qr_scan"}, "bike_id": "f2d8b2c7a40bf9b5b1c1d54777a65edb", "is_reserved": 0}, {"lat": 38.90313066666667, "fusion_lon": 0.0, "lon": -77.03172133333334, "is_disabled": 0, "type": "electric_scooter", "name": "2418deacebe9f96dbc8d6d839245ec45", "fusion_lat": 0.0, "rental_uris": {"android": "https://dc.lft.to/lastmile_qr_scan", "ios": "https://dc.lft.to/lastmile_qr_scan"}, "bike_id": "2418deacebe9f96dbc8d6d839245ec45", "is_reserved": 0}, {"lat": 38.93421216666667, "fusion_lon": 0.0, "lon": -77.0441015, "is_disabled": 0, "type": "electric_scooter", "name": "41992f30f1fce6b99718d78a455fb3d3", "fusion_lat": 0.0, "rental_uris": {"android": "https://dc.lft.to/lastmile_qr_scan", "ios": "https://dc.lft.to/lastmile_qr_scan"}, "bike_id": "41992f30f1fce6b99718d78a455fb3d3", "is_reserved": 0}, {"lat": 38.90516316666667, "fusion_lon": 0.0, "lon": -77.05330516666666, "is_disabled": 0, "type": "electric_scooter", "name": "5d86ac770820e5a02d8d950b1542d16a", "fusion_lat": 0.0, "rental_uris": {"android": "https://dc.lft.to/lastmile_qr_scan", "ios": "https://dc.lft.to/lastmile_qr_scan"}, "bike_id": "5d86ac770820e5a02d8d950b1542d16a", "is_reserved": 0}, {"lat": 38.90008683333333, "fusion_lon": 0.0, "lon": -77.04390083333334, "is_disabled": 0, "type": "electric_scooter", "name": "326e522c8879d1dd5ca6a2d57f92af4f", "fusion_lat": 0.0, "rental_uris": {"android": "https://dc.lft.to/lastmile_qr_scan", "ios": "https://dc.lft.to/lastmile_qr_scan"}, "bike_id": "326e522c8879d1dd5ca6a2d57f92af4f", "is_reserved": 0}, {"lat": 38.89938583333333, "fusion_lon": 0.0, "lon": -77.04136716666666, "is_disabled": 0, "type": "electric_scooter", "name": "24e4a5b51126c2f53cadb4441f65fca2", "fusion_lat": 0.0, "rental_uris": {"android": "https://dc.lft.to/lastmile_qr_scan", "ios": "https://dc.lft.to/lastmile_qr_scan"}, "bike_id": "24e4a5b51126c2f53cadb4441f65fca2", "is_reserved": 0}, {"lat": 38.9163735, "fusion_lon": 0.0, "lon": -77.03205133333333, "is_disabled": 0, "type": "electric_scooter", "name": "5a3242141578412b27521f84f53e4633", "fusion_lat": 0.0, "rental_uris": {"android": "https://dc.lft.to/lastmile_qr_scan", "ios": "https://dc.lft.to/lastmile_qr_scan"}, "bike_id": "5a3242141578412b27521f84f53e4633", "is_reserved": 0}, {"lat": 38.922746333333336, "fusion_lon": 0.0, "lon": -77.03220966666666, "is_disabled": 0, "type": "electric_scooter", "name": "1f9795d5b1d89e931a8f6680c1ce5781", "fusion_lat": 0.0, "rental_uris": {"android": "https://dc.lft.to/lastmile_qr_scan", "ios": "https://dc.lft.to/lastmile_qr_scan"}, "bike_id": "1f9795d5b1d89e931a8f6680c1ce5781", "is_reserved": 0}, {"lat": 38.92749516666667, "fusion_lon": 0.0, "lon": -77.02148183333334, "is_disabled": 0, "type": "electric_scooter", "name": "5f76ee82834e7b124bdea0072ca1db18", "fusion_lat": 0.0, "rental_uris": {"android": "https://dc.lft.to/lastmile_qr_scan", "ios": "https://dc.lft.to/lastmile_qr_scan"}, "bike_id": "5f76ee82834e7b124bdea0072ca1db18", "is_reserved": 0}, {"lat": 38.926121, "fusion_lon": 0.0, "lon": -77.02165, "is_disabled": 0, "type": "electric_scooter", "name": "cc40582fbae3c8987b3d681ac90182f6", "fusion_lat": 0.0, "rental_uris": {"android": "https://dc.lft.to/lastmile_qr_scan", "ios": "https://dc.lft.to/lastmile_qr_scan"}, "bike_id": "cc40582fbae3c8987b3d681ac90182f6", "is_reserved": 0}, {"lat": 38.90059083333333, "fusion_lon": 0.0, "lon": -77.03946733333333, "is_disabled": 0, "type": "electric_scooter", "name": "eb4b9c0183377e1a2ef85641fd886c7d", "fusion_lat": 0.0, "rental_uris": {"android": "https://dc.lft.to/lastmile_qr_scan", "ios": "https://dc.lft.to/lastmile_qr_scan"}, "bike_id": "eb4b9c0183377e1a2ef85641fd886c7d", "is_reserved": 0}, {"lat": 38.9182275, "fusion_lon": 0.0, "lon": -77.03456633333333, "is_disabled": 0, "type": "electric_scooter", "name": "d010850d31222bd35e444adbda8e0adb", "fusion_lat": 0.0, "rental_uris": {"android": "https://dc.lft.to/lastmile_qr_scan", "ios": "https://dc.lft.to/lastmile_qr_scan"}, "bike_id": "d010850d31222bd35e444adbda8e0adb", "is_reserved": 0}, {"lat": 38.9269845, "fusion_lon": 0.0, "lon": -77.01487266666666, "is_disabled": 0, "type": "electric_scooter", "name": "fccd30a10b7de6637555cff0a1427e6a", "fusion_lat": 0.0, "rental_uris": {"android": "https://dc.lft.to/lastmile_qr_scan", "ios": "https://dc.lft.to/lastmile_qr_scan"}, "bike_id": "fccd30a10b7de6637555cff0a1427e6a", "is_reserved": 0}, {"lat": 38.92086116666667, "fusion_lon": 0.0, "lon": -77.02319166666666, "is_disabled": 0, "type": "electric_scooter", "name": "d89422606dae867f6e86a2bac19d0a3c", "fusion_lat": 0.0, "rental_uris": {"android": "https://dc.lft.to/lastmile_qr_scan", "ios": "https://dc.lft.to/lastmile_qr_scan"}, "bike_id": "d89422606dae867f6e86a2bac19d0a3c", "is_reserved": 0}, {"lat": 38.9233765, "fusion_lon": 0.0, "lon": -77.01898616666666, "is_disabled": 0, "type": "electric_scooter", "name": "72cc01f625574a76c411a98b9ddba92e", "fusion_lat": 0.0, "rental_uris": {"android": "https://dc.lft.to/lastmile_qr_scan", "ios": "https://dc.lft.to/lastmile_qr_scan"}, "bike_id": "72cc01f625574a76c411a98b9ddba92e", "is_reserved": 0}, {"lat": 38.91068083333333, "fusion_lon": 0.0, "lon": -77.05314916666667, "is_disabled": 0, "type": "electric_scooter", "name": "e73e9642088098bea7e78b0c43b20e39", "fusion_lat": 0.0, "rental_uris": {"android": "https://dc.lft.to/lastmile_qr_scan", "ios": "https://dc.lft.to/lastmile_qr_scan"}, "bike_id": "e73e9642088098bea7e78b0c43b20e39", "is_reserved": 0}, {"lat": 38.8812285, "fusion_lon": 0.0, "lon": -76.99011283333333, "is_disabled": 0, "type": "electric_scooter", "name": "d29acde0f0d67b53955d27267677ce8c", "fusion_lat": 0.0, "rental_uris": {"android": "https://dc.lft.to/lastmile_qr_scan", "ios": "https://dc.lft.to/lastmile_qr_scan"}, "bike_id": "d29acde0f0d67b53955d27267677ce8c", "is_reserved": 0}, {"lat": 38.933451, "fusion_lon": 0.0, "lon": -76.9950805, "is_disabled": 0, "type": "electric_scooter", "name": "4708aa4b3e8e8816e9a6959a672e99fb", "fusion_lat": 0.0, "rental_uris": {"android": "https://dc.lft.to/lastmile_qr_scan", "ios": "https://dc.lft.to/lastmile_qr_scan"}, "bike_id": "4708aa4b3e8e8816e9a6959a672e99fb", "is_reserved": 0}, {"lat": 38.9370135, "fusion_lon": 0.0, "lon": -77.02401716666667, "is_disabled": 0, "type": "electric_scooter", "name": "56a280fa438e6413306fbd2c03b2384d", "fusion_lat": 0.0, "rental_uris": {"android": "https://dc.lft.to/lastmile_qr_scan", "ios": "https://dc.lft.to/lastmile_qr_scan"}, "bike_id": "56a280fa438e6413306fbd2c03b2384d", "is_reserved": 0}, {"lat": 38.920476666666666, "fusion_lon": 0.0, "lon": -76.9894915, "is_disabled": 0, "type": "electric_scooter", "name": "5cfb9941e69f26ede92f5f817da8542b", "fusion_lat": 0.0, "rental_uris": {"android": "https://dc.lft.to/lastmile_qr_scan", "ios": "https://dc.lft.to/lastmile_qr_scan"}, "bike_id": "5cfb9941e69f26ede92f5f817da8542b", "is_reserved": 0}, {"lat": 38.9087375, "fusion_lon": 0.0, "lon": -77.07150016666667, "is_disabled": 0, "type": "electric_scooter", "name": "f4a28f5a26df18189536839de8e2a1af", "fusion_lat": 0.0, "rental_uris": {"android": "https://dc.lft.to/lastmile_qr_scan", "ios": "https://dc.lft.to/lastmile_qr_scan"}, "bike_id": "f4a28f5a26df18189536839de8e2a1af", "is_reserved": 0}, {"lat": 38.829455333333335, "fusion_lon": 0.0, "lon": -77.1235965, "is_disabled": 0, "type": "electric_bike", "name": "b7a3419b3c2f2a0932467952ebba4734", "fusion_lat": 0.0, "rental_uris": {"android": "https://dc.lft.to/lastmile_qr_scan", "ios": "https://dc.lft.to/lastmile_qr_scan"}, "bike_id": "b7a3419b3c2f2a0932467952ebba4734", "is_reserved": 0}, {"lat": 38.913241166666666, "fusion_lon": 0.0, "lon": -77.0150975, "is_disabled": 0, "type": "electric_scooter", "name": "92715ff07d533d71163f0ab492561042", "fusion_lat": 0.0, "rental_uris": {"android": "https://dc.lft.to/lastmile_qr_scan", "ios": "https://dc.lft.to/lastmile_qr_scan"}, "bike_id": "92715ff07d533d71163f0ab492561042", "is_reserved": 0}, {"lat": 38.90587133333333, "fusion_lon": 0.0, "lon": -77.05147883333333, "is_disabled": 0, "type": "electric_scooter", "name": "d9c7833e54d4e964b6882b2815b16098", "fusion_lat": 0.0, "rental_uris": {"android": "https://dc.lft.to/lastmile_qr_scan", "ios": "https://dc.lft.to/lastmile_qr_scan"}, "bike_id": "d9c7833e54d4e964b6882b2815b16098", "is_reserved": 0}, {"lat": 38.913846166666666, "fusion_lon": 0.0, "lon": -77.0893145, "is_disabled": 0, "type": "electric_bike", "name": "f0d5cbab38af107bb57eee4e18f40018", "fusion_lat": 0.0, "rental_uris": {"android": "https://dc.lft.to/lastmile_qr_scan", "ios": "https://dc.lft.to/lastmile_qr_scan"}, "bike_id": "f0d5cbab38af107bb57eee4e18f40018", "is_reserved": 0}, {"lat": 38.9389085, "fusion_lon": 0.0, "lon": -77.03324583333334, "is_disabled": 0, "type": "electric_scooter", "name": "e9a5526d39d2d5b3955e8718790932d2", "fusion_lat": 0.0, "rental_uris": {"android": "https://dc.lft.to/lastmile_qr_scan", "ios": "https://dc.lft.to/lastmile_qr_scan"}, "bike_id": "e9a5526d39d2d5b3955e8718790932d2", "is_reserved": 0}, {"lat": 38.9171605, "fusion_lon": 0.0, "lon": -77.03661616666666, "is_disabled": 0, "type": "electric_scooter", "name": "5cb080cd8041ccb1cfcf32b2a3f6cd21", "fusion_lat": 0.0, "rental_uris": {"android": "https://dc.lft.to/lastmile_qr_scan", "ios": "https://dc.lft.to/lastmile_qr_scan"}, "bike_id": "5cb080cd8041ccb1cfcf32b2a3f6cd21", "is_reserved": 0}, {"lat": 38.907433833333336, "fusion_lon": 0.0, "lon": -77.04199766666666, "is_disabled": 0, "type": "electric_scooter", "name": "d4b1874a073032da65af8a9f6b150c7d", "fusion_lat": 0.0, "rental_uris": {"android": "https://dc.lft.to/lastmile_qr_scan", "ios": "https://dc.lft.to/lastmile_qr_scan"}, "bike_id": "d4b1874a073032da65af8a9f6b150c7d", "is_reserved": 0}, {"lat": 38.948406, "fusion_lon": 0.0, "lon": -77.02544766666666, "is_disabled": 0, "type": "electric_scooter", "name": "0fe09654b71635313912995c8dd7959a", "fusion_lat": 0.0, "rental_uris": {"android": "https://dc.lft.to/lastmile_qr_scan", "ios": "https://dc.lft.to/lastmile_qr_scan"}, "bike_id": "0fe09654b71635313912995c8dd7959a", "is_reserved": 0}, {"lat": 38.90876166666666, "fusion_lon": 0.0, "lon": -77.07173916666666, "is_disabled": 0, "type": "electric_scooter", "name": "9fe2f588885f54d8fa04c0ff7e703478", "fusion_lat": 0.0, "rental_uris": {"android": "https://dc.lft.to/lastmile_qr_scan", "ios": "https://dc.lft.to/lastmile_qr_scan"}, "bike_id": "9fe2f588885f54d8fa04c0ff7e703478", "is_reserved": 0}, {"lat": 38.879837, "fusion_lon": 0.0, "lon": -77.01376483333334, "is_disabled": 0, "type": "electric_scooter", "name": "1c0c368291191e894e9989557f5158f6", "fusion_lat": 0.0, "rental_uris": {"android": "https://dc.lft.to/lastmile_qr_scan", "ios": "https://dc.lft.to/lastmile_qr_scan"}, "bike_id": "1c0c368291191e894e9989557f5158f6", "is_reserved": 0}, {"lat": 38.89735866666667, "fusion_lon": 0.0, "lon": -76.9473265, "is_disabled": 0, "type": "electric_scooter", "name": "5603a19649158784e3d7892a96711e9c", "fusion_lat": 0.0, "rental_uris": {"android": "https://dc.lft.to/lastmile_qr_scan", "ios": "https://dc.lft.to/lastmile_qr_scan"}, "bike_id": "5603a19649158784e3d7892a96711e9c", "is_reserved": 0}, {"lat": 38.927163166666666, "fusion_lon": 0.0, "lon": -77.02283833333334, "is_disabled": 0, "type": "electric_scooter", "name": "bf118f60dc4b0a014f24c4cc6d2cb25b", "fusion_lat": 0.0, "rental_uris": {"android": "https://dc.lft.to/lastmile_qr_scan", "ios": "https://dc.lft.to/lastmile_qr_scan"}, "bike_id": "bf118f60dc4b0a014f24c4cc6d2cb25b", "is_reserved": 0}, {"lat": 38.9110565, "fusion_lon": 0.0, "lon": -77.04673566666666, "is_disabled": 0, "type": "electric_scooter", "name": "d0b34509a775091858b47023580960ed", "fusion_lat": 0.0, "rental_uris": {"android": "https://dc.lft.to/lastmile_qr_scan", "ios": "https://dc.lft.to/lastmile_qr_scan"}, "bike_id": "d0b34509a775091858b47023580960ed", "is_reserved": 0}, {"lat": 38.94958583333333, "fusion_lon": 0.0, "lon": -77.0272325, "is_disabled": 0, "type": "electric_scooter", "name": "f47f2bd666e58e3949826ad289e94b20", "fusion_lat": 0.0, "rental_uris": {"android": "https://dc.lft.to/lastmile_qr_scan", "ios": "https://dc.lft.to/lastmile_qr_scan"}, "bike_id": "f47f2bd666e58e3949826ad289e94b20", "is_reserved": 0}, {"lat": 38.907293833333334, "fusion_lon": 0.0, "lon": -77.07426616666666, "is_disabled": 0, "type": "electric_scooter", "name": "8c97d82d6e8ebd5b164ca303acb6d7f0", "fusion_lat": 0.0, "rental_uris": {"android": "https://dc.lft.to/lastmile_qr_scan", "ios": "https://dc.lft.to/lastmile_qr_scan"}, "bike_id": "8c97d82d6e8ebd5b164ca303acb6d7f0", "is_reserved": 0}, {"lat": 38.9248975, "fusion_lon": 0.0, "lon": -77.02697466666666, "is_disabled": 0, "type": "electric_scooter", "name": "ef4a82ad59abd14378bd193bd15281d1", "fusion_lat": 0.0, "rental_uris": {"android": "https://dc.lft.to/lastmile_qr_scan", "ios": "https://dc.lft.to/lastmile_qr_scan"}, "bike_id": "ef4a82ad59abd14378bd193bd15281d1", "is_reserved": 0}, {"lat": 38.92404583333333, "fusion_lon": 0.0, "lon": -77.02565116666666, "is_disabled": 0, "type": "electric_scooter", "name": "1d070cca0639c9348b6c712f808fe185", "fusion_lat": 0.0, "rental_uris": {"android": "https://dc.lft.to/lastmile_qr_scan", "ios": "https://dc.lft.to/lastmile_qr_scan"}, "bike_id": "1d070cca0639c9348b6c712f808fe185", "is_reserved": 0}, {"lat": 38.8874515, "fusion_lon": 0.0, "lon": -77.01726133333334, "is_disabled": 0, "type": "electric_scooter", "name": "e1d38ed7ac20649bdb554e487d2cb903", "fusion_lat": 0.0, "rental_uris": {"android": "https://dc.lft.to/lastmile_qr_scan", "ios": "https://dc.lft.to/lastmile_qr_scan"}, "bike_id": "e1d38ed7ac20649bdb554e487d2cb903", "is_reserved": 0}, {"lat": 38.92071266666667, "fusion_lon": 0.0, "lon": -77.02834916666667, "is_disabled": 0, "type": "electric_scooter", "name": "04ef3e9a5b1a863e13e3e5cf2419f706", "fusion_lat": 0.0, "rental_uris": {"android": "https://dc.lft.to/lastmile_qr_scan", "ios": "https://dc.lft.to/lastmile_qr_scan"}, "bike_id": "04ef3e9a5b1a863e13e3e5cf2419f706", "is_reserved": 0}, {"lat": 38.942097833333335, "fusion_lon": 0.0, "lon": -77.02511316666667, "is_disabled": 0, "type": "electric_scooter", "name": "df0554fbe10c3ab5b9ba8f1214ce0576", "fusion_lat": 0.0, "rental_uris": {"android": "https://dc.lft.to/lastmile_qr_scan", "ios": "https://dc.lft.to/lastmile_qr_scan"}, "bike_id": "df0554fbe10c3ab5b9ba8f1214ce0576", "is_reserved": 0}, {"lat": 38.91444966666667, "fusion_lon": 0.0, "lon": -77.02041516666667, "is_disabled": 0, "type": "electric_scooter", "name": "b49a3889822d9bf3a002d32e7c12587d", "fusion_lat": 0.0, "rental_uris": {"android": "https://dc.lft.to/lastmile_qr_scan", "ios": "https://dc.lft.to/lastmile_qr_scan"}, "bike_id": "b49a3889822d9bf3a002d32e7c12587d", "is_reserved": 0}, {"lat": 38.87905266666667, "fusion_lon": 0.0, "lon": -77.01909566666667, "is_disabled": 0, "type": "electric_scooter", "name": "d87752e1f4b3261ff9cf5121bb24a13d", "fusion_lat": 0.0, "rental_uris": {"android": "https://dc.lft.to/lastmile_qr_scan", "ios": "https://dc.lft.to/lastmile_qr_scan"}, "bike_id": "d87752e1f4b3261ff9cf5121bb24a13d", "is_reserved": 0}, {"lat": 38.9155485, "fusion_lon": 0.0, "lon": -77.04186666666666, "is_disabled": 0, "type": "electric_scooter", "name": "ad1d4b8bcc0bbf1ce3521ae9b2cdf975", "fusion_lat": 0.0, "rental_uris": {"android": "https://dc.lft.to/lastmile_qr_scan", "ios": "https://dc.lft.to/lastmile_qr_scan"}, "bike_id": "ad1d4b8bcc0bbf1ce3521ae9b2cdf975", "is_reserved": 0}, {"lat": 39.04234533333333, "fusion_lon": 0.0, "lon": -77.03075333333334, "is_disabled": 0, "type": "electric_bike", "name": "9d81da3584ce4fbd389f348f752b121c", "fusion_lat": 0.0, "rental_uris": {"android": "https://dc.lft.to/lastmile_qr_scan", "ios": "https://dc.lft.to/lastmile_qr_scan"}, "bike_id": "9d81da3584ce4fbd389f348f752b121c", "is_reserved": 0}, {"lat": 38.916637333333334, "fusion_lon": 0.0, "lon": -77.0438215, "is_disabled": 0, "type": "electric_scooter", "name": "881febdf708717817407d190a0b7a334", "fusion_lat": 0.0, "rental_uris": {"android": "https://dc.lft.to/lastmile_qr_scan", "ios": "https://dc.lft.to/lastmile_qr_scan"}, "bike_id": "881febdf708717817407d190a0b7a334", "is_reserved": 0}, {"lat": 38.95835616666667, "fusion_lon": 0.0, "lon": -77.01516733333334, "is_disabled": 0, "type": "electric_scooter", "name": "2c135013bbb37c64ed1cdcf8f5385742", "fusion_lat": 0.0, "rental_uris": {"android": "https://dc.lft.to/lastmile_qr_scan", "ios": "https://dc.lft.to/lastmile_qr_scan"}, "bike_id": "2c135013bbb37c64ed1cdcf8f5385742", "is_reserved": 0}, {"lat": 38.87645083333334, "fusion_lon": 0.0, "lon": -76.965046, "is_disabled": 0, "type": "electric_scooter", "name": "4737661a8305df5c641b256ed2c8234b", "fusion_lat": 0.0, "rental_uris": {"android": "https://dc.lft.to/lastmile_qr_scan", "ios": "https://dc.lft.to/lastmile_qr_scan"}, "bike_id": "4737661a8305df5c641b256ed2c8234b", "is_reserved": 0}, {"lat": 38.95505583333333, "fusion_lon": 0.0, "lon": -76.993554, "is_disabled": 0, "type": "electric_bike", "name": "3559364771332a326538ea5203f172a2", "fusion_lat": 0.0, "rental_uris": {"android": "https://dc.lft.to/lastmile_qr_scan", "ios": "https://dc.lft.to/lastmile_qr_scan"}, "bike_id": "3559364771332a326538ea5203f172a2", "is_reserved": 0}, {"lat": 38.90971033333334, "fusion_lon": 0.0, "lon": -77.02080716666667, "is_disabled": 0, "type": "electric_scooter", "name": "f03d44028e7dec6ffe780ae5cbd3c682", "fusion_lat": 0.0, "rental_uris": {"android": "https://dc.lft.to/lastmile_qr_scan", "ios": "https://dc.lft.to/lastmile_qr_scan"}, "bike_id": "f03d44028e7dec6ffe780ae5cbd3c682", "is_reserved": 0}, {"lat": 38.91664883333333, "fusion_lon": 0.0, "lon": -77.02960583333333, "is_disabled": 0, "type": "electric_scooter", "name": "1bfa098ff4b8e81d5ea6e8e2d2786b38", "fusion_lat": 0.0, "rental_uris": {"android": "https://dc.lft.to/lastmile_qr_scan", "ios": "https://dc.lft.to/lastmile_qr_scan"}, "bike_id": "1bfa098ff4b8e81d5ea6e8e2d2786b38", "is_reserved": 0}, {"lat": 38.892244833333336, "fusion_lon": 0.0, "lon": -77.04307116666666, "is_disabled": 0, "type": "electric_scooter", "name": "0cac908ca02131a1394555daf16b5924", "fusion_lat": 0.0, "rental_uris": {"android": "https://dc.lft.to/lastmile_qr_scan", "ios": "https://dc.lft.to/lastmile_qr_scan"}, "bike_id": "0cac908ca02131a1394555daf16b5924", "is_reserved": 0}, {"lat": 38.925339666666666, "fusion_lon": 0.0, "lon": -77.03849466666667, "is_disabled": 0, "type": "electric_scooter", "name": "081c1cbd1031e4b96d106a560324a715", "fusion_lat": 0.0, "rental_uris": {"android": "https://dc.lft.to/lastmile_qr_scan", "ios": "https://dc.lft.to/lastmile_qr_scan"}, "bike_id": "081c1cbd1031e4b96d106a560324a715", "is_reserved": 0}, {"lat": 38.863603, "fusion_lon": 0.0, "lon": -76.99064916666667, "is_disabled": 0, "type": "electric_scooter", "name": "932d18fd6e73fc26a3b95cc3ddffd9c1", "fusion_lat": 0.0, "rental_uris": {"android": "https://dc.lft.to/lastmile_qr_scan", "ios": "https://dc.lft.to/lastmile_qr_scan"}, "bike_id": "932d18fd6e73fc26a3b95cc3ddffd9c1", "is_reserved": 0}, {"lat": 38.887384, "fusion_lon": 0.0, "lon": -77.01749183333334, "is_disabled": 0, "type": "electric_scooter", "name": "f9eddb1d26021d25cd790f9b150ebe6a", "fusion_lat": 0.0, "rental_uris": {"android": "https://dc.lft.to/lastmile_qr_scan", "ios": "https://dc.lft.to/lastmile_qr_scan"}, "bike_id": "f9eddb1d26021d25cd790f9b150ebe6a", "is_reserved": 0}, {"lat": 38.900915, "fusion_lon": 0.0, "lon": -77.024277, "is_disabled": 0, "type": "electric_scooter", "name": "a52b220289ed691e1699e35e383732ba", "fusion_lat": 0.0, "rental_uris": {"android": "https://dc.lft.to/lastmile_qr_scan", "ios": "https://dc.lft.to/lastmile_qr_scan"}, "bike_id": "a52b220289ed691e1699e35e383732ba", "is_reserved": 0}, {"lat": 38.911083833333336, "fusion_lon": 0.0, "lon": -77.04257533333333, "is_disabled": 0, "type": "electric_scooter", "name": "143a0ca6d2ccc1e9510d125508f5b63f", "fusion_lat": 0.0, "rental_uris": {"android": "https://dc.lft.to/lastmile_qr_scan", "ios": "https://dc.lft.to/lastmile_qr_scan"}, "bike_id": "143a0ca6d2ccc1e9510d125508f5b63f", "is_reserved": 0}, {"lat": 38.90120733333333, "fusion_lon": 0.0, "lon": -77.04027333333333, "is_disabled": 0, "type": "electric_scooter", "name": "980dbecaac98ed4e3dbecb7cef6c4716", "fusion_lat": 0.0, "rental_uris": {"android": "https://dc.lft.to/lastmile_qr_scan", "ios": "https://dc.lft.to/lastmile_qr_scan"}, "bike_id": "980dbecaac98ed4e3dbecb7cef6c4716", "is_reserved": 0}, {"lat": 38.90562533333333, "fusion_lon": 0.0, "lon": -77.024878, "is_disabled": 0, "type": "electric_scooter", "name": "c30ab289acc295979d23b3bc33e2dd5f", "fusion_lat": 0.0, "rental_uris": {"android": "https://dc.lft.to/lastmile_qr_scan", "ios": "https://dc.lft.to/lastmile_qr_scan"}, "bike_id": "c30ab289acc295979d23b3bc33e2dd5f", "is_reserved": 0},