{"data": {"bikes": [{"bike_id": "a3dacaac036b47184a16f6088f474ed7", "type": "electric_scooter", "is_disabled": 0, "lat": 38.924861166666666, "rental_uris": {"ios": "https://dc.lft.to/lastmile_qr_scan", "android": "https://dc.lft.to/lastmile_qr_scan"}, "is_reserved": 0, "fusion_lon": 0.0, "fusion_lat": 0.0, "lon": -77.03179566666667, "name": "a3dacaac036b47184a16f6088f474ed7"}, {"bike_id": "30aab8f7fd832c9cd3f5d2745bca790b", "type": "electric_scooter", "is_disabled": 0, "lat": 38.928773, "rental_uris": {"ios": "https://dc.lft.to/lastmile_qr_scan", "android": "https://dc.lft.to/lastmile_qr_scan"}, "is_reserved": 0, "fusion_lon": 0.0, "fusion_lat": 0.0, "lon": -77.01412316666666, "name": "30aab8f7fd832c9cd3f5d2745bca790b"}, {"bike_id": "dc1fe06ec369879cce59fd4a1caac55c", "type": "electric_bike", "is_disabled": 0, "lat": 38.951767, "rental_uris": {"ios": "https://dc.lft.to/lastmile_qr_scan", "android": "https://dc.lft.to/lastmile_qr_scan"}, "is_reserved": 0, "fusion_lon": 0.0, "fusion_lat": 0.0, "lon": -76.97731933333333, "name": "dc1fe06ec369879cce59fd4a1caac55c"}, {"bike_id": "464eb6fadc7ae740479b9e298db5292e", "type": "electric_scooter", "is_disabled": 0, "lat": 38.905078, "rental_uris": {"ios": "https://dc.lft.to/lastmile_qr_scan", "android": "https://dc.lft.to/lastmile_qr_scan"}, "is_reserved": 0, "fusion_lon": 0.0, "fusion_lat": 0.0, "lon": -77.04081266666667, "name": "464eb6fadc7ae740479b9e298db5292e"}, {"bike_id": "7d380ef6d047d9019da0702a1d6042eb", "type": "electric_scooter", "is_disabled": 0, "lat": 38.92850333333333, "rental_uris": {"ios": "https://dc.lft.to/lastmile_qr_scan", "android": "https://dc.lft.to/lastmile_qr_scan"}, "is_reserved": 0, "fusion_lon": 0.0, "fusion_lat": 0.0, "lon": -77.01950533333333, "name": "7d380ef6d047d9019da0702a1d6042eb"}, {"bike_id": "8caf6bd03ecc22b7440f4bfd53b7d4da", "type": "electric_scooter", "is_disabled": 0, "lat": 38.90271083333333, "rental_uris": {"ios": "https://dc.lft.to/lastmile_qr_scan", "android": "https://dc.lft.to/lastmile_qr_scan"}, "is_reserved": 0, "fusion_lon": 0.0, "fusion_lat": 0.0, "lon": -77.04388316666666, "name": "8caf6bd03ecc22b7440f4bfd53b7d4da"}, {"bike_id": "19788d6f003047c5db33be533bdbb2c0", "type": "electric_scooter", "is_disabled": 0, "lat": 38.93607566666667, "rental_uris": {"ios": "https://dc.lft.to/lastmile_qr_scan", "android": "https://dc.lft.to/lastmile_qr_scan"}, "is_reserved": 0, "fusion_lon": 0.0, "fusion_lat": 0.0, "lon": -77.03807683333334, "name": "19788d6f003047c5db33be533bdbb2c0"}, {"bike_id": "4bcecd30915412de015ceb7f5bfafddd", "type": "electric_scooter", "is_disabled": 0, "lat": 38.91404216666667, "rental_uris": {"ios": "https://dc.lft.to/lastmile_qr_scan", "android": "https://dc.lft.to/lastmile_qr_scan"}, "is_reserved": 0, "fusion_lon": 0.0, "fusion_lat": 0.0, "lon": -77.0321915, "name": "4bcecd30915412de015ceb7f5bfafddd"}, {"bike_id": "3b85c8d2eb5b311f40d358ed2399b0ac", "type": "electric_scooter", "is_disabled": 0, "lat": 38.941175, "rental_uris": {"ios": "https://dc.lft.to/lastmile_qr_scan", "android": "https://dc.lft.to/lastmile_qr_scan"}, "is_reserved": 0, "fusion_lon": 0.0, "fusion_lat": 0.0, "lon": -77.0254365, "name": "3b85c8d2eb5b311f40d358ed2399b0ac"}, {"bike_id": "4d24d4b64efa49454be7b4562261d269", "type": "electric_scooter", "is_disabled": 0, "lat": 38.904935, "rental_uris": {"ios": "https://dc.lft.to/lastmile_qr_scan", "android": "https://dc.lft.to/lastmile_qr_scan"}, "is_reserved": 0, "fusion_lon": 0.0, "fusion_lat": 0.0, "lon": -76.94960283333333, "name": "4d24d4b64efa49454be7b4562261d269"}, {"bike_id": "e6c89bd386735df79b3c95d6c834b4ee", "type": "electric_scooter", "is_disabled": 0, "lat": 38.90127833333333, "rental_uris": {"ios": "https://dc.lft.to/lastmile_qr_scan", "android": "https://dc.lft.to/lastmile_qr_scan"}, "is_reserved": 0, "fusion_lon": 0.0, "fusion_lat": 0.0, "lon": -77.0349295, "name": "e6c89bd386735df79b3c95d6c834b4ee"}, {"bike_id": "e475f6084b09d49eec9f590aadb6fb24", "type": "electric_bike", "is_disabled": 0, "lat": 38.875596, "rental_uris": {"ios": "https://dc.lft.to/lastmile_qr_scan", "android": "https://dc.lft.to/lastmile_qr_scan"}, "is_reserved": 0, "fusion_lon": 0.0, "fusion_lat": 0.0, "lon": -76.96498533333333, "name": "e475f6084b09d49eec9f590aadb6fb24"}, {"bike_id": "5e9cd85c8e57b1838c67f162903ad565", "type": "electric_scooter", "is_disabled": 0, "lat": 38.9568665, "rental_uris": {"ios": "https://dc.lft.to/lastmile_qr_scan", "android": "https://dc.lft.to/lastmile_qr_scan"}, "is_reserved": 0, "fusion_lon": 0.0, "fusion_lat": 0.0, "lon": -77.01152266666666, "name": "5e9cd85c8e57b1838c67f162903ad565"}, {"bike_id": "11e95e457469090ae4e69a3a136be0c6", "type": "electric_scooter", "is_disabled": 0, "lat": 38.9140305, "rental_uris": {"ios": "https://dc.lft.to/lastmile_qr_scan", "android": "https://dc.lft.to/lastmile_qr_scan"}, "is_reserved": 0, "fusion_lon": 0.0, "fusion_lat": 0.0, "lon": -77.02216633333333, "name": "11e95e457469090ae4e69a3a136be0c6"}, {"bike_id": "ffaa41e6f8550e3eefb1b7df066fb957", "type": "electric_scooter", "is_disabled": 0, "lat": 38.9176895, "rental_uris": {"ios": "https://dc.lft.to/lastmile_qr_scan", "android": "https://dc.lft.to/lastmile_qr_scan"}, "is_reserved": 0, "fusion_lon": 0.0, "fusion_lat": 0.0, "lon": -77.0345795, "name": "ffaa41e6f8550e3eefb1b7df066fb957"}, {"bike_id": "671f5c7c1c615bf56e461b267397356e", "type": "electric_scooter", "is_disabled": 0, "lat": 38.90523066666667, "rental_uris": {"ios": "https://dc.lft.to/lastmile_qr_scan", "android": "https://dc.lft.to/lastmile_qr_scan"}, "is_reserved": 0, "fusion_lon": 0.0, "fusion_lat": 0.0, "lon": -77.06382683333334, "name": "671f5c7c1c615bf56e461b267397356e"}, {"bike_id": "e4928acb6106c5b6ee36bb1e2dfadeda", "type": "electric_scooter", "is_disabled": 0, "lat": 38.905994166666666, "rental_uris": {"ios": "https://dc.lft.to/lastmile_qr_scan", "android": "https://dc.lft.to/lastmile_qr_scan"}, "is_reserved": 0, "fusion_lon": 0.0, "fusion_lat": 0.0, "lon": -77.003812, "name": "e4928acb6106c5b6ee36bb1e2dfadeda"}, {"bike_id": "7debb97e78c79cfd0c02e0b8627f0d43", "type": "electric_scooter", "is_disabled": 0, "lat": 38.91938966666667, "rental_uris": {"ios": "https://dc.lft.to/lastmile_qr_scan", "android": "https://dc.lft.to/lastmile_qr_scan"}, "is_reserved": 0, "fusion_lon": 0.0, "fusion_lat": 0.0, "lon": -77.0456325, "name": "7debb97e78c79cfd0c02e0b8627f0d43"}, {"bike_id": "d188c4f120e19f2d38c6adc67dbc79fd", "type": "electric_scooter", "is_disabled": 0, "lat": 38.906476, "rental_uris": {"ios": "https://dc.lft.to/lastmile_qr_scan", "android": "https://dc.lft.to/lastmile_qr_scan"}, "is_reserved": 0, "fusion_lon": 0.0, "fusion_lat": 0.0, "lon": -77.0532895, "name": "d188c4f120e19f2d38c6adc67dbc79fd"}, {"bike_id": "585c4980c5f89cd977ee1219e995fb1e", "type": "electric_scooter", "is_disabled": 0, "lat": 38.89221766666667, "rental_uris": {"ios": "https://dc.lft.to/lastmile_qr_scan", "android": "https://dc.lft.to/lastmile_qr_scan"}, "is_reserved": 0, "fusion_lon": 0.0, "fusion_lat": 0.0, "lon": -77.026327, "name": "585c4980c5f89cd977ee1219e995fb1e"}, {"bike_id": "99fb5fa12d68f25f01434324affb9d61", "type": "electric_scooter", "is_disabled": 0, "lat": 38.91705416666667, "rental_uris": {"ios": "https://dc.lft.to/lastmile_qr_scan", "android": "https://dc.lft.to/lastmile_qr_scan"}, "is_reserved": 0, "fusion_lon": 0.0, "fusion_lat": 0.0, "lon": -77.04218083333333, "name": "99fb5fa12d68f25f01434324affb9d61"}, {"bike_id": "40df946e1aed33fa19217e9569c4d387", "type": "electric_scooter", "is_disabled": 0, "lat": 38.92459933333333, "rental_uris": {"ios": "https://dc.lft.to/lastmile_qr_scan", "android": "https://dc.lft.to/lastmile_qr_scan"}, "is_reserved": 0, "fusion_lon": 0.0, "fusion_lat": 0.0, "lon": -77.05230033333333, "name": "40df946e1aed33fa19217e9569c4d387"}, {"bike_id": "e11cef5764abfb42c1b80584e0d3751f", "type": "electric_scooter", "is_disabled": 0, "lat": 38.91332966666667, "rental_uris": {"ios": "https://dc.lft.to/lastmile_qr_scan", "android": "https://dc.lft.to/lastmile_qr_scan"}, "is_reserved": 0, "fusion_lon": 0.0, "fusion_lat": 0.0, "lon": -77.03172733333334, "name": "e11cef5764abfb42c1b80584e0d3751f"}, {"bike_id": "83037f3ec974007dc7ed8b90e73785b8", "type": "electric_scooter", "is_disabled": 0, "lat": 38.878002333333335, "rental_uris": {"ios": "https://dc.lft.to/lastmile_qr_scan", "android": "https://dc.lft.to/lastmile_qr_scan"}, "is_reserved": 0, "fusion_lon": 0.0, "fusion_lat": 0.0, "lon": -76.93094383333333, "name": "83037f3ec974007dc7ed8b90e73785b8"}, {"bike_id": "65d7b9bf54d8d9c72dc6ea75e330300f", "type": "electric_scooter", "is_disabled": 0, "lat": 38.930403, "rental_uris": {"ios": "https://dc.lft.to/lastmile_qr_scan", "android": "https://dc.lft.to/lastmile_qr_scan"}, "is_reserved": 0, "fusion_lon": 0.0, "fusion_lat": 0.0, "lon": -77.0328325, "name": "65d7b9bf54d8d9c72dc6ea75e330300f"}, {"bike_id": "72913f8b293635658d2d073bf2f92487", "type": "electric_scooter", "is_disabled": 0, "lat": 38.90493983333333, "rental_uris": {"ios": "https://dc.lft.to/lastmile_qr_scan", "android": "https://dc.lft.to/lastmile_qr_scan"}, "is_reserved": 0, "fusion_lon": 0.0, "fusion_lat": 0.0, "lon": -76.98686183333334, "name": "72913f8b293635658d2d073bf2f92487"}, {"bike_id": "36e57e2e48cac993f5ead33ab87909ad", "type": "electric_scooter", "is_disabled": 0, "lat": 38.915844, "rental_uris": {"ios": "https://dc.lft.to/lastmile_qr_scan", "android": "https://dc.lft.to/lastmile_qr_scan"}, "is_reserved": 0, "fusion_lon": 0.0, "fusion_lat": 0.0, "lon": -77.03191383333333, "name": "36e57e2e48cac993f5ead33ab87909ad"}, {"bike_id": "f6024c129f6980e5faf85e70798dd60a", "type": "electric_scooter", "is_disabled": 0, "lat": 38.897338, "rental_uris": {"ios": "https://dc.lft.to/lastmile_qr_scan", "android": "https://dc.lft.to/lastmile_qr_scan"}, "is_reserved": 0, "fusion_lon": 0.0, "fusion_lat": 0.0, "lon": -77.0547435, "name": "f6024c129f6980e5faf85e70798dd60a"}, {"bike_id": "acba3d9e0ca496212cbefb028bea260b", "type": "electric_scooter", "is_disabled": 0, "lat": 38.907128166666666, "rental_uris": {"ios": "https://dc.lft.to/lastmile_qr_scan", "android": "https://dc.lft.to/lastmile_qr_scan"}, "is_reserved": 0, "fusion_lon": 0.0, "fusion_lat": 0.0, "lon": -77.0238835, "name": "acba3d9e0ca496212cbefb028bea260b"}, {"bike_id": "df34998b8ac4a31096828995a37fca97", "type": "electric_scooter", "is_disabled": 0, "lat": 38.907565, "rental_uris": {"ios": "https://dc.lft.to/lastmile_qr_scan", "android": "https://dc.lft.to/lastmile_qr_scan"}, "is_reserved": 0, "fusion_lon": 0.0, "fusion_lat": 0.0, "lon": -77.0421745, "name": "df34998b8ac4a31096828995a37fca97"}, {"bike_id": "2c57e491cbabb51cbfd51890519543b0", "type": "electric_scooter", "is_disabled": 0, "lat": 38.96143633333333, "rental_uris": {"ios": "https://dc.lft.to/lastmile_qr_scan", "android": "https://dc.lft.to/lastmile_qr_scan"}, "is_reserved": 0, "fusion_lon": 0.0, "fusion_lat": 0.0, "lon": -77.0299245, "name": "2c57e491cbabb51cbfd51890519543b0"}, {"bike_id": "e57eb1890872a40613157b23866c41df", "type": "electric_bike", "is_disabled": 0, "lat": 39.03991466666667, "rental_uris": {"ios": "https://dc.lft.to/lastmile_qr_scan", "android": "https://dc.lft.to/lastmile_qr_scan"}, "is_reserved": 0, "fusion_lon": 0.0, "fusion_lat": 0.0, "lon": -76.99926783333333, "name": "e57eb1890872a40613157b23866c41df"}, {"bike_id": "e0e1cdc77b55bf71da8acce7c06e2d67", "type": "electric_scooter", "is_disabled": 0, "lat": 38.90962016666667, "rental_uris": {"ios": "https://dc.lft.to/lastmile_qr_scan", "android": "https://dc.lft.to/lastmile_qr_scan"}, "is_reserved": 0, "fusion_lon": 0.0, "fusion_lat": 0.0, "lon": -77.02685183333334, "name": "e0e1cdc77b55bf71da8acce7c06e2d67"}, {"bike_id": "389719e83f00c3f1b2b16b50e6ffc367", "type": "electric_bike", "is_disabled": 0, "lat": 38.92916533333333, "rental_uris": {"ios": "https://dc.lft.to/lastmile_qr_scan", "android": "https://dc.lft.to/lastmile_qr_scan"}, "is_reserved": 0, "fusion_lon": 0.0, "fusion_lat": 0.0, "lon": -77.03260583333333, "name": "389719e83f00c3f1b2b16b50e6ffc367"}, {"bike_id": "39a6603e25b7c831604585e9365df5e9", "type": "electric_scooter", "is_disabled": 0, "lat": 38.90258433333333, "rental_uris": {"ios": "https://dc.lft.to/lastmile_qr_scan", "android": "https://dc.lft.to/lastmile_qr_scan"}, "is_reserved": 0, "fusion_lon": 0.0, "fusion_lat": 0.0, "lon": -76.97548066666667, "name": "39a6603e25b7c831604585e9365df5e9"}, {"bike_id": "88e7cdc922a1efdd890c8fb8fce3d8a4", "type": "electric_scooter", "is_disabled": 0, "lat": 38.902415, "rental_uris": {"ios": "https://dc.lft.to/lastmile_qr_scan", "android": "https://dc.lft.to/lastmile_qr_scan"}, "is_reserved": 0, "fusion_lon": 0.0, "fusion_lat": 0.0, "lon": -77.00201166666666, "name": "88e7cdc922a1efdd890c8fb8fce3d8a4"}, {"bike_id": "9bc14c018f090bd422eef1394831af35", "type": "electric_scooter", "is_disabled": 0, "lat": 38.922206833333334, "rental_uris": {"ios": "https://dc.lft.to/lastmile_qr_scan", "android": "https://dc.lft.to/lastmile_qr_scan"}, "is_reserved": 0, "fusion_lon": 0.0, "fusion_lat": 0.0, "lon": -77.034593, "name": "9bc14c018f090bd422eef1394831af35"}, {"bike_id": "c9c3053fab4634fb9cc4154b7fedb9a2", "type": "electric_scooter", "is_disabled": 0, "lat": 38.919715833333335, "rental_uris": {"ios": "https://dc.lft.to/lastmile_qr_scan", "android": "https://dc.lft.to/lastmile_qr_scan"}, "is_reserved": 0, "fusion_lon": 0.0, "fusion_lat": 0.0, "lon": -77.01851733333334, "name": "c9c3053fab4634fb9cc4154b7fedb9a2"}, {"bike_id": "8884d1b57040354546a25cac20540237", "type": "electric_scooter", "is_disabled": 0, "lat": 38.91396, "rental_uris": {"ios": "https://dc.lft.to/lastmile_qr_scan", "android": "https://dc.lft.to/lastmile_qr_scan"}, "is_reserved": 0, "fusion_lon": 0.0, "fusion_lat": 0.0, "lon": -77.02203766666666, "name": "8884d1b57040354546a25cac20540237"}, {"bike_id": "6528a4a744f350661c8139bbc4e0b254", "type": "electric_scooter", "is_disabled": 0, "lat": 38.90160766666666, "rental_uris": {"ios": "https://dc.lft.to/lastmile_qr_scan", "android": "https://dc.lft.to/lastmile_qr_scan"}, "is_reserved": 0, "fusion_lon": 0.0, "fusion_lat": 0.0, "lon": -76.99021616666667, "name": "6528a4a744f350661c8139bbc4e0b254"}, {"bike_id": "9ad89ce527e7a8f7003d03b295881892", "type": "electric_scooter", "is_disabled": 0, "lat": 38.952318, "rental_uris": {"ios": "https://dc.lft.to/lastmile_qr_scan", "android": "https://dc.lft.to/lastmile_qr_scan"}, "is_reserved": 0, "fusion_lon": 0.0, "fusion_lat": 0.0, "lon": -77.00956733333334, "name": "9ad89ce527e7a8f7003d03b295881892"}, {"bike_id": "95a2078f1d43514533eb700eff55e5e4", "type": "electric_scooter", "is_disabled": 0, "lat": 38.900912, "rental_uris": {"ios": "https://dc.lft.to/lastmile_qr_scan", "android": "https://dc.lft.to/lastmile_qr_scan"}, "is_reserved": 0, "fusion_lon": 0.0, "fusion_lat": 0.0, "lon": -77.0500065, "name": "95a2078f1d43514533eb700eff55e5e4"}, {"bike_id": "cac26377f0f27357074954252eb60b54", "type": "electric_scooter", "is_disabled": 0, "lat": 38.9019185, "rental_uris": {"ios": "https://dc.lft.to/lastmile_qr_scan", "android": "https://dc.lft.to/lastmile_qr_scan"}, "is_reserved": 0, "fusion_lon": 0.0, "fusion_lat": 0.0, "lon": -77.03971266666667, "name": "cac26377f0f27357074954252eb60b54"}, {"bike_id": "c1065b96ae0c36099db959671fad5ac4", "type": "electric_bike", "is_disabled": 0, "lat": 38.854393333333334, "rental_uris": {"ios": "https://dc.lft.to/lastmile_qr_scan", "android": "https://dc.lft.to/lastmile_qr_scan"}, "is_reserved": 0, "fusion_lon": 0.0, "fusion_lat": 0.0, "lon": -77.083077, "name": "c1065b96ae0c36099db959671fad5ac4"}, {"bike_id": "350348fca0d58e8c3ab54d2e557d7536", "type": "electric_scooter", "is_disabled": 0, "lat": 38.924829333333335, "rental_uris": {"ios": "https://dc.lft.to/lastmile_qr_scan", "android": "https://dc.lft.to/lastmile_qr_scan"}, "is_reserved": 0, "fusion_lon": 0.0, "fusion_lat": 0.0, "lon": -77.02715333333333, "name": "350348fca0d58e8c3ab54d2e557d7536"}, {"bike_id": "852963a9fa4a2e05624d69ae98ecee94", "type": "electric_scooter", "is_disabled": 0, "lat": 38.92862566666667, "rental_uris": {"ios": "https://dc.lft.to/lastmile_qr_scan", "android": "https://dc.lft.to/lastmile_qr_scan"}, "is_reserved": 0, "fusion_lon": 0.0, "fusion_lat": 0.0, "lon": -77.02174633333334, "name": "852963a9fa4a2e05624d69ae98ecee94"}, {"bike_id": "90f108558a9b8209bd540238e014cf8e", "type": "electric_scooter", "is_disabled": 0, "lat": 38.905006, "rental_uris": {"ios": "https://dc.lft.to/lastmile_qr_scan", "android": "https://dc.lft.to/lastmile_qr_scan"}, "is_reserved": 0, "fusion_lon": 0.0, "fusion_lat": 0.0, "lon": -77.06005816666666, "name": "90f108558a9b8209bd540238e014cf8e"}, {"bike_id": "ecf8e9cc13cb04e60871c4bdc8c68206", "type": "electric_scooter", "is_disabled": 0, "lat": 38.91715766666667, "rental_uris": {"ios": "https://dc.lft.to/lastmile_qr_scan", "android": "https://dc.lft.to/lastmile_qr_scan"}, "is_reserved": 0, "fusion_lon": 0.0, "fusion_lat": 0.0, "lon": -77.03177716666667, "name": "ecf8e9cc13cb04e60871c4bdc8c68206"}, {"bike_id": "8cc4c3fd5897b8e78c3bedd0f07049d7", "type": "electric_scooter", "is_disabled": 0, "lat": 38.952183166666664, "rental_uris": {"ios": "https://dc.lft.to/lastmile_qr_scan", "android": "https://dc.lft.to/lastmile_qr_scan"}, "is_reserved": 0, "fusion_lon": 0.0, "fusion_lat": 0.0, "lon": -77.07071, "name": "8cc4c3fd5897b8e78c3bedd0f07049d7"}, {"bike_id": "f89c4ca2adc9531dd2deb329621ed7c5", "type": "electric_scooter", "is_disabled": 0, "lat": 38.874641833333335, "rental_uris": {"ios": "https://dc.lft.to/lastmile_qr_scan", "android": "https://dc.lft.to/lastmile_qr_scan"}, "is_reserved": 0, "fusion_lon": 0.0, "fusion_lat": 0.0, "lon": -77.01898966666667, "name": "f89c4ca2adc9531dd2deb329621ed7c5"}, {"bike_id": "e123e0f98d9007edea4782ec53de8b32", "type": "electric_scooter", "is_disabled": 0, "lat": 38.9337585, "rental_uris": {"ios": "https://dc.lft.to/lastmile_qr_scan", "android": "https://dc.lft.to/lastmile_qr_scan"}, "is_reserved": 0, "fusion_lon": 0.0, "fusion_lat": 0.0, "lon": -77.0237955, "name": "e123e0f98d9007edea4782ec53de8b32"}, {"bike_id": "ce31f83736b544898c550b1da3d2b1b9", "type": "electric_scooter", "is_disabled": 0, "lat": 38.919488, "rental_uris": {"ios": "https://dc.lft.to/lastmile_qr_scan", "android": "https://dc.lft.to/lastmile_qr_scan"}, "is_reserved": 0, "fusion_lon": 0.0, "fusion_lat": 0.0, "lon": -77.04879083333333, "name": "ce31f83736b544898c550b1da3d2b1b9"}, {"bike_id": "323a2528ee3df6e13ec9586c4add51ae", "type": "electric_bike", "is_disabled": 0, "lat": 38.84032783333333, "rental_uris": {"ios": "https://dc.lft.to/lastmile_qr_scan", "android": "https://dc.lft.to/lastmile_qr_scan"}, "is_reserved": 0, "fusion_lon": 0.0, "fusion_lat": 0.0, "lon": -76.97580916666666, "name": "323a2528ee3df6e13ec9586c4add51ae"}, {"bike_id": "04b3e40954786d9f0cbdc20b547393ec", "type": "electric_scooter", "is_disabled": 0, "lat": 38.918471333333336, "rental_uris": {"ios": "https://dc.lft.to/lastmile_qr_scan", "android": "https://dc.lft.to/lastmile_qr_scan"}, "is_reserved": 0, "fusion_lon": 0.0, "fusion_lat": 0.0, "lon": -77.03183316666667, "name": "04b3e40954786d9f0cbdc20b547393ec"}, {"bike_id": "4f3805ecb9975abca3ee2612726f3428", "type": "electric_scooter", "is_disabled": 0, "lat": 38.95479133333333, "rental_uris": {"ios": "https://dc.lft.to/lastmile_qr_scan", "android": "https://dc.lft.to/lastmile_qr_scan"}, "is_reserved": 0, "fusion_lon": 0.0, "fusion_lat": 0.0, "lon": -77.082184, "name": "4f3805ecb9975abca3ee2612726f3428"}, {"bike_id": "9d6cdeaca6c3e18e2592d69c6965c692", "type": "electric_scooter", "is_disabled": 0, "lat": 38.895394, "rental_uris": {"ios": "https://dc.lft.to/lastmile_qr_scan", "android": "https://dc.lft.to/lastmile_qr_scan"}, "is_reserved": 0, "fusion_lon": 0.0, "fusion_lat": 0.0, "lon": -77.01124116666666, "name": "9d6cdeaca6c3e18e2592d69c6965c692"}, {"bike_id": "d161d8c42b294ed1eef52df1cb3be435", "type": "electric_scooter", "is_disabled": 0, "lat": 38.89005783333333, "rental_uris": {"ios": "https://dc.lft.to/lastmile_qr_scan", "android": "https://dc.lft.to/lastmile_qr_scan"}, "is_reserved": 0, "fusion_lon": 0.0, "fusion_lat": 0.0, "lon": -76.93745516666667, "name": "d161d8c42b294ed1eef52df1cb3be435"}, {"bike_id": "d2c4d21db94389d64e7696545aad0bff", "type": "electric_scooter", "is_disabled": 0, "lat": 38.915785, "rental_uris": {"ios": "https://dc.lft.to/lastmile_qr_scan", "android": "https://dc.lft.to/lastmile_qr_scan"}, "is_reserved": 0, "fusion_lon": 0.0, "fusion_lat": 0.0, "lon": -77.02051816666666, "name": "d2c4d21db94389d64e7696545aad0bff"}, {"bike_id": "9919b55c969b7ec3123abb0e9d0dcd10", "type": "electric_bike", "is_disabled": 0, "lat": 38.897383, "rental_uris": {"ios": "https://dc.lft.to/lastmile_qr_scan", "android": "https://dc.lft.to/lastmile_qr_scan"}, "is_reserved": 0, "fusion_lon": 0.0, "fusion_lat": 0.0, "lon": -76.99216733333333, "name": "9919b55c969b7ec3123abb0e9d0dcd10"}, {"bike_id": "a410c11440a10a3a879800d35c27370f", "type": "electric_scooter", "is_disabled": 0, "lat": 38.87423366666667, "rental_uris": {"ios": "https://dc.lft.to/lastmile_qr_scan", "android": "https://dc.lft.to/lastmile_qr_scan"}, "is_reserved": 0, "fusion_lon": 0.0, "fusion_lat": 0.0, "lon": -76.96907383333334, "name": "a410c11440a10a3a879800d35c27370f"}, {"bike_id": "2035be4d12771a3fac8aeee39b618bd3", "type": "electric_scooter", "is_disabled": 0, "lat": 38.863721166666664, "rental_uris": {"ios": "https://dc.lft.to/lastmile_qr_scan", "android": "https://dc.lft.to/lastmile_qr_scan"}, "is_reserved": 0, "fusion_lon": 0.0, "fusion_lat": 0.0, "lon": -76.99058583333333, "name": "2035be4d12771a3fac8aeee39b618bd3"}, {"bike_id": "1bb81b7a98e4fdc705db9c57250fcdd0", "type": "electric_scooter", "is_disabled": 0, "lat": 38.90780266666667, "rental_uris": {"ios": "https://dc.lft.to/lastmile_qr_scan", "android": "https://dc.lft.to/lastmile_qr_scan"}, "is_reserved": 0, "fusion_lon": 0.0, "fusion_lat": 0.0, "lon": -77.04510566666667, "name": "1bb81b7a98e4fdc705db9c57250fcdd0"}, {"bike_id": "0a5faf4705446f0b0cff734bbc378b1c", "type": "electric_scooter", "is_disabled": 0, "lat": 38.91703583333334, "rental_uris": {"ios": "https://dc.lft.to/lastmile_qr_scan", "android": "https://dc.lft.to/lastmile_qr_scan"}, "is_reserved": 0, "fusion_lon": 0.0, "fusion_lat": 0.0, "lon": -77.02883716666666, "name": "0a5faf4705446f0b0cff734bbc378b1c"}, {"bike_id": "c3804b18a68ba78b0aca2645204f37f0", "type": "electric_scooter", "is_disabled": 0, "lat": 38.942723, "rental_uris": {"ios": "https://dc.lft.to/lastmile_qr_scan", "android": "https://dc.lft.to/lastmile_qr_scan"}, "is_reserved": 0, "fusion_lon": 0.0, "fusion_lat": 0.0, "lon": -77.03256483333334, "name": "c3804b18a68ba78b0aca2645204f37f0"}, {"bike_id": "d42036a03d799bc1606759583db41a0a", "type": "electric_scooter", "is_disabled": 0, "lat": 38.878654833333336, "rental_uris": {"ios": "https://dc.lft.to/lastmile_qr_scan", "android": "https://dc.lft.to/lastmile_qr_scan"}, "is_reserved": 0, "fusion_lon": 0.0, "fusion_lat": 0.0, "lon": -76.96979683333333, "name": "d42036a03d799bc1606759583db41a0a"}, {"bike_id": "189de937d79869ac720084bd60bff7f3", "type": "electric_scooter", "is_disabled": 0, "lat": 38.86216616666667, "rental_uris": {"ios": "https://dc.lft.to/lastmile_qr_scan", "android": "https://dc.lft.to/lastmile_qr_scan"}, "is_reserved": 0, "fusion_lon": 0.0, "fusion_lat": 0.0, "lon": -76.9948675, "name": "189de937d79869ac720084bd60bff7f3"}, {"bike_id": "bb97fe85967478eaa10bf34e9f57d06d", "type": "electric_scooter", "is_disabled": 0, "lat": 38.8720105, "rental_uris": {"ios": "https://dc.lft.to/lastmile_qr_scan", "android": "https://dc.lft.to/lastmile_qr_scan"}, "is_reserved": 0, "fusion_lon": 0.0, "fusion_lat": 0.0, "lon": -77.00933983333333, "name": "bb97fe85967478eaa10bf34e9f57d06d"}, {"bike_id": "460517b461d2bea4509dad3b0a66cc1a", "type": "electric_scooter", "is_disabled": 0, "lat": 38.901522166666666, "rental_uris": {"ios": "https://dc.lft.to/lastmile_qr_scan", "android": "https://dc.lft.to/lastmile_qr_scan"}, "is_reserved": 0, "fusion_lon": 0.0, "fusion_lat": 0.0, "lon": -76.93059533333333, "name": "460517b461d2bea4509dad3b0a66cc1a"}, {"bike_id": "fb8565c4cb07f94a3ea647e219b9cc48", "type": "electric_bike", "is_disabled": 0, "lat": 39.06292916666666, "rental_uris": {"ios": "https://dc.lft.to/lastmile_qr_scan", "android": "https://dc.lft.to/lastmile_qr_scan"}, "is_reserved": 0, "fusion_lon": 0.0, "fusion_lat": 0.0, "lon": -77.04977566666666, "name": "fb8565c4cb07f94a3ea647e219b9cc48"}, {"bike_id": "a1cb69cf3a671d0f799e19fb42025de6", "type": "electric_scooter", "is_disabled": 0, "lat": 38.93887866666667, "rental_uris": {"ios": "https://dc.lft.to/lastmile_qr_scan", "android": "https://dc.lft.to/lastmile_qr_scan"}, "is_reserved": 0, "fusion_lon": 0.0, "fusion_lat": 0.0, "lon": -77.024957, "name": "a1cb69cf3a671d0f799e19fb42025de6"}, {"bike_id": "bc226242ab0e9e9c287a43efe151ea2a", "type": "electric_scooter", "is_disabled": 0, "lat": 38.938471, "rental_uris": {"ios": "https://dc.lft.to/lastmile_qr_scan", "android": "https://dc.lft.to/lastmile_qr_scan"}, "is_reserved": 0, "fusion_lon": 0.0, "fusion_lat": 0.0, "lon": -77.07229283333334, "name": "bc226242ab0e9e9c287a43efe151ea2a"}, {"bike_id": "6c668a971ab49cec5c3e11e8e0fff999", "type": "electric_scooter", "is_disabled": 0, "lat": 38.892271, "rental_uris": {"ios": "https://dc.lft.to/lastmile_qr_scan", "android": "https://dc.lft.to/lastmile_qr_scan"}, "is_reserved": 0, "fusion_lon": 0.0, "fusion_lat": 0.0, "lon": -77.02582033333333, "name": "6c668a971ab49cec5c3e11e8e0fff999"}, {"bike_id": "aaa006b7ed7ae91f700ead2ee8b455a6", "type": "electric_scooter", "is_disabled": 0, "lat": 38.902874833333335, "rental_uris": {"ios": "https://dc.lft.to/lastmile_qr_scan", "android": "https://dc.lft.to/lastmile_qr_scan"}, "is_reserved": 0, "fusion_lon": 0.0, "fusion_lat": 0.0, "lon": -77.03847866666666, "name": "aaa006b7ed7ae91f700ead2ee8b455a6"}, {"bike_id": "3fe037e20a11331fcbe4079c342cbdad", "type": "electric_scooter", "is_disabled": 0, "lat": 38.905304666666666, "rental_uris": {"ios": "https://dc.lft.to/lastmile_qr_scan", "android": "https://dc.lft.to/lastmile_qr_scan"}, "is_reserved": 0, "fusion_lon": 0.0, "fusion_lat": 0.0, "lon": -77.05937833333333, "name": "3fe037e20a11331fcbe4079c342cbdad"}, {"bike_id": "8581d3376b3ba1d9ef85cfedef0df15d", "type": "electric_scooter", "is_disabled": 0, "lat": 38.90198616666667, "rental_uris": {"ios": "https://dc.lft.to/lastmile_qr_scan", "android": "https://dc.lft.to/lastmile_qr_scan"}, "is_reserved": 0, "fusion_lon": 0.0, "fusion_lat": 0.0, "lon": -77.02370116666667, "name": "8581d3376b3ba1d9ef85cfedef0df15d"}, {"bike_id": "eea3eb3376a24535070f836ac0fd0132", "type": "electric_scooter", "is_disabled": 0, "lat": 38.916914166666665, "rental_uris": {"ios": "https://dc.lft.to/lastmile_qr_scan", "android": "https://dc.lft.to/lastmile_qr_scan"}, "is_reserved": 0, "fusion_lon": 0.0, "fusion_lat": 0.0, "lon": -77.0295265, "name": "eea3eb3376a24535070f836ac0fd0132"}, {"bike_id": "ec1840da816b50b281168ab6e7e642a8", "type": "electric_scooter", "is_disabled": 0, "lat": 38.91351083333333, "rental_uris": {"ios": "https://dc.lft.to/lastmile_qr_scan", "android": "https://dc.lft.to/lastmile_qr_scan"}, "is_reserved": 0, "fusion_lon": 0.0, "fusion_lat": 0.0, "lon": -77.03185483333333, "name": "ec1840da816b50b281168ab6e7e642a8"}, {"bike_id": "b1b45aa6352df53130f14f691005edcf", "type": "electric_scooter", "is_disabled": 0, "lat": 38.92090016666667, "rental_uris": {"ios": "https://dc.lft.to/lastmile_qr_scan", "android": "https://dc.lft.to/lastmile_qr_scan"}, "is_reserved": 0, "fusion_lon": 0.0, "fusion_lat": 0.0, "lon": -77.02533916666667, "name": "b1b45aa6352df53130f14f691005edcf"}, {"bike_id": "8435758f02d838df324712b85ecf1bd7", "type": "electric_scooter", "is_disabled": 0, "lat": 38.870699333333334, "rental_uris": {"ios": "https://dc.lft.to/lastmile_qr_scan", "android": "https://dc.lft.to/lastmile_qr_scan"}, "is_reserved": 0, "fusion_lon": 0.0, "fusion_lat": 0.0, "lon": -76.9891025, "name": "8435758f02d838df324712b85ecf1bd7"}, {"bike_id": "7f95c857a3c62c036d08e76a84cacffa", "type": "electric_scooter", "is_disabled": 0, "lat": 38.90304416666667, "rental_uris": {"ios": "https://dc.lft.to/lastmile_qr_scan", "android": "https://dc.lft.to/lastmile_qr_scan"}, "is_reserved": 0, "fusion_lon": 0.0, "fusion_lat": 0.0, "lon": -76.98349683333333, "name": "7f95c857a3c62c036d08e76a84cacffa"}, {"bike_id": "1e8cb99418bcc6d18fa3c1dabdc251b2", "type": "electric_scooter", "is_disabled": 0, "lat": 38.906823333333335, "rental_uris": {"ios": "https://dc.lft.to/lastmile_qr_scan", "android": "https://dc.lft.to/lastmile_qr_scan"}, "is_reserved": 0, "fusion_lon": 0.0, "fusion_lat": 0.0, "lon": -77.0717485, "name": "1e8cb99418bcc6d18fa3c1dabdc251b2"}, {"bike_id": "e1f65cbe28b52eeb69fe9882c6432ad5", "type": "electric_scooter", "is_disabled": 0, "lat": 38.932377, "rental_uris": {"ios": "https://dc.lft.to/lastmile_qr_scan", "android": "https://dc.lft.to/lastmile_qr_scan"}, "is_reserved": 0, "fusion_lon": 0.0, "fusion_lat": 0.0, "lon": -77.03393666666666, "name": "e1f65cbe28b52eeb69fe9882c6432ad5"}, {"bike_id": "7abc40a84b4f64a905e393ae3b6e92aa", "type": "electric_scooter", "is_disabled": 0, "lat": 38.92612283333333, "rental_uris": {"ios": "https://dc.lft.to/lastmile_qr_scan", "android": "https://dc.lft.to/lastmile_qr_scan"}, "is_reserved": 0, "fusion_lon": 0.0, "fusion_lat": 0.0, "lon": -77.02162483333333, "name": "7abc40a84b4f64a905e393ae3b6e92aa"}, {"bike_id": "bdd8c640e532887b0c10e09b9f7dd47e", "type": "electric_scooter", "is_disabled": 0, "lat": 38.91482966666667, "rental_uris": {"ios": "https://dc.lft.to/lastmile_qr_scan", "android": "https://dc.lft.to/lastmile_qr_scan"}, "is_reserved": 0, "fusion_lon": 0.0, "fusion_lat": 0.0, "lon": -77.03917466666667, "name": "bdd8c640e532887b0c10e09b9f7dd47e"}, {"bike_id": "79bec4b526d43508a2dabf0e0cb20179", "type": "electric_scooter", "is_disabled": 0, "lat": 38.9345545, "rental_uris": {"ios": "https://dc.lft.to/lastmile_qr_scan", "android": "https://dc.lft.to/lastmile_qr_scan"}, "is_reserved": 0, "fusion_lon": 0.0, "fusion_lat": 0.0, "lon": -77.0305005, "name": "79bec4b526d43508a2dabf0e0cb20179"}, {"bike_id": "0987a51e1d9586b66f7fc2e4472a0c48", "type": "electric_scooter", "is_disabled": 0, "lat": 38.891987, "rental_uris": {"ios": "https://dc.lft.to/lastmile_qr_scan", "android": "https://dc.lft.to/lastmile_qr_scan"}, "is_reserved": 0, "fusion_lon": 0.0, "fusion_lat": 0.0, "lon": -77.00237, "name": "0987a51e1d9586b66f7fc2e4472a0c48"}, {"bike_id": "5ecb954709ab2a7f19f0848435609ba0", "type": "electric_scooter", "is_disabled": 0, "lat": 38.920604833333336, "rental_uris": {"ios": "https://dc.lft.to/lastmile_qr_scan", "android": "https://dc.lft.to/lastmile_qr_scan"}, "is_reserved": 0, "fusion_lon": 0.0, "fusion_lat": 0.0, "lon": -77.03460366666667, "name": "5ecb954709ab2a7f19f0848435609ba0"}, {"bike_id": "79c5ce7f5c8eb652945c7c449d65ea40", "type": "electric_scooter", "is_disabled": 0, "lat": 38.88505083333333, "rental_uris": {"ios": "https://dc.lft.to/lastmile_qr_scan", "android": "https://dc.lft.to/lastmile_qr_scan"}, "is_reserved": 0, "fusion_lon": 0.0, "fusion_lat": 0.0, "lon": -77.01544066666666, "name": "79c5ce7f5c8eb652945c7c449d65ea40"}, {"bike_id": "b331666978fd1be251b2300e6c5c1224", "type": "electric_scooter", "is_disabled": 0, "lat": 38.8922155, "rental_uris": {"ios": "https://dc.lft.to/lastmile_qr_scan", "android": "https://dc.lft.to/lastmile_qr_scan"}, "is_reserved": 0, "fusion_lon": 0.0, "fusion_lat": 0.0, "lon": -77.02227766666667, "name": "b331666978fd1be251b2300e6c5c1224"}, {"bike_id": "03eaedfd3086fe512f8b879417262cb6", "type": "electric_scooter", "is_disabled": 0, "lat": 38.898606666666666, "rental_uris": {"ios": "https://dc.lft.to/lastmile_qr_scan", "android": "https://dc.lft.to/lastmile_qr_scan"}, "is_reserved": 0, "fusion_lon": 0.0, "fusion_lat": 0.0, "lon": -77.04875016666666, "name": "03eaedfd3086fe512f8b879417262cb6"}, {"bike_id": "20677816e463ec68c7714dd3303b1bb3", "type": "electric_scooter", "is_disabled": 0, "lat": 38.896701, "rental_uris": {"ios": "https://dc.lft.to/lastmile_qr_scan", "android": "https://dc.lft.to/lastmile_qr_scan"}, "is_reserved": 0, "fusion_lon": 0.0, "fusion_lat": 0.0, "lon": -76.98820083333334, "name": "20677816e463ec68c7714dd3303b1bb3"}, {"bike_id": "e13232b564ceff68cd8721610f3d102a", "type": "electric_scooter", "is_disabled": 0, "lat": 38.90032983333333, "rental_uris": {"ios": "https://dc.lft.to/lastmile_qr_scan", "android": "https://dc.lft.to/lastmile_qr_scan"}, "is_reserved": 0, "fusion_lon": 0.0, "fusion_lat": 0.0, "lon": -76.99898816666666, "name": "e13232b564ceff68cd8721610f3d102a"}, {"bike_id": "1b8d228670f0fb17dc82f0a776da5737", "type": "electric_scooter", "is_disabled": 0, "lat": 38.89726983333333, "rental_uris": {"ios": "https://dc.lft.to/lastmile_qr_scan", "android": "https://dc.lft.to/lastmile_qr_scan"}, "is_reserved": 0, "fusion_lon": 0.0, "fusion_lat": 0.0, "lon": -77.0333435, "name": "1b8d228670f0fb17dc82f0a776da5737"}, {"bike_id": "d98e0f9e198c7004635a2e6d53d365d0", "type": "electric_scooter", "is_disabled": 0, "lat": 38.9421495, "rental_uris": {"ios": "https://dc.lft.to/lastmile_qr_scan", "android": "https://dc.lft.to/lastmile_qr_scan"}, "is_reserved": 0, "fusion_lon": 0.0, "fusion_lat": 0.0, "lon": -77.02582016666666, "name": "d98e0f9e198c7004635a2e6d53d365d0"}, {"bike_id": "c694a2c4065c528deb729c73898e2835", "type": "electric_scooter", "is_disabled": 0, "lat": 38.898762833333336, "rental_uris": {"ios": "https://dc.lft.to/lastmile_qr_scan", "android": "https://dc.lft.to/lastmile_qr_scan"}, "is_reserved": 0, "fusion_lon": 0.0, "fusion_lat": 0.0, "lon": -76.93184566666666, "name": "c694a2c4065c528deb729c73898e2835"}, {"bike_id": "3c2365280b2ebee1777e414b9437914b", "type": "electric_scooter", "is_disabled": 0, "lat": 38.91176516666667, "rental_uris": {"ios": "https://dc.lft.to/lastmile_qr_scan", "android": "https://dc.lft.to/lastmile_qr_scan"}, "is_reserved": 0, "fusion_lon": 0.0, "fusion_lat": 0.0, "lon": -77.029536, "name": "3c2365280b2ebee1777e414b9437914b"}, {"bike_id": "457bc2eef979b322482c6f3044b71291", "type": "electric_scooter", "is_disabled": 0, "lat": 38.9248875, "rental_uris": {"ios": "https://dc.lft.to/lastmile_qr_scan", "android": "https://dc.lft.to/lastmile_qr_scan"}, "is_reserved": 0, "fusion_lon": 0.0, "fusion_lat": 0.0, "lon": -77.057556, "name": "457bc2eef979b322482c6f3044b71291"}, {"bike_id": "1b8095a9eaf203ee0bebb9813d4e8768", "type": "electric_scooter", "is_disabled": 0, "lat": 38.93638633333333, "rental_uris": {"ios": "https://dc.lft.to/lastmile_qr_scan", "android": "https://dc.lft.to/lastmile_qr_scan"}, "is_reserved": 0, "fusion_lon": 0.0, "fusion_lat": 0.0, "lon": -77.058878, "name": "1b8095a9eaf203ee0bebb9813d4e8768"}, {"bike_id": "7d0d62378df61bd41bfcd0902eabb836", "type": "electric_scooter", "is_disabled": 0, "lat": 38.906399, "rental_uris": {"ios": "https://dc.lft.to/lastmile_qr_scan", "android": "https://dc.lft.to/lastmile_qr_scan"}, "is_reserved": 0, "fusion_lon": 0.0, "fusion_lat": 0.0, "lon": -77.01431683333334, "name": "7d0d62378df61bd41bfcd0902eabb836"}, {"bike_id": "ab82b19f271961b01c583449f1eff1d7", "type": "electric_scooter", "is_disabled": 0, "lat": 38.90557, "rental_uris": {"ios": "https://dc.lft.to/lastmile_qr_scan", "android": "https://dc.lft.to/lastmile_qr_scan"}, "is_reserved": 0, "fusion_lon": 0.0, "fusion_lat": 0.0, "lon": -77.03821583333334, "name": "ab82b19f271961b01c583449f1eff1d7"}, {"bike_id": "6a48aa2e61a441c260c21c3a5253015b", "type": "electric_scooter", "is_disabled": 0, "lat": 38.9053, "rental_uris": {"ios": "https://dc.lft.to/lastmile_qr_scan", "android": "https://dc.lft.to/lastmile_qr_scan"}, "is_reserved": 0, "fusion_lon": 0.0, "fusion_lat": 0.0, "lon": -77.05683933333333, "name": "6a48aa2e61a441c260c21c3a5253015b"}, {"bike_id": "ee77d83c4d603ff4a650f1173f259bc1", "type": "electric_scooter", "is_disabled": 0, "lat": 38.86375366666667, "rental_uris": {"ios": "https://dc.lft.to/lastmile_qr_scan", "android": "https://dc.lft.to/lastmile_qr_scan"}, "is_reserved": 0, "fusion_lon": 0.0, "fusion_lat": 0.0, "lon": -76.9905765, "name": "ee77d83c4d603ff4a650f1173f259bc1"}, {"bike_id": "79a80ff16382e2e24e560b41aecdcdab", "type": "electric_scooter", "is_disabled": 0, "lat": 38.9077735, "rental_uris": {"ios": "https://dc.lft.to/lastmile_qr_scan", "android": "https://dc.lft.to/lastmile_qr_scan"}, "is_reserved": 0, "fusion_lon": 0.0, "fusion_lat": 0.0, "lon": -77.02044783333334, "name": "79a80ff16382e2e24e560b41aecdcdab"}, {"bike_id": "0a6b38f6093d6ddc5fdbfc8c31f7e03a", "type": "electric_scooter", "is_disabled": 0, "lat": 38.916856833333334, "rental_uris": {"ios": "https://dc.lft.to/lastmile_qr_scan", "android": "https://dc.lft.to/lastmile_qr_scan"}, "is_reserved": 0, "fusion_lon": 0.0, "fusion_lat": 0.0, "lon": -77.02953083333334, "name": "0a6b38f6093d6ddc5fdbfc8c31f7e03a"}, {"bike_id": "8d258dc352f52295e7d3005834aaa529", "type": "electric_scooter", "is_disabled": 0, "lat": 38.91703866666667, "rental_uris": {"ios": "https://dc.lft.to/lastmile_qr_scan", "android": "https://dc.lft.to/lastmile_qr_scan"}, "is_reserved": 0, "fusion_lon": 0.0, "fusion_lat": 0.0, "lon": -77.0106935, "name": "8d258dc352f52295e7d3005834aaa529"}, {"bike_id": "b58f4da9cc079641909b8c844aa3fb0e", "type": "electric_scooter", "is_disabled": 0, "lat": 38.90673233333333, "rental_uris": {"ios": "https://dc.lft.to/lastmile_qr_scan", "android": "https://dc.lft.to/lastmile_qr_scan"}, "is_reserved": 0, "fusion_lon": 0.0, "fusion_lat": 0.0, "lon": -77.0104655, "name": "b58f4da9cc079641909b8c844aa3fb0e"}, {"bike_id": "9708dd8947ec169b56c81844dbeb3a9f", "type": "electric_scooter", "is_disabled": 0, "lat": 38.916966, "rental_uris": {"ios": "https://dc.lft.to/lastmile_qr_scan", "android": "https://dc.lft.to/lastmile_qr_scan"}, "is_reserved": 0, "fusion_lon": 0.0, "fusion_lat": 0.0, "lon": -77.03731466666666, "name": "9708dd8947ec169b56c81844dbeb3a9f"}, {"bike_id": "1de9a7ecf28d8ba8b63343262fbc9e96", "type": "electric_bike", "is_disabled": 0, "lat": 38.901421, "rental_uris": {"ios": "https://dc.lft.to/lastmile_qr_scan", "android": "https://dc.lft.to/lastmile_qr_scan"}, "is_reserved": 0, "fusion_lon": 0.0, "fusion_lat": 0.0, "lon": -77.01733233333333, "name": "1de9a7ecf28d8ba8b63343262fbc9e96"}, {"bike_id": "568024d67b10f77ee907cf3fee25df33", "type": "electric_scooter", "is_disabled": 0, "lat": 38.90692583333333, "rental_uris": {"ios": "https://dc.lft.to/lastmile_qr_scan", "android": "https://dc.lft.to/lastmile_qr_scan"}, "is_reserved": 0, "fusion_lon": 0.0, "fusion_lat": 0.0, "lon": -77.053358, "name": "568024d67b10f77ee907cf3fee25df33"}, {"bike_id": "8f4dd8642719270171cd9d3cdb73dc37", "type": "electric_scooter", "is_disabled": 0, "lat": 38.879161, "rental_uris": {"ios": "https://dc.lft.to/lastmile_qr_scan", "android": "https://dc.lft.to/lastmile_qr_scan"}, "is_reserved": 0, "fusion_lon": 0.0, "fusion_lat": 0.0, "lon": -76.99505766666667, "name": "8f4dd8642719270171cd9d3cdb73dc37"}, {"bike_id": "98a4abcd2cbffd0244c43e743bc323e4", "type": "electric_bike", "is_disabled": 0, "lat": 38.886756, "rental_uris": {"ios": "https://dc.lft.to/lastmile_qr_scan", "android": "https://dc.lft.to/lastmile_qr_scan"}, "is_reserved": 0, "fusion_lon": 0.0, "fusion_lat": 0.0, "lon": -77.16239116666667, "name": "98a4abcd2cbffd0244c43e743bc323e4"}, {"bike_id": "4ddee693e12fd03c2ffd4e674023a039", "type": "electric_scooter", "is_disabled": 0, "lat": 38.89852166666667, "rental_uris": {"ios": "https://dc.lft.to/lastmile_qr_scan", "android": "https://dc.lft.to/lastmile_qr_scan"}, "is_reserved": 0, "fusion_lon": 0.0, "fusion_lat": 0.0, "lon": -76.99031833333333, "name": "4ddee693e12fd03c2ffd4e674023a039"}, {"bike_id": "8c72c1f948199060301c82b38dde9921", "type": "electric_scooter", "is_disabled": 0, "lat": 38.912919, "rental_uris": {"ios": "https://dc.lft.to/lastmile_qr_scan", "android": "https://dc.lft.to/lastmile_qr_scan"}, "is_reserved": 0, "fusion_lon": 0.0, "fusion_lat": 0.0, "lon": -77.01978733333333, "name": "8c72c1f948199060301c82b38dde9921"}, {"bike_id": "dd688eb8c6d62d2ece1267fd7f7cbd21", "type": "electric_bike", "is_disabled": 0, "lat": 38.876938, "rental_uris": {"ios": "https://dc.lft.to/lastmile_qr_scan", "android": "https://dc.lft.to/lastmile_qr_scan"}, "is_reserved": 0, "fusion_lon": 0.0, "fusion_lat": 0.0, "lon": -77.1098305, "name": "dd688eb8c6d62d2ece1267fd7f7cbd21"}, {"bike_id": "de1c9f258f72477d570ba3837fc34c1b", "type": "electric_scooter", "is_disabled": 0, "lat": 38.89224266666667, "rental_uris": {"ios": "https://dc.lft.to/lastmile_qr_scan", "android": "https://dc.lft.to/lastmile_qr_scan"}, "is_reserved": 0, "fusion_lon": 0.0, "fusion_lat": 0.0, "lon": -77.0244535, "name": "de1c9f258f72477d570ba3837fc34c1b"}, {"bike_id": "0b2bc2e6696db25f8eef228b8145cf5e", "type": "electric_scooter", "is_disabled": 0, "lat": 38.8883935, "rental_uris": {"ios": "https://dc.lft.to/lastmile_qr_scan", "android": "https://dc.lft.to/lastmile_qr_scan"}, "is_reserved": 0, "fusion_lon": 0.0, "fusion_lat": 0.0, "lon": -76.98911066666666, "name": "0b2bc2e6696db25f8eef228b8145cf5e"}, {"bike_id": "b63a02c2ef0ceea2d9b21fac22ed149e", "type": "electric_bike", "is_disabled": 0, "lat": 38.9083245, "rental_uris": {"ios": "https://dc.lft.to/lastmile_qr_scan", "android": "https://dc.lft.to/lastmile_qr_scan"}, "is_reserved": 0, "fusion_lon": 0.0, "fusion_lat": 0.0, "lon": -76.941581, "name": "b63a02c2ef0ceea2d9b21fac22ed149e"}, {"bike_id": "147f7c380f9dd4606fd9a62596d9b200", "type": "electric_scooter", "is_disabled": 0, "lat": 38.87721966666667, "rental_uris": {"ios": "https://dc.lft.to/lastmile_qr_scan", "android": "https://dc.lft.to/lastmile_qr_scan"}, "is_reserved": 0, "fusion_lon": 0.0, "fusion_lat": 0.0, "lon": -77.017646, "name": "147f7c380f9dd4606fd9a62596d9b200"}, {"bike_id": "ee78bbc89e4867aa350ab976547d4650", "type": "electric_scooter", "is_disabled": 0, "lat": 38.927058, "rental_uris": {"ios": "https://dc.lft.to/lastmile_qr_scan", "android": "https://dc.lft.to/lastmile_qr_scan"}, "is_reserved": 0, "fusion_lon": 0.0, "fusion_lat": 0.0, "lon": -77.03730466666667, "name": "ee78bbc89e4867aa350ab976547d4650"}, {"bike_id": "0e51d4df1841aae7c2c0030aad153272", "type": "electric_scooter", "is_disabled": 0, "lat": 38.909749166666664, "rental_uris": {"ios": "https://dc.lft.to/lastmile_qr_scan", "android": "https://dc.lft.to/lastmile_qr_scan"}, "is_reserved": 0, "fusion_lon": 0.0, "fusion_lat": 0.0, "lon": -77.033782, "name": "0e51d4df1841aae7c2c0030aad153272"}, {"bike_id": "d5747cb6d99262390596088e302f8eb1", "type": "electric_scooter", "is_disabled": 0, "lat": 38.91330516666667, "rental_uris": {"ios": "https://dc.lft.to/lastmile_qr_scan", "android": "https://dc.lft.to/lastmile_qr_scan"}, "is_reserved": 0, "fusion_lon": 0.0, "fusion_lat": 0.0, "lon": -77.01521416666667, "name": "d5747cb6d99262390596088e302f8eb1"}, {"bike_id": "8b839a4320856032329269bfdba6058b", "type": "electric_scooter", "is_disabled": 0, "lat": 38.928297666666666, "rental_uris": {"ios": "https://dc.lft.to/lastmile_qr_scan", "android": "https://dc.lft.to/lastmile_qr_scan"}, "is_reserved": 0, "fusion_lon": 0.0, "fusion_lat": 0.0, "lon": -77.04348866666666, "name": "8b839a4320856032329269bfdba6058b"}, {"bike_id": "d4154f457a2b974744f11fb773a51674", "type": "electric_scooter", "is_disabled": 0, "lat": 38.92485766666667, "rental_uris": {"ios": "https://dc.lft.to/lastmile_qr_scan", "android": "https://dc.lft.to/lastmile_qr_scan"}, "is_reserved": 0, "fusion_lon": 0.0, "fusion_lat": 0.0, "lon": -77.05761666666666, "name": "d4154f457a2b974744f11fb773a51674"}, {"bike_id": "97b9ad5be93f0e878e059206398661e4", "type": "electric_scooter", "is_disabled": 0, "lat": 38.914745833333335, "rental_uris": {"ios": "https://dc.lft.to/lastmile_qr_scan", "android": "https://dc.lft.to/lastmile_qr_scan"}, "is_reserved": 0, "fusion_lon": 0.0, "fusion_lat": 0.0, "lon": -77.0320695, "name": "97b9ad5be93f0e878e059206398661e4"}, {"bike_id": "900379fd256d850f3a671694959a7564", "type": "electric_scooter", "is_disabled": 0, "lat": 38.86626916666667, "rental_uris": {"ios": "https://dc.lft.to/lastmile_qr_scan", "android": "https://dc.lft.to/lastmile_qr_scan"}, "is_reserved": 0, "fusion_lon": 0.0, "fusion_lat": 0.0, "lon": -76.98717016666667, "name": "900379fd256d850f3a671694959a7564"}, {"bike_id": "756be0e02c9ef9e159a0c04e6f663d09", "type": "electric_scooter", "is_disabled": 0, "lat": 38.915973, "rental_uris": {"ios": "https://dc.lft.to/lastmile_qr_scan", "android": "https://dc.lft.to/lastmile_qr_scan"}, "is_reserved": 0, "fusion_lon": 0.0, "fusion_lat": 0.0, "lon": -77.04515616666667, "name": "756be0e02c9ef9e159a0c04e6f663d09"}, {"bike_id": "bbd8f5f92c0c4b6826df6d2e235c9ddc", "type": "electric_bike", "is_disabled": 0, "lat": 38.874801833333336, "rental_uris": {"ios": "https://dc.lft.to/lastmile_qr_scan", "android": "https://dc.lft.to/lastmile_qr_scan"}, "is_reserved": 0, "fusion_lon": 0.0, "fusion_lat": 0.0, "lon": -76.96524033333333, "name": "bbd8f5f92c0c4b6826df6d2e235c9ddc"}, {"bike_id": "3dfb42b4697e2be978add781eb35d88e", "type": "electric_scooter", "is_disabled": 0, "lat": 38.8869825, "rental_uris": {"ios": "https://dc.lft.to/lastmile_qr_scan", "android": "https://dc.lft.to/lastmile_qr_scan"}, "is_reserved": 0, "fusion_lon": 0.0, "fusion_lat": 0.0, "lon": -76.99612366666666, "name": "3dfb42b4697e2be978add781eb35d88e"}, {"bike_id": "c296dead9a514ebe8b8adbd187fa140e", "type": "electric_scooter", "is_disabled": 0, "lat": 38.924202666666666, "rental_uris": {"ios": "https://dc.lft.to/lastmile_qr_scan", "android": "https://dc.lft.to/lastmile_qr_scan"}, "is_reserved": 0, "fusion_lon": 0.0, "fusion_lat": 0.0, "lon": -77.05061083333334, "name": "c296dead9a514ebe8b8adbd187fa140e"}, {"bike_id": "be43f436e03dfa93e19aac777dc9afb1", "type": "electric_scooter", "is_disabled": 0, "lat": 38.9563435, "rental_uris": {"ios": "https://dc.lft.to/lastmile_qr_scan", "android": "https://dc.lft.to/lastmile_qr_scan"}, "is_reserved": 0, "fusion_lon": 0.0, "fusion_lat": 0.0, "lon": -77.01161883333333, "name": "be43f436e03dfa93e19aac777dc9afb1"}, {"bike_id": "db4914fcd0f7d29df4eddf5ae3c41a61", "type": "electric_scooter", "is_disabled": 0, "lat": 38.9026025, "rental_uris": {"ios": "https://dc.lft.to/lastmile_qr_scan", "android": "https://dc.lft.to/lastmile_qr_scan"}, "is_reserved": 0, "fusion_lon": 0.0, "fusion_lat": 0.0, "lon": -77.02132283333333, "name": "db4914fcd0f7d29df4eddf5ae3c41a61"}, {"bike_id": "46898c26a5f76f6d12b4251e4cfe9771", "type": "electric_scooter", "is_disabled": 0, "lat": 38.8873945, "rental_uris": {"ios": "https://dc.lft.to/lastmile_qr_scan", "android": "https://dc.lft.to/lastmile_qr_scan"}, "is_reserved": 0, "fusion_lon": 0.0, "fusion_lat": 0.0, "lon": -77.01535533333333, "name": "46898c26a5f76f6d12b4251e4cfe9771"}, {"bike_id": "eaf711e49b3d264301035e535290042f", "type": "electric_scooter", "is_disabled": 0, "lat": 38.90167566666667, "rental_uris": {"ios": "https://dc.lft.to/lastmile_qr_scan", "android": "https://dc.lft.to/lastmile_qr_scan"}, "is_reserved": 0, "fusion_lon": 0.0, "fusion_lat": 0.0, "lon": -76.93025766666666, "name": "eaf711e49b3d264301035e535290042f"}, {"bike_id": "23b1b2e314b91c5d6fb2406d8dee0308", "type": "electric_scooter", "is_disabled": 0, "lat": 38.904027, "rental_uris": {"ios": "https://dc.lft.to/lastmile_qr_scan", "android": "https://dc.lft.to/lastmile_qr_scan"}, "is_reserved": 0, "fusion_lon": 0.0, "fusion_lat": 0.0, "lon": -77.005743, "name": "23b1b2e314b91c5d6fb2406d8dee0308"}, {"bike_id": "87083bdda2040d548753cb04d1600c89", "type": "electric_scooter", "is_disabled": 0, "lat": 38.887389166666665, "rental_uris": {"ios": "https://dc.lft.to/lastmile_qr_scan", "android": "https://dc.lft.to/lastmile_qr_scan"}, "is_reserved": 0, "fusion_lon": 0.0, "fusion_lat": 0.0, "lon": -77.015368, "name": "87083bdda2040d548753cb04d1600c89"}, {"bike_id": "a29bcc4df326b580192304d4f062c785", "type": "electric_scooter", "is_disabled": 0, "lat": 38.905058333333336, "rental_uris": {"ios": "https://dc.lft.to/lastmile_qr_scan", "android": "https://dc.lft.to/lastmile_qr_scan"}, "is_reserved": 0, "fusion_lon": 0.0, "fusion_lat": 0.0, "lon": -77.03037733333333, "name": "a29bcc4df326b580192304d4f062c785"}, {"bike_id": "8fcc16db154772a0b125bc008c0a1bcd", "type": "electric_scooter", "is_disabled": 0, "lat": 38.897292, "rental_uris": {"ios": "https://dc.lft.to/lastmile_qr_scan", "android": "https://dc.lft.to/lastmile_qr_scan"}, "is_reserved": 0, "fusion_lon": 0.0, "fusion_lat": 0.0, "lon": -77.04851933333333, "name": "8fcc16db154772a0b125bc008c0a1bcd"}, {"bike_id": "90e44eef7e71f301feabaec36f520043", "type": "electric_scooter", "is_disabled": 0, "lat": 38.8922105, "rental_uris": {"ios": "https://dc.lft.to/lastmile_qr_scan", "android": "https://dc.lft.to/lastmile_qr_scan"}, "is_reserved": 0, "fusion_lon": 0.0, "fusion_lat": 0.0, "lon": -77.03165083333333, "name": "90e44eef7e71f301feabaec36f520043"}, {"bike_id": "0cbc3e8dd740d30bc9f8bb0cc25e09e8", "type": "electric_scooter", "is_disabled": 0, "lat": 38.95651383333333, "rental_uris": {"ios": "https://dc.lft.to/lastmile_qr_scan", "android": "https://dc.lft.to/lastmile_qr_scan"}, "is_reserved": 0, "fusion_lon": 0.0, "fusion_lat": 0.0, "lon": -77.01004883333333, "name": "0cbc3e8dd740d30bc9f8bb0cc25e09e8"}, {"bike_id": "bb30e5a17c847d39442aa90e8d827775", "type": "electric_bike", "is_disabled": 0, "lat": 38.81311, "rental_uris": {"ios": "https://dc.lft.to/lastmile_qr_scan", "android": "https://dc.lft.to/lastmile_qr_scan"}, "is_reserved": 0, "fusion_lon": 0.0, "fusion_lat": 0.0, "lon": -77.10968283333334, "name": "bb30e5a17c847d39442aa90e8d827775"}, {"bike_id": "88968ba3facaee1532e2ffb549fa143a", "type": "electric_scooter", "is_disabled": 0, "lat": 38.8764025, "rental_uris": {"ios": "https://dc.lft.to/lastmile_qr_scan", "android": "https://dc.lft.to/lastmile_qr_scan"}, "is_reserved": 0, "fusion_lon": 0.0, "fusion_lat": 0.0, "lon": -77.01695733333334, "name": "88968ba3facaee1532e2ffb549fa143a"}, {"bike_id": "5eb065ca0430f57aa07d5e4fa24bb426", "type": "electric_scooter", "is_disabled": 0, "lat": 38.92052566666667, "rental_uris": {"ios": "https://dc.lft.to/lastmile_qr_scan", "android": "https://dc.lft.to/lastmile_qr_scan"}, "is_reserved": 0, "fusion_lon": 0.0, "fusion_lat": 0.0, "lon": -76.99885216666667, "name": "5eb065ca0430f57aa07d5e4fa24bb426"}, {"bike_id": "719f9a4648506bb762f3959c39b78985", "type": "electric_scooter", "is_disabled": 0, "lat": 38.93344533333333, "rental_uris": {"ios": "https://dc.lft.to/lastmile_qr_scan", "android": "https://dc.lft.to/lastmile_qr_scan"}, "is_reserved": 0, "fusion_lon": 0.0, "fusion_lat": 0.0, "lon": -77.04538466666666, "name": "719f9a4648506bb762f3959c39b78985"}, {"bike_id": "3d597c14b9e752078adab05281441bdf", "type": "electric_scooter", "is_disabled": 0, "lat": 38.89227316666667, "rental_uris": {"ios": "https://dc.lft.to/lastmile_qr_scan", "android": "https://dc.lft.to/lastmile_qr_scan"}, "is_reserved": 0, "fusion_lon": 0.0, "fusion_lat": 0.0, "lon": -77.01560483333333, "name": "3d597c14b9e752078adab05281441bdf"}, {"bike_id": "c5a48f64005095bd3294ddc7c1192049", "type": "electric_scooter", "is_disabled": 0, "lat": 38.90973833333334, "rental_uris": {"ios": "https://dc.lft.to/lastmile_qr_scan", "android": "https://dc.lft.to/lastmile_qr_scan"}, "is_reserved": 0, "fusion_lon": 0.0, "fusion_lat": 0.0, "lon": -77.02186633333334, "name": "c5a48f64005095bd3294ddc7c1192049"}, {"bike_id": "b84f622715589f3a9bbf45b336dc01eb", "type": "electric_scooter", "is_disabled": 0, "lat": 38.905306333333336, "rental_uris": {"ios": "https://dc.lft.to/lastmile_qr_scan", "android": "https://dc.lft.to/lastmile_qr_scan"}, "is_reserved": 0, "fusion_lon": 0.0, "fusion_lat": 0.0, "lon": -77.06013466666667, "name": "b84f622715589f3a9bbf45b336dc01eb"}, {"bike_id": "c3559a815d39ecb5d7ac0460eed7ee1e", "type": "electric_scooter", "is_disabled": 0, "lat": 38.87649916666667, "rental_uris": {"ios": "https://dc.lft.to/lastmile_qr_scan", "android": "https://dc.lft.to/lastmile_qr_scan"}, "is_reserved": 0, "fusion_lon": 0.0, "fusion_lat": 0.0, "lon": -76.9650895, "name": "c3559a815d39ecb5d7ac0460eed7ee1e"}, {"bike_id": "22e3ab83637a337e1776b86fcd30d847", "type": "electric_bike", "is_disabled": 0, "lat": 38.908655, "rental_uris": {"ios": "https://dc.lft.to/lastmile_qr_scan", "android": "https://dc.lft.to/lastmile_qr_scan"}, "is_reserved": 0, "fusion_lon": 0.0, "fusion_lat": 0.0, "lon": -76.99140733333333, "name": "22e3ab83637a337e1776b86fcd30d847"}, {"bike_id": "ce6ab886c584692a5b88c1acfc1b1892", "type": "electric_scooter", "is_disabled": 0, "lat": 38.921360166666666, "rental_uris": {"ios": "https://dc.lft.to/lastmile_qr_scan", "android": "https://dc.lft.to/lastmile_qr_scan"}, "is_reserved": 0, "fusion_lon": 0.0, "fusion_lat": 0.0, "lon": -77.04123066666666, "name": "ce6ab886c584692a5b88c1acfc1b1892"}, {"bike_id": "27b27da6de242e76277bba0be25328b4", "type": "electric_scooter", "is_disabled": 0, "lat": 38.90561683333333, "rental_uris": {"ios": "https://dc.lft.to/lastmile_qr_scan", "android": "https://dc.lft.to/lastmile_qr_scan"}, "is_reserved": 0, "fusion_lon": 0.0, "fusion_lat": 0.0, "lon": -77.022185, "name": "27b27da6de242e76277bba0be25328b4"}, {"bike_id": "ff48d8ea03c7e4cd8e12863790408030", "type": "electric_scooter", "is_disabled": 0, "lat": 38.923151833333336, "rental_uris": {"ios": "https://dc.lft.to/lastmile_qr_scan", "android": "https://dc.lft.to/lastmile_qr_scan"}, "is_reserved": 0, "fusion_lon": 0.0, "fusion_lat": 0.0, "lon": -77.03911666666667, "name": "ff48d8ea03c7e4cd8e12863790408030"}, {"bike_id": "40084f099179ff8f958d02022ad30869", "type": "electric_scooter", "is_disabled": 0, "lat": 38.90230866666667, "rental_uris": {"ios": "https://dc.lft.to/lastmile_qr_scan", "android": "https://dc.lft.to/lastmile_qr_scan"}, "is_reserved": 0, "fusion_lon": 0.0, "fusion_lat": 0.0, "lon": -77.06108633333334, "name": "40084f099179ff8f958d02022ad30869"}, {"bike_id": "933a8b6afa15a4bdb0cc6c4e6addeefe", "type": "electric_scooter", "is_disabled": 0, "lat": 38.90041683333333, "rental_uris": {"ios": "https://dc.lft.to/lastmile_qr_scan", "android": "https://dc.lft.to/lastmile_qr_scan"}, "is_reserved": 0, "fusion_lon": 0.0, "fusion_lat": 0.0, "lon": -77.00194633333334, "name": "933a8b6afa15a4bdb0cc6c4e6addeefe"}, {"bike_id": "d0ddedf92ba78783da91ad4849eed2d4", "type": "electric_scooter", "is_disabled": 0, "lat": 38.89338433333333, "rental_uris": {"ios": "https://dc.lft.to/lastmile_qr_scan", "android": "https://dc.lft.to/lastmile_qr_scan"}, "is_reserved": 0, "fusion_lon": 0.0, "fusion_lat": 0.0, "lon": -77.0320405, "name": "d0ddedf92ba78783da91ad4849eed2d4"}, {"bike_id": "9b6f31da9cbd5015d1ea06944b8a1259", "type": "electric_scooter", "is_disabled": 0, "lat": 38.91815316666667, "rental_uris": {"ios": "https://dc.lft.to/lastmile_qr_scan", "android": "https://dc.lft.to/lastmile_qr_scan"}, "is_reserved": 0, "fusion_lon": 0.0, "fusion_lat": 0.0, "lon": -77.03667966666667, "name": "9b6f31da9cbd5015d1ea06944b8a1259"}, {"bike_id": "836348679efa1a98f4f5634c6251e842", "type": "electric_scooter", "is_disabled": 0, "lat": 38.917084333333335, "rental_uris": {"ios": "https://dc.lft.to/lastmile_qr_scan", "android": "https://dc.lft.to/lastmile_qr_scan"}, "is_reserved": 0, "fusion_lon": 0.0, "fusion_lat": 0.0, "lon": -77.03182566666666, "name": "836348679efa1a98f4f5634c6251e842"}, {"bike_id": "2a8467f0f56b44f609587de8a86ea7d6", "type": "electric_scooter", "is_disabled": 0, "lat": 38.908562, "rental_uris": {"ios": "https://dc.lft.to/lastmile_qr_scan", "android": "https://dc.lft.to/lastmile_qr_scan"}, "is_reserved": 0, "fusion_lon": 0.0, "fusion_lat": 0.0, "lon": -76.9979785, "name": "2a8467f0f56b44f609587de8a86ea7d6"}, {"bike_id": "3442c5f3c9f0d6c7d7ce4cce26e22577", "type": "electric_scooter", "is_disabled": 0, "lat": 38.92512383333333, "rental_uris": {"ios": "https://dc.lft.to/lastmile_qr_scan", "android": "https://dc.lft.to/lastmile_qr_scan"}, "is_reserved": 0, "fusion_lon": 0.0, "fusion_lat": 0.0, "lon": -77.05235133333333, "name": "3442c5f3c9f0d6c7d7ce4cce26e22577"}, {"bike_id": "5b78c849733e6be426e4e7284e0ec139", "type": "electric_scooter", "is_disabled": 0, "lat": 38.91335383333333, "rental_uris": {"ios": "https://dc.lft.to/lastmile_qr_scan", "android": "https://dc.lft.to/lastmile_qr_scan"}, "is_reserved": 0, "fusion_lon": 0.0, "fusion_lat": 0.0, "lon": -77.04730433333333, "name": "5b78c849733e6be426e4e7284e0ec139"}, {"bike_id": "21f9a093460d36f8eca75693e8168659", "type": "electric_scooter", "is_disabled": 0, "lat": 38.89190333333333, "rental_uris": {"ios": "https://dc.lft.to/lastmile_qr_scan", "android": "https://dc.lft.to/lastmile_qr_scan"}, "is_reserved": 0, "fusion_lon": 0.0, "fusion_lat": 0.0, "lon": -77.03637216666667, "name": "21f9a093460d36f8eca75693e8168659"}, {"bike_id": "c3a7378315dc12afe79e7cddae34fcad", "type": "electric_scooter", "is_disabled": 0, "lat": 38.92250683333333, "rental_uris": {"ios": "https://dc.lft.to/lastmile_qr_scan", "android": "https://dc.lft.to/lastmile_qr_scan"}, "is_reserved": 0, "fusion_lon": 0.0, "fusion_lat": 0.0, "lon": -77.0425265, "name": "c3a7378315dc12afe79e7cddae34fcad"}, {"bike_id": "eecaa946d67bb3e2bfd622133d61c594", "type": "electric_scooter", "is_disabled": 0, "lat": 38.9240715, "rental_uris": {"ios": "https://dc.lft.to/lastmile_qr_scan", "android": "https://dc.lft.to/lastmile_qr_scan"}, "is_reserved": 0, "fusion_lon": 0.0, "fusion_lat": 0.0, "lon": -77.02018133333333, "name": "eecaa946d67bb3e2bfd622133d61c594"}, {"bike_id": "6ce07a496d627c5d13462c7070b1710c", "type": "electric_scooter", "is_disabled": 0, "lat": 38.90650466666666, "rental_uris": {"ios": "https://dc.lft.to/lastmile_qr_scan", "android": "https://dc.lft.to/lastmile_qr_scan"}, "is_reserved": 0, "fusion_lon": 0.0, "fusion_lat": 0.0, "lon": -77.05317266666667, "name": "6ce07a496d627c5d13462c7070b1710c"}, {"bike_id": "8bad4f6a6ee2021e82fba220bf52c06a", "type": "electric_scooter", "is_disabled": 0, "lat": 38.89222866666667, "rental_uris": {"ios": "https://dc.lft.to/lastmile_qr_scan", "android": "https://dc.lft.to/lastmile_qr_scan"}, "is_reserved": 0, "fusion_lon": 0.0, "fusion_lat": 0.0, "lon": -77.02225116666666, "name": "8bad4f6a6ee2021e82fba220bf52c06a"}, {"bike_id": "d839b7e37d9b770a8337efc661d24321", "type": "electric_scooter", "is_disabled": 0, "lat": 38.936067666666666, "rental_uris": {"ios": "https://dc.lft.to/lastmile_qr_scan", "android": "https://dc.lft.to/lastmile_qr_scan"}, "is_reserved": 0, "fusion_lon": 0.0, "fusion_lat": 0.0, "lon": -77.05854616666667, "name": "d839b7e37d9b770a8337efc661d24321"}, {"bike_id": "9dda7ea6b14cf2393e4c2ff9f1385544", "type": "electric_scooter", "is_disabled": 0, "lat": 38.892257666666666, "rental_uris": {"ios": "https://dc.lft.to/lastmile_qr_scan", "android": "https://dc.lft.to/lastmile_qr_scan"}, "is_reserved": 0, "fusion_lon": 0.0, "fusion_lat": 0.0, "lon": -77.025805, "name": "9dda7ea6b14cf2393e4c2ff9f1385544"}, {"bike_id": "cc645bfc02bc9cbe7901fc05ebdbb909", "type": "electric_scooter", "is_disabled": 0, "lat": 38.929096333333334, "rental_uris": {"ios": "https://dc.lft.to/lastmile_qr_scan", "android": "https://dc.lft.to/lastmile_qr_scan"}, "is_reserved": 0, "fusion_lon": 0.0, "fusion_lat": 0.0, "lon": -77.02088383333333, "name": "cc645bfc02bc9cbe7901fc05ebdbb909"}, {"bike_id": "ca74abacf3fb52e119a7c35dd6a3f083", "type": "electric_scooter", "is_disabled": 0, "lat": 38.9011255, "rental_uris": {"ios": "https://dc.lft.to/lastmile_qr_scan", "android": "https://dc.lft.to/lastmile_qr_scan"}, "is_reserved": 0, "fusion_lon": 0.0, "fusion_lat": 0.0, "lon": -77.0516525, "name": "ca74abacf3fb52e119a7c35dd6a3f083"}, {"bike_id": "96a9c676be89db8171c64cbd067b915e", "type": "electric_scooter", "is_disabled": 0, "lat": 38.9267335, "rental_uris": {"ios": "https://dc.lft.to/lastmile_qr_scan", "android": "https://dc.lft.to/lastmile_qr_scan"}, "is_reserved": 0, "fusion_lon": 0.0, "fusion_lat": 0.0, "lon": -77.01472816666667, "name": "96a9c676be89db8171c64cbd067b915e"}, {"bike_id": "39f7df7be8ba74aade94609896d278e5", "type": "electric_bike", "is_disabled": 0, "lat": 38.857686666666666, "rental_uris": {"ios": "https://dc.lft.to/lastmile_qr_scan", "android": "https://dc.lft.to/lastmile_qr_scan"}, "is_reserved": 0, "fusion_lon": 0.0, "fusion_lat": 0.0, "lon": -76.9876805, "name": "39f7df7be8ba74aade94609896d278e5"}, {"bike_id": "977e817985f2a320fea48f13683e2f54", "type": "electric_scooter", "is_disabled": 0, "lat": 38.90681883333333, "rental_uris": {"ios": "https://dc.lft.to/lastmile_qr_scan", "android": "https://dc.lft.to/lastmile_qr_scan"}, "is_reserved": 0, "fusion_lon": 0.0, "fusion_lat": 0.0, "lon": -77.02692716666667, "name": "977e817985f2a320fea48f13683e2f54"}, {"bike_id": "3e1a61ba0fcf038faacac3deb261c2ea", "type": "electric_scooter", "is_disabled": 0, "lat": 38.90524166666667, "rental_uris": {"ios": "https://dc.lft.to/lastmile_qr_scan", "android": "https://dc.lft.to/lastmile_qr_scan"}, "is_reserved": 0, "fusion_lon": 0.0, "fusion_lat": 0.0, "lon": -77.062254, "name": "3e1a61ba0fcf038faacac3deb261c2ea"}, {"bike_id": "21ec04844321257bd41bf1f7f74cd5b2", "type": "electric_scooter", "is_disabled": 0, "lat": 38.936632333333336, "rental_uris": {"ios": "https://dc.lft.to/lastmile_qr_scan", "android": "https://dc.lft.to/lastmile_qr_scan"}, "is_reserved": 0, "fusion_lon": 0.0, "fusion_lat": 0.0, "lon": -77.05501233333334, "name": "21ec04844321257bd41bf1f7f74cd5b2"}, {"bike_id": "6040bf2bebf1fc691e3f91ff3bf1fb8a", "type": "electric_scooter", "is_disabled": 0, "lat": 38.92021616666667, "rental_uris": {"ios": "https://dc.lft.to/lastmile_qr_scan", "android": "https://dc.lft.to/lastmile_qr_scan"}, "is_reserved": 0, "fusion_lon": 0.0, "fusion_lat": 0.0, "lon": -77.03150033333333, "name": "6040bf2bebf1fc691e3f91ff3bf1fb8a"}, {"bike_id": "da67e34a03c8ac7fe4d1e8ec7e669a24", "type": "electric_scooter", "is_disabled": 0, "lat": 38.922478, "rental_uris": {"ios": "https://dc.lft.to/lastmile_qr_scan", "android": "https://dc.lft.to/lastmile_qr_scan"}, "is_reserved": 0, "fusion_lon": 0.0, "fusion_lat": 0.0, "lon": -77.03909583333333, "name": "da67e34a03c8ac7fe4d1e8ec7e669a24"}, {"bike_id": "2d684ea86da28d5903d29b02f7d454ba", "type": "electric_scooter", "is_disabled": 0, "lat": 38.928249, "rental_uris": {"ios": "https://dc.lft.to/lastmile_qr_scan", "android": "https://dc.lft.to/lastmile_qr_scan"}, "is_reserved": 0, "fusion_lon": 0.0, "fusion_lat": 0.0, "lon": -77.02256883333334, "name": "2d684ea86da28d5903d29b02f7d454ba"}, {"bike_id": "b6921c7f0e0ef965d6ea940f070316c0", "type": "electric_scooter", "is_disabled": 0, "lat": 38.9155425, "rental_uris": {"ios": "https://dc.lft.to/lastmile_qr_scan", "android": "https://dc.lft.to/lastmile_qr_scan"}, "is_reserved": 0, "fusion_lon": 0.0, "fusion_lat": 0.0, "lon": -77.0351275, "name": "b6921c7f0e0ef965d6ea940f070316c0"}, {"bike_id": "ba9c51090b8a0431111ebf4657dcf968", "type": "electric_scooter", "is_disabled": 0, "lat": 38.90561866666667, "rental_uris": {"ios": "https://dc.lft.to/lastmile_qr_scan", "android": "https://dc.lft.to/lastmile_qr_scan"}, "is_reserved": 0, "fusion_lon": 0.0, "fusion_lat": 0.0, "lon": -77.02813266666666, "name": "ba9c51090b8a0431111ebf4657dcf968"}, {"bike_id": "d50a2075bb14d1512a7688170f0c4e87", "type": "electric_scooter", "is_disabled": 0, "lat": 38.919146833333336, "rental_uris": {"ios": "https://dc.lft.to/lastmile_qr_scan", "android": "https://dc.lft.to/lastmile_qr_scan"}, "is_reserved": 0, "fusion_lon": 0.0, "fusion_lat": 0.0, "lon": -77.0322095, "name": "d50a2075bb14d1512a7688170f0c4e87"}, {"bike_id": "f04a2c33d0503d26baa9d62ba1de0ec8", "type": "electric_scooter", "is_disabled": 0, "lat": 38.907528666666664, "rental_uris": {"ios": "https://dc.lft.to/lastmile_qr_scan", "android": "https://dc.lft.to/lastmile_qr_scan"}, "is_reserved": 0, "fusion_lon": 0.0, "fusion_lat": 0.0, "lon": -77.0422125, "name": "f04a2c33d0503d26baa9d62ba1de0ec8"}, {"bike_id": "d990f79cde10220f1d7bba09363c2f67", "type": "electric_scooter", "is_disabled": 0, "lat": 38.86887733333333, "rental_uris": {"ios": "https://dc.lft.to/lastmile_qr_scan", "android": "https://dc.lft.to/lastmile_qr_scan"}, "is_reserved": 0, "fusion_lon": 0.0, "fusion_lat": 0.0, "lon": -76.98443983333334, "name": "d990f79cde10220f1d7bba09363c2f67"}, {"bike_id": "ce2f95c63cd4c1f5f1332fa80c5841a7", "type": "electric_scooter", "is_disabled": 0, "lat": 38.96552033333333, "rental_uris": {"ios": "https://dc.lft.to/lastmile_qr_scan", "android": "https://dc.lft.to/lastmile_qr_scan"}, "is_reserved": 0, "fusion_lon": 0.0, "fusion_lat": 0.0, "lon": -77.0362735, "name": "ce2f95c63cd4c1f5f1332fa80c5841a7"}, {"bike_id": "37936a6b7741f19e209026df5480da4d", "type": "electric_scooter", "is_disabled": 0, "lat": 38.92247666666667, "rental_uris": {"ios": "https://dc.lft.to/lastmile_qr_scan", "android": "https://dc.lft.to/lastmile_qr_scan"}, "is_reserved": 0, "fusion_lon": 0.0, "fusion_lat": 0.0, "lon": -77.03905933333333, "name": "37936a6b7741f19e209026df5480da4d"}, {"bike_id": "37d7ee005ccb056f6e7cc4c6d52e7d10", "type": "electric_scooter", "is_disabled": 0, "lat": 38.908810833333334, "rental_uris": {"ios": "https://dc.lft.to/lastmile_qr_scan", "android": "https://dc.lft.to/lastmile_qr_scan"}, "is_reserved": 0, "fusion_lon": 0.0, "fusion_lat": 0.0, "lon": -77.0349955, "name": "37d7ee005ccb056f6e7cc4c6d52e7d10"}, {"bike_id": "0af29985ca0183eae8cbf462ccb2ddb3", "type": "electric_scooter", "is_disabled": 0, "lat": 38.955293833333336, "rental_uris": {"ios": "https://dc.lft.to/lastmile_qr_scan", "android": "https://dc.lft.to/lastmile_qr_scan"}, "is_reserved": 0, "fusion_lon": 0.0, "fusion_lat": 0.0, "lon": -77.02776816666666, "name": "0af29985ca0183eae8cbf462ccb2ddb3"}, {"bike_id": "3f9845b2b34ce9ad02328b08b7d37360", "type": "electric_bike", "is_disabled": 0, "lat": 38.83810733333333, "rental_uris": {"ios": "https://dc.lft.to/lastmile_qr_scan", "android": "https://dc.lft.to/lastmile_qr_scan"}, "is_reserved": 0, "fusion_lon": 0.0, "fusion_lat": 0.0, "lon": -77.09522416666667, "name": "3f9845b2b34ce9ad02328b08b7d37360"}, {"bike_id": "45e5ad98ecd98191410368dadfd63452", "type": "electric_scooter", "is_disabled": 0, "lat": 38.92910583333333, "rental_uris": {"ios": "https://dc.lft.to/lastmile_qr_scan", "android": "https://dc.lft.to/lastmile_qr_scan"}, "is_reserved": 0, "fusion_lon": 0.0, "fusion_lat": 0.0, "lon": -77.03186666666667, "name": "45e5ad98ecd98191410368dadfd63452"}, {"bike_id": "834d1110e5f6c1a36f82d44453061782", "type": "electric_scooter", "is_disabled": 0, "lat": 38.89537216666667, "rental_uris": {"ios": "https://dc.lft.to/lastmile_qr_scan", "android": "https://dc.lft.to/lastmile_qr_scan"}, "is_reserved": 0, "fusion_lon": 0.0, "fusion_lat": 0.0, "lon": -77.011231, "name": "834d1110e5f6c1a36f82d44453061782"}, {"bike_id": "5e3b13ea8f3f2c03f2ed48ee70f3a99d", "type": "electric_scooter", "is_disabled": 0, "lat": 38.911181166666665, "rental_uris": {"ios": "https://dc.lft.to/lastmile_qr_scan", "android": "https://dc.lft.to/lastmile_qr_scan"}, "is_reserved": 0, "fusion_lon": 0.0, "fusion_lat": 0.0, "lon": -77.04477383333334, "name": "5e3b13ea8f3f2c03f2ed48ee70f3a99d"}, {"bike_id": "afa9c1ee42ec3a309c3aec6b11d367b3", "type": "electric_scooter", "is_disabled": 0, "lat": 38.9016035, "rental_uris": {"ios": "https://dc.lft.to/lastmile_qr_scan", "android": "https://dc.lft.to/lastmile_qr_scan"}, "is_reserved": 0, "fusion_lon": 0.0, "fusion_lat": 0.0, "lon": -77.05915933333333, "name": "afa9c1ee42ec3a309c3aec6b11d367b3"}, {"bike_id": "b327c498d8dbf6f38cb0972cf2aeae55", "type": "electric_scooter", "is_disabled": 0, "lat": 38.9024435, "rental_uris": {"ios": "https://dc.lft.to/lastmile_qr_scan", "android": "https://dc.lft.to/lastmile_qr_scan"}, "is_reserved": 0, "fusion_lon": 0.0, "fusion_lat": 0.0, "lon": -77.04600533333333, "name": "b327c498d8dbf6f38cb0972cf2aeae55"}, {"bike_id": "56edc77f261d7711d8d4f93a271586e8", "type": "electric_scooter", "is_disabled": 0, "lat": 38.917682, "rental_uris": {"ios": "https://dc.lft.to/lastmile_qr_scan", "android": "https://dc.lft.to/lastmile_qr_scan"}, "is_reserved": 0, "fusion_lon": 0.0, "fusion_lat": 0.0, "lon": -77.04772516666667, "name": "56edc77f261d7711d8d4f93a271586e8"}, {"bike_id": "1dba3dc936bf8ca4b91dc7eab5694cc4", "type": "electric_bike", "is_disabled": 0, "lat": 38.91639716666667, "rental_uris": {"ios": "https://dc.lft.to/lastmile_qr_scan", "android": "https://dc.lft.to/lastmile_qr_scan"}, "is_reserved": 0, "fusion_lon": 0.0, "fusion_lat": 0.0, "lon": -77.0228435, "name": "1dba3dc936bf8ca4b91dc7eab5694cc4"}, {"bike_id": "e3747f2495d433b087aff07f1bba2f67", "type": "electric_scooter", "is_disabled": 0, "lat": 38.90309966666667, "rental_uris": {"ios": "https://dc.lft.to/lastmile_qr_scan", "android": "https://dc.lft.to/lastmile_qr_scan"}, "is_reserved": 0, "fusion_lon": 0.0, "fusion_lat": 0.0, "lon": -77.02368833333334, "name": "e3747f2495d433b087aff07f1bba2f67"}, {"bike_id": "02672f145d10030140a58e04130a141f", "type": "electric_scooter", "is_disabled": 0, "lat": 38.896166666666666, "rental_uris": {"ios": "https://dc.lft.to/lastmile_qr_scan", "android": "https://dc.lft.to/lastmile_qr_scan"}, "is_reserved": 0, "fusion_lon": 0.0, "fusion_lat": 0.0, "lon": -76.98165383333334, "name": "02672f145d10030140a58e04130a141f"}, {"bike_id": "4b1dd37820ab54402f19fa94393abe3b", "type": "electric_scooter", "is_disabled": 0, "lat": 38.913526, "rental_uris": {"ios": "https://dc.lft.to/lastmile_qr_scan", "android": "https://dc.lft.to/lastmile_qr_scan"}, "is_reserved": 0, "fusion_lon": 0.0, "fusion_lat": 0.0, "lon": -77.02571466666667, "name": "4b1dd37820ab54402f19fa94393abe3b"}, {"bike_id": "1d5d285a6bb3a6b1c8494b15266da1b4", "type": "electric_scooter", "is_disabled": 0, "lat": 38.90271216666667, "rental_uris": {"ios": "https://dc.lft.to/lastmile_qr_scan", "android": "https://dc.lft.to/lastmile_qr_scan"}, "is_reserved": 0, "fusion_lon": 0.0, "fusion_lat": 0.0, "lon": -77.01897483333333, "name": "1d5d285a6bb3a6b1c8494b15266da1b4"}, {"bike_id": "756cdda973fe36251cb52edf33cc5482", "type": "electric_scooter", "is_disabled": 0, "lat": 38.9157215, "rental_uris": {"ios": "https://dc.lft.to/lastmile_qr_scan", "android": "https://dc.lft.to/lastmile_qr_scan"}, "is_reserved": 0, "fusion_lon": 0.0, "fusion_lat": 0.0, "lon": -77.01998033333334, "name": "756cdda973fe36251cb52edf33cc5482"}, {"bike_id": "1e3679c892f8c2ac246a639f0186256c", "type": "electric_scooter", "is_disabled": 0, "lat": 38.915795, "rental_uris": {"ios": "https://dc.lft.to/lastmile_qr_scan", "android": "https://dc.lft.to/lastmile_qr_scan"}, "is_reserved": 0, "fusion_lon": 0.0, "fusion_lat": 0.0, "lon": -77.02061016666667, "name": "1e3679c892f8c2ac246a639f0186256c"}, {"bike_id": "bb56895f064cf2cf40b85c842e4df932", "type": "electric_scooter", "is_disabled": 0, "lat": 38.90684866666667, "rental_uris": {"ios": "https://dc.lft.to/lastmile_qr_scan", "android": "https://dc.lft.to/lastmile_qr_scan"}, "is_reserved": 0, "fusion_lon": 0.0, "fusion_lat": 0.0, "lon": -77.02692333333333, "name": "bb56895f064cf2cf40b85c842e4df932"}, {"bike_id": "9c5a2f3b544734311a16316328fd76a4", "type": "electric_scooter", "is_disabled": 0, "lat": 38.93543716666667, "rental_uris": {"ios": "https://dc.lft.to/lastmile_qr_scan", "android": "https://dc.lft.to/lastmile_qr_scan"}, "is_reserved": 0, "fusion_lon": 0.0, "fusion_lat": 0.0, "lon": -77.05827083333334, "name": "9c5a2f3b544734311a16316328fd76a4"}, {"bike_id": "6a047cb9e1ee58400854d5823f662fd1", "type": "electric_bike", "is_disabled": 0, "lat": 38.83670583333333, "rental_uris": {"ios": "https://dc.lft.to/lastmile_qr_scan", "android": "https://dc.lft.to/lastmile_qr_scan"}, "is_reserved": 0, "fusion_lon": 0.0, "fusion_lat": 0.0, "lon": -76.99359416666667, "name": "6a047cb9e1ee58400854d5823f662fd1"}, {"bike_id": "6f7b5b35c603cd2577689873c5041eb9", "type": "electric_scooter", "is_disabled": 0, "lat": 38.9014495, "rental_uris": {"ios": "https://dc.lft.to/lastmile_qr_scan", "android": "https://dc.lft.to/lastmile_qr_scan"}, "is_reserved": 0, "fusion_lon": 0.0, "fusion_lat": 0.0, "lon": -77.02868283333333, "name": "6f7b5b35c603cd2577689873c5041eb9"}, {"bike_id": "22c9de9c255d5b2df008046be17b88e4", "type": "electric_scooter", "is_disabled": 0, "lat": 38.93479083333333, "rental_uris": {"ios": "https://dc.lft.to/lastmile_qr_scan", "android": "https://dc.lft.to/lastmile_qr_scan"}, "is_reserved": 0, "fusion_lon": 0.0, "fusion_lat": 0.0, "lon": -77.02613216666667, "name": "22c9de9c255d5b2df008046be17b88e4"}, {"bike_id": "48679ceb32a0412752b50df7f2db8a6f", "type": "electric_scooter", "is_disabled": 0, "lat": 38.90065966666667, "rental_uris": {"ios": "https://dc.lft.to/lastmile_qr_scan", "android": "https://dc.lft.to/lastmile_qr_scan"}, "is_reserved": 0, "fusion_lon": 0.0, "fusion_lat": 0.0, "lon": -77.0309165, "name": "48679ceb32a0412752b50df7f2db8a6f"}, {"bike_id": "36619e191c2b23727971a2d7ec2f2b3f", "type": "electric_scooter", "is_disabled": 0, "lat": 38.914022333333335, "rental_uris": {"ios": "https://dc.lft.to/lastmile_qr_scan", "android": "https://dc.lft.to/lastmile_qr_scan"}, "is_reserved": 0, "fusion_lon": 0.0, "fusion_lat": 0.0, "lon": -77.03145266666667, "name": "36619e191c2b23727971a2d7ec2f2b3f"}, {"bike_id": "0402d9a3d0cbb57ad9bb266709982b62", "type": "electric_scooter", "is_disabled": 0, "lat": 38.9273885, "rental_uris": {"ios": "https://dc.lft.to/lastmile_qr_scan", "android": "https://dc.lft.to/lastmile_qr_scan"}, "is_reserved": 0, "fusion_lon": 0.0, "fusion_lat": 0.0, "lon": -77.03390033333334, "name": "0402d9a3d0cbb57ad9bb266709982b62"}, {"bike_id": "1429efded2fb7439a2d846280ba77862", "type": "electric_scooter", "is_disabled": 0, "lat": 38.8994225, "rental_uris": {"ios": "https://dc.lft.to/lastmile_qr_scan", "android": "https://dc.lft.to/lastmile_qr_scan"}, "is_reserved": 0, "fusion_lon": 0.0, "fusion_lat": 0.0, "lon": -77.04762, "name": "1429efded2fb7439a2d846280ba77862"}, {"bike_id": "c808f8c80f7fb253cb22acaaf7fdfb30", "type": "electric_scooter", "is_disabled": 0, "lat": 38.915563666666664, "rental_uris": {"ios": "https://dc.lft.to/lastmile_qr_scan", "android": "https://dc.lft.to/lastmile_qr_scan"}, "is_reserved": 0, "fusion_lon": 0.0, "fusion_lat": 0.0, "lon": -77.03437633333333, "name": "c808f8c80f7fb253cb22acaaf7fdfb30"}, {"bike_id": "dbd7aab8687a1a21c9df2c8c43716650", "type": "electric_scooter", "is_disabled": 0, "lat": 38.89221283333333, "rental_uris": {"ios": "https://dc.lft.to/lastmile_qr_scan", "android": "https://dc.lft.to/lastmile_qr_scan"}, "is_reserved": 0, "fusion_lon": 0.0, "fusion_lat": 0.0, "lon": -77.0173175, "name": "dbd7aab8687a1a21c9df2c8c43716650"}, {"bike_id": "57edf95a8da47a23ad40b33ee3876e96", "type": "electric_scooter", "is_disabled": 0, "lat": 38.91249583333333, "rental_uris": {"ios": "https://dc.lft.to/lastmile_qr_scan", "android": "https://dc.lft.to/lastmile_qr_scan"}, "is_reserved": 0, "fusion_lon": 0.0, "fusion_lat": 0.0, "lon": -77.03856533333334, "name": "57edf95a8da47a23ad40b33ee3876e96"}, {"bike_id": "2b9e7351d26e0d3ee79ab259d20816a5", "type": "electric_bike", "is_disabled": 0, "lat": 38.9244445, "rental_uris": {"ios": "https://dc.lft.to/lastmile_qr_scan", "android": "https://dc.lft.to/lastmile_qr_scan"}, "is_reserved": 0, "fusion_lon": 0.0, "fusion_lat": 0.0, "lon": -77.225813, "name": "2b9e7351d26e0d3ee79ab259d20816a5"}, {"bike_id": "2bb6bafa7951b7f8fb0cb969d9aaf696", "type": "electric_scooter", "is_disabled": 0, "lat": 38.923615, "rental_uris": {"ios": "https://dc.lft.to/lastmile_qr_scan", "android": "https://dc.lft.to/lastmile_qr_scan"}, "is_reserved": 0, "fusion_lon": 0.0, "fusion_lat": 0.0, "lon": -77.05127333333333, "name": "2bb6bafa7951b7f8fb0cb969d9aaf696"}, {"bike_id": "83dd5905331e4843110a7f245bf33a6f", "type": "electric_scooter", "is_disabled": 0, "lat": 38.92219383333333, "rental_uris": {"ios": "https://dc.lft.to/lastmile_qr_scan", "android": "https://dc.lft.to/lastmile_qr_scan"}, "is_reserved": 0, "fusion_lon": 0.0, "fusion_lat": 0.0, "lon": -77.0266565, "name": "83dd5905331e4843110a7f245bf33a6f"}, {"bike_id": "9101cf6d37383e5da2aca64d9d914656", "type": "electric_scooter", "is_disabled": 0, "lat": 38.91425233333333, "rental_uris": {"ios": "https://dc.lft.to/lastmile_qr_scan", "android": "https://dc.lft.to/lastmile_qr_scan"}, "is_reserved": 0, "fusion_lon": 0.0, "fusion_lat": 0.0, "lon": -77.03275816666667, "name": "9101cf6d37383e5da2aca64d9d914656"}, {"bike_id": "988fc2911c04ef95820ad26795d775e7", "type": "electric_scooter", "is_disabled": 0, "lat": 38.915538, "rental_uris": {"ios": "https://dc.lft.to/lastmile_qr_scan", "android": "https://dc.lft.to/lastmile_qr_scan"}, "is_reserved": 0, "fusion_lon": 0.0, "fusion_lat": 0.0, "lon": -77.03254766666667, "name": "988fc2911c04ef95820ad26795d775e7"}, {"bike_id": "8ab93e2863ff0bb59b4070b8a34f0bcf", "type": "electric_scooter", "is_disabled": 0, "lat": 38.91271166666667, "rental_uris": {"ios": "https://dc.lft.to/lastmile_qr_scan", "android": "https://dc.lft.to/lastmile_qr_scan"}, "is_reserved": 0, "fusion_lon": 0.0, "fusion_lat": 0.0, "lon": -77.01676166666667, "name": "8ab93e2863ff0bb59b4070b8a34f0bcf"}, {"bike_id": "eb228f9c9c9cd9a5dadc58488a04c030", "type": "electric_scooter", "is_disabled": 0, "lat": 38.9189755, "rental_uris": {"ios": "https://dc.lft.to/lastmile_qr_scan", "android": "https://dc.lft.to/lastmile_qr_scan"}, "is_reserved": 0, "fusion_lon": 0.0, "fusion_lat": 0.0, "lon": -77.00315416666666, "name": "eb228f9c9c9cd9a5dadc58488a04c030"}, {"bike_id": "ba2e1b473b4538d7cc14a7127e1cd002", "type": "electric_scooter", "is_disabled": 0, "lat": 38.9188645, "rental_uris": {"ios": "https://dc.lft.to/lastmile_qr_scan", "android": "https://dc.lft.to/lastmile_qr_scan"}, "is_reserved": 0, "fusion_lon": 0.0, "fusion_lat": 0.0, "lon": -77.034849, "name": "ba2e1b473b4538d7cc14a7127e1cd002"}, {"bike_id": "986afaec1f6ba163ba32c6e6361cb5f9", "type": "electric_scooter", "is_disabled": 0, "lat": 38.916932333333335, "rental_uris": {"ios": "https://dc.lft.to/lastmile_qr_scan", "android": "https://dc.lft.to/lastmile_qr_scan"}, "is_reserved": 0, "fusion_lon": 0.0, "fusion_lat": 0.0, "lon": -77.01050966666666, "name": "986afaec1f6ba163ba32c6e6361cb5f9"}, {"bike_id": "7d4cea1b7fa3f3fbf330ef0da3c49431", "type": "electric_scooter", "is_disabled": 0, "lat": 38.90219466666667, "rental_uris": {"ios": "https://dc.lft.to/lastmile_qr_scan", "android": "https://dc.lft.to/lastmile_qr_scan"}, "is_reserved": 0, "fusion_lon": 0.0, "fusion_lat": 0.0, "lon": -77.051221, "name": "7d4cea1b7fa3f3fbf330ef0da3c49431"}, {"bike_id": "1fa5af521df44e11a967e6936597297b", "type": "electric_scooter", "is_disabled": 0, "lat": 38.92851316666667, "rental_uris": {"ios": "https://dc.lft.to/lastmile_qr_scan", "android": "https://dc.lft.to/lastmile_qr_scan"}, "is_reserved": 0, "fusion_lon": 0.0, "fusion_lat": 0.0, "lon": -77.032903, "name": "1fa5af521df44e11a967e6936597297b"}, {"bike_id": "7f7a15f78268cce414ae4079f060965f", "type": "electric_scooter", "is_disabled": 0, "lat": 38.909705, "rental_uris": {"ios": "https://dc.lft.to/lastmile_qr_scan", "android": "https://dc.lft.to/lastmile_qr_scan"}, "is_reserved": 0, "fusion_lon": 0.0, "fusion_lat": 0.0, "lon": -77.0452045, "name": "7f7a15f78268cce414ae4079f060965f"}, {"bike_id": "9eca3cf7c4f5af0e7629ee48a6028ea9", "type": "electric_scooter", "is_disabled": 0, "lat": 38.9287115, "rental_uris": {"ios": "https://dc.lft.to/lastmile_qr_scan", "android": "https://dc.lft.to/lastmile_qr_scan"}, "is_reserved": 0, "fusion_lon": 0.0, "fusion_lat": 0.0, "lon": -77.01367133333333, "name": "9eca3cf7c4f5af0e7629ee48a6028ea9"}, {"bike_id": "2f21299a4ab972d1ac723e25ffa3f43b", "type": "electric_bike", "is_disabled": 0, "lat": 38.90829316666667, "rental_uris": {"ios": "https://dc.lft.to/lastmile_qr_scan", "android": "https://dc.lft.to/lastmile_qr_scan"}, "is_reserved": 0, "fusion_lon": 0.0, "fusion_lat": 0.0, "lon": -76.9415455, "name": "2f21299a4ab972d1ac723e25ffa3f43b"}, {"bike_id": "d3cff0572079cd7421924a5468acd76e", "type": "electric_bike", "is_disabled": 0, "lat": 39.03740883333333, "rental_uris": {"ios": "https://dc.lft.to/lastmile_qr_scan", "android": "https://dc.lft.to/lastmile_qr_scan"}, "is_reserved": 0, "fusion_lon": 0.0, "fusion_lat": 0.0, "lon": -77.05481033333334, "name": "d3cff0572079cd7421924a5468acd76e"}, {"bike_id": "039eb149c2716e0112b9e4379e2c7f74", "type": "electric_bike", "is_disabled": 0, "lat": 39.05497066666667, "rental_uris": {"ios": "https://dc.lft.to/lastmile_qr_scan", "android": "https://dc.lft.to/lastmile_qr_scan"}, "is_reserved": 0, "fusion_lon": 0.0, "fusion_lat": 0.0, "lon": -77.11789933333333, "name": "039eb149c2716e0112b9e4379e2c7f74"}, {"bike_id": "23c1df37ac7b3235533f0fee0a72379c", "type": "electric_scooter", "is_disabled": 0, "lat": 38.903990666666665, "rental_uris": {"ios": "https://dc.lft.to/lastmile_qr_scan", "android": "https://dc.lft.to/lastmile_qr_scan"}, "is_reserved": 0, "fusion_lon": 0.0, "fusion_lat": 0.0, "lon": -77.00577033333333, "name": "23c1df37ac7b3235533f0fee0a72379c"}, {"bike_id": "c5b3e26c682b61f3f62321f7fab06470", "type": "electric_scooter", "is_disabled": 0, "lat": 38.905448166666666, "rental_uris": {"ios": "https://dc.lft.to/lastmile_qr_scan", "android": "https://dc.lft.to/lastmile_qr_scan"}, "is_reserved": 0, "fusion_lon": 0.0, "fusion_lat": 0.0, "lon": -77.068905, "name": "c5b3e26c682b61f3f62321f7fab06470"}, {"bike_id": "65479fe4ce71f710420dae1ec93f0988", "type": "electric_scooter", "is_disabled": 0, "lat": 38.887458333333335, "rental_uris": {"ios": "https://dc.lft.to/lastmile_qr_scan", "android": "https://dc.lft.to/lastmile_qr_scan"}, "is_reserved": 0, "fusion_lon": 0.0, "fusion_lat": 0.0, "lon": -76.99626616666667, "name": "65479fe4ce71f710420dae1ec93f0988"}, {"bike_id": "24f9fb38b6b6e0ba515c8fc9fcfc945e", "type": "electric_scooter", "is_disabled": 0, "lat": 38.9151985, "rental_uris": {"ios": "https://dc.lft.to/lastmile_qr_scan", "android": "https://dc.lft.to/lastmile_qr_scan"}, "is_reserved": 0, "fusion_lon": 0.0, "fusion_lat": 0.0, "lon": -77.04174066666667, "name": "24f9fb38b6b6e0ba515c8fc9fcfc945e"}, {"bike_id": "4ace315ea06ec11efa32772265658794", "type": "electric_scooter", "is_disabled": 0, "lat": 38.87724733333334, "rental_uris": {"ios": "https://dc.lft.to/lastmile_qr_scan", "android": "https://dc.lft.to/lastmile_qr_scan"}, "is_reserved": 0, "fusion_lon": 0.0, "fusion_lat": 0.0, "lon": -77.01757483333333, "name": "4ace315ea06ec11efa32772265658794"}, {"bike_id": "1632eea37f1b2134f18f86db1059c2aa", "type": "electric_scooter", "is_disabled": 0, "lat": 38.917554833333334, "rental_uris": {"ios": "https://dc.lft.to/lastmile_qr_scan", "android": "https://dc.lft.to/lastmile_qr_scan"}, "is_reserved": 0, "fusion_lon": 0.0, "fusion_lat": 0.0, "lon": -77.03659583333334, "name": "1632eea37f1b2134f18f86db1059c2aa"}, {"bike_id": "92cbd50d1a64833b8f675932c617b71b", "type": "electric_scooter", "is_disabled": 0, "lat": 38.89076566666667, "rental_uris": {"ios": "https://dc.lft.to/lastmile_qr_scan", "android": "https://dc.lft.to/lastmile_qr_scan"}, "is_reserved": 0, "fusion_lon": 0.0, "fusion_lat": 0.0, "lon": -77.01508733333333, "name": "92cbd50d1a64833b8f675932c617b71b"}, {"bike_id": "1813c47fa02922741d215441f464052d", "type": "electric_scooter", "is_disabled": 0, "lat": 38.9260665, "rental_uris": {"ios": "https://dc.lft.to/lastmile_qr_scan", "android": "https://dc.lft.to/lastmile_qr_scan"}, "is_reserved": 0, "fusion_lon": 0.0, "fusion_lat": 0.0, "lon": -77.10234116666666, "name": "1813c47fa02922741d215441f464052d"}, {"bike_id": "add50a01ad99a24c6c7dd859d2c7e0e5", "type": "electric_scooter", "is_disabled": 0, "lat": 38.8984215, "rental_uris": {"ios": "https://dc.lft.to/lastmile_qr_scan", "android": "https://dc.lft.to/lastmile_qr_scan"}, "is_reserved": 0, "fusion_lon": 0.0, "fusion_lat": 0.0, "lon": -76.94632683333333, "name": "add50a01ad99a24c6c7dd859d2c7e0e5"}, {"bike_id": "a6ad690b9c9ae9a09a5e7b77ef847ed9", "type": "electric_scooter", "is_disabled": 0, "lat": 38.917086166666664, "rental_uris": {"ios": "https://dc.lft.to/lastmile_qr_scan", "android": "https://dc.lft.to/lastmile_qr_scan"}, "is_reserved": 0, "fusion_lon": 0.0, "fusion_lat": 0.0, "lon": -77.02410633333334, "name": "a6ad690b9c9ae9a09a5e7b77ef847ed9"}, {"bike_id": "8547d534231dfebb17f6a01e293e0629", "type": "electric_scooter", "is_disabled": 0, "lat": 38.901413166666664, "rental_uris": {"ios": "https://dc.lft.to/lastmile_qr_scan", "android": "https://dc.lft.to/lastmile_qr_scan"}, "is_reserved": 0, "fusion_lon": 0.0, "fusion_lat": 0.0, "lon": -77.05106633333334, "name": "8547d534231dfebb17f6a01e293e0629"}, {"bike_id": "43e3162400f9f53b844def2a2f63097c", "type": "electric_scooter", "is_disabled": 0, "lat": 38.9265475, "rental_uris": {"ios": "https://dc.lft.to/lastmile_qr_scan", "android": "https://dc.lft.to/lastmile_qr_scan"}, "is_reserved": 0, "fusion_lon": 0.0, "fusion_lat": 0.0, "lon": -77.03728983333333, "name": "43e3162400f9f53b844def2a2f63097c"}, {"bike_id": "674eb5267c52750718afe5bb13569a58", "type": "electric_scooter", "is_disabled": 0, "lat": 38.915859166666664, "rental_uris": {"ios": "https://dc.lft.to/lastmile_qr_scan", "android": "https://dc.lft.to/lastmile_qr_scan"}, "is_reserved": 0, "fusion_lon": 0.0, "fusion_lat": 0.0, "lon": -77.044752, "name": "674eb5267c52750718afe5bb13569a58"}, {"bike_id": "a268b18d2862025b0f4fec490ebabcd8", "type": "electric_scooter", "is_disabled": 0, "lat": 38.89631983333334, "rental_uris": {"ios": "https://dc.lft.to/lastmile_qr_scan", "android": "https://dc.lft.to/lastmile_qr_scan"}, "is_reserved": 0, "fusion_lon": 0.0, "fusion_lat": 0.0, "lon": -77.03314966666667, "name": "a268b18d2862025b0f4fec490ebabcd8"}, {"bike_id": "599ef455d533e5d0e0f83543c23e1322", "type": "electric_scooter", "is_disabled": 0, "lat": 38.92922183333334, "rental_uris": {"ios": "https://dc.lft.to/lastmile_qr_scan", "android": "https://dc.lft.to/lastmile_qr_scan"}, "is_reserved": 0, "fusion_lon": 0.0, "fusion_lat": 0.0, "lon": -77.03300133333333, "name": "599ef455d533e5d0e0f83543c23e1322"}, {"bike_id": "80a85134f702756a91e83f5bef0a5ece", "type": "electric_scooter", "is_disabled": 0, "lat": 38.933637166666664, "rental_uris": {"ios": "https://dc.lft.to/lastmile_qr_scan", "android": "https://dc.lft.to/lastmile_qr_scan"}, "is_reserved": 0, "fusion_lon": 0.0, "fusion_lat": 0.0, "lon": -77.08855033333333, "name": "80a85134f702756a91e83f5bef0a5ece"}, {"bike_id": "96b1aeb81ef13a7b0a3f250934e308d6", "type": "electric_scooter", "is_disabled": 0, "lat": 38.923807833333335, "rental_uris": {"ios": "https://dc.lft.to/lastmile_qr_scan", "android": "https://dc.lft.to/lastmile_qr_scan"}, "is_reserved": 0, "fusion_lon": 0.0, "fusion_lat": 0.0, "lon": -77.019301, "name": "96b1aeb81ef13a7b0a3f250934e308d6"}, {"bike_id": "a8ed92aa27e23db9ecf80c0f6eb4b96c", "type": "electric_scooter", "is_disabled": 0, "lat": 38.86627516666667, "rental_uris": {"ios": "https://dc.lft.to/lastmile_qr_scan", "android": "https://dc.lft.to/lastmile_qr_scan"}, "is_reserved": 0, "fusion_lon": 0.0, "fusion_lat": 0.0, "lon": -76.98718883333333, "name": "a8ed92aa27e23db9ecf80c0f6eb4b96c"}, {"bike_id": "bb7767fa6204cc5adc0b1051db4b39c6", "type": "electric_scooter", "is_disabled": 0, "lat": 38.904033166666665, "rental_uris": {"ios": "https://dc.lft.to/lastmile_qr_scan", "android": "https://dc.lft.to/lastmile_qr_scan"}, "is_reserved": 0, "fusion_lon": 0.0, "fusion_lat": 0.0, "lon": -77.0241195, "name": "bb7767fa6204cc5adc0b1051db4b39c6"}, {"bike_id": "149ad57286661fbe4958e2581a3a482c", "type": "electric_scooter", "is_disabled": 0, "lat": 38.903123, "rental_uris": {"ios": "https://dc.lft.to/lastmile_qr_scan", "android": "https://dc.lft.to/lastmile_qr_scan"}, "is_reserved": 0, "fusion_lon": 0.0, "fusion_lat": 0.0, "lon": -76.98357583333333, "name": "149ad57286661fbe4958e2581a3a482c"}, {"bike_id": "345ab0c473ad7e57f90d4b2a091a6934", "type": "electric_scooter", "is_disabled": 0, "lat": 38.927532, "rental_uris": {"ios": "https://dc.lft.to/lastmile_qr_scan", "android": "https://dc.lft.to/lastmile_qr_scan"}, "is_reserved": 0, "fusion_lon": 0.0, "fusion_lat": 0.0, "lon": -77.02430616666666, "name": "345ab0c473ad7e57f90d4b2a091a6934"}, {"bike_id": "c91cb06c0b00983eb6d4d152e89f9a0e", "type": "electric_scooter", "is_disabled": 0, "lat": 38.915416666666665, "rental_uris": {"ios": "https://dc.lft.to/lastmile_qr_scan", "android": "https://dc.lft.to/lastmile_qr_scan"}, "is_reserved": 0, "fusion_lon": 0.0, "fusion_lat": 0.0, "lon": -77.012696, "name": "c91cb06c0b00983eb6d4d152e89f9a0e"}, {"bike_id": "e0f85d7ab07ee29f5575142c5d76f977", "type": "electric_scooter", "is_disabled": 0, "lat": 38.93616333333333, "rental_uris": {"ios": "https://dc.lft.to/lastmile_qr_scan", "android": "https://dc.lft.to/lastmile_qr_scan"}, "is_reserved": 0, "fusion_lon": 0.0, "fusion_lat": 0.0, "lon": -77.06756483333334, "name": "e0f85d7ab07ee29f5575142c5d76f977"}, {"bike_id": "6690311a811e4489265d3b778cbfa1f7", "type": "electric_scooter", "is_disabled": 0, "lat": 38.936876833333336, "rental_uris": {"ios": "https://dc.lft.to/lastmile_qr_scan", "android": "https://dc.lft.to/lastmile_qr_scan"}, "is_reserved": 0, "fusion_lon": 0.0, "fusion_lat": 0.0, "lon": -77.01944733333333, "name": "6690311a811e4489265d3b778cbfa1f7"}, {"bike_id": "afd67bb7e88198ebca5b7c8f8e3b5388", "type": "electric_scooter", "is_disabled": 0, "lat": 38.9361195, "rental_uris": {"ios": "https://dc.lft.to/lastmile_qr_scan", "android": "https://dc.lft.to/lastmile_qr_scan"}, "is_reserved": 0, "fusion_lon": 0.0, "fusion_lat": 0.0, "lon": -77.037994, "name": "afd67bb7e88198ebca5b7c8f8e3b5388"}, {"bike_id": "c993aaa48eda9a5dd6487b4ad07c9945", "type": "electric_scooter", "is_disabled": 0, "lat": 38.916132833333336, "rental_uris": {"ios": "https://dc.lft.to/lastmile_qr_scan", "android": "https://dc.lft.to/lastmile_qr_scan"}, "is_reserved": 0, "fusion_lon": 0.0, "fusion_lat": 0.0, "lon": -77.02305666666666, "name": "c993aaa48eda9a5dd6487b4ad07c9945"}, {"bike_id": "f1e21df0e5c4145553a161f2d3f99226", "type": "electric_scooter", "is_disabled": 0, "lat": 38.92416633333333, "rental_uris": {"ios": "https://dc.lft.to/lastmile_qr_scan", "android": "https://dc.lft.to/lastmile_qr_scan"}, "is_reserved": 0, "fusion_lon": 0.0, "fusion_lat": 0.0, "lon": -77.020099, "name": "f1e21df0e5c4145553a161f2d3f99226"}, {"bike_id": "ead86231de184db73f6ab7dac3b0579d", "type": "electric_scooter", "is_disabled": 0, "lat": 38.89872583333333, "rental_uris": {"ios": "https://dc.lft.to/lastmile_qr_scan", "android": "https://dc.lft.to/lastmile_qr_scan"}, "is_reserved": 0, "fusion_lon": 0.0, "fusion_lat": 0.0, "lon": -77.02166616666666, "name": "ead86231de184db73f6ab7dac3b0579d"}, {"bike_id": "f30862dc25b94fb4094af017b24a1a34", "type": "electric_scooter", "is_disabled": 0, "lat": 38.90561866666667, "rental_uris": {"ios": "https://dc.lft.to/lastmile_qr_scan", "android": "https://dc.lft.to/lastmile_qr_scan"}, "is_reserved": 0, "fusion_lon": 0.0, "fusion_lat": 0.0, "lon": -77.00562266666667, "name": "f30862dc25b94fb4094af017b24a1a34"}, {"bike_id": "b43e3c58dd05dc6bb05f623c8a31cab9", "type": "electric_bike", "is_disabled": 0, "lat": 38.873014166666664, "rental_uris": {"ios": "https://dc.lft.to/lastmile_qr_scan", "android": "https://dc.lft.to/lastmile_qr_scan"}, "is_reserved": 0, "fusion_lon": 0.0, "fusion_lat": 0.0, "lon": -77.13927316666667, "name": "b43e3c58dd05dc6bb05f623c8a31cab9"}, {"bike_id": "7242e88a2c00c75dd2826fe01d7394b4", "type": "electric_scooter", "is_disabled": 0, "lat": 38.9449175, "rental_uris": {"ios": "https://dc.lft.to/lastmile_qr_scan", "android": "https://dc.lft.to/lastmile_qr_scan"}, "is_reserved": 0, "fusion_lon": 0.0, "fusion_lat": 0.0, "lon": -77.06407933333334, "name": "7242e88a2c00c75dd2826fe01d7394b4"}, {"bike_id": "10559a5df9e1ea06bf8d6ac918b27fc6", "type": "electric_scooter", "is_disabled": 0, "lat": 38.909744333333336, "rental_uris": {"ios": "https://dc.lft.to/lastmile_qr_scan", "android": "https://dc.lft.to/lastmile_qr_scan"}, "is_reserved": 0, "fusion_lon": 0.0, "fusion_lat": 0.0, "lon": -77.03363366666666, "name": "10559a5df9e1ea06bf8d6ac918b27fc6"}, {"bike_id": "5a0c6753bfd30997966a2529e65d8391", "type": "electric_scooter", "is_disabled": 0, "lat": 38.919130333333335, "rental_uris": {"ios": "https://dc.lft.to/lastmile_qr_scan", "android": "https://dc.lft.to/lastmile_qr_scan"}, "is_reserved": 0, "fusion_lon": 0.0, "fusion_lat": 0.0, "lon": -77.03417316666666, "name": "5a0c6753bfd30997966a2529e65d8391"}, {"bike_id": "a7e732df630076675704b8ea37c3783a", "type": "electric_scooter", "is_disabled": 0, "lat": 38.89869066666667, "rental_uris": {"ios": "https://dc.lft.to/lastmile_qr_scan", "android": "https://dc.lft.to/lastmile_qr_scan"}, "is_reserved": 0, "fusion_lon": 0.0, "fusion_lat": 0.0, "lon": -76.94662783333334, "name": "a7e732df630076675704b8ea37c3783a"}, {"bike_id": "95be4408e82418c265b6d147cff00466", "type": "electric_scooter", "is_disabled": 0, "lat": 38.865055166666664, "rental_uris": {"ios": "https://dc.lft.to/lastmile_qr_scan", "android": "https://dc.lft.to/lastmile_qr_scan"}, "is_reserved": 0, "fusion_lon": 0.0, "fusion_lat": 0.0, "lon": -76.99001083333333, "name": "95be4408e82418c265b6d147cff00466"}, {"bike_id": "3fdc1faf5714059278c67b9fc0fa3668", "type": "electric_scooter", "is_disabled": 0, "lat": 38.917852333333336, "rental_uris": {"ios": "https://dc.lft.to/lastmile_qr_scan", "android": "https://dc.lft.to/lastmile_qr_scan"}, "is_reserved": 0, "fusion_lon": 0.0, "fusion_lat": 0.0, "lon": -77.036533, "name": "3fdc1faf5714059278c67b9fc0fa3668"}, {"bike_id": "c702a0b84a198e5823a7afd68b16a7a1", "type": "electric_scooter", "is_disabled": 0, "lat": 38.88989883333333, "rental_uris": {"ios": "https://dc.lft.to/lastmile_qr_scan", "android": "https://dc.lft.to/lastmile_qr_scan"}, "is_reserved": 0, "fusion_lon": 0.0, "fusion_lat": 0.0, "lon": -77.0003925, "name": "c702a0b84a198e5823a7afd68b16a7a1"}, {"bike_id": "3849fab74607deec5130cf500a7e4f26", "type": "electric_bike", "is_disabled": 0, "lat": 38.853571, "rental_uris": {"ios": "https://dc.lft.to/lastmile_qr_scan", "android": "https://dc.lft.to/lastmile_qr_scan"}, "is_reserved": 0, "fusion_lon": 0.0, "fusion_lat": 0.0, "lon": -77.08684683333334, "name": "3849fab74607deec5130cf500a7e4f26"}, {"bike_id": "9186cd8ada6896c1dd5528c7b0197bd3", "type": "electric_scooter", "is_disabled": 0, "lat": 38.90729, "rental_uris": {"ios": "https://dc.lft.to/lastmile_qr_scan", "android": "https://dc.lft.to/lastmile_qr_scan"}, "is_reserved": 0, "fusion_lon": 0.0, "fusion_lat": 0.0, "lon": -77.01135533333333, "name": "9186cd8ada6896c1dd5528c7b0197bd3"}, {"bike_id": "e1b880ab1dca34b8037203ca6d12c206", "type": "electric_bike", "is_disabled": 0, "lat": 38.95620533333334, "rental_uris": {"ios": "https://dc.lft.to/lastmile_qr_scan", "android": "https://dc.lft.to/lastmile_qr_scan"}, "is_reserved": 0, "fusion_lon": 0.0, "fusion_lat": 0.0, "lon": -77.02594266666667, "name": "e1b880ab1dca34b8037203ca6d12c206"}, {"bike_id": "933348fa1aff0cd75b4ffa3fe47cbf81", "type": "electric_scooter", "is_disabled": 0, "lat": 38.905996333333334, "rental_uris": {"ios": "https://dc.lft.to/lastmile_qr_scan", "android": "https://dc.lft.to/lastmile_qr_scan"}, "is_reserved": 0, "fusion_lon": 0.0, "fusion_lat": 0.0, "lon": -77.06300966666667, "name": "933348fa1aff0cd75b4ffa3fe47cbf81"}, {"bike_id": "6aaf11d5292465703c1f1af48e155a08", "type": "electric_scooter", "is_disabled": 0, "lat": 38.913736666666665, "rental_uris": {"ios": "https://dc.lft.to/lastmile_qr_scan", "android": "https://dc.lft.to/lastmile_qr_scan"}, "is_reserved": 0, "fusion_lon": 0.0, "fusion_lat": 0.0, "lon": -77.03019316666666, "name": "6aaf11d5292465703c1f1af48e155a08"}, {"bike_id": "5dc36da6061e79b4536ea4bb4b4239e2", "type": "electric_scooter", "is_disabled": 0, "lat": 38.86215083333333, "rental_uris": {"ios": "https://dc.lft.to/lastmile_qr_scan", "android": "https://dc.lft.to/lastmile_qr_scan"}, "is_reserved": 0, "fusion_lon": 0.0, "fusion_lat": 0.0, "lon": -76.99481266666666, "name": "5dc36da6061e79b4536ea4bb4b4239e2"}, {"bike_id": "d42c59100cf9394b0e0f934ca49154af", "type": "electric_scooter", "is_disabled": 0, "lat": 38.900574, "rental_uris": {"ios": "https://dc.lft.to/lastmile_qr_scan", "android": "https://dc.lft.to/lastmile_qr_scan"}, "is_reserved": 0, "fusion_lon": 0.0, "fusion_lat": 0.0, "lon": -77.007049, "name": "d42c59100cf9394b0e0f934ca49154af"}, {"bike_id": "20fa3d397e0ca04dff785bc2e4d4bca7", "type": "electric_scooter", "is_disabled": 0, "lat": 38.905328, "rental_uris": {"ios": "https://dc.lft.to/lastmile_qr_scan", "android": "https://dc.lft.to/lastmile_qr_scan"}, "is_reserved": 0, "fusion_lon": 0.0, "fusion_lat": 0.0, "lon": -77.059385, "name": "20fa3d397e0ca04dff785bc2e4d4bca7"}, {"bike_id": "9137de833e2135d9a84921b4aa2c0ba2", "type": "electric_scooter", "is_disabled": 0, "lat": 38.90592733333333, "rental_uris": {"ios": "https://dc.lft.to/lastmile_qr_scan", "android": "https://dc.lft.to/lastmile_qr_scan"}, "is_reserved": 0, "fusion_lon": 0.0, "fusion_lat": 0.0, "lon": -77.06281, "name": "9137de833e2135d9a84921b4aa2c0ba2"}, {"bike_id": "c8b19956e9ad7f70590a9a32721e668c", "type": "electric_scooter", "is_disabled": 0, "lat": 38.901909833333335, "rental_uris": {"ios": "https://dc.lft.to/lastmile_qr_scan", "android": "https://dc.lft.to/lastmile_qr_scan"}, "is_reserved": 0, "fusion_lon": 0.0, "fusion_lat": 0.0, "lon": -77.01302866666667, "name": "c8b19956e9ad7f70590a9a32721e668c"}, {"bike_id": "f9c6a0c5d5a8bdd28343514bf238f457", "type": "electric_bike", "is_disabled": 0, "lat": 39.0148225, "rental_uris": {"ios": "https://dc.lft.to/lastmile_qr_scan", "android": "https://dc.lft.to/lastmile_qr_scan"}, "is_reserved": 0, "fusion_lon": 0.0, "fusion_lat": 0.0, "lon": -77.05496033333333, "name": "f9c6a0c5d5a8bdd28343514bf238f457"}, {"bike_id": "33d532c5b1fe711059c3ac1f8be2882b", "type": "electric_scooter", "is_disabled": 0, "lat": 38.9104595, "rental_uris": {"ios": "https://dc.lft.to/lastmile_qr_scan", "android": "https://dc.lft.to/lastmile_qr_scan"}, "is_reserved": 0, "fusion_lon": 0.0, "fusion_lat": 0.0, "lon": -77.04352816666666, "name": "33d532c5b1fe711059c3ac1f8be2882b"}, {"bike_id": "5dc165f9943f1a274c4445c0d1463e7a", "type": "electric_scooter", "is_disabled": 0, "lat": 38.8825935, "rental_uris": {"ios": "https://dc.lft.to/lastmile_qr_scan", "android": "https://dc.lft.to/lastmile_qr_scan"}, "is_reserved": 0, "fusion_lon": 0.0, "fusion_lat": 0.0, "lon": -76.99510266666667, "name": "5dc165f9943f1a274c4445c0d1463e7a"}, {"bike_id": "7ed3f672837ded42fb94925d8d0d4211", "type": "electric_scooter", "is_disabled": 0, "lat": 38.9289445, "rental_uris": {"ios": "https://dc.lft.to/lastmile_qr_scan", "android": "https://dc.lft.to/lastmile_qr_scan"}, "is_reserved": 0, "fusion_lon": 0.0, "fusion_lat": 0.0, "lon": -77.01674583333333, "name": "7ed3f672837ded42fb94925d8d0d4211"}, {"bike_id": "02ed11f5500f85aba3d136b2f2b1d25a", "type": "electric_scooter", "is_disabled": 0, "lat": 38.9026715, "rental_uris": {"ios": "https://dc.lft.to/lastmile_qr_scan", "android": "https://dc.lft.to/lastmile_qr_scan"}, "is_reserved": 0, "fusion_lon": 0.0, "fusion_lat": 0.0, "lon": -77.017621, "name": "02ed11f5500f85aba3d136b2f2b1d25a"}, {"bike_id": "17ec119363efe229bd185c083c661cb9", "type": "electric_scooter", "is_disabled": 0, "lat": 38.93221, "rental_uris": {"ios": "https://dc.lft.to/lastmile_qr_scan", "android": "https://dc.lft.to/lastmile_qr_scan"}, "is_reserved": 0, "fusion_lon": 0.0, "fusion_lat": 0.0, "lon": -77.03362883333334, "name": "17ec119363efe229bd185c083c661cb9"}, {"bike_id": "c6da9b627b445df4c9f2f68f1b123883", "type": "electric_scooter", "is_disabled": 0, "lat": 38.9133615, "rental_uris": {"ios": "https://dc.lft.to/lastmile_qr_scan", "android": "https://dc.lft.to/lastmile_qr_scan"}, "is_reserved": 0, "fusion_lon": 0.0, "fusion_lat": 0.0, "lon": -77.0324795, "name": "c6da9b627b445df4c9f2f68f1b123883"}, {"bike_id": "996cc2462e7887e1b897c3f95febf35a", "type": "electric_scooter", "is_disabled": 0, "lat": 38.92930666666667, "rental_uris": {"ios": "https://dc.lft.to/lastmile_qr_scan", "android": "https://dc.lft.to/lastmile_qr_scan"}, "is_reserved": 0, "fusion_lon": 0.0, "fusion_lat": 0.0, "lon": -77.03276416666667, "name": "996cc2462e7887e1b897c3f95febf35a"},