{"data": {"bikes": [{"rental_uris": {"android": "https://dc.lft.to/lastmile_qr_scan", "ios": "https://dc.lft.to/lastmile_qr_scan"}, "lon": -77.01780183333334, "name": "bfaa308b666f1e207007e1e86cb5b043", "lat": 38.887153833333336, "is_reserved": 0, "fusion_lat": 0.0, "bike_id": "bfaa308b666f1e207007e1e86cb5b043", "type": "electric_scooter", "is_disabled": 0, "fusion_lon": 0.0}, {"rental_uris": {"android": "https://dc.lft.to/lastmile_qr_scan", "ios": "https://dc.lft.to/lastmile_qr_scan"}, "lon": -77.02388083333334, "name": "eab191a381307224b5369240dd322c37", "lat": 38.892218166666666, "is_reserved": 0, "fusion_lat": 0.0, "bike_id": "eab191a381307224b5369240dd322c37", "type": "electric_scooter", "is_disabled": 0, "fusion_lon": 0.0}, {"rental_uris": {"android": "https://dc.lft.to/lastmile_qr_scan", "ios": "https://dc.lft.to/lastmile_qr_scan"}, "lon": -77.04228083333334, "name": "322103879b589c09b4a322dbe12b3a85", "lat": 38.9027305, "is_reserved": 0, "fusion_lat": 0.0, "bike_id": "322103879b589c09b4a322dbe12b3a85", "type": "electric_scooter", "is_disabled": 0, "fusion_lon": 0.0}, {"rental_uris": {"android": "https://dc.lft.to/lastmile_qr_scan", "ios": "https://dc.lft.to/lastmile_qr_scan"}, "lon": -77.0419765, "name": "61bfcd2405123e52402cec31595dc8aa", "lat": 38.892230166666664, "is_reserved": 0, "fusion_lat": 0.0, "bike_id": "61bfcd2405123e52402cec31595dc8aa", "type": "electric_scooter", "is_disabled": 0, "fusion_lon": 0.0}, {"rental_uris": {"android": "https://dc.lft.to/lastmile_qr_scan", "ios": "https://dc.lft.to/lastmile_qr_scan"}, "lon": -77.0387425, "name": "82a8bc9b9caf8d5c6a4182b086e6fdd3", "lat": 38.99055533333333, "is_reserved": 0, "fusion_lat": 0.0, "bike_id": "82a8bc9b9caf8d5c6a4182b086e6fdd3", "type": "electric_bike", "is_disabled": 0, "fusion_lon": 0.0}, {"rental_uris": {"android": "https://dc.lft.to/lastmile_qr_scan", "ios": "https://dc.lft.to/lastmile_qr_scan"}, "lon": -77.02698683333334, "name": "854470225e33a0e16057f9a5bb4eaf19", "lat": 38.94982316666667, "is_reserved": 0, "fusion_lat": 0.0, "bike_id": "854470225e33a0e16057f9a5bb4eaf19", "type": "electric_scooter", "is_disabled": 0, "fusion_lon": 0.0}, {"rental_uris": {"android": "https://dc.lft.to/lastmile_qr_scan", "ios": "https://dc.lft.to/lastmile_qr_scan"}, "lon": -76.987351, "name": "0f80d436adbd7943cc0d92b1e0ac9a63", "lat": 38.83548716666667, "is_reserved": 0, "fusion_lat": 0.0, "bike_id": "0f80d436adbd7943cc0d92b1e0ac9a63", "type": "electric_bike", "is_disabled": 0, "fusion_lon": 0.0}, {"rental_uris": {"android": "https://dc.lft.to/lastmile_qr_scan", "ios": "https://dc.lft.to/lastmile_qr_scan"}, "lon": -77.01217616666666, "name": "7187eb7d9c1ef48d2fad06bf18a792e7", "lat": 38.916825333333335, "is_reserved": 0, "fusion_lat": 0.0, "bike_id": "7187eb7d9c1ef48d2fad06bf18a792e7", "type": "electric_scooter", "is_disabled": 0, "fusion_lon": 0.0}, {"rental_uris": {"android": "https://dc.lft.to/lastmile_qr_scan", "ios": "https://dc.lft.to/lastmile_qr_scan"}, "lon": -76.98793583333334, "name": "c6b83a59eefe920d1ba773edab4b66e3", "lat": 38.844888166666664, "is_reserved": 0, "fusion_lat": 0.0, "bike_id": "c6b83a59eefe920d1ba773edab4b66e3", "type": "electric_scooter", "is_disabled": 0, "fusion_lon": 0.0}, {"rental_uris": {"android": "https://dc.lft.to/lastmile_qr_scan", "ios": "https://dc.lft.to/lastmile_qr_scan"}, "lon": -77.00204066666667, "name": "1fb63686c8ba50012ae068a45e46ba26", "lat": 38.90788583333333, "is_reserved": 0, "fusion_lat": 0.0, "bike_id": "1fb63686c8ba50012ae068a45e46ba26", "type": "electric_scooter", "is_disabled": 0, "fusion_lon": 0.0}, {"rental_uris": {"android": "https://dc.lft.to/lastmile_qr_scan", "ios": "https://dc.lft.to/lastmile_qr_scan"}, "lon": -76.986994, "name": "0ad981ae59436ba0acbd4d5695876c00", "lat": 38.91911316666667, "is_reserved": 0, "fusion_lat": 0.0, "bike_id": "0ad981ae59436ba0acbd4d5695876c00", "type": "electric_scooter", "is_disabled": 0, "fusion_lon": 0.0}, {"rental_uris": {"android": "https://dc.lft.to/lastmile_qr_scan", "ios": "https://dc.lft.to/lastmile_qr_scan"}, "lon": -77.02712916666667, "name": "7f9a62f5a94cd0209ea8552ff5d08e50", "lat": 38.928802833333336, "is_reserved": 0, "fusion_lat": 0.0, "bike_id": "7f9a62f5a94cd0209ea8552ff5d08e50", "type": "electric_scooter", "is_disabled": 0, "fusion_lon": 0.0}, {"rental_uris": {"android": "https://dc.lft.to/lastmile_qr_scan", "ios": "https://dc.lft.to/lastmile_qr_scan"}, "lon": -77.0136355, "name": "cfe32d28cb7db4ed0b24da2268a277b8", "lat": 38.919123, "is_reserved": 0, "fusion_lat": 0.0, "bike_id": "cfe32d28cb7db4ed0b24da2268a277b8", "type": "electric_scooter", "is_disabled": 0, "fusion_lon": 0.0}, {"rental_uris": {"android": "https://dc.lft.to/lastmile_qr_scan", "ios": "https://dc.lft.to/lastmile_qr_scan"}, "lon": -76.97330533333333, "name": "6689c7515d5138d3e071c7a2b9876999", "lat": 38.90409833333333, "is_reserved": 0, "fusion_lat": 0.0, "bike_id": "6689c7515d5138d3e071c7a2b9876999", "type": "electric_scooter", "is_disabled": 0, "fusion_lon": 0.0}, {"rental_uris": {"android": "https://dc.lft.to/lastmile_qr_scan", "ios": "https://dc.lft.to/lastmile_qr_scan"}, "lon": -77.00575466666666, "name": "1d3c91b57257de97bedbbab84c2cda80", "lat": 38.88477783333333, "is_reserved": 0, "fusion_lat": 0.0, "bike_id": "1d3c91b57257de97bedbbab84c2cda80", "type": "electric_scooter", "is_disabled": 0, "fusion_lon": 0.0}, {"rental_uris": {"android": "https://dc.lft.to/lastmile_qr_scan", "ios": "https://dc.lft.to/lastmile_qr_scan"}, "lon": -77.02429866666667, "name": "47b9c2ccac312d41bd9bcd3f672a0bdf", "lat": 38.92053633333333, "is_reserved": 0, "fusion_lat": 0.0, "bike_id": "47b9c2ccac312d41bd9bcd3f672a0bdf", "type": "electric_scooter", "is_disabled": 0, "fusion_lon": 0.0}, {"rental_uris": {"android": "https://dc.lft.to/lastmile_qr_scan", "ios": "https://dc.lft.to/lastmile_qr_scan"}, "lon": -77.04682033333333, "name": "84e6d3f5be2a2052620e91084af217f0", "lat": 38.89512533333333, "is_reserved": 0, "fusion_lat": 0.0, "bike_id": "84e6d3f5be2a2052620e91084af217f0", "type": "electric_scooter", "is_disabled": 0, "fusion_lon": 0.0}, {"rental_uris": {"android": "https://dc.lft.to/lastmile_qr_scan", "ios": "https://dc.lft.to/lastmile_qr_scan"}, "lon": -76.99946916666667, "name": "ae2473fabee63f627529819d3588c99b", "lat": 38.901224166666665, "is_reserved": 0, "fusion_lat": 0.0, "bike_id": "ae2473fabee63f627529819d3588c99b", "type": "electric_scooter", "is_disabled": 0, "fusion_lon": 0.0}, {"rental_uris": {"android": "https://dc.lft.to/lastmile_qr_scan", "ios": "https://dc.lft.to/lastmile_qr_scan"}, "lon": -77.05333816666666, "name": "dedb5b70da1e536976f40844f5178772", "lat": 38.90243433333333, "is_reserved": 0, "fusion_lat": 0.0, "bike_id": "dedb5b70da1e536976f40844f5178772", "type": "electric_scooter", "is_disabled": 0, "fusion_lon": 0.0}, {"rental_uris": {"android": "https://dc.lft.to/lastmile_qr_scan", "ios": "https://dc.lft.to/lastmile_qr_scan"}, "lon": -77.02128466666667, "name": "9905bc5e77715f5e73ebfcee1dd743b0", "lat": 38.93111116666667, "is_reserved": 0, "fusion_lat": 0.0, "bike_id": "9905bc5e77715f5e73ebfcee1dd743b0", "type": "electric_scooter", "is_disabled": 0, "fusion_lon": 0.0}, {"rental_uris": {"android": "https://dc.lft.to/lastmile_qr_scan", "ios": "https://dc.lft.to/lastmile_qr_scan"}, "lon": -76.99710816666666, "name": "3bc6f5f444e9c7645f084acfbb3aaf95", "lat": 38.932423166666666, "is_reserved": 0, "fusion_lat": 0.0, "bike_id": "3bc6f5f444e9c7645f084acfbb3aaf95", "type": "electric_scooter", "is_disabled": 0, "fusion_lon": 0.0}, {"rental_uris": {"android": "https://dc.lft.to/lastmile_qr_scan", "ios": "https://dc.lft.to/lastmile_qr_scan"}, "lon": -77.02648683333334, "name": "0435dd53eb3ccb7ea88a05d099bb7fab", "lat": 38.98436733333333, "is_reserved": 0, "fusion_lat": 0.0, "bike_id": "0435dd53eb3ccb7ea88a05d099bb7fab", "type": "electric_scooter", "is_disabled": 0, "fusion_lon": 0.0}, {"rental_uris": {"android": "https://dc.lft.to/lastmile_qr_scan", "ios": "https://dc.lft.to/lastmile_qr_scan"}, "lon": -76.98829266666667, "name": "325f6b17a2cc5cecc54a3d08ee201f29", "lat": 38.9003025, "is_reserved": 0, "fusion_lat": 0.0, "bike_id": "325f6b17a2cc5cecc54a3d08ee201f29", "type": "electric_scooter", "is_disabled": 0, "fusion_lon": 0.0}, {"rental_uris": {"android": "https://dc.lft.to/lastmile_qr_scan", "ios": "https://dc.lft.to/lastmile_qr_scan"}, "lon": -77.0770335, "name": "3efa4709b0bab46eb8502c7c7c318ee7", "lat": 38.943796, "is_reserved": 0, "fusion_lat": 0.0, "bike_id": "3efa4709b0bab46eb8502c7c7c318ee7", "type": "electric_scooter", "is_disabled": 0, "fusion_lon": 0.0}, {"rental_uris": {"android": "https://dc.lft.to/lastmile_qr_scan", "ios": "https://dc.lft.to/lastmile_qr_scan"}, "lon": -77.05271266666666, "name": "ddc88d7b8dd4fbe5d3d7df4daf1a7534", "lat": 38.9235555, "is_reserved": 0, "fusion_lat": 0.0, "bike_id": "ddc88d7b8dd4fbe5d3d7df4daf1a7534", "type": "electric_scooter", "is_disabled": 0, "fusion_lon": 0.0}, {"rental_uris": {"android": "https://dc.lft.to/lastmile_qr_scan", "ios": "https://dc.lft.to/lastmile_qr_scan"}, "lon": -77.2014155, "name": "ea22167fd68314d9142598204aa07109", "lat": 38.92215816666667, "is_reserved": 0, "fusion_lat": 0.0, "bike_id": "ea22167fd68314d9142598204aa07109", "type": "electric_bike", "is_disabled": 0, "fusion_lon": 0.0}, {"rental_uris": {"android": "https://dc.lft.to/lastmile_qr_scan", "ios": "https://dc.lft.to/lastmile_qr_scan"}, "lon": -77.02591983333333, "name": "3d3b6867eab4fee968d53338ed914715", "lat": 38.94309033333333, "is_reserved": 0, "fusion_lat": 0.0, "bike_id": "3d3b6867eab4fee968d53338ed914715", "type": "electric_scooter", "is_disabled": 0, "fusion_lon": 0.0}, {"rental_uris": {"android": "https://dc.lft.to/lastmile_qr_scan", "ios": "https://dc.lft.to/lastmile_qr_scan"}, "lon": -77.01394233333333, "name": "30f4804d2b63d930a0661eea1cfb7068", "lat": 38.928396, "is_reserved": 0, "fusion_lat": 0.0, "bike_id": "30f4804d2b63d930a0661eea1cfb7068", "type": "electric_scooter", "is_disabled": 0, "fusion_lon": 0.0}, {"rental_uris": {"android": "https://dc.lft.to/lastmile_qr_scan", "ios": "https://dc.lft.to/lastmile_qr_scan"}, "lon": -76.952527, "name": "fe1353c9ca53b7fb03526c34ea4c6fa8", "lat": 38.906914, "is_reserved": 0, "fusion_lat": 0.0, "bike_id": "fe1353c9ca53b7fb03526c34ea4c6fa8", "type": "electric_bike", "is_disabled": 0, "fusion_lon": 0.0}, {"rental_uris": {"android": "https://dc.lft.to/lastmile_qr_scan", "ios": "https://dc.lft.to/lastmile_qr_scan"}, "lon": -77.03471316666666, "name": "4b5c6c98aca06fed6a7191e6afa47510", "lat": 38.907993833333336, "is_reserved": 0, "fusion_lat": 0.0, "bike_id": "4b5c6c98aca06fed6a7191e6afa47510", "type": "electric_scooter", "is_disabled": 0, "fusion_lon": 0.0}, {"rental_uris": {"android": "https://dc.lft.to/lastmile_qr_scan", "ios": "https://dc.lft.to/lastmile_qr_scan"}, "lon": -77.038518, "name": "8accdb1d4a56a00463b045d4ac0a277e", "lat": 38.901310333333335, "is_reserved": 0, "fusion_lat": 0.0, "bike_id": "8accdb1d4a56a00463b045d4ac0a277e", "type": "electric_scooter", "is_disabled": 0, "fusion_lon": 0.0}, {"rental_uris": {"android": "https://dc.lft.to/lastmile_qr_scan", "ios": "https://dc.lft.to/lastmile_qr_scan"}, "lon": -76.93128783333333, "name": "2a8819b2a317e76c657c6387e53f2ab9", "lat": 38.89819966666666, "is_reserved": 0, "fusion_lat": 0.0, "bike_id": "2a8819b2a317e76c657c6387e53f2ab9", "type": "electric_scooter", "is_disabled": 0, "fusion_lon": 0.0}, {"rental_uris": {"android": "https://dc.lft.to/lastmile_qr_scan", "ios": "https://dc.lft.to/lastmile_qr_scan"}, "lon": -77.07698833333333, "name": "5628e4ce5e32575250abb2cc98f7077c", "lat": 38.94384933333333, "is_reserved": 0, "fusion_lat": 0.0, "bike_id": "5628e4ce5e32575250abb2cc98f7077c", "type": "electric_scooter", "is_disabled": 0, "fusion_lon": 0.0}, {"rental_uris": {"android": "https://dc.lft.to/lastmile_qr_scan", "ios": "https://dc.lft.to/lastmile_qr_scan"}, "lon": -77.033404, "name": "ed9df7fae7fcb6fe00e5f83a02760955", "lat": 38.9351225, "is_reserved": 0, "fusion_lat": 0.0, "bike_id": "ed9df7fae7fcb6fe00e5f83a02760955", "type": "electric_scooter", "is_disabled": 0, "fusion_lon": 0.0}, {"rental_uris": {"android": "https://dc.lft.to/lastmile_qr_scan", "ios": "https://dc.lft.to/lastmile_qr_scan"}, "lon": -77.03133516666666, "name": "1ed8b0047f1b9758a373ce16177f6e8e", "lat": 38.9169965, "is_reserved": 0, "fusion_lat": 0.0, "bike_id": "1ed8b0047f1b9758a373ce16177f6e8e", "type": "electric_scooter", "is_disabled": 0, "fusion_lon": 0.0}, {"rental_uris": {"android": "https://dc.lft.to/lastmile_qr_scan", "ios": "https://dc.lft.to/lastmile_qr_scan"}, "lon": -77.02200216666667, "name": "ccda743e256d351dd1038a64fa5eff89", "lat": 38.9198115, "is_reserved": 0, "fusion_lat": 0.0, "bike_id": "ccda743e256d351dd1038a64fa5eff89", "type": "electric_scooter", "is_disabled": 0, "fusion_lon": 0.0}, {"rental_uris": {"android": "https://dc.lft.to/lastmile_qr_scan", "ios": "https://dc.lft.to/lastmile_qr_scan"}, "lon": -77.05473783333333, "name": "8d0b85c6710da56675dc97a41825d147", "lat": 38.896667666666666, "is_reserved": 0, "fusion_lat": 0.0, "bike_id": "8d0b85c6710da56675dc97a41825d147", "type": "electric_scooter", "is_disabled": 0, "fusion_lon": 0.0}, {"rental_uris": {"android": "https://dc.lft.to/lastmile_qr_scan", "ios": "https://dc.lft.to/lastmile_qr_scan"}, "lon": -76.98544683333333, "name": "fc60fadec074325ed458a23735cbc6bf", "lat": 38.86688566666667, "is_reserved": 0, "fusion_lat": 0.0, "bike_id": "fc60fadec074325ed458a23735cbc6bf", "type": "electric_scooter", "is_disabled": 0, "fusion_lon": 0.0}, {"rental_uris": {"android": "https://dc.lft.to/lastmile_qr_scan", "ios": "https://dc.lft.to/lastmile_qr_scan"}, "lon": -77.01426933333333, "name": "7b471248fce1eadeef8dc6e246b37d97", "lat": 38.972185833333334, "is_reserved": 0, "fusion_lat": 0.0, "bike_id": "7b471248fce1eadeef8dc6e246b37d97", "type": "electric_bike", "is_disabled": 0, "fusion_lon": 0.0}, {"rental_uris": {"android": "https://dc.lft.to/lastmile_qr_scan", "ios": "https://dc.lft.to/lastmile_qr_scan"}, "lon": -77.00929766666667, "name": "e7811091f5e902aaa62152b8eac60bd8", "lat": 38.89605133333333, "is_reserved": 0, "fusion_lat": 0.0, "bike_id": "e7811091f5e902aaa62152b8eac60bd8", "type": "electric_scooter", "is_disabled": 0, "fusion_lon": 0.0}, {"rental_uris": {"android": "https://dc.lft.to/lastmile_qr_scan", "ios": "https://dc.lft.to/lastmile_qr_scan"}, "lon": -76.9924715, "name": "54950f42db1ae9e38038a01c85a0f4e3", "lat": 38.794659333333335, "is_reserved": 0, "fusion_lat": 0.0, "bike_id": "54950f42db1ae9e38038a01c85a0f4e3", "type": "electric_bike", "is_disabled": 0, "fusion_lon": 0.0}, {"rental_uris": {"android": "https://dc.lft.to/lastmile_qr_scan", "ios": "https://dc.lft.to/lastmile_qr_scan"}, "lon": -77.034459, "name": "499fac53f7fb6b0772263237ebdd74ee", "lat": 38.906462833333336, "is_reserved": 0, "fusion_lat": 0.0, "bike_id": "499fac53f7fb6b0772263237ebdd74ee", "type": "electric_scooter", "is_disabled": 0, "fusion_lon": 0.0}, {"rental_uris": {"android": "https://dc.lft.to/lastmile_qr_scan", "ios": "https://dc.lft.to/lastmile_qr_scan"}, "lon": -76.99584183333333, "name": "4523d47fbbc179079e7bb9e68ce6ae53", "lat": 38.851760666666664, "is_reserved": 0, "fusion_lat": 0.0, "bike_id": "4523d47fbbc179079e7bb9e68ce6ae53", "type": "electric_scooter", "is_disabled": 0, "fusion_lon": 0.0}, {"rental_uris": {"android": "https://dc.lft.to/lastmile_qr_scan", "ios": "https://dc.lft.to/lastmile_qr_scan"}, "lon": -77.01765616666667, "name": "be248875537989d8a9498921053419b8", "lat": 38.87898416666667, "is_reserved": 0, "fusion_lat": 0.0, "bike_id": "be248875537989d8a9498921053419b8", "type": "electric_scooter", "is_disabled": 0, "fusion_lon": 0.0}, {"rental_uris": {"android": "https://dc.lft.to/lastmile_qr_scan", "ios": "https://dc.lft.to/lastmile_qr_scan"}, "lon": -77.0361245, "name": "5341e985ce7727a55b3a3548801b435d", "lat": 38.931567666666666, "is_reserved": 0, "fusion_lat": 0.0, "bike_id": "5341e985ce7727a55b3a3548801b435d", "type": "electric_scooter", "is_disabled": 0, "fusion_lon": 0.0}, {"rental_uris": {"android": "https://dc.lft.to/lastmile_qr_scan", "ios": "https://dc.lft.to/lastmile_qr_scan"}, "lon": -77.01674983333334, "name": "beab07969b420286b36ffd4a25c71fb1", "lat": 38.92043916666667, "is_reserved": 0, "fusion_lat": 0.0, "bike_id": "beab07969b420286b36ffd4a25c71fb1", "type": "electric_scooter", "is_disabled": 0, "fusion_lon": 0.0}, {"rental_uris": {"android": "https://dc.lft.to/lastmile_qr_scan", "ios": "https://dc.lft.to/lastmile_qr_scan"}, "lon": -77.02952366666666, "name": "a79cc5582c829355f8c1b66b36c52123", "lat": 38.90501883333334, "is_reserved": 0, "fusion_lat": 0.0, "bike_id": "a79cc5582c829355f8c1b66b36c52123", "type": "electric_scooter", "is_disabled": 0, "fusion_lon": 0.0}, {"rental_uris": {"android": "https://dc.lft.to/lastmile_qr_scan", "ios": "https://dc.lft.to/lastmile_qr_scan"}, "lon": -77.00156633333333, "name": "ebbd6ba4e95df801d3893e4d3fedef03", "lat": 38.90788466666667, "is_reserved": 0, "fusion_lat": 0.0, "bike_id": "ebbd6ba4e95df801d3893e4d3fedef03", "type": "electric_scooter", "is_disabled": 0, "fusion_lon": 0.0}, {"rental_uris": {"android": "https://dc.lft.to/lastmile_qr_scan", "ios": "https://dc.lft.to/lastmile_qr_scan"}, "lon": -77.0191105, "name": "662d4313f811ffd31bd11a91338079eb", "lat": 38.89973633333334, "is_reserved": 0, "fusion_lat": 0.0, "bike_id": "662d4313f811ffd31bd11a91338079eb", "type": "electric_scooter", "is_disabled": 0, "fusion_lon": 0.0}, {"rental_uris": {"android": "https://dc.lft.to/lastmile_qr_scan", "ios": "https://dc.lft.to/lastmile_qr_scan"}, "lon": -76.987194, "name": "1e84c4201020881927be3dbfd0c2b0ac", "lat": 38.866238833333334, "is_reserved": 0, "fusion_lat": 0.0, "bike_id": "1e84c4201020881927be3dbfd0c2b0ac", "type": "electric_scooter", "is_disabled": 0, "fusion_lon": 0.0}, {"rental_uris": {"android": "https://dc.lft.to/lastmile_qr_scan", "ios": "https://dc.lft.to/lastmile_qr_scan"}, "lon": -77.0001045, "name": "9292e9476b57632fba3721949948b0b0", "lat": 38.923977, "is_reserved": 0, "fusion_lat": 0.0, "bike_id": "9292e9476b57632fba3721949948b0b0", "type": "electric_bike", "is_disabled": 0, "fusion_lon": 0.0}, {"rental_uris": {"android": "https://dc.lft.to/lastmile_qr_scan", "ios": "https://dc.lft.to/lastmile_qr_scan"}, "lon": -77.01251666666667, "name": "47df931c52a902e26e847c6ea6c82448", "lat": 38.915737166666666, "is_reserved": 0, "fusion_lat": 0.0, "bike_id": "47df931c52a902e26e847c6ea6c82448", "type": "electric_scooter", "is_disabled": 0, "fusion_lon": 0.0}, {"rental_uris": {"android": "https://dc.lft.to/lastmile_qr_scan", "ios": "https://dc.lft.to/lastmile_qr_scan"}, "lon": -77.04322166666667, "name": "4517df8ced2e6787d32c7ad3c6de54ea", "lat": 38.92246433333333, "is_reserved": 0, "fusion_lat": 0.0, "bike_id": "4517df8ced2e6787d32c7ad3c6de54ea", "type": "electric_scooter", "is_disabled": 0, "fusion_lon": 0.0}, {"rental_uris": {"android": "https://dc.lft.to/lastmile_qr_scan", "ios": "https://dc.lft.to/lastmile_qr_scan"}, "lon": -77.04220316666667, "name": "cb8b4995b22f1a234186faa88f252cbc", "lat": 38.92446233333333, "is_reserved": 0, "fusion_lat": 0.0, "bike_id": "cb8b4995b22f1a234186faa88f252cbc", "type": "electric_scooter", "is_disabled": 0, "fusion_lon": 0.0}, {"rental_uris": {"android": "https://dc.lft.to/lastmile_qr_scan", "ios": "https://dc.lft.to/lastmile_qr_scan"}, "lon": -77.02544566666667, "name": "da6f2ca1de9bdd78d62f539c4952413c", "lat": 38.9073055, "is_reserved": 0, "fusion_lat": 0.0, "bike_id": "da6f2ca1de9bdd78d62f539c4952413c", "type": "electric_scooter", "is_disabled": 0, "fusion_lon": 0.0}, {"rental_uris": {"android": "https://dc.lft.to/lastmile_qr_scan", "ios": "https://dc.lft.to/lastmile_qr_scan"}, "lon": -77.01614716666667, "name": "b3c59d4eca774007931518ab89cb98df", "lat": 38.9009275, "is_reserved": 0, "fusion_lat": 0.0, "bike_id": "b3c59d4eca774007931518ab89cb98df", "type": "electric_scooter", "is_disabled": 0, "fusion_lon": 0.0}, {"rental_uris": {"android": "https://dc.lft.to/lastmile_qr_scan", "ios": "https://dc.lft.to/lastmile_qr_scan"}, "lon": -77.023853, "name": "fd1b354f40756a94832db82850c44f6b", "lat": 38.89228633333333, "is_reserved": 0, "fusion_lat": 0.0, "bike_id": "fd1b354f40756a94832db82850c44f6b", "type": "electric_scooter", "is_disabled": 0, "fusion_lon": 0.0}, {"rental_uris": {"android": "https://dc.lft.to/lastmile_qr_scan", "ios": "https://dc.lft.to/lastmile_qr_scan"}, "lon": -77.031092, "name": "20ebc3d52d042c5db1acd27645ecc70b", "lat": 38.96128366666667, "is_reserved": 0, "fusion_lat": 0.0, "bike_id": "20ebc3d52d042c5db1acd27645ecc70b", "type": "electric_bike", "is_disabled": 0, "fusion_lon": 0.0}, {"rental_uris": {"android": "https://dc.lft.to/lastmile_qr_scan", "ios": "https://dc.lft.to/lastmile_qr_scan"}, "lon": -77.009179, "name": "2c849dad5215bafa7de69f7fb9aab8ab", "lat": 38.96818566666666, "is_reserved": 0, "fusion_lat": 0.0, "bike_id": "2c849dad5215bafa7de69f7fb9aab8ab", "type": "electric_scooter", "is_disabled": 0, "fusion_lon": 0.0}, {"rental_uris": {"android": "https://dc.lft.to/lastmile_qr_scan", "ios": "https://dc.lft.to/lastmile_qr_scan"}, "lon": -77.01604283333333, "name": "427dd375fc666627f24e93d1a3c8fa87", "lat": 38.899623166666665, "is_reserved": 0, "fusion_lat": 0.0, "bike_id": "427dd375fc666627f24e93d1a3c8fa87", "type": "electric_scooter", "is_disabled": 0, "fusion_lon": 0.0}, {"rental_uris": {"android": "https://dc.lft.to/lastmile_qr_scan", "ios": "https://dc.lft.to/lastmile_qr_scan"}, "lon": -77.02794783333333, "name": "3c2ec370dc1103eac31128796fef65ef", "lat": 38.96048433333333, "is_reserved": 0, "fusion_lat": 0.0, "bike_id": "3c2ec370dc1103eac31128796fef65ef", "type": "electric_scooter", "is_disabled": 0, "fusion_lon": 0.0}, {"rental_uris": {"android": "https://dc.lft.to/lastmile_qr_scan", "ios": "https://dc.lft.to/lastmile_qr_scan"}, "lon": -77.04338266666667, "name": "b071bb7f69eb0de35bd70bb8e0aae237", "lat": 38.914278333333336, "is_reserved": 0, "fusion_lat": 0.0, "bike_id": "b071bb7f69eb0de35bd70bb8e0aae237", "type": "electric_scooter", "is_disabled": 0, "fusion_lon": 0.0}, {"rental_uris": {"android": "https://dc.lft.to/lastmile_qr_scan", "ios": "https://dc.lft.to/lastmile_qr_scan"}, "lon": -77.02360666666667, "name": "e3c4a610de323d15c82387e4fc81fcfa", "lat": 38.90218766666667, "is_reserved": 0, "fusion_lat": 0.0, "bike_id": "e3c4a610de323d15c82387e4fc81fcfa", "type": "electric_scooter", "is_disabled": 0, "fusion_lon": 0.0}, {"rental_uris": {"android": "https://dc.lft.to/lastmile_qr_scan", "ios": "https://dc.lft.to/lastmile_qr_scan"}, "lon": -77.031962, "name": "65acd092a359ed6b25ec820d24f10bcd", "lat": 38.91936533333333, "is_reserved": 0, "fusion_lat": 0.0, "bike_id": "65acd092a359ed6b25ec820d24f10bcd", "type": "electric_scooter", "is_disabled": 0, "fusion_lon": 0.0}, {"rental_uris": {"android": "https://dc.lft.to/lastmile_qr_scan", "ios": "https://dc.lft.to/lastmile_qr_scan"}, "lon": -77.046168, "name": "4f20329a82d6b9612400a2b1c51c7af7", "lat": 38.906584333333335, "is_reserved": 0, "fusion_lat": 0.0, "bike_id": "4f20329a82d6b9612400a2b1c51c7af7", "type": "electric_scooter", "is_disabled": 0, "fusion_lon": 0.0}, {"rental_uris": {"android": "https://dc.lft.to/lastmile_qr_scan", "ios": "https://dc.lft.to/lastmile_qr_scan"}, "lon": -77.02828683333334, "name": "635e28ef8518e3873f31d54aef22ce3a", "lat": 38.887353, "is_reserved": 0, "fusion_lat": 0.0, "bike_id": "635e28ef8518e3873f31d54aef22ce3a", "type": "electric_scooter", "is_disabled": 0, "fusion_lon": 0.0}, {"rental_uris": {"android": "https://dc.lft.to/lastmile_qr_scan", "ios": "https://dc.lft.to/lastmile_qr_scan"}, "lon": -77.012922, "name": "6185a2c30a955b7a103d301780b789da", "lat": 38.918150833333335, "is_reserved": 0, "fusion_lat": 0.0, "bike_id": "6185a2c30a955b7a103d301780b789da", "type": "electric_scooter", "is_disabled": 0, "fusion_lon": 0.0}, {"rental_uris": {"android": "https://dc.lft.to/lastmile_qr_scan", "ios": "https://dc.lft.to/lastmile_qr_scan"}, "lon": -77.00554133333333, "name": "eb6b54650b2793c621dbaf59dafd26a0", "lat": 38.9066035, "is_reserved": 0, "fusion_lat": 0.0, "bike_id": "eb6b54650b2793c621dbaf59dafd26a0", "type": "electric_scooter", "is_disabled": 0, "fusion_lon": 0.0}, {"rental_uris": {"android": "https://dc.lft.to/lastmile_qr_scan", "ios": "https://dc.lft.to/lastmile_qr_scan"}, "lon": -77.0486155, "name": "467fa9446a523300419c22cf832a79b2", "lat": 38.91331733333333, "is_reserved": 0, "fusion_lat": 0.0, "bike_id": "467fa9446a523300419c22cf832a79b2", "type": "electric_scooter", "is_disabled": 0, "fusion_lon": 0.0}, {"rental_uris": {"android": "https://dc.lft.to/lastmile_qr_scan", "ios": "https://dc.lft.to/lastmile_qr_scan"}, "lon": -77.07230533333333, "name": "702dfdce88c31f864b4ec1f96a11200b", "lat": 38.93184, "is_reserved": 0, "fusion_lat": 0.0, "bike_id": "702dfdce88c31f864b4ec1f96a11200b", "type": "electric_scooter", "is_disabled": 0, "fusion_lon": 0.0}, {"rental_uris": {"android": "https://dc.lft.to/lastmile_qr_scan", "ios": "https://dc.lft.to/lastmile_qr_scan"}, "lon": -77.021228, "name": "51e453f0c612e67179ab00e9f1f6a5e5", "lat": 38.92270233333333, "is_reserved": 0, "fusion_lat": 0.0, "bike_id": "51e453f0c612e67179ab00e9f1f6a5e5", "type": "electric_scooter", "is_disabled": 0, "fusion_lon": 0.0}, {"rental_uris": {"android": "https://dc.lft.to/lastmile_qr_scan", "ios": "https://dc.lft.to/lastmile_qr_scan"}, "lon": -77.02789916666667, "name": "d6427b32fd41a7f62b0e0ac9fce9c7f1", "lat": 38.92968316666666, "is_reserved": 0, "fusion_lat": 0.0, "bike_id": "d6427b32fd41a7f62b0e0ac9fce9c7f1", "type": "electric_scooter", "is_disabled": 0, "fusion_lon": 0.0}, {"rental_uris": {"android": "https://dc.lft.to/lastmile_qr_scan", "ios": "https://dc.lft.to/lastmile_qr_scan"}, "lon": -77.035363, "name": "52910153f96a9aac384280b2401d2cc8", "lat": 38.923392666666665, "is_reserved": 0, "fusion_lat": 0.0, "bike_id": "52910153f96a9aac384280b2401d2cc8", "type": "electric_scooter", "is_disabled": 0, "fusion_lon": 0.0}, {"rental_uris": {"android": "https://dc.lft.to/lastmile_qr_scan", "ios": "https://dc.lft.to/lastmile_qr_scan"}, "lon": -77.063667, "name": "490a9331fe74471e5e2d09e852afd435", "lat": 38.944076833333334, "is_reserved": 0, "fusion_lat": 0.0, "bike_id": "490a9331fe74471e5e2d09e852afd435", "type": "electric_scooter", "is_disabled": 0, "fusion_lon": 0.0}, {"rental_uris": {"android": "https://dc.lft.to/lastmile_qr_scan", "ios": "https://dc.lft.to/lastmile_qr_scan"}, "lon": -77.026966, "name": "77ecb21dff302a286447508044866432", "lat": 38.9066685, "is_reserved": 0, "fusion_lat": 0.0, "bike_id": "77ecb21dff302a286447508044866432", "type": "electric_scooter", "is_disabled": 0, "fusion_lon": 0.0}, {"rental_uris": {"android": "https://dc.lft.to/lastmile_qr_scan", "ios": "https://dc.lft.to/lastmile_qr_scan"}, "lon": -77.03800083333333, "name": "2b9cf0202ef952e85134c7c9baff2565", "lat": 38.93232783333333, "is_reserved": 0, "fusion_lat": 0.0, "bike_id": "2b9cf0202ef952e85134c7c9baff2565", "type": "electric_scooter", "is_disabled": 0, "fusion_lon": 0.0}, {"rental_uris": {"android": "https://dc.lft.to/lastmile_qr_scan", "ios": "https://dc.lft.to/lastmile_qr_scan"}, "lon": -77.05423133333333, "name": "ff6c49603f07468b8a9b20477643e3e8", "lat": 38.92838183333333, "is_reserved": 0, "fusion_lat": 0.0, "bike_id": "ff6c49603f07468b8a9b20477643e3e8", "type": "electric_scooter", "is_disabled": 0, "fusion_lon": 0.0}, {"rental_uris": {"android": "https://dc.lft.to/lastmile_qr_scan", "ios": "https://dc.lft.to/lastmile_qr_scan"}, "lon": -77.00670466666666, "name": "a7af26945f0d5b81bd25762fa219cf66", "lat": 38.945087, "is_reserved": 0, "fusion_lat": 0.0, "bike_id": "a7af26945f0d5b81bd25762fa219cf66", "type": "electric_bike", "is_disabled": 0, "fusion_lon": 0.0}, {"rental_uris": {"android": "https://dc.lft.to/lastmile_qr_scan", "ios": "https://dc.lft.to/lastmile_qr_scan"}, "lon": -77.012108, "name": "c17dd632e679ec203f6642089356a377", "lat": 38.89329566666667, "is_reserved": 0, "fusion_lat": 0.0, "bike_id": "c17dd632e679ec203f6642089356a377", "type": "electric_scooter", "is_disabled": 0, "fusion_lon": 0.0}, {"rental_uris": {"android": "https://dc.lft.to/lastmile_qr_scan", "ios": "https://dc.lft.to/lastmile_qr_scan"}, "lon": -77.012227, "name": "791a241b8ff951e0a6b2291ca3edffea", "lat": 38.925997833333334, "is_reserved": 0, "fusion_lat": 0.0, "bike_id": "791a241b8ff951e0a6b2291ca3edffea", "type": "electric_scooter", "is_disabled": 0, "fusion_lon": 0.0}, {"rental_uris": {"android": "https://dc.lft.to/lastmile_qr_scan", "ios": "https://dc.lft.to/lastmile_qr_scan"}, "lon": -77.0241125, "name": "8ec2ced98d426d372c9c215763fd6636", "lat": 38.91177616666667, "is_reserved": 0, "fusion_lat": 0.0, "bike_id": "8ec2ced98d426d372c9c215763fd6636", "type": "electric_scooter", "is_disabled": 0, "fusion_lon": 0.0}, {"rental_uris": {"android": "https://dc.lft.to/lastmile_qr_scan", "ios": "https://dc.lft.to/lastmile_qr_scan"}, "lon": -77.04521966666667, "name": "29b06f5316d73f37647d9011719a6e3a", "lat": 38.91633383333333, "is_reserved": 0, "fusion_lat": 0.0, "bike_id": "29b06f5316d73f37647d9011719a6e3a", "type": "electric_scooter", "is_disabled": 0, "fusion_lon": 0.0}, {"rental_uris": {"android": "https://dc.lft.to/lastmile_qr_scan", "ios": "https://dc.lft.to/lastmile_qr_scan"}, "lon": -77.03834566666667, "name": "51adfeae3a5c36ea8f13de499cd09842", "lat": 38.908765333333335, "is_reserved": 0, "fusion_lat": 0.0, "bike_id": "51adfeae3a5c36ea8f13de499cd09842", "type": "electric_scooter", "is_disabled": 0, "fusion_lon": 0.0}, {"rental_uris": {"android": "https://dc.lft.to/lastmile_qr_scan", "ios": "https://dc.lft.to/lastmile_qr_scan"}, "lon": -77.032074, "name": "a8d8d51b3e31e71e994885bad01c1943", "lat": 38.892287333333336, "is_reserved": 0, "fusion_lat": 0.0, "bike_id": "a8d8d51b3e31e71e994885bad01c1943", "type": "electric_scooter", "is_disabled": 0, "fusion_lon": 0.0}, {"rental_uris": {"android": "https://dc.lft.to/lastmile_qr_scan", "ios": "https://dc.lft.to/lastmile_qr_scan"}, "lon": -77.01378133333333, "name": "bd9478a8aa597fd2181757caba58371b", "lat": 38.952313, "is_reserved": 0, "fusion_lat": 0.0, "bike_id": "bd9478a8aa597fd2181757caba58371b", "type": "electric_scooter", "is_disabled": 0, "fusion_lon": 0.0}, {"rental_uris": {"android": "https://dc.lft.to/lastmile_qr_scan", "ios": "https://dc.lft.to/lastmile_qr_scan"}, "lon": -77.007083, "name": "27fca4ed2814632824e69e89b164b48f", "lat": 38.88487666666666, "is_reserved": 0, "fusion_lat": 0.0, "bike_id": "27fca4ed2814632824e69e89b164b48f", "type": "electric_scooter", "is_disabled": 0, "fusion_lon": 0.0}, {"rental_uris": {"android": "https://dc.lft.to/lastmile_qr_scan", "ios": "https://dc.lft.to/lastmile_qr_scan"}, "lon": -77.04275416666667, "name": "ae1fdccd2e8b9c96f4540daec758063e", "lat": 38.90737716666667, "is_reserved": 0, "fusion_lat": 0.0, "bike_id": "ae1fdccd2e8b9c96f4540daec758063e", "type": "electric_scooter", "is_disabled": 0, "fusion_lon": 0.0}, {"rental_uris": {"android": "https://dc.lft.to/lastmile_qr_scan", "ios": "https://dc.lft.to/lastmile_qr_scan"}, "lon": -76.98274883333333, "name": "848a15e2dd8f89bff7e65a3b8036a83e", "lat": 38.86764816666667, "is_reserved": 0, "fusion_lat": 0.0, "bike_id": "848a15e2dd8f89bff7e65a3b8036a83e", "type": "electric_scooter", "is_disabled": 0, "fusion_lon": 0.0}, {"rental_uris": {"android": "https://dc.lft.to/lastmile_qr_scan", "ios": "https://dc.lft.to/lastmile_qr_scan"}, "lon": -77.015101, "name": "4188b9bc5079694c24de89c1057f2331", "lat": 38.91004616666667, "is_reserved": 0, "fusion_lat": 0.0, "bike_id": "4188b9bc5079694c24de89c1057f2331", "type": "electric_scooter", "is_disabled": 0, "fusion_lon": 0.0}, {"rental_uris": {"android": "https://dc.lft.to/lastmile_qr_scan", "ios": "https://dc.lft.to/lastmile_qr_scan"}, "lon": -77.03909716666666, "name": "50138645901400627e20fd6ae26e3641", "lat": 38.914060166666665, "is_reserved": 0, "fusion_lat": 0.0, "bike_id": "50138645901400627e20fd6ae26e3641", "type": "electric_scooter", "is_disabled": 0, "fusion_lon": 0.0}, {"rental_uris": {"android": "https://dc.lft.to/lastmile_qr_scan", "ios": "https://dc.lft.to/lastmile_qr_scan"}, "lon": -76.980868, "name": "4ce8b2eced7775a3c230ec32beff447e", "lat": 38.95766583333333, "is_reserved": 0, "fusion_lat": 0.0, "bike_id": "4ce8b2eced7775a3c230ec32beff447e", "type": "electric_bike", "is_disabled": 0, "fusion_lon": 0.0}, {"rental_uris": {"android": "https://dc.lft.to/lastmile_qr_scan", "ios": "https://dc.lft.to/lastmile_qr_scan"}, "lon": -76.96935916666666, "name": "d07b358333269c8121247d395513fd07", "lat": 38.959812, "is_reserved": 0, "fusion_lat": 0.0, "bike_id": "d07b358333269c8121247d395513fd07", "type": "electric_bike", "is_disabled": 0, "fusion_lon": 0.0}, {"rental_uris": {"android": "https://dc.lft.to/lastmile_qr_scan", "ios": "https://dc.lft.to/lastmile_qr_scan"}, "lon": -77.04244666666666, "name": "ef969cc5628d2bd292187b6176a48f2f", "lat": 38.922242, "is_reserved": 0, "fusion_lat": 0.0, "bike_id": "ef969cc5628d2bd292187b6176a48f2f", "type": "electric_scooter", "is_disabled": 0, "fusion_lon": 0.0}, {"rental_uris": {"android": "https://dc.lft.to/lastmile_qr_scan", "ios": "https://dc.lft.to/lastmile_qr_scan"}, "lon": -77.031037, "name": "96ed93f384ec1765b3164178faf3edd0", "lat": 38.931850833333336, "is_reserved": 0, "fusion_lat": 0.0, "bike_id": "96ed93f384ec1765b3164178faf3edd0", "type": "electric_scooter", "is_disabled": 0, "fusion_lon": 0.0}, {"rental_uris": {"android": "https://dc.lft.to/lastmile_qr_scan", "ios": "https://dc.lft.to/lastmile_qr_scan"}, "lon": -77.04243833333334, "name": "649e5a81eff40449f9d6366c85e019e7", "lat": 38.9220275, "is_reserved": 0, "fusion_lat": 0.0, "bike_id": "649e5a81eff40449f9d6366c85e019e7", "type": "electric_scooter", "is_disabled": 0, "fusion_lon": 0.0}, {"rental_uris": {"android": "https://dc.lft.to/lastmile_qr_scan", "ios": "https://dc.lft.to/lastmile_qr_scan"}, "lon": -77.002077, "name": "0aac78b3d9759f3f96410c158a11a06f", "lat": 38.91994583333334, "is_reserved": 0, "fusion_lat": 0.0, "bike_id": "0aac78b3d9759f3f96410c158a11a06f", "type": "electric_scooter", "is_disabled": 0, "fusion_lon": 0.0}, {"rental_uris": {"android": "https://dc.lft.to/lastmile_qr_scan", "ios": "https://dc.lft.to/lastmile_qr_scan"}, "lon": -77.00196, "name": "f19edfaed5bb1e18b2a9828648a10fef", "lat": 38.912284, "is_reserved": 0, "fusion_lat": 0.0, "bike_id": "f19edfaed5bb1e18b2a9828648a10fef", "type": "electric_scooter", "is_disabled": 0, "fusion_lon": 0.0}, {"rental_uris": {"android": "https://dc.lft.to/lastmile_qr_scan", "ios": "https://dc.lft.to/lastmile_qr_scan"}, "lon": -77.0218345, "name": "a709778f9a33c34c1501d366e44fc859", "lat": 38.89480616666667, "is_reserved": 0, "fusion_lat": 0.0, "bike_id": "a709778f9a33c34c1501d366e44fc859", "type": "electric_scooter", "is_disabled": 0, "fusion_lon": 0.0}, {"rental_uris": {"android": "https://dc.lft.to/lastmile_qr_scan", "ios": "https://dc.lft.to/lastmile_qr_scan"}, "lon": -77.02824183333334, "name": "88b5cc9ba19b36cd9eb4b9a759ef94dd", "lat": 38.91706383333333, "is_reserved": 0, "fusion_lat": 0.0, "bike_id": "88b5cc9ba19b36cd9eb4b9a759ef94dd", "type": "electric_scooter", "is_disabled": 0, "fusion_lon": 0.0}, {"rental_uris": {"android": "https://dc.lft.to/lastmile_qr_scan", "ios": "https://dc.lft.to/lastmile_qr_scan"}, "lon": -77.04517716666666, "name": "75eba965c4dcc9479c64c53775d1f06b", "lat": 38.896068, "is_reserved": 0, "fusion_lat": 0.0, "bike_id": "75eba965c4dcc9479c64c53775d1f06b", "type": "electric_scooter", "is_disabled": 0, "fusion_lon": 0.0}, {"rental_uris": {"android": "https://dc.lft.to/lastmile_qr_scan", "ios": "https://dc.lft.to/lastmile_qr_scan"}, "lon": -77.03870583333334, "name": "4aaf9c36f565450ec184d8ea40331cd4", "lat": 38.915512, "is_reserved": 0, "fusion_lat": 0.0, "bike_id": "4aaf9c36f565450ec184d8ea40331cd4", "type": "electric_scooter", "is_disabled": 0, "fusion_lon": 0.0}, {"rental_uris": {"android": "https://dc.lft.to/lastmile_qr_scan", "ios": "https://dc.lft.to/lastmile_qr_scan"}, "lon": -77.02630933333333, "name": "7f81f55d4c24769d3a19598820e93ef7", "lat": 38.88767983333334, "is_reserved": 0, "fusion_lat": 0.0, "bike_id": "7f81f55d4c24769d3a19598820e93ef7", "type": "electric_scooter", "is_disabled": 0, "fusion_lon": 0.0}, {"rental_uris": {"android": "https://dc.lft.to/lastmile_qr_scan", "ios": "https://dc.lft.to/lastmile_qr_scan"}, "lon": -76.992563, "name": "646f2136fb3e9f03cb2a442844aa8ebc", "lat": 38.894358833333335, "is_reserved": 0, "fusion_lat": 0.0, "bike_id": "646f2136fb3e9f03cb2a442844aa8ebc", "type": "electric_scooter", "is_disabled": 0, "fusion_lon": 0.0}, {"rental_uris": {"android": "https://dc.lft.to/lastmile_qr_scan", "ios": "https://dc.lft.to/lastmile_qr_scan"}, "lon": -77.03861016666667, "name": "3fe62c43390525c8fa19ab18b7185814", "lat": 38.91706683333334, "is_reserved": 0, "fusion_lat": 0.0, "bike_id": "3fe62c43390525c8fa19ab18b7185814", "type": "electric_scooter", "is_disabled": 0, "fusion_lon": 0.0}, {"rental_uris": {"android": "https://dc.lft.to/lastmile_qr_scan", "ios": "https://dc.lft.to/lastmile_qr_scan"}, "lon": -77.00947566666666, "name": "24d32e8e3999405da9d71fec18d63b8a", "lat": 38.90563483333333, "is_reserved": 0, "fusion_lat": 0.0, "bike_id": "24d32e8e3999405da9d71fec18d63b8a", "type": "electric_scooter", "is_disabled": 0, "fusion_lon": 0.0}, {"rental_uris": {"android": "https://dc.lft.to/lastmile_qr_scan", "ios": "https://dc.lft.to/lastmile_qr_scan"}, "lon": -77.02378583333333, "name": "c2e77def4b24dca775cba2c8f9f0df29", "lat": 38.95250016666667, "is_reserved": 0, "fusion_lat": 0.0, "bike_id": "c2e77def4b24dca775cba2c8f9f0df29", "type": "electric_scooter", "is_disabled": 0, "fusion_lon": 0.0}, {"rental_uris": {"android": "https://dc.lft.to/lastmile_qr_scan", "ios": "https://dc.lft.to/lastmile_qr_scan"}, "lon": -77.034656, "name": "114e91239851a5d911546d959125ab59", "lat": 38.9067475, "is_reserved": 0, "fusion_lat": 0.0, "bike_id": "114e91239851a5d911546d959125ab59", "type": "electric_scooter", "is_disabled": 0, "fusion_lon": 0.0}, {"rental_uris": {"android": "https://dc.lft.to/lastmile_qr_scan", "ios": "https://dc.lft.to/lastmile_qr_scan"}, "lon": -76.98320416666667, "name": "4c1d3d90ec51edff71fe1525146e8296", "lat": 38.90438183333333, "is_reserved": 0, "fusion_lat": 0.0, "bike_id": "4c1d3d90ec51edff71fe1525146e8296", "type": "electric_scooter", "is_disabled": 0, "fusion_lon": 0.0}, {"rental_uris": {"android": "https://dc.lft.to/lastmile_qr_scan", "ios": "https://dc.lft.to/lastmile_qr_scan"}, "lon": -77.03474766666666, "name": "dbb410438bcb4cc34b5432ce08381eb9", "lat": 38.91702733333333, "is_reserved": 0, "fusion_lat": 0.0, "bike_id": "dbb410438bcb4cc34b5432ce08381eb9", "type": "electric_scooter", "is_disabled": 0, "fusion_lon": 0.0}, {"rental_uris": {"android": "https://dc.lft.to/lastmile_qr_scan", "ios": "https://dc.lft.to/lastmile_qr_scan"}, "lon": -77.07527733333333, "name": "92e48216e233a3a192f9fb1c55eda01b", "lat": 38.93959233333333, "is_reserved": 0, "fusion_lat": 0.0, "bike_id": "92e48216e233a3a192f9fb1c55eda01b", "type": "electric_scooter", "is_disabled": 0, "fusion_lon": 0.0}, {"rental_uris": {"android": "https://dc.lft.to/lastmile_qr_scan", "ios": "https://dc.lft.to/lastmile_qr_scan"}, "lon": -77.01827066666667, "name": "779ca76fe1ea8a012a3aad403ff4acf2", "lat": 38.90817583333333, "is_reserved": 0, "fusion_lat": 0.0, "bike_id": "779ca76fe1ea8a012a3aad403ff4acf2", "type": "electric_bike", "is_disabled": 0, "fusion_lon": 0.0}, {"rental_uris": {"android": "https://dc.lft.to/lastmile_qr_scan", "ios": "https://dc.lft.to/lastmile_qr_scan"}, "lon": -77.02403916666667, "name": "44ed4bfc04784fd947bc49ab69a7b007", "lat": 38.95732133333333, "is_reserved": 0, "fusion_lat": 0.0, "bike_id": "44ed4bfc04784fd947bc49ab69a7b007", "type": "electric_scooter", "is_disabled": 0, "fusion_lon": 0.0}, {"rental_uris": {"android": "https://dc.lft.to/lastmile_qr_scan", "ios": "https://dc.lft.to/lastmile_qr_scan"}, "lon": -77.00349316666667, "name": "88c273e7e2e25568e3ed3e2187be7d28", "lat": 38.894628833333336, "is_reserved": 0, "fusion_lat": 0.0, "bike_id": "88c273e7e2e25568e3ed3e2187be7d28", "type": "electric_scooter", "is_disabled": 0, "fusion_lon": 0.0}, {"rental_uris": {"android": "https://dc.lft.to/lastmile_qr_scan", "ios": "https://dc.lft.to/lastmile_qr_scan"}, "lon": -77.02479383333333, "name": "1d0c82fef3df9ea809e89757860ee7d7", "lat": 38.903888333333335, "is_reserved": 0, "fusion_lat": 0.0, "bike_id": "1d0c82fef3df9ea809e89757860ee7d7", "type": "electric_scooter", "is_disabled": 0, "fusion_lon": 0.0}, {"rental_uris": {"android": "https://dc.lft.to/lastmile_qr_scan", "ios": "https://dc.lft.to/lastmile_qr_scan"}, "lon": -77.01880733333333, "name": "b22f9c964fbd0531650e08b4effe5350", "lat": 38.90562516666667, "is_reserved": 0, "fusion_lat": 0.0, "bike_id": "b22f9c964fbd0531650e08b4effe5350", "type": "electric_scooter", "is_disabled": 0, "fusion_lon": 0.0}, {"rental_uris": {"android": "https://dc.lft.to/lastmile_qr_scan", "ios": "https://dc.lft.to/lastmile_qr_scan"}, "lon": -77.050816, "name": "8dac13093dd9ad884b9b1706a3494702", "lat": 38.9005285, "is_reserved": 0, "fusion_lat": 0.0, "bike_id": "8dac13093dd9ad884b9b1706a3494702", "type": "electric_scooter", "is_disabled": 0, "fusion_lon": 0.0}, {"rental_uris": {"android": "https://dc.lft.to/lastmile_qr_scan", "ios": "https://dc.lft.to/lastmile_qr_scan"}, "lon": -77.00203166666667, "name": "1e1dd3486f9154e73757b03972835a1c", "lat": 38.89515, "is_reserved": 0, "fusion_lat": 0.0, "bike_id": "1e1dd3486f9154e73757b03972835a1c", "type": "electric_scooter", "is_disabled": 0, "fusion_lon": 0.0}, {"rental_uris": {"android": "https://dc.lft.to/lastmile_qr_scan", "ios": "https://dc.lft.to/lastmile_qr_scan"}, "lon": -77.03264016666667, "name": "3049c7b43c88eb7c1826d3025addbfd1", "lat": 38.93980116666667, "is_reserved": 0, "fusion_lat": 0.0, "bike_id": "3049c7b43c88eb7c1826d3025addbfd1", "type": "electric_scooter", "is_disabled": 0, "fusion_lon": 0.0}, {"rental_uris": {"android": "https://dc.lft.to/lastmile_qr_scan", "ios": "https://dc.lft.to/lastmile_qr_scan"}, "lon": -77.04118633333333, "name": "7081ac1bfb14a9508897f4e4874ab479", "lat": 38.9218735, "is_reserved": 0, "fusion_lat": 0.0, "bike_id": "7081ac1bfb14a9508897f4e4874ab479", "type": "electric_scooter", "is_disabled": 0, "fusion_lon": 0.0}, {"rental_uris": {"android": "https://dc.lft.to/lastmile_qr_scan", "ios": "https://dc.lft.to/lastmile_qr_scan"}, "lon": -77.042675, "name": "8b0c4fe3fc520257f4ec55dce2063b7d", "lat": 38.830983833333335, "is_reserved": 0, "fusion_lat": 0.0, "bike_id": "8b0c4fe3fc520257f4ec55dce2063b7d", "type": "electric_bike", "is_disabled": 0, "fusion_lon": 0.0}, {"rental_uris": {"android": "https://dc.lft.to/lastmile_qr_scan", "ios": "https://dc.lft.to/lastmile_qr_scan"}, "lon": -77.02385133333334, "name": "b96b3de644f3cf0c6a4091a487f3b51c", "lat": 38.892284, "is_reserved": 0, "fusion_lat": 0.0, "bike_id": "b96b3de644f3cf0c6a4091a487f3b51c", "type": "electric_scooter", "is_disabled": 0, "fusion_lon": 0.0}, {"rental_uris": {"android": "https://dc.lft.to/lastmile_qr_scan", "ios": "https://dc.lft.to/lastmile_qr_scan"}, "lon": -77.00890266666667, "name": "9f8ca4e0d6cc63170f588350f4fa5235", "lat": 38.914712, "is_reserved": 0, "fusion_lat": 0.0, "bike_id": "9f8ca4e0d6cc63170f588350f4fa5235", "type": "electric_scooter", "is_disabled": 0, "fusion_lon": 0.0}, {"rental_uris": {"android": "https://dc.lft.to/lastmile_qr_scan", "ios": "https://dc.lft.to/lastmile_qr_scan"}, "lon": -77.02381866666667, "name": "108179a6e465cb4b453487e4f52e789c", "lat": 38.891969333333336, "is_reserved": 0, "fusion_lat": 0.0, "bike_id": "108179a6e465cb4b453487e4f52e789c", "type": "electric_scooter", "is_disabled": 0, "fusion_lon": 0.0}, {"rental_uris": {"android": "https://dc.lft.to/lastmile_qr_scan", "ios": "https://dc.lft.to/lastmile_qr_scan"}, "lon": -77.043159, "name": "bc89c91f895b370560b3b0ec1a9a3e6b", "lat": 38.914074666666664, "is_reserved": 0, "fusion_lat": 0.0, "bike_id": "bc89c91f895b370560b3b0ec1a9a3e6b", "type": "electric_scooter", "is_disabled": 0, "fusion_lon": 0.0}, {"rental_uris": {"android": "https://dc.lft.to/lastmile_qr_scan", "ios": "https://dc.lft.to/lastmile_qr_scan"}, "lon": -77.0211545, "name": "94478008fb9f1012425bc3dfa193a551", "lat": 38.92758933333333, "is_reserved": 0, "fusion_lat": 0.0, "bike_id": "94478008fb9f1012425bc3dfa193a551", "type": "electric_scooter", "is_disabled": 0, "fusion_lon": 0.0}, {"rental_uris": {"android": "https://dc.lft.to/lastmile_qr_scan", "ios": "https://dc.lft.to/lastmile_qr_scan"}, "lon": -77.023858, "name": "7fc22f2e7fb9819ba274acbc07b5eda1", "lat": 38.90705783333333, "is_reserved": 0, "fusion_lat": 0.0, "bike_id": "7fc22f2e7fb9819ba274acbc07b5eda1", "type": "electric_scooter", "is_disabled": 0, "fusion_lon": 0.0}, {"rental_uris": {"android": "https://dc.lft.to/lastmile_qr_scan", "ios": "https://dc.lft.to/lastmile_qr_scan"}, "lon": -77.02224416666667, "name": "b09a075f612c87e93c20b7bc18663497", "lat": 38.95689516666667, "is_reserved": 0, "fusion_lat": 0.0, "bike_id": "b09a075f612c87e93c20b7bc18663497", "type": "electric_bike", "is_disabled": 0, "fusion_lon": 0.0}, {"rental_uris": {"android": "https://dc.lft.to/lastmile_qr_scan", "ios": "https://dc.lft.to/lastmile_qr_scan"}, "lon": -76.92897116666667, "name": "139ee6430ce56673bdb33f910fa4cae5", "lat": 38.90188933333334, "is_reserved": 0, "fusion_lat": 0.0, "bike_id": "139ee6430ce56673bdb33f910fa4cae5", "type": "electric_scooter", "is_disabled": 0, "fusion_lon": 0.0}, {"rental_uris": {"android": "https://dc.lft.to/lastmile_qr_scan", "ios": "https://dc.lft.to/lastmile_qr_scan"}, "lon": -77.0034795, "name": "1dcc3faa8f13522ed69dada6b0d730d2", "lat": 38.8870115, "is_reserved": 0, "fusion_lat": 0.0, "bike_id": "1dcc3faa8f13522ed69dada6b0d730d2", "type": "electric_scooter", "is_disabled": 0, "fusion_lon": 0.0}, {"rental_uris": {"android": "https://dc.lft.to/lastmile_qr_scan", "ios": "https://dc.lft.to/lastmile_qr_scan"}, "lon": -76.98498716666667, "name": "4301701ecd959af3facede66dc1d622b", "lat": 38.906874333333334, "is_reserved": 0, "fusion_lat": 0.0, "bike_id": "4301701ecd959af3facede66dc1d622b", "type": "electric_scooter", "is_disabled": 0, "fusion_lon": 0.0}, {"rental_uris": {"android": "https://dc.lft.to/lastmile_qr_scan", "ios": "https://dc.lft.to/lastmile_qr_scan"}, "lon": -77.0388665, "name": "3777f1536caa52279fd039d83a91cb34", "lat": 38.918372166666664, "is_reserved": 0, "fusion_lat": 0.0, "bike_id": "3777f1536caa52279fd039d83a91cb34", "type": "electric_scooter", "is_disabled": 0, "fusion_lon": 0.0}, {"rental_uris": {"android": "https://dc.lft.to/lastmile_qr_scan", "ios": "https://dc.lft.to/lastmile_qr_scan"}, "lon": -77.02156916666667, "name": "4aa6d2c1059abaa0bd188a4d6e7da7e6", "lat": 38.87923983333334, "is_reserved": 0, "fusion_lat": 0.0, "bike_id": "4aa6d2c1059abaa0bd188a4d6e7da7e6", "type": "electric_scooter", "is_disabled": 0, "fusion_lon": 0.0}, {"rental_uris": {"android": "https://dc.lft.to/lastmile_qr_scan", "ios": "https://dc.lft.to/lastmile_qr_scan"}, "lon": -77.0006375, "name": "9f81f8ae0f7d732bbaba03551cb30197", "lat": 38.87678316666667, "is_reserved": 0, "fusion_lat": 0.0, "bike_id": "9f81f8ae0f7d732bbaba03551cb30197", "type": "electric_scooter", "is_disabled": 0, "fusion_lon": 0.0}, {"rental_uris": {"android": "https://dc.lft.to/lastmile_qr_scan", "ios": "https://dc.lft.to/lastmile_qr_scan"}, "lon": -77.03818566666666, "name": "3f1b4d79d81f9f37860956ca67ac0f14", "lat": 38.90241916666667, "is_reserved": 0, "fusion_lat": 0.0, "bike_id": "3f1b4d79d81f9f37860956ca67ac0f14", "type": "electric_scooter", "is_disabled": 0, "fusion_lon": 0.0}, {"rental_uris": {"android": "https://dc.lft.to/lastmile_qr_scan", "ios": "https://dc.lft.to/lastmile_qr_scan"}, "lon": -77.03053816666667, "name": "d2721d8adf995198895bd871f18ae862", "lat": 38.933076166666666, "is_reserved": 0, "fusion_lat": 0.0, "bike_id": "d2721d8adf995198895bd871f18ae862", "type": "electric_scooter", "is_disabled": 0, "fusion_lon": 0.0}, {"rental_uris": {"android": "https://dc.lft.to/lastmile_qr_scan", "ios": "https://dc.lft.to/lastmile_qr_scan"}, "lon": -77.0287465, "name": "563e691273fceecd9d955258f7769aeb", "lat": 38.9572235, "is_reserved": 0, "fusion_lat": 0.0, "bike_id": "563e691273fceecd9d955258f7769aeb", "type": "electric_scooter", "is_disabled": 0, "fusion_lon": 0.0}, {"rental_uris": {"android": "https://dc.lft.to/lastmile_qr_scan", "ios": "https://dc.lft.to/lastmile_qr_scan"}, "lon": -77.05525366666667, "name": "9e75fa9d629c5c4c631106f825897cc0", "lat": 38.927941, "is_reserved": 0, "fusion_lat": 0.0, "bike_id": "9e75fa9d629c5c4c631106f825897cc0", "type": "electric_scooter", "is_disabled": 0, "fusion_lon": 0.0}, {"rental_uris": {"android": "https://dc.lft.to/lastmile_qr_scan", "ios": "https://dc.lft.to/lastmile_qr_scan"}, "lon": -77.02715533333334, "name": "9773f07e3c62d105bd15942545262d26", "lat": 38.927803, "is_reserved": 0, "fusion_lat": 0.0, "bike_id": "9773f07e3c62d105bd15942545262d26", "type": "electric_scooter", "is_disabled": 0, "fusion_lon": 0.0}, {"rental_uris": {"android": "https://dc.lft.to/lastmile_qr_scan", "ios": "https://dc.lft.to/lastmile_qr_scan"}, "lon": -77.02529516666667, "name": "44af0a7330a7a55c759eb4f06bba1282", "lat": 38.90647666666667, "is_reserved": 0, "fusion_lat": 0.0, "bike_id": "44af0a7330a7a55c759eb4f06bba1282", "type": "electric_scooter", "is_disabled": 0, "fusion_lon": 0.0}, {"rental_uris": {"android": "https://dc.lft.to/lastmile_qr_scan", "ios": "https://dc.lft.to/lastmile_qr_scan"}, "lon": -77.04708416666666, "name": "8aa7ca764a4f9619de2d2349156da524", "lat": 38.897266333333334, "is_reserved": 0, "fusion_lat": 0.0, "bike_id": "8aa7ca764a4f9619de2d2349156da524", "type": "electric_scooter", "is_disabled": 0, "fusion_lon": 0.0}, {"rental_uris": {"android": "https://dc.lft.to/lastmile_qr_scan", "ios": "https://dc.lft.to/lastmile_qr_scan"}, "lon": -77.03280966666667, "name": "e1981098e37e9467c66c4d25dc8cb001", "lat": 38.93684966666667, "is_reserved": 0, "fusion_lat": 0.0, "bike_id": "e1981098e37e9467c66c4d25dc8cb001", "type": "electric_scooter", "is_disabled": 0, "fusion_lon": 0.0}, {"rental_uris": {"android": "https://dc.lft.to/lastmile_qr_scan", "ios": "https://dc.lft.to/lastmile_qr_scan"}, "lon": -76.95668116666667, "name": "951b733268e07cbc0851a412a9441c30", "lat": 38.88466866666667, "is_reserved": 0, "fusion_lat": 0.0, "bike_id": "951b733268e07cbc0851a412a9441c30", "type": "electric_bike", "is_disabled": 0, "fusion_lon": 0.0}, {"rental_uris": {"android": "https://dc.lft.to/lastmile_qr_scan", "ios": "https://dc.lft.to/lastmile_qr_scan"}, "lon": -77.04307183333333, "name": "35f4db1e1d85a4e0210c52c22e9db252", "lat": 39.034255, "is_reserved": 0, "fusion_lat": 0.0, "bike_id": "35f4db1e1d85a4e0210c52c22e9db252", "type": "electric_bike", "is_disabled": 0, "fusion_lon": 0.0}, {"rental_uris": {"android": "https://dc.lft.to/lastmile_qr_scan", "ios": "https://dc.lft.to/lastmile_qr_scan"}, "lon": -77.04229683333334, "name": "59b4b82f7d44593e3c978c8b38c9e43d", "lat": 38.9218335, "is_reserved": 0, "fusion_lat": 0.0, "bike_id": "59b4b82f7d44593e3c978c8b38c9e43d", "type": "electric_scooter", "is_disabled": 0, "fusion_lon": 0.0}, {"rental_uris": {"android": "https://dc.lft.to/lastmile_qr_scan", "ios": "https://dc.lft.to/lastmile_qr_scan"}, "lon": -77.06107816666666, "name": "cb9236f681602c4cfdbc71bc2c09b071", "lat": 38.9052285, "is_reserved": 0, "fusion_lat": 0.0, "bike_id": "cb9236f681602c4cfdbc71bc2c09b071", "type": "electric_scooter", "is_disabled": 0, "fusion_lon": 0.0}, {"rental_uris": {"android": "https://dc.lft.to/lastmile_qr_scan", "ios": "https://dc.lft.to/lastmile_qr_scan"}, "lon": -77.04453783333334, "name": "0a2c1755e06ac578e536bec43a26a892", "lat": 38.90357066666667, "is_reserved": 0, "fusion_lat": 0.0, "bike_id": "0a2c1755e06ac578e536bec43a26a892", "type": "electric_scooter", "is_disabled": 0, "fusion_lon": 0.0}, {"rental_uris": {"android": "https://dc.lft.to/lastmile_qr_scan", "ios": "https://dc.lft.to/lastmile_qr_scan"}, "lon": -77.02481066666667, "name": "0b542ef4c9dc8014c9654f7df1d0cb52", "lat": 38.88300816666667, "is_reserved": 0, "fusion_lat": 0.0, "bike_id": "0b542ef4c9dc8014c9654f7df1d0cb52", "type": "electric_scooter", "is_disabled": 0, "fusion_lon": 0.0}, {"rental_uris": {"android": "https://dc.lft.to/lastmile_qr_scan", "ios": "https://dc.lft.to/lastmile_qr_scan"}, "lon": -77.229231, "name": "efe3d49a4fcdd0f2c115c74ec8bb84c6", "lat": 38.931877166666666, "is_reserved": 0, "fusion_lat": 0.0, "bike_id": "efe3d49a4fcdd0f2c115c74ec8bb84c6", "type": "electric_bike", "is_disabled": 0, "fusion_lon": 0.0}, {"rental_uris": {"android": "https://dc.lft.to/lastmile_qr_scan", "ios": "https://dc.lft.to/lastmile_qr_scan"}, "lon": -77.01589433333334, "name": "ce306dd4fb41b2148d31200275d96129", "lat": 38.92715366666667, "is_reserved": 0, "fusion_lat": 0.0, "bike_id": "ce306dd4fb41b2148d31200275d96129", "type": "electric_scooter", "is_disabled": 0, "fusion_lon": 0.0}, {"rental_uris": {"android": "https://dc.lft.to/lastmile_qr_scan", "ios": "https://dc.lft.to/lastmile_qr_scan"}, "lon": -77.05150983333333, "name": "26d96f79e189e67096e7e2dc68a55ce7", "lat": 38.89682066666667, "is_reserved": 0, "fusion_lat": 0.0, "bike_id": "26d96f79e189e67096e7e2dc68a55ce7", "type": "electric_scooter", "is_disabled": 0, "fusion_lon": 0.0}, {"rental_uris": {"android": "https://dc.lft.to/lastmile_qr_scan", "ios": "https://dc.lft.to/lastmile_qr_scan"}, "lon": -77.0319215, "name": "6afca9c7da9f7d6f75b8fee6a9791dce", "lat": 38.91628583333333, "is_reserved": 0, "fusion_lat": 0.0, "bike_id": "6afca9c7da9f7d6f75b8fee6a9791dce", "type": "electric_scooter", "is_disabled": 0, "fusion_lon": 0.0}, {"rental_uris": {"android": "https://dc.lft.to/lastmile_qr_scan", "ios": "https://dc.lft.to/lastmile_qr_scan"}, "lon": -77.05088833333333, "name": "a864b86462edc35a08c6ecf45f09c816", "lat": 38.81331616666667, "is_reserved": 0, "fusion_lat": 0.0, "bike_id": "a864b86462edc35a08c6ecf45f09c816", "type": "electric_bike", "is_disabled": 0, "fusion_lon": 0.0}, {"rental_uris": {"android": "https://dc.lft.to/lastmile_qr_scan", "ios": "https://dc.lft.to/lastmile_qr_scan"}, "lon": -77.02558166666667, "name": "80d3f6f53e08a1b5a25268e637cd7f05", "lat": 38.92385266666667, "is_reserved": 0, "fusion_lat": 0.0, "bike_id": "80d3f6f53e08a1b5a25268e637cd7f05", "type": "electric_scooter", "is_disabled": 0, "fusion_lon": 0.0}, {"rental_uris": {"android": "https://dc.lft.to/lastmile_qr_scan", "ios": "https://dc.lft.to/lastmile_qr_scan"}, "lon": -77.01991783333334, "name": "3a085cc5e04bfdd4a9c55cf479c27014", "lat": 38.883648, "is_reserved": 0, "fusion_lat": 0.0, "bike_id": "3a085cc5e04bfdd4a9c55cf479c27014", "type": "electric_scooter", "is_disabled": 0, "fusion_lon": 0.0}, {"rental_uris": {"android": "https://dc.lft.to/lastmile_qr_scan", "ios": "https://dc.lft.to/lastmile_qr_scan"}, "lon": -77.0119435, "name": "1bc653553b705d2605ae6ea61ba3a07b", "lat": 38.927597166666665, "is_reserved": 0, "fusion_lat": 0.0, "bike_id": "1bc653553b705d2605ae6ea61ba3a07b", "type": "electric_scooter", "is_disabled": 0, "fusion_lon": 0.0}, {"rental_uris": {"android": "https://dc.lft.to/lastmile_qr_scan", "ios": "https://dc.lft.to/lastmile_qr_scan"}, "lon": -77.03203316666666, "name": "9cf824ab72d681f196f7e66aeffb15f7", "lat": 38.927779666666666, "is_reserved": 0, "fusion_lat": 0.0, "bike_id": "9cf824ab72d681f196f7e66aeffb15f7", "type": "electric_scooter", "is_disabled": 0, "fusion_lon": 0.0}, {"rental_uris": {"android": "https://dc.lft.to/lastmile_qr_scan", "ios": "https://dc.lft.to/lastmile_qr_scan"}, "lon": -76.9890555, "name": "7469e6145da14e0447534165fcd4c759", "lat": 38.90028016666667, "is_reserved": 0, "fusion_lat": 0.0, "bike_id": "7469e6145da14e0447534165fcd4c759", "type": "electric_scooter", "is_disabled": 0, "fusion_lon": 0.0}, {"rental_uris": {"android": "https://dc.lft.to/lastmile_qr_scan", "ios": "https://dc.lft.to/lastmile_qr_scan"}, "lon": -77.02694433333333, "name": "6d2b0eb1db13c834c03df8fd98dc0a3a", "lat": 38.90685033333333, "is_reserved": 0, "fusion_lat": 0.0, "bike_id": "6d2b0eb1db13c834c03df8fd98dc0a3a", "type": "electric_scooter", "is_disabled": 0, "fusion_lon": 0.0}, {"rental_uris": {"android": "https://dc.lft.to/lastmile_qr_scan", "ios": "https://dc.lft.to/lastmile_qr_scan"}, "lon": -77.01190183333334, "name": "c5fcc0da55a8d383e59cdba893ad901a", "lat": 38.9002225, "is_reserved": 0, "fusion_lat": 0.0, "bike_id": "c5fcc0da55a8d383e59cdba893ad901a", "type": "electric_scooter", "is_disabled": 0, "fusion_lon": 0.0}, {"rental_uris": {"android": "https://dc.lft.to/lastmile_qr_scan", "ios": "https://dc.lft.to/lastmile_qr_scan"}, "lon": -77.0118525, "name": "3203e4086205aef256e64163c988a578", "lat": 38.9002515, "is_reserved": 0, "fusion_lat": 0.0, "bike_id": "3203e4086205aef256e64163c988a578", "type": "electric_scooter", "is_disabled": 0, "fusion_lon": 0.0}, {"rental_uris": {"android": "https://dc.lft.to/lastmile_qr_scan", "ios": "https://dc.lft.to/lastmile_qr_scan"}, "lon": -77.02709466666667, "name": "e8b33672b3460b6e1ef349fbd2ce59d9", "lat": 38.897385166666666, "is_reserved": 0, "fusion_lat": 0.0, "bike_id": "e8b33672b3460b6e1ef349fbd2ce59d9", "type": "electric_scooter", "is_disabled": 0, "fusion_lon": 0.0}, {"rental_uris": {"android": "https://dc.lft.to/lastmile_qr_scan", "ios": "https://dc.lft.to/lastmile_qr_scan"}, "lon": -77.00201316666667, "name": "df64872d263c1e5940cc78725ec29c71", "lat": 38.902422666666666, "is_reserved": 0, "fusion_lat": 0.0, "bike_id": "df64872d263c1e5940cc78725ec29c71", "type": "electric_scooter", "is_disabled": 0, "fusion_lon": 0.0}, {"rental_uris": {"android": "https://dc.lft.to/lastmile_qr_scan", "ios": "https://dc.lft.to/lastmile_qr_scan"}, "lon": -77.0361535, "name": "0a727000f1750ca88ee4148033efa86c", "lat": 38.93733816666666, "is_reserved": 0, "fusion_lat": 0.0, "bike_id": "0a727000f1750ca88ee4148033efa86c", "type": "electric_scooter", "is_disabled": 0, "fusion_lon": 0.0}, {"rental_uris": {"android": "https://dc.lft.to/lastmile_qr_scan", "ios": "https://dc.lft.to/lastmile_qr_scan"}, "lon": -77.05129266666667, "name": "96ca7154c5a92f4dfaaafedfcd2e58aa", "lat": 38.9252405, "is_reserved": 0, "fusion_lat": 0.0, "bike_id": "96ca7154c5a92f4dfaaafedfcd2e58aa", "type": "electric_scooter", "is_disabled": 0, "fusion_lon": 0.0}, {"rental_uris": {"android": "https://dc.lft.to/lastmile_qr_scan", "ios": "https://dc.lft.to/lastmile_qr_scan"}, "lon": -77.0281325, "name": "6406c49be452a61a38283b2d03961270", "lat": 38.90938416666667, "is_reserved": 0, "fusion_lat": 0.0, "bike_id": "6406c49be452a61a38283b2d03961270", "type": "electric_scooter", "is_disabled": 0, "fusion_lon": 0.0}, {"rental_uris": {"android": "https://dc.lft.to/lastmile_qr_scan", "ios": "https://dc.lft.to/lastmile_qr_scan"}, "lon": -77.0224015, "name": "0a1de139ffddf78160ad5d073ca8f297", "lat": 38.922403, "is_reserved": 0, "fusion_lat": 0.0, "bike_id": "0a1de139ffddf78160ad5d073ca8f297", "type": "electric_scooter", "is_disabled": 0, "fusion_lon": 0.0}, {"rental_uris": {"android": "https://dc.lft.to/lastmile_qr_scan", "ios": "https://dc.lft.to/lastmile_qr_scan"}, "lon": -77.03180866666666, "name": "5afd5fbff6d334f97d1977b54a4723b9", "lat": 38.91965966666667, "is_reserved": 0, "fusion_lat": 0.0, "bike_id": "5afd5fbff6d334f97d1977b54a4723b9", "type": "electric_scooter", "is_disabled": 0, "fusion_lon": 0.0}, {"rental_uris": {"android": "https://dc.lft.to/lastmile_qr_scan", "ios": "https://dc.lft.to/lastmile_qr_scan"}, "lon": -77.03946083333334, "name": "68543345a29b6e48d39958aa7521bf89", "lat": 38.924696833333336, "is_reserved": 0, "fusion_lat": 0.0, "bike_id": "68543345a29b6e48d39958aa7521bf89", "type": "electric_scooter", "is_disabled": 0, "fusion_lon": 0.0}, {"rental_uris": {"android": "https://dc.lft.to/lastmile_qr_scan", "ios": "https://dc.lft.to/lastmile_qr_scan"}, "lon": -77.04695766666667, "name": "2faccd750b9e3f812d5ffbd689247916", "lat": 38.92160466666667, "is_reserved": 0, "fusion_lat": 0.0, "bike_id": "2faccd750b9e3f812d5ffbd689247916", "type": "electric_scooter", "is_disabled": 0, "fusion_lon": 0.0}, {"rental_uris": {"android": "https://dc.lft.to/lastmile_qr_scan", "ios": "https://dc.lft.to/lastmile_qr_scan"}, "lon": -77.0386495, "name": "2d981878e631a9d7b272516455364346", "lat": 38.91256833333333, "is_reserved": 0, "fusion_lat": 0.0, "bike_id": "2d981878e631a9d7b272516455364346", "type": "electric_scooter", "is_disabled": 0, "fusion_lon": 0.0}, {"rental_uris": {"android": "https://dc.lft.to/lastmile_qr_scan", "ios": "https://dc.lft.to/lastmile_qr_scan"}, "lon": -77.0260175, "name": "35643f3a07e9fff66d9b172856e39302", "lat": 38.902287666666666, "is_reserved": 0, "fusion_lat": 0.0, "bike_id": "35643f3a07e9fff66d9b172856e39302", "type": "electric_scooter", "is_disabled": 0, "fusion_lon": 0.0}, {"rental_uris": {"android": "https://dc.lft.to/lastmile_qr_scan", "ios": "https://dc.lft.to/lastmile_qr_scan"}, "lon": -77.02582016666666, "name": "cf68336bece691f6589a394311c9b848", "lat": 38.8873385, "is_reserved": 0, "fusion_lat": 0.0, "bike_id": "cf68336bece691f6589a394311c9b848", "type": "electric_scooter", "is_disabled": 0, "fusion_lon": 0.0}, {"rental_uris": {"android": "https://dc.lft.to/lastmile_qr_scan", "ios": "https://dc.lft.to/lastmile_qr_scan"}, "lon": -77.00304233333334, "name": "2dbff46612c06fdbacbb91e47956407b", "lat": 38.9203, "is_reserved": 0, "fusion_lat": 0.0, "bike_id": "2dbff46612c06fdbacbb91e47956407b", "type": "electric_scooter", "is_disabled": 0, "fusion_lon": 0.0}, {"rental_uris": {"android": "https://dc.lft.to/lastmile_qr_scan", "ios": "https://dc.lft.to/lastmile_qr_scan"}, "lon": -77.02489066666666, "name": "cd6b066393e163e9a95f3b898afc642c", "lat": 38.91954333333334, "is_reserved": 0, "fusion_lat": 0.0, "bike_id": "cd6b066393e163e9a95f3b898afc642c", "type": "electric_scooter", "is_disabled": 0, "fusion_lon": 0.0}, {"rental_uris": {"android": "https://dc.lft.to/lastmile_qr_scan", "ios": "https://dc.lft.to/lastmile_qr_scan"}, "lon": -77.14059316666666, "name": "cb0d5b502b7fce3461e67938959008de", "lat": 38.98767566666667, "is_reserved": 0, "fusion_lat": 0.0, "bike_id": "cb0d5b502b7fce3461e67938959008de", "type": "electric_bike", "is_disabled": 0, "fusion_lon": 0.0}, {"rental_uris": {"android": "https://dc.lft.to/lastmile_qr_scan", "ios": "https://dc.lft.to/lastmile_qr_scan"}, "lon": -76.986973, "name": "e4b2180c277e9ed10b3b9101b6ee99d6", "lat": 38.86720716666667, "is_reserved": 0, "fusion_lat": 0.0, "bike_id": "e4b2180c277e9ed10b3b9101b6ee99d6", "type": "electric_scooter", "is_disabled": 0, "fusion_lon": 0.0}, {"rental_uris": {"android": "https://dc.lft.to/lastmile_qr_scan", "ios": "https://dc.lft.to/lastmile_qr_scan"}, "lon": -77.00711116666666, "name": "0cfb9223d34017c0f70f81b268216822", "lat": 38.88486983333333, "is_reserved": 0, "fusion_lat": 0.0, "bike_id": "0cfb9223d34017c0f70f81b268216822", "type": "electric_scooter", "is_disabled": 0, "fusion_lon": 0.0}, {"rental_uris": {"android": "https://dc.lft.to/lastmile_qr_scan", "ios": "https://dc.lft.to/lastmile_qr_scan"}, "lon": -77.05130666666666, "name": "b9ae36dea64c4260e1d960a7963ab8df", "lat": 38.92360633333333, "is_reserved": 0, "fusion_lat": 0.0, "bike_id": "b9ae36dea64c4260e1d960a7963ab8df", "type": "electric_scooter", "is_disabled": 0, "fusion_lon": 0.0}, {"rental_uris": {"android": "https://dc.lft.to/lastmile_qr_scan", "ios": "https://dc.lft.to/lastmile_qr_scan"}, "lon": -76.99999116666666, "name": "616c5ba0562751f3cfa87b3adebb26fb", "lat": 38.83325966666666, "is_reserved": 0, "fusion_lat": 0.0, "bike_id": "616c5ba0562751f3cfa87b3adebb26fb", "type": "electric_bike", "is_disabled": 0, "fusion_lon": 0.0}, {"rental_uris": {"android": "https://dc.lft.to/lastmile_qr_scan", "ios": "https://dc.lft.to/lastmile_qr_scan"}, "lon": -77.02151166666667, "name": "3ac75c1104065141427b6f3dbcf60054", "lat": 38.92466133333333, "is_reserved": 0, "fusion_lat": 0.0, "bike_id": "3ac75c1104065141427b6f3dbcf60054", "type": "electric_scooter", "is_disabled": 0, "fusion_lon": 0.0}, {"rental_uris": {"android": "https://dc.lft.to/lastmile_qr_scan", "ios": "https://dc.lft.to/lastmile_qr_scan"}, "lon": -77.03936333333333, "name": "80024bb0a31b7fe4a77dfeb56a9ce5dd", "lat": 38.91254716666667, "is_reserved": 0, "fusion_lat": 0.0, "bike_id": "80024bb0a31b7fe4a77dfeb56a9ce5dd", "type": "electric_scooter", "is_disabled": 0, "fusion_lon": 0.0}, {"rental_uris": {"android": "https://dc.lft.to/lastmile_qr_scan", "ios": "https://dc.lft.to/lastmile_qr_scan"}, "lon": -77.18436683333333, "name": "3dc0951950d2cc31b4c1d76d7e2eb995", "lat": 38.89066033333334, "is_reserved": 0, "fusion_lat": 0.0, "bike_id": "3dc0951950d2cc31b4c1d76d7e2eb995", "type": "electric_bike", "is_disabled": 0, "fusion_lon": 0.0}, {"rental_uris": {"android": "https://dc.lft.to/lastmile_qr_scan", "ios": "https://dc.lft.to/lastmile_qr_scan"}, "lon": -77.03383866666667, "name": "b8a974d9576d7fe930e4b399b2441871", "lat": 38.90195466666667, "is_reserved": 0, "fusion_lat": 0.0, "bike_id": "b8a974d9576d7fe930e4b399b2441871", "type": "electric_scooter", "is_disabled": 0, "fusion_lon": 0.0}, {"rental_uris": {"android": "https://dc.lft.to/lastmile_qr_scan", "ios": "https://dc.lft.to/lastmile_qr_scan"}, "lon": -77.03800983333333, "name": "48d79da8af7ae34da6ff98d36255f370", "lat": 38.925012333333335, "is_reserved": 0, "fusion_lat": 0.0, "bike_id": "48d79da8af7ae34da6ff98d36255f370", "type": "electric_scooter", "is_disabled": 0, "fusion_lon": 0.0}, {"rental_uris": {"android": "https://dc.lft.to/lastmile_qr_scan", "ios": "https://dc.lft.to/lastmile_qr_scan"}, "lon": -76.94962866666667, "name": "4d1182b62dbf91fe86964a8459e43c73", "lat": 38.89465116666667, "is_reserved": 0, "fusion_lat": 0.0, "bike_id": "4d1182b62dbf91fe86964a8459e43c73", "type": "electric_scooter", "is_disabled": 0, "fusion_lon": 0.0}, {"rental_uris": {"android": "https://dc.lft.to/lastmile_qr_scan", "ios": "https://dc.lft.to/lastmile_qr_scan"}, "lon": -76.9742265, "name": "5cb965fcca751f434295a02afc316772", "lat": 38.864215333333334, "is_reserved": 0, "fusion_lat": 0.0, "bike_id": "5cb965fcca751f434295a02afc316772", "type": "electric_scooter", "is_disabled": 0, "fusion_lon": 0.0}, {"rental_uris": {"android": "https://dc.lft.to/lastmile_qr_scan", "ios": "https://dc.lft.to/lastmile_qr_scan"}, "lon": -77.03538283333333, "name": "e12962de496aa59cffe2c8aece0beb5d", "lat": 38.923354833333335, "is_reserved": 0, "fusion_lat": 0.0, "bike_id": "e12962de496aa59cffe2c8aece0beb5d", "type": "electric_scooter", "is_disabled": 0, "fusion_lon": 0.0}, {"rental_uris": {"android": "https://dc.lft.to/lastmile_qr_scan", "ios": "https://dc.lft.to/lastmile_qr_scan"}, "lon": -76.9870995, "name": "0888a5aa8ee10faac987887572fce222", "lat": 38.8662845, "is_reserved": 0, "fusion_lat": 0.0, "bike_id": "0888a5aa8ee10faac987887572fce222", "type": "electric_scooter", "is_disabled": 0, "fusion_lon": 0.0}, {"rental_uris": {"android": "https://dc.lft.to/lastmile_qr_scan", "ios": "https://dc.lft.to/lastmile_qr_scan"}, "lon": -76.9981345, "name": "45a28018b60925d925a7ba874a3dc447", "lat": 38.819903333333336, "is_reserved": 0, "fusion_lat": 0.0, "bike_id": "45a28018b60925d925a7ba874a3dc447", "type": "electric_bike", "is_disabled": 0, "fusion_lon": 0.0}, {"rental_uris": {"android": "https://dc.lft.to/lastmile_qr_scan", "ios": "https://dc.lft.to/lastmile_qr_scan"}, "lon": -77.04003416666667, "name": "e8db54f5dca5c158e9d3db0fe3894bde", "lat": 38.93427583333333, "is_reserved": 0, "fusion_lat": 0.0, "bike_id": "e8db54f5dca5c158e9d3db0fe3894bde", "type": "electric_scooter", "is_disabled": 0, "fusion_lon": 0.0}, {"rental_uris": {"android": "https://dc.lft.to/lastmile_qr_scan", "ios": "https://dc.lft.to/lastmile_qr_scan"}, "lon": -77.02033566666667, "name": "104781f9962c7ce20cf9641e292ea087", "lat": 38.9131115, "is_reserved": 0, "fusion_lat": 0.0, "bike_id": "104781f9962c7ce20cf9641e292ea087", "type": "electric_scooter", "is_disabled": 0, "fusion_lon": 0.0}, {"rental_uris": {"android": "https://dc.lft.to/lastmile_qr_scan", "ios": "https://dc.lft.to/lastmile_qr_scan"}, "lon": -77.00211766666666, "name": "6aaef84192581e6365072215fcff3333", "lat": 38.902415, "is_reserved": 0, "fusion_lat": 0.0, "bike_id": "6aaef84192581e6365072215fcff3333", "type": "electric_scooter", "is_disabled": 0, "fusion_lon": 0.0}, {"rental_uris": {"android": "https://dc.lft.to/lastmile_qr_scan", "ios": "https://dc.lft.to/lastmile_qr_scan"}, "lon": -77.01978916666667, "name": "697110fd95ae7d698cab6e730fd1f660", "lat": 38.96383266666667, "is_reserved": 0, "fusion_lat": 0.0, "bike_id": "697110fd95ae7d698cab6e730fd1f660", "type": "electric_bike", "is_disabled": 0, "fusion_lon": 0.0}, {"rental_uris": {"android": "https://dc.lft.to/lastmile_qr_scan", "ios": "https://dc.lft.to/lastmile_qr_scan"}, "lon": -76.9766925, "name": "356b616ff525aa4f14583bfccbbcc799", "lat": 38.840536166666666, "is_reserved": 0, "fusion_lat": 0.0, "bike_id": "356b616ff525aa4f14583bfccbbcc799", "type": "electric_scooter", "is_disabled": 0, "fusion_lon": 0.0}, {"rental_uris": {"android": "https://dc.lft.to/lastmile_qr_scan", "ios": "https://dc.lft.to/lastmile_qr_scan"}, "lon": -77.01750383333334, "name": "3fc81d98722693b03c66aca7e411bf1b", "lat": 38.902423666666664, "is_reserved": 0, "fusion_lat": 0.0, "bike_id": "3fc81d98722693b03c66aca7e411bf1b", "type": "electric_scooter", "is_disabled": 0, "fusion_lon": 0.0}, {"rental_uris": {"android": "https://dc.lft.to/lastmile_qr_scan", "ios": "https://dc.lft.to/lastmile_qr_scan"}, "lon": -77.03970883333334, "name": "7bd05b57c4605731d7860e8aeb4b0f17", "lat": 38.919779, "is_reserved": 0, "fusion_lat": 0.0, "bike_id": "7bd05b57c4605731d7860e8aeb4b0f17", "type": "electric_scooter", "is_disabled": 0, "fusion_lon": 0.0}, {"rental_uris": {"android": "https://dc.lft.to/lastmile_qr_scan", "ios": "https://dc.lft.to/lastmile_qr_scan"}, "lon": -76.93182916666666, "name": "478a6a0a941da7cfb84412cc6d2207a0", "lat": 38.89832633333333, "is_reserved": 0, "fusion_lat": 0.0, "bike_id": "478a6a0a941da7cfb84412cc6d2207a0", "type": "electric_scooter", "is_disabled": 0, "fusion_lon": 0.0}, {"rental_uris": {"android": "https://dc.lft.to/lastmile_qr_scan", "ios": "https://dc.lft.to/lastmile_qr_scan"}, "lon": -77.04149433333333, "name": "735d7b1eeeac4ac37ffc30ff325f45a0", "lat": 38.903994833333336, "is_reserved": 0, "fusion_lat": 0.0, "bike_id": "735d7b1eeeac4ac37ffc30ff325f45a0", "type": "electric_scooter", "is_disabled": 0, "fusion_lon": 0.0}, {"rental_uris": {"android": "https://dc.lft.to/lastmile_qr_scan", "ios": "https://dc.lft.to/lastmile_qr_scan"}, "lon": -77.005333, "name": "4c463739600a6406ec3312ea9ad01861", "lat": 38.846472166666665, "is_reserved": 0, "fusion_lat": 0.0, "bike_id": "4c463739600a6406ec3312ea9ad01861", "type": "electric_scooter", "is_disabled": 0, "fusion_lon": 0.0}, {"rental_uris": {"android": "https://dc.lft.to/lastmile_qr_scan", "ios": "https://dc.lft.to/lastmile_qr_scan"}, "lon": -77.04621816666666, "name": "dfeb31476de832988140c35989b5ec66", "lat": 38.89729583333333, "is_reserved": 0, "fusion_lat": 0.0, "bike_id": "dfeb31476de832988140c35989b5ec66", "type": "electric_scooter", "is_disabled": 0, "fusion_lon": 0.0}, {"rental_uris": {"android": "https://dc.lft.to/lastmile_qr_scan", "ios": "https://dc.lft.to/lastmile_qr_scan"}, "lon": -77.00258583333333, "name": "0a555f04fdad2e11fe615fbd3172d977", "lat": 38.89484316666667, "is_reserved": 0, "fusion_lat": 0.0, "bike_id": "0a555f04fdad2e11fe615fbd3172d977", "type": "electric_scooter", "is_disabled": 0, "fusion_lon": 0.0}, {"rental_uris": {"android": "https://dc.lft.to/lastmile_qr_scan", "ios": "https://dc.lft.to/lastmile_qr_scan"}, "lon": -77.02182366666666, "name": "91166237ee2ff3ef7afc4de84a4df4e6", "lat": 38.91465783333334, "is_reserved": 0, "fusion_lat": 0.0, "bike_id": "91166237ee2ff3ef7afc4de84a4df4e6", "type": "electric_scooter", "is_disabled": 0, "fusion_lon": 0.0}, {"rental_uris": {"android": "https://dc.lft.to/lastmile_qr_scan", "ios": "https://dc.lft.to/lastmile_qr_scan"}, "lon": -77.0217235, "name": "ac0b852a8add0e0408cc39df7f41ddb6", "lat": 38.9199545, "is_reserved": 0, "fusion_lat": 0.0, "bike_id": "ac0b852a8add0e0408cc39df7f41ddb6", "type": "electric_scooter", "is_disabled": 0, "fusion_lon": 0.0}, {"rental_uris": {"android": "https://dc.lft.to/lastmile_qr_scan", "ios": "https://dc.lft.to/lastmile_qr_scan"}, "lon": -77.03261083333334, "name": "df4f2a63291be628ee2b8b248c17a5b9", "lat": 38.939807333333334, "is_reserved": 0, "fusion_lat": 0.0, "bike_id": "df4f2a63291be628ee2b8b248c17a5b9", "type": "electric_scooter", "is_disabled": 0, "fusion_lon": 0.0}, {"rental_uris": {"android": "https://dc.lft.to/lastmile_qr_scan", "ios": "https://dc.lft.to/lastmile_qr_scan"}, "lon": -77.02047766666666, "name": "7ef47f46255e64714c744d0550c9734d", "lat": 38.915562333333334, "is_reserved": 0, "fusion_lat": 0.0, "bike_id": "7ef47f46255e64714c744d0550c9734d", "type": "electric_scooter", "is_disabled": 0, "fusion_lon": 0.0}, {"rental_uris": {"android": "https://dc.lft.to/lastmile_qr_scan", "ios": "https://dc.lft.to/lastmile_qr_scan"}, "lon": -77.01406166666666, "name": "3288f3eeb3295a1a0b893bc87fecedd7", "lat": 38.928541833333334, "is_reserved": 0, "fusion_lat": 0.0, "bike_id": "3288f3eeb3295a1a0b893bc87fecedd7", "type": "electric_scooter", "is_disabled": 0, "fusion_lon": 0.0}, {"rental_uris": {"android": "https://dc.lft.to/lastmile_qr_scan", "ios": "https://dc.lft.to/lastmile_qr_scan"}, "lon": -77.01616833333334, "name": "9dace48fad6fb3a251688f21d9fcdcb0", "lat": 38.9563945, "is_reserved": 0, "fusion_lat": 0.0, "bike_id": "9dace48fad6fb3a251688f21d9fcdcb0", "type": "electric_scooter", "is_disabled": 0, "fusion_lon": 0.0}, {"rental_uris": {"android": "https://dc.lft.to/lastmile_qr_scan", "ios": "https://dc.lft.to/lastmile_qr_scan"}, "lon": -77.04873416666666, "name": "867c81504a0f6255fe2d12d70f2a2fda", "lat": 38.912979166666666, "is_reserved": 0, "fusion_lat": 0.0, "bike_id": "867c81504a0f6255fe2d12d70f2a2fda", "type": "electric_scooter", "is_disabled": 0, "fusion_lon": 0.0}, {"rental_uris": {"android": "https://dc.lft.to/lastmile_qr_scan", "ios": "https://dc.lft.to/lastmile_qr_scan"}, "lon": -76.99003333333333, "name": "41fb93d800adfba920f8a35986ada40c", "lat": 38.865033333333336, "is_reserved": 0, "fusion_lat": 0.0, "bike_id": "41fb93d800adfba920f8a35986ada40c", "type": "electric_scooter", "is_disabled": 0, "fusion_lon": 0.0}, {"rental_uris": {"android": "https://dc.lft.to/lastmile_qr_scan", "ios": "https://dc.lft.to/lastmile_qr_scan"}, "lon": -77.01557116666666, "name": "534408f0c5d8dca22b3d54e087ae9825", "lat": 38.914065, "is_reserved": 0, "fusion_lat": 0.0, "bike_id": "534408f0c5d8dca22b3d54e087ae9825", "type": "electric_scooter", "is_disabled": 0, "fusion_lon": 0.0}, {"rental_uris": {"android": "https://dc.lft.to/lastmile_qr_scan", "ios": "https://dc.lft.to/lastmile_qr_scan"}, "lon": -77.03284333333333, "name": "4f1e29a374467a6077985dd31264761d", "lat": 38.8989525, "is_reserved": 0, "fusion_lat": 0.0, "bike_id": "4f1e29a374467a6077985dd31264761d", "type": "electric_scooter", "is_disabled": 0, "fusion_lon": 0.0}, {"rental_uris": {"android": "https://dc.lft.to/lastmile_qr_scan", "ios": "https://dc.lft.to/lastmile_qr_scan"}, "lon": -76.99836316666666, "name": "f16c3c61fa3ca499d8116dd19c426cab", "lat": 38.902391, "is_reserved": 0, "fusion_lat": 0.0, "bike_id": "f16c3c61fa3ca499d8116dd19c426cab", "type": "electric_scooter", "is_disabled": 0, "fusion_lon": 0.0}, {"rental_uris": {"android": "https://dc.lft.to/lastmile_qr_scan", "ios": "https://dc.lft.to/lastmile_qr_scan"}, "lon": -77.075975, "name": "839a7f5d9af591af3fd4d047382d45c8", "lat": 38.94107183333333, "is_reserved": 0, "fusion_lat": 0.0, "bike_id": "839a7f5d9af591af3fd4d047382d45c8", "type": "electric_scooter", "is_disabled": 0, "fusion_lon": 0.0}, {"rental_uris": {"android": "https://dc.lft.to/lastmile_qr_scan", "ios": "https://dc.lft.to/lastmile_qr_scan"}, "lon": -77.04672166666667, "name": "c55bbca9a9c743f4081beef1a3755c67", "lat": 38.907846666666664, "is_reserved": 0, "fusion_lat": 0.0, "bike_id": "c55bbca9a9c743f4081beef1a3755c67", "type": "electric_scooter", "is_disabled": 0, "fusion_lon": 0.0}, {"rental_uris": {"android": "https://dc.lft.to/lastmile_qr_scan", "ios": "https://dc.lft.to/lastmile_qr_scan"}, "lon": -77.037565, "name": "0307c3f89b37d7209d2c60a8154dffd4", "lat": 38.9076955, "is_reserved": 0, "fusion_lat": 0.0, "bike_id": "0307c3f89b37d7209d2c60a8154dffd4", "type": "electric_scooter", "is_disabled": 0, "fusion_lon": 0.0}, {"rental_uris": {"android": "https://dc.lft.to/lastmile_qr_scan", "ios": "https://dc.lft.to/lastmile_qr_scan"}, "lon": -77.03964533333334, "name": "192b64c0169e96af98298a3bc5622bec", "lat": 38.92608166666667, "is_reserved": 0, "fusion_lat": 0.0, "bike_id": "192b64c0169e96af98298a3bc5622bec", "type": "electric_scooter", "is_disabled": 0, "fusion_lon": 0.0}, {"rental_uris": {"android": "https://dc.lft.to/lastmile_qr_scan", "ios": "https://dc.lft.to/lastmile_qr_scan"}, "lon": -77.02694266666667, "name": "1fdbac222a2d4167c664937f54f17f2a", "lat": 38.902392, "is_reserved": 0, "fusion_lat": 0.0, "bike_id": "1fdbac222a2d4167c664937f54f17f2a", "type": "electric_scooter", "is_disabled": 0, "fusion_lon": 0.0}, {"rental_uris": {"android": "https://dc.lft.to/lastmile_qr_scan", "ios": "https://dc.lft.to/lastmile_qr_scan"}, "lon": -76.98821783333334, "name": "3f51f3557f677597df58273595f4630d", "lat": 38.890834, "is_reserved": 0, "fusion_lat": 0.0, "bike_id": "3f51f3557f677597df58273595f4630d", "type": "electric_scooter", "is_disabled": 0, "fusion_lon": 0.0}, {"rental_uris": {"android": "https://dc.lft.to/lastmile_qr_scan", "ios": "https://dc.lft.to/lastmile_qr_scan"}, "lon": -77.043142, "name": "895decbe0b89d99dedf82b1ba915d1a2", "lat": 38.931816166666664, "is_reserved": 0, "fusion_lat": 0.0, "bike_id": "895decbe0b89d99dedf82b1ba915d1a2", "type": "electric_scooter", "is_disabled": 0, "fusion_lon": 0.0}, {"rental_uris": {"android": "https://dc.lft.to/lastmile_qr_scan", "ios": "https://dc.lft.to/lastmile_qr_scan"}, "lon": -76.98210866666666, "name": "81a23a1f68d1b68e8dfceab3487a5235", "lat": 38.9020235, "is_reserved": 0, "fusion_lat": 0.0, "bike_id": "81a23a1f68d1b68e8dfceab3487a5235", "type": "electric_scooter", "is_disabled": 0, "fusion_lon": 0.0}, {"rental_uris": {"android": "https://dc.lft.to/lastmile_qr_scan", "ios": "https://dc.lft.to/lastmile_qr_scan"}, "lon": -77.01539333333334, "name": "af2355fafe113edb0ff2e66d13ecda14", "lat": 38.9412685, "is_reserved": 0, "fusion_lat": 0.0, "bike_id": "af2355fafe113edb0ff2e66d13ecda14", "type": "electric_scooter", "is_disabled": 0, "fusion_lon": 0.0}, {"rental_uris": {"android": "https://dc.lft.to/lastmile_qr_scan", "ios": "https://dc.lft.to/lastmile_qr_scan"}, "lon": -77.023745, "name": "6d2039f89472d5440cb93a80f91ad6c8", "lat": 38.911426166666665, "is_reserved": 0, "fusion_lat": 0.0, "bike_id": "6d2039f89472d5440cb93a80f91ad6c8", "type": "electric_scooter", "is_disabled": 0, "fusion_lon": 0.0}, {"rental_uris": {"android": "https://dc.lft.to/lastmile_qr_scan", "ios": "https://dc.lft.to/lastmile_qr_scan"}, "lon": -76.9509655, "name": "886e38d7da9d29ba5b78c1b5d8b54671", "lat": 38.884525, "is_reserved": 0, "fusion_lat": 0.0, "bike_id": "886e38d7da9d29ba5b78c1b5d8b54671", "type": "electric_scooter", "is_disabled": 0, "fusion_lon": 0.0}, {"rental_uris": {"android": "https://dc.lft.to/lastmile_qr_scan", "ios": "https://dc.lft.to/lastmile_qr_scan"}, "lon": -77.02794466666667, "name": "1b1f7190786ee65fa906c85076a03cb8", "lat": 38.96040716666667, "is_reserved": 0, "fusion_lat": 0.0, "bike_id": "1b1f7190786ee65fa906c85076a03cb8", "type": "electric_scooter", "is_disabled": 0, "fusion_lon": 0.0}, {"rental_uris": {"android": "https://dc.lft.to/lastmile_qr_scan", "ios": "https://dc.lft.to/lastmile_qr_scan"}, "lon": -77.01861416666667, "name": "65cfffa8abab8722a9148c62c9bf740c", "lat": 38.896628666666665, "is_reserved": 0, "fusion_lat": 0.0, "bike_id": "65cfffa8abab8722a9148c62c9bf740c", "type": "electric_scooter", "is_disabled": 0, "fusion_lon": 0.0}, {"rental_uris": {"android": "https://dc.lft.to/lastmile_qr_scan", "ios": "https://dc.lft.to/lastmile_qr_scan"}, "lon": -77.03570683333334, "name": "b8bfe4ea4d695a747d5223b2ebb14739", "lat": 38.901576, "is_reserved": 0, "fusion_lat": 0.0, "bike_id": "b8bfe4ea4d695a747d5223b2ebb14739", "type": "electric_scooter", "is_disabled": 0, "fusion_lon": 0.0}, {"rental_uris": {"android": "https://dc.lft.to/lastmile_qr_scan", "ios": "https://dc.lft.to/lastmile_qr_scan"}, "lon": -77.03454733333334, "name": "3dab879709a5f7f44512ad209372e460", "lat": 38.905863, "is_reserved": 0, "fusion_lat": 0.0, "bike_id": "3dab879709a5f7f44512ad209372e460", "type": "electric_scooter", "is_disabled": 0, "fusion_lon": 0.0}, {"rental_uris": {"android": "https://dc.lft.to/lastmile_qr_scan", "ios": "https://dc.lft.to/lastmile_qr_scan"}, "lon": -77.027392, "name": "577114c49c1c281820b3beac64d76986", "lat": 38.927725, "is_reserved": 0, "fusion_lat": 0.0, "bike_id": "577114c49c1c281820b3beac64d76986", "type": "electric_scooter", "is_disabled": 0, "fusion_lon": 0.0}, {"rental_uris": {"android": "https://dc.lft.to/lastmile_qr_scan", "ios": "https://dc.lft.to/lastmile_qr_scan"}, "lon": -76.93340383333333, "name": "7fe9d2b75dbcf93ead18024b357131be", "lat": 38.9086895, "is_reserved": 0, "fusion_lat": 0.0, "bike_id": "7fe9d2b75dbcf93ead18024b357131be", "type": "electric_scooter", "is_disabled": 0, "fusion_lon": 0.0}, {"rental_uris": {"android": "https://dc.lft.to/lastmile_qr_scan", "ios": "https://dc.lft.to/lastmile_qr_scan"}, "lon": -76.99634416666666, "name": "da086f3bf4122850f12b0aae2e551e95", "lat": 38.905319666666664, "is_reserved": 0, "fusion_lat": 0.0, "bike_id": "da086f3bf4122850f12b0aae2e551e95", "type": "electric_scooter", "is_disabled": 0, "fusion_lon": 0.0}, {"rental_uris": {"android": "https://dc.lft.to/lastmile_qr_scan", "ios": "https://dc.lft.to/lastmile_qr_scan"}, "lon": -77.04605833333333, "name": "325a75d77ddd54767c0ae6d40c147bdb", "lat": 38.9024825, "is_reserved": 0, "fusion_lat": 0.0, "bike_id": "325a75d77ddd54767c0ae6d40c147bdb", "type": "electric_scooter", "is_disabled": 0, "fusion_lon": 0.0}, {"rental_uris": {"android": "https://dc.lft.to/lastmile_qr_scan", "ios": "https://dc.lft.to/lastmile_qr_scan"}, "lon": -77.03503866666667, "name": "e30b087528f1c037956314ab2dc142bd", "lat": 38.92146666666667, "is_reserved": 0, "fusion_lat": 0.0, "bike_id": "e30b087528f1c037956314ab2dc142bd", "type": "electric_scooter", "is_disabled": 0, "fusion_lon": 0.0}, {"rental_uris": {"android": "https://dc.lft.to/lastmile_qr_scan", "ios": "https://dc.lft.to/lastmile_qr_scan"}, "lon": -77.02185216666666, "name": "e6097759764a8365f0b35ce9112603e4", "lat": 38.9100785, "is_reserved": 0, "fusion_lat": 0.0, "bike_id": "e6097759764a8365f0b35ce9112603e4", "type": "electric_scooter", "is_disabled": 0, "fusion_lon": 0.0}, {"rental_uris": {"android": "https://dc.lft.to/lastmile_qr_scan", "ios": "https://dc.lft.to/lastmile_qr_scan"}, "lon": -77.029791, "name": "7ad770183ab326dfcf11cf15f8087db8", "lat": 38.907355333333335, "is_reserved": 0, "fusion_lat": 0.0, "bike_id": "7ad770183ab326dfcf11cf15f8087db8", "type": "electric_scooter", "is_disabled": 0, "fusion_lon": 0.0}, {"rental_uris": {"android": "https://dc.lft.to/lastmile_qr_scan", "ios": "https://dc.lft.to/lastmile_qr_scan"}, "lon": -77.02494716666666, "name": "df7e69c4e4d2cb450c9eedee74d954d0", "lat": 38.92087816666667, "is_reserved": 0, "fusion_lat": 0.0, "bike_id": "df7e69c4e4d2cb450c9eedee74d954d0", "type": "electric_scooter", "is_disabled": 0, "fusion_lon": 0.0}, {"rental_uris": {"android": "https://dc.lft.to/lastmile_qr_scan", "ios": "https://dc.lft.to/lastmile_qr_scan"}, "lon": -76.90740533333333, "name": "4ec1cca6559270a907bb3ef8124ccfee", "lat": 38.89614266666667, "is_reserved": 0, "fusion_lat": 0.0, "bike_id": "4ec1cca6559270a907bb3ef8124ccfee", "type": "electric_bike", "is_disabled": 0, "fusion_lon": 0.0}, {"rental_uris": {"android": "https://dc.lft.to/lastmile_qr_scan", "ios": "https://dc.lft.to/lastmile_qr_scan"}, "lon": -76.97952966666666, "name": "bed3bff0988ff31164f533a4fcf78bb8", "lat": 38.9043585, "is_reserved": 0, "fusion_lat": 0.0, "bike_id": "bed3bff0988ff31164f533a4fcf78bb8", "type": "electric_scooter", "is_disabled": 0, "fusion_lon": 0.0}, {"rental_uris": {"android": "https://dc.lft.to/lastmile_qr_scan", "ios": "https://dc.lft.to/lastmile_qr_scan"}, "lon": -77.04147416666666, "name": "1431984b18a1b63234c38fc8bc5922c3", "lat": 38.898488666666665, "is_reserved": 0, "fusion_lat": 0.0, "bike_id": "1431984b18a1b63234c38fc8bc5922c3", "type": "electric_scooter", "is_disabled": 0, "fusion_lon": 0.0}, {"rental_uris": {"android": "https://dc.lft.to/lastmile_qr_scan", "ios": "https://dc.lft.to/lastmile_qr_scan"}, "lon": -77.0148225, "name": "3ffc463da4aa84033bc7b4890b701d1f", "lat": 38.92678516666667, "is_reserved": 0, "fusion_lat": 0.0, "bike_id": "3ffc463da4aa84033bc7b4890b701d1f", "type": "electric_scooter", "is_disabled": 0, "fusion_lon": 0.0}, {"rental_uris": {"android": "https://dc.lft.to/lastmile_qr_scan", "ios": "https://dc.lft.to/lastmile_qr_scan"}, "lon": -77.05393983333333, "name": "65068f2dcddca75be6cbab56b0bb6b8d", "lat": 38.804523833333334, "is_reserved": 0, "fusion_lat": 0.0, "bike_id": "65068f2dcddca75be6cbab56b0bb6b8d", "type": "electric_bike", "is_disabled": 0, "fusion_lon": 0.0}, {"rental_uris": {"android": "https://dc.lft.to/lastmile_qr_scan", "ios": "https://dc.lft.to/lastmile_qr_scan"}, "lon": -77.0344135, "name": "3799482d799ce3d174d74b0962363108", "lat": 38.90978783333333, "is_reserved": 0, "fusion_lat": 0.0, "bike_id": "3799482d799ce3d174d74b0962363108", "type": "electric_scooter", "is_disabled": 0, "fusion_lon": 0.0}, {"rental_uris": {"android": "https://dc.lft.to/lastmile_qr_scan", "ios": "https://dc.lft.to/lastmile_qr_scan"}, "lon": -77.0229975, "name": "677d3fe5cab96c24fb7bd5d353c9ee72", "lat": 38.90863316666667, "is_reserved": 0, "fusion_lat": 0.0, "bike_id": "677d3fe5cab96c24fb7bd5d353c9ee72", "type": "electric_scooter", "is_disabled": 0, "fusion_lon": 0.0}, {"rental_uris": {"android": "https://dc.lft.to/lastmile_qr_scan", "ios": "https://dc.lft.to/lastmile_qr_scan"}, "lon": -77.04513333333334, "name": "8d9efe7b89da1fb6e65ff847e3944985", "lat": 38.91601283333333, "is_reserved": 0, "fusion_lat": 0.0, "bike_id": "8d9efe7b89da1fb6e65ff847e3944985", "type": "electric_scooter", "is_disabled": 0, "fusion_lon": 0.0}, {"rental_uris": {"android": "https://dc.lft.to/lastmile_qr_scan", "ios": "https://dc.lft.to/lastmile_qr_scan"}, "lon": -77.04174733333333, "name": "821aad43abacd69e033d37cfdf2aa458", "lat": 38.913941333333334, "is_reserved": 0, "fusion_lat": 0.0, "bike_id": "821aad43abacd69e033d37cfdf2aa458", "type": "electric_scooter", "is_disabled": 0, "fusion_lon": 0.0}, {"rental_uris": {"android": "https://dc.lft.to/lastmile_qr_scan", "ios": "https://dc.lft.to/lastmile_qr_scan"}, "lon": -77.03158866666666, "name": "276699a18ec57bb60bc4a1c8be139bf0", "lat": 38.89537716666667, "is_reserved": 0, "fusion_lat": 0.0, "bike_id": "276699a18ec57bb60bc4a1c8be139bf0", "type": "electric_scooter", "is_disabled": 0, "fusion_lon": 0.0}, {"rental_uris": {"android": "https://dc.lft.to/lastmile_qr_scan", "ios": "https://dc.lft.to/lastmile_qr_scan"}, "lon": -77.0384445, "name": "eba6b6a92f8d47c9355174ab59922bd5", "lat": 38.90972, "is_reserved": 0, "fusion_lat": 0.0, "bike_id": "eba6b6a92f8d47c9355174ab59922bd5", "type": "electric_scooter", "is_disabled": 0, "fusion_lon": 0.0}, {"rental_uris": {"android": "https://dc.lft.to/lastmile_qr_scan", "ios": "https://dc.lft.to/lastmile_qr_scan"}, "lon": -76.98967866666666, "name": "743614a0b46268b84580dcccc8dc5145", "lat": 38.9013525, "is_reserved": 0, "fusion_lat": 0.0, "bike_id": "743614a0b46268b84580dcccc8dc5145", "type": "electric_scooter", "is_disabled": 0, "fusion_lon": 0.0}, {"rental_uris": {"android": "https://dc.lft.to/lastmile_qr_scan", "ios": "https://dc.lft.to/lastmile_qr_scan"}, "lon": -77.0600975, "name": "1f2b43944f6e1e032bcc385aedbc76c5", "lat": 38.902520833333334, "is_reserved": 0, "fusion_lat": 0.0, "bike_id": "1f2b43944f6e1e032bcc385aedbc76c5", "type": "electric_scooter", "is_disabled": 0, "fusion_lon": 0.0}, {"rental_uris": {"android": "https://dc.lft.to/lastmile_qr_scan", "ios": "https://dc.lft.to/lastmile_qr_scan"}, "lon": -76.98883516666666, "name": "8768459d1be336392784d009c3850791", "lat": 38.866567, "is_reserved": 0, "fusion_lat": 0.0, "bike_id": "8768459d1be336392784d009c3850791", "type": "electric_scooter", "is_disabled": 0, "fusion_lon": 0.0}, {"rental_uris": {"android": "https://dc.lft.to/lastmile_qr_scan", "ios": "https://dc.lft.to/lastmile_qr_scan"}, "lon": -77.04407866666666, "name": "f97c60a02be57112d59074d3324e9063", "lat": 38.934219, "is_reserved": 0, "fusion_lat": 0.0, "bike_id": "f97c60a02be57112d59074d3324e9063", "type": "electric_scooter", "is_disabled": 0, "fusion_lon": 0.0}, {"rental_uris": {"android": "https://dc.lft.to/lastmile_qr_scan", "ios": "https://dc.lft.to/lastmile_qr_scan"}, "lon": -77.03331583333333, "name": "af301c0406fec033e5a48d30bcf67dff", "lat": 38.89826883333333, "is_reserved": 0, "fusion_lat": 0.0, "bike_id": "af301c0406fec033e5a48d30bcf67dff", "type": "electric_scooter", "is_disabled": 0, "fusion_lon": 0.0}, {"rental_uris": {"android": "https://dc.lft.to/lastmile_qr_scan", "ios": "https://dc.lft.to/lastmile_qr_scan"}, "lon": -77.02959, "name": "3b24d9e8d3a01d78db8ae8e6cd79e183", "lat": 38.906199, "is_reserved": 0, "fusion_lat": 0.0, "bike_id": "3b24d9e8d3a01d78db8ae8e6cd79e183", "type": "electric_scooter", "is_disabled": 0, "fusion_lon": 0.0}, {"rental_uris": {"android": "https://dc.lft.to/lastmile_qr_scan", "ios": "https://dc.lft.to/lastmile_qr_scan"}, "lon": -77.02954566666666, "name": "a97d40b4793bd1cc6978f946130fafdf", "lat": 38.9049975, "is_reserved": 0, "fusion_lat": 0.0, "bike_id": "a97d40b4793bd1cc6978f946130fafdf", "type": "electric_scooter", "is_disabled": 0, "fusion_lon": 0.0}, {"rental_uris": {"android": "https://dc.lft.to/lastmile_qr_scan", "ios": "https://dc.lft.to/lastmile_qr_scan"}, "lon": -77.02409816666666, "name": "dbf4a8ada8697222bb8c1cadd9a8270e", "lat": 38.93685333333333, "is_reserved": 0, "fusion_lat": 0.0, "bike_id": "dbf4a8ada8697222bb8c1cadd9a8270e", "type": "electric_scooter", "is_disabled": 0, "fusion_lon": 0.0}, {"rental_uris": {"android": "https://dc.lft.to/lastmile_qr_scan", "ios": "https://dc.lft.to/lastmile_qr_scan"}, "lon": -77.0253645, "name": "3ffeeb750add8cc19ca0c8c1372849a9", "lat": 38.930944333333336, "is_reserved": 0, "fusion_lat": 0.0, "bike_id": "3ffeeb750add8cc19ca0c8c1372849a9", "type": "electric_scooter", "is_disabled": 0, "fusion_lon": 0.0}, {"rental_uris": {"android": "https://dc.lft.to/lastmile_qr_scan", "ios": "https://dc.lft.to/lastmile_qr_scan"}, "lon": -76.99022916666667, "name": "2895e8d366be57293b259b29c9562488", "lat": 38.9014815, "is_reserved": 0, "fusion_lat": 0.0, "bike_id": "2895e8d366be57293b259b29c9562488", "type": "electric_scooter", "is_disabled": 0, "fusion_lon": 0.0}, {"rental_uris": {"android": "https://dc.lft.to/lastmile_qr_scan", "ios": "https://dc.lft.to/lastmile_qr_scan"}, "lon": -77.021713, "name": "8b891c9d4bf9e38df37aae7ac62b56bb", "lat": 38.919825333333335, "is_reserved": 0, "fusion_lat": 0.0, "bike_id": "8b891c9d4bf9e38df37aae7ac62b56bb", "type": "electric_scooter", "is_disabled": 0, "fusion_lon": 0.0}, {"rental_uris": {"android": "https://dc.lft.to/lastmile_qr_scan", "ios": "https://dc.lft.to/lastmile_qr_scan"}, "lon": -77.04122866666667, "name": "c05603adbb06309745fba16f6b3228c5", "lat": 38.934302, "is_reserved": 0, "fusion_lat": 0.0, "bike_id": "c05603adbb06309745fba16f6b3228c5", "type": "electric_scooter", "is_disabled": 0, "fusion_lon": 0.0}, {"rental_uris": {"android": "https://dc.lft.to/lastmile_qr_scan", "ios": "https://dc.lft.to/lastmile_qr_scan"}, "lon": -77.22887416666667, "name": "e6d971288bdcdbc1516c7165eddde735", "lat": 38.909619, "is_reserved": 0, "fusion_lat": 0.0, "bike_id": "e6d971288bdcdbc1516c7165eddde735", "type": "electric_bike", "is_disabled": 0, "fusion_lon": 0.0}, {"rental_uris": {"android": "https://dc.lft.to/lastmile_qr_scan", "ios": "https://dc.lft.to/lastmile_qr_scan"}, "lon": -77.038018, "name": "d812469834fa540fa4727c10fc672052", "lat": 38.92505333333333, "is_reserved": 0, "fusion_lat": 0.0, "bike_id": "d812469834fa540fa4727c10fc672052", "type": "electric_scooter", "is_disabled": 0, "fusion_lon": 0.0}, {"rental_uris": {"android": "https://dc.lft.to/lastmile_qr_scan", "ios": "https://dc.lft.to/lastmile_qr_scan"}, "lon": -77.05672266666667, "name": "a40326f23d4269859f070585f7ffff2b", "lat": 38.90489816666667, "is_reserved": 0, "fusion_lat": 0.0, "bike_id": "a40326f23d4269859f070585f7ffff2b", "type": "electric_scooter", "is_disabled": 0, "fusion_lon": 0.0}, {"rental_uris": {"android": "https://dc.lft.to/lastmile_qr_scan", "ios": "https://dc.lft.to/lastmile_qr_scan"}, "lon": -77.00577166666666, "name": "2841e7ac0f3c8ce06047aa9fe1b63784", "lat": 38.877777, "is_reserved": 0, "fusion_lat": 0.0, "bike_id": "2841e7ac0f3c8ce06047aa9fe1b63784", "type": "electric_scooter", "is_disabled": 0, "fusion_lon": 0.0}, {"rental_uris": {"android": "https://dc.lft.to/lastmile_qr_scan", "ios": "https://dc.lft.to/lastmile_qr_scan"}, "lon": -77.001884, "name": "1b0d55a7930bba8e20219b12f80e43ad", "lat": 38.87390766666667, "is_reserved": 0, "fusion_lat": 0.0, "bike_id": "1b0d55a7930bba8e20219b12f80e43ad", "type": "electric_scooter", "is_disabled": 0, "fusion_lon": 0.0}, {"rental_uris": {"android": "https://dc.lft.to/lastmile_qr_scan", "ios": "https://dc.lft.to/lastmile_qr_scan"}, "lon": -76.97343533333333, "name": "2a51062336398df463eec8ea2c0dfbc7", "lat": 38.865091666666665, "is_reserved": 0, "fusion_lat": 0.0, "bike_id": "2a51062336398df463eec8ea2c0dfbc7", "type": "electric_scooter", "is_disabled": 0, "fusion_lon": 0.0}, {"rental_uris": {"android": "https://dc.lft.to/lastmile_qr_scan", "ios": "https://dc.lft.to/lastmile_qr_scan"}, "lon": -77.04249816666666, "name": "88d1d9ed4466d887a2131d2ac177bc18", "lat": 38.92431833333333, "is_reserved": 0, "fusion_lat": 0.0, "bike_id": "88d1d9ed4466d887a2131d2ac177bc18", "type": "electric_scooter", "is_disabled": 0, "fusion_lon": 0.0}, {"rental_uris": {"android": "https://dc.lft.to/lastmile_qr_scan", "ios": "https://dc.lft.to/lastmile_qr_scan"}, "lon": -77.03122033333334, "name": "d9db63cc4cc73a060e560c022f77312a", "lat": 38.905271666666664, "is_reserved": 0, "fusion_lat": 0.0, "bike_id": "d9db63cc4cc73a060e560c022f77312a", "type": "electric_scooter", "is_disabled": 0, "fusion_lon": 0.0}, {"rental_uris": {"android": "https://dc.lft.to/lastmile_qr_scan", "ios": "https://dc.lft.to/lastmile_qr_scan"}, "lon": -77.00057033333333, "name": "67a37f90c2098ad0c4bcad1740d43f5e", "lat": 38.874539, "is_reserved": 0, "fusion_lat": 0.0, "bike_id": "67a37f90c2098ad0c4bcad1740d43f5e", "type": "electric_scooter", "is_disabled": 0, "fusion_lon": 0.0}, {"rental_uris": {"android": "https://dc.lft.to/lastmile_qr_scan", "ios": "https://dc.lft.to/lastmile_qr_scan"}, "lon": -77.02580483333334, "name": "e2c796291a108775c4beb4647d350d19", "lat": 38.887385333333334, "is_reserved": 0, "fusion_lat": 0.0, "bike_id": "e2c796291a108775c4beb4647d350d19", "type": "electric_scooter", "is_disabled": 0, "fusion_lon": 0.0}, {"rental_uris": {"android": "https://dc.lft.to/lastmile_qr_scan", "ios": "https://dc.lft.to/lastmile_qr_scan"}, "lon": -77.0135765, "name": "723de0630941bdb211d81492a520254e", "lat": 38.919424666666664, "is_reserved": 0, "fusion_lat": 0.0, "bike_id": "723de0630941bdb211d81492a520254e", "type": "electric_scooter", "is_disabled": 0, "fusion_lon": 0.0}, {"rental_uris": {"android": "https://dc.lft.to/lastmile_qr_scan", "ios": "https://dc.lft.to/lastmile_qr_scan"}, "lon": -76.9973485, "name": "b6163ac416d2763e8968ef787229c403", "lat": 39.04236866666667, "is_reserved": 0, "fusion_lat": 0.0, "bike_id": "b6163ac416d2763e8968ef787229c403", "type": "electric_bike", "is_disabled": 0, "fusion_lon": 0.0}, {"rental_uris": {"android": "https://dc.lft.to/lastmile_qr_scan", "ios": "https://dc.lft.to/lastmile_qr_scan"}, "lon": -76.98433966666667, "name": "1e3c3906e90ce3619c32756aa63bcb1e", "lat": 38.905785333333334, "is_reserved": 0, "fusion_lat": 0.0, "bike_id": "1e3c3906e90ce3619c32756aa63bcb1e", "type": "electric_scooter", "is_disabled": 0, "fusion_lon": 0.0}, {"rental_uris": {"android": "https://dc.lft.to/lastmile_qr_scan", "ios": "https://dc.lft.to/lastmile_qr_scan"}, "lon": -77.040798, "name": "ef451c04b2af3f231cf7adf8cdcee00d", "lat": 38.896231666666665, "is_reserved": 0, "fusion_lat": 0.0, "bike_id": "ef451c04b2af3f231cf7adf8cdcee00d", "type": "electric_scooter", "is_disabled": 0, "fusion_lon": 0.0}, {"rental_uris": {"android": "https://dc.lft.to/lastmile_qr_scan", "ios": "https://dc.lft.to/lastmile_qr_scan"}, "lon": -76.98547483333333, "name": "1c82fc99146aab4fd55e3d1ac2d2bf59", "lat": 38.899796333333335, "is_reserved": 0, "fusion_lat": 0.0, "bike_id": "1c82fc99146aab4fd55e3d1ac2d2bf59", "type": "electric_scooter", "is_disabled": 0, "fusion_lon": 0.0}, {"rental_uris": {"android": "https://dc.lft.to/lastmile_qr_scan", "ios": "https://dc.lft.to/lastmile_qr_scan"}, "lon": -77.042564, "name": "451c074f8e4d7750888c1aa30e1a8a46", "lat": 38.907322, "is_reserved": 0, "fusion_lat": 0.0, "bike_id": "451c074f8e4d7750888c1aa30e1a8a46", "type": "electric_scooter", "is_disabled": 0, "fusion_lon": 0.0}, {"rental_uris": {"android": "https://dc.lft.to/lastmile_qr_scan", "ios": "https://dc.lft.to/lastmile_qr_scan"}, "lon": -77.02508083333333, "name": "934b7ed98326b8406cfadf3b519bcb26", "lat": 38.91816716666666, "is_reserved": 0, "fusion_lat": 0.0, "bike_id": "934b7ed98326b8406cfadf3b519bcb26", "type": "electric_scooter", "is_disabled": 0, "fusion_lon": 0.0}, {"rental_uris": {"android": "https://dc.lft.to/lastmile_qr_scan", "ios": "https://dc.lft.to/lastmile_qr_scan"}, "lon": -77.02104, "name": "a300d9c9eaa260b791e659ef3fbf9e9f", "lat": 38.930156333333336, "is_reserved": 0, "fusion_lat": 0.0, "bike_id": "a300d9c9eaa260b791e659ef3fbf9e9f", "type": "electric_scooter", "is_disabled": 0, "fusion_lon": 0.0}, {"rental_uris": {"android": "https://dc.lft.to/lastmile_qr_scan", "ios": "https://dc.lft.to/lastmile_qr_scan"}, "lon": -77.04014466666666, "name": "c9c9d07d37ed7f2208c82cd11a50d607", "lat": 38.92192383333333, "is_reserved": 0, "fusion_lat": 0.0, "bike_id": "c9c9d07d37ed7f2208c82cd11a50d607", "type": "electric_scooter", "is_disabled": 0, "fusion_lon": 0.0}, {"rental_uris": {"android": "https://dc.lft.to/lastmile_qr_scan", "ios": "https://dc.lft.to/lastmile_qr_scan"}, "lon": -77.0384115, "name": "542adbd4d6df4eaf283863b19822f8fc", "lat": 38.90975783333333, "is_reserved": 0, "fusion_lat": 0.0, "bike_id": "542adbd4d6df4eaf283863b19822f8fc", "type": "electric_scooter", "is_disabled": 0, "fusion_lon": 0.0}, {"rental_uris": {"android": "https://dc.lft.to/lastmile_qr_scan", "ios": "https://dc.lft.to/lastmile_qr_scan"}, "lon": -77.02166783333334, "name": "b5a0b467219ea50b1a0e6f234b47672a", "lat": 38.925054, "is_reserved": 0, "fusion_lat": 0.0, "bike_id": "b5a0b467219ea50b1a0e6f234b47672a", "type": "electric_scooter", "is_disabled": 0, "fusion_lon": 0.0}, {"rental_uris": {"android": "https://dc.lft.to/lastmile_qr_scan", "ios": "https://dc.lft.to/lastmile_qr_scan"}, "lon": -77.03283483333334, "name": "7be9934fce3f02826b4b76d000d2bb66", "lat": 38.937568666666664, "is_reserved": 0, "fusion_lat": 0.0, "bike_id": "7be9934fce3f02826b4b76d000d2bb66", "type": "electric_scooter", "is_disabled": 0, "fusion_lon": 0.0}, {"rental_uris": {"android": "https://dc.lft.to/lastmile_qr_scan", "ios": "https://dc.lft.to/lastmile_qr_scan"}, "lon": -77.0473005, "name": "e6d52079e04f7bca93fa9b49983d284d", "lat": 38.90183716666667, "is_reserved": 0, "fusion_lat": 0.0, "bike_id": "e6d52079e04f7bca93fa9b49983d284d", "type": "electric_scooter", "is_disabled": 0, "fusion_lon": 0.0}, {"rental_uris": {"android": "https://dc.lft.to/lastmile_qr_scan", "ios": "https://dc.lft.to/lastmile_qr_scan"}, "lon": -76.9320715, "name": "f54e4205aca63f88c79e2f1cce951bc0", "lat": 38.896704166666666, "is_reserved": 0, "fusion_lat": 0.0, "bike_id": "f54e4205aca63f88c79e2f1cce951bc0", "type": "electric_scooter", "is_disabled": 0, "fusion_lon": 0.0},