{"data": {"bikes": [{"lon": -77.00063666666667, "bike_id": "07df1b1247bfd54efac9ccf9c6d02319", "lat": 38.924367, "fusion_lon": 0.0, "fusion_lat": 0.0, "type": "electric_scooter", "name": "07df1b1247bfd54efac9ccf9c6d02319", "is_disabled": 0, "rental_uris": {"ios": "https://dc.lft.to/lastmile_qr_scan", "android": "https://dc.lft.to/lastmile_qr_scan"}, "is_reserved": 0}, {"lon": -77.052112, "bike_id": "37a301e6555de7dccd081b3604259f84", "lat": 38.900104666666664, "fusion_lon": 0.0, "fusion_lat": 0.0, "type": "electric_scooter", "name": "37a301e6555de7dccd081b3604259f84", "is_disabled": 0, "rental_uris": {"ios": "https://dc.lft.to/lastmile_qr_scan", "android": "https://dc.lft.to/lastmile_qr_scan"}, "is_reserved": 0}, {"lon": -77.02401116666667, "bike_id": "59a694be237aafdb678456a11489c7ad", "lat": 38.917611, "fusion_lon": 0.0, "fusion_lat": 0.0, "type": "electric_scooter", "name": "59a694be237aafdb678456a11489c7ad", "is_disabled": 0, "rental_uris": {"ios": "https://dc.lft.to/lastmile_qr_scan", "android": "https://dc.lft.to/lastmile_qr_scan"}, "is_reserved": 0}, {"lon": -76.93606783333334, "bike_id": "40d0618078a327f2f71e312152f9749e", "lat": 38.8968605, "fusion_lon": 0.0, "fusion_lat": 0.0, "type": "electric_scooter", "name": "40d0618078a327f2f71e312152f9749e", "is_disabled": 0, "rental_uris": {"ios": "https://dc.lft.to/lastmile_qr_scan", "android": "https://dc.lft.to/lastmile_qr_scan"}, "is_reserved": 0}, {"lon": -76.97615, "bike_id": "a64172a31ac3c91a94639bf27fdd4ee4", "lat": 38.9038205, "fusion_lon": 0.0, "fusion_lat": 0.0, "type": "electric_scooter", "name": "a64172a31ac3c91a94639bf27fdd4ee4", "is_disabled": 0, "rental_uris": {"ios": "https://dc.lft.to/lastmile_qr_scan", "android": "https://dc.lft.to/lastmile_qr_scan"}, "is_reserved": 0}, {"lon": -77.028963, "bike_id": "071f1556b654081d01b1209513761e16", "lat": 38.903768166666666, "fusion_lon": 0.0, "fusion_lat": 0.0, "type": "electric_scooter", "name": "071f1556b654081d01b1209513761e16", "is_disabled": 0, "rental_uris": {"ios": "https://dc.lft.to/lastmile_qr_scan", "android": "https://dc.lft.to/lastmile_qr_scan"}, "is_reserved": 0}, {"lon": -76.99927183333334, "bike_id": "09bde7c0bbb8b4da50039dd40439535f", "lat": 38.90906066666667, "fusion_lon": 0.0, "fusion_lat": 0.0, "type": "electric_scooter", "name": "09bde7c0bbb8b4da50039dd40439535f", "is_disabled": 0, "rental_uris": {"ios": "https://dc.lft.to/lastmile_qr_scan", "android": "https://dc.lft.to/lastmile_qr_scan"}, "is_reserved": 0}, {"lon": -77.0118315, "bike_id": "e687703995b87cb80211608b5166bd3f", "lat": 38.90032716666666, "fusion_lon": 0.0, "fusion_lat": 0.0, "type": "electric_scooter", "name": "e687703995b87cb80211608b5166bd3f", "is_disabled": 0, "rental_uris": {"ios": "https://dc.lft.to/lastmile_qr_scan", "android": "https://dc.lft.to/lastmile_qr_scan"}, "is_reserved": 0}, {"lon": -76.98670833333334, "bike_id": "797e3e719ac6b0c4a0183f76090d7963", "lat": 38.902455333333336, "fusion_lon": 0.0, "fusion_lat": 0.0, "type": "electric_scooter", "name": "797e3e719ac6b0c4a0183f76090d7963", "is_disabled": 0, "rental_uris": {"ios": "https://dc.lft.to/lastmile_qr_scan", "android": "https://dc.lft.to/lastmile_qr_scan"}, "is_reserved": 0}, {"lon": -77.0384975, "bike_id": "0996a54d90249ac9154abe61ce7d7664", "lat": 38.90672816666667, "fusion_lon": 0.0, "fusion_lat": 0.0, "type": "electric_scooter", "name": "0996a54d90249ac9154abe61ce7d7664", "is_disabled": 0, "rental_uris": {"ios": "https://dc.lft.to/lastmile_qr_scan", "android": "https://dc.lft.to/lastmile_qr_scan"}, "is_reserved": 0}, {"lon": -77.04713766666667, "bike_id": "b0ddb5bf247a09a375be6f7b1f058d41", "lat": 38.92236316666666, "fusion_lon": 0.0, "fusion_lat": 0.0, "type": "electric_scooter", "name": "b0ddb5bf247a09a375be6f7b1f058d41", "is_disabled": 0, "rental_uris": {"ios": "https://dc.lft.to/lastmile_qr_scan", "android": "https://dc.lft.to/lastmile_qr_scan"}, "is_reserved": 0}, {"lon": -77.02731066666666, "bike_id": "20e70b358b6f5ff6a3e351f1d24d0734", "lat": 38.928429666666666, "fusion_lon": 0.0, "fusion_lat": 0.0, "type": "electric_scooter", "name": "20e70b358b6f5ff6a3e351f1d24d0734", "is_disabled": 0, "rental_uris": {"ios": "https://dc.lft.to/lastmile_qr_scan", "android": "https://dc.lft.to/lastmile_qr_scan"}, "is_reserved": 0}, {"lon": -77.04267566666667, "bike_id": "cd5cfc00aae819735fa7b37594776ec6", "lat": 38.91786716666667, "fusion_lon": 0.0, "fusion_lat": 0.0, "type": "electric_scooter", "name": "cd5cfc00aae819735fa7b37594776ec6", "is_disabled": 0, "rental_uris": {"ios": "https://dc.lft.to/lastmile_qr_scan", "android": "https://dc.lft.to/lastmile_qr_scan"}, "is_reserved": 0}, {"lon": -76.99859083333334, "bike_id": "908dca44771f51ea3a3f92deef6b9aa6", "lat": 38.907769, "fusion_lon": 0.0, "fusion_lat": 0.0, "type": "electric_scooter", "name": "908dca44771f51ea3a3f92deef6b9aa6", "is_disabled": 0, "rental_uris": {"ios": "https://dc.lft.to/lastmile_qr_scan", "android": "https://dc.lft.to/lastmile_qr_scan"}, "is_reserved": 0}, {"lon": -77.056183, "bike_id": "20a84be55cd2ed5d241b149c41e6ff49", "lat": 38.923357833333334, "fusion_lon": 0.0, "fusion_lat": 0.0, "type": "electric_scooter", "name": "20a84be55cd2ed5d241b149c41e6ff49", "is_disabled": 0, "rental_uris": {"ios": "https://dc.lft.to/lastmile_qr_scan", "android": "https://dc.lft.to/lastmile_qr_scan"}, "is_reserved": 0}, {"lon": -76.96528183333334, "bike_id": "6b6a762a4d782a33100f3ed0a87727c1", "lat": 38.87479483333333, "fusion_lon": 0.0, "fusion_lat": 0.0, "type": "electric_scooter", "name": "6b6a762a4d782a33100f3ed0a87727c1", "is_disabled": 0, "rental_uris": {"ios": "https://dc.lft.to/lastmile_qr_scan", "android": "https://dc.lft.to/lastmile_qr_scan"}, "is_reserved": 0}, {"lon": -77.04243183333334, "bike_id": "4f5796930e812baf231a6778c671096c", "lat": 38.90654283333333, "fusion_lon": 0.0, "fusion_lat": 0.0, "type": "electric_scooter", "name": "4f5796930e812baf231a6778c671096c", "is_disabled": 0, "rental_uris": {"ios": "https://dc.lft.to/lastmile_qr_scan", "android": "https://dc.lft.to/lastmile_qr_scan"}, "is_reserved": 0}, {"lon": -76.99201, "bike_id": "529a0074768c805e7016bcff631a963e", "lat": 38.89821633333333, "fusion_lon": 0.0, "fusion_lat": 0.0, "type": "electric_scooter", "name": "529a0074768c805e7016bcff631a963e", "is_disabled": 0, "rental_uris": {"ios": "https://dc.lft.to/lastmile_qr_scan", "android": "https://dc.lft.to/lastmile_qr_scan"}, "is_reserved": 0}, {"lon": -77.04222416666667, "bike_id": "18b27b400f99dba10ef1618aef3ae1b5", "lat": 38.91120316666667, "fusion_lon": 0.0, "fusion_lat": 0.0, "type": "electric_scooter", "name": "18b27b400f99dba10ef1618aef3ae1b5", "is_disabled": 0, "rental_uris": {"ios": "https://dc.lft.to/lastmile_qr_scan", "android": "https://dc.lft.to/lastmile_qr_scan"}, "is_reserved": 0}, {"lon": -77.00914116666667, "bike_id": "129e6273107f961c4c84c5f9421a144f", "lat": 38.89650566666667, "fusion_lon": 0.0, "fusion_lat": 0.0, "type": "electric_scooter", "name": "129e6273107f961c4c84c5f9421a144f", "is_disabled": 0, "rental_uris": {"ios": "https://dc.lft.to/lastmile_qr_scan", "android": "https://dc.lft.to/lastmile_qr_scan"}, "is_reserved": 0}, {"lon": -77.04570383333333, "bike_id": "25879301cdf8312ad3043ad443c735ee", "lat": 38.919328166666666, "fusion_lon": 0.0, "fusion_lat": 0.0, "type": "electric_scooter", "name": "25879301cdf8312ad3043ad443c735ee", "is_disabled": 0, "rental_uris": {"ios": "https://dc.lft.to/lastmile_qr_scan", "android": "https://dc.lft.to/lastmile_qr_scan"}, "is_reserved": 0}, {"lon": -77.01811116666667, "bike_id": "573c8bc086cea6d4fe5b4e1cae462a95", "lat": 38.92029133333333, "fusion_lon": 0.0, "fusion_lat": 0.0, "type": "electric_scooter", "name": "573c8bc086cea6d4fe5b4e1cae462a95", "is_disabled": 0, "rental_uris": {"ios": "https://dc.lft.to/lastmile_qr_scan", "android": "https://dc.lft.to/lastmile_qr_scan"}, "is_reserved": 0}, {"lon": -77.02320766666666, "bike_id": "593b35305dd9dd5c97385e4cb2f9e5c8", "lat": 38.90724866666667, "fusion_lon": 0.0, "fusion_lat": 0.0, "type": "electric_scooter", "name": "593b35305dd9dd5c97385e4cb2f9e5c8", "is_disabled": 0, "rental_uris": {"ios": "https://dc.lft.to/lastmile_qr_scan", "android": "https://dc.lft.to/lastmile_qr_scan"}, "is_reserved": 0}, {"lon": -77.0046765, "bike_id": "1a3b65c5397e8f5ee1b36cc5b6f3cc7b", "lat": 38.91193166666667, "fusion_lon": 0.0, "fusion_lat": 0.0, "type": "electric_scooter", "name": "1a3b65c5397e8f5ee1b36cc5b6f3cc7b", "is_disabled": 0, "rental_uris": {"ios": "https://dc.lft.to/lastmile_qr_scan", "android": "https://dc.lft.to/lastmile_qr_scan"}, "is_reserved": 0}, {"lon": -76.94635533333333, "bike_id": "559b4dbaa2e674bfc5abfe3d9bf8afba", "lat": 38.89834833333333, "fusion_lon": 0.0, "fusion_lat": 0.0, "type": "electric_scooter", "name": "559b4dbaa2e674bfc5abfe3d9bf8afba", "is_disabled": 0, "rental_uris": {"ios": "https://dc.lft.to/lastmile_qr_scan", "android": "https://dc.lft.to/lastmile_qr_scan"}, "is_reserved": 0}, {"lon": -77.0216835, "bike_id": "fe60a52a13f769bad22b127605038306", "lat": 38.94291583333333, "fusion_lon": 0.0, "fusion_lat": 0.0, "type": "electric_scooter", "name": "fe60a52a13f769bad22b127605038306", "is_disabled": 0, "rental_uris": {"ios": "https://dc.lft.to/lastmile_qr_scan", "android": "https://dc.lft.to/lastmile_qr_scan"}, "is_reserved": 0}, {"lon": -77.076697, "bike_id": "9fa626ba3fed2eb3834b763b0814d6f1", "lat": 38.94330716666666, "fusion_lon": 0.0, "fusion_lat": 0.0, "type": "electric_scooter", "name": "9fa626ba3fed2eb3834b763b0814d6f1", "is_disabled": 0, "rental_uris": {"ios": "https://dc.lft.to/lastmile_qr_scan", "android": "https://dc.lft.to/lastmile_qr_scan"}, "is_reserved": 0}, {"lon": -77.0394485, "bike_id": "04fb7a052a07d7d1adef1beac43810ab", "lat": 38.91942783333333, "fusion_lon": 0.0, "fusion_lat": 0.0, "type": "electric_scooter", "name": "04fb7a052a07d7d1adef1beac43810ab", "is_disabled": 0, "rental_uris": {"ios": "https://dc.lft.to/lastmile_qr_scan", "android": "https://dc.lft.to/lastmile_qr_scan"}, "is_reserved": 0}, {"lon": -77.024358, "bike_id": "d55effbed90c36fc58d32c6557dc8ac9", "lat": 38.91691333333333, "fusion_lon": 0.0, "fusion_lat": 0.0, "type": "electric_scooter", "name": "d55effbed90c36fc58d32c6557dc8ac9", "is_disabled": 0, "rental_uris": {"ios": "https://dc.lft.to/lastmile_qr_scan", "android": "https://dc.lft.to/lastmile_qr_scan"}, "is_reserved": 0}, {"lon": -76.9236985, "bike_id": "a8a5c7f3d59c8839368af8f658ef020a", "lat": 38.88376783333333, "fusion_lon": 0.0, "fusion_lat": 0.0, "type": "electric_bike", "name": "a8a5c7f3d59c8839368af8f658ef020a", "is_disabled": 0, "rental_uris": {"ios": "https://dc.lft.to/lastmile_qr_scan", "android": "https://dc.lft.to/lastmile_qr_scan"}, "is_reserved": 0}, {"lon": -77.01413033333333, "bike_id": "e3aa22a3ed4a68b8aecea2eac084b660", "lat": 38.90652083333333, "fusion_lon": 0.0, "fusion_lat": 0.0, "type": "electric_scooter", "name": "e3aa22a3ed4a68b8aecea2eac084b660", "is_disabled": 0, "rental_uris": {"ios": "https://dc.lft.to/lastmile_qr_scan", "android": "https://dc.lft.to/lastmile_qr_scan"}, "is_reserved": 0}, {"lon": -77.0806885, "bike_id": "989d890fed960d4791efa03959d8aeef", "lat": 38.963142, "fusion_lon": 0.0, "fusion_lat": 0.0, "type": "electric_bike", "name": "989d890fed960d4791efa03959d8aeef", "is_disabled": 0, "rental_uris": {"ios": "https://dc.lft.to/lastmile_qr_scan", "android": "https://dc.lft.to/lastmile_qr_scan"}, "is_reserved": 0}, {"lon": -77.0034045, "bike_id": "ec3d0784770cdc3282b0fb5e6497d6cb", "lat": 38.89524633333333, "fusion_lon": 0.0, "fusion_lat": 0.0, "type": "electric_scooter", "name": "ec3d0784770cdc3282b0fb5e6497d6cb", "is_disabled": 0, "rental_uris": {"ios": "https://dc.lft.to/lastmile_qr_scan", "android": "https://dc.lft.to/lastmile_qr_scan"}, "is_reserved": 0}, {"lon": -77.01727733333334, "bike_id": "fbffc170f969e4f89c52d8ba6c333a23", "lat": 38.90369966666667, "fusion_lon": 0.0, "fusion_lat": 0.0, "type": "electric_scooter", "name": "fbffc170f969e4f89c52d8ba6c333a23", "is_disabled": 0, "rental_uris": {"ios": "https://dc.lft.to/lastmile_qr_scan", "android": "https://dc.lft.to/lastmile_qr_scan"}, "is_reserved": 0}, {"lon": -76.9937045, "bike_id": "dcc45641d2391a5ae3b41c3b112676a5", "lat": 38.9719515, "fusion_lon": 0.0, "fusion_lat": 0.0, "type": "electric_bike", "name": "dcc45641d2391a5ae3b41c3b112676a5", "is_disabled": 0, "rental_uris": {"ios": "https://dc.lft.to/lastmile_qr_scan", "android": "https://dc.lft.to/lastmile_qr_scan"}, "is_reserved": 0}, {"lon": -76.999335, "bike_id": "aa8389fdb1eb861ca3ddeb324675028b", "lat": 38.84298733333333, "fusion_lon": 0.0, "fusion_lat": 0.0, "type": "electric_scooter", "name": "aa8389fdb1eb861ca3ddeb324675028b", "is_disabled": 0, "rental_uris": {"ios": "https://dc.lft.to/lastmile_qr_scan", "android": "https://dc.lft.to/lastmile_qr_scan"}, "is_reserved": 0}, {"lon": -77.07004916666666, "bike_id": "ebd6bae64e8cf2f65509d3c5d6916a53", "lat": 38.95850333333333, "fusion_lon": 0.0, "fusion_lat": 0.0, "type": "electric_scooter", "name": "ebd6bae64e8cf2f65509d3c5d6916a53", "is_disabled": 0, "rental_uris": {"ios": "https://dc.lft.to/lastmile_qr_scan", "android": "https://dc.lft.to/lastmile_qr_scan"}, "is_reserved": 0}, {"lon": -76.94866783333333, "bike_id": "41582aa53ba957e85b3b007e116a89c7", "lat": 38.89544716666666, "fusion_lon": 0.0, "fusion_lat": 0.0, "type": "electric_scooter", "name": "41582aa53ba957e85b3b007e116a89c7", "is_disabled": 0, "rental_uris": {"ios": "https://dc.lft.to/lastmile_qr_scan", "android": "https://dc.lft.to/lastmile_qr_scan"}, "is_reserved": 0}, {"lon": -77.0311095, "bike_id": "a494eca1dafcf60eba69bbd59ce1cb1c", "lat": 38.9169125, "fusion_lon": 0.0, "fusion_lat": 0.0, "type": "electric_scooter", "name": "a494eca1dafcf60eba69bbd59ce1cb1c", "is_disabled": 0, "rental_uris": {"ios": "https://dc.lft.to/lastmile_qr_scan", "android": "https://dc.lft.to/lastmile_qr_scan"}, "is_reserved": 0}, {"lon": -77.03749366666666, "bike_id": "21ba6231f0119a1d421b3b9ac5bd77d5", "lat": 38.902671833333336, "fusion_lon": 0.0, "fusion_lat": 0.0, "type": "electric_scooter", "name": "21ba6231f0119a1d421b3b9ac5bd77d5", "is_disabled": 0, "rental_uris": {"ios": "https://dc.lft.to/lastmile_qr_scan", "android": "https://dc.lft.to/lastmile_qr_scan"}, "is_reserved": 0}, {"lon": -77.02718283333333, "bike_id": "9823643094d7c097dbc9165e9182eb7c", "lat": 38.972339, "fusion_lon": 0.0, "fusion_lat": 0.0, "type": "electric_scooter", "name": "9823643094d7c097dbc9165e9182eb7c", "is_disabled": 0, "rental_uris": {"ios": "https://dc.lft.to/lastmile_qr_scan", "android": "https://dc.lft.to/lastmile_qr_scan"}, "is_reserved": 0}, {"lon": -77.031596, "bike_id": "03ab78a39406ac0a1a07a4e43f7b927d", "lat": 38.93607183333334, "fusion_lon": 0.0, "fusion_lat": 0.0, "type": "electric_scooter", "name": "03ab78a39406ac0a1a07a4e43f7b927d", "is_disabled": 0, "rental_uris": {"ios": "https://dc.lft.to/lastmile_qr_scan", "android": "https://dc.lft.to/lastmile_qr_scan"}, "is_reserved": 0}, {"lon": -77.02090333333334, "bike_id": "ca53301b2d992405a5c985beb258ca64", "lat": 38.94525433333333, "fusion_lon": 0.0, "fusion_lat": 0.0, "type": "electric_scooter", "name": "ca53301b2d992405a5c985beb258ca64", "is_disabled": 0, "rental_uris": {"ios": "https://dc.lft.to/lastmile_qr_scan", "android": "https://dc.lft.to/lastmile_qr_scan"}, "is_reserved": 0}, {"lon": -77.05254583333334, "bike_id": "a71e23f4fd805694ad43de5e1c110eb0", "lat": 38.9237715, "fusion_lon": 0.0, "fusion_lat": 0.0, "type": "electric_scooter", "name": "a71e23f4fd805694ad43de5e1c110eb0", "is_disabled": 0, "rental_uris": {"ios": "https://dc.lft.to/lastmile_qr_scan", "android": "https://dc.lft.to/lastmile_qr_scan"}, "is_reserved": 0}, {"lon": -77.02476566666667, "bike_id": "8c020206b570c9a5fc41f73d4968901d", "lat": 38.904091, "fusion_lon": 0.0, "fusion_lat": 0.0, "type": "electric_scooter", "name": "8c020206b570c9a5fc41f73d4968901d", "is_disabled": 0, "rental_uris": {"ios": "https://dc.lft.to/lastmile_qr_scan", "android": "https://dc.lft.to/lastmile_qr_scan"}, "is_reserved": 0}, {"lon": -76.96257533333333, "bike_id": "b74b383035001bdd9e93a64d39bcb4c9", "lat": 38.882463333333334, "fusion_lon": 0.0, "fusion_lat": 0.0, "type": "electric_bike", "name": "b74b383035001bdd9e93a64d39bcb4c9", "is_disabled": 0, "rental_uris": {"ios": "https://dc.lft.to/lastmile_qr_scan", "android": "https://dc.lft.to/lastmile_qr_scan"}, "is_reserved": 0}, {"lon": -77.04113333333333, "bike_id": "76e05098d5e6b04ecd7ceed52451b6b3", "lat": 38.927940666666665, "fusion_lon": 0.0, "fusion_lat": 0.0, "type": "electric_scooter", "name": "76e05098d5e6b04ecd7ceed52451b6b3", "is_disabled": 0, "rental_uris": {"ios": "https://dc.lft.to/lastmile_qr_scan", "android": "https://dc.lft.to/lastmile_qr_scan"}, "is_reserved": 0}, {"lon": -77.038581, "bike_id": "48b45c346e9a01c2bf6807c60a3b6d2e", "lat": 38.90782, "fusion_lon": 0.0, "fusion_lat": 0.0, "type": "electric_scooter", "name": "48b45c346e9a01c2bf6807c60a3b6d2e", "is_disabled": 0, "rental_uris": {"ios": "https://dc.lft.to/lastmile_qr_scan", "android": "https://dc.lft.to/lastmile_qr_scan"}, "is_reserved": 0}, {"lon": -77.042179, "bike_id": "0e98c3ddae69edcf78956b5fb1a2c341", "lat": 38.90926983333333, "fusion_lon": 0.0, "fusion_lat": 0.0, "type": "electric_scooter", "name": "0e98c3ddae69edcf78956b5fb1a2c341", "is_disabled": 0, "rental_uris": {"ios": "https://dc.lft.to/lastmile_qr_scan", "android": "https://dc.lft.to/lastmile_qr_scan"}, "is_reserved": 0}, {"lon": -76.9914985, "bike_id": "25ca2050c26adf9edf8ee98b34436769", "lat": 38.881989833333336, "fusion_lon": 0.0, "fusion_lat": 0.0, "type": "electric_scooter", "name": "25ca2050c26adf9edf8ee98b34436769", "is_disabled": 0, "rental_uris": {"ios": "https://dc.lft.to/lastmile_qr_scan", "android": "https://dc.lft.to/lastmile_qr_scan"}, "is_reserved": 0}, {"lon": -77.03341633333334, "bike_id": "23879ca1e6e58e2442cf0bbb65e54705", "lat": 38.9169935, "fusion_lon": 0.0, "fusion_lat": 0.0, "type": "electric_scooter", "name": "23879ca1e6e58e2442cf0bbb65e54705", "is_disabled": 0, "rental_uris": {"ios": "https://dc.lft.to/lastmile_qr_scan", "android": "https://dc.lft.to/lastmile_qr_scan"}, "is_reserved": 0}, {"lon": -77.00969966666666, "bike_id": "05e92d3e619d0d69f53356e23db162e6", "lat": 38.90783183333333, "fusion_lon": 0.0, "fusion_lat": 0.0, "type": "electric_scooter", "name": "05e92d3e619d0d69f53356e23db162e6", "is_disabled": 0, "rental_uris": {"ios": "https://dc.lft.to/lastmile_qr_scan", "android": "https://dc.lft.to/lastmile_qr_scan"}, "is_reserved": 0}, {"lon": -77.00929016666667, "bike_id": "237daad0480c54cad654912fb7d20844", "lat": 38.88314166666667, "fusion_lon": 0.0, "fusion_lat": 0.0, "type": "electric_scooter", "name": "237daad0480c54cad654912fb7d20844", "is_disabled": 0, "rental_uris": {"ios": "https://dc.lft.to/lastmile_qr_scan", "android": "https://dc.lft.to/lastmile_qr_scan"}, "is_reserved": 0}, {"lon": -77.02800916666666, "bike_id": "990a45f2951e2b10f962fc69cdc9f6a3", "lat": 38.93306183333333, "fusion_lon": 0.0, "fusion_lat": 0.0, "type": "electric_scooter", "name": "990a45f2951e2b10f962fc69cdc9f6a3", "is_disabled": 0, "rental_uris": {"ios": "https://dc.lft.to/lastmile_qr_scan", "android": "https://dc.lft.to/lastmile_qr_scan"}, "is_reserved": 0}, {"lon": -77.0393725, "bike_id": "3f276ddda07f163bba75520109266c31", "lat": 38.9156645, "fusion_lon": 0.0, "fusion_lat": 0.0, "type": "electric_scooter", "name": "3f276ddda07f163bba75520109266c31", "is_disabled": 0, "rental_uris": {"ios": "https://dc.lft.to/lastmile_qr_scan", "android": "https://dc.lft.to/lastmile_qr_scan"}, "is_reserved": 0}, {"lon": -77.032492, "bike_id": "6f6fe6f7038d9739189174a4b94f4b19", "lat": 38.937681166666664, "fusion_lon": 0.0, "fusion_lat": 0.0, "type": "electric_scooter", "name": "6f6fe6f7038d9739189174a4b94f4b19", "is_disabled": 0, "rental_uris": {"ios": "https://dc.lft.to/lastmile_qr_scan", "android": "https://dc.lft.to/lastmile_qr_scan"}, "is_reserved": 0}, {"lon": -77.043541, "bike_id": "2b0722a8194c65feb20d5f19e4a785ca", "lat": 38.907888666666665, "fusion_lon": 0.0, "fusion_lat": 0.0, "type": "electric_scooter", "name": "2b0722a8194c65feb20d5f19e4a785ca", "is_disabled": 0, "rental_uris": {"ios": "https://dc.lft.to/lastmile_qr_scan", "android": "https://dc.lft.to/lastmile_qr_scan"}, "is_reserved": 0}, {"lon": -77.0059145, "bike_id": "349cc398465d200892182174606dfa8e", "lat": 38.90626616666667, "fusion_lon": 0.0, "fusion_lat": 0.0, "type": "electric_scooter", "name": "349cc398465d200892182174606dfa8e", "is_disabled": 0, "rental_uris": {"ios": "https://dc.lft.to/lastmile_qr_scan", "android": "https://dc.lft.to/lastmile_qr_scan"}, "is_reserved": 0}, {"lon": -77.08456183333334, "bike_id": "c1df7a1fd54b3eb633ca5c9e65c00422", "lat": 38.8481645, "fusion_lon": 0.0, "fusion_lat": 0.0, "type": "electric_bike", "name": "c1df7a1fd54b3eb633ca5c9e65c00422", "is_disabled": 0, "rental_uris": {"ios": "https://dc.lft.to/lastmile_qr_scan", "android": "https://dc.lft.to/lastmile_qr_scan"}, "is_reserved": 0}, {"lon": -77.03403466666667, "bike_id": "c8191a7688023dfae8d26bd3650b879e", "lat": 38.92251066666667, "fusion_lon": 0.0, "fusion_lat": 0.0, "type": "electric_scooter", "name": "c8191a7688023dfae8d26bd3650b879e", "is_disabled": 0, "rental_uris": {"ios": "https://dc.lft.to/lastmile_qr_scan", "android": "https://dc.lft.to/lastmile_qr_scan"}, "is_reserved": 0}, {"lon": -77.03266933333333, "bike_id": "9e8a60c3d1ecd08660f10b0ea10afbfb", "lat": 38.91996316666667, "fusion_lon": 0.0, "fusion_lat": 0.0, "type": "electric_scooter", "name": "9e8a60c3d1ecd08660f10b0ea10afbfb", "is_disabled": 0, "rental_uris": {"ios": "https://dc.lft.to/lastmile_qr_scan", "android": "https://dc.lft.to/lastmile_qr_scan"}, "is_reserved": 0}, {"lon": -77.05340816666667, "bike_id": "71c5cf128151a6e1698725b3d1ebfecb", "lat": 38.90354966666666, "fusion_lon": 0.0, "fusion_lat": 0.0, "type": "electric_scooter", "name": "71c5cf128151a6e1698725b3d1ebfecb", "is_disabled": 0, "rental_uris": {"ios": "https://dc.lft.to/lastmile_qr_scan", "android": "https://dc.lft.to/lastmile_qr_scan"}, "is_reserved": 0}, {"lon": -77.0241285, "bike_id": "dde2415ea78a7e388f2c7032b91b6824", "lat": 38.90969316666666, "fusion_lon": 0.0, "fusion_lat": 0.0, "type": "electric_scooter", "name": "dde2415ea78a7e388f2c7032b91b6824", "is_disabled": 0, "rental_uris": {"ios": "https://dc.lft.to/lastmile_qr_scan", "android": "https://dc.lft.to/lastmile_qr_scan"}, "is_reserved": 0}, {"lon": -77.0132825, "bike_id": "6428992eebe8ddff66fec22c25d9ee35", "lat": 38.87922, "fusion_lon": 0.0, "fusion_lat": 0.0, "type": "electric_scooter", "name": "6428992eebe8ddff66fec22c25d9ee35", "is_disabled": 0, "rental_uris": {"ios": "https://dc.lft.to/lastmile_qr_scan", "android": "https://dc.lft.to/lastmile_qr_scan"}, "is_reserved": 0}, {"lon": -77.05539283333333, "bike_id": "12fff857bc7edae2ae02fc9fd5112e05", "lat": 38.93426766666666, "fusion_lon": 0.0, "fusion_lat": 0.0, "type": "electric_scooter", "name": "12fff857bc7edae2ae02fc9fd5112e05", "is_disabled": 0, "rental_uris": {"ios": "https://dc.lft.to/lastmile_qr_scan", "android": "https://dc.lft.to/lastmile_qr_scan"}, "is_reserved": 0}, {"lon": -77.03502516666667, "bike_id": "362550fbf40fa6bc35405e2552d3fb99", "lat": 38.937543166666664, "fusion_lon": 0.0, "fusion_lat": 0.0, "type": "electric_scooter", "name": "362550fbf40fa6bc35405e2552d3fb99", "is_disabled": 0, "rental_uris": {"ios": "https://dc.lft.to/lastmile_qr_scan", "android": "https://dc.lft.to/lastmile_qr_scan"}, "is_reserved": 0}, {"lon": -77.0385985, "bike_id": "0a4a9e080dfd224c76153860c8ff2427", "lat": 38.915511333333335, "fusion_lon": 0.0, "fusion_lat": 0.0, "type": "electric_scooter", "name": "0a4a9e080dfd224c76153860c8ff2427", "is_disabled": 0, "rental_uris": {"ios": "https://dc.lft.to/lastmile_qr_scan", "android": "https://dc.lft.to/lastmile_qr_scan"}, "is_reserved": 0}, {"lon": -76.988358, "bike_id": "eeedff8b11c2504d35d97d856f6f21f7", "lat": 38.900784, "fusion_lon": 0.0, "fusion_lat": 0.0, "type": "electric_scooter", "name": "eeedff8b11c2504d35d97d856f6f21f7", "is_disabled": 0, "rental_uris": {"ios": "https://dc.lft.to/lastmile_qr_scan", "android": "https://dc.lft.to/lastmile_qr_scan"}, "is_reserved": 0}, {"lon": -77.0386645, "bike_id": "3a810e7910c80ae7f1029c704e8ff18d", "lat": 38.902619666666666, "fusion_lon": 0.0, "fusion_lat": 0.0, "type": "electric_scooter", "name": "3a810e7910c80ae7f1029c704e8ff18d", "is_disabled": 0, "rental_uris": {"ios": "https://dc.lft.to/lastmile_qr_scan", "android": "https://dc.lft.to/lastmile_qr_scan"}, "is_reserved": 0}, {"lon": -77.01376783333333, "bike_id": "4ad4235f35a122c3fae9792a94e7f7cd", "lat": 38.915089, "fusion_lon": 0.0, "fusion_lat": 0.0, "type": "electric_scooter", "name": "4ad4235f35a122c3fae9792a94e7f7cd", "is_disabled": 0, "rental_uris": {"ios": "https://dc.lft.to/lastmile_qr_scan", "android": "https://dc.lft.to/lastmile_qr_scan"}, "is_reserved": 0}, {"lon": -77.0396665, "bike_id": "a92d94bf2a3a6b049782e1093423ac87", "lat": 38.931519333333334, "fusion_lon": 0.0, "fusion_lat": 0.0, "type": "electric_scooter", "name": "a92d94bf2a3a6b049782e1093423ac87", "is_disabled": 0, "rental_uris": {"ios": "https://dc.lft.to/lastmile_qr_scan", "android": "https://dc.lft.to/lastmile_qr_scan"}, "is_reserved": 0}, {"lon": -77.07100516666667, "bike_id": "1487812af736619e88dac2b601747caa", "lat": 38.9225225, "fusion_lon": 0.0, "fusion_lat": 0.0, "type": "electric_scooter", "name": "1487812af736619e88dac2b601747caa", "is_disabled": 0, "rental_uris": {"ios": "https://dc.lft.to/lastmile_qr_scan", "android": "https://dc.lft.to/lastmile_qr_scan"}, "is_reserved": 0}, {"lon": -77.016276, "bike_id": "ba61d357535bdee43c5c762bcab935b4", "lat": 38.90659316666667, "fusion_lon": 0.0, "fusion_lat": 0.0, "type": "electric_scooter", "name": "ba61d357535bdee43c5c762bcab935b4", "is_disabled": 0, "rental_uris": {"ios": "https://dc.lft.to/lastmile_qr_scan", "android": "https://dc.lft.to/lastmile_qr_scan"}, "is_reserved": 0}, {"lon": -77.03284816666667, "bike_id": "fa510da3be13d54d8c2cddc225585230", "lat": 38.936393333333335, "fusion_lon": 0.0, "fusion_lat": 0.0, "type": "electric_scooter", "name": "fa510da3be13d54d8c2cddc225585230", "is_disabled": 0, "rental_uris": {"ios": "https://dc.lft.to/lastmile_qr_scan", "android": "https://dc.lft.to/lastmile_qr_scan"}, "is_reserved": 0}, {"lon": -77.02244016666667, "bike_id": "c874a500e1bef6c50fdcabc81faae8d5", "lat": 38.9226625, "fusion_lon": 0.0, "fusion_lat": 0.0, "type": "electric_scooter", "name": "c874a500e1bef6c50fdcabc81faae8d5", "is_disabled": 0, "rental_uris": {"ios": "https://dc.lft.to/lastmile_qr_scan", "android": "https://dc.lft.to/lastmile_qr_scan"}, "is_reserved": 0}, {"lon": -77.0404255, "bike_id": "e6b3a9c67cdfdfd69582c9d8c327f0d7", "lat": 38.92312666666667, "fusion_lon": 0.0, "fusion_lat": 0.0, "type": "electric_scooter", "name": "e6b3a9c67cdfdfd69582c9d8c327f0d7", "is_disabled": 0, "rental_uris": {"ios": "https://dc.lft.to/lastmile_qr_scan", "android": "https://dc.lft.to/lastmile_qr_scan"}, "is_reserved": 0}, {"lon": -76.94130516666667, "bike_id": "63af4fdf48d929b88d9cb3fcca0f323f", "lat": 38.886087333333336, "fusion_lon": 0.0, "fusion_lat": 0.0, "type": "electric_scooter", "name": "63af4fdf48d929b88d9cb3fcca0f323f", "is_disabled": 0, "rental_uris": {"ios": "https://dc.lft.to/lastmile_qr_scan", "android": "https://dc.lft.to/lastmile_qr_scan"}, "is_reserved": 0}, {"lon": -77.04366583333334, "bike_id": "ed0a299b19a156009cbae4a4567c6947", "lat": 38.898503166666664, "fusion_lon": 0.0, "fusion_lat": 0.0, "type": "electric_scooter", "name": "ed0a299b19a156009cbae4a4567c6947", "is_disabled": 0, "rental_uris": {"ios": "https://dc.lft.to/lastmile_qr_scan", "android": "https://dc.lft.to/lastmile_qr_scan"}, "is_reserved": 0}, {"lon": -77.0520895, "bike_id": "cce34f1ba6ea7723eb23e5f3b15cb25f", "lat": 38.91560533333333, "fusion_lon": 0.0, "fusion_lat": 0.0, "type": "electric_scooter", "name": "cce34f1ba6ea7723eb23e5f3b15cb25f", "is_disabled": 0, "rental_uris": {"ios": "https://dc.lft.to/lastmile_qr_scan", "android": "https://dc.lft.to/lastmile_qr_scan"}, "is_reserved": 0}, {"lon": -77.03438283333334, "bike_id": "3b804777d35666810324c293c4b33907", "lat": 38.90632883333333, "fusion_lon": 0.0, "fusion_lat": 0.0, "type": "electric_scooter", "name": "3b804777d35666810324c293c4b33907", "is_disabled": 0, "rental_uris": {"ios": "https://dc.lft.to/lastmile_qr_scan", "android": "https://dc.lft.to/lastmile_qr_scan"}, "is_reserved": 0}, {"lon": -77.023625, "bike_id": "eb382cd9907a885c466b9a6ed63e07e8", "lat": 38.892176, "fusion_lon": 0.0, "fusion_lat": 0.0, "type": "electric_scooter", "name": "eb382cd9907a885c466b9a6ed63e07e8", "is_disabled": 0, "rental_uris": {"ios": "https://dc.lft.to/lastmile_qr_scan", "android": "https://dc.lft.to/lastmile_qr_scan"}, "is_reserved": 0}, {"lon": -77.00429483333333, "bike_id": "e7250f5b7cc45ea6e479f7dd353b6c50", "lat": 38.91334033333333, "fusion_lon": 0.0, "fusion_lat": 0.0, "type": "electric_scooter", "name": "e7250f5b7cc45ea6e479f7dd353b6c50", "is_disabled": 0, "rental_uris": {"ios": "https://dc.lft.to/lastmile_qr_scan", "android": "https://dc.lft.to/lastmile_qr_scan"}, "is_reserved": 0}, {"lon": -76.98495316666667, "bike_id": "2a639073cdddcf133687262d0cea56d5", "lat": 38.878349166666666, "fusion_lon": 0.0, "fusion_lat": 0.0, "type": "electric_scooter", "name": "2a639073cdddcf133687262d0cea56d5", "is_disabled": 0, "rental_uris": {"ios": "https://dc.lft.to/lastmile_qr_scan", "android": "https://dc.lft.to/lastmile_qr_scan"}, "is_reserved": 0}, {"lon": -77.03994716666666, "bike_id": "d5d3de28331741ff42233f3847802353", "lat": 38.92458216666667, "fusion_lon": 0.0, "fusion_lat": 0.0, "type": "electric_scooter", "name": "d5d3de28331741ff42233f3847802353", "is_disabled": 0, "rental_uris": {"ios": "https://dc.lft.to/lastmile_qr_scan", "android": "https://dc.lft.to/lastmile_qr_scan"}, "is_reserved": 0}, {"lon": -77.0384285, "bike_id": "dce66bf30d9582f8c7fd7f117e3ba3b8", "lat": 38.910914166666664, "fusion_lon": 0.0, "fusion_lat": 0.0, "type": "electric_scooter", "name": "dce66bf30d9582f8c7fd7f117e3ba3b8", "is_disabled": 0, "rental_uris": {"ios": "https://dc.lft.to/lastmile_qr_scan", "android": "https://dc.lft.to/lastmile_qr_scan"}, "is_reserved": 0}, {"lon": -77.05023466666667, "bike_id": "afa52511483210e8db0395565668ca7e", "lat": 38.898107333333336, "fusion_lon": 0.0, "fusion_lat": 0.0, "type": "electric_scooter", "name": "afa52511483210e8db0395565668ca7e", "is_disabled": 0, "rental_uris": {"ios": "https://dc.lft.to/lastmile_qr_scan", "android": "https://dc.lft.to/lastmile_qr_scan"}, "is_reserved": 0}, {"lon": -77.03645433333334, "bike_id": "95ef0bd508c1ea9a8797cfcd3315d2e9", "lat": 38.92339166666667, "fusion_lon": 0.0, "fusion_lat": 0.0, "type": "electric_scooter", "name": "95ef0bd508c1ea9a8797cfcd3315d2e9", "is_disabled": 0, "rental_uris": {"ios": "https://dc.lft.to/lastmile_qr_scan", "android": "https://dc.lft.to/lastmile_qr_scan"}, "is_reserved": 0}, {"lon": -76.9462935, "bike_id": "a5da3ad76b423ba9dfdbbf06226922fc", "lat": 38.8983305, "fusion_lon": 0.0, "fusion_lat": 0.0, "type": "electric_scooter", "name": "a5da3ad76b423ba9dfdbbf06226922fc", "is_disabled": 0, "rental_uris": {"ios": "https://dc.lft.to/lastmile_qr_scan", "android": "https://dc.lft.to/lastmile_qr_scan"}, "is_reserved": 0}, {"lon": -77.04943066666667, "bike_id": "365cedd7f59ae188f275c73a235d2504", "lat": 38.90849133333333, "fusion_lon": 0.0, "fusion_lat": 0.0, "type": "electric_scooter", "name": "365cedd7f59ae188f275c73a235d2504", "is_disabled": 0, "rental_uris": {"ios": "https://dc.lft.to/lastmile_qr_scan", "android": "https://dc.lft.to/lastmile_qr_scan"}, "is_reserved": 0}, {"lon": -77.04195916666667, "bike_id": "0b00052539bad7db57c3e78bbefb7dca", "lat": 38.92627566666667, "fusion_lon": 0.0, "fusion_lat": 0.0, "type": "electric_scooter", "name": "0b00052539bad7db57c3e78bbefb7dca", "is_disabled": 0, "rental_uris": {"ios": "https://dc.lft.to/lastmile_qr_scan", "android": "https://dc.lft.to/lastmile_qr_scan"}, "is_reserved": 0}, {"lon": -76.93373266666667, "bike_id": "181b4a4e873fad4a8c94cec62a2a5aa5", "lat": 38.89911016666667, "fusion_lon": 0.0, "fusion_lat": 0.0, "type": "electric_scooter", "name": "181b4a4e873fad4a8c94cec62a2a5aa5", "is_disabled": 0, "rental_uris": {"ios": "https://dc.lft.to/lastmile_qr_scan", "android": "https://dc.lft.to/lastmile_qr_scan"}, "is_reserved": 0}, {"lon": -77.04142566666667, "bike_id": "6765c1d344355f3721f199582500a289", "lat": 38.925382166666665, "fusion_lon": 0.0, "fusion_lat": 0.0, "type": "electric_scooter", "name": "6765c1d344355f3721f199582500a289", "is_disabled": 0, "rental_uris": {"ios": "https://dc.lft.to/lastmile_qr_scan", "android": "https://dc.lft.to/lastmile_qr_scan"}, "is_reserved": 0}, {"lon": -77.0483365, "bike_id": "894b5b8b237ebb663fbe63846579a53f", "lat": 38.91882416666667, "fusion_lon": 0.0, "fusion_lat": 0.0, "type": "electric_scooter", "name": "894b5b8b237ebb663fbe63846579a53f", "is_disabled": 0, "rental_uris": {"ios": "https://dc.lft.to/lastmile_qr_scan", "android": "https://dc.lft.to/lastmile_qr_scan"}, "is_reserved": 0}, {"lon": -76.951917, "bike_id": "76d4d35579fca92f92ccfd77211cf790", "lat": 38.90001383333333, "fusion_lon": 0.0, "fusion_lat": 0.0, "type": "electric_scooter", "name": "76d4d35579fca92f92ccfd77211cf790", "is_disabled": 0, "rental_uris": {"ios": "https://dc.lft.to/lastmile_qr_scan", "android": "https://dc.lft.to/lastmile_qr_scan"}, "is_reserved": 0}, {"lon": -77.0410585, "bike_id": "807ff510e2f3a47d415294dd91049673", "lat": 38.9185305, "fusion_lon": 0.0, "fusion_lat": 0.0, "type": "electric_scooter", "name": "807ff510e2f3a47d415294dd91049673", "is_disabled": 0, "rental_uris": {"ios": "https://dc.lft.to/lastmile_qr_scan", "android": "https://dc.lft.to/lastmile_qr_scan"}, "is_reserved": 0}, {"lon": -77.02376183333334, "bike_id": "a9b53aefe3da11f367f9bb8f397996d9", "lat": 38.918397166666665, "fusion_lon": 0.0, "fusion_lat": 0.0, "type": "electric_scooter", "name": "a9b53aefe3da11f367f9bb8f397996d9", "is_disabled": 0, "rental_uris": {"ios": "https://dc.lft.to/lastmile_qr_scan", "android": "https://dc.lft.to/lastmile_qr_scan"}, "is_reserved": 0}, {"lon": -77.0296185, "bike_id": "7a7b23d97672047862a6026a217cbcdb", "lat": 38.92565466666667, "fusion_lon": 0.0, "fusion_lat": 0.0, "type": "electric_scooter", "name": "7a7b23d97672047862a6026a217cbcdb", "is_disabled": 0, "rental_uris": {"ios": "https://dc.lft.to/lastmile_qr_scan", "android": "https://dc.lft.to/lastmile_qr_scan"}, "is_reserved": 0}, {"lon": -76.9983685, "bike_id": "84b90fa0caf3cbf7d93c54584768fbbb", "lat": 38.902368833333334, "fusion_lon": 0.0, "fusion_lat": 0.0, "type": "electric_scooter", "name": "84b90fa0caf3cbf7d93c54584768fbbb", "is_disabled": 0, "rental_uris": {"ios": "https://dc.lft.to/lastmile_qr_scan", "android": "https://dc.lft.to/lastmile_qr_scan"}, "is_reserved": 0}, {"lon": -77.00062166666666, "bike_id": "b0887cf8f12305749d2c260870eed2b9", "lat": 38.9070865, "fusion_lon": 0.0, "fusion_lat": 0.0, "type": "electric_scooter", "name": "b0887cf8f12305749d2c260870eed2b9", "is_disabled": 0, "rental_uris": {"ios": "https://dc.lft.to/lastmile_qr_scan", "android": "https://dc.lft.to/lastmile_qr_scan"}, "is_reserved": 0}, {"lon": -77.03844916666667, "bike_id": "c5a06b54b1f76e86bd1e71be2ecd0e25", "lat": 38.90814733333333, "fusion_lon": 0.0, "fusion_lat": 0.0, "type": "electric_scooter", "name": "c5a06b54b1f76e86bd1e71be2ecd0e25", "is_disabled": 0, "rental_uris": {"ios": "https://dc.lft.to/lastmile_qr_scan", "android": "https://dc.lft.to/lastmile_qr_scan"}, "is_reserved": 0}, {"lon": -77.0056595, "bike_id": "fb1039858d599d78c12a0c24518721fb", "lat": 38.878491833333335, "fusion_lon": 0.0, "fusion_lat": 0.0, "type": "electric_scooter", "name": "fb1039858d599d78c12a0c24518721fb", "is_disabled": 0, "rental_uris": {"ios": "https://dc.lft.to/lastmile_qr_scan", "android": "https://dc.lft.to/lastmile_qr_scan"}, "is_reserved": 0}, {"lon": -77.03475583333334, "bike_id": "6e439edc486b9c74d8a6d3c43e13b749", "lat": 38.9286535, "fusion_lon": 0.0, "fusion_lat": 0.0, "type": "electric_scooter", "name": "6e439edc486b9c74d8a6d3c43e13b749", "is_disabled": 0, "rental_uris": {"ios": "https://dc.lft.to/lastmile_qr_scan", "android": "https://dc.lft.to/lastmile_qr_scan"}, "is_reserved": 0}, {"lon": -76.93175533333333, "bike_id": "eb8a8c6fc021b05039262e80983a55f5", "lat": 38.898801166666665, "fusion_lon": 0.0, "fusion_lat": 0.0, "type": "electric_scooter", "name": "eb8a8c6fc021b05039262e80983a55f5", "is_disabled": 0, "rental_uris": {"ios": "https://dc.lft.to/lastmile_qr_scan", "android": "https://dc.lft.to/lastmile_qr_scan"}, "is_reserved": 0}, {"lon": -76.949628, "bike_id": "e01cfe60afaf9f82b6bed2b58a406c5d", "lat": 38.89442533333333, "fusion_lon": 0.0, "fusion_lat": 0.0, "type": "electric_scooter", "name": "e01cfe60afaf9f82b6bed2b58a406c5d", "is_disabled": 0, "rental_uris": {"ios": "https://dc.lft.to/lastmile_qr_scan", "android": "https://dc.lft.to/lastmile_qr_scan"}, "is_reserved": 0}, {"lon": -76.994749, "bike_id": "eed91c003cb8e32a492bb9cb93fafaae", "lat": 38.86217116666667, "fusion_lon": 0.0, "fusion_lat": 0.0, "type": "electric_scooter", "name": "eed91c003cb8e32a492bb9cb93fafaae", "is_disabled": 0, "rental_uris": {"ios": "https://dc.lft.to/lastmile_qr_scan", "android": "https://dc.lft.to/lastmile_qr_scan"}, "is_reserved": 0}, {"lon": -77.04723083333333, "bike_id": "dee0661319fc9dcf614cacd85a50c1a7", "lat": 38.922291333333334, "fusion_lon": 0.0, "fusion_lat": 0.0, "type": "electric_scooter", "name": "dee0661319fc9dcf614cacd85a50c1a7", "is_disabled": 0, "rental_uris": {"ios": "https://dc.lft.to/lastmile_qr_scan", "android": "https://dc.lft.to/lastmile_qr_scan"}, "is_reserved": 0}, {"lon": -77.03327566666667, "bike_id": "743b74b3f020d26536b2b934d1cbf5fc", "lat": 38.9471385, "fusion_lon": 0.0, "fusion_lat": 0.0, "type": "electric_scooter", "name": "743b74b3f020d26536b2b934d1cbf5fc", "is_disabled": 0, "rental_uris": {"ios": "https://dc.lft.to/lastmile_qr_scan", "android": "https://dc.lft.to/lastmile_qr_scan"}, "is_reserved": 0}, {"lon": -77.00519283333334, "bike_id": "be88e413319815fc75e7fb5c65cd7383", "lat": 38.879334666666665, "fusion_lon": 0.0, "fusion_lat": 0.0, "type": "electric_scooter", "name": "be88e413319815fc75e7fb5c65cd7383", "is_disabled": 0, "rental_uris": {"ios": "https://dc.lft.to/lastmile_qr_scan", "android": "https://dc.lft.to/lastmile_qr_scan"}, "is_reserved": 0}, {"lon": -76.98090783333333, "bike_id": "f296ba23b5baed58bd3fe6fc97dad834", "lat": 38.88133766666667, "fusion_lon": 0.0, "fusion_lat": 0.0, "type": "electric_bike", "name": "f296ba23b5baed58bd3fe6fc97dad834", "is_disabled": 0, "rental_uris": {"ios": "https://dc.lft.to/lastmile_qr_scan", "android": "https://dc.lft.to/lastmile_qr_scan"}, "is_reserved": 0}, {"lon": -77.01139883333333, "bike_id": "ca350808a5c5552f71201152fd8410ac", "lat": 38.91258833333333, "fusion_lon": 0.0, "fusion_lat": 0.0, "type": "electric_scooter", "name": "ca350808a5c5552f71201152fd8410ac", "is_disabled": 0, "rental_uris": {"ios": "https://dc.lft.to/lastmile_qr_scan", "android": "https://dc.lft.to/lastmile_qr_scan"}, "is_reserved": 0}, {"lon": -77.05111716666667, "bike_id": "2dce5017044bfe035ebcacc5ca8c7c9d", "lat": 38.92303483333333, "fusion_lon": 0.0, "fusion_lat": 0.0, "type": "electric_scooter", "name": "2dce5017044bfe035ebcacc5ca8c7c9d", "is_disabled": 0, "rental_uris": {"ios": "https://dc.lft.to/lastmile_qr_scan", "android": "https://dc.lft.to/lastmile_qr_scan"}, "is_reserved": 0}, {"lon": -77.03845133333333, "bike_id": "a34f06aeedf89c2008a4f01b4a9f9f39", "lat": 38.910186833333334, "fusion_lon": 0.0, "fusion_lat": 0.0, "type": "electric_scooter", "name": "a34f06aeedf89c2008a4f01b4a9f9f39", "is_disabled": 0, "rental_uris": {"ios": "https://dc.lft.to/lastmile_qr_scan", "android": "https://dc.lft.to/lastmile_qr_scan"}, "is_reserved": 0}, {"lon": -77.00646616666667, "bike_id": "b8b9669498e7895242db4da7f82c1877", "lat": 38.8807945, "fusion_lon": 0.0, "fusion_lat": 0.0, "type": "electric_scooter", "name": "b8b9669498e7895242db4da7f82c1877", "is_disabled": 0, "rental_uris": {"ios": "https://dc.lft.to/lastmile_qr_scan", "android": "https://dc.lft.to/lastmile_qr_scan"}, "is_reserved": 0}, {"lon": -77.054724, "bike_id": "e34669c713874422877166205b867a0b", "lat": 38.89789916666667, "fusion_lon": 0.0, "fusion_lat": 0.0, "type": "electric_scooter", "name": "e34669c713874422877166205b867a0b", "is_disabled": 0, "rental_uris": {"ios": "https://dc.lft.to/lastmile_qr_scan", "android": "https://dc.lft.to/lastmile_qr_scan"}, "is_reserved": 0}, {"lon": -77.0262055, "bike_id": "ec32a1499fe5529440a2780e2549867c", "lat": 38.92981966666667, "fusion_lon": 0.0, "fusion_lat": 0.0, "type": "electric_scooter", "name": "ec32a1499fe5529440a2780e2549867c", "is_disabled": 0, "rental_uris": {"ios": "https://dc.lft.to/lastmile_qr_scan", "android": "https://dc.lft.to/lastmile_qr_scan"}, "is_reserved": 0}, {"lon": -77.01592766666667, "bike_id": "a0ff898f558bd5a72c3089266bbac56d", "lat": 38.87210433333333, "fusion_lon": 0.0, "fusion_lat": 0.0, "type": "electric_scooter", "name": "a0ff898f558bd5a72c3089266bbac56d", "is_disabled": 0, "rental_uris": {"ios": "https://dc.lft.to/lastmile_qr_scan", "android": "https://dc.lft.to/lastmile_qr_scan"}, "is_reserved": 0}, {"lon": -77.02801716666667, "bike_id": "838c0f689e19c92093c7fe13bf0e014d", "lat": 38.96211983333333, "fusion_lon": 0.0, "fusion_lat": 0.0, "type": "electric_scooter", "name": "838c0f689e19c92093c7fe13bf0e014d", "is_disabled": 0, "rental_uris": {"ios": "https://dc.lft.to/lastmile_qr_scan", "android": "https://dc.lft.to/lastmile_qr_scan"}, "is_reserved": 0}, {"lon": -77.0433175, "bike_id": "c9584e99536aee523a9e85a8ef4e3581", "lat": 38.9080025, "fusion_lon": 0.0, "fusion_lat": 0.0, "type": "electric_scooter", "name": "c9584e99536aee523a9e85a8ef4e3581", "is_disabled": 0, "rental_uris": {"ios": "https://dc.lft.to/lastmile_qr_scan", "android": "https://dc.lft.to/lastmile_qr_scan"}, "is_reserved": 0}, {"lon": -77.03333266666667, "bike_id": "6bfbebdb1e75cda6fb3ce366ed04d712", "lat": 38.89839516666667, "fusion_lon": 0.0, "fusion_lat": 0.0, "type": "electric_scooter", "name": "6bfbebdb1e75cda6fb3ce366ed04d712", "is_disabled": 0, "rental_uris": {"ios": "https://dc.lft.to/lastmile_qr_scan", "android": "https://dc.lft.to/lastmile_qr_scan"}, "is_reserved": 0}, {"lon": -77.03392566666666, "bike_id": "4b2fa5e391df96411210bc1f8cc9ed01", "lat": 38.93850066666667, "fusion_lon": 0.0, "fusion_lat": 0.0, "type": "electric_scooter", "name": "4b2fa5e391df96411210bc1f8cc9ed01", "is_disabled": 0, "rental_uris": {"ios": "https://dc.lft.to/lastmile_qr_scan", "android": "https://dc.lft.to/lastmile_qr_scan"}, "is_reserved": 0}, {"lon": -77.0421305, "bike_id": "501949611a659b512ed7063c72a0d71f", "lat": 38.89269816666667, "fusion_lon": 0.0, "fusion_lat": 0.0, "type": "electric_scooter", "name": "501949611a659b512ed7063c72a0d71f", "is_disabled": 0, "rental_uris": {"ios": "https://dc.lft.to/lastmile_qr_scan", "android": "https://dc.lft.to/lastmile_qr_scan"}, "is_reserved": 0}, {"lon": -77.0451535, "bike_id": "df8ebfeb4489bb272660c726bcfa4b28", "lat": 38.94195583333333, "fusion_lon": 0.0, "fusion_lat": 0.0, "type": "electric_bike", "name": "df8ebfeb4489bb272660c726bcfa4b28", "is_disabled": 0, "rental_uris": {"ios": "https://dc.lft.to/lastmile_qr_scan", "android": "https://dc.lft.to/lastmile_qr_scan"}, "is_reserved": 0}, {"lon": -77.00229166666666, "bike_id": "87fa0a8d922c1be3ba1ccb350171b063", "lat": 38.9082705, "fusion_lon": 0.0, "fusion_lat": 0.0, "type": "electric_scooter", "name": "87fa0a8d922c1be3ba1ccb350171b063", "is_disabled": 0, "rental_uris": {"ios": "https://dc.lft.to/lastmile_qr_scan", "android": "https://dc.lft.to/lastmile_qr_scan"}, "is_reserved": 0}, {"lon": -77.011469, "bike_id": "68a3edaf480a18c6cc4a83d9d6984252", "lat": 38.91116916666667, "fusion_lon": 0.0, "fusion_lat": 0.0, "type": "electric_scooter", "name": "68a3edaf480a18c6cc4a83d9d6984252", "is_disabled": 0, "rental_uris": {"ios": "https://dc.lft.to/lastmile_qr_scan", "android": "https://dc.lft.to/lastmile_qr_scan"}, "is_reserved": 0}, {"lon": -77.03271283333333, "bike_id": "c3130d4954d4109cec6ab270fe23a5ba", "lat": 38.934439833333336, "fusion_lon": 0.0, "fusion_lat": 0.0, "type": "electric_scooter", "name": "c3130d4954d4109cec6ab270fe23a5ba", "is_disabled": 0, "rental_uris": {"ios": "https://dc.lft.to/lastmile_qr_scan", "android": "https://dc.lft.to/lastmile_qr_scan"}, "is_reserved": 0}, {"lon": -77.01551566666667, "bike_id": "ff951c61683d2415236d98e0e514222d", "lat": 38.892204, "fusion_lon": 0.0, "fusion_lat": 0.0, "type": "electric_scooter", "name": "ff951c61683d2415236d98e0e514222d", "is_disabled": 0, "rental_uris": {"ios": "https://dc.lft.to/lastmile_qr_scan", "android": "https://dc.lft.to/lastmile_qr_scan"}, "is_reserved": 0}, {"lon": -76.98839783333334, "bike_id": "9b29c5179d67216538bd1df228b81013", "lat": 38.90074466666667, "fusion_lon": 0.0, "fusion_lat": 0.0, "type": "electric_scooter", "name": "9b29c5179d67216538bd1df228b81013", "is_disabled": 0, "rental_uris": {"ios": "https://dc.lft.to/lastmile_qr_scan", "android": "https://dc.lft.to/lastmile_qr_scan"}, "is_reserved": 0}, {"lon": -76.99513366666666, "bike_id": "698b4569d913d3ae75e6079ffccc7dd9", "lat": 38.896226666666664, "fusion_lon": 0.0, "fusion_lat": 0.0, "type": "electric_scooter", "name": "698b4569d913d3ae75e6079ffccc7dd9", "is_disabled": 0, "rental_uris": {"ios": "https://dc.lft.to/lastmile_qr_scan", "android": "https://dc.lft.to/lastmile_qr_scan"}, "is_reserved": 0}, {"lon": -77.017841, "bike_id": "df79ec40dcec59de30193f120cdca67c", "lat": 38.8831105, "fusion_lon": 0.0, "fusion_lat": 0.0, "type": "electric_scooter", "name": "df79ec40dcec59de30193f120cdca67c", "is_disabled": 0, "rental_uris": {"ios": "https://dc.lft.to/lastmile_qr_scan", "android": "https://dc.lft.to/lastmile_qr_scan"}, "is_reserved": 0}, {"lon": -77.04674066666666, "bike_id": "3a060002deb5c06c1288e98b5b87bcf3", "lat": 38.90901266666667, "fusion_lon": 0.0, "fusion_lat": 0.0, "type": "electric_scooter", "name": "3a060002deb5c06c1288e98b5b87bcf3", "is_disabled": 0, "rental_uris": {"ios": "https://dc.lft.to/lastmile_qr_scan", "android": "https://dc.lft.to/lastmile_qr_scan"}, "is_reserved": 0}, {"lon": -77.0410075, "bike_id": "a1b0bede2912e2d0c4e5355716fece6b", "lat": 38.89840016666667, "fusion_lon": 0.0, "fusion_lat": 0.0, "type": "electric_scooter", "name": "a1b0bede2912e2d0c4e5355716fece6b", "is_disabled": 0, "rental_uris": {"ios": "https://dc.lft.to/lastmile_qr_scan", "android": "https://dc.lft.to/lastmile_qr_scan"}, "is_reserved": 0}, {"lon": -76.99777533333334, "bike_id": "1c290c8596b649a9099ce83f7527be02", "lat": 38.8430445, "fusion_lon": 0.0, "fusion_lat": 0.0, "type": "electric_scooter", "name": "1c290c8596b649a9099ce83f7527be02", "is_disabled": 0, "rental_uris": {"ios": "https://dc.lft.to/lastmile_qr_scan", "android": "https://dc.lft.to/lastmile_qr_scan"}, "is_reserved": 0}, {"lon": -76.93751083333333, "bike_id": "a029b27012daeedad7212017e025e4c6", "lat": 38.890479166666665, "fusion_lon": 0.0, "fusion_lat": 0.0, "type": "electric_scooter", "name": "a029b27012daeedad7212017e025e4c6", "is_disabled": 0, "rental_uris": {"ios": "https://dc.lft.to/lastmile_qr_scan", "android": "https://dc.lft.to/lastmile_qr_scan"}, "is_reserved": 0}, {"lon": -77.02300916666667, "bike_id": "2c25396596780fbee389a1f020015a12", "lat": 38.926741, "fusion_lon": 0.0, "fusion_lat": 0.0, "type": "electric_scooter", "name": "2c25396596780fbee389a1f020015a12", "is_disabled": 0, "rental_uris": {"ios": "https://dc.lft.to/lastmile_qr_scan", "android": "https://dc.lft.to/lastmile_qr_scan"}, "is_reserved": 0}, {"lon": -76.94802966666667, "bike_id": "cf10379879bfccc9cbc4a683ad37a895", "lat": 38.86193016666667, "fusion_lon": 0.0, "fusion_lat": 0.0, "type": "electric_bike", "name": "cf10379879bfccc9cbc4a683ad37a895", "is_disabled": 0, "rental_uris": {"ios": "https://dc.lft.to/lastmile_qr_scan", "android": "https://dc.lft.to/lastmile_qr_scan"}, "is_reserved": 0}, {"lon": -77.02635766666667, "bike_id": "f9bf408f310a4dd0d5a05cbf6abc66a2", "lat": 38.89809133333333, "fusion_lon": 0.0, "fusion_lat": 0.0, "type": "electric_scooter", "name": "f9bf408f310a4dd0d5a05cbf6abc66a2", "is_disabled": 0, "rental_uris": {"ios": "https://dc.lft.to/lastmile_qr_scan", "android": "https://dc.lft.to/lastmile_qr_scan"}, "is_reserved": 0}, {"lon": -76.93875966666667, "bike_id": "03262320e5ba394ca794f99085ce75f6", "lat": 38.95628383333333, "fusion_lon": 0.0, "fusion_lat": 0.0, "type": "electric_bike", "name": "03262320e5ba394ca794f99085ce75f6", "is_disabled": 0, "rental_uris": {"ios": "https://dc.lft.to/lastmile_qr_scan", "android": "https://dc.lft.to/lastmile_qr_scan"}, "is_reserved": 0}, {"lon": -77.028492, "bike_id": "5e19dd1d1d688d4d874a2672cf021403", "lat": 38.932439, "fusion_lon": 0.0, "fusion_lat": 0.0, "type": "electric_scooter", "name": "5e19dd1d1d688d4d874a2672cf021403", "is_disabled": 0, "rental_uris": {"ios": "https://dc.lft.to/lastmile_qr_scan", "android": "https://dc.lft.to/lastmile_qr_scan"}, "is_reserved": 0}, {"lon": -77.02369516666667, "bike_id": "ce8e07d6911cdbb79be9fa313af98cc8", "lat": 38.9019825, "fusion_lon": 0.0, "fusion_lat": 0.0, "type": "electric_scooter", "name": "ce8e07d6911cdbb79be9fa313af98cc8", "is_disabled": 0, "rental_uris": {"ios": "https://dc.lft.to/lastmile_qr_scan", "android": "https://dc.lft.to/lastmile_qr_scan"}, "is_reserved": 0}, {"lon": -77.0215645, "bike_id": "694ec8de69dc8cb7ee49834aa71b86df", "lat": 38.926191333333335, "fusion_lon": 0.0, "fusion_lat": 0.0, "type": "electric_scooter", "name": "694ec8de69dc8cb7ee49834aa71b86df", "is_disabled": 0, "rental_uris": {"ios": "https://dc.lft.to/lastmile_qr_scan", "android": "https://dc.lft.to/lastmile_qr_scan"}, "is_reserved": 0}, {"lon": -77.02216183333333, "bike_id": "88c844da507ccbb3bdc13de9753db9da", "lat": 38.950986666666665, "fusion_lon": 0.0, "fusion_lat": 0.0, "type": "electric_scooter", "name": "88c844da507ccbb3bdc13de9753db9da", "is_disabled": 0, "rental_uris": {"ios": "https://dc.lft.to/lastmile_qr_scan", "android": "https://dc.lft.to/lastmile_qr_scan"}, "is_reserved": 0}, {"lon": -77.00572516666666, "bike_id": "aebc0a3daba2f26ae52bceadec530262", "lat": 38.876476333333336, "fusion_lon": 0.0, "fusion_lat": 0.0, "type": "electric_scooter", "name": "aebc0a3daba2f26ae52bceadec530262", "is_disabled": 0, "rental_uris": {"ios": "https://dc.lft.to/lastmile_qr_scan", "android": "https://dc.lft.to/lastmile_qr_scan"}, "is_reserved": 0}, {"lon": -77.02609683333333, "bike_id": "6e88b8a1e06dfc1e84ad2b27f419656b", "lat": 38.91404883333333, "fusion_lon": 0.0, "fusion_lat": 0.0, "type": "electric_scooter", "name": "6e88b8a1e06dfc1e84ad2b27f419656b", "is_disabled": 0, "rental_uris": {"ios": "https://dc.lft.to/lastmile_qr_scan", "android": "https://dc.lft.to/lastmile_qr_scan"}, "is_reserved": 0}, {"lon": -77.02010183333333, "bike_id": "0ee27df0ccd840bd6b0d7a553b30951e", "lat": 38.92411383333334, "fusion_lon": 0.0, "fusion_lat": 0.0, "type": "electric_scooter", "name": "0ee27df0ccd840bd6b0d7a553b30951e", "is_disabled": 0, "rental_uris": {"ios": "https://dc.lft.to/lastmile_qr_scan", "android": "https://dc.lft.to/lastmile_qr_scan"}, "is_reserved": 0}, {"lon": -77.0453305, "bike_id": "36aa57d57c60bc49084b5900bbd6cc17", "lat": 38.91326166666666, "fusion_lon": 0.0, "fusion_lat": 0.0, "type": "electric_scooter", "name": "36aa57d57c60bc49084b5900bbd6cc17", "is_disabled": 0, "rental_uris": {"ios": "https://dc.lft.to/lastmile_qr_scan", "android": "https://dc.lft.to/lastmile_qr_scan"}, "is_reserved": 0}, {"lon": -76.98388483333333, "bike_id": "464535f5a77a6860c1a3b13ebf44f857", "lat": 38.9046845, "fusion_lon": 0.0, "fusion_lat": 0.0, "type": "electric_scooter", "name": "464535f5a77a6860c1a3b13ebf44f857", "is_disabled": 0, "rental_uris": {"ios": "https://dc.lft.to/lastmile_qr_scan", "android": "https://dc.lft.to/lastmile_qr_scan"}, "is_reserved": 0}, {"lon": -77.04783433333333, "bike_id": "04af5944ae04b3f758778d162b557990", "lat": 38.90865083333333, "fusion_lon": 0.0, "fusion_lat": 0.0, "type": "electric_scooter", "name": "04af5944ae04b3f758778d162b557990", "is_disabled": 0, "rental_uris": {"ios": "https://dc.lft.to/lastmile_qr_scan", "android": "https://dc.lft.to/lastmile_qr_scan"}, "is_reserved": 0}, {"lon": -77.10155816666666, "bike_id": "804b3b92793e2808e6d8a9720bdd5b87", "lat": 38.9253065, "fusion_lon": 0.0, "fusion_lat": 0.0, "type": "electric_scooter", "name": "804b3b92793e2808e6d8a9720bdd5b87", "is_disabled": 0, "rental_uris": {"ios": "https://dc.lft.to/lastmile_qr_scan", "android": "https://dc.lft.to/lastmile_qr_scan"}, "is_reserved": 0}, {"lon": -77.02421066666666, "bike_id": "bf5462d40ce5c71ada46d54399293445", "lat": 38.93362966666667, "fusion_lon": 0.0, "fusion_lat": 0.0, "type": "electric_bike", "name": "bf5462d40ce5c71ada46d54399293445", "is_disabled": 0, "rental_uris": {"ios": "https://dc.lft.to/lastmile_qr_scan", "android": "https://dc.lft.to/lastmile_qr_scan"}, "is_reserved": 0}, {"lon": -76.98010283333333, "bike_id": "04d054b68d097545aa0315d288e65a47", "lat": 38.8531565, "fusion_lon": 0.0, "fusion_lat": 0.0, "type": "electric_bike", "name": "04d054b68d097545aa0315d288e65a47", "is_disabled": 0, "rental_uris": {"ios": "https://dc.lft.to/lastmile_qr_scan", "android": "https://dc.lft.to/lastmile_qr_scan"}, "is_reserved": 0}, {"lon": -76.99783733333334, "bike_id": "4ab971f6ea6f4ce5a6d7ac5b32c810aa", "lat": 38.89099233333334, "fusion_lon": 0.0, "fusion_lat": 0.0, "type": "electric_scooter", "name": "4ab971f6ea6f4ce5a6d7ac5b32c810aa", "is_disabled": 0, "rental_uris": {"ios": "https://dc.lft.to/lastmile_qr_scan", "android": "https://dc.lft.to/lastmile_qr_scan"}, "is_reserved": 0}, {"lon": -76.98109033333333, "bike_id": "e43040c7becf8087f66d7d83cebe2338", "lat": 38.87731083333333, "fusion_lon": 0.0, "fusion_lat": 0.0, "type": "electric_bike", "name": "e43040c7becf8087f66d7d83cebe2338", "is_disabled": 0, "rental_uris": {"ios": "https://dc.lft.to/lastmile_qr_scan", "android": "https://dc.lft.to/lastmile_qr_scan"}, "is_reserved": 0}, {"lon": -77.026209, "bike_id": "25cd342b909ac9a0db929b4d3f341489", "lat": 38.929811666666666, "fusion_lon": 0.0, "fusion_lat": 0.0, "type": "electric_scooter", "name": "25cd342b909ac9a0db929b4d3f341489", "is_disabled": 0, "rental_uris": {"ios": "https://dc.lft.to/lastmile_qr_scan", "android": "https://dc.lft.to/lastmile_qr_scan"}, "is_reserved": 0}, {"lon": -77.02161233333334, "bike_id": "a1f01e1d98c3a3f9c87ebd90d37dc017", "lat": 38.909706166666666, "fusion_lon": 0.0, "fusion_lat": 0.0, "type": "electric_scooter", "name": "a1f01e1d98c3a3f9c87ebd90d37dc017", "is_disabled": 0, "rental_uris": {"ios": "https://dc.lft.to/lastmile_qr_scan", "android": "https://dc.lft.to/lastmile_qr_scan"}, "is_reserved": 0}, {"lon": -77.058601, "bike_id": "6ab68ff8ed8f7f61acdc9f77afb1a9ab", "lat": 38.9360765, "fusion_lon": 0.0, "fusion_lat": 0.0, "type": "electric_scooter", "name": "6ab68ff8ed8f7f61acdc9f77afb1a9ab", "is_disabled": 0, "rental_uris": {"ios": "https://dc.lft.to/lastmile_qr_scan", "android": "https://dc.lft.to/lastmile_qr_scan"}, "is_reserved": 0}, {"lon": -77.00591833333333, "bike_id": "53e3783157ce2393962bfdad5af4d9e0", "lat": 38.90034216666667, "fusion_lon": 0.0, "fusion_lat": 0.0, "type": "electric_scooter", "name": "53e3783157ce2393962bfdad5af4d9e0", "is_disabled": 0, "rental_uris": {"ios": "https://dc.lft.to/lastmile_qr_scan", "android": "https://dc.lft.to/lastmile_qr_scan"}, "is_reserved": 0}, {"lon": -76.9824885, "bike_id": "eea5c2d11698383e912b075ea1d9f133", "lat": 38.864562166666666, "fusion_lon": 0.0, "fusion_lat": 0.0, "type": "electric_scooter", "name": "eea5c2d11698383e912b075ea1d9f133", "is_disabled": 0, "rental_uris": {"ios": "https://dc.lft.to/lastmile_qr_scan", "android": "https://dc.lft.to/lastmile_qr_scan"}, "is_reserved": 0}, {"lon": -77.00480916666666, "bike_id": "bb94b4cf95eb885a8f443b00ecda05d7", "lat": 38.905531333333336, "fusion_lon": 0.0, "fusion_lat": 0.0, "type": "electric_scooter", "name": "bb94b4cf95eb885a8f443b00ecda05d7", "is_disabled": 0, "rental_uris": {"ios": "https://dc.lft.to/lastmile_qr_scan", "android": "https://dc.lft.to/lastmile_qr_scan"}, "is_reserved": 0}, {"lon": -77.046899, "bike_id": "f2314f1cc22450aba3db5d1a177444d9", "lat": 38.91900433333333, "fusion_lon": 0.0, "fusion_lat": 0.0, "type": "electric_scooter", "name": "f2314f1cc22450aba3db5d1a177444d9", "is_disabled": 0, "rental_uris": {"ios": "https://dc.lft.to/lastmile_qr_scan", "android": "https://dc.lft.to/lastmile_qr_scan"}, "is_reserved": 0}, {"lon": -77.030661, "bike_id": "1b3370c0adf6197ec5c4254b44438465", "lat": 38.92466433333333, "fusion_lon": 0.0, "fusion_lat": 0.0, "type": "electric_scooter", "name": "1b3370c0adf6197ec5c4254b44438465", "is_disabled": 0, "rental_uris": {"ios": "https://dc.lft.to/lastmile_qr_scan", "android": "https://dc.lft.to/lastmile_qr_scan"}, "is_reserved": 0}, {"lon": -77.00190616666667, "bike_id": "a87806e82227fcc85cdab59cc6cc97b4", "lat": 38.89476916666667, "fusion_lon": 0.0, "fusion_lat": 0.0, "type": "electric_scooter", "name": "a87806e82227fcc85cdab59cc6cc97b4", "is_disabled": 0, "rental_uris": {"ios": "https://dc.lft.to/lastmile_qr_scan", "android": "https://dc.lft.to/lastmile_qr_scan"}, "is_reserved": 0}, {"lon": -76.94936516666667, "bike_id": "0056839bf85cda70b792a0bf6d98daad", "lat": 38.895447833333336, "fusion_lon": 0.0, "fusion_lat": 0.0, "type": "electric_scooter", "name": "0056839bf85cda70b792a0bf6d98daad", "is_disabled": 0, "rental_uris": {"ios": "https://dc.lft.to/lastmile_qr_scan", "android": "https://dc.lft.to/lastmile_qr_scan"}, "is_reserved": 0}, {"lon": -77.00113033333334, "bike_id": "208fa8d4146c52c1d11880c307920eaa", "lat": 38.91968333333333, "fusion_lon": 0.0, "fusion_lat": 0.0, "type": "electric_scooter", "name": "208fa8d4146c52c1d11880c307920eaa", "is_disabled": 0, "rental_uris": {"ios": "https://dc.lft.to/lastmile_qr_scan", "android": "https://dc.lft.to/lastmile_qr_scan"}, "is_reserved": 0}, {"lon": -77.02388533333334, "bike_id": "8be9567835259e59318e96fc77ee8743", "lat": 38.92080383333333, "fusion_lon": 0.0, "fusion_lat": 0.0, "type": "electric_scooter", "name": "8be9567835259e59318e96fc77ee8743", "is_disabled": 0, "rental_uris": {"ios": "https://dc.lft.to/lastmile_qr_scan", "android": "https://dc.lft.to/lastmile_qr_scan"}, "is_reserved": 0}, {"lon": -77.015028, "bike_id": "7fc0f0b21a7f28391b7e7ffd00e1a794", "lat": 38.94536983333333, "fusion_lon": 0.0, "fusion_lat": 0.0, "type": "electric_scooter", "name": "7fc0f0b21a7f28391b7e7ffd00e1a794", "is_disabled": 0, "rental_uris": {"ios": "https://dc.lft.to/lastmile_qr_scan", "android": "https://dc.lft.to/lastmile_qr_scan"}, "is_reserved": 0}, {"lon": -77.0337455, "bike_id": "d42de31fc2e46557320e274753bbccb5", "lat": 38.921633, "fusion_lon": 0.0, "fusion_lat": 0.0, "type": "electric_scooter", "name": "d42de31fc2e46557320e274753bbccb5", "is_disabled": 0, "rental_uris": {"ios": "https://dc.lft.to/lastmile_qr_scan", "android": "https://dc.lft.to/lastmile_qr_scan"}, "is_reserved": 0}, {"lon": -76.99268683333334, "bike_id": "9c51e6e8b7d68f806f71f009085325de", "lat": 38.8976415, "fusion_lon": 0.0, "fusion_lat": 0.0, "type": "electric_scooter", "name": "9c51e6e8b7d68f806f71f009085325de", "is_disabled": 0, "rental_uris": {"ios": "https://dc.lft.to/lastmile_qr_scan", "android": "https://dc.lft.to/lastmile_qr_scan"}, "is_reserved": 0}, {"lon": -77.016077, "bike_id": "8a9d8c3161e2734266e3b4b554faa7af", "lat": 38.903672, "fusion_lon": 0.0, "fusion_lat": 0.0, "type": "electric_scooter", "name": "8a9d8c3161e2734266e3b4b554faa7af", "is_disabled": 0, "rental_uris": {"ios": "https://dc.lft.to/lastmile_qr_scan", "android": "https://dc.lft.to/lastmile_qr_scan"}, "is_reserved": 0}, {"lon": -76.98047033333333, "bike_id": "991f82a2a07c6109b3da6032babfe40e", "lat": 38.90165233333333, "fusion_lon": 0.0, "fusion_lat": 0.0, "type": "electric_scooter", "name": "991f82a2a07c6109b3da6032babfe40e", "is_disabled": 0, "rental_uris": {"ios": "https://dc.lft.to/lastmile_qr_scan", "android": "https://dc.lft.to/lastmile_qr_scan"}, "is_reserved": 0}, {"lon": -77.00744366666666, "bike_id": "6b64c45bb777d40847a0f436a90e0e01", "lat": 38.87648, "fusion_lon": 0.0, "fusion_lat": 0.0, "type": "electric_scooter", "name": "6b64c45bb777d40847a0f436a90e0e01", "is_disabled": 0, "rental_uris": {"ios": "https://dc.lft.to/lastmile_qr_scan", "android": "https://dc.lft.to/lastmile_qr_scan"}, "is_reserved": 0}, {"lon": -77.02211666666666, "bike_id": "863cc9884d1e75f0e7ea1a5dfc904a2c", "lat": 38.90540633333333, "fusion_lon": 0.0, "fusion_lat": 0.0, "type": "electric_scooter", "name": "863cc9884d1e75f0e7ea1a5dfc904a2c", "is_disabled": 0, "rental_uris": {"ios": "https://dc.lft.to/lastmile_qr_scan", "android": "https://dc.lft.to/lastmile_qr_scan"}, "is_reserved": 0}, {"lon": -77.0618955, "bike_id": "8a103ae768e5fa12d9d30dcb194088d7", "lat": 38.910561, "fusion_lon": 0.0, "fusion_lat": 0.0, "type": "electric_scooter", "name": "8a103ae768e5fa12d9d30dcb194088d7", "is_disabled": 0, "rental_uris": {"ios": "https://dc.lft.to/lastmile_qr_scan", "android": "https://dc.lft.to/lastmile_qr_scan"}, "is_reserved": 0}, {"lon": -76.983248, "bike_id": "e3b60918331e7daf4c4140efb34e61b1", "lat": 38.901008, "fusion_lon": 0.0, "fusion_lat": 0.0, "type": "electric_scooter", "name": "e3b60918331e7daf4c4140efb34e61b1", "is_disabled": 0, "rental_uris": {"ios": "https://dc.lft.to/lastmile_qr_scan", "android": "https://dc.lft.to/lastmile_qr_scan"}, "is_reserved": 0}, {"lon": -77.00317216666667, "bike_id": "0dbfe59bd68f86b3e1069a8bdaaa6bb3", "lat": 38.918987666666666, "fusion_lon": 0.0, "fusion_lat": 0.0, "type": "electric_bike", "name": "0dbfe59bd68f86b3e1069a8bdaaa6bb3", "is_disabled": 0, "rental_uris": {"ios": "https://dc.lft.to/lastmile_qr_scan", "android": "https://dc.lft.to/lastmile_qr_scan"}, "is_reserved": 0}, {"lon": -77.00190033333334, "bike_id": "d5fe17a9c5173cf18a24f74ec8b75986", "lat": 38.91192383333333, "fusion_lon": 0.0, "fusion_lat": 0.0, "type": "electric_scooter", "name": "d5fe17a9c5173cf18a24f74ec8b75986", "is_disabled": 0, "rental_uris": {"ios": "https://dc.lft.to/lastmile_qr_scan", "android": "https://dc.lft.to/lastmile_qr_scan"}, "is_reserved": 0}, {"lon": -77.06333833333333, "bike_id": "8e8c1fd72a11f51237c4a7ceda339421", "lat": 38.944559166666664, "fusion_lon": 0.0, "fusion_lat": 0.0, "type": "electric_scooter", "name": "8e8c1fd72a11f51237c4a7ceda339421", "is_disabled": 0, "rental_uris": {"ios": "https://dc.lft.to/lastmile_qr_scan", "android": "https://dc.lft.to/lastmile_qr_scan"}, "is_reserved": 0}, {"lon": -77.00535033333334, "bike_id": "af8b61d4448ab2dee321c33a7e9ef7d6", "lat": 38.909563, "fusion_lon": 0.0, "fusion_lat": 0.0, "type": "electric_scooter", "name": "af8b61d4448ab2dee321c33a7e9ef7d6", "is_disabled": 0, "rental_uris": {"ios": "https://dc.lft.to/lastmile_qr_scan", "android": "https://dc.lft.to/lastmile_qr_scan"}, "is_reserved": 0}, {"lon": -77.0447355, "bike_id": "f446b9389634dfc5feea12a9534fab63", "lat": 38.921365, "fusion_lon": 0.0, "fusion_lat": 0.0, "type": "electric_scooter", "name": "f446b9389634dfc5feea12a9534fab63", "is_disabled": 0, "rental_uris": {"ios": "https://dc.lft.to/lastmile_qr_scan", "android": "https://dc.lft.to/lastmile_qr_scan"}, "is_reserved": 0}, {"lon": -77.0385065, "bike_id": "c3e086cbcc8292b02dae64a01c011295", "lat": 38.91749683333333, "fusion_lon": 0.0, "fusion_lat": 0.0, "type": "electric_scooter", "name": "c3e086cbcc8292b02dae64a01c011295", "is_disabled": 0, "rental_uris": {"ios": "https://dc.lft.to/lastmile_qr_scan", "android": "https://dc.lft.to/lastmile_qr_scan"}, "is_reserved": 0}, {"lon": -76.94153033333333, "bike_id": "e90aa00626a5e78683dff1ca3f586dba", "lat": 38.87907533333333, "fusion_lon": 0.0, "fusion_lat": 0.0, "type": "electric_scooter", "name": "e90aa00626a5e78683dff1ca3f586dba", "is_disabled": 0, "rental_uris": {"ios": "https://dc.lft.to/lastmile_qr_scan", "android": "https://dc.lft.to/lastmile_qr_scan"}, "is_reserved": 0}, {"lon": -77.032908, "bike_id": "e885bd4b7545f1a3f0970b98846f291c", "lat": 38.928915, "fusion_lon": 0.0, "fusion_lat": 0.0, "type": "electric_scooter", "name": "e885bd4b7545f1a3f0970b98846f291c", "is_disabled": 0, "rental_uris": {"ios": "https://dc.lft.to/lastmile_qr_scan", "android": "https://dc.lft.to/lastmile_qr_scan"}, "is_reserved": 0}, {"lon": -77.0078155, "bike_id": "7016f0b4c802086262b312a09453c8e1", "lat": 38.897343, "fusion_lon": 0.0, "fusion_lat": 0.0, "type": "electric_scooter", "name": "7016f0b4c802086262b312a09453c8e1", "is_disabled": 0, "rental_uris": {"ios": "https://dc.lft.to/lastmile_qr_scan", "android": "https://dc.lft.to/lastmile_qr_scan"}, "is_reserved": 0}, {"lon": -77.04587116666667, "bike_id": "e0abe78bc47a8c71736c06296fea235d", "lat": 38.92172383333333, "fusion_lon": 0.0, "fusion_lat": 0.0, "type": "electric_scooter", "name": "e0abe78bc47a8c71736c06296fea235d", "is_disabled": 0, "rental_uris": {"ios": "https://dc.lft.to/lastmile_qr_scan", "android": "https://dc.lft.to/lastmile_qr_scan"}, "is_reserved": 0}, {"lon": -77.0747575, "bike_id": "84a2fc46f29ca321b2c2c872eb57f030", "lat": 38.9631275, "fusion_lon": 0.0, "fusion_lat": 0.0, "type": "electric_scooter", "name": "84a2fc46f29ca321b2c2c872eb57f030", "is_disabled": 0, "rental_uris": {"ios": "https://dc.lft.to/lastmile_qr_scan", "android": "https://dc.lft.to/lastmile_qr_scan"}, "is_reserved": 0}, {"lon": -76.978101, "bike_id": "b76328b3e9d9a75d964a76554b3c6c3d", "lat": 38.906711333333334, "fusion_lon": 0.0, "fusion_lat": 0.0, "type": "electric_scooter", "name": "b76328b3e9d9a75d964a76554b3c6c3d", "is_disabled": 0, "rental_uris": {"ios": "https://dc.lft.to/lastmile_qr_scan", "android": "https://dc.lft.to/lastmile_qr_scan"}, "is_reserved": 0}, {"lon": -77.00218133333334, "bike_id": "4132629ccee0ba05df6dd50aa3e0f38a", "lat": 38.91452683333333, "fusion_lon": 0.0, "fusion_lat": 0.0, "type": "electric_scooter", "name": "4132629ccee0ba05df6dd50aa3e0f38a", "is_disabled": 0, "rental_uris": {"ios": "https://dc.lft.to/lastmile_qr_scan", "android": "https://dc.lft.to/lastmile_qr_scan"}, "is_reserved": 0}, {"lon": -77.04010533333333, "bike_id": "f7ffec360168813a9f48ff799acd9cf7", "lat": 38.91007116666667, "fusion_lon": 0.0, "fusion_lat": 0.0, "type": "electric_scooter", "name": "f7ffec360168813a9f48ff799acd9cf7", "is_disabled": 0, "rental_uris": {"ios": "https://dc.lft.to/lastmile_qr_scan", "android": "https://dc.lft.to/lastmile_qr_scan"}, "is_reserved": 0}, {"lon": -77.00114933333333, "bike_id": "b834177acb8f00b94e142d95942ca3aa", "lat": 38.91706283333333, "fusion_lon": 0.0, "fusion_lat": 0.0, "type": "electric_scooter", "name": "b834177acb8f00b94e142d95942ca3aa", "is_disabled": 0, "rental_uris": {"ios": "https://dc.lft.to/lastmile_qr_scan", "android": "https://dc.lft.to/lastmile_qr_scan"}, "is_reserved": 0}, {"lon": -76.89532283333334, "bike_id": "a926a426e5450bef16dfd31a0df8b55f", "lat": 38.94552, "fusion_lon": 0.0, "fusion_lat": 0.0, "type": "electric_bike", "name": "a926a426e5450bef16dfd31a0df8b55f", "is_disabled": 0, "rental_uris": {"ios": "https://dc.lft.to/lastmile_qr_scan", "android": "https://dc.lft.to/lastmile_qr_scan"}, "is_reserved": 0}, {"lon": -77.05593633333334, "bike_id": "7b610e0cd3e58b8a0ddb654f519ddfcb", "lat": 38.9161595, "fusion_lon": 0.0, "fusion_lat": 0.0, "type": "electric_scooter", "name": "7b610e0cd3e58b8a0ddb654f519ddfcb", "is_disabled": 0, "rental_uris": {"ios": "https://dc.lft.to/lastmile_qr_scan", "android": "https://dc.lft.to/lastmile_qr_scan"}, "is_reserved": 0}, {"lon": -77.05331916666667, "bike_id": "7a5e25ae26265e7bd1fa2443230bcb60", "lat": 38.907165, "fusion_lon": 0.0, "fusion_lat": 0.0, "type": "electric_scooter", "name": "7a5e25ae26265e7bd1fa2443230bcb60", "is_disabled": 0, "rental_uris": {"ios": "https://dc.lft.to/lastmile_qr_scan", "android": "https://dc.lft.to/lastmile_qr_scan"}, "is_reserved": 0}, {"lon": -77.04433666666667, "bike_id": "dc00f25ec98b9e22424b38c985c58834", "lat": 38.917818, "fusion_lon": 0.0, "fusion_lat": 0.0, "type": "electric_scooter", "name": "dc00f25ec98b9e22424b38c985c58834", "is_disabled": 0, "rental_uris": {"ios": "https://dc.lft.to/lastmile_qr_scan", "android": "https://dc.lft.to/lastmile_qr_scan"}, "is_reserved": 0}, {"lon": -77.03846416666667, "bike_id": "716ff0c86f1514af4c92f812ec025df7", "lat": 38.91087916666667, "fusion_lon": 0.0, "fusion_lat": 0.0, "type": "electric_scooter", "name": "716ff0c86f1514af4c92f812ec025df7", "is_disabled": 0, "rental_uris": {"ios": "https://dc.lft.to/lastmile_qr_scan", "android": "https://dc.lft.to/lastmile_qr_scan"}, "is_reserved": 0}, {"lon": -77.03837666666666, "bike_id": "d8e90fe78b586527c255fe95ed53991a", "lat": 38.907798, "fusion_lon": 0.0, "fusion_lat": 0.0, "type": "electric_scooter", "name": "d8e90fe78b586527c255fe95ed53991a", "is_disabled": 0, "rental_uris": {"ios": "https://dc.lft.to/lastmile_qr_scan", "android": "https://dc.lft.to/lastmile_qr_scan"}, "is_reserved": 0}, {"lon": -77.0272965, "bike_id": "59336823224fbff21518fcf2c3feb438", "lat": 38.94090583333333, "fusion_lon": 0.0, "fusion_lat": 0.0, "type": "electric_scooter", "name": "59336823224fbff21518fcf2c3feb438", "is_disabled": 0, "rental_uris": {"ios": "https://dc.lft.to/lastmile_qr_scan", "android": "https://dc.lft.to/lastmile_qr_scan"}, "is_reserved": 0}, {"lon": -77.02159333333333, "bike_id": "8045067dea4fab1f2441ac9d37dcb465", "lat": 38.892193166666665, "fusion_lon": 0.0, "fusion_lat": 0.0, "type": "electric_scooter", "name": "8045067dea4fab1f2441ac9d37dcb465", "is_disabled": 0, "rental_uris": {"ios": "https://dc.lft.to/lastmile_qr_scan", "android": "https://dc.lft.to/lastmile_qr_scan"}, "is_reserved": 0}, {"lon": -77.0092855, "bike_id": "70a72b9febc29ae1b44de61f57711618", "lat": 38.8961735, "fusion_lon": 0.0, "fusion_lat": 0.0, "type": "electric_scooter", "name": "70a72b9febc29ae1b44de61f57711618", "is_disabled": 0, "rental_uris": {"ios": "https://dc.lft.to/lastmile_qr_scan", "android": "https://dc.lft.to/lastmile_qr_scan"}, "is_reserved": 0}, {"lon": -77.0198415, "bike_id": "0166c5f8dee79eb1eca12028c823716a", "lat": 38.914909333333334, "fusion_lon": 0.0, "fusion_lat": 0.0, "type": "electric_scooter", "name": "0166c5f8dee79eb1eca12028c823716a", "is_disabled": 0, "rental_uris": {"ios": "https://dc.lft.to/lastmile_qr_scan", "android": "https://dc.lft.to/lastmile_qr_scan"}, "is_reserved": 0}, {"lon": -77.02462033333333, "bike_id": "885ca1218fe9257d2ef64349b0eef606", "lat": 38.931007666666666, "fusion_lon": 0.0, "fusion_lat": 0.0, "type": "electric_scooter", "name": "885ca1218fe9257d2ef64349b0eef606", "is_disabled": 0, "rental_uris": {"ios": "https://dc.lft.to/lastmile_qr_scan", "android": "https://dc.lft.to/lastmile_qr_scan"}, "is_reserved": 0}, {"lon": -77.035434, "bike_id": "3363d6edde1309d7f5abfce3229d9d01", "lat": 38.918374666666665, "fusion_lon": 0.0, "fusion_lat": 0.0, "type": "electric_scooter", "name": "3363d6edde1309d7f5abfce3229d9d01", "is_disabled": 0, "rental_uris": {"ios": "https://dc.lft.to/lastmile_qr_scan", "android": "https://dc.lft.to/lastmile_qr_scan"}, "is_reserved": 0}, {"lon": -77.02835566666667, "bike_id": "f153a1567abe1f6b1797ca0bf0df47df", "lat": 38.8876675, "fusion_lon": 0.0, "fusion_lat": 0.0, "type": "electric_scooter", "name": "f153a1567abe1f6b1797ca0bf0df47df", "is_disabled": 0, "rental_uris": {"ios": "https://dc.lft.to/lastmile_qr_scan", "android": "https://dc.lft.to/lastmile_qr_scan"}, "is_reserved": 0}, {"lon": -77.03048433333333, "bike_id": "06642f462b8c2483cb031995394a75b1", "lat": 38.884272833333334, "fusion_lon": 0.0, "fusion_lat": 0.0, "type": "electric_scooter", "name": "06642f462b8c2483cb031995394a75b1", "is_disabled": 0, "rental_uris": {"ios": "https://dc.lft.to/lastmile_qr_scan", "android": "https://dc.lft.to/lastmile_qr_scan"}, "is_reserved": 0}, {"lon": -77.00589716666667, "bike_id": "6464b4f7af5c41f065dbdf843d784d2a", "lat": 38.8761705, "fusion_lon": 0.0, "fusion_lat": 0.0, "type": "electric_scooter", "name": "6464b4f7af5c41f065dbdf843d784d2a", "is_disabled": 0, "rental_uris": {"ios": "https://dc.lft.to/lastmile_qr_scan", "android": "https://dc.lft.to/lastmile_qr_scan"}, "is_reserved": 0}, {"lon": -77.01336833333333, "bike_id": "1a06eaefec8b695ab6f665534cdd6c73", "lat": 38.87144516666667, "fusion_lon": 0.0, "fusion_lat": 0.0, "type": "electric_scooter", "name": "1a06eaefec8b695ab6f665534cdd6c73", "is_disabled": 0, "rental_uris": {"ios": "https://dc.lft.to/lastmile_qr_scan", "android": "https://dc.lft.to/lastmile_qr_scan"}, "is_reserved": 0}, {"lon": -76.99455916666666, "bike_id": "fdefd7febc9eee286338423fd8dbf918", "lat": 38.96615833333333, "fusion_lon": 0.0, "fusion_lat": 0.0, "type": "electric_bike", "name": "fdefd7febc9eee286338423fd8dbf918", "is_disabled": 0, "rental_uris": {"ios": "https://dc.lft.to/lastmile_qr_scan", "android": "https://dc.lft.to/lastmile_qr_scan"}, "is_reserved": 0}, {"lon": -77.098672, "bike_id": "6826e4e0a641aa514d82af732c1f299e", "lat": 38.9496685, "fusion_lon": 0.0, "fusion_lat": 0.0, "type": "electric_scooter", "name": "6826e4e0a641aa514d82af732c1f299e", "is_disabled": 0, "rental_uris": {"ios": "https://dc.lft.to/lastmile_qr_scan", "android": "https://dc.lft.to/lastmile_qr_scan"}, "is_reserved": 0}, {"lon": -77.04587133333334, "bike_id": "98046b279ed721668d9c520478d48c98", "lat": 38.92127283333333, "fusion_lon": 0.0, "fusion_lat": 0.0, "type": "electric_scooter", "name": "98046b279ed721668d9c520478d48c98", "is_disabled": 0, "rental_uris": {"ios": "https://dc.lft.to/lastmile_qr_scan", "android": "https://dc.lft.to/lastmile_qr_scan"}, "is_reserved": 0}, {"lon": -77.0083995, "bike_id": "55a8966314e4a25efbd5ba9651e68db4", "lat": 38.915649333333334, "fusion_lon": 0.0, "fusion_lat": 0.0, "type": "electric_scooter", "name": "55a8966314e4a25efbd5ba9651e68db4", "is_disabled": 0, "rental_uris": {"ios": "https://dc.lft.to/lastmile_qr_scan", "android": "https://dc.lft.to/lastmile_qr_scan"}, "is_reserved": 0}, {"lon": -76.99003766666667, "bike_id": "cfcb98adbca8d3b4ce7acf8540cd5f0e", "lat": 38.865053, "fusion_lon": 0.0, "fusion_lat": 0.0, "type": "electric_scooter", "name": "cfcb98adbca8d3b4ce7acf8540cd5f0e", "is_disabled": 0, "rental_uris": {"ios": "https://dc.lft.to/lastmile_qr_scan", "android": "https://dc.lft.to/lastmile_qr_scan"}, "is_reserved": 0}, {"lon": -77.04155733333333, "bike_id": "9af936a00ff69594907f84fb9367a719", "lat": 38.91548066666667, "fusion_lon": 0.0, "fusion_lat": 0.0, "type": "electric_scooter", "name": "9af936a00ff69594907f84fb9367a719", "is_disabled": 0, "rental_uris": {"ios": "https://dc.lft.to/lastmile_qr_scan", "android": "https://dc.lft.to/lastmile_qr_scan"}, "is_reserved": 0}, {"lon": -77.00378433333333, "bike_id": "933350ef0045b2219cee5e821cfe8085", "lat": 38.89728083333333, "fusion_lon": 0.0, "fusion_lat": 0.0, "type": "electric_scooter", "name": "933350ef0045b2219cee5e821cfe8085", "is_disabled": 0, "rental_uris": {"ios": "https://dc.lft.to/lastmile_qr_scan", "android": "https://dc.lft.to/lastmile_qr_scan"}, "is_reserved": 0}, {"lon": -77.055504, "bike_id": "aeeb5b1f56194a79c80a302b6376c124", "lat": 38.899885, "fusion_lon": 0.0, "fusion_lat": 0.0, "type": "electric_scooter", "name": "aeeb5b1f56194a79c80a302b6376c124", "is_disabled": 0, "rental_uris": {"ios": "https://dc.lft.to/lastmile_qr_scan", "android": "https://dc.lft.to/lastmile_qr_scan"}, "is_reserved": 0}, {"lon": -76.99543133333333, "bike_id": "fd2bafaa149ce9794da14cdfc7cc853f", "lat": 38.86261366666667, "fusion_lon": 0.0, "fusion_lat": 0.0, "type": "electric_scooter", "name": "fd2bafaa149ce9794da14cdfc7cc853f", "is_disabled": 0, "rental_uris": {"ios": "https://dc.lft.to/lastmile_qr_scan", "android": "https://dc.lft.to/lastmile_qr_scan"}, "is_reserved": 0}, {"lon": -77.006772, "bike_id": "cd9d0df9ad7d9ed079548ac81449687f", "lat": 38.876475166666665, "fusion_lon": 0.0, "fusion_lat": 0.0, "type": "electric_scooter", "name": "cd9d0df9ad7d9ed079548ac81449687f", "is_disabled": 0, "rental_uris": {"ios": "https://dc.lft.to/lastmile_qr_scan", "android": "https://dc.lft.to/lastmile_qr_scan"}, "is_reserved": 0}, {"lon": -77.0084075, "bike_id": "c4a05e021f5135bdf074d4facde2241f", "lat": 38.906681666666664, "fusion_lon": 0.0, "fusion_lat": 0.0, "type": "electric_scooter", "name": "c4a05e021f5135bdf074d4facde2241f", "is_disabled": 0, "rental_uris": {"ios": "https://dc.lft.to/lastmile_qr_scan", "android": "https://dc.lft.to/lastmile_qr_scan"}, "is_reserved": 0}, {"lon": -77.02474733333334, "bike_id": "dff7413809a616484ce686f5732c69b1", "lat": 38.9192475, "fusion_lon": 0.0, "fusion_lat": 0.0, "type": "electric_scooter", "name": "dff7413809a616484ce686f5732c69b1", "is_disabled": 0, "rental_uris": {"ios": "https://dc.lft.to/lastmile_qr_scan", "android": "https://dc.lft.to/lastmile_qr_scan"}, "is_reserved": 0}, {"lon": -77.03437316666667, "bike_id": "1c7da44fd0af44be65bed3da874829d6", "lat": 38.910346, "fusion_lon": 0.0, "fusion_lat": 0.0, "type": "electric_scooter", "name": "1c7da44fd0af44be65bed3da874829d6", "is_disabled": 0, "rental_uris": {"ios": "https://dc.lft.to/lastmile_qr_scan", "android": "https://dc.lft.to/lastmile_qr_scan"}, "is_reserved": 0}, {"lon": -77.00047833333333, "bike_id": "8d2cc12aae9aa2177ca1449c2586198e", "lat": 38.896472333333335, "fusion_lon": 0.0, "fusion_lat": 0.0, "type": "electric_scooter", "name": "8d2cc12aae9aa2177ca1449c2586198e", "is_disabled": 0, "rental_uris": {"ios": "https://dc.lft.to/lastmile_qr_scan", "android": "https://dc.lft.to/lastmile_qr_scan"}, "is_reserved": 0}, {"lon": -77.035505, "bike_id": "0b618a1b339f8f8f4bbdf0ac825a45b3", "lat": 38.916974833333335, "fusion_lon": 0.0, "fusion_lat": 0.0, "type": "electric_scooter", "name": "0b618a1b339f8f8f4bbdf0ac825a45b3", "is_disabled": 0, "rental_uris": {"ios": "https://dc.lft.to/lastmile_qr_scan", "android": "https://dc.lft.to/lastmile_qr_scan"}, "is_reserved": 0}, {"lon": -77.025571, "bike_id": "e01f168ce685751b6139975b45e13578", "lat": 38.92532883333333, "fusion_lon": 0.0, "fusion_lat": 0.0, "type": "electric_scooter", "name": "e01f168ce685751b6139975b45e13578", "is_disabled": 0, "rental_uris": {"ios": "https://dc.lft.to/lastmile_qr_scan", "android": "https://dc.lft.to/lastmile_qr_scan"}, "is_reserved": 0}, {"lon": -77.02667316666667, "bike_id": "4f0ac8e2d18f7aba33f50c2558aeb985", "lat": 38.984276666666666, "fusion_lon": 0.0, "fusion_lat": 0.0, "type": "electric_scooter", "name": "4f0ac8e2d18f7aba33f50c2558aeb985", "is_disabled": 0, "rental_uris": {"ios": "https://dc.lft.to/lastmile_qr_scan", "android": "https://dc.lft.to/lastmile_qr_scan"}, "is_reserved": 0}, {"lon": -77.023912, "bike_id": "3d92c447c397b4bb7f2d4fd037673660", "lat": 38.908417166666666, "fusion_lon": 0.0, "fusion_lat": 0.0, "type": "electric_scooter", "name": "3d92c447c397b4bb7f2d4fd037673660", "is_disabled": 0, "rental_uris": {"ios": "https://dc.lft.to/lastmile_qr_scan", "android": "https://dc.lft.to/lastmile_qr_scan"}, "is_reserved": 0}, {"lon": -77.0649095, "bike_id": "10b1044fc0ea94ab18c338e21fa8c543", "lat": 38.929068, "fusion_lon": 0.0, "fusion_lat": 0.0, "type": "electric_scooter", "name": "10b1044fc0ea94ab18c338e21fa8c543", "is_disabled": 0, "rental_uris": {"ios": "https://dc.lft.to/lastmile_qr_scan", "android": "https://dc.lft.to/lastmile_qr_scan"}, "is_reserved": 0}, {"lon": -77.04816216666667, "bike_id": "3f668484624f6b55c67e65efffda0d5f", "lat": 38.92036433333333, "fusion_lon": 0.0, "fusion_lat": 0.0, "type": "electric_scooter", "name": "3f668484624f6b55c67e65efffda0d5f", "is_disabled": 0, "rental_uris": {"ios": "https://dc.lft.to/lastmile_qr_scan", "android": "https://dc.lft.to/lastmile_qr_scan"}, "is_reserved": 0}, {"lon": -77.03774266666667, "bike_id": "573f5d0c4746265dcf0f1ff45e08d8b0", "lat": 38.9256645, "fusion_lon": 0.0, "fusion_lat": 0.0, "type": "electric_scooter", "name": "573f5d0c4746265dcf0f1ff45e08d8b0", "is_disabled": 0, "rental_uris": {"ios": "https://dc.lft.to/lastmile_qr_scan", "android": "https://dc.lft.to/lastmile_qr_scan"}, "is_reserved": 0}, {"lon": -77.00883333333333, "bike_id": "2d55ddec1cb07c3037bf22c13f076029", "lat": 38.917151, "fusion_lon": 0.0, "fusion_lat": 0.0, "type": "electric_scooter", "name": "2d55ddec1cb07c3037bf22c13f076029", "is_disabled": 0, "rental_uris": {"ios": "https://dc.lft.to/lastmile_qr_scan", "android": "https://dc.lft.to/lastmile_qr_scan"}, "is_reserved": 0}, {"lon": -77.02585433333333, "bike_id": "6a4527352c5c1a22b29a2e3ff95a0c48", "lat": 38.89231316666667, "fusion_lon": 0.0, "fusion_lat": 0.0, "type": "electric_scooter", "name": "6a4527352c5c1a22b29a2e3ff95a0c48", "is_disabled": 0, "rental_uris": {"ios": "https://dc.lft.to/lastmile_qr_scan", "android": "https://dc.lft.to/lastmile_qr_scan"}, "is_reserved": 0}, {"lon": -76.99463533333333, "bike_id": "e78d73f41fa3d28ef0a5998111d1852d", "lat": 38.86224466666667, "fusion_lon": 0.0, "fusion_lat": 0.0, "type": "electric_scooter", "name": "e78d73f41fa3d28ef0a5998111d1852d", "is_disabled": 0, "rental_uris": {"ios": "https://dc.lft.to/lastmile_qr_scan", "android": "https://dc.lft.to/lastmile_qr_scan"}, "is_reserved": 0}, {"lon": -77.00213683333334, "bike_id": "1e0d4554572d16fba71b51549ab8430c", "lat": 38.9003685, "fusion_lon": 0.0, "fusion_lat": 0.0, "type": "electric_scooter", "name": "1e0d4554572d16fba71b51549ab8430c", "is_disabled": 0, "rental_uris": {"ios": "https://dc.lft.to/lastmile_qr_scan", "android": "https://dc.lft.to/lastmile_qr_scan"}, "is_reserved": 0}, {"lon": -76.98236916666667, "bike_id": "35db2aaefa9f0d9527afca5440a5da40", "lat": 38.88132516666667, "fusion_lon": 0.0, "fusion_lat": 0.0, "type": "electric_scooter", "name": "35db2aaefa9f0d9527afca5440a5da40", "is_disabled": 0, "rental_uris": {"ios": "https://dc.lft.to/lastmile_qr_scan", "android": "https://dc.lft.to/lastmile_qr_scan"}, "is_reserved": 0}, {"lon": -77.04812433333333, "bike_id": "6eaeac53bc7aa587cbee3aa773c77ba2", "lat": 38.916343499999996, "fusion_lon": 0.0, "fusion_lat": 0.0, "type": "electric_scooter", "name": "6eaeac53bc7aa587cbee3aa773c77ba2", "is_disabled": 0, "rental_uris": {"ios": "https://dc.lft.to/lastmile_qr_scan", "android": "https://dc.lft.to/lastmile_qr_scan"}, "is_reserved": 0}, {"lon": -76.991256, "bike_id": "95a2fa342ced1524f2865f8bce514960", "lat": 38.86204866666667, "fusion_lon": 0.0, "fusion_lat": 0.0, "type": "electric_scooter", "name": "95a2fa342ced1524f2865f8bce514960", "is_disabled": 0, "rental_uris": {"ios": "https://dc.lft.to/lastmile_qr_scan", "android": "https://dc.lft.to/lastmile_qr_scan"}, "is_reserved": 0}, {"lon": -77.0340175, "bike_id": "cd0bfa75794fb5160d09298ad38e96e3", "lat": 38.93122283333334, "fusion_lon": 0.0, "fusion_lat": 0.0, "type": "electric_scooter", "name": "cd0bfa75794fb5160d09298ad38e96e3", "is_disabled": 0, "rental_uris": {"ios": "https://dc.lft.to/lastmile_qr_scan", "android": "https://dc.lft.to/lastmile_qr_scan"}, "is_reserved": 0}, {"lon": -77.03554133333333, "bike_id": "498b574fd76c61de660d4aa37c4f59e7", "lat": 38.9234085, "fusion_lon": 0.0, "fusion_lat": 0.0, "type": "electric_scooter", "name": "498b574fd76c61de660d4aa37c4f59e7", "is_disabled": 0, "rental_uris": {"ios": "https://dc.lft.to/lastmile_qr_scan", "android": "https://dc.lft.to/lastmile_qr_scan"}, "is_reserved": 0}, {"lon": -77.022313, "bike_id": "59a137de231b1ad3023e984aaf071c0d", "lat": 38.962046666666666, "fusion_lon": 0.0, "fusion_lat": 0.0, "type": "electric_scooter", "name": "59a137de231b1ad3023e984aaf071c0d", "is_disabled": 0, "rental_uris": {"ios": "https://dc.lft.to/lastmile_qr_scan", "android": "https://dc.lft.to/lastmile_qr_scan"}, "is_reserved": 0}, {"lon": -77.02492883333333, "bike_id": "0f52f7078a53fa1b12e266fe88fa0235", "lat": 38.919258166666665, "fusion_lon": 0.0, "fusion_lat": 0.0, "type": "electric_scooter", "name": "0f52f7078a53fa1b12e266fe88fa0235", "is_disabled": 0, "rental_uris": {"ios": "https://dc.lft.to/lastmile_qr_scan", "android": "https://dc.lft.to/lastmile_qr_scan"}, "is_reserved": 0}, {"lon": -76.99883866666667, "bike_id": "68c2ce3d6325f829d18fb5c8cce80fc9", "lat": 38.909497, "fusion_lon": 0.0, "fusion_lat": 0.0, "type": "electric_scooter", "name": "68c2ce3d6325f829d18fb5c8cce80fc9", "is_disabled": 0, "rental_uris": {"ios": "https://dc.lft.to/lastmile_qr_scan", "android": "https://dc.lft.to/lastmile_qr_scan"}, "is_reserved": 0}, {"lon": -77.02100716666666, "bike_id": "e4b365e6f2789c08becde1fb425ecd15", "lat": 38.92170383333333, "fusion_lon": 0.0, "fusion_lat": 0.0, "type": "electric_scooter", "name": "e4b365e6f2789c08becde1fb425ecd15", "is_disabled": 0, "rental_uris": {"ios": "https://dc.lft.to/lastmile_qr_scan", "android": "https://dc.lft.to/lastmile_qr_scan"}, "is_reserved": 0}, {"lon": -76.92992066666666, "bike_id": "44f4b5f34628a450bb25a0212e5a1314", "lat": 38.893274, "fusion_lon": 0.0, "fusion_lat": 0.0, "type": "electric_scooter", "name": "44f4b5f34628a450bb25a0212e5a1314", "is_disabled": 0, "rental_uris": {"ios": "https://dc.lft.to/lastmile_qr_scan", "android": "https://dc.lft.to/lastmile_qr_scan"}, "is_reserved": 0}, {"lon": -76.982249, "bike_id": "0f94fbe337e59c887f81e4f2b065a2f6", "lat": 38.9164, "fusion_lon": 0.0, "fusion_lat": 0.0, "type": "electric_scooter", "name": "0f94fbe337e59c887f81e4f2b065a2f6", "is_disabled": 0, "rental_uris": {"ios": "https://dc.lft.to/lastmile_qr_scan", "android": "https://dc.lft.to/lastmile_qr_scan"}, "is_reserved": 0}, {"lon": -77.03591916666667, "bike_id": "6cc99e505cc616b21ceeb3e9e3d6718d", "lat": 38.906952, "fusion_lon": 0.0, "fusion_lat": 0.0, "type": "electric_scooter", "name": "6cc99e505cc616b21ceeb3e9e3d6718d", "is_disabled": 0, "rental_uris": {"ios": "https://dc.lft.to/lastmile_qr_scan", "android": "https://dc.lft.to/lastmile_qr_scan"}, "is_reserved": 0}, {"lon": -77.010192, "bike_id": "c042dc9978879f86accf54d26f077c81", "lat": 38.91705983333333, "fusion_lon": 0.0, "fusion_lat": 0.0, "type": "electric_scooter", "name": "c042dc9978879f86accf54d26f077c81", "is_disabled": 0, "rental_uris": {"ios": "https://dc.lft.to/lastmile_qr_scan", "android": "https://dc.lft.to/lastmile_qr_scan"}, "is_reserved": 0}, {"lon": -77.03123916666667, "bike_id": "96e6d189bd1bcae4a33462d47fb4eeec", "lat": 38.914951, "fusion_lon": 0.0, "fusion_lat": 0.0, "type": "electric_scooter", "name": "96e6d189bd1bcae4a33462d47fb4eeec", "is_disabled": 0, "rental_uris": {"ios": "https://dc.lft.to/lastmile_qr_scan", "android": "https://dc.lft.to/lastmile_qr_scan"}, "is_reserved": 0}, {"lon": -76.94957016666666, "bike_id": "56b8ee9f443f7329ca9f8ba20165f94b", "lat": 38.904939, "fusion_lon": 0.0, "fusion_lat": 0.0, "type": "electric_scooter", "name": "56b8ee9f443f7329ca9f8ba20165f94b", "is_disabled": 0, "rental_uris": {"ios": "https://dc.lft.to/lastmile_qr_scan", "android": "https://dc.lft.to/lastmile_qr_scan"}, "is_reserved": 0}, {"lon": -77.00736883333333, "bike_id": "7bc5ffa26780d4b0c5805e36b4de40ca", "lat": 38.9254, "fusion_lon": 0.0, "fusion_lat": 0.0, "type": "electric_scooter", "name": "7bc5ffa26780d4b0c5805e36b4de40ca", "is_disabled": 0, "rental_uris": {"ios": "https://dc.lft.to/lastmile_qr_scan", "android": "https://dc.lft.to/lastmile_qr_scan"}, "is_reserved": 0}, {"lon": -76.957518, "bike_id": "e3f221440b131d3bfab10ee6d0079359", "lat": 38.88428733333333, "fusion_lon": 0.0, "fusion_lat": 0.0, "type": "electric_scooter", "name": "e3f221440b131d3bfab10ee6d0079359", "is_disabled": 0, "rental_uris": {"ios": "https://dc.lft.to/lastmile_qr_scan", "android": "https://dc.lft.to/lastmile_qr_scan"}, "is_reserved": 0}, {"lon": -77.00135483333334, "bike_id": "d7c77057642cf6184e6a08e5b61ca59f", "lat": 38.90762683333333, "fusion_lon": 0.0, "fusion_lat": 0.0, "type": "electric_scooter", "name": "d7c77057642cf6184e6a08e5b61ca59f", "is_disabled": 0, "rental_uris": {"ios": "https://dc.lft.to/lastmile_qr_scan", "android": "https://dc.lft.to/lastmile_qr_scan"}, "is_reserved": 0}, {"lon": -77.0334305, "bike_id": "9fe9c8eb4bc338aff01d8225b5645947", "lat": 38.898322, "fusion_lon": 0.0, "fusion_lat": 0.0, "type": "electric_scooter", "name": "9fe9c8eb4bc338aff01d8225b5645947", "is_disabled": 0, "rental_uris": {"ios": "https://dc.lft.to/lastmile_qr_scan", "android": "https://dc.lft.to/lastmile_qr_scan"}, "is_reserved": 0}, {"lon": -77.03659116666667, "bike_id": "0505ca503377252bf0a4499c6b823daa", "lat": 38.92211866666667, "fusion_lon": 0.0, "fusion_lat": 0.0, "type": "electric_scooter", "name": "0505ca503377252bf0a4499c6b823daa", "is_disabled": 0, "rental_uris": {"ios": "https://dc.lft.to/lastmile_qr_scan", "android": "https://dc.lft.to/lastmile_qr_scan"}, "is_reserved": 0}, {"lon": -77.03059033333334, "bike_id": "3c26261dfef242e09fe6ff3910971a23", "lat": 38.930958833333335, "fusion_lon": 0.0, "fusion_lat": 0.0, "type": "electric_scooter", "name": "3c26261dfef242e09fe6ff3910971a23", "is_disabled": 0, "rental_uris": {"ios": "https://dc.lft.to/lastmile_qr_scan", "android": "https://dc.lft.to/lastmile_qr_scan"}, "is_reserved": 0}, {"lon": -77.0221305, "bike_id": "8943a82990c068b5060da5bd889595df", "lat": 38.92095066666667, "fusion_lon": 0.0, "fusion_lat": 0.0, "type": "electric_scooter", "name": "8943a82990c068b5060da5bd889595df", "is_disabled": 0, "rental_uris": {"ios": "https://dc.lft.to/lastmile_qr_scan", "android": "https://dc.lft.to/lastmile_qr_scan"}, "is_reserved": 0}, {"lon": -77.0296195, "bike_id": "c5fab566c3ce1719641716c9bf326618", "lat": 38.92389283333333, "fusion_lon": 0.0, "fusion_lat": 0.0, "type": "electric_scooter", "name": "c5fab566c3ce1719641716c9bf326618", "is_disabled": 0, "rental_uris": {"ios": "https://dc.lft.to/lastmile_qr_scan", "android": "https://dc.lft.to/lastmile_qr_scan"}, "is_reserved": 0}, {"lon": -77.032071, "bike_id": "703333efa81dbd598842e02ffd80ec96", "lat": 38.934900166666665, "fusion_lon": 0.0, "fusion_lat": 0.0, "type": "electric_bike", "name": "703333efa81dbd598842e02ffd80ec96", "is_disabled": 0, "rental_uris": {"ios": "https://dc.lft.to/lastmile_qr_scan", "android": "https://dc.lft.to/lastmile_qr_scan"}, "is_reserved": 0}, {"lon": -77.089589, "bike_id": "e98095d26b8b366b77993ca3678b7a11", "lat": 38.8429445, "fusion_lon": 0.0, "fusion_lat": 0.0, "type": "electric_bike", "name": "e98095d26b8b366b77993ca3678b7a11", "is_disabled": 0, "rental_uris": {"ios": "https://dc.lft.to/lastmile_qr_scan", "android": "https://dc.lft.to/lastmile_qr_scan"}, "is_reserved": 0}, {"lon": -76.97206583333333, "bike_id": "8c2e272ce2c00df212cb73575171dbca", "lat": 38.89291466666667, "fusion_lon": 0.0, "fusion_lat": 0.0, "type": "electric_bike", "name": "8c2e272ce2c00df212cb73575171dbca", "is_disabled": 0, "rental_uris": {"ios": "https://dc.lft.to/lastmile_qr_scan", "android": "https://dc.lft.to/lastmile_qr_scan"}, "is_reserved": 0}, {"lon": -77.05314683333333, "bike_id": "c14dc54a80cd3563b2ea0af843c154a5", "lat": 38.9007855, "fusion_lon": 0.0, "fusion_lat": 0.0, "type": "electric_scooter", "name": "c14dc54a80cd3563b2ea0af843c154a5", "is_disabled": 0, "rental_uris": {"ios": "https://dc.lft.to/lastmile_qr_scan", "android": "https://dc.lft.to/lastmile_qr_scan"}, "is_reserved": 0}, {"lon": -77.02806616666666, "bike_id": "22a6e77f1728a8cd7d1d84d2c829921a", "lat": 38.90662566666666, "fusion_lon": 0.0, "fusion_lat": 0.0, "type": "electric_scooter", "name": "22a6e77f1728a8cd7d1d84d2c829921a", "is_disabled": 0, "rental_uris": {"ios": "https://dc.lft.to/lastmile_qr_scan", "android": "https://dc.lft.to/lastmile_qr_scan"}, "is_reserved": 0}, {"lon": -77.05568916666667, "bike_id": "97c6edbd0676c6c395874c62f9ee4fb4", "lat": 38.8973045, "fusion_lon": 0.0, "fusion_lat": 0.0, "type": "electric_scooter", "name": "97c6edbd0676c6c395874c62f9ee4fb4", "is_disabled": 0, "rental_uris": {"ios": "https://dc.lft.to/lastmile_qr_scan", "android": "https://dc.lft.to/lastmile_qr_scan"}, "is_reserved": 0}, {"lon": -76.94655, "bike_id": "fcf40023032582c1429ddd52e0992d1f", "lat": 38.8982405, "fusion_lon": 0.0, "fusion_lat": 0.0, "type": "electric_scooter", "name": "fcf40023032582c1429ddd52e0992d1f", "is_disabled": 0, "rental_uris": {"ios": "https://dc.lft.to/lastmile_qr_scan", "android": "https://dc.lft.to/lastmile_qr_scan"}, "is_reserved": 0}, {"lon": -76.99554583333334, "bike_id": "f99fdd1e4b8f847b687136f7c21709e6", "lat": 38.86191933333333, "fusion_lon": 0.0, "fusion_lat": 0.0, "type": "electric_scooter", "name": "f99fdd1e4b8f847b687136f7c21709e6", "is_disabled": 0, "rental_uris": {"ios": "https://dc.lft.to/lastmile_qr_scan", "android": "https://dc.lft.to/lastmile_qr_scan"}, "is_reserved": 0}, {"lon": -76.98235666666666, "bike_id": "b07e9e05fca8bf315ba713b13785a584", "lat": 38.86471083333333, "fusion_lon": 0.0, "fusion_lat": 0.0, "type": "electric_scooter", "name": "b07e9e05fca8bf315ba713b13785a584", "is_disabled": 0, "rental_uris": {"ios": "https://dc.lft.to/lastmile_qr_scan", "android": "https://dc.lft.to/lastmile_qr_scan"}, "is_reserved": 0}, {"lon": -77.017712, "bike_id": "ec57c7cc1e9316f40d79ef02a0a17521", "lat": 38.90045333333333, "fusion_lon": 0.0, "fusion_lat": 0.0, "type": "electric_scooter", "name": "ec57c7cc1e9316f40d79ef02a0a17521", "is_disabled": 0, "rental_uris": {"ios": "https://dc.lft.to/lastmile_qr_scan", "android": "https://dc.lft.to/lastmile_qr_scan"}, "is_reserved": 0}, {"lon": -76.99030333333333, "bike_id": "2a6401113f673a595dc15c6637cb25a9", "lat": 38.89603866666667, "fusion_lon": 0.0, "fusion_lat": 0.0, "type": "electric_scooter", "name": "2a6401113f673a595dc15c6637cb25a9", "is_disabled": 0, "rental_uris": {"ios": "https://dc.lft.to/lastmile_qr_scan", "android": "https://dc.lft.to/lastmile_qr_scan"}, "is_reserved": 0}, {"lon": -77.13926116666667, "bike_id": "554267d65d3dd353d3530f79ed9000c5", "lat": 38.8729885, "fusion_lon": 0.0, "fusion_lat": 0.0, "type": "electric_bike", "name": "554267d65d3dd353d3530f79ed9000c5", "is_disabled": 0, "rental_uris": {"ios": "https://dc.lft.to/lastmile_qr_scan", "android": "https://dc.lft.to/lastmile_qr_scan"}, "is_reserved": 0}, {"lon": -77.04898, "bike_id": "e4d1734eb32d742c79fc2d1a168d79b8", "lat": 38.91604433333333, "fusion_lon": 0.0, "fusion_lat": 0.0, "type": "electric_scooter", "name": "e4d1734eb32d742c79fc2d1a168d79b8", "is_disabled": 0, "rental_uris": {"ios": "https://dc.lft.to/lastmile_qr_scan", "android": "https://dc.lft.to/lastmile_qr_scan"}, "is_reserved": 0}, {"lon": -77.02579833333333, "bike_id": "dedf6eca346f5cdc9d05ed9571eeb8c5", "lat": 38.9140295, "fusion_lon": 0.0, "fusion_lat": 0.0, "type": "electric_scooter", "name": "dedf6eca346f5cdc9d05ed9571eeb8c5", "is_disabled": 0, "rental_uris": {"ios": "https://dc.lft.to/lastmile_qr_scan", "android": "https://dc.lft.to/lastmile_qr_scan"}, "is_reserved": 0}, {"lon": -77.03427633333334, "bike_id": "1c238d2dc02094039a58b68167e53e90", "lat": 38.9652975, "fusion_lon": 0.0, "fusion_lat": 0.0, "type": "electric_bike", "name": "1c238d2dc02094039a58b68167e53e90", "is_disabled": 0, "rental_uris": {"ios": "https://dc.lft.to/lastmile_qr_scan", "android": "https://dc.lft.to/lastmile_qr_scan"}, "is_reserved": 0}, {"lon": -76.93754616666666, "bike_id": "b161741042cebc2d946fe8160b4e13fb", "lat": 38.890487666666665, "fusion_lon": 0.0, "fusion_lat": 0.0, "type": "electric_scooter", "name": "b161741042cebc2d946fe8160b4e13fb", "is_disabled": 0, "rental_uris": {"ios": "https://dc.lft.to/lastmile_qr_scan", "android": "https://dc.lft.to/lastmile_qr_scan"}, "is_reserved": 0}, {"lon": -77.0097465, "bike_id": "70b052f0019a773c8a6d149a04ca5c48", "lat": 38.91414133333333, "fusion_lon": 0.0, "fusion_lat": 0.0, "type": "electric_scooter", "name": "70b052f0019a773c8a6d149a04ca5c48", "is_disabled": 0, "rental_uris": {"ios": "https://dc.lft.to/lastmile_qr_scan", "android": "https://dc.lft.to/lastmile_qr_scan"}, "is_reserved": 0}, {"lon": -77.04318166666667, "bike_id": "21f16e2cfa9a8b060cb06b17e32c04af", "lat": 38.922035666666666, "fusion_lon": 0.0, "fusion_lat": 0.0, "type": "electric_scooter", "name": "21f16e2cfa9a8b060cb06b17e32c04af", "is_disabled": 0, "rental_uris": {"ios": "https://dc.lft.to/lastmile_qr_scan", "android": "https://dc.lft.to/lastmile_qr_scan"}, "is_reserved": 0}, {"lon": -77.03133633333333, "bike_id": "9a2a5fa0789f78c65ac78ea0b57bb0a6", "lat": 38.924717666666666, "fusion_lon": 0.0, "fusion_lat": 0.0, "type": "electric_scooter", "name": "9a2a5fa0789f78c65ac78ea0b57bb0a6", "is_disabled": 0, "rental_uris": {"ios": "https://dc.lft.to/lastmile_qr_scan", "android": "https://dc.lft.to/lastmile_qr_scan"}, "is_reserved": 0}, {"lon": -77.04872633333333, "bike_id": "1ac25ac65fbd8d410a3d1baaed8c7acb", "lat": 38.909743166666665, "fusion_lon": 0.0, "fusion_lat": 0.0, "type": "electric_scooter", "name": "1ac25ac65fbd8d410a3d1baaed8c7acb", "is_disabled": 0, "rental_uris": {"ios": "https://dc.lft.to/lastmile_qr_scan", "android": "https://dc.lft.to/lastmile_qr_scan"}, "is_reserved": 0}, {"lon": -77.03589133333334, "bike_id": "0ba057e433553d2f626d23ded0d9bcb4", "lat": 38.926757, "fusion_lon": 0.0, "fusion_lat": 0.0, "type": "electric_scooter", "name": "0ba057e433553d2f626d23ded0d9bcb4", "is_disabled": 0, "rental_uris": {"ios": "https://dc.lft.to/lastmile_qr_scan", "android": "https://dc.lft.to/lastmile_qr_scan"}, "is_reserved": 0}, {"lon": -77.1160055, "bike_id": "5ecf735f0ffc16ad832163d6400744fa", "lat": 38.85482966666667, "fusion_lon": 0.0, "fusion_lat": 0.0, "type": "electric_bike", "name": "5ecf735f0ffc16ad832163d6400744fa", "is_disabled": 0, "rental_uris": {"ios": "https://dc.lft.to/lastmile_qr_scan", "android": "https://dc.lft.to/lastmile_qr_scan"}, "is_reserved": 0}, {"lon": -77.02717483333333, "bike_id": "efd86c0e05dcb3b9fe5720233151ff49", "lat": 38.906718166666664, "fusion_lon": 0.0, "fusion_lat": 0.0, "type": "electric_scooter", "name": "efd86c0e05dcb3b9fe5720233151ff49", "is_disabled": 0, "rental_uris": {"ios": "https://dc.lft.to/lastmile_qr_scan", "android": "https://dc.lft.to/lastmile_qr_scan"}, "is_reserved": 0}, {"lon": -77.038959, "bike_id": "1a729e88c4ef408bd452a3f58bfbb65d", "lat": 38.922325666666666, "fusion_lon": 0.0, "fusion_lat": 0.0, "type": "electric_scooter", "name": "1a729e88c4ef408bd452a3f58bfbb65d", "is_disabled": 0, "rental_uris": {"ios": "https://dc.lft.to/lastmile_qr_scan", "android": "https://dc.lft.to/lastmile_qr_scan"}, "is_reserved": 0}, {"lon": -77.0253495, "bike_id": "9972b27ed08269bc937dc65e7afd8759", "lat": 38.930861166666666, "fusion_lon": 0.0, "fusion_lat": 0.0, "type": "electric_scooter", "name": "9972b27ed08269bc937dc65e7afd8759", "is_disabled": 0, "rental_uris": {"ios": "https://dc.lft.to/lastmile_qr_scan", "android": "https://dc.lft.to/lastmile_qr_scan"}, "is_reserved": 0}, {"lon": -77.00048, "bike_id": "7bd5520816bd0236af587642bcfe6396", "lat": 38.9084495, "fusion_lon": 0.0, "fusion_lat": 0.0, "type": "electric_scooter", "name": "7bd5520816bd0236af587642bcfe6396", "is_disabled": 0, "rental_uris": {"ios": "https://dc.lft.to/lastmile_qr_scan", "android": "https://dc.lft.to/lastmile_qr_scan"}, "is_reserved": 0}, {"lon": -77.02390533333333, "bike_id": "ace86d9a607ea04b8a9af6e90fab918d", "lat": 38.920807333333336, "fusion_lon": 0.0, "fusion_lat": 0.0, "type": "electric_scooter", "name": "ace86d9a607ea04b8a9af6e90fab918d", "is_disabled": 0, "rental_uris": {"ios": "https://dc.lft.to/lastmile_qr_scan", "android": "https://dc.lft.to/lastmile_qr_scan"}, "is_reserved": 0}, {"lon": -77.04175216666667, "bike_id": "2924cb2a8ddc4a95e4cfaf39751a350f", "lat": 38.9165185, "fusion_lon": 0.0, "fusion_lat": 0.0, "type": "electric_scooter", "name": "2924cb2a8ddc4a95e4cfaf39751a350f", "is_disabled": 0, "rental_uris": {"ios": "https://dc.lft.to/lastmile_qr_scan", "android": "https://dc.lft.to/lastmile_qr_scan"}, "is_reserved": 0}, {"lon": -77.361068, "bike_id": "8540b1c0c993be03dcf9e445e91412be", "lat": 38.93955116666667, "fusion_lon": 0.0, "fusion_lat": 0.0, "type": "electric_bike", "name": "8540b1c0c993be03dcf9e445e91412be", "is_disabled": 0, "rental_uris": {"ios": "https://dc.lft.to/lastmile_qr_scan", "android": "https://dc.lft.to/lastmile_qr_scan"}, "is_reserved": 0}, {"lon": -76.97699116666666, "bike_id": "3acd673ad334bb7012d0b04af3821ab8", "lat": 38.949180166666665, "fusion_lon": 0.0, "fusion_lat": 0.0, "type": "electric_bike", "name": "3acd673ad334bb7012d0b04af3821ab8", "is_disabled": 0, "rental_uris": {"ios": "https://dc.lft.to/lastmile_qr_scan", "android": "https://dc.lft.to/lastmile_qr_scan"}, "is_reserved": 0},