{"data": {"bikes": [{"name": "3303f22f5d7fe1813db27ecfa55c28d3", "is_reserved": 0, "is_disabled": 0, "lon": -77.04989966666666, "rental_uris": {"android": "https://dc.lft.to/lastmile_qr_scan", "ios": "https://dc.lft.to/lastmile_qr_scan"}, "fusion_lon": 0.0, "lat": 38.892237, "type": "electric_scooter", "fusion_lat": 0.0, "bike_id": "3303f22f5d7fe1813db27ecfa55c28d3"}, {"name": "def047eedad854fcfcfca9f5fb7c52d6", "is_reserved": 0, "is_disabled": 0, "lon": -77.0303055, "rental_uris": {"android": "https://dc.lft.to/lastmile_qr_scan", "ios": "https://dc.lft.to/lastmile_qr_scan"}, "fusion_lon": 0.0, "lat": 38.92255866666667, "type": "electric_scooter", "fusion_lat": 0.0, "bike_id": "def047eedad854fcfcfca9f5fb7c52d6"}, {"name": "959a2bfdda799910f240b17384639cd2", "is_reserved": 0, "is_disabled": 0, "lon": -77.02482483333333, "rental_uris": {"android": "https://dc.lft.to/lastmile_qr_scan", "ios": "https://dc.lft.to/lastmile_qr_scan"}, "fusion_lon": 0.0, "lat": 38.93882033333333, "type": "electric_scooter", "fusion_lat": 0.0, "bike_id": "959a2bfdda799910f240b17384639cd2"}, {"name": "f4dd29dd43b92de11072207661f24899", "is_reserved": 0, "is_disabled": 0, "lon": -77.02715733333334, "rental_uris": {"android": "https://dc.lft.to/lastmile_qr_scan", "ios": "https://dc.lft.to/lastmile_qr_scan"}, "fusion_lon": 0.0, "lat": 38.907489166666664, "type": "electric_scooter", "fusion_lat": 0.0, "bike_id": "f4dd29dd43b92de11072207661f24899"}, {"name": "25868ea791ce29d2fe67dc9e2fde9dc5", "is_reserved": 0, "is_disabled": 0, "lon": -76.90814683333333, "rental_uris": {"android": "https://dc.lft.to/lastmile_qr_scan", "ios": "https://dc.lft.to/lastmile_qr_scan"}, "fusion_lon": 0.0, "lat": 38.9945525, "type": "electric_bike", "fusion_lat": 0.0, "bike_id": "25868ea791ce29d2fe67dc9e2fde9dc5"}, {"name": "15615e733653de261587cfd8cbbad36f", "is_reserved": 0, "is_disabled": 0, "lon": -77.0624115, "rental_uris": {"android": "https://dc.lft.to/lastmile_qr_scan", "ios": "https://dc.lft.to/lastmile_qr_scan"}, "fusion_lon": 0.0, "lat": 38.905333666666664, "type": "electric_scooter", "fusion_lat": 0.0, "bike_id": "15615e733653de261587cfd8cbbad36f"}, {"name": "970ac1b979b4fed13794500c71bf72bd", "is_reserved": 0, "is_disabled": 0, "lon": -77.03625533333333, "rental_uris": {"android": "https://dc.lft.to/lastmile_qr_scan", "ios": "https://dc.lft.to/lastmile_qr_scan"}, "fusion_lon": 0.0, "lat": 38.9528665, "type": "electric_scooter", "fusion_lat": 0.0, "bike_id": "970ac1b979b4fed13794500c71bf72bd"}, {"name": "99ad3b33d46081575e496591fd014bfd", "is_reserved": 0, "is_disabled": 0, "lon": -76.9554065, "rental_uris": {"android": "https://dc.lft.to/lastmile_qr_scan", "ios": "https://dc.lft.to/lastmile_qr_scan"}, "fusion_lon": 0.0, "lat": 38.8876475, "type": "electric_scooter", "fusion_lat": 0.0, "bike_id": "99ad3b33d46081575e496591fd014bfd"}, {"name": "cac8b1baef12d23bf5b6128d400d1e2d", "is_reserved": 0, "is_disabled": 0, "lon": -77.1017405, "rental_uris": {"android": "https://dc.lft.to/lastmile_qr_scan", "ios": "https://dc.lft.to/lastmile_qr_scan"}, "fusion_lon": 0.0, "lat": 38.92546866666667, "type": "electric_scooter", "fusion_lat": 0.0, "bike_id": "cac8b1baef12d23bf5b6128d400d1e2d"}, {"name": "4f6ad210d1703aa036a4fcb230f43c31", "is_reserved": 0, "is_disabled": 0, "lon": -76.97893716666667, "rental_uris": {"android": "https://dc.lft.to/lastmile_qr_scan", "ios": "https://dc.lft.to/lastmile_qr_scan"}, "fusion_lon": 0.0, "lat": 38.854861166666666, "type": "electric_bike", "fusion_lat": 0.0, "bike_id": "4f6ad210d1703aa036a4fcb230f43c31"}, {"name": "e4c110ee8872575e3968e5e5e543101a", "is_reserved": 0, "is_disabled": 0, "lon": -76.99460516666667, "rental_uris": {"android": "https://dc.lft.to/lastmile_qr_scan", "ios": "https://dc.lft.to/lastmile_qr_scan"}, "fusion_lon": 0.0, "lat": 38.86221533333333, "type": "electric_scooter", "fusion_lat": 0.0, "bike_id": "e4c110ee8872575e3968e5e5e543101a"}, {"name": "9d2931361865d437080ec802fe02c87b", "is_reserved": 0, "is_disabled": 0, "lon": -76.98709583333333, "rental_uris": {"android": "https://dc.lft.to/lastmile_qr_scan", "ios": "https://dc.lft.to/lastmile_qr_scan"}, "fusion_lon": 0.0, "lat": 38.8991575, "type": "electric_scooter", "fusion_lat": 0.0, "bike_id": "9d2931361865d437080ec802fe02c87b"}, {"name": "264d5745aeab73e3130ec9d8a05479b0", "is_reserved": 0, "is_disabled": 0, "lon": -77.03304533333333, "rental_uris": {"android": "https://dc.lft.to/lastmile_qr_scan", "ios": "https://dc.lft.to/lastmile_qr_scan"}, "fusion_lon": 0.0, "lat": 38.956460666666665, "type": "electric_scooter", "fusion_lat": 0.0, "bike_id": "264d5745aeab73e3130ec9d8a05479b0"}, {"name": "3d3d38c2b7b857db59e520df03c45d7e", "is_reserved": 0, "is_disabled": 0, "lon": -76.9857055, "rental_uris": {"android": "https://dc.lft.to/lastmile_qr_scan", "ios": "https://dc.lft.to/lastmile_qr_scan"}, "fusion_lon": 0.0, "lat": 38.9092905, "type": "electric_scooter", "fusion_lat": 0.0, "bike_id": "3d3d38c2b7b857db59e520df03c45d7e"}, {"name": "9b7358eb65f7a52233584a7fb035e1ae", "is_reserved": 0, "is_disabled": 0, "lon": -76.99483783333334, "rental_uris": {"android": "https://dc.lft.to/lastmile_qr_scan", "ios": "https://dc.lft.to/lastmile_qr_scan"}, "fusion_lon": 0.0, "lat": 38.899873666666664, "type": "electric_scooter", "fusion_lat": 0.0, "bike_id": "9b7358eb65f7a52233584a7fb035e1ae"}, {"name": "d4bb6429c68f3bc620b0c2a9c16bbc55", "is_reserved": 0, "is_disabled": 0, "lon": -77.02371083333334, "rental_uris": {"android": "https://dc.lft.to/lastmile_qr_scan", "ios": "https://dc.lft.to/lastmile_qr_scan"}, "fusion_lon": 0.0, "lat": 38.902236333333335, "type": "electric_scooter", "fusion_lat": 0.0, "bike_id": "d4bb6429c68f3bc620b0c2a9c16bbc55"}, {"name": "111ff8a5641a21959de0102b71f5abbd", "is_reserved": 0, "is_disabled": 0, "lon": -76.91925966666666, "rental_uris": {"android": "https://dc.lft.to/lastmile_qr_scan", "ios": "https://dc.lft.to/lastmile_qr_scan"}, "fusion_lon": 0.0, "lat": 38.8908525, "type": "electric_scooter", "fusion_lat": 0.0, "bike_id": "111ff8a5641a21959de0102b71f5abbd"}, {"name": "ce420a142fac9857a2dae270f11d66bc", "is_reserved": 0, "is_disabled": 0, "lon": -77.03827366666667, "rental_uris": {"android": "https://dc.lft.to/lastmile_qr_scan", "ios": "https://dc.lft.to/lastmile_qr_scan"}, "fusion_lon": 0.0, "lat": 38.92068416666667, "type": "electric_scooter", "fusion_lat": 0.0, "bike_id": "ce420a142fac9857a2dae270f11d66bc"}, {"name": "57a65a78926621522bcf4baa2dc0d7de", "is_reserved": 0, "is_disabled": 0, "lon": -77.00883833333333, "rental_uris": {"android": "https://dc.lft.to/lastmile_qr_scan", "ios": "https://dc.lft.to/lastmile_qr_scan"}, "fusion_lon": 0.0, "lat": 38.87335383333333, "type": "electric_scooter", "fusion_lat": 0.0, "bike_id": "57a65a78926621522bcf4baa2dc0d7de"}, {"name": "987638b4f7d2b35643bf308e0a3fd3b8", "is_reserved": 0, "is_disabled": 0, "lon": -77.04509316666666, "rental_uris": {"android": "https://dc.lft.to/lastmile_qr_scan", "ios": "https://dc.lft.to/lastmile_qr_scan"}, "fusion_lon": 0.0, "lat": 38.892222, "type": "electric_scooter", "fusion_lat": 0.0, "bike_id": "987638b4f7d2b35643bf308e0a3fd3b8"}, {"name": "d9da16a78d1c6809b117924b0a1abaf2", "is_reserved": 0, "is_disabled": 0, "lon": -77.03457366666666, "rental_uris": {"android": "https://dc.lft.to/lastmile_qr_scan", "ios": "https://dc.lft.to/lastmile_qr_scan"}, "fusion_lon": 0.0, "lat": 38.9042695, "type": "electric_scooter", "fusion_lat": 0.0, "bike_id": "d9da16a78d1c6809b117924b0a1abaf2"}, {"name": "ce8eddc9f8bfc2a3d08d9a7d468c8336", "is_reserved": 0, "is_disabled": 0, "lon": -77.012267, "rental_uris": {"android": "https://dc.lft.to/lastmile_qr_scan", "ios": "https://dc.lft.to/lastmile_qr_scan"}, "fusion_lon": 0.0, "lat": 38.893434166666665, "type": "electric_scooter", "fusion_lat": 0.0, "bike_id": "ce8eddc9f8bfc2a3d08d9a7d468c8336"}, {"name": "0e7b916d98b30d79ee8c34de1c28eb03", "is_reserved": 0, "is_disabled": 0, "lon": -77.05990916666667, "rental_uris": {"android": "https://dc.lft.to/lastmile_qr_scan", "ios": "https://dc.lft.to/lastmile_qr_scan"}, "fusion_lon": 0.0, "lat": 38.911890166666666, "type": "electric_scooter", "fusion_lat": 0.0, "bike_id": "0e7b916d98b30d79ee8c34de1c28eb03"}, {"name": "d5017fd46d35b07bb00b25221ba0755e", "is_reserved": 0, "is_disabled": 0, "lon": -77.00434266666667, "rental_uris": {"android": "https://dc.lft.to/lastmile_qr_scan", "ios": "https://dc.lft.to/lastmile_qr_scan"}, "fusion_lon": 0.0, "lat": 38.911942, "type": "electric_scooter", "fusion_lat": 0.0, "bike_id": "d5017fd46d35b07bb00b25221ba0755e"}, {"name": "1e8754fd466bb8ff8df5481a3737cdbf", "is_reserved": 0, "is_disabled": 0, "lon": -77.0242265, "rental_uris": {"android": "https://dc.lft.to/lastmile_qr_scan", "ios": "https://dc.lft.to/lastmile_qr_scan"}, "fusion_lon": 0.0, "lat": 38.9030865, "type": "electric_scooter", "fusion_lat": 0.0, "bike_id": "1e8754fd466bb8ff8df5481a3737cdbf"}, {"name": "002110113ee894331b6d57edeb67d97d", "is_reserved": 0, "is_disabled": 0, "lon": -77.02416416666667, "rental_uris": {"android": "https://dc.lft.to/lastmile_qr_scan", "ios": "https://dc.lft.to/lastmile_qr_scan"}, "fusion_lon": 0.0, "lat": 38.8989205, "type": "electric_scooter", "fusion_lat": 0.0, "bike_id": "002110113ee894331b6d57edeb67d97d"}, {"name": "86ed36e4929bbc2ffde370b4b3c96218", "is_reserved": 0, "is_disabled": 0, "lon": -77.03638133333334, "rental_uris": {"android": "https://dc.lft.to/lastmile_qr_scan", "ios": "https://dc.lft.to/lastmile_qr_scan"}, "fusion_lon": 0.0, "lat": 38.931712166666664, "type": "electric_scooter", "fusion_lat": 0.0, "bike_id": "86ed36e4929bbc2ffde370b4b3c96218"}, {"name": "df1ee0a9480f62cd027a0662cda0539a", "is_reserved": 0, "is_disabled": 0, "lon": -77.02124733333333, "rental_uris": {"android": "https://dc.lft.to/lastmile_qr_scan", "ios": "https://dc.lft.to/lastmile_qr_scan"}, "fusion_lon": 0.0, "lat": 38.937031, "type": "electric_bike", "fusion_lat": 0.0, "bike_id": "df1ee0a9480f62cd027a0662cda0539a"}, {"name": "8883329dc34e98f9a55f1c876a0bdc12", "is_reserved": 0, "is_disabled": 0, "lon": -77.05305083333333, "rental_uris": {"android": "https://dc.lft.to/lastmile_qr_scan", "ios": "https://dc.lft.to/lastmile_qr_scan"}, "fusion_lon": 0.0, "lat": 38.91703616666667, "type": "electric_scooter", "fusion_lat": 0.0, "bike_id": "8883329dc34e98f9a55f1c876a0bdc12"}, {"name": "8bb5e42e9aed2c781516a0d51a6614ef", "is_reserved": 0, "is_disabled": 0, "lon": -77.01794666666666, "rental_uris": {"android": "https://dc.lft.to/lastmile_qr_scan", "ios": "https://dc.lft.to/lastmile_qr_scan"}, "fusion_lon": 0.0, "lat": 38.98993633333333, "type": "electric_bike", "fusion_lat": 0.0, "bike_id": "8bb5e42e9aed2c781516a0d51a6614ef"}, {"name": "63e4249a7d4b512a99dcf5ba934aba1f", "is_reserved": 0, "is_disabled": 0, "lon": -77.0269585, "rental_uris": {"android": "https://dc.lft.to/lastmile_qr_scan", "ios": "https://dc.lft.to/lastmile_qr_scan"}, "fusion_lon": 0.0, "lat": 38.908522, "type": "electric_scooter", "fusion_lat": 0.0, "bike_id": "63e4249a7d4b512a99dcf5ba934aba1f"}, {"name": "bca183c52293e958d2683a8ca95f7931", "is_reserved": 0, "is_disabled": 0, "lon": -77.03838883333333, "rental_uris": {"android": "https://dc.lft.to/lastmile_qr_scan", "ios": "https://dc.lft.to/lastmile_qr_scan"}, "fusion_lon": 0.0, "lat": 38.93111233333333, "type": "electric_scooter", "fusion_lat": 0.0, "bike_id": "bca183c52293e958d2683a8ca95f7931"}, {"name": "c3cf8e5663638bfc67aa5f84b9054d53", "is_reserved": 0, "is_disabled": 0, "lon": -77.0021265, "rental_uris": {"android": "https://dc.lft.to/lastmile_qr_scan", "ios": "https://dc.lft.to/lastmile_qr_scan"}, "fusion_lon": 0.0, "lat": 38.894956666666666, "type": "electric_scooter", "fusion_lat": 0.0, "bike_id": "c3cf8e5663638bfc67aa5f84b9054d53"}, {"name": "8dc956f2e5b33d65dde0eb2b05d72239", "is_reserved": 0, "is_disabled": 0, "lon": -77.002176, "rental_uris": {"android": "https://dc.lft.to/lastmile_qr_scan", "ios": "https://dc.lft.to/lastmile_qr_scan"}, "fusion_lon": 0.0, "lat": 38.902905833333335, "type": "electric_scooter", "fusion_lat": 0.0, "bike_id": "8dc956f2e5b33d65dde0eb2b05d72239"}, {"name": "14dcae81f3e62d883471ad22ba6cc27c", "is_reserved": 0, "is_disabled": 0, "lon": -77.03642216666667, "rental_uris": {"android": "https://dc.lft.to/lastmile_qr_scan", "ios": "https://dc.lft.to/lastmile_qr_scan"}, "fusion_lon": 0.0, "lat": 38.916168666666664, "type": "electric_scooter", "fusion_lat": 0.0, "bike_id": "14dcae81f3e62d883471ad22ba6cc27c"}, {"name": "37ff308b7cd839b86449f260bb321748", "is_reserved": 0, "is_disabled": 0, "lon": -77.03208616666667, "rental_uris": {"android": "https://dc.lft.to/lastmile_qr_scan", "ios": "https://dc.lft.to/lastmile_qr_scan"}, "fusion_lon": 0.0, "lat": 38.9078495, "type": "electric_scooter", "fusion_lat": 0.0, "bike_id": "37ff308b7cd839b86449f260bb321748"}, {"name": "d4c81bdad2df588180c82c1f68e22b59", "is_reserved": 0, "is_disabled": 0, "lon": -76.99837166666667, "rental_uris": {"android": "https://dc.lft.to/lastmile_qr_scan", "ios": "https://dc.lft.to/lastmile_qr_scan"}, "fusion_lon": 0.0, "lat": 38.8391785, "type": "electric_bike", "fusion_lat": 0.0, "bike_id": "d4c81bdad2df588180c82c1f68e22b59"}, {"name": "cc0c5f6b898546cd419ff1110543ca0e", "is_reserved": 0, "is_disabled": 0, "lon": -77.0364165, "rental_uris": {"android": "https://dc.lft.to/lastmile_qr_scan", "ios": "https://dc.lft.to/lastmile_qr_scan"}, "fusion_lon": 0.0, "lat": 38.9122675, "type": "electric_scooter", "fusion_lat": 0.0, "bike_id": "cc0c5f6b898546cd419ff1110543ca0e"}, {"name": "e946118e410ea02d2a44e9f5ea9c6386", "is_reserved": 0, "is_disabled": 0, "lon": -77.01079766666666, "rental_uris": {"android": "https://dc.lft.to/lastmile_qr_scan", "ios": "https://dc.lft.to/lastmile_qr_scan"}, "fusion_lon": 0.0, "lat": 38.96262133333333, "type": "electric_bike", "fusion_lat": 0.0, "bike_id": "e946118e410ea02d2a44e9f5ea9c6386"}, {"name": "9c9173aead9a02353167d9a49663da2b", "is_reserved": 0, "is_disabled": 0, "lon": -77.014599, "rental_uris": {"android": "https://dc.lft.to/lastmile_qr_scan", "ios": "https://dc.lft.to/lastmile_qr_scan"}, "fusion_lon": 0.0, "lat": 38.910365166666665, "type": "electric_scooter", "fusion_lat": 0.0, "bike_id": "9c9173aead9a02353167d9a49663da2b"}, {"name": "3e8661e6cc75fcb072c07c3eb2c6d032", "is_reserved": 0, "is_disabled": 0, "lon": -77.015099, "rental_uris": {"android": "https://dc.lft.to/lastmile_qr_scan", "ios": "https://dc.lft.to/lastmile_qr_scan"}, "fusion_lon": 0.0, "lat": 38.909981, "type": "electric_scooter", "fusion_lat": 0.0, "bike_id": "3e8661e6cc75fcb072c07c3eb2c6d032"}, {"name": "4aaf54569c188bc2d20f6db4248a3543", "is_reserved": 0, "is_disabled": 0, "lon": -77.02885416666666, "rental_uris": {"android": "https://dc.lft.to/lastmile_qr_scan", "ios": "https://dc.lft.to/lastmile_qr_scan"}, "fusion_lon": 0.0, "lat": 38.914144, "type": "electric_scooter", "fusion_lat": 0.0, "bike_id": "4aaf54569c188bc2d20f6db4248a3543"}, {"name": "7d54070ea7ddd70403c3ec2ba18fb027", "is_reserved": 0, "is_disabled": 0, "lon": -77.0199885, "rental_uris": {"android": "https://dc.lft.to/lastmile_qr_scan", "ios": "https://dc.lft.to/lastmile_qr_scan"}, "fusion_lon": 0.0, "lat": 38.9663, "type": "electric_scooter", "fusion_lat": 0.0, "bike_id": "7d54070ea7ddd70403c3ec2ba18fb027"}, {"name": "30fce7113c7d768d894887d3a3498837", "is_reserved": 0, "is_disabled": 0, "lon": -77.01260583333334, "rental_uris": {"android": "https://dc.lft.to/lastmile_qr_scan", "ios": "https://dc.lft.to/lastmile_qr_scan"}, "fusion_lon": 0.0, "lat": 38.908471, "type": "electric_scooter", "fusion_lat": 0.0, "bike_id": "30fce7113c7d768d894887d3a3498837"}, {"name": "a09ad5eae6163a6c9b7a5680b032fad8", "is_reserved": 0, "is_disabled": 0, "lon": -77.0040405, "rental_uris": {"android": "https://dc.lft.to/lastmile_qr_scan", "ios": "https://dc.lft.to/lastmile_qr_scan"}, "fusion_lon": 0.0, "lat": 38.911122666666664, "type": "electric_scooter", "fusion_lat": 0.0, "bike_id": "a09ad5eae6163a6c9b7a5680b032fad8"}, {"name": "1dd415ecd8cc245ad770f379ec6aadf0", "is_reserved": 0, "is_disabled": 0, "lon": -76.99163166666666, "rental_uris": {"android": "https://dc.lft.to/lastmile_qr_scan", "ios": "https://dc.lft.to/lastmile_qr_scan"}, "fusion_lon": 0.0, "lat": 38.87344866666667, "type": "electric_scooter", "fusion_lat": 0.0, "bike_id": "1dd415ecd8cc245ad770f379ec6aadf0"}, {"name": "fcf98a7923aea3ddd7489bebc343ea2d", "is_reserved": 0, "is_disabled": 0, "lon": -77.0322335, "rental_uris": {"android": "https://dc.lft.to/lastmile_qr_scan", "ios": "https://dc.lft.to/lastmile_qr_scan"}, "fusion_lon": 0.0, "lat": 38.91432616666667, "type": "electric_scooter", "fusion_lat": 0.0, "bike_id": "fcf98a7923aea3ddd7489bebc343ea2d"}, {"name": "c9aaa72ff05b000710614784ac1d2ffc", "is_reserved": 0, "is_disabled": 0, "lon": -77.0220185, "rental_uris": {"android": "https://dc.lft.to/lastmile_qr_scan", "ios": "https://dc.lft.to/lastmile_qr_scan"}, "fusion_lon": 0.0, "lat": 38.921116, "type": "electric_scooter", "fusion_lat": 0.0, "bike_id": "c9aaa72ff05b000710614784ac1d2ffc"}, {"name": "f15240cf88d8c901f8e03d069f0e7c90", "is_reserved": 0, "is_disabled": 0, "lon": -77.043022, "rental_uris": {"android": "https://dc.lft.to/lastmile_qr_scan", "ios": "https://dc.lft.to/lastmile_qr_scan"}, "fusion_lon": 0.0, "lat": 38.92258183333333, "type": "electric_scooter", "fusion_lat": 0.0, "bike_id": "f15240cf88d8c901f8e03d069f0e7c90"}, {"name": "e6131eee7cdc9cb51e1444166208e6c0", "is_reserved": 0, "is_disabled": 0, "lon": -77.04255766666667, "rental_uris": {"android": "https://dc.lft.to/lastmile_qr_scan", "ios": "https://dc.lft.to/lastmile_qr_scan"}, "fusion_lon": 0.0, "lat": 38.920606666666664, "type": "electric_scooter", "fusion_lat": 0.0, "bike_id": "e6131eee7cdc9cb51e1444166208e6c0"}, {"name": "0bcde23e82182c9493aec80fd44a4c4a", "is_reserved": 0, "is_disabled": 0, "lon": -76.93201733333333, "rental_uris": {"android": "https://dc.lft.to/lastmile_qr_scan", "ios": "https://dc.lft.to/lastmile_qr_scan"}, "fusion_lon": 0.0, "lat": 38.87237, "type": "electric_bike", "fusion_lat": 0.0, "bike_id": "0bcde23e82182c9493aec80fd44a4c4a"}, {"name": "f155f2ab0c3bd8c6b97bd1d9dd1dd281", "is_reserved": 0, "is_disabled": 0, "lon": -77.09967516666667, "rental_uris": {"android": "https://dc.lft.to/lastmile_qr_scan", "ios": "https://dc.lft.to/lastmile_qr_scan"}, "fusion_lon": 0.0, "lat": 38.857876, "type": "electric_bike", "fusion_lat": 0.0, "bike_id": "f155f2ab0c3bd8c6b97bd1d9dd1dd281"}, {"name": "ae3be93c837cae65e8b7798bcf5dba5c", "is_reserved": 0, "is_disabled": 0, "lon": -77.07661983333334, "rental_uris": {"android": "https://dc.lft.to/lastmile_qr_scan", "ios": "https://dc.lft.to/lastmile_qr_scan"}, "fusion_lon": 0.0, "lat": 38.91084083333333, "type": "electric_scooter", "fusion_lat": 0.0, "bike_id": "ae3be93c837cae65e8b7798bcf5dba5c"}, {"name": "58e46e48f92f4a1c3f9d31a0b3b8a1ba", "is_reserved": 0, "is_disabled": 0, "lon": -76.94197133333333, "rental_uris": {"android": "https://dc.lft.to/lastmile_qr_scan", "ios": "https://dc.lft.to/lastmile_qr_scan"}, "fusion_lon": 0.0, "lat": 38.893738166666665, "type": "electric_scooter", "fusion_lat": 0.0, "bike_id": "58e46e48f92f4a1c3f9d31a0b3b8a1ba"}, {"name": "0090f937877f06ffd0746dadb518e086", "is_reserved": 0, "is_disabled": 0, "lon": -77.03656433333333, "rental_uris": {"android": "https://dc.lft.to/lastmile_qr_scan", "ios": "https://dc.lft.to/lastmile_qr_scan"}, "fusion_lon": 0.0, "lat": 38.9564285, "type": "electric_scooter", "fusion_lat": 0.0, "bike_id": "0090f937877f06ffd0746dadb518e086"}, {"name": "4f459dd39a102868a53d72c45bcd890b", "is_reserved": 0, "is_disabled": 0, "lon": -77.026254, "rental_uris": {"android": "https://dc.lft.to/lastmile_qr_scan", "ios": "https://dc.lft.to/lastmile_qr_scan"}, "fusion_lon": 0.0, "lat": 38.887386166666666, "type": "electric_scooter", "fusion_lat": 0.0, "bike_id": "4f459dd39a102868a53d72c45bcd890b"}, {"name": "7e8ae44fb963347bad0d385a9b91ab32", "is_reserved": 0, "is_disabled": 0, "lon": -77.04749216666667, "rental_uris": {"android": "https://dc.lft.to/lastmile_qr_scan", "ios": "https://dc.lft.to/lastmile_qr_scan"}, "fusion_lon": 0.0, "lat": 38.905389166666666, "type": "electric_scooter", "fusion_lat": 0.0, "bike_id": "7e8ae44fb963347bad0d385a9b91ab32"}, {"name": "62707b9d840aebff4fdc513444897545", "is_reserved": 0, "is_disabled": 0, "lon": -77.02780033333333, "rental_uris": {"android": "https://dc.lft.to/lastmile_qr_scan", "ios": "https://dc.lft.to/lastmile_qr_scan"}, "fusion_lon": 0.0, "lat": 38.89220016666667, "type": "electric_scooter", "fusion_lat": 0.0, "bike_id": "62707b9d840aebff4fdc513444897545"}, {"name": "08ecdbf940970b894af4c099d2ca7135", "is_reserved": 0, "is_disabled": 0, "lon": -77.0260885, "rental_uris": {"android": "https://dc.lft.to/lastmile_qr_scan", "ios": "https://dc.lft.to/lastmile_qr_scan"}, "fusion_lon": 0.0, "lat": 38.91621333333333, "type": "electric_scooter", "fusion_lat": 0.0, "bike_id": "08ecdbf940970b894af4c099d2ca7135"}, {"name": "c96fe894b1b1dfae74f378130c466626", "is_reserved": 0, "is_disabled": 0, "lon": -77.00888316666666, "rental_uris": {"android": "https://dc.lft.to/lastmile_qr_scan", "ios": "https://dc.lft.to/lastmile_qr_scan"}, "fusion_lon": 0.0, "lat": 38.87633, "type": "electric_scooter", "fusion_lat": 0.0, "bike_id": "c96fe894b1b1dfae74f378130c466626"}, {"name": "1b7b87eb6dc1d981870778534dbeed52", "is_reserved": 0, "is_disabled": 0, "lon": -77.00699666666667, "rental_uris": {"android": "https://dc.lft.to/lastmile_qr_scan", "ios": "https://dc.lft.to/lastmile_qr_scan"}, "fusion_lon": 0.0, "lat": 38.877035666666664, "type": "electric_scooter", "fusion_lat": 0.0, "bike_id": "1b7b87eb6dc1d981870778534dbeed52"}, {"name": "8867dd831f8b0161f47348d262a9b826", "is_reserved": 0, "is_disabled": 0, "lon": -77.045465, "rental_uris": {"android": "https://dc.lft.to/lastmile_qr_scan", "ios": "https://dc.lft.to/lastmile_qr_scan"}, "fusion_lon": 0.0, "lat": 38.907538333333335, "type": "electric_scooter", "fusion_lat": 0.0, "bike_id": "8867dd831f8b0161f47348d262a9b826"}, {"name": "8d671e9751b98e029caad00f1ba71563", "is_reserved": 0, "is_disabled": 0, "lon": -77.03137433333333, "rental_uris": {"android": "https://dc.lft.to/lastmile_qr_scan", "ios": "https://dc.lft.to/lastmile_qr_scan"}, "fusion_lon": 0.0, "lat": 38.897155833333336, "type": "electric_scooter", "fusion_lat": 0.0, "bike_id": "8d671e9751b98e029caad00f1ba71563"}, {"name": "ec9c1b504a12794e1b3b2f2a28d99a34", "is_reserved": 0, "is_disabled": 0, "lon": -77.04263183333333, "rental_uris": {"android": "https://dc.lft.to/lastmile_qr_scan", "ios": "https://dc.lft.to/lastmile_qr_scan"}, "fusion_lon": 0.0, "lat": 38.92201266666667, "type": "electric_scooter", "fusion_lat": 0.0, "bike_id": "ec9c1b504a12794e1b3b2f2a28d99a34"}, {"name": "c13a12935e317ae34d3158868c198401", "is_reserved": 0, "is_disabled": 0, "lon": -77.04744666666667, "rental_uris": {"android": "https://dc.lft.to/lastmile_qr_scan", "ios": "https://dc.lft.to/lastmile_qr_scan"}, "fusion_lon": 0.0, "lat": 38.90530183333333, "type": "electric_scooter", "fusion_lat": 0.0, "bike_id": "c13a12935e317ae34d3158868c198401"}, {"name": "2cdc1f93655ca55037e9cd6b0c83d083", "is_reserved": 0, "is_disabled": 0, "lon": -77.03949116666666, "rental_uris": {"android": "https://dc.lft.to/lastmile_qr_scan", "ios": "https://dc.lft.to/lastmile_qr_scan"}, "fusion_lon": 0.0, "lat": 38.9019605, "type": "electric_scooter", "fusion_lat": 0.0, "bike_id": "2cdc1f93655ca55037e9cd6b0c83d083"}, {"name": "c0c976e5ea1743c5476d8761dae58283", "is_reserved": 0, "is_disabled": 0, "lon": -77.02184933333334, "rental_uris": {"android": "https://dc.lft.to/lastmile_qr_scan", "ios": "https://dc.lft.to/lastmile_qr_scan"}, "fusion_lon": 0.0, "lat": 38.9019495, "type": "electric_scooter", "fusion_lat": 0.0, "bike_id": "c0c976e5ea1743c5476d8761dae58283"}, {"name": "3d734461af40c7db870a4ee77541bc18", "is_reserved": 0, "is_disabled": 0, "lon": -77.02439783333334, "rental_uris": {"android": "https://dc.lft.to/lastmile_qr_scan", "ios": "https://dc.lft.to/lastmile_qr_scan"}, "fusion_lon": 0.0, "lat": 38.932930166666665, "type": "electric_scooter", "fusion_lat": 0.0, "bike_id": "3d734461af40c7db870a4ee77541bc18"}, {"name": "2bf544d78fc92e3554dfbcff38093604", "is_reserved": 0, "is_disabled": 0, "lon": -76.99892816666667, "rental_uris": {"android": "https://dc.lft.to/lastmile_qr_scan", "ios": "https://dc.lft.to/lastmile_qr_scan"}, "fusion_lon": 0.0, "lat": 38.90755733333334, "type": "electric_scooter", "fusion_lat": 0.0, "bike_id": "2bf544d78fc92e3554dfbcff38093604"}, {"name": "fa2a0e3dc8a9a7250270c8e678199350", "is_reserved": 0, "is_disabled": 0, "lon": -77.07189783333334, "rental_uris": {"android": "https://dc.lft.to/lastmile_qr_scan", "ios": "https://dc.lft.to/lastmile_qr_scan"}, "fusion_lon": 0.0, "lat": 38.9210325, "type": "electric_scooter", "fusion_lat": 0.0, "bike_id": "fa2a0e3dc8a9a7250270c8e678199350"}, {"name": "093709401ff3645bbd8dd9eda32a5300", "is_reserved": 0, "is_disabled": 0, "lon": -77.038464, "rental_uris": {"android": "https://dc.lft.to/lastmile_qr_scan", "ios": "https://dc.lft.to/lastmile_qr_scan"}, "fusion_lon": 0.0, "lat": 38.9102455, "type": "electric_scooter", "fusion_lat": 0.0, "bike_id": "093709401ff3645bbd8dd9eda32a5300"}, {"name": "c3d6b22bbff5fbf60600dfdc51784b86", "is_reserved": 0, "is_disabled": 0, "lon": -76.99540066666667, "rental_uris": {"android": "https://dc.lft.to/lastmile_qr_scan", "ios": "https://dc.lft.to/lastmile_qr_scan"}, "fusion_lon": 0.0, "lat": 38.900160666666665, "type": "electric_scooter", "fusion_lat": 0.0, "bike_id": "c3d6b22bbff5fbf60600dfdc51784b86"}, {"name": "c06bbd7abc29d7c44ddcc69ca88d2cfe", "is_reserved": 0, "is_disabled": 0, "lon": -77.03835366666667, "rental_uris": {"android": "https://dc.lft.to/lastmile_qr_scan", "ios": "https://dc.lft.to/lastmile_qr_scan"}, "fusion_lon": 0.0, "lat": 38.90995783333334, "type": "electric_scooter", "fusion_lat": 0.0, "bike_id": "c06bbd7abc29d7c44ddcc69ca88d2cfe"}, {"name": "954ea3732c99b6202958f7ddfef04db9", "is_reserved": 0, "is_disabled": 0, "lon": -76.95221166666667, "rental_uris": {"android": "https://dc.lft.to/lastmile_qr_scan", "ios": "https://dc.lft.to/lastmile_qr_scan"}, "fusion_lon": 0.0, "lat": 38.892397, "type": "electric_bike", "fusion_lat": 0.0, "bike_id": "954ea3732c99b6202958f7ddfef04db9"}, {"name": "05a94015eefc1b4b7ad59eec70826f16", "is_reserved": 0, "is_disabled": 0, "lon": -77.029761, "rental_uris": {"android": "https://dc.lft.to/lastmile_qr_scan", "ios": "https://dc.lft.to/lastmile_qr_scan"}, "fusion_lon": 0.0, "lat": 38.9275, "type": "electric_scooter", "fusion_lat": 0.0, "bike_id": "05a94015eefc1b4b7ad59eec70826f16"}, {"name": "faeaf6296eab48be268310586e3d370d", "is_reserved": 0, "is_disabled": 0, "lon": -77.03825216666667, "rental_uris": {"android": "https://dc.lft.to/lastmile_qr_scan", "ios": "https://dc.lft.to/lastmile_qr_scan"}, "fusion_lon": 0.0, "lat": 38.903423, "type": "electric_scooter", "fusion_lat": 0.0, "bike_id": "faeaf6296eab48be268310586e3d370d"}, {"name": "bb945955cf4f4a8339b74d4616465b66", "is_reserved": 0, "is_disabled": 0, "lon": -77.03382366666666, "rental_uris": {"android": "https://dc.lft.to/lastmile_qr_scan", "ios": "https://dc.lft.to/lastmile_qr_scan"}, "fusion_lon": 0.0, "lat": 38.909667666666664, "type": "electric_scooter", "fusion_lat": 0.0, "bike_id": "bb945955cf4f4a8339b74d4616465b66"}, {"name": "9048d825453b20864559b5929837975a", "is_reserved": 0, "is_disabled": 0, "lon": -77.02742433333333, "rental_uris": {"android": "https://dc.lft.to/lastmile_qr_scan", "ios": "https://dc.lft.to/lastmile_qr_scan"}, "fusion_lon": 0.0, "lat": 38.9241205, "type": "electric_scooter", "fusion_lat": 0.0, "bike_id": "9048d825453b20864559b5929837975a"}, {"name": "9116cf0748b814f3b472103a519a1746", "is_reserved": 0, "is_disabled": 0, "lon": -77.03630566666666, "rental_uris": {"android": "https://dc.lft.to/lastmile_qr_scan", "ios": "https://dc.lft.to/lastmile_qr_scan"}, "fusion_lon": 0.0, "lat": 38.90268233333333, "type": "electric_scooter", "fusion_lat": 0.0, "bike_id": "9116cf0748b814f3b472103a519a1746"}, {"name": "8e5a93047dc510d7b52c4768c5a2b928", "is_reserved": 0, "is_disabled": 0, "lon": -77.02512083333333, "rental_uris": {"android": "https://dc.lft.to/lastmile_qr_scan", "ios": "https://dc.lft.to/lastmile_qr_scan"}, "fusion_lon": 0.0, "lat": 38.924042666666665, "type": "electric_scooter", "fusion_lat": 0.0, "bike_id": "8e5a93047dc510d7b52c4768c5a2b928"}, {"name": "609157e08a7c1b8d3a54bd15ba1479da", "is_reserved": 0, "is_disabled": 0, "lon": -76.99084883333333, "rental_uris": {"android": "https://dc.lft.to/lastmile_qr_scan", "ios": "https://dc.lft.to/lastmile_qr_scan"}, "fusion_lon": 0.0, "lat": 38.842827166666666, "type": "electric_scooter", "fusion_lat": 0.0, "bike_id": "609157e08a7c1b8d3a54bd15ba1479da"}, {"name": "ef1fc212d810e4409025ed4d2e0220c2", "is_reserved": 0, "is_disabled": 0, "lon": -77.0043305, "rental_uris": {"android": "https://dc.lft.to/lastmile_qr_scan", "ios": "https://dc.lft.to/lastmile_qr_scan"}, "fusion_lon": 0.0, "lat": 38.912107, "type": "electric_scooter", "fusion_lat": 0.0, "bike_id": "ef1fc212d810e4409025ed4d2e0220c2"}, {"name": "a0c614111ac5ae201d1142e654952fb4", "is_reserved": 0, "is_disabled": 0, "lon": -76.947975, "rental_uris": {"android": "https://dc.lft.to/lastmile_qr_scan", "ios": "https://dc.lft.to/lastmile_qr_scan"}, "fusion_lon": 0.0, "lat": 38.89639566666666, "type": "electric_bike", "fusion_lat": 0.0, "bike_id": "a0c614111ac5ae201d1142e654952fb4"}, {"name": "331a96cb8cc68a3c03eb57af7a4a86fd", "is_reserved": 0, "is_disabled": 0, "lon": -77.02037566666667, "rental_uris": {"android": "https://dc.lft.to/lastmile_qr_scan", "ios": "https://dc.lft.to/lastmile_qr_scan"}, "fusion_lon": 0.0, "lat": 38.89273933333333, "type": "electric_scooter", "fusion_lat": 0.0, "bike_id": "331a96cb8cc68a3c03eb57af7a4a86fd"}, {"name": "8a584813b58ff4da515091a9ae1365e0", "is_reserved": 0, "is_disabled": 0, "lon": -77.0215025, "rental_uris": {"android": "https://dc.lft.to/lastmile_qr_scan", "ios": "https://dc.lft.to/lastmile_qr_scan"}, "fusion_lon": 0.0, "lat": 38.87930516666667, "type": "electric_scooter", "fusion_lat": 0.0, "bike_id": "8a584813b58ff4da515091a9ae1365e0"}, {"name": "f856809038caf3701f2c26dfff545a2a", "is_reserved": 0, "is_disabled": 0, "lon": -77.01896483333333, "rental_uris": {"android": "https://dc.lft.to/lastmile_qr_scan", "ios": "https://dc.lft.to/lastmile_qr_scan"}, "fusion_lon": 0.0, "lat": 38.93915066666667, "type": "electric_scooter", "fusion_lat": 0.0, "bike_id": "f856809038caf3701f2c26dfff545a2a"}, {"name": "201e5e354d2b4b668095a0fdcb0070ab", "is_reserved": 0, "is_disabled": 0, "lon": -76.98457683333334, "rental_uris": {"android": "https://dc.lft.to/lastmile_qr_scan", "ios": "https://dc.lft.to/lastmile_qr_scan"}, "fusion_lon": 0.0, "lat": 38.89370316666667, "type": "electric_scooter", "fusion_lat": 0.0, "bike_id": "201e5e354d2b4b668095a0fdcb0070ab"}, {"name": "e3676236354df9723db273526ef2241c", "is_reserved": 0, "is_disabled": 0, "lon": -77.02977916666667, "rental_uris": {"android": "https://dc.lft.to/lastmile_qr_scan", "ios": "https://dc.lft.to/lastmile_qr_scan"}, "fusion_lon": 0.0, "lat": 38.92458233333333, "type": "electric_scooter", "fusion_lat": 0.0, "bike_id": "e3676236354df9723db273526ef2241c"}, {"name": "01d10f305b4d28bfb32391d4e69c236d", "is_reserved": 0, "is_disabled": 0, "lon": -77.03736383333333, "rental_uris": {"android": "https://dc.lft.to/lastmile_qr_scan", "ios": "https://dc.lft.to/lastmile_qr_scan"}, "fusion_lon": 0.0, "lat": 38.902278333333335, "type": "electric_scooter", "fusion_lat": 0.0, "bike_id": "01d10f305b4d28bfb32391d4e69c236d"}, {"name": "8cb2f41f303baa4a214dd215e966c7ff", "is_reserved": 0, "is_disabled": 0, "lon": -77.03348733333333, "rental_uris": {"android": "https://dc.lft.to/lastmile_qr_scan", "ios": "https://dc.lft.to/lastmile_qr_scan"}, "fusion_lon": 0.0, "lat": 38.922521833333334, "type": "electric_scooter", "fusion_lat": 0.0, "bike_id": "8cb2f41f303baa4a214dd215e966c7ff"}, {"name": "17c973c771fbfdbeeeac1169e638c2aa", "is_reserved": 0, "is_disabled": 0, "lon": -76.96699883333334, "rental_uris": {"android": "https://dc.lft.to/lastmile_qr_scan", "ios": "https://dc.lft.to/lastmile_qr_scan"}, "fusion_lon": 0.0, "lat": 38.85896783333333, "type": "electric_scooter", "fusion_lat": 0.0, "bike_id": "17c973c771fbfdbeeeac1169e638c2aa"}, {"name": "377d5befe35d4b5f36918671c1377679", "is_reserved": 0, "is_disabled": 0, "lon": -77.0916175, "rental_uris": {"android": "https://dc.lft.to/lastmile_qr_scan", "ios": "https://dc.lft.to/lastmile_qr_scan"}, "fusion_lon": 0.0, "lat": 38.96764733333333, "type": "electric_bike", "fusion_lat": 0.0, "bike_id": "377d5befe35d4b5f36918671c1377679"}, {"name": "bb0869342e63cb0a6307b1f8b7c6ea3f", "is_reserved": 0, "is_disabled": 0, "lon": -77.03737683333334, "rental_uris": {"android": "https://dc.lft.to/lastmile_qr_scan", "ios": "https://dc.lft.to/lastmile_qr_scan"}, "fusion_lon": 0.0, "lat": 38.9182095, "type": "electric_scooter", "fusion_lat": 0.0, "bike_id": "bb0869342e63cb0a6307b1f8b7c6ea3f"}, {"name": "beac00ad4945a420639c72647c825b00", "is_reserved": 0, "is_disabled": 0, "lon": -77.04228066666667, "rental_uris": {"android": "https://dc.lft.to/lastmile_qr_scan", "ios": "https://dc.lft.to/lastmile_qr_scan"}, "fusion_lon": 0.0, "lat": 38.92123183333333, "type": "electric_scooter", "fusion_lat": 0.0, "bike_id": "beac00ad4945a420639c72647c825b00"}, {"name": "800d9888f8a7ae45a023866f40019d55", "is_reserved": 0, "is_disabled": 0, "lon": -77.01687833333334, "rental_uris": {"android": "https://dc.lft.to/lastmile_qr_scan", "ios": "https://dc.lft.to/lastmile_qr_scan"}, "fusion_lon": 0.0, "lat": 38.975346, "type": "electric_scooter", "fusion_lat": 0.0, "bike_id": "800d9888f8a7ae45a023866f40019d55"}, {"name": "44adfffd24c396a489db3cc01ec32a0a", "is_reserved": 0, "is_disabled": 0, "lon": -77.046569, "rental_uris": {"android": "https://dc.lft.to/lastmile_qr_scan", "ios": "https://dc.lft.to/lastmile_qr_scan"}, "fusion_lon": 0.0, "lat": 38.89304716666667, "type": "electric_scooter", "fusion_lat": 0.0, "bike_id": "44adfffd24c396a489db3cc01ec32a0a"}, {"name": "3aaafa94afe5c9026c79641426dc9cb8", "is_reserved": 0, "is_disabled": 0, "lon": -77.044243, "rental_uris": {"android": "https://dc.lft.to/lastmile_qr_scan", "ios": "https://dc.lft.to/lastmile_qr_scan"}, "fusion_lon": 0.0, "lat": 38.8743665, "type": "electric_scooter", "fusion_lat": 0.0, "bike_id": "3aaafa94afe5c9026c79641426dc9cb8"}, {"name": "94da72bd39e9045c9f7edfe08dd3b8ec", "is_reserved": 0, "is_disabled": 0, "lon": -77.05052633333334, "rental_uris": {"android": "https://dc.lft.to/lastmile_qr_scan", "ios": "https://dc.lft.to/lastmile_qr_scan"}, "fusion_lon": 0.0, "lat": 38.923614666666666, "type": "electric_scooter", "fusion_lat": 0.0, "bike_id": "94da72bd39e9045c9f7edfe08dd3b8ec"}, {"name": "3815c774e96865c152240e345dfc7406", "is_reserved": 0, "is_disabled": 0, "lon": -77.12628233333334, "rental_uris": {"android": "https://dc.lft.to/lastmile_qr_scan", "ios": "https://dc.lft.to/lastmile_qr_scan"}, "fusion_lon": 0.0, "lat": 39.05813633333333, "type": "electric_bike", "fusion_lat": 0.0, "bike_id": "3815c774e96865c152240e345dfc7406"}, {"name": "90e10cc8d9c510fda4356cb8aa8e0e4a", "is_reserved": 0, "is_disabled": 0, "lon": -76.99821416666667, "rental_uris": {"android": "https://dc.lft.to/lastmile_qr_scan", "ios": "https://dc.lft.to/lastmile_qr_scan"}, "fusion_lon": 0.0, "lat": 38.84436216666667, "type": "electric_scooter", "fusion_lat": 0.0, "bike_id": "90e10cc8d9c510fda4356cb8aa8e0e4a"}, {"name": "135abf3a857ab997c88512648ddc4b97", "is_reserved": 0, "is_disabled": 0, "lon": -77.04809233333333, "rental_uris": {"android": "https://dc.lft.to/lastmile_qr_scan", "ios": "https://dc.lft.to/lastmile_qr_scan"}, "fusion_lon": 0.0, "lat": 38.91918716666667, "type": "electric_scooter", "fusion_lat": 0.0, "bike_id": "135abf3a857ab997c88512648ddc4b97"}, {"name": "2784cef0add505a86433dd89b725e09e", "is_reserved": 0, "is_disabled": 0, "lon": -76.98820133333334, "rental_uris": {"android": "https://dc.lft.to/lastmile_qr_scan", "ios": "https://dc.lft.to/lastmile_qr_scan"}, "fusion_lon": 0.0, "lat": 38.8426995, "type": "electric_bike", "fusion_lat": 0.0, "bike_id": "2784cef0add505a86433dd89b725e09e"}, {"name": "165d1210a319504737fc1228ee6bd911", "is_reserved": 0, "is_disabled": 0, "lon": -77.02982316666667, "rental_uris": {"android": "https://dc.lft.to/lastmile_qr_scan", "ios": "https://dc.lft.to/lastmile_qr_scan"}, "fusion_lon": 0.0, "lat": 38.89207566666666, "type": "electric_scooter", "fusion_lat": 0.0, "bike_id": "165d1210a319504737fc1228ee6bd911"}, {"name": "f3278410cb22ca2b17ed6e06c5d6361c", "is_reserved": 0, "is_disabled": 0, "lon": -77.05351266666666, "rental_uris": {"android": "https://dc.lft.to/lastmile_qr_scan", "ios": "https://dc.lft.to/lastmile_qr_scan"}, "fusion_lon": 0.0, "lat": 38.9024235, "type": "electric_scooter", "fusion_lat": 0.0, "bike_id": "f3278410cb22ca2b17ed6e06c5d6361c"}, {"name": "8c74afae77546050dadb64d0d5644c4e", "is_reserved": 0, "is_disabled": 0, "lon": -77.01732533333333, "rental_uris": {"android": "https://dc.lft.to/lastmile_qr_scan", "ios": "https://dc.lft.to/lastmile_qr_scan"}, "fusion_lon": 0.0, "lat": 38.942096666666664, "type": "electric_scooter", "fusion_lat": 0.0, "bike_id": "8c74afae77546050dadb64d0d5644c4e"}, {"name": "c239f42a7bf45435a456afc26c5f3699", "is_reserved": 0, "is_disabled": 0, "lon": -77.00758366666666, "rental_uris": {"android": "https://dc.lft.to/lastmile_qr_scan", "ios": "https://dc.lft.to/lastmile_qr_scan"}, "fusion_lon": 0.0, "lat": 38.91555066666667, "type": "electric_scooter", "fusion_lat": 0.0, "bike_id": "c239f42a7bf45435a456afc26c5f3699"}, {"name": "7f983692b993edea409bc03abca75990", "is_reserved": 0, "is_disabled": 0, "lon": -77.00580583333333, "rental_uris": {"android": "https://dc.lft.to/lastmile_qr_scan", "ios": "https://dc.lft.to/lastmile_qr_scan"}, "fusion_lon": 0.0, "lat": 38.87659766666667, "type": "electric_scooter", "fusion_lat": 0.0, "bike_id": "7f983692b993edea409bc03abca75990"}, {"name": "64913f3c333921ca7359578872fac28f", "is_reserved": 0, "is_disabled": 0, "lon": -77.02223533333333, "rental_uris": {"android": "https://dc.lft.to/lastmile_qr_scan", "ios": "https://dc.lft.to/lastmile_qr_scan"}, "fusion_lon": 0.0, "lat": 38.915640333333336, "type": "electric_scooter", "fusion_lat": 0.0, "bike_id": "64913f3c333921ca7359578872fac28f"}, {"name": "b39c1c8914dd54e11d813e790e25c75c", "is_reserved": 0, "is_disabled": 0, "lon": -77.02618633333333, "rental_uris": {"android": "https://dc.lft.to/lastmile_qr_scan", "ios": "https://dc.lft.to/lastmile_qr_scan"}, "fusion_lon": 0.0, "lat": 38.88598183333333, "type": "electric_scooter", "fusion_lat": 0.0, "bike_id": "b39c1c8914dd54e11d813e790e25c75c"}, {"name": "948d974b32e931860ba2de502b76a67b", "is_reserved": 0, "is_disabled": 0, "lon": -77.0335885, "rental_uris": {"android": "https://dc.lft.to/lastmile_qr_scan", "ios": "https://dc.lft.to/lastmile_qr_scan"}, "fusion_lon": 0.0, "lat": 38.92238283333333, "type": "electric_scooter", "fusion_lat": 0.0, "bike_id": "948d974b32e931860ba2de502b76a67b"}, {"name": "2d13a3e077fa6bf0c03cc3a60dff5217", "is_reserved": 0, "is_disabled": 0, "lon": -76.980973, "rental_uris": {"android": "https://dc.lft.to/lastmile_qr_scan", "ios": "https://dc.lft.to/lastmile_qr_scan"}, "fusion_lon": 0.0, "lat": 38.95356133333333, "type": "electric_bike", "fusion_lat": 0.0, "bike_id": "2d13a3e077fa6bf0c03cc3a60dff5217"}, {"name": "adfa5d78f04ce76307983d30aa05ce5e", "is_reserved": 0, "is_disabled": 0, "lon": -77.00334233333334, "rental_uris": {"android": "https://dc.lft.to/lastmile_qr_scan", "ios": "https://dc.lft.to/lastmile_qr_scan"}, "fusion_lon": 0.0, "lat": 38.89611083333333, "type": "electric_scooter", "fusion_lat": 0.0, "bike_id": "adfa5d78f04ce76307983d30aa05ce5e"}, {"name": "dab3071b3bb10a783023876ff824a275", "is_reserved": 0, "is_disabled": 0, "lon": -77.06858033333333, "rental_uris": {"android": "https://dc.lft.to/lastmile_qr_scan", "ios": "https://dc.lft.to/lastmile_qr_scan"}, "fusion_lon": 0.0, "lat": 38.952116, "type": "electric_scooter", "fusion_lat": 0.0, "bike_id": "dab3071b3bb10a783023876ff824a275"}, {"name": "92d3a4ad95cee598b6ef4b0315908d0e", "is_reserved": 0, "is_disabled": 0, "lon": -77.01923916666667, "rental_uris": {"android": "https://dc.lft.to/lastmile_qr_scan", "ios": "https://dc.lft.to/lastmile_qr_scan"}, "fusion_lon": 0.0, "lat": 38.944780333333334, "type": "electric_scooter", "fusion_lat": 0.0, "bike_id": "92d3a4ad95cee598b6ef4b0315908d0e"}, {"name": "829233d237f6c4ac49a12f8b96899698", "is_reserved": 0, "is_disabled": 0, "lon": -77.037931, "rental_uris": {"android": "https://dc.lft.to/lastmile_qr_scan", "ios": "https://dc.lft.to/lastmile_qr_scan"}, "fusion_lon": 0.0, "lat": 38.90677866666667, "type": "electric_scooter", "fusion_lat": 0.0, "bike_id": "829233d237f6c4ac49a12f8b96899698"}, {"name": "ad139737a1182900aa2015525f799032", "is_reserved": 0, "is_disabled": 0, "lon": -76.97989966666667, "rental_uris": {"android": "https://dc.lft.to/lastmile_qr_scan", "ios": "https://dc.lft.to/lastmile_qr_scan"}, "fusion_lon": 0.0, "lat": 38.88765866666667, "type": "electric_scooter", "fusion_lat": 0.0, "bike_id": "ad139737a1182900aa2015525f799032"}, {"name": "751d18b5b6bcc444b5ff0e86bb09e38d", "is_reserved": 0, "is_disabled": 0, "lon": -77.02241783333334, "rental_uris": {"android": "https://dc.lft.to/lastmile_qr_scan", "ios": "https://dc.lft.to/lastmile_qr_scan"}, "fusion_lon": 0.0, "lat": 38.916488666666666, "type": "electric_scooter", "fusion_lat": 0.0, "bike_id": "751d18b5b6bcc444b5ff0e86bb09e38d"}, {"name": "f89982711bea5a15765045d2649d2ea2", "is_reserved": 0, "is_disabled": 0, "lon": -77.00911016666667, "rental_uris": {"android": "https://dc.lft.to/lastmile_qr_scan", "ios": "https://dc.lft.to/lastmile_qr_scan"}, "fusion_lon": 0.0, "lat": 38.89553816666667, "type": "electric_scooter", "fusion_lat": 0.0, "bike_id": "f89982711bea5a15765045d2649d2ea2"}, {"name": "4dc0ef7461b935b7d8184aa6087048c9", "is_reserved": 0, "is_disabled": 0, "lon": -77.04392433333334, "rental_uris": {"android": "https://dc.lft.to/lastmile_qr_scan", "ios": "https://dc.lft.to/lastmile_qr_scan"}, "fusion_lon": 0.0, "lat": 38.902233, "type": "electric_scooter", "fusion_lat": 0.0, "bike_id": "4dc0ef7461b935b7d8184aa6087048c9"}, {"name": "6a70ce519573236f16b0e9154c6f6dda", "is_reserved": 0, "is_disabled": 0, "lon": -77.0417395, "rental_uris": {"android": "https://dc.lft.to/lastmile_qr_scan", "ios": "https://dc.lft.to/lastmile_qr_scan"}, "fusion_lon": 0.0, "lat": 38.91137466666667, "type": "electric_scooter", "fusion_lat": 0.0, "bike_id": "6a70ce519573236f16b0e9154c6f6dda"}, {"name": "b37f23a6b29749b2c66de94057a05087", "is_reserved": 0, "is_disabled": 0, "lon": -77.02355016666667, "rental_uris": {"android": "https://dc.lft.to/lastmile_qr_scan", "ios": "https://dc.lft.to/lastmile_qr_scan"}, "fusion_lon": 0.0, "lat": 38.933276666666664, "type": "electric_scooter", "fusion_lat": 0.0, "bike_id": "b37f23a6b29749b2c66de94057a05087"}, {"name": "39135c5bd87275cdff2f565fc0af1f9c", "is_reserved": 0, "is_disabled": 0, "lon": -77.02666083333334, "rental_uris": {"android": "https://dc.lft.to/lastmile_qr_scan", "ios": "https://dc.lft.to/lastmile_qr_scan"}, "fusion_lon": 0.0, "lat": 38.979429833333334, "type": "electric_scooter", "fusion_lat": 0.0, "bike_id": "39135c5bd87275cdff2f565fc0af1f9c"}, {"name": "78cf0c7b644330c835e176d2d8758225", "is_reserved": 0, "is_disabled": 0, "lon": -77.02179916666667, "rental_uris": {"android": "https://dc.lft.to/lastmile_qr_scan", "ios": "https://dc.lft.to/lastmile_qr_scan"}, "fusion_lon": 0.0, "lat": 38.8923, "type": "electric_scooter", "fusion_lat": 0.0, "bike_id": "78cf0c7b644330c835e176d2d8758225"}, {"name": "9a8201fdb499d9927413b1e8241a7a0d", "is_reserved": 0, "is_disabled": 0, "lon": -77.03457483333334, "rental_uris": {"android": "https://dc.lft.to/lastmile_qr_scan", "ios": "https://dc.lft.to/lastmile_qr_scan"}, "fusion_lon": 0.0, "lat": 38.90508533333333, "type": "electric_scooter", "fusion_lat": 0.0, "bike_id": "9a8201fdb499d9927413b1e8241a7a0d"}, {"name": "748f5ab464c3825dc573df615bb42243", "is_reserved": 0, "is_disabled": 0, "lon": -77.04589083333333, "rental_uris": {"android": "https://dc.lft.to/lastmile_qr_scan", "ios": "https://dc.lft.to/lastmile_qr_scan"}, "fusion_lon": 0.0, "lat": 38.921434166666664, "type": "electric_scooter", "fusion_lat": 0.0, "bike_id": "748f5ab464c3825dc573df615bb42243"}, {"name": "bfb4826ee6c5a18cf2eb182f33126508", "is_reserved": 0, "is_disabled": 0, "lon": -77.02183583333333, "rental_uris": {"android": "https://dc.lft.to/lastmile_qr_scan", "ios": "https://dc.lft.to/lastmile_qr_scan"}, "fusion_lon": 0.0, "lat": 38.892301333333336, "type": "electric_scooter", "fusion_lat": 0.0, "bike_id": "bfb4826ee6c5a18cf2eb182f33126508"}, {"name": "dea7b16812c2caec53d941d77a322232", "is_reserved": 0, "is_disabled": 0, "lon": -77.03268916666667, "rental_uris": {"android": "https://dc.lft.to/lastmile_qr_scan", "ios": "https://dc.lft.to/lastmile_qr_scan"}, "fusion_lon": 0.0, "lat": 38.93213733333333, "type": "electric_scooter", "fusion_lat": 0.0, "bike_id": "dea7b16812c2caec53d941d77a322232"}, {"name": "b0644d678014a0a37d3de01b128f8ba0", "is_reserved": 0, "is_disabled": 0, "lon": -77.0348885, "rental_uris": {"android": "https://dc.lft.to/lastmile_qr_scan", "ios": "https://dc.lft.to/lastmile_qr_scan"}, "fusion_lon": 0.0, "lat": 38.916999, "type": "electric_scooter", "fusion_lat": 0.0, "bike_id": "b0644d678014a0a37d3de01b128f8ba0"}, {"name": "e0a5d0a98e322cf23e0db3cc8c852fd6", "is_reserved": 0, "is_disabled": 0, "lon": -77.025002, "rental_uris": {"android": "https://dc.lft.to/lastmile_qr_scan", "ios": "https://dc.lft.to/lastmile_qr_scan"}, "fusion_lon": 0.0, "lat": 38.907314, "type": "electric_scooter", "fusion_lat": 0.0, "bike_id": "e0a5d0a98e322cf23e0db3cc8c852fd6"}, {"name": "be502f32d9f03cf179feb29a8bd0efd9", "is_reserved": 0, "is_disabled": 0, "lon": -77.023193, "rental_uris": {"android": "https://dc.lft.to/lastmile_qr_scan", "ios": "https://dc.lft.to/lastmile_qr_scan"}, "fusion_lon": 0.0, "lat": 38.901988833333334, "type": "electric_scooter", "fusion_lat": 0.0, "bike_id": "be502f32d9f03cf179feb29a8bd0efd9"}, {"name": "adb6dde9dbd06ea3ca77cb10607bb8b5", "is_reserved": 0, "is_disabled": 0, "lon": -76.98829816666667, "rental_uris": {"android": "https://dc.lft.to/lastmile_qr_scan", "ios": "https://dc.lft.to/lastmile_qr_scan"}, "fusion_lon": 0.0, "lat": 38.985635333333335, "type": "electric_bike", "fusion_lat": 0.0, "bike_id": "adb6dde9dbd06ea3ca77cb10607bb8b5"}, {"name": "a895809914b1d3d9e467de9f64520613", "is_reserved": 0, "is_disabled": 0, "lon": -77.04824383333333, "rental_uris": {"android": "https://dc.lft.to/lastmile_qr_scan", "ios": "https://dc.lft.to/lastmile_qr_scan"}, "fusion_lon": 0.0, "lat": 38.90071533333333, "type": "electric_scooter", "fusion_lat": 0.0, "bike_id": "a895809914b1d3d9e467de9f64520613"}, {"name": "70ca6e92240856dde07df76a9323c406", "is_reserved": 0, "is_disabled": 0, "lon": -77.02382883333334, "rental_uris": {"android": "https://dc.lft.to/lastmile_qr_scan", "ios": "https://dc.lft.to/lastmile_qr_scan"}, "fusion_lon": 0.0, "lat": 38.932255166666664, "type": "electric_bike", "fusion_lat": 0.0, "bike_id": "70ca6e92240856dde07df76a9323c406"}, {"name": "7ec5fbb6288157efd31e33d0e310f9fc", "is_reserved": 0, "is_disabled": 0, "lon": -77.02908416666666, "rental_uris": {"android": "https://dc.lft.to/lastmile_qr_scan", "ios": "https://dc.lft.to/lastmile_qr_scan"}, "fusion_lon": 0.0, "lat": 38.91726883333333, "type": "electric_scooter", "fusion_lat": 0.0, "bike_id": "7ec5fbb6288157efd31e33d0e310f9fc"}, {"name": "6841ffdb1bd7fcd420a0c367737b2912", "is_reserved": 0, "is_disabled": 0, "lon": -77.03659133333333, "rental_uris": {"android": "https://dc.lft.to/lastmile_qr_scan", "ios": "https://dc.lft.to/lastmile_qr_scan"}, "fusion_lon": 0.0, "lat": 38.916298, "type": "electric_scooter", "fusion_lat": 0.0, "bike_id": "6841ffdb1bd7fcd420a0c367737b2912"}, {"name": "a55612c577ee7589d380446ce45f9890", "is_reserved": 0, "is_disabled": 0, "lon": -77.00765983333334, "rental_uris": {"android": "https://dc.lft.to/lastmile_qr_scan", "ios": "https://dc.lft.to/lastmile_qr_scan"}, "fusion_lon": 0.0, "lat": 38.9005945, "type": "electric_scooter", "fusion_lat": 0.0, "bike_id": "a55612c577ee7589d380446ce45f9890"}, {"name": "fb2450c97c0877c54f937c1e45716da9", "is_reserved": 0, "is_disabled": 0, "lon": -77.0109655, "rental_uris": {"android": "https://dc.lft.to/lastmile_qr_scan", "ios": "https://dc.lft.to/lastmile_qr_scan"}, "fusion_lon": 0.0, "lat": 38.9073025, "type": "electric_scooter", "fusion_lat": 0.0, "bike_id": "fb2450c97c0877c54f937c1e45716da9"}, {"name": "75f966d8ef4ec5bcfc82f437b43bdf74", "is_reserved": 0, "is_disabled": 0, "lon": -77.01564266666666, "rental_uris": {"android": "https://dc.lft.to/lastmile_qr_scan", "ios": "https://dc.lft.to/lastmile_qr_scan"}, "fusion_lon": 0.0, "lat": 38.913691166666666, "type": "electric_scooter", "fusion_lat": 0.0, "bike_id": "75f966d8ef4ec5bcfc82f437b43bdf74"}, {"name": "783d6b42fe3dfc0dcc86e79213672d3b", "is_reserved": 0, "is_disabled": 0, "lon": -77.031849, "rental_uris": {"android": "https://dc.lft.to/lastmile_qr_scan", "ios": "https://dc.lft.to/lastmile_qr_scan"}, "fusion_lon": 0.0, "lat": 38.88660383333333, "type": "electric_scooter", "fusion_lat": 0.0, "bike_id": "783d6b42fe3dfc0dcc86e79213672d3b"}, {"name": "084e01c44db64911e22827fa1487a1b1", "is_reserved": 0, "is_disabled": 0, "lon": -77.02156116666667, "rental_uris": {"android": "https://dc.lft.to/lastmile_qr_scan", "ios": "https://dc.lft.to/lastmile_qr_scan"}, "fusion_lon": 0.0, "lat": 38.92602183333333, "type": "electric_scooter", "fusion_lat": 0.0, "bike_id": "084e01c44db64911e22827fa1487a1b1"}, {"name": "e14870fcfdf4559ea6cb57800f10f1f2", "is_reserved": 0, "is_disabled": 0, "lon": -76.99209066666667, "rental_uris": {"android": "https://dc.lft.to/lastmile_qr_scan", "ios": "https://dc.lft.to/lastmile_qr_scan"}, "fusion_lon": 0.0, "lat": 38.895247499999996, "type": "electric_scooter", "fusion_lat": 0.0, "bike_id": "e14870fcfdf4559ea6cb57800f10f1f2"}, {"name": "d73dac20176ee530cd588a812fdf7f8d", "is_reserved": 0, "is_disabled": 0, "lon": -77.033195, "rental_uris": {"android": "https://dc.lft.to/lastmile_qr_scan", "ios": "https://dc.lft.to/lastmile_qr_scan"}, "fusion_lon": 0.0, "lat": 38.960232833333336, "type": "electric_scooter", "fusion_lat": 0.0, "bike_id": "d73dac20176ee530cd588a812fdf7f8d"}, {"name": "e2585427e5a5e3706dafbbd33b603892", "is_reserved": 0, "is_disabled": 0, "lon": -77.047189, "rental_uris": {"android": "https://dc.lft.to/lastmile_qr_scan", "ios": "https://dc.lft.to/lastmile_qr_scan"}, "fusion_lon": 0.0, "lat": 38.89950783333333, "type": "electric_scooter", "fusion_lat": 0.0, "bike_id": "e2585427e5a5e3706dafbbd33b603892"}, {"name": "011d148e02b38a50696a14c508e81a95", "is_reserved": 0, "is_disabled": 0, "lon": -77.03079766666667, "rental_uris": {"android": "https://dc.lft.to/lastmile_qr_scan", "ios": "https://dc.lft.to/lastmile_qr_scan"}, "fusion_lon": 0.0, "lat": 38.89969716666667, "type": "electric_scooter", "fusion_lat": 0.0, "bike_id": "011d148e02b38a50696a14c508e81a95"}, {"name": "db1b2bc5946733d821997a8827293a00", "is_reserved": 0, "is_disabled": 0, "lon": -77.03635683333333, "rental_uris": {"android": "https://dc.lft.to/lastmile_qr_scan", "ios": "https://dc.lft.to/lastmile_qr_scan"}, "fusion_lon": 0.0, "lat": 38.931716, "type": "electric_scooter", "fusion_lat": 0.0, "bike_id": "db1b2bc5946733d821997a8827293a00"}, {"name": "9aa81e25b583655b82f0d041f5905981", "is_reserved": 0, "is_disabled": 0, "lon": -76.96828333333333, "rental_uris": {"android": "https://dc.lft.to/lastmile_qr_scan", "ios": "https://dc.lft.to/lastmile_qr_scan"}, "fusion_lon": 0.0, "lat": 38.924477333333336, "type": "electric_bike", "fusion_lat": 0.0, "bike_id": "9aa81e25b583655b82f0d041f5905981"}, {"name": "3d4a24d1a7b4afbec6ff3f778569e5d7", "is_reserved": 0, "is_disabled": 0, "lon": -77.03807166666667, "rental_uris": {"android": "https://dc.lft.to/lastmile_qr_scan", "ios": "https://dc.lft.to/lastmile_qr_scan"}, "fusion_lon": 0.0, "lat": 38.923314500000004, "type": "electric_scooter", "fusion_lat": 0.0, "bike_id": "3d4a24d1a7b4afbec6ff3f778569e5d7"}, {"name": "1f344794516b7d9acab006e9ce3b0ba7", "is_reserved": 0, "is_disabled": 0, "lon": -77.01510316666666, "rental_uris": {"android": "https://dc.lft.to/lastmile_qr_scan", "ios": "https://dc.lft.to/lastmile_qr_scan"}, "fusion_lon": 0.0, "lat": 38.8844195, "type": "electric_scooter", "fusion_lat": 0.0, "bike_id": "1f344794516b7d9acab006e9ce3b0ba7"}, {"name": "023b82c9879723b48a404700653e0e5d", "is_reserved": 0, "is_disabled": 0, "lon": -77.03852333333333, "rental_uris": {"android": "https://dc.lft.to/lastmile_qr_scan", "ios": "https://dc.lft.to/lastmile_qr_scan"}, "fusion_lon": 0.0, "lat": 38.91336233333333, "type": "electric_scooter", "fusion_lat": 0.0, "bike_id": "023b82c9879723b48a404700653e0e5d"}, {"name": "01947856cf891ce91326c251c9c35796", "is_reserved": 0, "is_disabled": 0, "lon": -76.96506433333333, "rental_uris": {"android": "https://dc.lft.to/lastmile_qr_scan", "ios": "https://dc.lft.to/lastmile_qr_scan"}, "fusion_lon": 0.0, "lat": 38.876477333333334, "type": "electric_scooter", "fusion_lat": 0.0, "bike_id": "01947856cf891ce91326c251c9c35796"}, {"name": "b27bd63c4660197b1d35b08fe903f847", "is_reserved": 0, "is_disabled": 0, "lon": -77.00605616666667, "rental_uris": {"android": "https://dc.lft.to/lastmile_qr_scan", "ios": "https://dc.lft.to/lastmile_qr_scan"}, "fusion_lon": 0.0, "lat": 38.8754695, "type": "electric_scooter", "fusion_lat": 0.0, "bike_id": "b27bd63c4660197b1d35b08fe903f847"}, {"name": "38c82f328de3adeb67c9f3efab693535", "is_reserved": 0, "is_disabled": 0, "lon": -76.98327616666667, "rental_uris": {"android": "https://dc.lft.to/lastmile_qr_scan", "ios": "https://dc.lft.to/lastmile_qr_scan"}, "fusion_lon": 0.0, "lat": 38.86173133333333, "type": "electric_scooter", "fusion_lat": 0.0, "bike_id": "38c82f328de3adeb67c9f3efab693535"}, {"name": "ae34a7351799a03f28dce0fb075e8efd", "is_reserved": 0, "is_disabled": 0, "lon": -77.152685, "rental_uris": {"android": "https://dc.lft.to/lastmile_qr_scan", "ios": "https://dc.lft.to/lastmile_qr_scan"}, "fusion_lon": 0.0, "lat": 39.1056865, "type": "electric_bike", "fusion_lat": 0.0, "bike_id": "ae34a7351799a03f28dce0fb075e8efd"}, {"name": "08c92cf1aef85486c8a9d50f35b4471d", "is_reserved": 0, "is_disabled": 0, "lon": -77.02594133333334, "rental_uris": {"android": "https://dc.lft.to/lastmile_qr_scan", "ios": "https://dc.lft.to/lastmile_qr_scan"}, "fusion_lon": 0.0, "lat": 38.91852166666666, "type": "electric_scooter", "fusion_lat": 0.0, "bike_id": "08c92cf1aef85486c8a9d50f35b4471d"}, {"name": "8341c94125ad7959e52e9128f941a841", "is_reserved": 0, "is_disabled": 0, "lon": -77.02346416666667, "rental_uris": {"android": "https://dc.lft.to/lastmile_qr_scan", "ios": "https://dc.lft.to/lastmile_qr_scan"}, "fusion_lon": 0.0, "lat": 38.90219333333334, "type": "electric_scooter", "fusion_lat": 0.0, "bike_id": "8341c94125ad7959e52e9128f941a841"}, {"name": "e375ef7cea7e834f5a2e58ba25aa3f4d", "is_reserved": 0, "is_disabled": 0, "lon": -77.03771333333333, "rental_uris": {"android": "https://dc.lft.to/lastmile_qr_scan", "ios": "https://dc.lft.to/lastmile_qr_scan"}, "fusion_lon": 0.0, "lat": 38.91561333333333, "type": "electric_scooter", "fusion_lat": 0.0, "bike_id": "e375ef7cea7e834f5a2e58ba25aa3f4d"}, {"name": "02e9dc4b993736bc89b17fb0fa7bf8a8", "is_reserved": 0, "is_disabled": 0, "lon": -76.94922783333334, "rental_uris": {"android": "https://dc.lft.to/lastmile_qr_scan", "ios": "https://dc.lft.to/lastmile_qr_scan"}, "fusion_lon": 0.0, "lat": 38.892712333333336, "type": "electric_scooter", "fusion_lat": 0.0, "bike_id": "02e9dc4b993736bc89b17fb0fa7bf8a8"}, {"name": "2b7429219007c681aadd5ca7a34da69a", "is_reserved": 0, "is_disabled": 0, "lon": -76.98851133333334, "rental_uris": {"android": "https://dc.lft.to/lastmile_qr_scan", "ios": "https://dc.lft.to/lastmile_qr_scan"}, "fusion_lon": 0.0, "lat": 38.9004245, "type": "electric_scooter", "fusion_lat": 0.0, "bike_id": "2b7429219007c681aadd5ca7a34da69a"}, {"name": "118ab5df19e1fa3ae51ed62fc7780a6b", "is_reserved": 0, "is_disabled": 0, "lon": -76.98459633333333, "rental_uris": {"android": "https://dc.lft.to/lastmile_qr_scan", "ios": "https://dc.lft.to/lastmile_qr_scan"}, "fusion_lon": 0.0, "lat": 38.880137, "type": "electric_scooter", "fusion_lat": 0.0, "bike_id": "118ab5df19e1fa3ae51ed62fc7780a6b"}, {"name": "b876a0c0ead698dd132343a9b513211a", "is_reserved": 0, "is_disabled": 0, "lon": -77.053291, "rental_uris": {"android": "https://dc.lft.to/lastmile_qr_scan", "ios": "https://dc.lft.to/lastmile_qr_scan"}, "fusion_lon": 0.0, "lat": 38.910076833333335, "type": "electric_scooter", "fusion_lat": 0.0, "bike_id": "b876a0c0ead698dd132343a9b513211a"}, {"name": "47f65b49bc5b63988013aa07801a23a1", "is_reserved": 0, "is_disabled": 0, "lon": -77.036565, "rental_uris": {"android": "https://dc.lft.to/lastmile_qr_scan", "ios": "https://dc.lft.to/lastmile_qr_scan"}, "fusion_lon": 0.0, "lat": 38.94205083333333, "type": "electric_scooter", "fusion_lat": 0.0, "bike_id": "47f65b49bc5b63988013aa07801a23a1"}, {"name": "008893dbb62b7e1dddb9ff6404c31c7c", "is_reserved": 0, "is_disabled": 0, "lon": -76.97929716666667, "rental_uris": {"android": "https://dc.lft.to/lastmile_qr_scan", "ios": "https://dc.lft.to/lastmile_qr_scan"}, "fusion_lon": 0.0, "lat": 38.90248366666667, "type": "electric_scooter", "fusion_lat": 0.0, "bike_id": "008893dbb62b7e1dddb9ff6404c31c7c"}, {"name": "a0db31ad22915c907f521e83da27860a", "is_reserved": 0, "is_disabled": 0, "lon": -77.0320915, "rental_uris": {"android": "https://dc.lft.to/lastmile_qr_scan", "ios": "https://dc.lft.to/lastmile_qr_scan"}, "fusion_lon": 0.0, "lat": 38.89631283333333, "type": "electric_scooter", "fusion_lat": 0.0, "bike_id": "a0db31ad22915c907f521e83da27860a"}, {"name": "f2da8ae7d271c6d9df4aadcad77a28ca", "is_reserved": 0, "is_disabled": 0, "lon": -77.00205433333333, "rental_uris": {"android": "https://dc.lft.to/lastmile_qr_scan", "ios": "https://dc.lft.to/lastmile_qr_scan"}, "fusion_lon": 0.0, "lat": 38.902396833333334, "type": "electric_scooter", "fusion_lat": 0.0, "bike_id": "f2da8ae7d271c6d9df4aadcad77a28ca"}, {"name": "55924557dbd93913bda1ffa2c72dee06", "is_reserved": 0, "is_disabled": 0, "lon": -77.08436766666667, "rental_uris": {"android": "https://dc.lft.to/lastmile_qr_scan", "ios": "https://dc.lft.to/lastmile_qr_scan"}, "fusion_lon": 0.0, "lat": 38.81027266666667, "type": "electric_bike", "fusion_lat": 0.0, "bike_id": "55924557dbd93913bda1ffa2c72dee06"}, {"name": "59db33affa6bf05e4a470711db019b0c", "is_reserved": 0, "is_disabled": 0, "lon": -76.97505933333333, "rental_uris": {"android": "https://dc.lft.to/lastmile_qr_scan", "ios": "https://dc.lft.to/lastmile_qr_scan"}, "fusion_lon": 0.0, "lat": 38.91934583333333, "type": "electric_bike", "fusion_lat": 0.0, "bike_id": "59db33affa6bf05e4a470711db019b0c"}, {"name": "904711bac87c63c4cbdee73c900a3141", "is_reserved": 0, "is_disabled": 0, "lon": -77.06117366666666, "rental_uris": {"android": "https://dc.lft.to/lastmile_qr_scan", "ios": "https://dc.lft.to/lastmile_qr_scan"}, "fusion_lon": 0.0, "lat": 38.9044385, "type": "electric_scooter", "fusion_lat": 0.0, "bike_id": "904711bac87c63c4cbdee73c900a3141"}, {"name": "8d258ddfc829ac02471b6857c1fdd8ed", "is_reserved": 0, "is_disabled": 0, "lon": -77.03273216666666, "rental_uris": {"android": "https://dc.lft.to/lastmile_qr_scan", "ios": "https://dc.lft.to/lastmile_qr_scan"}, "fusion_lon": 0.0, "lat": 38.89885016666667, "type": "electric_scooter", "fusion_lat": 0.0, "bike_id": "8d258ddfc829ac02471b6857c1fdd8ed"}, {"name": "bbbf696c80fa393d2d3f02efab7c9d8d", "is_reserved": 0, "is_disabled": 0, "lon": -76.99139816666667, "rental_uris": {"android": "https://dc.lft.to/lastmile_qr_scan", "ios": "https://dc.lft.to/lastmile_qr_scan"}, "fusion_lon": 0.0, "lat": 38.88681666666667, "type": "electric_scooter", "fusion_lat": 0.0, "bike_id": "bbbf696c80fa393d2d3f02efab7c9d8d"}, {"name": "1637a3c04d748493dc325ab1e5b108b1", "is_reserved": 0, "is_disabled": 0, "lon": -77.03223533333333, "rental_uris": {"android": "https://dc.lft.to/lastmile_qr_scan", "ios": "https://dc.lft.to/lastmile_qr_scan"}, "fusion_lon": 0.0, "lat": 38.903606333333336, "type": "electric_scooter", "fusion_lat": 0.0, "bike_id": "1637a3c04d748493dc325ab1e5b108b1"}, {"name": "d9ee65a2c75dccd60b4744903b023bbd", "is_reserved": 0, "is_disabled": 0, "lon": -77.00600216666666, "rental_uris": {"android": "https://dc.lft.to/lastmile_qr_scan", "ios": "https://dc.lft.to/lastmile_qr_scan"}, "fusion_lon": 0.0, "lat": 38.8979555, "type": "electric_bike", "fusion_lat": 0.0, "bike_id": "d9ee65a2c75dccd60b4744903b023bbd"}, {"name": "3c9e0495eb4da4ed3bd4b3497836f599", "is_reserved": 0, "is_disabled": 0, "lon": -77.02346366666667, "rental_uris": {"android": "https://dc.lft.to/lastmile_qr_scan", "ios": "https://dc.lft.to/lastmile_qr_scan"}, "fusion_lon": 0.0, "lat": 38.9021575, "type": "electric_scooter", "fusion_lat": 0.0, "bike_id": "3c9e0495eb4da4ed3bd4b3497836f599"}, {"name": "bb85a320108bc9b6471fef003686bbef", "is_reserved": 0, "is_disabled": 0, "lon": -77.02902983333334, "rental_uris": {"android": "https://dc.lft.to/lastmile_qr_scan", "ios": "https://dc.lft.to/lastmile_qr_scan"}, "fusion_lon": 0.0, "lat": 38.95848466666666, "type": "electric_scooter", "fusion_lat": 0.0, "bike_id": "bb85a320108bc9b6471fef003686bbef"}, {"name": "5b882e39e8a8640de34c3cf95acc0cf2", "is_reserved": 0, "is_disabled": 0, "lon": -77.02342766666666, "rental_uris": {"android": "https://dc.lft.to/lastmile_qr_scan", "ios": "https://dc.lft.to/lastmile_qr_scan"}, "fusion_lon": 0.0, "lat": 38.88473616666667, "type": "electric_scooter", "fusion_lat": 0.0, "bike_id": "5b882e39e8a8640de34c3cf95acc0cf2"}, {"name": "bee2ae656566cc577778567bf3f1c359", "is_reserved": 0, "is_disabled": 0, "lon": -76.94157566666667, "rental_uris": {"android": "https://dc.lft.to/lastmile_qr_scan", "ios": "https://dc.lft.to/lastmile_qr_scan"}, "fusion_lon": 0.0, "lat": 38.88363666666667, "type": "electric_scooter", "fusion_lat": 0.0, "bike_id": "bee2ae656566cc577778567bf3f1c359"}, {"name": "1d45481b7078816c14444601180b4717", "is_reserved": 0, "is_disabled": 0, "lon": -77.00574016666667, "rental_uris": {"android": "https://dc.lft.to/lastmile_qr_scan", "ios": "https://dc.lft.to/lastmile_qr_scan"}, "fusion_lon": 0.0, "lat": 38.90340833333333, "type": "electric_scooter", "fusion_lat": 0.0, "bike_id": "1d45481b7078816c14444601180b4717"}, {"name": "92969e5c5cf8aecfda5d5f3815f7ddf1", "is_reserved": 0, "is_disabled": 0, "lon": -77.05269916666667, "rental_uris": {"android": "https://dc.lft.to/lastmile_qr_scan", "ios": "https://dc.lft.to/lastmile_qr_scan"}, "fusion_lon": 0.0, "lat": 38.9225055, "type": "electric_scooter", "fusion_lat": 0.0, "bike_id": "92969e5c5cf8aecfda5d5f3815f7ddf1"}, {"name": "0e1ef264742a14e08d24dd1fc3d7ea29", "is_reserved": 0, "is_disabled": 0, "lon": -77.02503483333334, "rental_uris": {"android": "https://dc.lft.to/lastmile_qr_scan", "ios": "https://dc.lft.to/lastmile_qr_scan"}, "fusion_lon": 0.0, "lat": 38.920971, "type": "electric_scooter", "fusion_lat": 0.0, "bike_id": "0e1ef264742a14e08d24dd1fc3d7ea29"}, {"name": "df454ae75df2a46e72a5bd9921a85763", "is_reserved": 0, "is_disabled": 0, "lon": -77.02617, "rental_uris": {"android": "https://dc.lft.to/lastmile_qr_scan", "ios": "https://dc.lft.to/lastmile_qr_scan"}, "fusion_lon": 0.0, "lat": 38.897235, "type": "electric_scooter", "fusion_lat": 0.0, "bike_id": "df454ae75df2a46e72a5bd9921a85763"}, {"name": "d28897f818475e096c0e9e6bf086b869", "is_reserved": 0, "is_disabled": 0, "lon": -77.04014016666666, "rental_uris": {"android": "https://dc.lft.to/lastmile_qr_scan", "ios": "https://dc.lft.to/lastmile_qr_scan"}, "fusion_lon": 0.0, "lat": 38.92205666666667, "type": "electric_scooter", "fusion_lat": 0.0, "bike_id": "d28897f818475e096c0e9e6bf086b869"}, {"name": "8d9c4a2f3d5373feb0911e1784f45d31", "is_reserved": 0, "is_disabled": 0, "lon": -77.0235035, "rental_uris": {"android": "https://dc.lft.to/lastmile_qr_scan", "ios": "https://dc.lft.to/lastmile_qr_scan"}, "fusion_lon": 0.0, "lat": 38.93532, "type": "electric_scooter", "fusion_lat": 0.0, "bike_id": "8d9c4a2f3d5373feb0911e1784f45d31"}, {"name": "3db6cebc187a6d1a30d753971e54d245", "is_reserved": 0, "is_disabled": 0, "lon": -77.001093, "rental_uris": {"android": "https://dc.lft.to/lastmile_qr_scan", "ios": "https://dc.lft.to/lastmile_qr_scan"}, "fusion_lon": 0.0, "lat": 38.917171833333335, "type": "electric_scooter", "fusion_lat": 0.0, "bike_id": "3db6cebc187a6d1a30d753971e54d245"}, {"name": "e47c13656bd9db6786be77de14fd10cf", "is_reserved": 0, "is_disabled": 0, "lon": -77.03384133333333, "rental_uris": {"android": "https://dc.lft.to/lastmile_qr_scan", "ios": "https://dc.lft.to/lastmile_qr_scan"}, "fusion_lon": 0.0, "lat": 38.886610166666664, "type": "electric_scooter", "fusion_lat": 0.0, "bike_id": "e47c13656bd9db6786be77de14fd10cf"}, {"name": "6dc6dcb21c0545717a309e615dfe343d", "is_reserved": 0, "is_disabled": 0, "lon": -77.04227316666666, "rental_uris": {"android": "https://dc.lft.to/lastmile_qr_scan", "ios": "https://dc.lft.to/lastmile_qr_scan"}, "fusion_lon": 0.0, "lat": 38.92168816666667, "type": "electric_scooter", "fusion_lat": 0.0, "bike_id": "6dc6dcb21c0545717a309e615dfe343d"}, {"name": "a8bb69767a77e1259266716e08adf271", "is_reserved": 0, "is_disabled": 0, "lon": -76.98725616666667, "rental_uris": {"android": "https://dc.lft.to/lastmile_qr_scan", "ios": "https://dc.lft.to/lastmile_qr_scan"}, "fusion_lon": 0.0, "lat": 38.867214833333335, "type": "electric_scooter", "fusion_lat": 0.0, "bike_id": "a8bb69767a77e1259266716e08adf271"}, {"name": "621dc703b5c80a0e73830449e90918eb", "is_reserved": 0, "is_disabled": 0, "lon": -77.04234066666666, "rental_uris": {"android": "https://dc.lft.to/lastmile_qr_scan", "ios": "https://dc.lft.to/lastmile_qr_scan"}, "fusion_lon": 0.0, "lat": 38.909312, "type": "electric_scooter", "fusion_lat": 0.0, "bike_id": "621dc703b5c80a0e73830449e90918eb"}, {"name": "633a1885ce18e084e9ffe6c789dab633", "is_reserved": 0, "is_disabled": 0, "lon": -77.02416233333334, "rental_uris": {"android": "https://dc.lft.to/lastmile_qr_scan", "ios": "https://dc.lft.to/lastmile_qr_scan"}, "fusion_lon": 0.0, "lat": 38.920548333333336, "type": "electric_scooter", "fusion_lat": 0.0, "bike_id": "633a1885ce18e084e9ffe6c789dab633"}, {"name": "8adeff7c0c77ec0dbb024d9e76e7b0cc", "is_reserved": 0, "is_disabled": 0, "lon": -77.08438983333333, "rental_uris": {"android": "https://dc.lft.to/lastmile_qr_scan", "ios": "https://dc.lft.to/lastmile_qr_scan"}, "fusion_lon": 0.0, "lat": 38.911748, "type": "electric_scooter", "fusion_lat": 0.0, "bike_id": "8adeff7c0c77ec0dbb024d9e76e7b0cc"}, {"name": "14dac91ed6c6ab4f3656f037c115f5b3", "is_reserved": 0, "is_disabled": 0, "lon": -77.016967, "rental_uris": {"android": "https://dc.lft.to/lastmile_qr_scan", "ios": "https://dc.lft.to/lastmile_qr_scan"}, "fusion_lon": 0.0, "lat": 38.920457166666665, "type": "electric_scooter", "fusion_lat": 0.0, "bike_id": "14dac91ed6c6ab4f3656f037c115f5b3"}, {"name": "e5a3b123e1f05c6c6d76b40eaaaade31", "is_reserved": 0, "is_disabled": 0, "lon": -76.99570316666667, "rental_uris": {"android": "https://dc.lft.to/lastmile_qr_scan", "ios": "https://dc.lft.to/lastmile_qr_scan"}, "fusion_lon": 0.0, "lat": 38.857648833333336, "type": "electric_scooter", "fusion_lat": 0.0, "bike_id": "e5a3b123e1f05c6c6d76b40eaaaade31"}, {"name": "bf3c5478363fd76e7e8bb6f314d86eec", "is_reserved": 0, "is_disabled": 0, "lon": -76.98331683333333, "rental_uris": {"android": "https://dc.lft.to/lastmile_qr_scan", "ios": "https://dc.lft.to/lastmile_qr_scan"}, "fusion_lon": 0.0, "lat": 38.88989433333333, "type": "electric_scooter", "fusion_lat": 0.0, "bike_id": "bf3c5478363fd76e7e8bb6f314d86eec"}, {"name": "04fd7d8f8ec354203e279dc0fabf2738", "is_reserved": 0, "is_disabled": 0, "lon": -76.99520616666666, "rental_uris": {"android": "https://dc.lft.to/lastmile_qr_scan", "ios": "https://dc.lft.to/lastmile_qr_scan"}, "fusion_lon": 0.0, "lat": 38.862629166666665, "type": "electric_scooter", "fusion_lat": 0.0, "bike_id": "04fd7d8f8ec354203e279dc0fabf2738"}, {"name": "2c53c2431cb627216472cb874acfe411", "is_reserved": 0, "is_disabled": 0, "lon": -77.0640815, "rental_uris": {"android": "https://dc.lft.to/lastmile_qr_scan", "ios": "https://dc.lft.to/lastmile_qr_scan"}, "fusion_lon": 0.0, "lat": 38.909236, "type": "electric_scooter", "fusion_lat": 0.0, "bike_id": "2c53c2431cb627216472cb874acfe411"}, {"name": "d5380b86130f364818c9cb03489389f8", "is_reserved": 0, "is_disabled": 0, "lon": -77.04766833333333, "rental_uris": {"android": "https://dc.lft.to/lastmile_qr_scan", "ios": "https://dc.lft.to/lastmile_qr_scan"}, "fusion_lon": 0.0, "lat": 38.917699999999996, "type": "electric_scooter", "fusion_lat": 0.0, "bike_id": "d5380b86130f364818c9cb03489389f8"}, {"name": "eeec0828eb71c6eed59933881c111a78", "is_reserved": 0, "is_disabled": 0, "lon": -77.0341065, "rental_uris": {"android": "https://dc.lft.to/lastmile_qr_scan", "ios": "https://dc.lft.to/lastmile_qr_scan"}, "fusion_lon": 0.0, "lat": 38.931727333333335, "type": "electric_scooter", "fusion_lat": 0.0, "bike_id": "eeec0828eb71c6eed59933881c111a78"}, {"name": "8e3b0a7896d4e6e7de546602f762dc64", "is_reserved": 0, "is_disabled": 0, "lon": -77.02969116666667, "rental_uris": {"android": "https://dc.lft.to/lastmile_qr_scan", "ios": "https://dc.lft.to/lastmile_qr_scan"}, "fusion_lon": 0.0, "lat": 38.89616216666667, "type": "electric_scooter", "fusion_lat": 0.0, "bike_id": "8e3b0a7896d4e6e7de546602f762dc64"}, {"name": "dc350e55f98b3d1ed20cd3e2a227acd9", "is_reserved": 0, "is_disabled": 0, "lon": -77.03848183333334, "rental_uris": {"android": "https://dc.lft.to/lastmile_qr_scan", "ios": "https://dc.lft.to/lastmile_qr_scan"}, "fusion_lon": 0.0, "lat": 38.910534, "type": "electric_scooter", "fusion_lat": 0.0, "bike_id": "dc350e55f98b3d1ed20cd3e2a227acd9"}, {"name": "f10e0114fe39d9f71902867d64cc9261", "is_reserved": 0, "is_disabled": 0, "lon": -77.00331183333333, "rental_uris": {"android": "https://dc.lft.to/lastmile_qr_scan", "ios": "https://dc.lft.to/lastmile_qr_scan"}, "fusion_lon": 0.0, "lat": 38.89366366666667, "type": "electric_scooter", "fusion_lat": 0.0, "bike_id": "f10e0114fe39d9f71902867d64cc9261"}, {"name": "17b1ff3f53d33e9fbfb0c45ac28713c2", "is_reserved": 0, "is_disabled": 0, "lon": -77.00020216666667, "rental_uris": {"android": "https://dc.lft.to/lastmile_qr_scan", "ios": "https://dc.lft.to/lastmile_qr_scan"}, "fusion_lon": 0.0, "lat": 38.90033783333333, "type": "electric_scooter", "fusion_lat": 0.0, "bike_id": "17b1ff3f53d33e9fbfb0c45ac28713c2"}, {"name": "16b6bf9f11100aef2ca7cd54952076fa", "is_reserved": 0, "is_disabled": 0, "lon": -76.994908, "rental_uris": {"android": "https://dc.lft.to/lastmile_qr_scan", "ios": "https://dc.lft.to/lastmile_qr_scan"}, "fusion_lon": 0.0, "lat": 38.862436, "type": "electric_scooter", "fusion_lat": 0.0, "bike_id": "16b6bf9f11100aef2ca7cd54952076fa"}, {"name": "8362dbc44bff9b3a1ec3647c372f87b3", "is_reserved": 0, "is_disabled": 0, "lon": -76.97303566666666, "rental_uris": {"android": "https://dc.lft.to/lastmile_qr_scan", "ios": "https://dc.lft.to/lastmile_qr_scan"}, "fusion_lon": 0.0, "lat": 38.919936166666666, "type": "electric_scooter", "fusion_lat": 0.0, "bike_id": "8362dbc44bff9b3a1ec3647c372f87b3"}, {"name": "fb613e083fc2119c7032b1d2ca538ea8", "is_reserved": 0, "is_disabled": 0, "lon": -77.10924733333333, "rental_uris": {"android": "https://dc.lft.to/lastmile_qr_scan", "ios": "https://dc.lft.to/lastmile_qr_scan"}, "fusion_lon": 0.0, "lat": 39.052024, "type": "electric_bike", "fusion_lat": 0.0, "bike_id": "fb613e083fc2119c7032b1d2ca538ea8"}, {"name": "041d2e881818e8af27561f62060ecaca", "is_reserved": 0, "is_disabled": 0, "lon": -77.00819716666666, "rental_uris": {"android": "https://dc.lft.to/lastmile_qr_scan", "ios": "https://dc.lft.to/lastmile_qr_scan"}, "fusion_lon": 0.0, "lat": 38.87639183333334, "type": "electric_scooter", "fusion_lat": 0.0, "bike_id": "041d2e881818e8af27561f62060ecaca"}, {"name": "fd58c184e4f78205d78e5ab475988420", "is_reserved": 0, "is_disabled": 0, "lon": -77.04899983333334, "rental_uris": {"android": "https://dc.lft.to/lastmile_qr_scan", "ios": "https://dc.lft.to/lastmile_qr_scan"}, "fusion_lon": 0.0, "lat": 38.8925445, "type": "electric_scooter", "fusion_lat": 0.0, "bike_id": "fd58c184e4f78205d78e5ab475988420"}, {"name": "18f4c432f1153ce9858c03f718c15fb3", "is_reserved": 0, "is_disabled": 0, "lon": -76.96511983333333, "rental_uris": {"android": "https://dc.lft.to/lastmile_qr_scan", "ios": "https://dc.lft.to/lastmile_qr_scan"}, "fusion_lon": 0.0, "lat": 38.87647333333334, "type": "electric_scooter", "fusion_lat": 0.0, "bike_id": "18f4c432f1153ce9858c03f718c15fb3"}, {"name": "00ea0de8a928ddbe941efd21458ad4ae", "is_reserved": 0, "is_disabled": 0, "lon": -77.043861, "rental_uris": {"android": "https://dc.lft.to/lastmile_qr_scan", "ios": "https://dc.lft.to/lastmile_qr_scan"}, "fusion_lon": 0.0, "lat": 38.92280083333333, "type": "electric_scooter", "fusion_lat": 0.0, "bike_id": "00ea0de8a928ddbe941efd21458ad4ae"}, {"name": "25e8a22bcb35ca9065b2a5a08d292570", "is_reserved": 0, "is_disabled": 0, "lon": -77.04660233333334, "rental_uris": {"android": "https://dc.lft.to/lastmile_qr_scan", "ios": "https://dc.lft.to/lastmile_qr_scan"}, "fusion_lon": 0.0, "lat": 38.904161, "type": "electric_scooter", "fusion_lat": 0.0, "bike_id": "25e8a22bcb35ca9065b2a5a08d292570"}, {"name": "c5513bbbf55698dfd5d0ef610bec2f28", "is_reserved": 0, "is_disabled": 0, "lon": -77.02373866666667, "rental_uris": {"android": "https://dc.lft.to/lastmile_qr_scan", "ios": "https://dc.lft.to/lastmile_qr_scan"}, "fusion_lon": 0.0, "lat": 38.8922385, "type": "electric_scooter", "fusion_lat": 0.0, "bike_id": "c5513bbbf55698dfd5d0ef610bec2f28"}, {"name": "7f1b273703090243b6d41ec776aa388e", "is_reserved": 0, "is_disabled": 0, "lon": -77.01755183333333, "rental_uris": {"android": "https://dc.lft.to/lastmile_qr_scan", "ios": "https://dc.lft.to/lastmile_qr_scan"}, "fusion_lon": 0.0, "lat": 38.908726333333334, "type": "electric_scooter", "fusion_lat": 0.0, "bike_id": "7f1b273703090243b6d41ec776aa388e"}, {"name": "9c679c7366ce236b251149a0775e8737", "is_reserved": 0, "is_disabled": 0, "lon": -77.04337533333333, "rental_uris": {"android": "https://dc.lft.to/lastmile_qr_scan", "ios": "https://dc.lft.to/lastmile_qr_scan"}, "fusion_lon": 0.0, "lat": 38.9034445, "type": "electric_scooter", "fusion_lat": 0.0, "bike_id": "9c679c7366ce236b251149a0775e8737"}, {"name": "19bba4e654fb8ee72f1eb4274994956f", "is_reserved": 0, "is_disabled": 0, "lon": -77.04355183333334, "rental_uris": {"android": "https://dc.lft.to/lastmile_qr_scan", "ios": "https://dc.lft.to/lastmile_qr_scan"}, "fusion_lon": 0.0, "lat": 38.90399633333333, "type": "electric_scooter", "fusion_lat": 0.0, "bike_id": "19bba4e654fb8ee72f1eb4274994956f"}, {"name": "c6fcadf32a492316d76e54028be0933a", "is_reserved": 0, "is_disabled": 0, "lon": -76.9903365, "rental_uris": {"android": "https://dc.lft.to/lastmile_qr_scan", "ios": "https://dc.lft.to/lastmile_qr_scan"}, "fusion_lon": 0.0, "lat": 38.85874233333333, "type": "electric_scooter", "fusion_lat": 0.0, "bike_id": "c6fcadf32a492316d76e54028be0933a"}, {"name": "8c3a842e33422133aa25317950a7dc6c", "is_reserved": 0, "is_disabled": 0, "lon": -77.04085283333333, "rental_uris": {"android": "https://dc.lft.to/lastmile_qr_scan", "ios": "https://dc.lft.to/lastmile_qr_scan"}, "fusion_lon": 0.0, "lat": 38.914848666666664, "type": "electric_scooter", "fusion_lat": 0.0, "bike_id": "8c3a842e33422133aa25317950a7dc6c"}, {"name": "f523e716e468df14da0cff6d6815bd8b", "is_reserved": 0, "is_disabled": 0, "lon": -77.0245365, "rental_uris": {"android": "https://dc.lft.to/lastmile_qr_scan", "ios": "https://dc.lft.to/lastmile_qr_scan"}, "fusion_lon": 0.0, "lat": 38.9289485, "type": "electric_scooter", "fusion_lat": 0.0, "bike_id": "f523e716e468df14da0cff6d6815bd8b"}, {"name": "0d61b184c8787e20d2b61aa3a064f5ac", "is_reserved": 0, "is_disabled": 0, "lon": -77.02368683333333, "rental_uris": {"android": "https://dc.lft.to/lastmile_qr_scan", "ios": "https://dc.lft.to/lastmile_qr_scan"}, "fusion_lon": 0.0, "lat": 38.93098083333334, "type": "electric_scooter", "fusion_lat": 0.0, "bike_id": "0d61b184c8787e20d2b61aa3a064f5ac"}, {"name": "569bde8e506d50f3a8575cafb8d9f76e", "is_reserved": 0, "is_disabled": 0, "lon": -76.98918133333333, "rental_uris": {"android": "https://dc.lft.to/lastmile_qr_scan", "ios": "https://dc.lft.to/lastmile_qr_scan"}, "fusion_lon": 0.0, "lat": 38.90231133333333, "type": "electric_scooter", "fusion_lat": 0.0, "bike_id": "569bde8e506d50f3a8575cafb8d9f76e"}, {"name": "773125c7a31aa8091591cacad96eedbe", "is_reserved": 0, "is_disabled": 0, "lon": -77.046583, "rental_uris": {"android": "https://dc.lft.to/lastmile_qr_scan", "ios": "https://dc.lft.to/lastmile_qr_scan"}, "fusion_lon": 0.0, "lat": 38.904223, "type": "electric_scooter", "fusion_lat": 0.0, "bike_id": "773125c7a31aa8091591cacad96eedbe"}, {"name": "08626528537c746146f4af435ebc486c", "is_reserved": 0, "is_disabled": 0, "lon": -77.04191316666666, "rental_uris": {"android": "https://dc.lft.to/lastmile_qr_scan", "ios": "https://dc.lft.to/lastmile_qr_scan"}, "fusion_lon": 0.0, "lat": 38.92341533333333, "type": "electric_scooter", "fusion_lat": 0.0, "bike_id": "08626528537c746146f4af435ebc486c"}, {"name": "9147abaf3386db048665eae9d74832ee", "is_reserved": 0, "is_disabled": 0, "lon": -76.94838583333333, "rental_uris": {"android": "https://dc.lft.to/lastmile_qr_scan", "ios": "https://dc.lft.to/lastmile_qr_scan"}, "fusion_lon": 0.0, "lat": 38.894933333333334, "type": "electric_scooter", "fusion_lat": 0.0, "bike_id": "9147abaf3386db048665eae9d74832ee"}, {"name": "2e580f94788c5cb83919dfe80b785b68", "is_reserved": 0, "is_disabled": 0, "lon": -77.05516233333333, "rental_uris": {"android": "https://dc.lft.to/lastmile_qr_scan", "ios": "https://dc.lft.to/lastmile_qr_scan"}, "fusion_lon": 0.0, "lat": 38.94417883333333, "type": "electric_scooter", "fusion_lat": 0.0, "bike_id": "2e580f94788c5cb83919dfe80b785b68"}, {"name": "f32cc37ad1d58b7fd04ec68291cf99a5", "is_reserved": 0, "is_disabled": 0, "lon": -77.03204333333333, "rental_uris": {"android": "https://dc.lft.to/lastmile_qr_scan", "ios": "https://dc.lft.to/lastmile_qr_scan"}, "fusion_lon": 0.0, "lat": 38.898362, "type": "electric_scooter", "fusion_lat": 0.0, "bike_id": "f32cc37ad1d58b7fd04ec68291cf99a5"}, {"name": "d4eaa978106b146a219f80fb9608eb6b", "is_reserved": 0, "is_disabled": 0, "lon": -76.94853516666667, "rental_uris": {"android": "https://dc.lft.to/lastmile_qr_scan", "ios": "https://dc.lft.to/lastmile_qr_scan"}, "fusion_lon": 0.0, "lat": 38.883028833333334, "type": "electric_scooter", "fusion_lat": 0.0, "bike_id": "d4eaa978106b146a219f80fb9608eb6b"}, {"name": "1407a9b629900796d9fa13fbbd4a958e", "is_reserved": 0, "is_disabled": 0, "lon": -77.00764566666666, "rental_uris": {"android": "https://dc.lft.to/lastmile_qr_scan", "ios": "https://dc.lft.to/lastmile_qr_scan"}, "fusion_lon": 0.0, "lat": 38.90735883333333, "type": "electric_scooter", "fusion_lat": 0.0, "bike_id": "1407a9b629900796d9fa13fbbd4a958e"}, {"name": "8f10c5e92e95c4b27d04d92d6c9b9222", "is_reserved": 0, "is_disabled": 0, "lon": -77.02981366666667, "rental_uris": {"android": "https://dc.lft.to/lastmile_qr_scan", "ios": "https://dc.lft.to/lastmile_qr_scan"}, "fusion_lon": 0.0, "lat": 38.93447833333333, "type": "electric_bike", "fusion_lat": 0.0, "bike_id": "8f10c5e92e95c4b27d04d92d6c9b9222"}, {"name": "3b71428fd5ec924775e74b266e98842e", "is_reserved": 0, "is_disabled": 0, "lon": -77.0314855, "rental_uris": {"android": "https://dc.lft.to/lastmile_qr_scan", "ios": "https://dc.lft.to/lastmile_qr_scan"}, "fusion_lon": 0.0, "lat": 38.887502, "type": "electric_scooter", "fusion_lat": 0.0, "bike_id": "3b71428fd5ec924775e74b266e98842e"}, {"name": "9f356b5a5f70d4618f87ec91dbc3a9f0", "is_reserved": 0, "is_disabled": 0, "lon": -77.06294866666667, "rental_uris": {"android": "https://dc.lft.to/lastmile_qr_scan", "ios": "https://dc.lft.to/lastmile_qr_scan"}, "fusion_lon": 0.0, "lat": 38.90399083333333, "type": "electric_scooter", "fusion_lat": 0.0, "bike_id": "9f356b5a5f70d4618f87ec91dbc3a9f0"}, {"name": "c5e0c09a3ebb2cc301286fbecc1b647e", "is_reserved": 0, "is_disabled": 0, "lon": -77.042361, "rental_uris": {"android": "https://dc.lft.to/lastmile_qr_scan", "ios": "https://dc.lft.to/lastmile_qr_scan"}, "fusion_lon": 0.0, "lat": 38.92245066666667, "type": "electric_scooter", "fusion_lat": 0.0, "bike_id": "c5e0c09a3ebb2cc301286fbecc1b647e"}, {"name": "b279a3f0e637a5cbb9c3b5949a8d7bef", "is_reserved": 0, "is_disabled": 0, "lon": -77.03901666666667, "rental_uris": {"android": "https://dc.lft.to/lastmile_qr_scan", "ios": "https://dc.lft.to/lastmile_qr_scan"}, "fusion_lon": 0.0, "lat": 38.92219516666667, "type": "electric_scooter", "fusion_lat": 0.0, "bike_id": "b279a3f0e637a5cbb9c3b5949a8d7bef"}, {"name": "6584eeeac19692136358814d8153a1d9", "is_reserved": 0, "is_disabled": 0, "lon": -77.02217816666666, "rental_uris": {"android": "https://dc.lft.to/lastmile_qr_scan", "ios": "https://dc.lft.to/lastmile_qr_scan"}, "fusion_lon": 0.0, "lat": 38.90074766666667, "type": "electric_scooter", "fusion_lat": 0.0, "bike_id": "6584eeeac19692136358814d8153a1d9"}, {"name": "009b69ed031769d662ce915a988e6969", "is_reserved": 0, "is_disabled": 0, "lon": -77.03263166666666, "rental_uris": {"android": "https://dc.lft.to/lastmile_qr_scan", "ios": "https://dc.lft.to/lastmile_qr_scan"}, "fusion_lon": 0.0, "lat": 38.92829183333333, "type": "electric_bike", "fusion_lat": 0.0, "bike_id": "009b69ed031769d662ce915a988e6969"}, {"name": "d5211e2ca27e420b9a232698419bab96", "is_reserved": 0, "is_disabled": 0, "lon": -77.0293695, "rental_uris": {"android": "https://dc.lft.to/lastmile_qr_scan", "ios": "https://dc.lft.to/lastmile_qr_scan"}, "fusion_lon": 0.0, "lat": 38.8980935, "type": "electric_scooter", "fusion_lat": 0.0, "bike_id": "d5211e2ca27e420b9a232698419bab96"}, {"name": "9d844f325b3a37135997231fdf78258e", "is_reserved": 0, "is_disabled": 0, "lon": -77.029706, "rental_uris": {"android": "https://dc.lft.to/lastmile_qr_scan", "ios": "https://dc.lft.to/lastmile_qr_scan"}, "fusion_lon": 0.0, "lat": 38.89616066666667, "type": "electric_scooter", "fusion_lat": 0.0, "bike_id": "9d844f325b3a37135997231fdf78258e"}, {"name": "1a9b51263febdb1868d73d3049e1e1a4", "is_reserved": 0, "is_disabled": 0, "lon": -77.0386045, "rental_uris": {"android": "https://dc.lft.to/lastmile_qr_scan", "ios": "https://dc.lft.to/lastmile_qr_scan"}, "fusion_lon": 0.0, "lat": 38.902842666666665, "type": "electric_scooter", "fusion_lat": 0.0, "bike_id": "1a9b51263febdb1868d73d3049e1e1a4"}, {"name": "43e90f104f0a99272c1fbc4453b356f3", "is_reserved": 0, "is_disabled": 0, "lon": -77.005463, "rental_uris": {"android": "https://dc.lft.to/lastmile_qr_scan", "ios": "https://dc.lft.to/lastmile_qr_scan"}, "fusion_lon": 0.0, "lat": 38.87459966666667, "type": "electric_scooter", "fusion_lat": 0.0, "bike_id": "43e90f104f0a99272c1fbc4453b356f3"}, {"name": "79e521e64ac50c75289d0b58332ab7c9", "is_reserved": 0, "is_disabled": 0, "lon": -77.09527733333333, "rental_uris": {"android": "https://dc.lft.to/lastmile_qr_scan", "ios": "https://dc.lft.to/lastmile_qr_scan"}, "fusion_lon": 0.0, "lat": 38.83813833333333, "type": "electric_bike", "fusion_lat": 0.0, "bike_id": "79e521e64ac50c75289d0b58332ab7c9"}, {"name": "bf523f1c05d15b3cefd08f2b30ac0f01", "is_reserved": 0, "is_disabled": 0, "lon": -77.050391, "rental_uris": {"android": "https://dc.lft.to/lastmile_qr_scan", "ios": "https://dc.lft.to/lastmile_qr_scan"}, "fusion_lon": 0.0, "lat": 38.89655916666667, "type": "electric_scooter", "fusion_lat": 0.0, "bike_id": "bf523f1c05d15b3cefd08f2b30ac0f01"}, {"name": "f05da07f6a4ff762269d15b51527f13b", "is_reserved": 0, "is_disabled": 0, "lon": -77.04209933333334, "rental_uris": {"android": "https://dc.lft.to/lastmile_qr_scan", "ios": "https://dc.lft.to/lastmile_qr_scan"}, "fusion_lon": 0.0, "lat": 38.92129666666666, "type": "electric_scooter", "fusion_lat": 0.0, "bike_id": "f05da07f6a4ff762269d15b51527f13b"}, {"name": "4d468ec05033464e8c4cc5a4502e90eb", "is_reserved": 0, "is_disabled": 0, "lon": -77.03441916666667, "rental_uris": {"android": "https://dc.lft.to/lastmile_qr_scan", "ios": "https://dc.lft.to/lastmile_qr_scan"}, "fusion_lon": 0.0, "lat": 38.910357166666664, "type": "electric_scooter", "fusion_lat": 0.0, "bike_id": "4d468ec05033464e8c4cc5a4502e90eb"}, {"name": "8ab39139cbafec073895b3eae0197d77", "is_reserved": 0, "is_disabled": 0, "lon": -77.062745, "rental_uris": {"android": "https://dc.lft.to/lastmile_qr_scan", "ios": "https://dc.lft.to/lastmile_qr_scan"}, "fusion_lon": 0.0, "lat": 38.90593833333333, "type": "electric_scooter", "fusion_lat": 0.0, "bike_id": "8ab39139cbafec073895b3eae0197d77"}, {"name": "a30b78770daced3e018acd0a1480d3ce", "is_reserved": 0, "is_disabled": 0, "lon": -76.96544583333333, "rental_uris": {"android": "https://dc.lft.to/lastmile_qr_scan", "ios": "https://dc.lft.to/lastmile_qr_scan"}, "fusion_lon": 0.0, "lat": 38.918470666666664, "type": "electric_scooter", "fusion_lat": 0.0, "bike_id": "a30b78770daced3e018acd0a1480d3ce"}, {"name": "1447850b46d0c58fd97b53851e0715a0", "is_reserved": 0, "is_disabled": 0, "lon": -77.06281933333334, "rental_uris": {"android": "https://dc.lft.to/lastmile_qr_scan", "ios": "https://dc.lft.to/lastmile_qr_scan"}, "fusion_lon": 0.0, "lat": 38.90367466666667, "type": "electric_scooter", "fusion_lat": 0.0, "bike_id": "1447850b46d0c58fd97b53851e0715a0"}, {"name": "f9b82a05806ca63726ddd71e5a61b4da", "is_reserved": 0, "is_disabled": 0, "lon": -77.06347833333334, "rental_uris": {"android": "https://dc.lft.to/lastmile_qr_scan", "ios": "https://dc.lft.to/lastmile_qr_scan"}, "fusion_lon": 0.0, "lat": 38.90848866666666, "type": "electric_scooter", "fusion_lat": 0.0, "bike_id": "f9b82a05806ca63726ddd71e5a61b4da"}, {"name": "18b8145cf2d938b719e187e68b4ffd8c", "is_reserved": 0, "is_disabled": 0, "lon": -77.040503, "rental_uris": {"android": "https://dc.lft.to/lastmile_qr_scan", "ios": "https://dc.lft.to/lastmile_qr_scan"}, "fusion_lon": 0.0, "lat": 38.905147, "type": "electric_scooter", "fusion_lat": 0.0, "bike_id": "18b8145cf2d938b719e187e68b4ffd8c"}, {"name": "1907902f884bff7dddbb9cfefa58d7de", "is_reserved": 0, "is_disabled": 0, "lon": -77.02510566666666, "rental_uris": {"android": "https://dc.lft.to/lastmile_qr_scan", "ios": "https://dc.lft.to/lastmile_qr_scan"}, "fusion_lon": 0.0, "lat": 38.930943666666664, "type": "electric_scooter", "fusion_lat": 0.0, "bike_id": "1907902f884bff7dddbb9cfefa58d7de"}, {"name": "450db98686cf2ac445d04ba5399ee91e", "is_reserved": 0, "is_disabled": 0, "lon": -77.01942083333333, "rental_uris": {"android": "https://dc.lft.to/lastmile_qr_scan", "ios": "https://dc.lft.to/lastmile_qr_scan"}, "fusion_lon": 0.0, "lat": 38.94855333333334, "type": "electric_scooter", "fusion_lat": 0.0, "bike_id": "450db98686cf2ac445d04ba5399ee91e"}, {"name": "9ab99dd1502113c7741f5b71fd5619fc", "is_reserved": 0, "is_disabled": 0, "lon": -77.02176083333333, "rental_uris": {"android": "https://dc.lft.to/lastmile_qr_scan", "ios": "https://dc.lft.to/lastmile_qr_scan"}, "fusion_lon": 0.0, "lat": 38.94314266666667, "type": "electric_scooter", "fusion_lat": 0.0, "bike_id": "9ab99dd1502113c7741f5b71fd5619fc"}, {"name": "23950c5c7e75bbc59c1898251d2762a3", "is_reserved": 0, "is_disabled": 0, "lon": -77.00595083333333, "rental_uris": {"android": "https://dc.lft.to/lastmile_qr_scan", "ios": "https://dc.lft.to/lastmile_qr_scan"}, "fusion_lon": 0.0, "lat": 38.90569683333333, "type": "electric_scooter", "fusion_lat": 0.0, "bike_id": "23950c5c7e75bbc59c1898251d2762a3"}, {"name": "7f5a4cc230dfe99af3ea6dbf6bddd10f", "is_reserved": 0, "is_disabled": 0, "lon": -76.92953966666667, "rental_uris": {"android": "https://dc.lft.to/lastmile_qr_scan", "ios": "https://dc.lft.to/lastmile_qr_scan"}, "fusion_lon": 0.0, "lat": 38.89878066666667, "type": "electric_scooter", "fusion_lat": 0.0, "bike_id": "7f5a4cc230dfe99af3ea6dbf6bddd10f"}, {"name": "df173f6e89456d1028b2868f5643de11", "is_reserved": 0, "is_disabled": 0, "lon": -77.03114366666667, "rental_uris": {"android": "https://dc.lft.to/lastmile_qr_scan", "ios": "https://dc.lft.to/lastmile_qr_scan"}, "fusion_lon": 0.0, "lat": 38.993955, "type": "electric_bike", "fusion_lat": 0.0, "bike_id": "df173f6e89456d1028b2868f5643de11"}, {"name": "bec7f46fcda042bc0dbfffe9cf6c57d5", "is_reserved": 0, "is_disabled": 0, "lon": -77.01204783333333, "rental_uris": {"android": "https://dc.lft.to/lastmile_qr_scan", "ios": "https://dc.lft.to/lastmile_qr_scan"}, "fusion_lon": 0.0, "lat": 38.89334516666667, "type": "electric_scooter", "fusion_lat": 0.0, "bike_id": "bec7f46fcda042bc0dbfffe9cf6c57d5"}, {"name": "af1bf1c0dc730982b6f1022b7f6435ce", "is_reserved": 0, "is_disabled": 0, "lon": -77.046627, "rental_uris": {"android": "https://dc.lft.to/lastmile_qr_scan", "ios": "https://dc.lft.to/lastmile_qr_scan"}, "fusion_lon": 0.0, "lat": 38.915696833333335, "type": "electric_scooter", "fusion_lat": 0.0, "bike_id": "af1bf1c0dc730982b6f1022b7f6435ce"}, {"name": "a8b958cf76852423555858ffd8854e07", "is_reserved": 0, "is_disabled": 0, "lon": -77.038811, "rental_uris": {"android": "https://dc.lft.to/lastmile_qr_scan", "ios": "https://dc.lft.to/lastmile_qr_scan"}, "fusion_lon": 0.0, "lat": 38.91978266666667, "type": "electric_scooter", "fusion_lat": 0.0, "bike_id": "a8b958cf76852423555858ffd8854e07"}, {"name": "bd87b8aa825dbacb87bf5d758ac67bd9", "is_reserved": 0, "is_disabled": 0, "lon": -77.03858566666666, "rental_uris": {"android": "https://dc.lft.to/lastmile_qr_scan", "ios": "https://dc.lft.to/lastmile_qr_scan"}, "fusion_lon": 0.0, "lat": 38.91129383333333, "type": "electric_scooter", "fusion_lat": 0.0, "bike_id": "bd87b8aa825dbacb87bf5d758ac67bd9"}, {"name": "bb2b55cde59cdd6b399538fdf7d45ad4", "is_reserved": 0, "is_disabled": 0, "lon": -76.99142916666666, "rental_uris": {"android": "https://dc.lft.to/lastmile_qr_scan", "ios": "https://dc.lft.to/lastmile_qr_scan"}, "fusion_lon": 0.0, "lat": 38.879125333333334, "type": "electric_scooter", "fusion_lat": 0.0, "bike_id": "bb2b55cde59cdd6b399538fdf7d45ad4"}, {"name": "6e197176133e4ea579245d580bbb3809", "is_reserved": 0, "is_disabled": 0, "lon": -77.00883866666666, "rental_uris": {"android": "https://dc.lft.to/lastmile_qr_scan", "ios": "https://dc.lft.to/lastmile_qr_scan"}, "fusion_lon": 0.0, "lat": 38.876333, "type": "electric_scooter", "fusion_lat": 0.0, "bike_id": "6e197176133e4ea579245d580bbb3809"}, {"name": "f3acc4651854bd80f7dfb58ee8138719", "is_reserved": 0, "is_disabled": 0, "lon": -77.13181216666666, "rental_uris": {"android": "https://dc.lft.to/lastmile_qr_scan", "ios": "https://dc.lft.to/lastmile_qr_scan"}, "fusion_lon": 0.0, "lat": 38.86907016666667, "type": "electric_bike", "fusion_lat": 0.0, "bike_id": "f3acc4651854bd80f7dfb58ee8138719"}, {"name": "ed493052f04a6c02d3ea03fd3c78594c", "is_reserved": 0, "is_disabled": 0, "lon": -77.0375685, "rental_uris": {"android": "https://dc.lft.to/lastmile_qr_scan", "ios": "https://dc.lft.to/lastmile_qr_scan"}, "fusion_lon": 0.0, "lat": 38.9247365, "type": "electric_scooter", "fusion_lat": 0.0, "bike_id": "ed493052f04a6c02d3ea03fd3c78594c"}, {"name": "48a778dc950a360851ca2582edc42141", "is_reserved": 0, "is_disabled": 0, "lon": -77.02814316666667, "rental_uris": {"android": "https://dc.lft.to/lastmile_qr_scan", "ios": "https://dc.lft.to/lastmile_qr_scan"}, "fusion_lon": 0.0, "lat": 38.90625933333333, "type": "electric_scooter", "fusion_lat": 0.0, "bike_id": "48a778dc950a360851ca2582edc42141"}, {"name": "650490823586fc53a3de5dfd6581b2ce", "is_reserved": 0, "is_disabled": 0, "lon": -77.01203333333333, "rental_uris": {"android": "https://dc.lft.to/lastmile_qr_scan", "ios": "https://dc.lft.to/lastmile_qr_scan"}, "fusion_lon": 0.0, "lat": 38.871513666666665, "type": "electric_scooter", "fusion_lat": 0.0, "bike_id": "650490823586fc53a3de5dfd6581b2ce"}, {"name": "cbded45ac5eea2b3324f05414ce6e8ab", "is_reserved": 0, "is_disabled": 0, "lon": -77.03414983333333, "rental_uris": {"android": "https://dc.lft.to/lastmile_qr_scan", "ios": "https://dc.lft.to/lastmile_qr_scan"}, "fusion_lon": 0.0, "lat": 38.9294645, "type": "electric_scooter", "fusion_lat": 0.0, "bike_id": "cbded45ac5eea2b3324f05414ce6e8ab"}, {"name": "f0727bb26b338f3bea5247f1bf2ee46a", "is_reserved": 0, "is_disabled": 0, "lon": -77.03111166666666, "rental_uris": {"android": "https://dc.lft.to/lastmile_qr_scan", "ios": "https://dc.lft.to/lastmile_qr_scan"}, "fusion_lon": 0.0, "lat": 38.89222266666667, "type": "electric_scooter", "fusion_lat": 0.0, "bike_id": "f0727bb26b338f3bea5247f1bf2ee46a"}, {"name": "5cb721f15af973c9a845597037a3c1bf", "is_reserved": 0, "is_disabled": 0, "lon": -77.03237883333334, "rental_uris": {"android": "https://dc.lft.to/lastmile_qr_scan", "ios": "https://dc.lft.to/lastmile_qr_scan"}, "fusion_lon": 0.0, "lat": 38.93883966666667, "type": "electric_scooter", "fusion_lat": 0.0, "bike_id": "5cb721f15af973c9a845597037a3c1bf"}, {"name": "4c0d4311e4228955db53ed89849e36dd", "is_reserved": 0, "is_disabled": 0, "lon": -77.034765, "rental_uris": {"android": "https://dc.lft.to/lastmile_qr_scan", "ios": "https://dc.lft.to/lastmile_qr_scan"}, "fusion_lon": 0.0, "lat": 38.902295333333335, "type": "electric_scooter", "fusion_lat": 0.0, "bike_id": "4c0d4311e4228955db53ed89849e36dd"}, {"name": "c12a98d7e5428923f2d638ff305db6eb", "is_reserved": 0, "is_disabled": 0, "lon": -77.03065783333334, "rental_uris": {"android": "https://dc.lft.to/lastmile_qr_scan", "ios": "https://dc.lft.to/lastmile_qr_scan"}, "fusion_lon": 0.0, "lat": 38.8804755, "type": "electric_scooter", "fusion_lat": 0.0, "bike_id": "c12a98d7e5428923f2d638ff305db6eb"}, {"name": "bd27b9e3b9b4cc4693eccee135afafe0", "is_reserved": 0, "is_disabled": 0, "lon": -77.048836, "rental_uris": {"android": "https://dc.lft.to/lastmile_qr_scan", "ios": "https://dc.lft.to/lastmile_qr_scan"}, "fusion_lon": 0.0, "lat": 38.904753666666664, "type": "electric_scooter", "fusion_lat": 0.0, "bike_id": "bd27b9e3b9b4cc4693eccee135afafe0"}, {"name": "bac30df44515e35e06244e411f07e018", "is_reserved": 0, "is_disabled": 0, "lon": -77.02692933333333, "rental_uris": {"android": "https://dc.lft.to/lastmile_qr_scan", "ios": "https://dc.lft.to/lastmile_qr_scan"}, "fusion_lon": 0.0, "lat": 38.9054505, "type": "electric_scooter", "fusion_lat": 0.0, "bike_id": "bac30df44515e35e06244e411f07e018"}, {"name": "c372a6b13ca51b5ab480bd191c28680f", "is_reserved": 0, "is_disabled": 0, "lon": -77.02784183333333, "rental_uris": {"android": "https://dc.lft.to/lastmile_qr_scan", "ios": "https://dc.lft.to/lastmile_qr_scan"}, "fusion_lon": 0.0, "lat": 38.881663833333334, "type": "electric_scooter", "fusion_lat": 0.0, "bike_id": "c372a6b13ca51b5ab480bd191c28680f"}, {"name": "313fe115d97a7462f9c9462779367873", "is_reserved": 0, "is_disabled": 0, "lon": -76.9976415, "rental_uris": {"android": "https://dc.lft.to/lastmile_qr_scan", "ios": "https://dc.lft.to/lastmile_qr_scan"}, "fusion_lon": 0.0, "lat": 39.005911833333336, "type": "electric_bike", "fusion_lat": 0.0, "bike_id": "313fe115d97a7462f9c9462779367873"}, {"name": "567b5e8e8bce8791ff9afcc49eeed04f", "is_reserved": 0, "is_disabled": 0, "lon": -77.0604715, "rental_uris": {"android": "https://dc.lft.to/lastmile_qr_scan", "ios": "https://dc.lft.to/lastmile_qr_scan"}, "fusion_lon": 0.0, "lat": 38.9391185, "type": "electric_scooter", "fusion_lat": 0.0, "bike_id": "567b5e8e8bce8791ff9afcc49eeed04f"}, {"name": "54d6494d1dcbb55189678699f7ae1381", "is_reserved": 0, "is_disabled": 0, "lon": -77.04674416666667, "rental_uris": {"android": "https://dc.lft.to/lastmile_qr_scan", "ios": "https://dc.lft.to/lastmile_qr_scan"}, "fusion_lon": 0.0, "lat": 38.89558, "type": "electric_scooter", "fusion_lat": 0.0, "bike_id": "54d6494d1dcbb55189678699f7ae1381"}, {"name": "5595e146877adb95c31ac259ff2f5b0e", "is_reserved": 0, "is_disabled": 0, "lon": -77.039833, "rental_uris": {"android": "https://dc.lft.to/lastmile_qr_scan", "ios": "https://dc.lft.to/lastmile_qr_scan"}, "fusion_lon": 0.0, "lat": 38.90926116666667, "type": "electric_scooter", "fusion_lat": 0.0, "bike_id": "5595e146877adb95c31ac259ff2f5b0e"}, {"name": "fa6af41416575f0a5fdb8102b6816edd", "is_reserved": 0, "is_disabled": 0, "lon": -77.022811, "rental_uris": {"android": "https://dc.lft.to/lastmile_qr_scan", "ios": "https://dc.lft.to/lastmile_qr_scan"}, "fusion_lon": 0.0, "lat": 38.926809, "type": "electric_scooter", "fusion_lat": 0.0, "bike_id": "fa6af41416575f0a5fdb8102b6816edd"}, {"name": "0000db8aa1f2be1af296c2549f10d3dd", "is_reserved": 0, "is_disabled": 0, "lon": -77.02896066666666, "rental_uris": {"android": "https://dc.lft.to/lastmile_qr_scan", "ios": "https://dc.lft.to/lastmile_qr_scan"}, "fusion_lon": 0.0, "lat": 38.917093, "type": "electric_scooter", "fusion_lat": 0.0, "bike_id": "0000db8aa1f2be1af296c2549f10d3dd"}, {"name": "440d6c8e7e85d52b0c219ca6f29bc390", "is_reserved": 0, "is_disabled": 0, "lon": -77.12903383333334, "rental_uris": {"android": "https://dc.lft.to/lastmile_qr_scan", "ios": "https://dc.lft.to/lastmile_qr_scan"}, "fusion_lon": 0.0, "lat": 38.863786, "type": "electric_bike", "fusion_lat": 0.0, "bike_id": "440d6c8e7e85d52b0c219ca6f29bc390"}, {"name": "3a211df7c722715eb71cee1ccc816eab", "is_reserved": 0, "is_disabled": 0, "lon": -77.00599083333333, "rental_uris": {"android": "https://dc.lft.to/lastmile_qr_scan", "ios": "https://dc.lft.to/lastmile_qr_scan"}, "fusion_lon": 0.0, "lat": 38.88379966666667, "type": "electric_scooter", "fusion_lat": 0.0, "bike_id": "3a211df7c722715eb71cee1ccc816eab"}, {"name": "ac4e02cb962eda67e21d201b709c3368", "is_reserved": 0, "is_disabled": 0, "lon": -77.0058275, "rental_uris": {"android": "https://dc.lft.to/lastmile_qr_scan", "ios": "https://dc.lft.to/lastmile_qr_scan"}, "fusion_lon": 0.0, "lat": 38.885297666666666, "type": "electric_scooter", "fusion_lat": 0.0, "bike_id": "ac4e02cb962eda67e21d201b709c3368"}, {"name": "69d09689f3c1e730ab12f76f1efa8729", "is_reserved": 0, "is_disabled": 0, "lon": -77.04535633333333, "rental_uris": {"android": "https://dc.lft.to/lastmile_qr_scan", "ios": "https://dc.lft.to/lastmile_qr_scan"}, "fusion_lon": 0.0, "lat": 38.918214666666664, "type": "electric_scooter", "fusion_lat": 0.0, "bike_id": "69d09689f3c1e730ab12f76f1efa8729"}, {"name": "e6f4b70ca55f5f9e13cd68a3e571f215", "is_reserved": 0, "is_disabled": 0, "lon": -77.07456266666667, "rental_uris": {"android": "https://dc.lft.to/lastmile_qr_scan", "ios": "https://dc.lft.to/lastmile_qr_scan"}, "fusion_lon": 0.0, "lat": 38.910945166666664, "type": "electric_scooter", "fusion_lat": 0.0, "bike_id": "e6f4b70ca55f5f9e13cd68a3e571f215"}, {"name": "6beb14e15769c38e16ecef98d9f94dad", "is_reserved": 0, "is_disabled": 0, "lon": -77.02309383333333, "rental_uris": {"android": "https://dc.lft.to/lastmile_qr_scan", "ios": "https://dc.lft.to/lastmile_qr_scan"}, "fusion_lon": 0.0, "lat": 38.90963133333333, "type": "electric_scooter", "fusion_lat": 0.0, "bike_id": "6beb14e15769c38e16ecef98d9f94dad"}, {"name": "9253d49cdcf4c724b5b76e90628840d4", "is_reserved": 0, "is_disabled": 0, "lon": -76.993909, "rental_uris": {"android": "https://dc.lft.to/lastmile_qr_scan", "ios": "https://dc.lft.to/lastmile_qr_scan"}, "fusion_lon": 0.0, "lat": 38.88452216666667, "type": "electric_scooter", "fusion_lat": 0.0, "bike_id": "9253d49cdcf4c724b5b76e90628840d4"}, {"name": "f5870754c687c95470c7f27cddde4afc", "is_reserved": 0, "is_disabled": 0, "lon": -77.06246816666666, "rental_uris": {"android": "https://dc.lft.to/lastmile_qr_scan", "ios": "https://dc.lft.to/lastmile_qr_scan"}, "fusion_lon": 0.0, "lat": 38.9052385, "type": "electric_scooter", "fusion_lat": 0.0, "bike_id": "f5870754c687c95470c7f27cddde4afc"}, {"name": "a6703a9f552088c0a72317a61441c20e", "is_reserved": 0, "is_disabled": 0, "lon": -77.02230866666666, "rental_uris": {"android": "https://dc.lft.to/lastmile_qr_scan", "ios": "https://dc.lft.to/lastmile_qr_scan"}, "fusion_lon": 0.0, "lat": 38.887712, "type": "electric_scooter", "fusion_lat": 0.0, "bike_id": "a6703a9f552088c0a72317a61441c20e"},