{"data": {"bikes": [{"is_disabled": 0, "fusion_lon": 0.0, "fusion_lat": 0.0, "lat": 38.9286255, "type": "electric_scooter", "lon": -76.99767766666666, "bike_id": "4ca8374ae22633f141d949f91150a4c1", "rental_uris": {"android": "https://dc.lft.to/lastmile_qr_scan", "ios": "https://dc.lft.to/lastmile_qr_scan"}, "name": "4ca8374ae22633f141d949f91150a4c1", "is_reserved": 0}, {"is_disabled": 0, "fusion_lon": 0.0, "fusion_lat": 0.0, "lat": 38.91343716666667, "type": "electric_scooter", "lon": -77.04161533333334, "bike_id": "036df9fd350482b92eae4efe382c0494", "rental_uris": {"android": "https://dc.lft.to/lastmile_qr_scan", "ios": "https://dc.lft.to/lastmile_qr_scan"}, "name": "036df9fd350482b92eae4efe382c0494", "is_reserved": 0}, {"is_disabled": 0, "fusion_lon": 0.0, "fusion_lat": 0.0, "lat": 38.91607533333333, "type": "electric_scooter", "lon": -77.04025166666666, "bike_id": "4a8c41186a0fd4cbb91feacfa8ae434c", "rental_uris": {"android": "https://dc.lft.to/lastmile_qr_scan", "ios": "https://dc.lft.to/lastmile_qr_scan"}, "name": "4a8c41186a0fd4cbb91feacfa8ae434c", "is_reserved": 0}, {"is_disabled": 0, "fusion_lon": 0.0, "fusion_lat": 0.0, "lat": 38.878787833333334, "type": "electric_scooter", "lon": -77.0231735, "bike_id": "ae0be472f62791ffb26ca671a8388a91", "rental_uris": {"android": "https://dc.lft.to/lastmile_qr_scan", "ios": "https://dc.lft.to/lastmile_qr_scan"}, "name": "ae0be472f62791ffb26ca671a8388a91", "is_reserved": 0}, {"is_disabled": 0, "fusion_lon": 0.0, "fusion_lat": 0.0, "lat": 38.89836316666667, "type": "electric_bike", "lon": -77.0296585, "bike_id": "24086e6187b773ab1aa3b950f0185a4b", "rental_uris": {"android": "https://dc.lft.to/lastmile_qr_scan", "ios": "https://dc.lft.to/lastmile_qr_scan"}, "name": "24086e6187b773ab1aa3b950f0185a4b", "is_reserved": 0}, {"is_disabled": 0, "fusion_lon": 0.0, "fusion_lat": 0.0, "lat": 38.852837666666666, "type": "electric_bike", "lon": -76.98152733333333, "bike_id": "f47c3ecbc1455eeaf36c2b4560396e68", "rental_uris": {"android": "https://dc.lft.to/lastmile_qr_scan", "ios": "https://dc.lft.to/lastmile_qr_scan"}, "name": "f47c3ecbc1455eeaf36c2b4560396e68", "is_reserved": 0}, {"is_disabled": 0, "fusion_lon": 0.0, "fusion_lat": 0.0, "lat": 38.90281683333333, "type": "electric_scooter", "lon": -77.03454016666667, "bike_id": "090c143d5a0f614fb7c549e5b4c74370", "rental_uris": {"android": "https://dc.lft.to/lastmile_qr_scan", "ios": "https://dc.lft.to/lastmile_qr_scan"}, "name": "090c143d5a0f614fb7c549e5b4c74370", "is_reserved": 0}, {"is_disabled": 0, "fusion_lon": 0.0, "fusion_lat": 0.0, "lat": 38.90281816666667, "type": "electric_scooter", "lon": -77.03437233333334, "bike_id": "9aab12226b81e4ca2bd9c5923d7c9617", "rental_uris": {"android": "https://dc.lft.to/lastmile_qr_scan", "ios": "https://dc.lft.to/lastmile_qr_scan"}, "name": "9aab12226b81e4ca2bd9c5923d7c9617", "is_reserved": 0}, {"is_disabled": 0, "fusion_lon": 0.0, "fusion_lat": 0.0, "lat": 38.934130833333334, "type": "electric_scooter", "lon": -77.03888316666666, "bike_id": "db058ef80f84d0142038bda0463dbd18", "rental_uris": {"android": "https://dc.lft.to/lastmile_qr_scan", "ios": "https://dc.lft.to/lastmile_qr_scan"}, "name": "db058ef80f84d0142038bda0463dbd18", "is_reserved": 0}, {"is_disabled": 0, "fusion_lon": 0.0, "fusion_lat": 0.0, "lat": 38.904755, "type": "electric_bike", "lon": -76.92949033333333, "bike_id": "e0f16c97e58db2de2abcd7b0f1b7e4e8", "rental_uris": {"android": "https://dc.lft.to/lastmile_qr_scan", "ios": "https://dc.lft.to/lastmile_qr_scan"}, "name": "e0f16c97e58db2de2abcd7b0f1b7e4e8", "is_reserved": 0}, {"is_disabled": 0, "fusion_lon": 0.0, "fusion_lat": 0.0, "lat": 38.90778233333333, "type": "electric_scooter", "lon": -77.04656933333334, "bike_id": "6352a37b3f246906e4ba4292644055a7", "rental_uris": {"android": "https://dc.lft.to/lastmile_qr_scan", "ios": "https://dc.lft.to/lastmile_qr_scan"}, "name": "6352a37b3f246906e4ba4292644055a7", "is_reserved": 0}, {"is_disabled": 0, "fusion_lon": 0.0, "fusion_lat": 0.0, "lat": 38.924713833333335, "type": "electric_scooter", "lon": -77.0446015, "bike_id": "8aa3fb1d93abce341cd72c65e50d90a3", "rental_uris": {"android": "https://dc.lft.to/lastmile_qr_scan", "ios": "https://dc.lft.to/lastmile_qr_scan"}, "name": "8aa3fb1d93abce341cd72c65e50d90a3", "is_reserved": 0}, {"is_disabled": 0, "fusion_lon": 0.0, "fusion_lat": 0.0, "lat": 38.923085, "type": "electric_scooter", "lon": -77.03103616666667, "bike_id": "b5e2e6b40dd44945648165f7c5c544a5", "rental_uris": {"android": "https://dc.lft.to/lastmile_qr_scan", "ios": "https://dc.lft.to/lastmile_qr_scan"}, "name": "b5e2e6b40dd44945648165f7c5c544a5", "is_reserved": 0}, {"is_disabled": 0, "fusion_lon": 0.0, "fusion_lat": 0.0, "lat": 38.90322366666667, "type": "electric_scooter", "lon": -77.02560483333333, "bike_id": "6204eb9fe9d3bcd6330d22613b0f08be", "rental_uris": {"android": "https://dc.lft.to/lastmile_qr_scan", "ios": "https://dc.lft.to/lastmile_qr_scan"}, "name": "6204eb9fe9d3bcd6330d22613b0f08be", "is_reserved": 0}, {"is_disabled": 0, "fusion_lon": 0.0, "fusion_lat": 0.0, "lat": 38.904404666666665, "type": "electric_scooter", "lon": -77.06109733333334, "bike_id": "dd792e1c3b22d1a67c2ba843d629f8c3", "rental_uris": {"android": "https://dc.lft.to/lastmile_qr_scan", "ios": "https://dc.lft.to/lastmile_qr_scan"}, "name": "dd792e1c3b22d1a67c2ba843d629f8c3", "is_reserved": 0}, {"is_disabled": 0, "fusion_lon": 0.0, "fusion_lat": 0.0, "lat": 38.96559583333333, "type": "electric_bike", "lon": -77.02300683333333, "bike_id": "d1e78b33106c54273642e9bec9dce1a4", "rental_uris": {"android": "https://dc.lft.to/lastmile_qr_scan", "ios": "https://dc.lft.to/lastmile_qr_scan"}, "name": "d1e78b33106c54273642e9bec9dce1a4", "is_reserved": 0}, {"is_disabled": 0, "fusion_lon": 0.0, "fusion_lat": 0.0, "lat": 38.92375083333334, "type": "electric_scooter", "lon": -77.050298, "bike_id": "e4fab4dd2f4f97e4b2e06335f55418c5", "rental_uris": {"android": "https://dc.lft.to/lastmile_qr_scan", "ios": "https://dc.lft.to/lastmile_qr_scan"}, "name": "e4fab4dd2f4f97e4b2e06335f55418c5", "is_reserved": 0}, {"is_disabled": 0, "fusion_lon": 0.0, "fusion_lat": 0.0, "lat": 38.913613166666664, "type": "electric_scooter", "lon": -77.03966616666666, "bike_id": "77d2834304915ac6f200e1afbb0f6108", "rental_uris": {"android": "https://dc.lft.to/lastmile_qr_scan", "ios": "https://dc.lft.to/lastmile_qr_scan"}, "name": "77d2834304915ac6f200e1afbb0f6108", "is_reserved": 0}, {"is_disabled": 0, "fusion_lon": 0.0, "fusion_lat": 0.0, "lat": 38.89408016666667, "type": "electric_scooter", "lon": -77.0215225, "bike_id": "c11802ad2f944de4f5baac29a69b098d", "rental_uris": {"android": "https://dc.lft.to/lastmile_qr_scan", "ios": "https://dc.lft.to/lastmile_qr_scan"}, "name": "c11802ad2f944de4f5baac29a69b098d", "is_reserved": 0}, {"is_disabled": 0, "fusion_lon": 0.0, "fusion_lat": 0.0, "lat": 38.9031655, "type": "electric_scooter", "lon": -77.02878716666666, "bike_id": "24e362c4934b8416899d9c9f96fcdd4c", "rental_uris": {"android": "https://dc.lft.to/lastmile_qr_scan", "ios": "https://dc.lft.to/lastmile_qr_scan"}, "name": "24e362c4934b8416899d9c9f96fcdd4c", "is_reserved": 0}, {"is_disabled": 0, "fusion_lon": 0.0, "fusion_lat": 0.0, "lat": 38.9075535, "type": "electric_scooter", "lon": -77.00273283333334, "bike_id": "e959afa5fe9f37881a270c0aeaf0209f", "rental_uris": {"android": "https://dc.lft.to/lastmile_qr_scan", "ios": "https://dc.lft.to/lastmile_qr_scan"}, "name": "e959afa5fe9f37881a270c0aeaf0209f", "is_reserved": 0}, {"is_disabled": 0, "fusion_lon": 0.0, "fusion_lat": 0.0, "lat": 38.90153433333333, "type": "electric_scooter", "lon": -77.05905033333333, "bike_id": "e103ad32f2b9eab8c3e832c26b7b7463", "rental_uris": {"android": "https://dc.lft.to/lastmile_qr_scan", "ios": "https://dc.lft.to/lastmile_qr_scan"}, "name": "e103ad32f2b9eab8c3e832c26b7b7463", "is_reserved": 0}, {"is_disabled": 0, "fusion_lon": 0.0, "fusion_lat": 0.0, "lat": 38.918943666666664, "type": "electric_scooter", "lon": -77.0446805, "bike_id": "39032180d526af8ab52bd8bc22b7c452", "rental_uris": {"android": "https://dc.lft.to/lastmile_qr_scan", "ios": "https://dc.lft.to/lastmile_qr_scan"}, "name": "39032180d526af8ab52bd8bc22b7c452", "is_reserved": 0}, {"is_disabled": 0, "fusion_lon": 0.0, "fusion_lat": 0.0, "lat": 38.913300666666665, "type": "electric_scooter", "lon": -77.03188966666667, "bike_id": "9c2b6c0f65408bc1183f9560fe8fa943", "rental_uris": {"android": "https://dc.lft.to/lastmile_qr_scan", "ios": "https://dc.lft.to/lastmile_qr_scan"}, "name": "9c2b6c0f65408bc1183f9560fe8fa943", "is_reserved": 0}, {"is_disabled": 0, "fusion_lon": 0.0, "fusion_lat": 0.0, "lat": 38.9126465, "type": "electric_scooter", "lon": -77.03366833333334, "bike_id": "d877659058f1282c59de851e9b2ee0a8", "rental_uris": {"android": "https://dc.lft.to/lastmile_qr_scan", "ios": "https://dc.lft.to/lastmile_qr_scan"}, "name": "d877659058f1282c59de851e9b2ee0a8", "is_reserved": 0}, {"is_disabled": 0, "fusion_lon": 0.0, "fusion_lat": 0.0, "lat": 38.925580333333336, "type": "electric_scooter", "lon": -77.03769683333333, "bike_id": "c4d3ef8d76b9db2f39bdfb5747678ced", "rental_uris": {"android": "https://dc.lft.to/lastmile_qr_scan", "ios": "https://dc.lft.to/lastmile_qr_scan"}, "name": "c4d3ef8d76b9db2f39bdfb5747678ced", "is_reserved": 0}, {"is_disabled": 0, "fusion_lon": 0.0, "fusion_lat": 0.0, "lat": 38.91311833333334, "type": "electric_scooter", "lon": -77.00843716666667, "bike_id": "b12c7379fd88d1febb593042a562adce", "rental_uris": {"android": "https://dc.lft.to/lastmile_qr_scan", "ios": "https://dc.lft.to/lastmile_qr_scan"}, "name": "b12c7379fd88d1febb593042a562adce", "is_reserved": 0}, {"is_disabled": 0, "fusion_lon": 0.0, "fusion_lat": 0.0, "lat": 38.946026333333336, "type": "electric_scooter", "lon": -77.02978566666667, "bike_id": "b4d825b55e486616dc540fb7f2a396ab", "rental_uris": {"android": "https://dc.lft.to/lastmile_qr_scan", "ios": "https://dc.lft.to/lastmile_qr_scan"}, "name": "b4d825b55e486616dc540fb7f2a396ab", "is_reserved": 0}, {"is_disabled": 0, "fusion_lon": 0.0, "fusion_lat": 0.0, "lat": 38.9180465, "type": "electric_scooter", "lon": -77.0343815, "bike_id": "c4d7e856e8b4f953b488188403c7f5a2", "rental_uris": {"android": "https://dc.lft.to/lastmile_qr_scan", "ios": "https://dc.lft.to/lastmile_qr_scan"}, "name": "c4d7e856e8b4f953b488188403c7f5a2", "is_reserved": 0}, {"is_disabled": 0, "fusion_lon": 0.0, "fusion_lat": 0.0, "lat": 38.922324333333336, "type": "electric_scooter", "lon": -77.03346633333334, "bike_id": "d125b495d963b444832e3bda45f57ddb", "rental_uris": {"android": "https://dc.lft.to/lastmile_qr_scan", "ios": "https://dc.lft.to/lastmile_qr_scan"}, "name": "d125b495d963b444832e3bda45f57ddb", "is_reserved": 0}, {"is_disabled": 0, "fusion_lon": 0.0, "fusion_lat": 0.0, "lat": 38.98994616666667, "type": "electric_scooter", "lon": -77.03362933333334, "bike_id": "63094320795c2da2c149be653b513e2d", "rental_uris": {"android": "https://dc.lft.to/lastmile_qr_scan", "ios": "https://dc.lft.to/lastmile_qr_scan"}, "name": "63094320795c2da2c149be653b513e2d", "is_reserved": 0}, {"is_disabled": 0, "fusion_lon": 0.0, "fusion_lat": 0.0, "lat": 38.911088, "type": "electric_scooter", "lon": -77.02417383333334, "bike_id": "942e4014b7cb61475e1f18bd5b814cec", "rental_uris": {"android": "https://dc.lft.to/lastmile_qr_scan", "ios": "https://dc.lft.to/lastmile_qr_scan"}, "name": "942e4014b7cb61475e1f18bd5b814cec", "is_reserved": 0}, {"is_disabled": 0, "fusion_lon": 0.0, "fusion_lat": 0.0, "lat": 38.8847555, "type": "electric_scooter", "lon": -77.02365566666667, "bike_id": "8260bf10c0764d887915292330db072d", "rental_uris": {"android": "https://dc.lft.to/lastmile_qr_scan", "ios": "https://dc.lft.to/lastmile_qr_scan"}, "name": "8260bf10c0764d887915292330db072d", "is_reserved": 0}, {"is_disabled": 0, "fusion_lon": 0.0, "fusion_lat": 0.0, "lat": 38.8879835, "type": "electric_bike", "lon": -76.92994166666666, "bike_id": "00bc38d2adc21a63ddcd1cafff1e37ca", "rental_uris": {"android": "https://dc.lft.to/lastmile_qr_scan", "ios": "https://dc.lft.to/lastmile_qr_scan"}, "name": "00bc38d2adc21a63ddcd1cafff1e37ca", "is_reserved": 0}, {"is_disabled": 0, "fusion_lon": 0.0, "fusion_lat": 0.0, "lat": 38.89582583333333, "type": "electric_scooter", "lon": -77.02194033333333, "bike_id": "74e44884697b83fd4718fcb1d592cd0f", "rental_uris": {"android": "https://dc.lft.to/lastmile_qr_scan", "ios": "https://dc.lft.to/lastmile_qr_scan"}, "name": "74e44884697b83fd4718fcb1d592cd0f", "is_reserved": 0}, {"is_disabled": 0, "fusion_lon": 0.0, "fusion_lat": 0.0, "lat": 38.82744533333333, "type": "electric_bike", "lon": -77.00854, "bike_id": "bee3ad21500c8cec029399efff38560a", "rental_uris": {"android": "https://dc.lft.to/lastmile_qr_scan", "ios": "https://dc.lft.to/lastmile_qr_scan"}, "name": "bee3ad21500c8cec029399efff38560a", "is_reserved": 0}, {"is_disabled": 0, "fusion_lon": 0.0, "fusion_lat": 0.0, "lat": 38.910303, "type": "electric_scooter", "lon": -77.04806933333333, "bike_id": "eb74fb620e842ecc0ed2f772db4f0051", "rental_uris": {"android": "https://dc.lft.to/lastmile_qr_scan", "ios": "https://dc.lft.to/lastmile_qr_scan"}, "name": "eb74fb620e842ecc0ed2f772db4f0051", "is_reserved": 0}, {"is_disabled": 0, "fusion_lon": 0.0, "fusion_lat": 0.0, "lat": 38.89832033333333, "type": "electric_scooter", "lon": -76.9805155, "bike_id": "92b50de1430e2d11760d6322add1a1bc", "rental_uris": {"android": "https://dc.lft.to/lastmile_qr_scan", "ios": "https://dc.lft.to/lastmile_qr_scan"}, "name": "92b50de1430e2d11760d6322add1a1bc", "is_reserved": 0}, {"is_disabled": 0, "fusion_lon": 0.0, "fusion_lat": 0.0, "lat": 38.94073266666667, "type": "electric_bike", "lon": -77.05290833333333, "bike_id": "4e24aa2465d2cd09a55bba6a99b70e74", "rental_uris": {"android": "https://dc.lft.to/lastmile_qr_scan", "ios": "https://dc.lft.to/lastmile_qr_scan"}, "name": "4e24aa2465d2cd09a55bba6a99b70e74", "is_reserved": 0}, {"is_disabled": 0, "fusion_lon": 0.0, "fusion_lat": 0.0, "lat": 39.008684, "type": "electric_bike", "lon": -77.07905766666667, "bike_id": "be3fa7b31bb936d96bb1ce5182d2e2c7", "rental_uris": {"android": "https://dc.lft.to/lastmile_qr_scan", "ios": "https://dc.lft.to/lastmile_qr_scan"}, "name": "be3fa7b31bb936d96bb1ce5182d2e2c7", "is_reserved": 0}, {"is_disabled": 0, "fusion_lon": 0.0, "fusion_lat": 0.0, "lat": 38.89374516666667, "type": "electric_scooter", "lon": -76.949951, "bike_id": "34a88626ff77f7ce1b311d680b4b7a3e", "rental_uris": {"android": "https://dc.lft.to/lastmile_qr_scan", "ios": "https://dc.lft.to/lastmile_qr_scan"}, "name": "34a88626ff77f7ce1b311d680b4b7a3e", "is_reserved": 0}, {"is_disabled": 0, "fusion_lon": 0.0, "fusion_lat": 0.0, "lat": 38.91114183333333, "type": "electric_scooter", "lon": -77.0450395, "bike_id": "5b478ca1c261891135162b0066299d48", "rental_uris": {"android": "https://dc.lft.to/lastmile_qr_scan", "ios": "https://dc.lft.to/lastmile_qr_scan"}, "name": "5b478ca1c261891135162b0066299d48", "is_reserved": 0}, {"is_disabled": 0, "fusion_lon": 0.0, "fusion_lat": 0.0, "lat": 38.94044783333333, "type": "electric_scooter", "lon": -77.02891916666667, "bike_id": "e719d1e782863f7217c350cf7c9d85f2", "rental_uris": {"android": "https://dc.lft.to/lastmile_qr_scan", "ios": "https://dc.lft.to/lastmile_qr_scan"}, "name": "e719d1e782863f7217c350cf7c9d85f2", "is_reserved": 0}, {"is_disabled": 0, "fusion_lon": 0.0, "fusion_lat": 0.0, "lat": 38.941971, "type": "electric_scooter", "lon": -77.02574533333333, "bike_id": "a592b4962f87fb73f07486253c48ede3", "rental_uris": {"android": "https://dc.lft.to/lastmile_qr_scan", "ios": "https://dc.lft.to/lastmile_qr_scan"}, "name": "a592b4962f87fb73f07486253c48ede3", "is_reserved": 0}, {"is_disabled": 0, "fusion_lon": 0.0, "fusion_lat": 0.0, "lat": 38.90966383333333, "type": "electric_scooter", "lon": -77.04453233333334, "bike_id": "120d2388ca0ba76c9eaf89a1b7945d6a", "rental_uris": {"android": "https://dc.lft.to/lastmile_qr_scan", "ios": "https://dc.lft.to/lastmile_qr_scan"}, "name": "120d2388ca0ba76c9eaf89a1b7945d6a", "is_reserved": 0}, {"is_disabled": 0, "fusion_lon": 0.0, "fusion_lat": 0.0, "lat": 38.952128, "type": "electric_scooter", "lon": -77.00340916666667, "bike_id": "82bc7f844417d1f71e0b4686e13fbe8f", "rental_uris": {"android": "https://dc.lft.to/lastmile_qr_scan", "ios": "https://dc.lft.to/lastmile_qr_scan"}, "name": "82bc7f844417d1f71e0b4686e13fbe8f", "is_reserved": 0}, {"is_disabled": 0, "fusion_lon": 0.0, "fusion_lat": 0.0, "lat": 38.96828816666667, "type": "electric_scooter", "lon": -77.0150855, "bike_id": "48d015157708063214b02b2a250d21f5", "rental_uris": {"android": "https://dc.lft.to/lastmile_qr_scan", "ios": "https://dc.lft.to/lastmile_qr_scan"}, "name": "48d015157708063214b02b2a250d21f5", "is_reserved": 0}, {"is_disabled": 0, "fusion_lon": 0.0, "fusion_lat": 0.0, "lat": 38.93323733333333, "type": "electric_scooter", "lon": -77.02924433333334, "bike_id": "23b40481c47b2f86176ef106b00d2373", "rental_uris": {"android": "https://dc.lft.to/lastmile_qr_scan", "ios": "https://dc.lft.to/lastmile_qr_scan"}, "name": "23b40481c47b2f86176ef106b00d2373", "is_reserved": 0}, {"is_disabled": 0, "fusion_lon": 0.0, "fusion_lat": 0.0, "lat": 38.92898783333333, "type": "electric_scooter", "lon": -77.0325345, "bike_id": "aa9c091b873290109c838add21248c18", "rental_uris": {"android": "https://dc.lft.to/lastmile_qr_scan", "ios": "https://dc.lft.to/lastmile_qr_scan"}, "name": "aa9c091b873290109c838add21248c18", "is_reserved": 0}, {"is_disabled": 0, "fusion_lon": 0.0, "fusion_lat": 0.0, "lat": 38.91391516666667, "type": "electric_scooter", "lon": -77.00046983333333, "bike_id": "c73f7262a7f4070a11f2880fbbad8834", "rental_uris": {"android": "https://dc.lft.to/lastmile_qr_scan", "ios": "https://dc.lft.to/lastmile_qr_scan"}, "name": "c73f7262a7f4070a11f2880fbbad8834", "is_reserved": 0}, {"is_disabled": 0, "fusion_lon": 0.0, "fusion_lat": 0.0, "lat": 38.89736033333333, "type": "electric_scooter", "lon": -77.02727966666667, "bike_id": "fd68b89813822b5990e01da650427d42", "rental_uris": {"android": "https://dc.lft.to/lastmile_qr_scan", "ios": "https://dc.lft.to/lastmile_qr_scan"}, "name": "fd68b89813822b5990e01da650427d42", "is_reserved": 0}, {"is_disabled": 0, "fusion_lon": 0.0, "fusion_lat": 0.0, "lat": 38.935332, "type": "electric_scooter", "lon": -77.02066633333334, "bike_id": "e3b202f4244f13b148a1e81fd629dba7", "rental_uris": {"android": "https://dc.lft.to/lastmile_qr_scan", "ios": "https://dc.lft.to/lastmile_qr_scan"}, "name": "e3b202f4244f13b148a1e81fd629dba7", "is_reserved": 0}, {"is_disabled": 0, "fusion_lon": 0.0, "fusion_lat": 0.0, "lat": 38.91413516666667, "type": "electric_scooter", "lon": -77.030682, "bike_id": "7390807005fd20398d67870a5d723a31", "rental_uris": {"android": "https://dc.lft.to/lastmile_qr_scan", "ios": "https://dc.lft.to/lastmile_qr_scan"}, "name": "7390807005fd20398d67870a5d723a31", "is_reserved": 0}, {"is_disabled": 0, "fusion_lon": 0.0, "fusion_lat": 0.0, "lat": 38.9131315, "type": "electric_scooter", "lon": -77.03187566666666, "bike_id": "fb249bf75a3fa1432b8124d960a870ee", "rental_uris": {"android": "https://dc.lft.to/lastmile_qr_scan", "ios": "https://dc.lft.to/lastmile_qr_scan"}, "name": "fb249bf75a3fa1432b8124d960a870ee", "is_reserved": 0}, {"is_disabled": 0, "fusion_lon": 0.0, "fusion_lat": 0.0, "lat": 38.970508833333334, "type": "electric_bike", "lon": -77.03081033333333, "bike_id": "032a36c387d76a2de465b312e2e8eb4f", "rental_uris": {"android": "https://dc.lft.to/lastmile_qr_scan", "ios": "https://dc.lft.to/lastmile_qr_scan"}, "name": "032a36c387d76a2de465b312e2e8eb4f", "is_reserved": 0}, {"is_disabled": 0, "fusion_lon": 0.0, "fusion_lat": 0.0, "lat": 38.9241995, "type": "electric_scooter", "lon": -77.05748616666666, "bike_id": "b865a29a3200aa3d14b56a324667c3ff", "rental_uris": {"android": "https://dc.lft.to/lastmile_qr_scan", "ios": "https://dc.lft.to/lastmile_qr_scan"}, "name": "b865a29a3200aa3d14b56a324667c3ff", "is_reserved": 0}, {"is_disabled": 0, "fusion_lon": 0.0, "fusion_lat": 0.0, "lat": 38.922662333333335, "type": "electric_scooter", "lon": -77.04204783333333, "bike_id": "2cbfefbc365743fd108af134918eb84c", "rental_uris": {"android": "https://dc.lft.to/lastmile_qr_scan", "ios": "https://dc.lft.to/lastmile_qr_scan"}, "name": "2cbfefbc365743fd108af134918eb84c", "is_reserved": 0}, {"is_disabled": 0, "fusion_lon": 0.0, "fusion_lat": 0.0, "lat": 38.876257333333335, "type": "electric_scooter", "lon": -76.96537433333333, "bike_id": "f97f15f708b5bd48e50f0d7b9f3697cb", "rental_uris": {"android": "https://dc.lft.to/lastmile_qr_scan", "ios": "https://dc.lft.to/lastmile_qr_scan"}, "name": "f97f15f708b5bd48e50f0d7b9f3697cb", "is_reserved": 0}, {"is_disabled": 0, "fusion_lon": 0.0, "fusion_lat": 0.0, "lat": 38.89730133333333, "type": "electric_scooter", "lon": -77.0241915, "bike_id": "263fb4dd4509e74c4625dcc8f6eb877a", "rental_uris": {"android": "https://dc.lft.to/lastmile_qr_scan", "ios": "https://dc.lft.to/lastmile_qr_scan"}, "name": "263fb4dd4509e74c4625dcc8f6eb877a", "is_reserved": 0}, {"is_disabled": 0, "fusion_lon": 0.0, "fusion_lat": 0.0, "lat": 38.914288166666665, "type": "electric_scooter", "lon": -77.029502, "bike_id": "88b01c19ee8c704517f0fc205832c5a1", "rental_uris": {"android": "https://dc.lft.to/lastmile_qr_scan", "ios": "https://dc.lft.to/lastmile_qr_scan"}, "name": "88b01c19ee8c704517f0fc205832c5a1", "is_reserved": 0}, {"is_disabled": 0, "fusion_lon": 0.0, "fusion_lat": 0.0, "lat": 38.91187083333333, "type": "electric_scooter", "lon": -77.03810466666667, "bike_id": "f2589a620186c574484730afdd867185", "rental_uris": {"android": "https://dc.lft.to/lastmile_qr_scan", "ios": "https://dc.lft.to/lastmile_qr_scan"}, "name": "f2589a620186c574484730afdd867185", "is_reserved": 0}, {"is_disabled": 0, "fusion_lon": 0.0, "fusion_lat": 0.0, "lat": 38.89544383333333, "type": "electric_scooter", "lon": -77.04040533333334, "bike_id": "e621fc9b19031af4ad908f3ec4c92817", "rental_uris": {"android": "https://dc.lft.to/lastmile_qr_scan", "ios": "https://dc.lft.to/lastmile_qr_scan"}, "name": "e621fc9b19031af4ad908f3ec4c92817", "is_reserved": 0}, {"is_disabled": 0, "fusion_lon": 0.0, "fusion_lat": 0.0, "lat": 38.9141605, "type": "electric_scooter", "lon": -77.03072516666667, "bike_id": "d34bfce2e14433244be7495816c445ce", "rental_uris": {"android": "https://dc.lft.to/lastmile_qr_scan", "ios": "https://dc.lft.to/lastmile_qr_scan"}, "name": "d34bfce2e14433244be7495816c445ce", "is_reserved": 0}, {"is_disabled": 0, "fusion_lon": 0.0, "fusion_lat": 0.0, "lat": 38.930983499999996, "type": "electric_scooter", "lon": -77.03264083333333, "bike_id": "ed2a7bbdcca5e76a4adeb9bfe53dc791", "rental_uris": {"android": "https://dc.lft.to/lastmile_qr_scan", "ios": "https://dc.lft.to/lastmile_qr_scan"}, "name": "ed2a7bbdcca5e76a4adeb9bfe53dc791", "is_reserved": 0}, {"is_disabled": 0, "fusion_lon": 0.0, "fusion_lat": 0.0, "lat": 38.92825716666667, "type": "electric_scooter", "lon": -77.02151983333333, "bike_id": "64c9d9e715e4cc95c721e42b0e5ad407", "rental_uris": {"android": "https://dc.lft.to/lastmile_qr_scan", "ios": "https://dc.lft.to/lastmile_qr_scan"}, "name": "64c9d9e715e4cc95c721e42b0e5ad407", "is_reserved": 0}, {"is_disabled": 0, "fusion_lon": 0.0, "fusion_lat": 0.0, "lat": 38.896753333333336, "type": "electric_scooter", "lon": -76.9761815, "bike_id": "e610597e41919ef39f9d6606bb7ca8bb", "rental_uris": {"android": "https://dc.lft.to/lastmile_qr_scan", "ios": "https://dc.lft.to/lastmile_qr_scan"}, "name": "e610597e41919ef39f9d6606bb7ca8bb", "is_reserved": 0}, {"is_disabled": 0, "fusion_lon": 0.0, "fusion_lat": 0.0, "lat": 38.90021633333333, "type": "electric_scooter", "lon": -77.05567283333333, "bike_id": "eb3fcc6abcd09a99bc83916c3a783912", "rental_uris": {"android": "https://dc.lft.to/lastmile_qr_scan", "ios": "https://dc.lft.to/lastmile_qr_scan"}, "name": "eb3fcc6abcd09a99bc83916c3a783912", "is_reserved": 0}, {"is_disabled": 0, "fusion_lon": 0.0, "fusion_lat": 0.0, "lat": 38.960235833333336, "type": "electric_bike", "lon": -77.04251033333334, "bike_id": "86516ebb7f82c04c666fc0aa1d91a1c2", "rental_uris": {"android": "https://dc.lft.to/lastmile_qr_scan", "ios": "https://dc.lft.to/lastmile_qr_scan"}, "name": "86516ebb7f82c04c666fc0aa1d91a1c2", "is_reserved": 0}, {"is_disabled": 0, "fusion_lon": 0.0, "fusion_lat": 0.0, "lat": 38.918183, "type": "electric_scooter", "lon": -77.0271625, "bike_id": "1ba15a38fb6331f29ebd68a0daec8aaf", "rental_uris": {"android": "https://dc.lft.to/lastmile_qr_scan", "ios": "https://dc.lft.to/lastmile_qr_scan"}, "name": "1ba15a38fb6331f29ebd68a0daec8aaf", "is_reserved": 0}, {"is_disabled": 0, "fusion_lon": 0.0, "fusion_lat": 0.0, "lat": 38.918419, "type": "electric_scooter", "lon": -77.03443233333333, "bike_id": "db8276b36db6c549bc2b5fb0f8aabfd5", "rental_uris": {"android": "https://dc.lft.to/lastmile_qr_scan", "ios": "https://dc.lft.to/lastmile_qr_scan"}, "name": "db8276b36db6c549bc2b5fb0f8aabfd5", "is_reserved": 0}, {"is_disabled": 0, "fusion_lon": 0.0, "fusion_lat": 0.0, "lat": 38.90244833333333, "type": "electric_bike", "lon": -76.970158, "bike_id": "a9dc0c47dd36e592b9e7651af65824e0", "rental_uris": {"android": "https://dc.lft.to/lastmile_qr_scan", "ios": "https://dc.lft.to/lastmile_qr_scan"}, "name": "a9dc0c47dd36e592b9e7651af65824e0", "is_reserved": 0}, {"is_disabled": 0, "fusion_lon": 0.0, "fusion_lat": 0.0, "lat": 38.922960333333336, "type": "electric_scooter", "lon": -77.0420245, "bike_id": "25e5f78e6be2af158a62500037179d49", "rental_uris": {"android": "https://dc.lft.to/lastmile_qr_scan", "ios": "https://dc.lft.to/lastmile_qr_scan"}, "name": "25e5f78e6be2af158a62500037179d49", "is_reserved": 0}, {"is_disabled": 0, "fusion_lon": 0.0, "fusion_lat": 0.0, "lat": 38.952290833333336, "type": "electric_scooter", "lon": -77.02758016666667, "bike_id": "b0bce02edaffde2b95290aa2caf22df2", "rental_uris": {"android": "https://dc.lft.to/lastmile_qr_scan", "ios": "https://dc.lft.to/lastmile_qr_scan"}, "name": "b0bce02edaffde2b95290aa2caf22df2", "is_reserved": 0}, {"is_disabled": 0, "fusion_lon": 0.0, "fusion_lat": 0.0, "lat": 38.908533166666665, "type": "electric_scooter", "lon": -77.04179933333333, "bike_id": "7c1c932d62ecd553a126754970f6b17e", "rental_uris": {"android": "https://dc.lft.to/lastmile_qr_scan", "ios": "https://dc.lft.to/lastmile_qr_scan"}, "name": "7c1c932d62ecd553a126754970f6b17e", "is_reserved": 0}, {"is_disabled": 0, "fusion_lon": 0.0, "fusion_lat": 0.0, "lat": 38.927392, "type": "electric_bike", "lon": -76.99360466666667, "bike_id": "84c952abbe1aa5012373bd5e71767b26", "rental_uris": {"android": "https://dc.lft.to/lastmile_qr_scan", "ios": "https://dc.lft.to/lastmile_qr_scan"}, "name": "84c952abbe1aa5012373bd5e71767b26", "is_reserved": 0}, {"is_disabled": 0, "fusion_lon": 0.0, "fusion_lat": 0.0, "lat": 38.902736, "type": "electric_scooter", "lon": -77.034329, "bike_id": "96053a4e26473e90a23deb48674fe6ad", "rental_uris": {"android": "https://dc.lft.to/lastmile_qr_scan", "ios": "https://dc.lft.to/lastmile_qr_scan"}, "name": "96053a4e26473e90a23deb48674fe6ad", "is_reserved": 0}, {"is_disabled": 0, "fusion_lon": 0.0, "fusion_lat": 0.0, "lat": 38.905479, "type": "electric_scooter", "lon": -77.046641, "bike_id": "0f54b93f87d257b494dc943d3ce7e9ac", "rental_uris": {"android": "https://dc.lft.to/lastmile_qr_scan", "ios": "https://dc.lft.to/lastmile_qr_scan"}, "name": "0f54b93f87d257b494dc943d3ce7e9ac", "is_reserved": 0}, {"is_disabled": 0, "fusion_lon": 0.0, "fusion_lat": 0.0, "lat": 38.85972, "type": "electric_scooter", "lon": -76.984034, "bike_id": "0c9891fc7c16be434ba0682f5d2fb454", "rental_uris": {"android": "https://dc.lft.to/lastmile_qr_scan", "ios": "https://dc.lft.to/lastmile_qr_scan"}, "name": "0c9891fc7c16be434ba0682f5d2fb454", "is_reserved": 0}, {"is_disabled": 0, "fusion_lon": 0.0, "fusion_lat": 0.0, "lat": 38.920225333333335, "type": "electric_bike", "lon": -76.973007, "bike_id": "38c2854c5c9099c05f9665e567326090", "rental_uris": {"android": "https://dc.lft.to/lastmile_qr_scan", "ios": "https://dc.lft.to/lastmile_qr_scan"}, "name": "38c2854c5c9099c05f9665e567326090", "is_reserved": 0}, {"is_disabled": 0, "fusion_lon": 0.0, "fusion_lat": 0.0, "lat": 38.85065483333333, "type": "electric_bike", "lon": -76.97337633333333, "bike_id": "492823ccf882d42c50e7f882f44b17c3", "rental_uris": {"android": "https://dc.lft.to/lastmile_qr_scan", "ios": "https://dc.lft.to/lastmile_qr_scan"}, "name": "492823ccf882d42c50e7f882f44b17c3", "is_reserved": 0}, {"is_disabled": 0, "fusion_lon": 0.0, "fusion_lat": 0.0, "lat": 38.9051065, "type": "electric_scooter", "lon": -77.06018033333334, "bike_id": "b4125ae6d29ed8a6765971a7423976aa", "rental_uris": {"android": "https://dc.lft.to/lastmile_qr_scan", "ios": "https://dc.lft.to/lastmile_qr_scan"}, "name": "b4125ae6d29ed8a6765971a7423976aa", "is_reserved": 0}, {"is_disabled": 0, "fusion_lon": 0.0, "fusion_lat": 0.0, "lat": 38.8996625, "type": "electric_scooter", "lon": -77.05536533333333, "bike_id": "6ac94170e12d3447b869c672ba828900", "rental_uris": {"android": "https://dc.lft.to/lastmile_qr_scan", "ios": "https://dc.lft.to/lastmile_qr_scan"}, "name": "6ac94170e12d3447b869c672ba828900", "is_reserved": 0}, {"is_disabled": 0, "fusion_lon": 0.0, "fusion_lat": 0.0, "lat": 38.90164716666666, "type": "electric_scooter", "lon": -77.02302383333334, "bike_id": "c9201dac4c8a5afc122da1555c04faf2", "rental_uris": {"android": "https://dc.lft.to/lastmile_qr_scan", "ios": "https://dc.lft.to/lastmile_qr_scan"}, "name": "c9201dac4c8a5afc122da1555c04faf2", "is_reserved": 0}, {"is_disabled": 0, "fusion_lon": 0.0, "fusion_lat": 0.0, "lat": 38.942013, "type": "electric_scooter", "lon": -77.02590833333333, "bike_id": "69b7cb7e51a9d25688be485ca825c342", "rental_uris": {"android": "https://dc.lft.to/lastmile_qr_scan", "ios": "https://dc.lft.to/lastmile_qr_scan"}, "name": "69b7cb7e51a9d25688be485ca825c342", "is_reserved": 0}, {"is_disabled": 0, "fusion_lon": 0.0, "fusion_lat": 0.0, "lat": 38.89604333333333, "type": "electric_scooter", "lon": -77.00926783333334, "bike_id": "1e495abdb5bdc4bf44737d29da8b11a1", "rental_uris": {"android": "https://dc.lft.to/lastmile_qr_scan", "ios": "https://dc.lft.to/lastmile_qr_scan"}, "name": "1e495abdb5bdc4bf44737d29da8b11a1", "is_reserved": 0}, {"is_disabled": 0, "fusion_lon": 0.0, "fusion_lat": 0.0, "lat": 38.90552516666666, "type": "electric_scooter", "lon": -77.03273233333333, "bike_id": "db580464af953ee245ccfe6b59430f88", "rental_uris": {"android": "https://dc.lft.to/lastmile_qr_scan", "ios": "https://dc.lft.to/lastmile_qr_scan"}, "name": "db580464af953ee245ccfe6b59430f88", "is_reserved": 0}, {"is_disabled": 0, "fusion_lon": 0.0, "fusion_lat": 0.0, "lat": 38.8768635, "type": "electric_scooter", "lon": -77.000648, "bike_id": "dd27cfdf797581330cb2c211d35ad3d8", "rental_uris": {"android": "https://dc.lft.to/lastmile_qr_scan", "ios": "https://dc.lft.to/lastmile_qr_scan"}, "name": "dd27cfdf797581330cb2c211d35ad3d8", "is_reserved": 0}, {"is_disabled": 0, "fusion_lon": 0.0, "fusion_lat": 0.0, "lat": 38.95953033333333, "type": "electric_bike", "lon": -77.02509866666666, "bike_id": "eca5976027fc90ee946769de21bad478", "rental_uris": {"android": "https://dc.lft.to/lastmile_qr_scan", "ios": "https://dc.lft.to/lastmile_qr_scan"}, "name": "eca5976027fc90ee946769de21bad478", "is_reserved": 0}, {"is_disabled": 0, "fusion_lon": 0.0, "fusion_lat": 0.0, "lat": 38.91610933333333, "type": "electric_scooter", "lon": -77.031468, "bike_id": "c19424b330d56bced8fb8db0e391408a", "rental_uris": {"android": "https://dc.lft.to/lastmile_qr_scan", "ios": "https://dc.lft.to/lastmile_qr_scan"}, "name": "c19424b330d56bced8fb8db0e391408a", "is_reserved": 0}, {"is_disabled": 0, "fusion_lon": 0.0, "fusion_lat": 0.0, "lat": 38.927655666666666, "type": "electric_scooter", "lon": -77.02838016666666, "bike_id": "be1f9633e3adf05812a3dddf173ae7ba", "rental_uris": {"android": "https://dc.lft.to/lastmile_qr_scan", "ios": "https://dc.lft.to/lastmile_qr_scan"}, "name": "be1f9633e3adf05812a3dddf173ae7ba", "is_reserved": 0}, {"is_disabled": 0, "fusion_lon": 0.0, "fusion_lat": 0.0, "lat": 38.961747, "type": "electric_scooter", "lon": -77.07351533333333, "bike_id": "095541af3155843bbaf64b082bd5d641", "rental_uris": {"android": "https://dc.lft.to/lastmile_qr_scan", "ios": "https://dc.lft.to/lastmile_qr_scan"}, "name": "095541af3155843bbaf64b082bd5d641", "is_reserved": 0}, {"is_disabled": 0, "fusion_lon": 0.0, "fusion_lat": 0.0, "lat": 38.85807033333333, "type": "electric_scooter", "lon": -76.98653133333333, "bike_id": "0c468e79bd786048e626c3c8972c3dc9", "rental_uris": {"android": "https://dc.lft.to/lastmile_qr_scan", "ios": "https://dc.lft.to/lastmile_qr_scan"}, "name": "0c468e79bd786048e626c3c8972c3dc9", "is_reserved": 0}, {"is_disabled": 0, "fusion_lon": 0.0, "fusion_lat": 0.0, "lat": 38.926043, "type": "electric_scooter", "lon": -77.0570325, "bike_id": "c9f6992199ca9259ea3d06b92c8cf240", "rental_uris": {"android": "https://dc.lft.to/lastmile_qr_scan", "ios": "https://dc.lft.to/lastmile_qr_scan"}, "name": "c9f6992199ca9259ea3d06b92c8cf240", "is_reserved": 0}, {"is_disabled": 0, "fusion_lon": 0.0, "fusion_lat": 0.0, "lat": 38.911829833333336, "type": "electric_scooter", "lon": -77.03503016666667, "bike_id": "1db31cdfdbbf9582777a15a610e2a2db", "rental_uris": {"android": "https://dc.lft.to/lastmile_qr_scan", "ios": "https://dc.lft.to/lastmile_qr_scan"}, "name": "1db31cdfdbbf9582777a15a610e2a2db", "is_reserved": 0}, {"is_disabled": 0, "fusion_lon": 0.0, "fusion_lat": 0.0, "lat": 38.8971505, "type": "electric_scooter", "lon": -77.00796816666667, "bike_id": "d71a3d9cfa8a634f6bbb4c4454506940", "rental_uris": {"android": "https://dc.lft.to/lastmile_qr_scan", "ios": "https://dc.lft.to/lastmile_qr_scan"}, "name": "d71a3d9cfa8a634f6bbb4c4454506940", "is_reserved": 0}, {"is_disabled": 0, "fusion_lon": 0.0, "fusion_lat": 0.0, "lat": 38.906813666666665, "type": "electric_scooter", "lon": -76.97998216666667, "bike_id": "d78d1d15e718d6cf338b11648cd4cf85", "rental_uris": {"android": "https://dc.lft.to/lastmile_qr_scan", "ios": "https://dc.lft.to/lastmile_qr_scan"}, "name": "d78d1d15e718d6cf338b11648cd4cf85", "is_reserved": 0}, {"is_disabled": 0, "fusion_lon": 0.0, "fusion_lat": 0.0, "lat": 38.916811333333335, "type": "electric_scooter", "lon": -77.0229805, "bike_id": "d1777174eb8e4087b365e18efdb8817d", "rental_uris": {"android": "https://dc.lft.to/lastmile_qr_scan", "ios": "https://dc.lft.to/lastmile_qr_scan"}, "name": "d1777174eb8e4087b365e18efdb8817d", "is_reserved": 0}, {"is_disabled": 0, "fusion_lon": 0.0, "fusion_lat": 0.0, "lat": 38.8652635, "type": "electric_scooter", "lon": -76.98968933333333, "bike_id": "40c98ec2836aa21403106289b9f6de18", "rental_uris": {"android": "https://dc.lft.to/lastmile_qr_scan", "ios": "https://dc.lft.to/lastmile_qr_scan"}, "name": "40c98ec2836aa21403106289b9f6de18", "is_reserved": 0}, {"is_disabled": 0, "fusion_lon": 0.0, "fusion_lat": 0.0, "lat": 38.90873166666667, "type": "electric_scooter", "lon": -77.0353565, "bike_id": "6dcca563d4d14a7b0fb5d7173b5d7fa5", "rental_uris": {"android": "https://dc.lft.to/lastmile_qr_scan", "ios": "https://dc.lft.to/lastmile_qr_scan"}, "name": "6dcca563d4d14a7b0fb5d7173b5d7fa5", "is_reserved": 0}, {"is_disabled": 0, "fusion_lon": 0.0, "fusion_lat": 0.0, "lat": 38.9223805, "type": "electric_scooter", "lon": -77.0389105, "bike_id": "6c5b7dafca7445d4f10c309d5b5b0892", "rental_uris": {"android": "https://dc.lft.to/lastmile_qr_scan", "ios": "https://dc.lft.to/lastmile_qr_scan"}, "name": "6c5b7dafca7445d4f10c309d5b5b0892", "is_reserved": 0}, {"is_disabled": 0, "fusion_lon": 0.0, "fusion_lat": 0.0, "lat": 38.90927766666667, "type": "electric_scooter", "lon": -77.02819933333333, "bike_id": "bd7689ffeaeb460d2712b01897f48ed8", "rental_uris": {"android": "https://dc.lft.to/lastmile_qr_scan", "ios": "https://dc.lft.to/lastmile_qr_scan"}, "name": "bd7689ffeaeb460d2712b01897f48ed8", "is_reserved": 0}, {"is_disabled": 0, "fusion_lon": 0.0, "fusion_lat": 0.0, "lat": 38.875470666666665, "type": "electric_scooter", "lon": -77.00534016666667, "bike_id": "e7e48ca44fb990a59c1396d3b9afe982", "rental_uris": {"android": "https://dc.lft.to/lastmile_qr_scan", "ios": "https://dc.lft.to/lastmile_qr_scan"}, "name": "e7e48ca44fb990a59c1396d3b9afe982", "is_reserved": 0}, {"is_disabled": 0, "fusion_lon": 0.0, "fusion_lat": 0.0, "lat": 38.9036, "type": "electric_scooter", "lon": -77.040095, "bike_id": "534d9b5a4b570e8fd9f4c707fc493877", "rental_uris": {"android": "https://dc.lft.to/lastmile_qr_scan", "ios": "https://dc.lft.to/lastmile_qr_scan"}, "name": "534d9b5a4b570e8fd9f4c707fc493877", "is_reserved": 0}, {"is_disabled": 0, "fusion_lon": 0.0, "fusion_lat": 0.0, "lat": 38.96192383333333, "type": "electric_scooter", "lon": -77.0278025, "bike_id": "9d9e6c0e96e99bd1420bfe44e3a1d43d", "rental_uris": {"android": "https://dc.lft.to/lastmile_qr_scan", "ios": "https://dc.lft.to/lastmile_qr_scan"}, "name": "9d9e6c0e96e99bd1420bfe44e3a1d43d", "is_reserved": 0}, {"is_disabled": 0, "fusion_lon": 0.0, "fusion_lat": 0.0, "lat": 38.88918366666667, "type": "electric_scooter", "lon": -76.980103, "bike_id": "252bd7d880929a1a00667ce816662241", "rental_uris": {"android": "https://dc.lft.to/lastmile_qr_scan", "ios": "https://dc.lft.to/lastmile_qr_scan"}, "name": "252bd7d880929a1a00667ce816662241", "is_reserved": 0}, {"is_disabled": 0, "fusion_lon": 0.0, "fusion_lat": 0.0, "lat": 38.904166000000004, "type": "electric_scooter", "lon": -77.06874683333334, "bike_id": "6cc1f01f4a3ffb74046f8fbd63a1d855", "rental_uris": {"android": "https://dc.lft.to/lastmile_qr_scan", "ios": "https://dc.lft.to/lastmile_qr_scan"}, "name": "6cc1f01f4a3ffb74046f8fbd63a1d855", "is_reserved": 0}, {"is_disabled": 0, "fusion_lon": 0.0, "fusion_lat": 0.0, "lat": 38.90590383333333, "type": "electric_scooter", "lon": -77.06911, "bike_id": "8e2189bd65bac96e052b4914f3178858", "rental_uris": {"android": "https://dc.lft.to/lastmile_qr_scan", "ios": "https://dc.lft.to/lastmile_qr_scan"}, "name": "8e2189bd65bac96e052b4914f3178858", "is_reserved": 0}, {"is_disabled": 0, "fusion_lon": 0.0, "fusion_lat": 0.0, "lat": 38.908230833333334, "type": "electric_scooter", "lon": -77.001436, "bike_id": "1a10f562b8bcfb8f8ae5ad51a512c49b", "rental_uris": {"android": "https://dc.lft.to/lastmile_qr_scan", "ios": "https://dc.lft.to/lastmile_qr_scan"}, "name": "1a10f562b8bcfb8f8ae5ad51a512c49b", "is_reserved": 0}, {"is_disabled": 0, "fusion_lon": 0.0, "fusion_lat": 0.0, "lat": 38.90708983333333, "type": "electric_scooter", "lon": -77.0298155, "bike_id": "3017c0f7780baf8d9a0a37c70aa9233a", "rental_uris": {"android": "https://dc.lft.to/lastmile_qr_scan", "ios": "https://dc.lft.to/lastmile_qr_scan"}, "name": "3017c0f7780baf8d9a0a37c70aa9233a", "is_reserved": 0}, {"is_disabled": 0, "fusion_lon": 0.0, "fusion_lat": 0.0, "lat": 38.915818, "type": "electric_scooter", "lon": -77.03192483333333, "bike_id": "21f6c59f31c3482e62b679faccafcb78", "rental_uris": {"android": "https://dc.lft.to/lastmile_qr_scan", "ios": "https://dc.lft.to/lastmile_qr_scan"}, "name": "21f6c59f31c3482e62b679faccafcb78", "is_reserved": 0}, {"is_disabled": 0, "fusion_lon": 0.0, "fusion_lat": 0.0, "lat": 38.87194983333333, "type": "electric_scooter", "lon": -76.97821716666667, "bike_id": "3d8ec66556b3b64d3063eb7133e90403", "rental_uris": {"android": "https://dc.lft.to/lastmile_qr_scan", "ios": "https://dc.lft.to/lastmile_qr_scan"}, "name": "3d8ec66556b3b64d3063eb7133e90403", "is_reserved": 0}, {"is_disabled": 0, "fusion_lon": 0.0, "fusion_lat": 0.0, "lat": 38.918269333333335, "type": "electric_scooter", "lon": -77.04508716666666, "bike_id": "56b0e1162fdd13d4a59da54c98ebf0d2", "rental_uris": {"android": "https://dc.lft.to/lastmile_qr_scan", "ios": "https://dc.lft.to/lastmile_qr_scan"}, "name": "56b0e1162fdd13d4a59da54c98ebf0d2", "is_reserved": 0}, {"is_disabled": 0, "fusion_lon": 0.0, "fusion_lat": 0.0, "lat": 38.901907, "type": "electric_scooter", "lon": -77.05915583333334, "bike_id": "70075267ecc2fa8de831b5cdefe31dda", "rental_uris": {"android": "https://dc.lft.to/lastmile_qr_scan", "ios": "https://dc.lft.to/lastmile_qr_scan"}, "name": "70075267ecc2fa8de831b5cdefe31dda", "is_reserved": 0}, {"is_disabled": 0, "fusion_lon": 0.0, "fusion_lat": 0.0, "lat": 38.89233816666667, "type": "electric_scooter", "lon": -77.03211516666667, "bike_id": "d57f2605efe255bbb7c56fc934043e4f", "rental_uris": {"android": "https://dc.lft.to/lastmile_qr_scan", "ios": "https://dc.lft.to/lastmile_qr_scan"}, "name": "d57f2605efe255bbb7c56fc934043e4f", "is_reserved": 0}, {"is_disabled": 0, "fusion_lon": 0.0, "fusion_lat": 0.0, "lat": 38.92436933333333, "type": "electric_bike", "lon": -76.90755266666666, "bike_id": "835e7cd3a9ade6ffe949cb8b2ad85be8", "rental_uris": {"android": "https://dc.lft.to/lastmile_qr_scan", "ios": "https://dc.lft.to/lastmile_qr_scan"}, "name": "835e7cd3a9ade6ffe949cb8b2ad85be8", "is_reserved": 0}, {"is_disabled": 0, "fusion_lon": 0.0, "fusion_lat": 0.0, "lat": 38.8983825, "type": "electric_scooter", "lon": -77.02793716666666, "bike_id": "dedc46e59ae2cf44e2a46c962634d169", "rental_uris": {"android": "https://dc.lft.to/lastmile_qr_scan", "ios": "https://dc.lft.to/lastmile_qr_scan"}, "name": "dedc46e59ae2cf44e2a46c962634d169", "is_reserved": 0}, {"is_disabled": 0, "fusion_lon": 0.0, "fusion_lat": 0.0, "lat": 38.90934766666667, "type": "electric_scooter", "lon": -77.03518466666667, "bike_id": "60d004ee16556da9ec7352fcc281296d", "rental_uris": {"android": "https://dc.lft.to/lastmile_qr_scan", "ios": "https://dc.lft.to/lastmile_qr_scan"}, "name": "60d004ee16556da9ec7352fcc281296d", "is_reserved": 0}, {"is_disabled": 0, "fusion_lon": 0.0, "fusion_lat": 0.0, "lat": 38.863546166666666, "type": "electric_scooter", "lon": -76.9906805, "bike_id": "a0e3f402b91b36ebd54fb3ada1abf879", "rental_uris": {"android": "https://dc.lft.to/lastmile_qr_scan", "ios": "https://dc.lft.to/lastmile_qr_scan"}, "name": "a0e3f402b91b36ebd54fb3ada1abf879", "is_reserved": 0}, {"is_disabled": 0, "fusion_lon": 0.0, "fusion_lat": 0.0, "lat": 38.913184666666666, "type": "electric_scooter", "lon": -77.03195333333333, "bike_id": "bc3bd0b19fd08e09ec6eb770e7c580e6", "rental_uris": {"android": "https://dc.lft.to/lastmile_qr_scan", "ios": "https://dc.lft.to/lastmile_qr_scan"}, "name": "bc3bd0b19fd08e09ec6eb770e7c580e6", "is_reserved": 0}, {"is_disabled": 0, "fusion_lon": 0.0, "fusion_lat": 0.0, "lat": 38.898238666666664, "type": "electric_scooter", "lon": -77.04313666666667, "bike_id": "ebcb7c5118484eff025ef670860e6570", "rental_uris": {"android": "https://dc.lft.to/lastmile_qr_scan", "ios": "https://dc.lft.to/lastmile_qr_scan"}, "name": "ebcb7c5118484eff025ef670860e6570", "is_reserved": 0}, {"is_disabled": 0, "fusion_lon": 0.0, "fusion_lat": 0.0, "lat": 38.892262333333335, "type": "electric_scooter", "lon": -77.02174816666667, "bike_id": "4c166a06f9c05c2b1961413e0fee5921", "rental_uris": {"android": "https://dc.lft.to/lastmile_qr_scan", "ios": "https://dc.lft.to/lastmile_qr_scan"}, "name": "4c166a06f9c05c2b1961413e0fee5921", "is_reserved": 0}, {"is_disabled": 0, "fusion_lon": 0.0, "fusion_lat": 0.0, "lat": 38.909642166666664, "type": "electric_scooter", "lon": -77.047714, "bike_id": "7040f356aefee171e294626e21da05be", "rental_uris": {"android": "https://dc.lft.to/lastmile_qr_scan", "ios": "https://dc.lft.to/lastmile_qr_scan"}, "name": "7040f356aefee171e294626e21da05be", "is_reserved": 0}, {"is_disabled": 0, "fusion_lon": 0.0, "fusion_lat": 0.0, "lat": 38.91046333333333, "type": "electric_scooter", "lon": -77.04345783333333, "bike_id": "600e95c644888c921062b1cc055d9405", "rental_uris": {"android": "https://dc.lft.to/lastmile_qr_scan", "ios": "https://dc.lft.to/lastmile_qr_scan"}, "name": "600e95c644888c921062b1cc055d9405", "is_reserved": 0}, {"is_disabled": 0, "fusion_lon": 0.0, "fusion_lat": 0.0, "lat": 38.903064, "type": "electric_scooter", "lon": -77.02131266666666, "bike_id": "c53ebc26c2dc3589021e75b8c6865181", "rental_uris": {"android": "https://dc.lft.to/lastmile_qr_scan", "ios": "https://dc.lft.to/lastmile_qr_scan"}, "name": "c53ebc26c2dc3589021e75b8c6865181", "is_reserved": 0}, {"is_disabled": 0, "fusion_lon": 0.0, "fusion_lat": 0.0, "lat": 38.91109333333333, "type": "electric_scooter", "lon": -77.03214066666666, "bike_id": "d991de19222b6b39fecd99fa3476a25b", "rental_uris": {"android": "https://dc.lft.to/lastmile_qr_scan", "ios": "https://dc.lft.to/lastmile_qr_scan"}, "name": "d991de19222b6b39fecd99fa3476a25b", "is_reserved": 0}, {"is_disabled": 0, "fusion_lon": 0.0, "fusion_lat": 0.0, "lat": 38.87320016666666, "type": "electric_scooter", "lon": -77.00184566666667, "bike_id": "4ef81c710b6ab8344d52520bf6bcd0f4", "rental_uris": {"android": "https://dc.lft.to/lastmile_qr_scan", "ios": "https://dc.lft.to/lastmile_qr_scan"}, "name": "4ef81c710b6ab8344d52520bf6bcd0f4", "is_reserved": 0}, {"is_disabled": 0, "fusion_lon": 0.0, "fusion_lat": 0.0, "lat": 38.89565983333333, "type": "electric_bike", "lon": -77.1273665, "bike_id": "fefa829f31585c9677015207f5e1ea17", "rental_uris": {"android": "https://dc.lft.to/lastmile_qr_scan", "ios": "https://dc.lft.to/lastmile_qr_scan"}, "name": "fefa829f31585c9677015207f5e1ea17", "is_reserved": 0}, {"is_disabled": 0, "fusion_lon": 0.0, "fusion_lat": 0.0, "lat": 38.90271416666667, "type": "electric_scooter", "lon": -77.04056083333333, "bike_id": "d9c4a8da4b032dcd16af64a66b8dd19f", "rental_uris": {"android": "https://dc.lft.to/lastmile_qr_scan", "ios": "https://dc.lft.to/lastmile_qr_scan"}, "name": "d9c4a8da4b032dcd16af64a66b8dd19f", "is_reserved": 0}, {"is_disabled": 0, "fusion_lon": 0.0, "fusion_lat": 0.0, "lat": 38.93760416666667, "type": "electric_scooter", "lon": -77.02496483333333, "bike_id": "63a4102896bad74efdf598295d7d0729", "rental_uris": {"android": "https://dc.lft.to/lastmile_qr_scan", "ios": "https://dc.lft.to/lastmile_qr_scan"}, "name": "63a4102896bad74efdf598295d7d0729", "is_reserved": 0}, {"is_disabled": 0, "fusion_lon": 0.0, "fusion_lat": 0.0, "lat": 38.917115333333335, "type": "electric_scooter", "lon": -77.029123, "bike_id": "5bf8f19cc2da5f7de28adbed1339d11b", "rental_uris": {"android": "https://dc.lft.to/lastmile_qr_scan", "ios": "https://dc.lft.to/lastmile_qr_scan"}, "name": "5bf8f19cc2da5f7de28adbed1339d11b", "is_reserved": 0}, {"is_disabled": 0, "fusion_lon": 0.0, "fusion_lat": 0.0, "lat": 38.88765733333334, "type": "electric_scooter", "lon": -76.98909, "bike_id": "050a7089ed6d40f353a974e69c7b59e5", "rental_uris": {"android": "https://dc.lft.to/lastmile_qr_scan", "ios": "https://dc.lft.to/lastmile_qr_scan"}, "name": "050a7089ed6d40f353a974e69c7b59e5", "is_reserved": 0}, {"is_disabled": 0, "fusion_lon": 0.0, "fusion_lat": 0.0, "lat": 38.875511, "type": "electric_scooter", "lon": -77.00464466666666, "bike_id": "e30319a19b91bf08fe16c79a6af59fea", "rental_uris": {"android": "https://dc.lft.to/lastmile_qr_scan", "ios": "https://dc.lft.to/lastmile_qr_scan"}, "name": "e30319a19b91bf08fe16c79a6af59fea", "is_reserved": 0}, {"is_disabled": 0, "fusion_lon": 0.0, "fusion_lat": 0.0, "lat": 38.901237333333334, "type": "electric_scooter", "lon": -77.039802, "bike_id": "17c54f4133c01adacb5d6011d13ecd15", "rental_uris": {"android": "https://dc.lft.to/lastmile_qr_scan", "ios": "https://dc.lft.to/lastmile_qr_scan"}, "name": "17c54f4133c01adacb5d6011d13ecd15", "is_reserved": 0}, {"is_disabled": 0, "fusion_lon": 0.0, "fusion_lat": 0.0, "lat": 38.9705685, "type": "electric_bike", "lon": -76.96055433333333, "bike_id": "b92334dc3ac4bf21cb3fb6031495eff8", "rental_uris": {"android": "https://dc.lft.to/lastmile_qr_scan", "ios": "https://dc.lft.to/lastmile_qr_scan"}, "name": "b92334dc3ac4bf21cb3fb6031495eff8", "is_reserved": 0}, {"is_disabled": 0, "fusion_lon": 0.0, "fusion_lat": 0.0, "lat": 38.87209816666667, "type": "electric_bike", "lon": -76.95480866666666, "bike_id": "61b33a5df71b3ac5deca08c210538c83", "rental_uris": {"android": "https://dc.lft.to/lastmile_qr_scan", "ios": "https://dc.lft.to/lastmile_qr_scan"}, "name": "61b33a5df71b3ac5deca08c210538c83", "is_reserved": 0}, {"is_disabled": 0, "fusion_lon": 0.0, "fusion_lat": 0.0, "lat": 38.90555666666667, "type": "electric_scooter", "lon": -77.04334833333333, "bike_id": "5576c0cd11fff0ab88f8caf4265b6dfd", "rental_uris": {"android": "https://dc.lft.to/lastmile_qr_scan", "ios": "https://dc.lft.to/lastmile_qr_scan"}, "name": "5576c0cd11fff0ab88f8caf4265b6dfd", "is_reserved": 0}, {"is_disabled": 0, "fusion_lon": 0.0, "fusion_lat": 0.0, "lat": 38.90237233333333, "type": "electric_scooter", "lon": -77.05273633333333, "bike_id": "128ceaedd429b8ccf1684b09d87fd0c0", "rental_uris": {"android": "https://dc.lft.to/lastmile_qr_scan", "ios": "https://dc.lft.to/lastmile_qr_scan"}, "name": "128ceaedd429b8ccf1684b09d87fd0c0", "is_reserved": 0}, {"is_disabled": 0, "fusion_lon": 0.0, "fusion_lat": 0.0, "lat": 38.947782333333336, "type": "electric_bike", "lon": -76.9721925, "bike_id": "2e1c1878a6c78e6bd329c060dac73163", "rental_uris": {"android": "https://dc.lft.to/lastmile_qr_scan", "ios": "https://dc.lft.to/lastmile_qr_scan"}, "name": "2e1c1878a6c78e6bd329c060dac73163", "is_reserved": 0}, {"is_disabled": 0, "fusion_lon": 0.0, "fusion_lat": 0.0, "lat": 38.88754816666667, "type": "electric_scooter", "lon": -77.002253, "bike_id": "d11df2a4bdf5318c83e4bbd810eefb33", "rental_uris": {"android": "https://dc.lft.to/lastmile_qr_scan", "ios": "https://dc.lft.to/lastmile_qr_scan"}, "name": "d11df2a4bdf5318c83e4bbd810eefb33", "is_reserved": 0}, {"is_disabled": 0, "fusion_lon": 0.0, "fusion_lat": 0.0, "lat": 38.917314833333336, "type": "electric_scooter", "lon": -76.9917875, "bike_id": "18f4db75077d6d8fd8022a8c0bccc702", "rental_uris": {"android": "https://dc.lft.to/lastmile_qr_scan", "ios": "https://dc.lft.to/lastmile_qr_scan"}, "name": "18f4db75077d6d8fd8022a8c0bccc702", "is_reserved": 0}, {"is_disabled": 0, "fusion_lon": 0.0, "fusion_lat": 0.0, "lat": 38.92613933333333, "type": "electric_scooter", "lon": -76.98194, "bike_id": "9f76735dabcf627bc380eb8b842ffb2e", "rental_uris": {"android": "https://dc.lft.to/lastmile_qr_scan", "ios": "https://dc.lft.to/lastmile_qr_scan"}, "name": "9f76735dabcf627bc380eb8b842ffb2e", "is_reserved": 0}, {"is_disabled": 0, "fusion_lon": 0.0, "fusion_lat": 0.0, "lat": 38.8991935, "type": "electric_scooter", "lon": -76.99157916666667, "bike_id": "fcb38ef76f5c2eb85b2662910c0d1a31", "rental_uris": {"android": "https://dc.lft.to/lastmile_qr_scan", "ios": "https://dc.lft.to/lastmile_qr_scan"}, "name": "fcb38ef76f5c2eb85b2662910c0d1a31", "is_reserved": 0}, {"is_disabled": 0, "fusion_lon": 0.0, "fusion_lat": 0.0, "lat": 38.969242333333334, "type": "electric_bike", "lon": -77.026179, "bike_id": "68a72ae0cabbe3cc3b6d08c1e748cd0c", "rental_uris": {"android": "https://dc.lft.to/lastmile_qr_scan", "ios": "https://dc.lft.to/lastmile_qr_scan"}, "name": "68a72ae0cabbe3cc3b6d08c1e748cd0c", "is_reserved": 0}, {"is_disabled": 0, "fusion_lon": 0.0, "fusion_lat": 0.0, "lat": 38.902781166666664, "type": "electric_scooter", "lon": -77.03437533333333, "bike_id": "465d647cec1d7a45614f2ceae949e798", "rental_uris": {"android": "https://dc.lft.to/lastmile_qr_scan", "ios": "https://dc.lft.to/lastmile_qr_scan"}, "name": "465d647cec1d7a45614f2ceae949e798", "is_reserved": 0}, {"is_disabled": 0, "fusion_lon": 0.0, "fusion_lat": 0.0, "lat": 38.9169485, "type": "electric_scooter", "lon": -77.03632166666667, "bike_id": "806cec34bcde07a76a6612ae15c7e237", "rental_uris": {"android": "https://dc.lft.to/lastmile_qr_scan", "ios": "https://dc.lft.to/lastmile_qr_scan"}, "name": "806cec34bcde07a76a6612ae15c7e237", "is_reserved": 0}, {"is_disabled": 0, "fusion_lon": 0.0, "fusion_lat": 0.0, "lat": 38.95789933333333, "type": "electric_scooter", "lon": -77.02470466666666, "bike_id": "ab5360ad909b6473773b33214ee4ac4b", "rental_uris": {"android": "https://dc.lft.to/lastmile_qr_scan", "ios": "https://dc.lft.to/lastmile_qr_scan"}, "name": "ab5360ad909b6473773b33214ee4ac4b", "is_reserved": 0}, {"is_disabled": 0, "fusion_lon": 0.0, "fusion_lat": 0.0, "lat": 38.88379666666667, "type": "electric_scooter", "lon": -77.04608083333333, "bike_id": "3563dc3e13f169dd7df1e79b27c108b1", "rental_uris": {"android": "https://dc.lft.to/lastmile_qr_scan", "ios": "https://dc.lft.to/lastmile_qr_scan"}, "name": "3563dc3e13f169dd7df1e79b27c108b1", "is_reserved": 0}, {"is_disabled": 0, "fusion_lon": 0.0, "fusion_lat": 0.0, "lat": 38.93501933333334, "type": "electric_scooter", "lon": -77.02417583333333, "bike_id": "24a880ed6d4c89eed64a34f67a3e8c2f", "rental_uris": {"android": "https://dc.lft.to/lastmile_qr_scan", "ios": "https://dc.lft.to/lastmile_qr_scan"}, "name": "24a880ed6d4c89eed64a34f67a3e8c2f", "is_reserved": 0}, {"is_disabled": 0, "fusion_lon": 0.0, "fusion_lat": 0.0, "lat": 38.905484666666666, "type": "electric_scooter", "lon": -77.02216683333333, "bike_id": "f07c9db8dcd8aebc7895158fd08d79d4", "rental_uris": {"android": "https://dc.lft.to/lastmile_qr_scan", "ios": "https://dc.lft.to/lastmile_qr_scan"}, "name": "f07c9db8dcd8aebc7895158fd08d79d4", "is_reserved": 0}, {"is_disabled": 0, "fusion_lon": 0.0, "fusion_lat": 0.0, "lat": 38.9027005, "type": "electric_scooter", "lon": -77.03451283333334, "bike_id": "2df5f143bd18087182d4d3715de5bab5", "rental_uris": {"android": "https://dc.lft.to/lastmile_qr_scan", "ios": "https://dc.lft.to/lastmile_qr_scan"}, "name": "2df5f143bd18087182d4d3715de5bab5", "is_reserved": 0}, {"is_disabled": 0, "fusion_lon": 0.0, "fusion_lat": 0.0, "lat": 38.84274033333333, "type": "electric_bike", "lon": -76.98838683333334, "bike_id": "f196adbd920160be38f49dbc25507060", "rental_uris": {"android": "https://dc.lft.to/lastmile_qr_scan", "ios": "https://dc.lft.to/lastmile_qr_scan"}, "name": "f196adbd920160be38f49dbc25507060", "is_reserved": 0}, {"is_disabled": 0, "fusion_lon": 0.0, "fusion_lat": 0.0, "lat": 38.899668, "type": "electric_scooter", "lon": -77.0318485, "bike_id": "be613529bd027df8b3fe922dd80ead54", "rental_uris": {"android": "https://dc.lft.to/lastmile_qr_scan", "ios": "https://dc.lft.to/lastmile_qr_scan"}, "name": "be613529bd027df8b3fe922dd80ead54", "is_reserved": 0}, {"is_disabled": 0, "fusion_lon": 0.0, "fusion_lat": 0.0, "lat": 38.91842183333333, "type": "electric_scooter", "lon": -77.01642333333334, "bike_id": "2f192366dd46652a5501caef6222fd2d", "rental_uris": {"android": "https://dc.lft.to/lastmile_qr_scan", "ios": "https://dc.lft.to/lastmile_qr_scan"}, "name": "2f192366dd46652a5501caef6222fd2d", "is_reserved": 0}, {"is_disabled": 0, "fusion_lon": 0.0, "fusion_lat": 0.0, "lat": 38.935705, "type": "electric_scooter", "lon": -77.05874283333333, "bike_id": "1b76c000f1ab3859f3bc1a598a570f1a", "rental_uris": {"android": "https://dc.lft.to/lastmile_qr_scan", "ios": "https://dc.lft.to/lastmile_qr_scan"}, "name": "1b76c000f1ab3859f3bc1a598a570f1a", "is_reserved": 0}, {"is_disabled": 0, "fusion_lon": 0.0, "fusion_lat": 0.0, "lat": 38.912856166666664, "type": "electric_scooter", "lon": -76.98693, "bike_id": "77d45d6452314b1edc4f94323755aef9", "rental_uris": {"android": "https://dc.lft.to/lastmile_qr_scan", "ios": "https://dc.lft.to/lastmile_qr_scan"}, "name": "77d45d6452314b1edc4f94323755aef9", "is_reserved": 0}, {"is_disabled": 0, "fusion_lon": 0.0, "fusion_lat": 0.0, "lat": 38.8990755, "type": "electric_scooter", "lon": -76.9339095, "bike_id": "3d91fc6614b8fff82ef8445eadd0462c", "rental_uris": {"android": "https://dc.lft.to/lastmile_qr_scan", "ios": "https://dc.lft.to/lastmile_qr_scan"}, "name": "3d91fc6614b8fff82ef8445eadd0462c", "is_reserved": 0}, {"is_disabled": 0, "fusion_lon": 0.0, "fusion_lat": 0.0, "lat": 38.89732516666667, "type": "electric_scooter", "lon": -77.02447833333333, "bike_id": "b2cde33b3bbf39320d5a1759c99f5d88", "rental_uris": {"android": "https://dc.lft.to/lastmile_qr_scan", "ios": "https://dc.lft.to/lastmile_qr_scan"}, "name": "b2cde33b3bbf39320d5a1759c99f5d88", "is_reserved": 0}, {"is_disabled": 0, "fusion_lon": 0.0, "fusion_lat": 0.0, "lat": 38.900816166666665, "type": "electric_scooter", "lon": -77.04435883333333, "bike_id": "d39353d7d95ca8c52ae83c36990607b2", "rental_uris": {"android": "https://dc.lft.to/lastmile_qr_scan", "ios": "https://dc.lft.to/lastmile_qr_scan"}, "name": "d39353d7d95ca8c52ae83c36990607b2", "is_reserved": 0}, {"is_disabled": 0, "fusion_lon": 0.0, "fusion_lat": 0.0, "lat": 38.915725, "type": "electric_scooter", "lon": -77.03792283333334, "bike_id": "b7a5ab84a2b27cb5d861b13e4d1589cb", "rental_uris": {"android": "https://dc.lft.to/lastmile_qr_scan", "ios": "https://dc.lft.to/lastmile_qr_scan"}, "name": "b7a5ab84a2b27cb5d861b13e4d1589cb", "is_reserved": 0}, {"is_disabled": 0, "fusion_lon": 0.0, "fusion_lat": 0.0, "lat": 38.905880833333335, "type": "electric_scooter", "lon": -77.04094866666667, "bike_id": "936df11503ecc45433744cf13c6546a6", "rental_uris": {"android": "https://dc.lft.to/lastmile_qr_scan", "ios": "https://dc.lft.to/lastmile_qr_scan"}, "name": "936df11503ecc45433744cf13c6546a6", "is_reserved": 0}, {"is_disabled": 0, "fusion_lon": 0.0, "fusion_lat": 0.0, "lat": 38.901530666666666, "type": "electric_scooter", "lon": -77.05906133333333, "bike_id": "be3e5775fc175f5f8491722b7b0aea9e", "rental_uris": {"android": "https://dc.lft.to/lastmile_qr_scan", "ios": "https://dc.lft.to/lastmile_qr_scan"}, "name": "be3e5775fc175f5f8491722b7b0aea9e", "is_reserved": 0}, {"is_disabled": 0, "fusion_lon": 0.0, "fusion_lat": 0.0, "lat": 38.89825033333334, "type": "electric_scooter", "lon": -76.94655433333334, "bike_id": "a9cd7c658b353ca1bb6190d0fdc56b67", "rental_uris": {"android": "https://dc.lft.to/lastmile_qr_scan", "ios": "https://dc.lft.to/lastmile_qr_scan"}, "name": "a9cd7c658b353ca1bb6190d0fdc56b67", "is_reserved": 0}, {"is_disabled": 0, "fusion_lon": 0.0, "fusion_lat": 0.0, "lat": 38.91692916666667, "type": "electric_scooter", "lon": -77.02588966666667, "bike_id": "54e258d739cd1203caa6cbadae293e6c", "rental_uris": {"android": "https://dc.lft.to/lastmile_qr_scan", "ios": "https://dc.lft.to/lastmile_qr_scan"}, "name": "54e258d739cd1203caa6cbadae293e6c", "is_reserved": 0}, {"is_disabled": 0, "fusion_lon": 0.0, "fusion_lat": 0.0, "lat": 38.9038725, "type": "electric_scooter", "lon": -76.99003933333333, "bike_id": "5ddcdd0b3119d54e76c3db4b542339ab", "rental_uris": {"android": "https://dc.lft.to/lastmile_qr_scan", "ios": "https://dc.lft.to/lastmile_qr_scan"}, "name": "5ddcdd0b3119d54e76c3db4b542339ab", "is_reserved": 0}, {"is_disabled": 0, "fusion_lon": 0.0, "fusion_lat": 0.0, "lat": 38.91587, "type": "electric_scooter", "lon": -77.03189533333334, "bike_id": "996c0be3763f816ad9dbc6dbe936b795", "rental_uris": {"android": "https://dc.lft.to/lastmile_qr_scan", "ios": "https://dc.lft.to/lastmile_qr_scan"}, "name": "996c0be3763f816ad9dbc6dbe936b795", "is_reserved": 0}, {"is_disabled": 0, "fusion_lon": 0.0, "fusion_lat": 0.0, "lat": 38.909708, "type": "electric_scooter", "lon": -77.03616883333333, "bike_id": "bfb87581f605660058f2d72813a0e921", "rental_uris": {"android": "https://dc.lft.to/lastmile_qr_scan", "ios": "https://dc.lft.to/lastmile_qr_scan"}, "name": "bfb87581f605660058f2d72813a0e921", "is_reserved": 0}, {"is_disabled": 0, "fusion_lon": 0.0, "fusion_lat": 0.0, "lat": 38.869575, "type": "electric_scooter", "lon": -76.975932, "bike_id": "71bd39f84129d3b7763d0398d7421bba", "rental_uris": {"android": "https://dc.lft.to/lastmile_qr_scan", "ios": "https://dc.lft.to/lastmile_qr_scan"}, "name": "71bd39f84129d3b7763d0398d7421bba", "is_reserved": 0}, {"is_disabled": 0, "fusion_lon": 0.0, "fusion_lat": 0.0, "lat": 38.905593, "type": "electric_scooter", "lon": -77.01790766666667, "bike_id": "21e66f975d126139688eb36b952b8e21", "rental_uris": {"android": "https://dc.lft.to/lastmile_qr_scan", "ios": "https://dc.lft.to/lastmile_qr_scan"}, "name": "21e66f975d126139688eb36b952b8e21", "is_reserved": 0}, {"is_disabled": 0, "fusion_lon": 0.0, "fusion_lat": 0.0, "lat": 38.94626483333333, "type": "electric_bike", "lon": -76.93409133333333, "bike_id": "1360e55a4f69359bbcbdd9c677e50ef2", "rental_uris": {"android": "https://dc.lft.to/lastmile_qr_scan", "ios": "https://dc.lft.to/lastmile_qr_scan"}, "name": "1360e55a4f69359bbcbdd9c677e50ef2", "is_reserved": 0}, {"is_disabled": 0, "fusion_lon": 0.0, "fusion_lat": 0.0, "lat": 38.87472133333333, "type": "electric_scooter", "lon": -77.0051515, "bike_id": "f72305aa338ee0f32e5e0ea701cb0505", "rental_uris": {"android": "https://dc.lft.to/lastmile_qr_scan", "ios": "https://dc.lft.to/lastmile_qr_scan"}, "name": "f72305aa338ee0f32e5e0ea701cb0505", "is_reserved": 0}, {"is_disabled": 0, "fusion_lon": 0.0, "fusion_lat": 0.0, "lat": 38.896343333333334, "type": "electric_scooter", "lon": -77.02588933333334, "bike_id": "3b0835cb4ffdf81eb751e15001910c70", "rental_uris": {"android": "https://dc.lft.to/lastmile_qr_scan", "ios": "https://dc.lft.to/lastmile_qr_scan"}, "name": "3b0835cb4ffdf81eb751e15001910c70", "is_reserved": 0}, {"is_disabled": 0, "fusion_lon": 0.0, "fusion_lat": 0.0, "lat": 38.940892166666664, "type": "electric_scooter", "lon": -77.0381865, "bike_id": "ee274b7ebebb280595de570feb7aa439", "rental_uris": {"android": "https://dc.lft.to/lastmile_qr_scan", "ios": "https://dc.lft.to/lastmile_qr_scan"}, "name": "ee274b7ebebb280595de570feb7aa439", "is_reserved": 0}, {"is_disabled": 0, "fusion_lon": 0.0, "fusion_lat": 0.0, "lat": 38.91712116666667, "type": "electric_scooter", "lon": -77.03763933333333, "bike_id": "8a77a326a66fa93debd69b4b629aba14", "rental_uris": {"android": "https://dc.lft.to/lastmile_qr_scan", "ios": "https://dc.lft.to/lastmile_qr_scan"}, "name": "8a77a326a66fa93debd69b4b629aba14", "is_reserved": 0}, {"is_disabled": 0, "fusion_lon": 0.0, "fusion_lat": 0.0, "lat": 38.9716755, "type": "electric_bike", "lon": -76.98023183333333, "bike_id": "6c35f64ed4a4a8cb3f2c20b3f00b6f78", "rental_uris": {"android": "https://dc.lft.to/lastmile_qr_scan", "ios": "https://dc.lft.to/lastmile_qr_scan"}, "name": "6c35f64ed4a4a8cb3f2c20b3f00b6f78", "is_reserved": 0}, {"is_disabled": 0, "fusion_lon": 0.0, "fusion_lat": 0.0, "lat": 38.91108033333333, "type": "electric_scooter", "lon": -77.0425865, "bike_id": "f342c56a5a0a19c18af84aacb796b571", "rental_uris": {"android": "https://dc.lft.to/lastmile_qr_scan", "ios": "https://dc.lft.to/lastmile_qr_scan"}, "name": "f342c56a5a0a19c18af84aacb796b571", "is_reserved": 0}, {"is_disabled": 0, "fusion_lon": 0.0, "fusion_lat": 0.0, "lat": 38.880292, "type": "electric_scooter", "lon": -76.99506066666666, "bike_id": "d57f5cebd366b0fa853a00d690f33c69", "rental_uris": {"android": "https://dc.lft.to/lastmile_qr_scan", "ios": "https://dc.lft.to/lastmile_qr_scan"}, "name": "d57f5cebd366b0fa853a00d690f33c69", "is_reserved": 0}, {"is_disabled": 0, "fusion_lon": 0.0, "fusion_lat": 0.0, "lat": 38.968062, "type": "electric_scooter", "lon": -77.021211, "bike_id": "58bebb3fae1d65e018628e717aaf831a", "rental_uris": {"android": "https://dc.lft.to/lastmile_qr_scan", "ios": "https://dc.lft.to/lastmile_qr_scan"}, "name": "58bebb3fae1d65e018628e717aaf831a", "is_reserved": 0}, {"is_disabled": 0, "fusion_lon": 0.0, "fusion_lat": 0.0, "lat": 38.916347333333334, "type": "electric_scooter", "lon": -77.02690416666667, "bike_id": "361b07533d62a4242c905c30e3864d12", "rental_uris": {"android": "https://dc.lft.to/lastmile_qr_scan", "ios": "https://dc.lft.to/lastmile_qr_scan"}, "name": "361b07533d62a4242c905c30e3864d12", "is_reserved": 0}, {"is_disabled": 0, "fusion_lon": 0.0, "fusion_lat": 0.0, "lat": 38.95422933333333, "type": "electric_scooter", "lon": -77.02174183333334, "bike_id": "379ba273cad92a45ffde850414d80f54", "rental_uris": {"android": "https://dc.lft.to/lastmile_qr_scan", "ios": "https://dc.lft.to/lastmile_qr_scan"}, "name": "379ba273cad92a45ffde850414d80f54", "is_reserved": 0}, {"is_disabled": 0, "fusion_lon": 0.0, "fusion_lat": 0.0, "lat": 38.87919983333333, "type": "electric_scooter", "lon": -76.94479866666667, "bike_id": "c062cf08bc647ffc95a6e9c431c51cf1", "rental_uris": {"android": "https://dc.lft.to/lastmile_qr_scan", "ios": "https://dc.lft.to/lastmile_qr_scan"}, "name": "c062cf08bc647ffc95a6e9c431c51cf1", "is_reserved": 0}, {"is_disabled": 0, "fusion_lon": 0.0, "fusion_lat": 0.0, "lat": 38.880176166666665, "type": "electric_scooter", "lon": -76.982349, "bike_id": "1ea4252037899aae73c9d88ccb06bd25", "rental_uris": {"android": "https://dc.lft.to/lastmile_qr_scan", "ios": "https://dc.lft.to/lastmile_qr_scan"}, "name": "1ea4252037899aae73c9d88ccb06bd25", "is_reserved": 0}, {"is_disabled": 0, "fusion_lon": 0.0, "fusion_lat": 0.0, "lat": 38.91282666666667, "type": "electric_scooter", "lon": -77.04732266666667, "bike_id": "790d251fb4c308a56c9e510cb06f13b8", "rental_uris": {"android": "https://dc.lft.to/lastmile_qr_scan", "ios": "https://dc.lft.to/lastmile_qr_scan"}, "name": "790d251fb4c308a56c9e510cb06f13b8", "is_reserved": 0}, {"is_disabled": 0, "fusion_lon": 0.0, "fusion_lat": 0.0, "lat": 38.903897666666666, "type": "electric_scooter", "lon": -77.05465666666667, "bike_id": "a3917541f5ef8a3545d5c90b0abd2c6a", "rental_uris": {"android": "https://dc.lft.to/lastmile_qr_scan", "ios": "https://dc.lft.to/lastmile_qr_scan"}, "name": "a3917541f5ef8a3545d5c90b0abd2c6a", "is_reserved": 0}, {"is_disabled": 0, "fusion_lon": 0.0, "fusion_lat": 0.0, "lat": 38.93129666666667, "type": "electric_scooter", "lon": -77.05703916666667, "bike_id": "885934ba54863c0b7f364da012ebe49d", "rental_uris": {"android": "https://dc.lft.to/lastmile_qr_scan", "ios": "https://dc.lft.to/lastmile_qr_scan"}, "name": "885934ba54863c0b7f364da012ebe49d", "is_reserved": 0}, {"is_disabled": 0, "fusion_lon": 0.0, "fusion_lat": 0.0, "lat": 38.91511533333333, "type": "electric_scooter", "lon": -77.0229435, "bike_id": "f898afcecb71d0b934753a2042e47ce1", "rental_uris": {"android": "https://dc.lft.to/lastmile_qr_scan", "ios": "https://dc.lft.to/lastmile_qr_scan"}, "name": "f898afcecb71d0b934753a2042e47ce1", "is_reserved": 0}, {"is_disabled": 0, "fusion_lon": 0.0, "fusion_lat": 0.0, "lat": 38.935338333333334, "type": "electric_scooter", "lon": -77.02380016666666, "bike_id": "53b7b622fa3135c5e937f150bb591ef2", "rental_uris": {"android": "https://dc.lft.to/lastmile_qr_scan", "ios": "https://dc.lft.to/lastmile_qr_scan"}, "name": "53b7b622fa3135c5e937f150bb591ef2", "is_reserved": 0}, {"is_disabled": 0, "fusion_lon": 0.0, "fusion_lat": 0.0, "lat": 38.94416433333333, "type": "electric_scooter", "lon": -77.026224, "bike_id": "6c6abaeba184a81df2779244a4ee4287", "rental_uris": {"android": "https://dc.lft.to/lastmile_qr_scan", "ios": "https://dc.lft.to/lastmile_qr_scan"}, "name": "6c6abaeba184a81df2779244a4ee4287", "is_reserved": 0}, {"is_disabled": 0, "fusion_lon": 0.0, "fusion_lat": 0.0, "lat": 38.895026666666666, "type": "electric_scooter", "lon": -76.94875933333333, "bike_id": "c4cef35b9da47dd0d20c4fe878819318", "rental_uris": {"android": "https://dc.lft.to/lastmile_qr_scan", "ios": "https://dc.lft.to/lastmile_qr_scan"}, "name": "c4cef35b9da47dd0d20c4fe878819318", "is_reserved": 0}, {"is_disabled": 0, "fusion_lon": 0.0, "fusion_lat": 0.0, "lat": 38.91815316666667, "type": "electric_scooter", "lon": -77.02713383333334, "bike_id": "494a3cce3c4811687d63344df337408d", "rental_uris": {"android": "https://dc.lft.to/lastmile_qr_scan", "ios": "https://dc.lft.to/lastmile_qr_scan"}, "name": "494a3cce3c4811687d63344df337408d", "is_reserved": 0}, {"is_disabled": 0, "fusion_lon": 0.0, "fusion_lat": 0.0, "lat": 38.901428333333335, "type": "electric_scooter", "lon": -76.98640383333333, "bike_id": "c4da286c90cca71859cbdedf7abc7322", "rental_uris": {"android": "https://dc.lft.to/lastmile_qr_scan", "ios": "https://dc.lft.to/lastmile_qr_scan"}, "name": "c4da286c90cca71859cbdedf7abc7322", "is_reserved": 0}, {"is_disabled": 0, "fusion_lon": 0.0, "fusion_lat": 0.0, "lat": 38.8273015, "type": "electric_bike", "lon": -77.008603, "bike_id": "f835f86697ca9c0efb2aa5c3836b0ad2", "rental_uris": {"android": "https://dc.lft.to/lastmile_qr_scan", "ios": "https://dc.lft.to/lastmile_qr_scan"}, "name": "f835f86697ca9c0efb2aa5c3836b0ad2", "is_reserved": 0}, {"is_disabled": 0, "fusion_lon": 0.0, "fusion_lat": 0.0, "lat": 38.84934883333333, "type": "electric_bike", "lon": -77.10010633333333, "bike_id": "32e112a033602490ea710f50c878ee98", "rental_uris": {"android": "https://dc.lft.to/lastmile_qr_scan", "ios": "https://dc.lft.to/lastmile_qr_scan"}, "name": "32e112a033602490ea710f50c878ee98", "is_reserved": 0}, {"is_disabled": 0, "fusion_lon": 0.0, "fusion_lat": 0.0, "lat": 38.906813666666665, "type": "electric_scooter", "lon": -77.06230033333334, "bike_id": "314b761425758b2db5570a6106eadc5b", "rental_uris": {"android": "https://dc.lft.to/lastmile_qr_scan", "ios": "https://dc.lft.to/lastmile_qr_scan"}, "name": "314b761425758b2db5570a6106eadc5b", "is_reserved": 0}, {"is_disabled": 0, "fusion_lon": 0.0, "fusion_lat": 0.0, "lat": 38.907304333333336, "type": "electric_scooter", "lon": -77.0112375, "bike_id": "c3b24aefc113536fed92a16eddbfe49e", "rental_uris": {"android": "https://dc.lft.to/lastmile_qr_scan", "ios": "https://dc.lft.to/lastmile_qr_scan"}, "name": "c3b24aefc113536fed92a16eddbfe49e", "is_reserved": 0}, {"is_disabled": 0, "fusion_lon": 0.0, "fusion_lat": 0.0, "lat": 38.87054633333333, "type": "electric_scooter", "lon": -76.98082766666667, "bike_id": "297c25f58af350ce24166f9defa50ba3", "rental_uris": {"android": "https://dc.lft.to/lastmile_qr_scan", "ios": "https://dc.lft.to/lastmile_qr_scan"}, "name": "297c25f58af350ce24166f9defa50ba3", "is_reserved": 0}, {"is_disabled": 0, "fusion_lon": 0.0, "fusion_lat": 0.0, "lat": 38.901293, "type": "electric_scooter", "lon": -77.0489665, "bike_id": "7bb6ad4bc033db579290bf05f9c014cb", "rental_uris": {"android": "https://dc.lft.to/lastmile_qr_scan", "ios": "https://dc.lft.to/lastmile_qr_scan"}, "name": "7bb6ad4bc033db579290bf05f9c014cb", "is_reserved": 0}, {"is_disabled": 0, "fusion_lon": 0.0, "fusion_lat": 0.0, "lat": 38.856477166666664, "type": "electric_bike", "lon": -77.0852635, "bike_id": "f027fda5ddc8db58ac2dc7dd597ac126", "rental_uris": {"android": "https://dc.lft.to/lastmile_qr_scan", "ios": "https://dc.lft.to/lastmile_qr_scan"}, "name": "f027fda5ddc8db58ac2dc7dd597ac126", "is_reserved": 0}, {"is_disabled": 0, "fusion_lon": 0.0, "fusion_lat": 0.0, "lat": 38.90508, "type": "electric_scooter", "lon": -77.06023466666667, "bike_id": "360f40fb07d842c6f8d3ac96fe754ec6", "rental_uris": {"android": "https://dc.lft.to/lastmile_qr_scan", "ios": "https://dc.lft.to/lastmile_qr_scan"}, "name": "360f40fb07d842c6f8d3ac96fe754ec6", "is_reserved": 0}, {"is_disabled": 0, "fusion_lon": 0.0, "fusion_lat": 0.0, "lat": 38.91649233333333, "type": "electric_scooter", "lon": -77.02180133333333, "bike_id": "a4c12f0d19e606bb830e6e3a3a2e5681", "rental_uris": {"android": "https://dc.lft.to/lastmile_qr_scan", "ios": "https://dc.lft.to/lastmile_qr_scan"}, "name": "a4c12f0d19e606bb830e6e3a3a2e5681", "is_reserved": 0}, {"is_disabled": 0, "fusion_lon": 0.0, "fusion_lat": 0.0, "lat": 38.956383833333334, "type": "electric_scooter", "lon": -77.09099316666666, "bike_id": "903445177594023af4a5329255c17d3d", "rental_uris": {"android": "https://dc.lft.to/lastmile_qr_scan", "ios": "https://dc.lft.to/lastmile_qr_scan"}, "name": "903445177594023af4a5329255c17d3d", "is_reserved": 0}, {"is_disabled": 0, "fusion_lon": 0.0, "fusion_lat": 0.0, "lat": 38.92038266666667, "type": "electric_scooter", "lon": -77.018163, "bike_id": "9d38fa60ef60d9cf4bbbc318ff8f1314", "rental_uris": {"android": "https://dc.lft.to/lastmile_qr_scan", "ios": "https://dc.lft.to/lastmile_qr_scan"}, "name": "9d38fa60ef60d9cf4bbbc318ff8f1314", "is_reserved": 0}, {"is_disabled": 0, "fusion_lon": 0.0, "fusion_lat": 0.0, "lat": 38.913847, "type": "electric_scooter", "lon": -77.0297105, "bike_id": "da1fc1649aad077f655b5258804113e1", "rental_uris": {"android": "https://dc.lft.to/lastmile_qr_scan", "ios": "https://dc.lft.to/lastmile_qr_scan"}, "name": "da1fc1649aad077f655b5258804113e1", "is_reserved": 0}, {"is_disabled": 0, "fusion_lon": 0.0, "fusion_lat": 0.0, "lat": 38.918209833333336, "type": "electric_scooter", "lon": -77.01075816666666, "bike_id": "0ce0223ca12348a272f5259e42f27013", "rental_uris": {"android": "https://dc.lft.to/lastmile_qr_scan", "ios": "https://dc.lft.to/lastmile_qr_scan"}, "name": "0ce0223ca12348a272f5259e42f27013", "is_reserved": 0}, {"is_disabled": 0, "fusion_lon": 0.0, "fusion_lat": 0.0, "lat": 38.949259833333336, "type": "electric_scooter", "lon": -77.0193415, "bike_id": "f479bb354ef5c787b34eae8b29536e27", "rental_uris": {"android": "https://dc.lft.to/lastmile_qr_scan", "ios": "https://dc.lft.to/lastmile_qr_scan"}, "name": "f479bb354ef5c787b34eae8b29536e27", "is_reserved": 0}, {"is_disabled": 0, "fusion_lon": 0.0, "fusion_lat": 0.0, "lat": 38.8983265, "type": "electric_scooter", "lon": -76.94629366666666, "bike_id": "fc57b6ab0465a62f380d6d7126bddacd", "rental_uris": {"android": "https://dc.lft.to/lastmile_qr_scan", "ios": "https://dc.lft.to/lastmile_qr_scan"}, "name": "fc57b6ab0465a62f380d6d7126bddacd", "is_reserved": 0}, {"is_disabled": 0, "fusion_lon": 0.0, "fusion_lat": 0.0, "lat": 38.923891166666664, "type": "electric_scooter", "lon": -77.04470516666666, "bike_id": "07b35c23842cc5f28231c4d324ec174b", "rental_uris": {"android": "https://dc.lft.to/lastmile_qr_scan", "ios": "https://dc.lft.to/lastmile_qr_scan"}, "name": "07b35c23842cc5f28231c4d324ec174b", "is_reserved": 0}, {"is_disabled": 0, "fusion_lon": 0.0, "fusion_lat": 0.0, "lat": 38.852072166666666, "type": "electric_bike", "lon": -77.10130916666667, "bike_id": "fda0630001232dc4cc27c51c5ea766aa", "rental_uris": {"android": "https://dc.lft.to/lastmile_qr_scan", "ios": "https://dc.lft.to/lastmile_qr_scan"}, "name": "fda0630001232dc4cc27c51c5ea766aa", "is_reserved": 0}, {"is_disabled": 0, "fusion_lon": 0.0, "fusion_lat": 0.0, "lat": 38.91410233333333, "type": "electric_scooter", "lon": -77.046699, "bike_id": "b7cbe168a0639aeef509039277a660d1", "rental_uris": {"android": "https://dc.lft.to/lastmile_qr_scan", "ios": "https://dc.lft.to/lastmile_qr_scan"}, "name": "b7cbe168a0639aeef509039277a660d1", "is_reserved": 0}, {"is_disabled": 0, "fusion_lon": 0.0, "fusion_lat": 0.0, "lat": 38.912341, "type": "electric_scooter", "lon": -77.04478383333333, "bike_id": "8a65186292afe3c699c7d8d6a95675ae", "rental_uris": {"android": "https://dc.lft.to/lastmile_qr_scan", "ios": "https://dc.lft.to/lastmile_qr_scan"}, "name": "8a65186292afe3c699c7d8d6a95675ae", "is_reserved": 0}, {"is_disabled": 0, "fusion_lon": 0.0, "fusion_lat": 0.0, "lat": 38.887431166666666, "type": "electric_scooter", "lon": -77.01604083333334, "bike_id": "da5473b2a9a75614bfa6e38ac9322bcb", "rental_uris": {"android": "https://dc.lft.to/lastmile_qr_scan", "ios": "https://dc.lft.to/lastmile_qr_scan"}, "name": "da5473b2a9a75614bfa6e38ac9322bcb", "is_reserved": 0}, {"is_disabled": 0, "fusion_lon": 0.0, "fusion_lat": 0.0, "lat": 38.876208166666665, "type": "electric_scooter", "lon": -76.96537833333333, "bike_id": "9ebc3878c20ba3cc8ceed82182af9d1a", "rental_uris": {"android": "https://dc.lft.to/lastmile_qr_scan", "ios": "https://dc.lft.to/lastmile_qr_scan"}, "name": "9ebc3878c20ba3cc8ceed82182af9d1a", "is_reserved": 0}, {"is_disabled": 0, "fusion_lon": 0.0, "fusion_lat": 0.0, "lat": 38.86571633333333, "type": "electric_scooter", "lon": -76.98948833333333, "bike_id": "9d50c6eb1ca468da78dd4b36cf180346", "rental_uris": {"android": "https://dc.lft.to/lastmile_qr_scan", "ios": "https://dc.lft.to/lastmile_qr_scan"}, "name": "9d50c6eb1ca468da78dd4b36cf180346", "is_reserved": 0}, {"is_disabled": 0, "fusion_lon": 0.0, "fusion_lat": 0.0, "lat": 38.908713, "type": "electric_scooter", "lon": -77.03549883333334, "bike_id": "c93868eea27a33910001914a58bf3293", "rental_uris": {"android": "https://dc.lft.to/lastmile_qr_scan", "ios": "https://dc.lft.to/lastmile_qr_scan"}, "name": "c93868eea27a33910001914a58bf3293", "is_reserved": 0}, {"is_disabled": 0, "fusion_lon": 0.0, "fusion_lat": 0.0, "lat": 38.914634666666664, "type": "electric_scooter", "lon": -77.03184583333334, "bike_id": "4a643ded500e89b74b7e2f401ef9ee29", "rental_uris": {"android": "https://dc.lft.to/lastmile_qr_scan", "ios": "https://dc.lft.to/lastmile_qr_scan"}, "name": "4a643ded500e89b74b7e2f401ef9ee29", "is_reserved": 0}, {"is_disabled": 0, "fusion_lon": 0.0, "fusion_lat": 0.0, "lat": 38.921728333333334, "type": "electric_scooter", "lon": -77.0383985, "bike_id": "5aa41a12e82432bfb0ba05dad9c5b12c", "rental_uris": {"android": "https://dc.lft.to/lastmile_qr_scan", "ios": "https://dc.lft.to/lastmile_qr_scan"}, "name": "5aa41a12e82432bfb0ba05dad9c5b12c", "is_reserved": 0}, {"is_disabled": 0, "fusion_lon": 0.0, "fusion_lat": 0.0, "lat": 38.8797195, "type": "electric_scooter", "lon": -76.99370533333334, "bike_id": "23474077798a216514e4a0c0ce69d4d5", "rental_uris": {"android": "https://dc.lft.to/lastmile_qr_scan", "ios": "https://dc.lft.to/lastmile_qr_scan"}, "name": "23474077798a216514e4a0c0ce69d4d5", "is_reserved": 0}, {"is_disabled": 0, "fusion_lon": 0.0, "fusion_lat": 0.0, "lat": 38.896239, "type": "electric_scooter", "lon": -77.04490583333333, "bike_id": "d1e21506ec227f6484b111c2eaea5d08", "rental_uris": {"android": "https://dc.lft.to/lastmile_qr_scan", "ios": "https://dc.lft.to/lastmile_qr_scan"}, "name": "d1e21506ec227f6484b111c2eaea5d08", "is_reserved": 0}, {"is_disabled": 0, "fusion_lon": 0.0, "fusion_lat": 0.0, "lat": 38.89991933333334, "type": "electric_scooter", "lon": -77.02187866666667, "bike_id": "ad6dce5358cfb59fc4275644fc043ba6", "rental_uris": {"android": "https://dc.lft.to/lastmile_qr_scan", "ios": "https://dc.lft.to/lastmile_qr_scan"}, "name": "ad6dce5358cfb59fc4275644fc043ba6", "is_reserved": 0}, {"is_disabled": 0, "fusion_lon": 0.0, "fusion_lat": 0.0, "lat": 38.985014, "type": "electric_bike", "lon": -76.98203966666667, "bike_id": "de9efa32eb74eda496bd7ef0422f4056", "rental_uris": {"android": "https://dc.lft.to/lastmile_qr_scan", "ios": "https://dc.lft.to/lastmile_qr_scan"}, "name": "de9efa32eb74eda496bd7ef0422f4056", "is_reserved": 0}, {"is_disabled": 0, "fusion_lon": 0.0, "fusion_lat": 0.0, "lat": 38.92554466666667, "type": "electric_scooter", "lon": -77.03784433333334, "bike_id": "27e9874e721d310352e89e84098040ed", "rental_uris": {"android": "https://dc.lft.to/lastmile_qr_scan", "ios": "https://dc.lft.to/lastmile_qr_scan"}, "name": "27e9874e721d310352e89e84098040ed", "is_reserved": 0}, {"is_disabled": 0, "fusion_lon": 0.0, "fusion_lat": 0.0, "lat": 38.90483566666666, "type": "electric_scooter", "lon": -76.97328233333333, "bike_id": "f61eb6c61e835e6546e23e39a1e66943", "rental_uris": {"android": "https://dc.lft.to/lastmile_qr_scan", "ios": "https://dc.lft.to/lastmile_qr_scan"}, "name": "f61eb6c61e835e6546e23e39a1e66943", "is_reserved": 0}, {"is_disabled": 0, "fusion_lon": 0.0, "fusion_lat": 0.0, "lat": 38.8766035, "type": "electric_scooter", "lon": -77.00325033333333, "bike_id": "830b3c60b10e29018833c5b64a39d209", "rental_uris": {"android": "https://dc.lft.to/lastmile_qr_scan", "ios": "https://dc.lft.to/lastmile_qr_scan"}, "name": "830b3c60b10e29018833c5b64a39d209", "is_reserved": 0}, {"is_disabled": 0, "fusion_lon": 0.0, "fusion_lat": 0.0, "lat": 38.90344433333333, "type": "electric_scooter", "lon": -77.038512, "bike_id": "3bbbf2adbd2ebeb5b62e65352106aaf4", "rental_uris": {"android": "https://dc.lft.to/lastmile_qr_scan", "ios": "https://dc.lft.to/lastmile_qr_scan"}, "name": "3bbbf2adbd2ebeb5b62e65352106aaf4", "is_reserved": 0}, {"is_disabled": 0, "fusion_lon": 0.0, "fusion_lat": 0.0, "lat": 38.9223075, "type": "electric_scooter", "lon": -77.03442066666666, "bike_id": "6c21f7f7b090ffca09053e45526cb3c1", "rental_uris": {"android": "https://dc.lft.to/lastmile_qr_scan", "ios": "https://dc.lft.to/lastmile_qr_scan"}, "name": "6c21f7f7b090ffca09053e45526cb3c1", "is_reserved": 0}, {"is_disabled": 0, "fusion_lon": 0.0, "fusion_lat": 0.0, "lat": 38.8973995, "type": "electric_scooter", "lon": -77.00975233333334, "bike_id": "0da7303975b4031e17451837ee2d155e", "rental_uris": {"android": "https://dc.lft.to/lastmile_qr_scan", "ios": "https://dc.lft.to/lastmile_qr_scan"}, "name": "0da7303975b4031e17451837ee2d155e", "is_reserved": 0}, {"is_disabled": 0, "fusion_lon": 0.0, "fusion_lat": 0.0, "lat": 38.939673, "type": "electric_scooter", "lon": -77.0327985, "bike_id": "584c698f0ae82a79fc3aa77b221fb614", "rental_uris": {"android": "https://dc.lft.to/lastmile_qr_scan", "ios": "https://dc.lft.to/lastmile_qr_scan"}, "name": "584c698f0ae82a79fc3aa77b221fb614", "is_reserved": 0}, {"is_disabled": 0, "fusion_lon": 0.0, "fusion_lat": 0.0, "lat": 38.92760216666667, "type": "electric_scooter", "lon": -77.005922, "bike_id": "31569fcf9662f39b6d47518a272eba91", "rental_uris": {"android": "https://dc.lft.to/lastmile_qr_scan", "ios": "https://dc.lft.to/lastmile_qr_scan"}, "name": "31569fcf9662f39b6d47518a272eba91", "is_reserved": 0}, {"is_disabled": 0, "fusion_lon": 0.0, "fusion_lat": 0.0, "lat": 38.942205333333334, "type": "electric_scooter", "lon": -77.025032, "bike_id": "1cc0319a14abd4d2e1d1eebc55fdfb6d", "rental_uris": {"android": "https://dc.lft.to/lastmile_qr_scan", "ios": "https://dc.lft.to/lastmile_qr_scan"}, "name": "1cc0319a14abd4d2e1d1eebc55fdfb6d", "is_reserved": 0}, {"is_disabled": 0, "fusion_lon": 0.0, "fusion_lat": 0.0, "lat": 38.90394516666667, "type": "electric_scooter", "lon": -76.990075, "bike_id": "54d48a36cad0ae20f59ff6080d20ccab", "rental_uris": {"android": "https://dc.lft.to/lastmile_qr_scan", "ios": "https://dc.lft.to/lastmile_qr_scan"}, "name": "54d48a36cad0ae20f59ff6080d20ccab", "is_reserved": 0}, {"is_disabled": 0, "fusion_lon": 0.0, "fusion_lat": 0.0, "lat": 38.9248035, "type": "electric_scooter", "lon": -77.034818, "bike_id": "ee5f70516a21078b2eaef457672e0e07", "rental_uris": {"android": "https://dc.lft.to/lastmile_qr_scan", "ios": "https://dc.lft.to/lastmile_qr_scan"}, "name": "ee5f70516a21078b2eaef457672e0e07", "is_reserved": 0}, {"is_disabled": 0, "fusion_lon": 0.0, "fusion_lat": 0.0, "lat": 38.913303, "type": "electric_scooter", "lon": -77.04169316666666, "bike_id": "05025e9c904760cd94a1aa7c51641b67", "rental_uris": {"android": "https://dc.lft.to/lastmile_qr_scan", "ios": "https://dc.lft.to/lastmile_qr_scan"}, "name": "05025e9c904760cd94a1aa7c51641b67", "is_reserved": 0}, {"is_disabled": 0, "fusion_lon": 0.0, "fusion_lat": 0.0, "lat": 38.9260145, "type": "electric_scooter", "lon": -77.02149216666666, "bike_id": "c35b11febdffe8782ebc9264abc4dc54", "rental_uris": {"android": "https://dc.lft.to/lastmile_qr_scan", "ios": "https://dc.lft.to/lastmile_qr_scan"}, "name": "c35b11febdffe8782ebc9264abc4dc54", "is_reserved": 0}, {"is_disabled": 0, "fusion_lon": 0.0, "fusion_lat": 0.0, "lat": 38.9197115, "type": "electric_scooter", "lon": -76.9805265, "bike_id": "38d402b8f42d67cda4de12d103dd788f", "rental_uris": {"android": "https://dc.lft.to/lastmile_qr_scan", "ios": "https://dc.lft.to/lastmile_qr_scan"}, "name": "38d402b8f42d67cda4de12d103dd788f", "is_reserved": 0}, {"is_disabled": 0, "fusion_lon": 0.0, "fusion_lat": 0.0, "lat": 38.94983666666667, "type": "electric_scooter", "lon": -77.02701633333334, "bike_id": "1328d472704ff66f3aa78a20dc29571c", "rental_uris": {"android": "https://dc.lft.to/lastmile_qr_scan", "ios": "https://dc.lft.to/lastmile_qr_scan"}, "name": "1328d472704ff66f3aa78a20dc29571c", "is_reserved": 0}, {"is_disabled": 0, "fusion_lon": 0.0, "fusion_lat": 0.0, "lat": 38.92971516666667, "type": "electric_scooter", "lon": -77.04146816666666, "bike_id": "e5af67e6a407b8a5aa1a0dc82988f693", "rental_uris": {"android": "https://dc.lft.to/lastmile_qr_scan", "ios": "https://dc.lft.to/lastmile_qr_scan"}, "name": "e5af67e6a407b8a5aa1a0dc82988f693", "is_reserved": 0}, {"is_disabled": 0, "fusion_lon": 0.0, "fusion_lat": 0.0, "lat": 38.916475, "type": "electric_scooter", "lon": -77.02275216666666, "bike_id": "2300ca18413e5927da61f9de021b26ac", "rental_uris": {"android": "https://dc.lft.to/lastmile_qr_scan", "ios": "https://dc.lft.to/lastmile_qr_scan"}, "name": "2300ca18413e5927da61f9de021b26ac", "is_reserved": 0}, {"is_disabled": 0, "fusion_lon": 0.0, "fusion_lat": 0.0, "lat": 38.917518333333334, "type": "electric_scooter", "lon": -77.04154783333334, "bike_id": "482245d68d858d5ad635de26410a5dae", "rental_uris": {"android": "https://dc.lft.to/lastmile_qr_scan", "ios": "https://dc.lft.to/lastmile_qr_scan"}, "name": "482245d68d858d5ad635de26410a5dae", "is_reserved": 0}, {"is_disabled": 0, "fusion_lon": 0.0, "fusion_lat": 0.0, "lat": 38.915519833333335, "type": "electric_scooter", "lon": -77.04616933333334, "bike_id": "30a2331a6d10dbfd153628b3b7aba455", "rental_uris": {"android": "https://dc.lft.to/lastmile_qr_scan", "ios": "https://dc.lft.to/lastmile_qr_scan"}, "name": "30a2331a6d10dbfd153628b3b7aba455", "is_reserved": 0}, {"is_disabled": 0, "fusion_lon": 0.0, "fusion_lat": 0.0, "lat": 38.925798666666665, "type": "electric_scooter", "lon": -77.02832216666667, "bike_id": "111adc1d1a8febb389160c32c080225f", "rental_uris": {"android": "https://dc.lft.to/lastmile_qr_scan", "ios": "https://dc.lft.to/lastmile_qr_scan"}, "name": "111adc1d1a8febb389160c32c080225f", "is_reserved": 0}, {"is_disabled": 0, "fusion_lon": 0.0, "fusion_lat": 0.0, "lat": 38.9003525, "type": "electric_scooter", "lon": -77.027, "bike_id": "f17b8d2bf9d2b8b87a1f49a3ab41feb4", "rental_uris": {"android": "https://dc.lft.to/lastmile_qr_scan", "ios": "https://dc.lft.to/lastmile_qr_scan"}, "name": "f17b8d2bf9d2b8b87a1f49a3ab41feb4", "is_reserved": 0}, {"is_disabled": 0, "fusion_lon": 0.0, "fusion_lat": 0.0, "lat": 38.89903183333333, "type": "electric_scooter", "lon": -77.0403155, "bike_id": "fadc4dade3fc11a69ade7553359ed588", "rental_uris": {"android": "https://dc.lft.to/lastmile_qr_scan", "ios": "https://dc.lft.to/lastmile_qr_scan"}, "name": "fadc4dade3fc11a69ade7553359ed588", "is_reserved": 0}, {"is_disabled": 0, "fusion_lon": 0.0, "fusion_lat": 0.0, "lat": 38.86627466666667, "type": "electric_scooter", "lon": -76.98717683333334, "bike_id": "db8f42c10b17e13eff0c5430a2580021", "rental_uris": {"android": "https://dc.lft.to/lastmile_qr_scan", "ios": "https://dc.lft.to/lastmile_qr_scan"}, "name": "db8f42c10b17e13eff0c5430a2580021", "is_reserved": 0}, {"is_disabled": 0, "fusion_lon": 0.0, "fusion_lat": 0.0, "lat": 38.897383166666664, "type": "electric_scooter", "lon": -77.04678333333334, "bike_id": "c9171792eed11152d7af36d5af83a77e", "rental_uris": {"android": "https://dc.lft.to/lastmile_qr_scan", "ios": "https://dc.lft.to/lastmile_qr_scan"}, "name": "c9171792eed11152d7af36d5af83a77e", "is_reserved": 0}, {"is_disabled": 0, "fusion_lon": 0.0, "fusion_lat": 0.0, "lat": 38.87692366666667, "type": "electric_scooter", "lon": -77.01611383333334, "bike_id": "7c141316b86e8485c347fd5348fd1cc5", "rental_uris": {"android": "https://dc.lft.to/lastmile_qr_scan", "ios": "https://dc.lft.to/lastmile_qr_scan"}, "name": "7c141316b86e8485c347fd5348fd1cc5", "is_reserved": 0}, {"is_disabled": 0, "fusion_lon": 0.0, "fusion_lat": 0.0, "lat": 38.90204933333333, "type": "electric_scooter", "lon": -76.98211383333333, "bike_id": "2f7428e9e0668a589c7d4d7fb9d6be14", "rental_uris": {"android": "https://dc.lft.to/lastmile_qr_scan", "ios": "https://dc.lft.to/lastmile_qr_scan"}, "name": "2f7428e9e0668a589c7d4d7fb9d6be14", "is_reserved": 0}, {"is_disabled": 0, "fusion_lon": 0.0, "fusion_lat": 0.0, "lat": 38.911175166666666, "type": "electric_scooter", "lon": -77.036188, "bike_id": "4e8b4b1729a66dff1bae958c883917e3", "rental_uris": {"android": "https://dc.lft.to/lastmile_qr_scan", "ios": "https://dc.lft.to/lastmile_qr_scan"}, "name": "4e8b4b1729a66dff1bae958c883917e3", "is_reserved": 0}, {"is_disabled": 0, "fusion_lon": 0.0, "fusion_lat": 0.0, "lat": 38.88045616666667, "type": "electric_bike", "lon": -76.99014983333333, "bike_id": "859bdd063561326a59e147879a03de85", "rental_uris": {"android": "https://dc.lft.to/lastmile_qr_scan", "ios": "https://dc.lft.to/lastmile_qr_scan"}, "name": "859bdd063561326a59e147879a03de85", "is_reserved": 0}, {"is_disabled": 0, "fusion_lon": 0.0, "fusion_lat": 0.0, "lat": 38.9003225, "type": "electric_scooter", "lon": -76.99942333333334, "bike_id": "af4e95c58cb2d8f0ce415b1cc09c1621", "rental_uris": {"android": "https://dc.lft.to/lastmile_qr_scan", "ios": "https://dc.lft.to/lastmile_qr_scan"}, "name": "af4e95c58cb2d8f0ce415b1cc09c1621", "is_reserved": 0}, {"is_disabled": 0, "fusion_lon": 0.0, "fusion_lat": 0.0, "lat": 38.84299016666667, "type": "electric_bike", "lon": -77.07641, "bike_id": "8782094733868a1831e39cedbb6cbc10", "rental_uris": {"android": "https://dc.lft.to/lastmile_qr_scan", "ios": "https://dc.lft.to/lastmile_qr_scan"}, "name": "8782094733868a1831e39cedbb6cbc10", "is_reserved": 0}, {"is_disabled": 0, "fusion_lon": 0.0, "fusion_lat": 0.0, "lat": 38.8982735, "type": "electric_scooter", "lon": -77.0334395, "bike_id": "7c2b31aeb30d37a83fbbe9cff7f7ed1c", "rental_uris": {"android": "https://dc.lft.to/lastmile_qr_scan", "ios": "https://dc.lft.to/lastmile_qr_scan"}, "name": "7c2b31aeb30d37a83fbbe9cff7f7ed1c", "is_reserved": 0}, {"is_disabled": 0, "fusion_lon": 0.0, "fusion_lat": 0.0, "lat": 38.924165333333335, "type": "electric_scooter", "lon": -77.05071133333334, "bike_id": "101abb98710f31b6c409e8e852244caa", "rental_uris": {"android": "https://dc.lft.to/lastmile_qr_scan", "ios": "https://dc.lft.to/lastmile_qr_scan"}, "name": "101abb98710f31b6c409e8e852244caa", "is_reserved": 0}, {"is_disabled": 0, "fusion_lon": 0.0, "fusion_lat": 0.0, "lat": 38.96761133333333, "type": "electric_bike", "lon": -77.09162533333334, "bike_id": "45675aa133e21ab41ad9364344bbe86d", "rental_uris": {"android": "https://dc.lft.to/lastmile_qr_scan", "ios": "https://dc.lft.to/lastmile_qr_scan"}, "name": "45675aa133e21ab41ad9364344bbe86d", "is_reserved": 0}, {"is_disabled": 0, "fusion_lon": 0.0, "fusion_lat": 0.0, "lat": 38.914809166666664, "type": "electric_scooter", "lon": -76.98359466666666, "bike_id": "333a8bb8c788b1a156378e8bbdf9365f", "rental_uris": {"android": "https://dc.lft.to/lastmile_qr_scan", "ios": "https://dc.lft.to/lastmile_qr_scan"}, "name": "333a8bb8c788b1a156378e8bbdf9365f", "is_reserved": 0}, {"is_disabled": 0, "fusion_lon": 0.0, "fusion_lat": 0.0, "lat": 38.936073, "type": "electric_scooter", "lon": -77.03723983333333, "bike_id": "67b4a10c5efaae915cb835d50bcbf9e6", "rental_uris": {"android": "https://dc.lft.to/lastmile_qr_scan", "ios": "https://dc.lft.to/lastmile_qr_scan"}, "name": "67b4a10c5efaae915cb835d50bcbf9e6", "is_reserved": 0}, {"is_disabled": 0, "fusion_lon": 0.0, "fusion_lat": 0.0, "lat": 38.916974333333336, "type": "electric_scooter", "lon": -77.024343, "bike_id": "fb468a00437ab0df5d69c32a576edec6", "rental_uris": {"android": "https://dc.lft.to/lastmile_qr_scan", "ios": "https://dc.lft.to/lastmile_qr_scan"}, "name": "fb468a00437ab0df5d69c32a576edec6", "is_reserved": 0}, {"is_disabled": 0, "fusion_lon": 0.0, "fusion_lat": 0.0, "lat": 38.8580555, "type": "electric_scooter", "lon": -76.98655233333334, "bike_id": "b35798d03f8674c5636d03e5c66eb04d", "rental_uris": {"android": "https://dc.lft.to/lastmile_qr_scan", "ios": "https://dc.lft.to/lastmile_qr_scan"}, "name": "b35798d03f8674c5636d03e5c66eb04d", "is_reserved": 0}, {"is_disabled": 0, "fusion_lon": 0.0, "fusion_lat": 0.0, "lat": 38.84728716666667, "type": "electric_bike", "lon": -77.09532216666666, "bike_id": "34229856ec9c5e27f847106b33fb7579", "rental_uris": {"android": "https://dc.lft.to/lastmile_qr_scan", "ios": "https://dc.lft.to/lastmile_qr_scan"}, "name": "34229856ec9c5e27f847106b33fb7579", "is_reserved": 0}, {"is_disabled": 0, "fusion_lon": 0.0, "fusion_lat": 0.0, "lat": 38.863218, "type": "electric_scooter", "lon": -76.99039166666667, "bike_id": "5589fd2a50e2382a02be57b7d280b65f", "rental_uris": {"android": "https://dc.lft.to/lastmile_qr_scan", "ios": "https://dc.lft.to/lastmile_qr_scan"}, "name": "5589fd2a50e2382a02be57b7d280b65f", "is_reserved": 0}, {"is_disabled": 0, "fusion_lon": 0.0, "fusion_lat": 0.0, "lat": 38.9111465, "type": "electric_scooter", "lon": -77.04501483333334, "bike_id": "91cc9c3934d289eb6c44be48478a828b", "rental_uris": {"android": "https://dc.lft.to/lastmile_qr_scan", "ios": "https://dc.lft.to/lastmile_qr_scan"}, "name": "91cc9c3934d289eb6c44be48478a828b", "is_reserved": 0}, {"is_disabled": 0, "fusion_lon": 0.0, "fusion_lat": 0.0, "lat": 38.91276666666667, "type": "electric_scooter", "lon": -77.0473215, "bike_id": "76f82d222a77d2afd5ed93f02e70bcd6", "rental_uris": {"android": "https://dc.lft.to/lastmile_qr_scan", "ios": "https://dc.lft.to/lastmile_qr_scan"}, "name": "76f82d222a77d2afd5ed93f02e70bcd6", "is_reserved": 0}, {"is_disabled": 0, "fusion_lon": 0.0, "fusion_lat": 0.0, "lat": 38.9054235, "type": "electric_scooter", "lon": -77.0570175, "bike_id": "29eef2c1b1e8141b08b0034c618d098c", "rental_uris": {"android": "https://dc.lft.to/lastmile_qr_scan", "ios": "https://dc.lft.to/lastmile_qr_scan"}, "name": "29eef2c1b1e8141b08b0034c618d098c", "is_reserved": 0}, {"is_disabled": 0, "fusion_lon": 0.0, "fusion_lat": 0.0, "lat": 38.836019666666665, "type": "electric_scooter", "lon": -77.00356416666666, "bike_id": "7de40db558a47daa38fd7999c37c509b", "rental_uris": {"android": "https://dc.lft.to/lastmile_qr_scan", "ios": "https://dc.lft.to/lastmile_qr_scan"}, "name": "7de40db558a47daa38fd7999c37c509b", "is_reserved": 0}, {"is_disabled": 0, "fusion_lon": 0.0, "fusion_lat": 0.0, "lat": 38.928710833333334, "type": "electric_scooter", "lon": -77.01400816666667, "bike_id": "faa1c1e1294c173eec89f9334e4f8d4c", "rental_uris": {"android": "https://dc.lft.to/lastmile_qr_scan", "ios": "https://dc.lft.to/lastmile_qr_scan"}, "name": "faa1c1e1294c173eec89f9334e4f8d4c", "is_reserved": 0}, {"is_disabled": 0, "fusion_lon": 0.0, "fusion_lat": 0.0, "lat": 38.904954333333336, "type": "electric_scooter", "lon": -77.04163766666667, "bike_id": "189ab1dfe26d37e01e472c015cb159f1", "rental_uris": {"android": "https://dc.lft.to/lastmile_qr_scan", "ios": "https://dc.lft.to/lastmile_qr_scan"}, "name": "189ab1dfe26d37e01e472c015cb159f1", "is_reserved": 0}, {"is_disabled": 0, "fusion_lon": 0.0, "fusion_lat": 0.0, "lat": 38.91111433333333, "type": "electric_scooter", "lon": -77.038327, "bike_id": "0eb3447bb3eca8a6e79973f15300093c", "rental_uris": {"android": "https://dc.lft.to/lastmile_qr_scan", "ios": "https://dc.lft.to/lastmile_qr_scan"}, "name": "0eb3447bb3eca8a6e79973f15300093c", "is_reserved": 0}, {"is_disabled": 0, "fusion_lon": 0.0, "fusion_lat": 0.0, "lat": 38.883754333333336, "type": "electric_scooter", "lon": -76.92371133333333, "bike_id": "ff47c5596c40c714af36df54c035752b", "rental_uris": {"android": "https://dc.lft.to/lastmile_qr_scan", "ios": "https://dc.lft.to/lastmile_qr_scan"}, "name": "ff47c5596c40c714af36df54c035752b", "is_reserved": 0}, {"is_disabled": 0, "fusion_lon": 0.0, "fusion_lat": 0.0, "lat": 38.930863333333335, "type": "electric_scooter", "lon": -77.03427133333334, "bike_id": "8e40242625fef9a4232a25fe16139ee3", "rental_uris": {"android": "https://dc.lft.to/lastmile_qr_scan", "ios": "https://dc.lft.to/lastmile_qr_scan"}, "name": "8e40242625fef9a4232a25fe16139ee3", "is_reserved": 0}, {"is_disabled": 0, "fusion_lon": 0.0, "fusion_lat": 0.0, "lat": 38.91040533333333, "type": "electric_scooter", "lon": -77.04656166666666, "bike_id": "70f24b8093736270fcdcef9e484c7e7c", "rental_uris": {"android": "https://dc.lft.to/lastmile_qr_scan", "ios": "https://dc.lft.to/lastmile_qr_scan"}, "name": "70f24b8093736270fcdcef9e484c7e7c", "is_reserved": 0}, {"is_disabled": 0, "fusion_lon": 0.0, "fusion_lat": 0.0, "lat": 38.91635733333333, "type": "electric_scooter", "lon": -77.0384705, "bike_id": "0068cb77af5cf7f119d2fdf674d5326c", "rental_uris": {"android": "https://dc.lft.to/lastmile_qr_scan", "ios": "https://dc.lft.to/lastmile_qr_scan"}, "name": "0068cb77af5cf7f119d2fdf674d5326c", "is_reserved": 0}, {"is_disabled": 0, "fusion_lon": 0.0, "fusion_lat": 0.0, "lat": 38.9086355, "type": "electric_scooter", "lon": -77.0639095, "bike_id": "4354c63233f3b24426c1745acddff5b6", "rental_uris": {"android": "https://dc.lft.to/lastmile_qr_scan", "ios": "https://dc.lft.to/lastmile_qr_scan"}, "name": "4354c63233f3b24426c1745acddff5b6", "is_reserved": 0}, {"is_disabled": 0, "fusion_lon": 0.0, "fusion_lat": 0.0, "lat": 38.93975783333333, "type": "electric_scooter", "lon": -77.03015116666667, "bike_id": "b97fb7c10f854b38a16405096da10dcd", "rental_uris": {"android": "https://dc.lft.to/lastmile_qr_scan", "ios": "https://dc.lft.to/lastmile_qr_scan"}, "name": "b97fb7c10f854b38a16405096da10dcd", "is_reserved": 0}, {"is_disabled": 0, "fusion_lon": 0.0, "fusion_lat": 0.0, "lat": 38.926026, "type": "electric_scooter", "lon": -77.0215245, "bike_id": "317183732f65419d0d4976f5bb7848a3", "rental_uris": {"android": "https://dc.lft.to/lastmile_qr_scan", "ios": "https://dc.lft.to/lastmile_qr_scan"}, "name": "317183732f65419d0d4976f5bb7848a3", "is_reserved": 0}, {"is_disabled": 0, "fusion_lon": 0.0, "fusion_lat": 0.0, "lat": 38.87236683333333, "type": "electric_scooter", "lon": -77.00576833333334, "bike_id": "fc3cb396174013e8f9b283bc1409f4d5", "rental_uris": {"android": "https://dc.lft.to/lastmile_qr_scan", "ios": "https://dc.lft.to/lastmile_qr_scan"}, "name": "fc3cb396174013e8f9b283bc1409f4d5", "is_reserved": 0}, {"is_disabled": 0, "fusion_lon": 0.0, "fusion_lat": 0.0, "lat": 38.92978083333333, "type": "electric_scooter", "lon": -77.03469, "bike_id": "bc1002ecf384f2b89b67f8631f81d4cc", "rental_uris": {"android": "https://dc.lft.to/lastmile_qr_scan", "ios": "https://dc.lft.to/lastmile_qr_scan"}, "name": "bc1002ecf384f2b89b67f8631f81d4cc", "is_reserved": 0}, {"is_disabled": 0, "fusion_lon": 0.0, "fusion_lat": 0.0, "lat": 38.91117033333333, "type": "electric_scooter", "lon": -77.04722633333333, "bike_id": "aedd4eafde60f4d51d4ade216499cf48", "rental_uris": {"android": "https://dc.lft.to/lastmile_qr_scan", "ios": "https://dc.lft.to/lastmile_qr_scan"}, "name": "aedd4eafde60f4d51d4ade216499cf48", "is_reserved": 0}, {"is_disabled": 0, "fusion_lon": 0.0, "fusion_lat": 0.0, "lat": 38.928528166666666, "type": "electric_scooter", "lon": -77.01404883333333, "bike_id": "62eca5f540219846b417036b6c452ae3", "rental_uris": {"android": "https://dc.lft.to/lastmile_qr_scan", "ios": "https://dc.lft.to/lastmile_qr_scan"}, "name": "62eca5f540219846b417036b6c452ae3", "is_reserved": 0}, {"is_disabled": 0, "fusion_lon": 0.0, "fusion_lat": 0.0, "lat": 38.90867333333333, "type": "electric_scooter", "lon": -77.03222216666667, "bike_id": "46f098034f8b8cf3d870812eccb1285d", "rental_uris": {"android": "https://dc.lft.to/lastmile_qr_scan", "ios": "https://dc.lft.to/lastmile_qr_scan"}, "name": "46f098034f8b8cf3d870812eccb1285d", "is_reserved": 0}, {"is_disabled": 0, "fusion_lon": 0.0, "fusion_lat": 0.0, "lat": 38.915498, "type": "electric_scooter", "lon": -77.04161183333333, "bike_id": "b2b215d85af8ff828ed211e19183137f", "rental_uris": {"android": "https://dc.lft.to/lastmile_qr_scan", "ios": "https://dc.lft.to/lastmile_qr_scan"}, "name": "b2b215d85af8ff828ed211e19183137f", "is_reserved": 0}, {"is_disabled": 0, "fusion_lon": 0.0, "fusion_lat": 0.0, "lat": 38.859127, "type": "electric_scooter", "lon": -76.98783583333334, "bike_id": "9d1416b550429a3a8fdf15acb8c5b837", "rental_uris": {"android": "https://dc.lft.to/lastmile_qr_scan", "ios": "https://dc.lft.to/lastmile_qr_scan"}, "name": "9d1416b550429a3a8fdf15acb8c5b837", "is_reserved": 0}, {"is_disabled": 0, "fusion_lon": 0.0, "fusion_lat": 0.0, "lat": 38.89515566666667, "type": "electric_scooter", "lon": -77.049976, "bike_id": "3822bcf537a58839e04d391786aa6412", "rental_uris": {"android": "https://dc.lft.to/lastmile_qr_scan", "ios": "https://dc.lft.to/lastmile_qr_scan"}, "name": "3822bcf537a58839e04d391786aa6412", "is_reserved": 0}, {"is_disabled": 0, "fusion_lon": 0.0, "fusion_lat": 0.0, "lat": 38.92454816666667, "type": "electric_scooter", "lon": -77.050819, "bike_id": "9cf745f90fe62b96579ccd6626d2ec10", "rental_uris": {"android": "https://dc.lft.to/lastmile_qr_scan", "ios": "https://dc.lft.to/lastmile_qr_scan"}, "name": "9cf745f90fe62b96579ccd6626d2ec10", "is_reserved": 0}, {"is_disabled": 0, "fusion_lon": 0.0, "fusion_lat": 0.0, "lat": 38.9908345, "type": "electric_bike", "lon": -77.00174116666666, "bike_id": "7f41e0ee7889e4e3ab65abc30504dd6f", "rental_uris": {"android": "https://dc.lft.to/lastmile_qr_scan", "ios": "https://dc.lft.to/lastmile_qr_scan"}, "name": "7f41e0ee7889e4e3ab65abc30504dd6f", "is_reserved": 0},