{"data": {"bikes": [{"lat": 38.92873433333333, "is_disabled": 0, "type": "electric_scooter", "lon": -77.03335033333333, "bike_id": "a265027c7830c28bde4679c31c2d4f24", "fusion_lat": 0.0, "name": "a265027c7830c28bde4679c31c2d4f24", "is_reserved": 0, "rental_uris": {"android": "https://dc.lft.to/lastmile_qr_scan", "ios": "https://dc.lft.to/lastmile_qr_scan"}, "fusion_lon": 0.0}, {"lat": 38.88436216666667, "is_disabled": 0, "type": "electric_scooter", "lon": -77.03037966666666, "bike_id": "f977ccd0f3f1f81f7ffe03c7680e34be", "fusion_lat": 0.0, "name": "f977ccd0f3f1f81f7ffe03c7680e34be", "is_reserved": 0, "rental_uris": {"android": "https://dc.lft.to/lastmile_qr_scan", "ios": "https://dc.lft.to/lastmile_qr_scan"}, "fusion_lon": 0.0}, {"lat": 38.90308016666667, "is_disabled": 0, "type": "electric_scooter", "lon": -77.02065633333333, "bike_id": "162356ef79b561062f5ed1999467c688", "fusion_lat": 0.0, "name": "162356ef79b561062f5ed1999467c688", "is_reserved": 0, "rental_uris": {"android": "https://dc.lft.to/lastmile_qr_scan", "ios": "https://dc.lft.to/lastmile_qr_scan"}, "fusion_lon": 0.0}, {"lat": 38.91952583333333, "is_disabled": 0, "type": "electric_scooter", "lon": -77.02502916666667, "bike_id": "9c89275e22a39d3d378f97c2d2afe6f1", "fusion_lat": 0.0, "name": "9c89275e22a39d3d378f97c2d2afe6f1", "is_reserved": 0, "rental_uris": {"android": "https://dc.lft.to/lastmile_qr_scan", "ios": "https://dc.lft.to/lastmile_qr_scan"}, "fusion_lon": 0.0}, {"lat": 38.91213416666667, "is_disabled": 0, "type": "electric_scooter", "lon": -77.041328, "bike_id": "2b207427fd4112e46a0f8d147c741317", "fusion_lat": 0.0, "name": "2b207427fd4112e46a0f8d147c741317", "is_reserved": 0, "rental_uris": {"android": "https://dc.lft.to/lastmile_qr_scan", "ios": "https://dc.lft.to/lastmile_qr_scan"}, "fusion_lon": 0.0}, {"lat": 38.92900483333333, "is_disabled": 0, "type": "electric_scooter", "lon": -77.074499, "bike_id": "10c7c3453663e3964ebeac81b05aefba", "fusion_lat": 0.0, "name": "10c7c3453663e3964ebeac81b05aefba", "is_reserved": 0, "rental_uris": {"android": "https://dc.lft.to/lastmile_qr_scan", "ios": "https://dc.lft.to/lastmile_qr_scan"}, "fusion_lon": 0.0}, {"lat": 38.92585183333333, "is_disabled": 0, "type": "electric_scooter", "lon": -77.05765666666667, "bike_id": "01f7a89524932e33abeca80bfc01180a", "fusion_lat": 0.0, "name": "01f7a89524932e33abeca80bfc01180a", "is_reserved": 0, "rental_uris": {"android": "https://dc.lft.to/lastmile_qr_scan", "ios": "https://dc.lft.to/lastmile_qr_scan"}, "fusion_lon": 0.0}, {"lat": 38.90062733333333, "is_disabled": 0, "type": "electric_scooter", "lon": -76.93385716666667, "bike_id": "c42b4eeaf63e9b483df37a49158cf60c", "fusion_lat": 0.0, "name": "c42b4eeaf63e9b483df37a49158cf60c", "is_reserved": 0, "rental_uris": {"android": "https://dc.lft.to/lastmile_qr_scan", "ios": "https://dc.lft.to/lastmile_qr_scan"}, "fusion_lon": 0.0}, {"lat": 38.9999895, "is_disabled": 0, "type": "electric_bike", "lon": -76.92496, "bike_id": "f80932740bd847a09e8a771b02a59daf", "fusion_lat": 0.0, "name": "f80932740bd847a09e8a771b02a59daf", "is_reserved": 0, "rental_uris": {"android": "https://dc.lft.to/lastmile_qr_scan", "ios": "https://dc.lft.to/lastmile_qr_scan"}, "fusion_lon": 0.0}, {"lat": 38.91934366666667, "is_disabled": 0, "type": "electric_scooter", "lon": -77.08130683333333, "bike_id": "016d315d7ae9586321a6b155ccecdccf", "fusion_lat": 0.0, "name": "016d315d7ae9586321a6b155ccecdccf", "is_reserved": 0, "rental_uris": {"android": "https://dc.lft.to/lastmile_qr_scan", "ios": "https://dc.lft.to/lastmile_qr_scan"}, "fusion_lon": 0.0}, {"lat": 38.89226566666667, "is_disabled": 0, "type": "electric_scooter", "lon": -77.0318645, "bike_id": "7d996b4d29be36bff65bcde50388a0e0", "fusion_lat": 0.0, "name": "7d996b4d29be36bff65bcde50388a0e0", "is_reserved": 0, "rental_uris": {"android": "https://dc.lft.to/lastmile_qr_scan", "ios": "https://dc.lft.to/lastmile_qr_scan"}, "fusion_lon": 0.0}, {"lat": 38.91690216666667, "is_disabled": 0, "type": "electric_scooter", "lon": -77.02965, "bike_id": "442177e9c97e817784185e9bc2fba6af", "fusion_lat": 0.0, "name": "442177e9c97e817784185e9bc2fba6af", "is_reserved": 0, "rental_uris": {"android": "https://dc.lft.to/lastmile_qr_scan", "ios": "https://dc.lft.to/lastmile_qr_scan"}, "fusion_lon": 0.0}, {"lat": 38.9319025, "is_disabled": 0, "type": "electric_scooter", "lon": -77.0283275, "bike_id": "f0518fa63d7705fc3551e3f334a82080", "fusion_lat": 0.0, "name": "f0518fa63d7705fc3551e3f334a82080", "is_reserved": 0, "rental_uris": {"android": "https://dc.lft.to/lastmile_qr_scan", "ios": "https://dc.lft.to/lastmile_qr_scan"}, "fusion_lon": 0.0}, {"lat": 38.93652566666667, "is_disabled": 0, "type": "electric_scooter", "lon": -77.0239415, "bike_id": "3d61e99f2b75f3d0f65414e41a72b5b8", "fusion_lat": 0.0, "name": "3d61e99f2b75f3d0f65414e41a72b5b8", "is_reserved": 0, "rental_uris": {"android": "https://dc.lft.to/lastmile_qr_scan", "ios": "https://dc.lft.to/lastmile_qr_scan"}, "fusion_lon": 0.0}, {"lat": 38.90076783333333, "is_disabled": 0, "type": "electric_scooter", "lon": -77.04980583333334, "bike_id": "27f67048f3d52b53143af468b2a477d0", "fusion_lat": 0.0, "name": "27f67048f3d52b53143af468b2a477d0", "is_reserved": 0, "rental_uris": {"android": "https://dc.lft.to/lastmile_qr_scan", "ios": "https://dc.lft.to/lastmile_qr_scan"}, "fusion_lon": 0.0}, {"lat": 38.89101433333333, "is_disabled": 0, "type": "electric_scooter", "lon": -76.95237583333333, "bike_id": "96d1faee7884b2461daebb79349f6740", "fusion_lat": 0.0, "name": "96d1faee7884b2461daebb79349f6740", "is_reserved": 0, "rental_uris": {"android": "https://dc.lft.to/lastmile_qr_scan", "ios": "https://dc.lft.to/lastmile_qr_scan"}, "fusion_lon": 0.0}, {"lat": 38.942910833333336, "is_disabled": 0, "type": "electric_scooter", "lon": -77.07703466666666, "bike_id": "f1f07a18e34b9b55a838d1811ca31e29", "fusion_lat": 0.0, "name": "f1f07a18e34b9b55a838d1811ca31e29", "is_reserved": 0, "rental_uris": {"android": "https://dc.lft.to/lastmile_qr_scan", "ios": "https://dc.lft.to/lastmile_qr_scan"}, "fusion_lon": 0.0}, {"lat": 38.92542683333333, "is_disabled": 0, "type": "electric_scooter", "lon": -77.03452333333334, "bike_id": "6d899343f4819d101dc4d857632016b2", "fusion_lat": 0.0, "name": "6d899343f4819d101dc4d857632016b2", "is_reserved": 0, "rental_uris": {"android": "https://dc.lft.to/lastmile_qr_scan", "ios": "https://dc.lft.to/lastmile_qr_scan"}, "fusion_lon": 0.0}, {"lat": 38.96609433333333, "is_disabled": 0, "type": "electric_scooter", "lon": -77.02054733333334, "bike_id": "0276b3b85f4e36a1a325d86e5b78683d", "fusion_lat": 0.0, "name": "0276b3b85f4e36a1a325d86e5b78683d", "is_reserved": 0, "rental_uris": {"android": "https://dc.lft.to/lastmile_qr_scan", "ios": "https://dc.lft.to/lastmile_qr_scan"}, "fusion_lon": 0.0}, {"lat": 38.85807616666666, "is_disabled": 0, "type": "electric_scooter", "lon": -76.9865195, "bike_id": "0f591c72ea9ba5d98923e801b7578cbe", "fusion_lat": 0.0, "name": "0f591c72ea9ba5d98923e801b7578cbe", "is_reserved": 0, "rental_uris": {"android": "https://dc.lft.to/lastmile_qr_scan", "ios": "https://dc.lft.to/lastmile_qr_scan"}, "fusion_lon": 0.0}, {"lat": 38.900121, "is_disabled": 0, "type": "electric_scooter", "lon": -76.99870533333333, "bike_id": "6c2576203a9c6d7ade66bf8471ff6088", "fusion_lat": 0.0, "name": "6c2576203a9c6d7ade66bf8471ff6088", "is_reserved": 0, "rental_uris": {"android": "https://dc.lft.to/lastmile_qr_scan", "ios": "https://dc.lft.to/lastmile_qr_scan"}, "fusion_lon": 0.0}, {"lat": 38.915433166666666, "is_disabled": 0, "type": "electric_scooter", "lon": -77.02205033333334, "bike_id": "3ca4554a1b0581047dd38ff06a0ff8a0", "fusion_lat": 0.0, "name": "3ca4554a1b0581047dd38ff06a0ff8a0", "is_reserved": 0, "rental_uris": {"android": "https://dc.lft.to/lastmile_qr_scan", "ios": "https://dc.lft.to/lastmile_qr_scan"}, "fusion_lon": 0.0}, {"lat": 38.924887, "is_disabled": 0, "type": "electric_scooter", "lon": -77.03184316666666, "bike_id": "853de34cc98d22d6ea0252a7dcf4fe98", "fusion_lat": 0.0, "name": "853de34cc98d22d6ea0252a7dcf4fe98", "is_reserved": 0, "rental_uris": {"android": "https://dc.lft.to/lastmile_qr_scan", "ios": "https://dc.lft.to/lastmile_qr_scan"}, "fusion_lon": 0.0}, {"lat": 38.9132075, "is_disabled": 0, "type": "electric_scooter", "lon": -77.03211583333334, "bike_id": "7873e0fd1c6fb72e66b854cf146ac37e", "fusion_lat": 0.0, "name": "7873e0fd1c6fb72e66b854cf146ac37e", "is_reserved": 0, "rental_uris": {"android": "https://dc.lft.to/lastmile_qr_scan", "ios": "https://dc.lft.to/lastmile_qr_scan"}, "fusion_lon": 0.0}, {"lat": 38.900231833333336, "is_disabled": 0, "type": "electric_scooter", "lon": -77.00217616666667, "bike_id": "3e94d2d7c43e0efd1099f6894009aade", "fusion_lat": 0.0, "name": "3e94d2d7c43e0efd1099f6894009aade", "is_reserved": 0, "rental_uris": {"android": "https://dc.lft.to/lastmile_qr_scan", "ios": "https://dc.lft.to/lastmile_qr_scan"}, "fusion_lon": 0.0}, {"lat": 38.88747033333333, "is_disabled": 0, "type": "electric_scooter", "lon": -77.0315375, "bike_id": "175b65b9d4eaa66fde595074fb5f7be1", "fusion_lat": 0.0, "name": "175b65b9d4eaa66fde595074fb5f7be1", "is_reserved": 0, "rental_uris": {"android": "https://dc.lft.to/lastmile_qr_scan", "ios": "https://dc.lft.to/lastmile_qr_scan"}, "fusion_lon": 0.0}, {"lat": 38.93480916666667, "is_disabled": 0, "type": "electric_scooter", "lon": -77.05792, "bike_id": "4868fb851b4ad1d2ecb012a075fe4afd", "fusion_lat": 0.0, "name": "4868fb851b4ad1d2ecb012a075fe4afd", "is_reserved": 0, "rental_uris": {"android": "https://dc.lft.to/lastmile_qr_scan", "ios": "https://dc.lft.to/lastmile_qr_scan"}, "fusion_lon": 0.0}, {"lat": 38.902586, "is_disabled": 0, "type": "electric_scooter", "lon": -77.0176425, "bike_id": "4d44bdfb84e68f9138cc15be2098f71a", "fusion_lat": 0.0, "name": "4d44bdfb84e68f9138cc15be2098f71a", "is_reserved": 0, "rental_uris": {"android": "https://dc.lft.to/lastmile_qr_scan", "ios": "https://dc.lft.to/lastmile_qr_scan"}, "fusion_lon": 0.0}, {"lat": 38.91541466666666, "is_disabled": 0, "type": "electric_scooter", "lon": -77.0319735, "bike_id": "795c0e5ef3422a6d17f7e8953a877c14", "fusion_lat": 0.0, "name": "795c0e5ef3422a6d17f7e8953a877c14", "is_reserved": 0, "rental_uris": {"android": "https://dc.lft.to/lastmile_qr_scan", "ios": "https://dc.lft.to/lastmile_qr_scan"}, "fusion_lon": 0.0}, {"lat": 38.886169333333335, "is_disabled": 0, "type": "electric_scooter", "lon": -77.021741, "bike_id": "0a09d0c7e53068ec9d4da607cf18de11", "fusion_lat": 0.0, "name": "0a09d0c7e53068ec9d4da607cf18de11", "is_reserved": 0, "rental_uris": {"android": "https://dc.lft.to/lastmile_qr_scan", "ios": "https://dc.lft.to/lastmile_qr_scan"}, "fusion_lon": 0.0}, {"lat": 38.9052055, "is_disabled": 0, "type": "electric_scooter", "lon": -77.02614033333333, "bike_id": "c5ce3fc3ded5e0ae29be54d46a1e5090", "fusion_lat": 0.0, "name": "c5ce3fc3ded5e0ae29be54d46a1e5090", "is_reserved": 0, "rental_uris": {"android": "https://dc.lft.to/lastmile_qr_scan", "ios": "https://dc.lft.to/lastmile_qr_scan"}, "fusion_lon": 0.0}, {"lat": 38.90964783333333, "is_disabled": 0, "type": "electric_scooter", "lon": -77.009403, "bike_id": "74bb0f9f2c323d1244c9f41f27ec3c70", "fusion_lat": 0.0, "name": "74bb0f9f2c323d1244c9f41f27ec3c70", "is_reserved": 0, "rental_uris": {"android": "https://dc.lft.to/lastmile_qr_scan", "ios": "https://dc.lft.to/lastmile_qr_scan"}, "fusion_lon": 0.0}, {"lat": 38.9055325, "is_disabled": 0, "type": "electric_scooter", "lon": -77.03419766666667, "bike_id": "acb15c725ec65adc0cc0fca54dce7de0", "fusion_lat": 0.0, "name": "acb15c725ec65adc0cc0fca54dce7de0", "is_reserved": 0, "rental_uris": {"android": "https://dc.lft.to/lastmile_qr_scan", "ios": "https://dc.lft.to/lastmile_qr_scan"}, "fusion_lon": 0.0}, {"lat": 38.893458333333335, "is_disabled": 0, "type": "electric_scooter", "lon": -76.9493545, "bike_id": "cb8f861e4dd694e34cdaa6509d7fdb65", "fusion_lat": 0.0, "name": "cb8f861e4dd694e34cdaa6509d7fdb65", "is_reserved": 0, "rental_uris": {"android": "https://dc.lft.to/lastmile_qr_scan", "ios": "https://dc.lft.to/lastmile_qr_scan"}, "fusion_lon": 0.0}, {"lat": 38.928733, "is_disabled": 0, "type": "electric_scooter", "lon": -77.0323535, "bike_id": "b9879dbe57dc27b66e41e0dedd3f6db5", "fusion_lat": 0.0, "name": "b9879dbe57dc27b66e41e0dedd3f6db5", "is_reserved": 0, "rental_uris": {"android": "https://dc.lft.to/lastmile_qr_scan", "ios": "https://dc.lft.to/lastmile_qr_scan"}, "fusion_lon": 0.0}, {"lat": 38.895099333333334, "is_disabled": 0, "type": "electric_bike", "lon": -77.07364583333333, "bike_id": "cacf819fd2ed7aa65c8bec81f097e203", "fusion_lat": 0.0, "name": "cacf819fd2ed7aa65c8bec81f097e203", "is_reserved": 0, "rental_uris": {"android": "https://dc.lft.to/lastmile_qr_scan", "ios": "https://dc.lft.to/lastmile_qr_scan"}, "fusion_lon": 0.0}, {"lat": 38.916947, "is_disabled": 0, "type": "electric_scooter", "lon": -77.031307, "bike_id": "6156a5801c80894a9fcd152c4c77aa28", "fusion_lat": 0.0, "name": "6156a5801c80894a9fcd152c4c77aa28", "is_reserved": 0, "rental_uris": {"android": "https://dc.lft.to/lastmile_qr_scan", "ios": "https://dc.lft.to/lastmile_qr_scan"}, "fusion_lon": 0.0}, {"lat": 38.918267666666665, "is_disabled": 0, "type": "electric_scooter", "lon": -77.03445183333334, "bike_id": "05449b66c1ba64a91c2e9a6c59d86197", "fusion_lat": 0.0, "name": "05449b66c1ba64a91c2e9a6c59d86197", "is_reserved": 0, "rental_uris": {"android": "https://dc.lft.to/lastmile_qr_scan", "ios": "https://dc.lft.to/lastmile_qr_scan"}, "fusion_lon": 0.0}, {"lat": 38.924243833333335, "is_disabled": 0, "type": "electric_scooter", "lon": -77.05179266666667, "bike_id": "5431927f63d56ab2f3c44c339be6bf1c", "fusion_lat": 0.0, "name": "5431927f63d56ab2f3c44c339be6bf1c", "is_reserved": 0, "rental_uris": {"android": "https://dc.lft.to/lastmile_qr_scan", "ios": "https://dc.lft.to/lastmile_qr_scan"}, "fusion_lon": 0.0}, {"lat": 38.9443065, "is_disabled": 0, "type": "electric_scooter", "lon": -76.99209, "bike_id": "846552c4467b5537530c002c1e5d0f82", "fusion_lat": 0.0, "name": "846552c4467b5537530c002c1e5d0f82", "is_reserved": 0, "rental_uris": {"android": "https://dc.lft.to/lastmile_qr_scan", "ios": "https://dc.lft.to/lastmile_qr_scan"}, "fusion_lon": 0.0}, {"lat": 38.892496333333334, "is_disabled": 0, "type": "electric_scooter", "lon": -77.03956616666666, "bike_id": "a22998088850f1e100c12bbb1343c627", "fusion_lat": 0.0, "name": "a22998088850f1e100c12bbb1343c627", "is_reserved": 0, "rental_uris": {"android": "https://dc.lft.to/lastmile_qr_scan", "ios": "https://dc.lft.to/lastmile_qr_scan"}, "fusion_lon": 0.0}, {"lat": 38.89096266666667, "is_disabled": 0, "type": "electric_scooter", "lon": -76.94297983333334, "bike_id": "b60340e7fba2865e866e7307d40a71b9", "fusion_lat": 0.0, "name": "b60340e7fba2865e866e7307d40a71b9", "is_reserved": 0, "rental_uris": {"android": "https://dc.lft.to/lastmile_qr_scan", "ios": "https://dc.lft.to/lastmile_qr_scan"}, "fusion_lon": 0.0}, {"lat": 38.952794, "is_disabled": 0, "type": "electric_scooter", "lon": -77.03653466666667, "bike_id": "c51110eba12d1ec9b1bbf9de4952f29f", "fusion_lat": 0.0, "name": "c51110eba12d1ec9b1bbf9de4952f29f", "is_reserved": 0, "rental_uris": {"android": "https://dc.lft.to/lastmile_qr_scan", "ios": "https://dc.lft.to/lastmile_qr_scan"}, "fusion_lon": 0.0}, {"lat": 38.916038, "is_disabled": 0, "type": "electric_scooter", "lon": -77.075571, "bike_id": "a5b8ec142899fd61aacda43239192c12", "fusion_lat": 0.0, "name": "a5b8ec142899fd61aacda43239192c12", "is_reserved": 0, "rental_uris": {"android": "https://dc.lft.to/lastmile_qr_scan", "ios": "https://dc.lft.to/lastmile_qr_scan"}, "fusion_lon": 0.0}, {"lat": 38.924591166666666, "is_disabled": 0, "type": "electric_bike", "lon": -77.208346, "bike_id": "59f2a5378d7f25659b7ac4fcfb78de4b", "fusion_lat": 0.0, "name": "59f2a5378d7f25659b7ac4fcfb78de4b", "is_reserved": 0, "rental_uris": {"android": "https://dc.lft.to/lastmile_qr_scan", "ios": "https://dc.lft.to/lastmile_qr_scan"}, "fusion_lon": 0.0}, {"lat": 38.9639365, "is_disabled": 0, "type": "electric_scooter", "lon": -77.0259185, "bike_id": "d8f49a8edfd02492739454650735d604", "fusion_lat": 0.0, "name": "d8f49a8edfd02492739454650735d604", "is_reserved": 0, "rental_uris": {"android": "https://dc.lft.to/lastmile_qr_scan", "ios": "https://dc.lft.to/lastmile_qr_scan"}, "fusion_lon": 0.0}, {"lat": 38.92940383333333, "is_disabled": 0, "type": "electric_scooter", "lon": -77.0703465, "bike_id": "f958bff2aa9f0d0e8411d0145ca0aca8", "fusion_lat": 0.0, "name": "f958bff2aa9f0d0e8411d0145ca0aca8", "is_reserved": 0, "rental_uris": {"android": "https://dc.lft.to/lastmile_qr_scan", "ios": "https://dc.lft.to/lastmile_qr_scan"}, "fusion_lon": 0.0}, {"lat": 38.902155666666665, "is_disabled": 0, "type": "electric_scooter", "lon": -77.005371, "bike_id": "ef4d5b913253cad9201116b3baf57505", "fusion_lat": 0.0, "name": "ef4d5b913253cad9201116b3baf57505", "is_reserved": 0, "rental_uris": {"android": "https://dc.lft.to/lastmile_qr_scan", "ios": "https://dc.lft.to/lastmile_qr_scan"}, "fusion_lon": 0.0}, {"lat": 38.9294165, "is_disabled": 0, "type": "electric_scooter", "lon": -77.03250383333334, "bike_id": "266471f2d909fd8a3aae61de024eef2d", "fusion_lat": 0.0, "name": "266471f2d909fd8a3aae61de024eef2d", "is_reserved": 0, "rental_uris": {"android": "https://dc.lft.to/lastmile_qr_scan", "ios": "https://dc.lft.to/lastmile_qr_scan"}, "fusion_lon": 0.0}, {"lat": 38.8774535, "is_disabled": 0, "type": "electric_bike", "lon": -76.99518683333334, "bike_id": "ce62d9f9b82e0657f832d02b3ceb05bf", "fusion_lat": 0.0, "name": "ce62d9f9b82e0657f832d02b3ceb05bf", "is_reserved": 0, "rental_uris": {"android": "https://dc.lft.to/lastmile_qr_scan", "ios": "https://dc.lft.to/lastmile_qr_scan"}, "fusion_lon": 0.0}, {"lat": 38.918947833333334, "is_disabled": 0, "type": "electric_scooter", "lon": -77.034466, "bike_id": "24de31e401f115e946c00310a397cb66", "fusion_lat": 0.0, "name": "24de31e401f115e946c00310a397cb66", "is_reserved": 0, "rental_uris": {"android": "https://dc.lft.to/lastmile_qr_scan", "ios": "https://dc.lft.to/lastmile_qr_scan"}, "fusion_lon": 0.0}, {"lat": 38.927127666666664, "is_disabled": 0, "type": "electric_scooter", "lon": -77.02094283333334, "bike_id": "06ea58ad5100aae04600621763e44702", "fusion_lat": 0.0, "name": "06ea58ad5100aae04600621763e44702", "is_reserved": 0, "rental_uris": {"android": "https://dc.lft.to/lastmile_qr_scan", "ios": "https://dc.lft.to/lastmile_qr_scan"}, "fusion_lon": 0.0}, {"lat": 38.900385166666666, "is_disabled": 0, "type": "electric_scooter", "lon": -77.00580883333333, "bike_id": "1fe9eced490dfda1e4cca76315a72182", "fusion_lat": 0.0, "name": "1fe9eced490dfda1e4cca76315a72182", "is_reserved": 0, "rental_uris": {"android": "https://dc.lft.to/lastmile_qr_scan", "ios": "https://dc.lft.to/lastmile_qr_scan"}, "fusion_lon": 0.0}, {"lat": 38.85810333333333, "is_disabled": 0, "type": "electric_scooter", "lon": -76.9865535, "bike_id": "c1d1284c232beb34684056a90a9b770b", "fusion_lat": 0.0, "name": "c1d1284c232beb34684056a90a9b770b", "is_reserved": 0, "rental_uris": {"android": "https://dc.lft.to/lastmile_qr_scan", "ios": "https://dc.lft.to/lastmile_qr_scan"}, "fusion_lon": 0.0}, {"lat": 38.9446555, "is_disabled": 0, "type": "electric_scooter", "lon": -77.06032516666667, "bike_id": "691cc91efc13bc24f0f1d11debba6c0d", "fusion_lat": 0.0, "name": "691cc91efc13bc24f0f1d11debba6c0d", "is_reserved": 0, "rental_uris": {"android": "https://dc.lft.to/lastmile_qr_scan", "ios": "https://dc.lft.to/lastmile_qr_scan"}, "fusion_lon": 0.0}, {"lat": 38.924738, "is_disabled": 0, "type": "electric_scooter", "lon": -77.03381883333333, "bike_id": "faa76870e328f25492f2aab3df86a75e", "fusion_lat": 0.0, "name": "faa76870e328f25492f2aab3df86a75e", "is_reserved": 0, "rental_uris": {"android": "https://dc.lft.to/lastmile_qr_scan", "ios": "https://dc.lft.to/lastmile_qr_scan"}, "fusion_lon": 0.0}, {"lat": 38.9055955, "is_disabled": 0, "type": "electric_scooter", "lon": -77.00560833333333, "bike_id": "29e9de07c7df197edc5c12826e9d3101", "fusion_lat": 0.0, "name": "29e9de07c7df197edc5c12826e9d3101", "is_reserved": 0, "rental_uris": {"android": "https://dc.lft.to/lastmile_qr_scan", "ios": "https://dc.lft.to/lastmile_qr_scan"}, "fusion_lon": 0.0}, {"lat": 38.91732066666667, "is_disabled": 0, "type": "electric_scooter", "lon": -77.02400666666666, "bike_id": "f956b789e4ea9d0a54d8c9b0776d0e33", "fusion_lat": 0.0, "name": "f956b789e4ea9d0a54d8c9b0776d0e33", "is_reserved": 0, "rental_uris": {"android": "https://dc.lft.to/lastmile_qr_scan", "ios": "https://dc.lft.to/lastmile_qr_scan"}, "fusion_lon": 0.0}, {"lat": 38.896012, "is_disabled": 0, "type": "electric_scooter", "lon": -76.9552005, "bike_id": "528d98f9b9c2c944a1eed4159048a396", "fusion_lat": 0.0, "name": "528d98f9b9c2c944a1eed4159048a396", "is_reserved": 0, "rental_uris": {"android": "https://dc.lft.to/lastmile_qr_scan", "ios": "https://dc.lft.to/lastmile_qr_scan"}, "fusion_lon": 0.0}, {"lat": 38.90558983333333, "is_disabled": 0, "type": "electric_scooter", "lon": -77.00284283333333, "bike_id": "8f880033fbc248bb22d832fed7e20898", "fusion_lat": 0.0, "name": "8f880033fbc248bb22d832fed7e20898", "is_reserved": 0, "rental_uris": {"android": "https://dc.lft.to/lastmile_qr_scan", "ios": "https://dc.lft.to/lastmile_qr_scan"}, "fusion_lon": 0.0}, {"lat": 38.9081135, "is_disabled": 0, "type": "electric_scooter", "lon": -76.98291033333334, "bike_id": "ccecc7e7b5d05b59eac227fa5e34b65f", "fusion_lat": 0.0, "name": "ccecc7e7b5d05b59eac227fa5e34b65f", "is_reserved": 0, "rental_uris": {"android": "https://dc.lft.to/lastmile_qr_scan", "ios": "https://dc.lft.to/lastmile_qr_scan"}, "fusion_lon": 0.0}, {"lat": 38.884788, "is_disabled": 0, "type": "electric_scooter", "lon": -76.94525266666666, "bike_id": "88985c293475aa7dc62d74f4c2d15e69", "fusion_lat": 0.0, "name": "88985c293475aa7dc62d74f4c2d15e69", "is_reserved": 0, "rental_uris": {"android": "https://dc.lft.to/lastmile_qr_scan", "ios": "https://dc.lft.to/lastmile_qr_scan"}, "fusion_lon": 0.0}, {"lat": 38.93359316666667, "is_disabled": 0, "type": "electric_scooter", "lon": -77.037318, "bike_id": "bd40cec2d93b70f1cc3bc006c0db921c", "fusion_lat": 0.0, "name": "bd40cec2d93b70f1cc3bc006c0db921c", "is_reserved": 0, "rental_uris": {"android": "https://dc.lft.to/lastmile_qr_scan", "ios": "https://dc.lft.to/lastmile_qr_scan"}, "fusion_lon": 0.0}, {"lat": 38.9076835, "is_disabled": 0, "type": "electric_scooter", "lon": -77.043476, "bike_id": "6a35508157a74cb15416933bdd44a5b0", "fusion_lat": 0.0, "name": "6a35508157a74cb15416933bdd44a5b0", "is_reserved": 0, "rental_uris": {"android": "https://dc.lft.to/lastmile_qr_scan", "ios": "https://dc.lft.to/lastmile_qr_scan"}, "fusion_lon": 0.0}, {"lat": 38.920509333333335, "is_disabled": 0, "type": "electric_scooter", "lon": -77.03390633333333, "bike_id": "65219fbb98c1a7b45e00522581f40172", "fusion_lat": 0.0, "name": "65219fbb98c1a7b45e00522581f40172", "is_reserved": 0, "rental_uris": {"android": "https://dc.lft.to/lastmile_qr_scan", "ios": "https://dc.lft.to/lastmile_qr_scan"}, "fusion_lon": 0.0}, {"lat": 38.9027475, "is_disabled": 0, "type": "electric_scooter", "lon": -77.019025, "bike_id": "90e16df7d699f4d30a4015c081cb1b76", "fusion_lat": 0.0, "name": "90e16df7d699f4d30a4015c081cb1b76", "is_reserved": 0, "rental_uris": {"android": "https://dc.lft.to/lastmile_qr_scan", "ios": "https://dc.lft.to/lastmile_qr_scan"}, "fusion_lon": 0.0}, {"lat": 38.953550666666665, "is_disabled": 0, "type": "electric_bike", "lon": -76.9809235, "bike_id": "ce86e346a919cac9f97a5ce5ca82fcc3", "fusion_lat": 0.0, "name": "ce86e346a919cac9f97a5ce5ca82fcc3", "is_reserved": 0, "rental_uris": {"android": "https://dc.lft.to/lastmile_qr_scan", "ios": "https://dc.lft.to/lastmile_qr_scan"}, "fusion_lon": 0.0}, {"lat": 38.9020575, "is_disabled": 0, "type": "electric_scooter", "lon": -77.0232015, "bike_id": "27cbc112b697316dfcba53003cf7d3be", "fusion_lat": 0.0, "name": "27cbc112b697316dfcba53003cf7d3be", "is_reserved": 0, "rental_uris": {"android": "https://dc.lft.to/lastmile_qr_scan", "ios": "https://dc.lft.to/lastmile_qr_scan"}, "fusion_lon": 0.0}, {"lat": 38.914105, "is_disabled": 0, "type": "electric_scooter", "lon": -77.035267, "bike_id": "65abe02860d4999930a128f64d46794a", "fusion_lat": 0.0, "name": "65abe02860d4999930a128f64d46794a", "is_reserved": 0, "rental_uris": {"android": "https://dc.lft.to/lastmile_qr_scan", "ios": "https://dc.lft.to/lastmile_qr_scan"}, "fusion_lon": 0.0}, {"lat": 38.897347333333336, "is_disabled": 0, "type": "electric_scooter", "lon": -76.94720316666667, "bike_id": "3cb780a0999a9e10f6d6b08601bcd8be", "fusion_lat": 0.0, "name": "3cb780a0999a9e10f6d6b08601bcd8be", "is_reserved": 0, "rental_uris": {"android": "https://dc.lft.to/lastmile_qr_scan", "ios": "https://dc.lft.to/lastmile_qr_scan"}, "fusion_lon": 0.0}, {"lat": 38.898940833333334, "is_disabled": 0, "type": "electric_scooter", "lon": -76.98421983333333, "bike_id": "2918e1448ebf1fe83dddaae4d9fafefc", "fusion_lat": 0.0, "name": "2918e1448ebf1fe83dddaae4d9fafefc", "is_reserved": 0, "rental_uris": {"android": "https://dc.lft.to/lastmile_qr_scan", "ios": "https://dc.lft.to/lastmile_qr_scan"}, "fusion_lon": 0.0}, {"lat": 38.903018333333335, "is_disabled": 0, "type": "electric_scooter", "lon": -77.051394, "bike_id": "e5793d862f6faef5be7516d1a20b1a53", "fusion_lat": 0.0, "name": "e5793d862f6faef5be7516d1a20b1a53", "is_reserved": 0, "rental_uris": {"android": "https://dc.lft.to/lastmile_qr_scan", "ios": "https://dc.lft.to/lastmile_qr_scan"}, "fusion_lon": 0.0}, {"lat": 38.904005833333336, "is_disabled": 0, "type": "electric_scooter", "lon": -76.9929715, "bike_id": "a658b662218a81607ea49dc7f5f5332b", "fusion_lat": 0.0, "name": "a658b662218a81607ea49dc7f5f5332b", "is_reserved": 0, "rental_uris": {"android": "https://dc.lft.to/lastmile_qr_scan", "ios": "https://dc.lft.to/lastmile_qr_scan"}, "fusion_lon": 0.0}, {"lat": 38.927077833333335, "is_disabled": 0, "type": "electric_scooter", "lon": -77.02408283333334, "bike_id": "c3567c5ebe2306a6be568cf780474bcb", "fusion_lat": 0.0, "name": "c3567c5ebe2306a6be568cf780474bcb", "is_reserved": 0, "rental_uris": {"android": "https://dc.lft.to/lastmile_qr_scan", "ios": "https://dc.lft.to/lastmile_qr_scan"}, "fusion_lon": 0.0}, {"lat": 38.9190595, "is_disabled": 0, "type": "electric_scooter", "lon": -77.02414033333334, "bike_id": "69b1e6433668bba765b0c61b1e5ec4c0", "fusion_lat": 0.0, "name": "69b1e6433668bba765b0c61b1e5ec4c0", "is_reserved": 0, "rental_uris": {"android": "https://dc.lft.to/lastmile_qr_scan", "ios": "https://dc.lft.to/lastmile_qr_scan"}, "fusion_lon": 0.0}, {"lat": 38.90369966666667, "is_disabled": 0, "type": "electric_scooter", "lon": -77.05794566666667, "bike_id": "a08f5d20c092f6c06500ae38425e9406", "fusion_lat": 0.0, "name": "a08f5d20c092f6c06500ae38425e9406", "is_reserved": 0, "rental_uris": {"android": "https://dc.lft.to/lastmile_qr_scan", "ios": "https://dc.lft.to/lastmile_qr_scan"}, "fusion_lon": 0.0}, {"lat": 38.909415333333335, "is_disabled": 0, "type": "electric_scooter", "lon": -77.04292733333334, "bike_id": "b6ba14d46ac73b6b62431f47d14c889d", "fusion_lat": 0.0, "name": "b6ba14d46ac73b6b62431f47d14c889d", "is_reserved": 0, "rental_uris": {"android": "https://dc.lft.to/lastmile_qr_scan", "ios": "https://dc.lft.to/lastmile_qr_scan"}, "fusion_lon": 0.0}, {"lat": 38.915554166666666, "is_disabled": 0, "type": "electric_scooter", "lon": -77.0316175, "bike_id": "fb6729a78608418680488fdf274541f3", "fusion_lat": 0.0, "name": "fb6729a78608418680488fdf274541f3", "is_reserved": 0, "rental_uris": {"android": "https://dc.lft.to/lastmile_qr_scan", "ios": "https://dc.lft.to/lastmile_qr_scan"}, "fusion_lon": 0.0}, {"lat": 38.855587166666666, "is_disabled": 0, "type": "electric_bike", "lon": -77.08198616666667, "bike_id": "2276c39fe5324666fa7f6ae3508b3d6a", "fusion_lat": 0.0, "name": "2276c39fe5324666fa7f6ae3508b3d6a", "is_reserved": 0, "rental_uris": {"android": "https://dc.lft.to/lastmile_qr_scan", "ios": "https://dc.lft.to/lastmile_qr_scan"}, "fusion_lon": 0.0}, {"lat": 38.9197395, "is_disabled": 0, "type": "electric_scooter", "lon": -77.023516, "bike_id": "5c83aa6f687252f3e5381f5177c9f6d4", "fusion_lat": 0.0, "name": "5c83aa6f687252f3e5381f5177c9f6d4", "is_reserved": 0, "rental_uris": {"android": "https://dc.lft.to/lastmile_qr_scan", "ios": "https://dc.lft.to/lastmile_qr_scan"}, "fusion_lon": 0.0}, {"lat": 38.9365895, "is_disabled": 0, "type": "electric_bike", "lon": -76.95214066666666, "bike_id": "4760c805777428b5c8a6e11c6f421f20", "fusion_lat": 0.0, "name": "4760c805777428b5c8a6e11c6f421f20", "is_reserved": 0, "rental_uris": {"android": "https://dc.lft.to/lastmile_qr_scan", "ios": "https://dc.lft.to/lastmile_qr_scan"}, "fusion_lon": 0.0}, {"lat": 38.906507833333336, "is_disabled": 0, "type": "electric_scooter", "lon": -77.03449883333333, "bike_id": "bf4185af0aae275a3008511da28c90d9", "fusion_lat": 0.0, "name": "bf4185af0aae275a3008511da28c90d9", "is_reserved": 0, "rental_uris": {"android": "https://dc.lft.to/lastmile_qr_scan", "ios": "https://dc.lft.to/lastmile_qr_scan"}, "fusion_lon": 0.0}, {"lat": 38.909615, "is_disabled": 0, "type": "electric_scooter", "lon": -77.0402345, "bike_id": "a79dd87c5e5565a343c011f1019a5bbb", "fusion_lat": 0.0, "name": "a79dd87c5e5565a343c011f1019a5bbb", "is_reserved": 0, "rental_uris": {"android": "https://dc.lft.to/lastmile_qr_scan", "ios": "https://dc.lft.to/lastmile_qr_scan"}, "fusion_lon": 0.0}, {"lat": 39.03428433333333, "is_disabled": 0, "type": "electric_bike", "lon": -77.04307, "bike_id": "5fdfbe512ab4c98839733a657013a0f3", "fusion_lat": 0.0, "name": "5fdfbe512ab4c98839733a657013a0f3", "is_reserved": 0, "rental_uris": {"android": "https://dc.lft.to/lastmile_qr_scan", "ios": "https://dc.lft.to/lastmile_qr_scan"}, "fusion_lon": 0.0}, {"lat": 38.88742383333334, "is_disabled": 0, "type": "electric_scooter", "lon": -77.02833733333334, "bike_id": "d898ff63fdc74ee47cca3860e9e34664", "fusion_lat": 0.0, "name": "d898ff63fdc74ee47cca3860e9e34664", "is_reserved": 0, "rental_uris": {"android": "https://dc.lft.to/lastmile_qr_scan", "ios": "https://dc.lft.to/lastmile_qr_scan"}, "fusion_lon": 0.0}, {"lat": 38.927964, "is_disabled": 0, "type": "electric_scooter", "lon": -77.0260055, "bike_id": "b70b80efc6d388a4d2a96e59a12e7ea4", "fusion_lat": 0.0, "name": "b70b80efc6d388a4d2a96e59a12e7ea4", "is_reserved": 0, "rental_uris": {"android": "https://dc.lft.to/lastmile_qr_scan", "ios": "https://dc.lft.to/lastmile_qr_scan"}, "fusion_lon": 0.0}, {"lat": 38.91545266666667, "is_disabled": 0, "type": "electric_scooter", "lon": -77.02200866666666, "bike_id": "b4873a705eaf3d26648fddf1060a79da", "fusion_lat": 0.0, "name": "b4873a705eaf3d26648fddf1060a79da", "is_reserved": 0, "rental_uris": {"android": "https://dc.lft.to/lastmile_qr_scan", "ios": "https://dc.lft.to/lastmile_qr_scan"}, "fusion_lon": 0.0}, {"lat": 38.879437, "is_disabled": 0, "type": "electric_bike", "lon": -76.98381083333334, "bike_id": "faa7e71084249db0b726d6fefd1d5c38", "fusion_lat": 0.0, "name": "faa7e71084249db0b726d6fefd1d5c38", "is_reserved": 0, "rental_uris": {"android": "https://dc.lft.to/lastmile_qr_scan", "ios": "https://dc.lft.to/lastmile_qr_scan"}, "fusion_lon": 0.0}, {"lat": 38.92435733333333, "is_disabled": 0, "type": "electric_scooter", "lon": -77.03400633333334, "bike_id": "c31ebbd11c7400ce01ee1e73f1c0ff1a", "fusion_lat": 0.0, "name": "c31ebbd11c7400ce01ee1e73f1c0ff1a", "is_reserved": 0, "rental_uris": {"android": "https://dc.lft.to/lastmile_qr_scan", "ios": "https://dc.lft.to/lastmile_qr_scan"}, "fusion_lon": 0.0}, {"lat": 38.881180666666666, "is_disabled": 0, "type": "electric_scooter", "lon": -77.00097816666667, "bike_id": "184c33da5fd9cc17b15247706d31e806", "fusion_lat": 0.0, "name": "184c33da5fd9cc17b15247706d31e806", "is_reserved": 0, "rental_uris": {"android": "https://dc.lft.to/lastmile_qr_scan", "ios": "https://dc.lft.to/lastmile_qr_scan"}, "fusion_lon": 0.0}, {"lat": 38.885124, "is_disabled": 0, "type": "electric_scooter", "lon": -77.005746, "bike_id": "a3cd3ebd75da022b3eb644b2e98c8acb", "fusion_lat": 0.0, "name": "a3cd3ebd75da022b3eb644b2e98c8acb", "is_reserved": 0, "rental_uris": {"android": "https://dc.lft.to/lastmile_qr_scan", "ios": "https://dc.lft.to/lastmile_qr_scan"}, "fusion_lon": 0.0}, {"lat": 38.973299833333336, "is_disabled": 0, "type": "electric_bike", "lon": -77.0214865, "bike_id": "1953f0331dd7920fd4df9dfbfe9fa9e8", "fusion_lat": 0.0, "name": "1953f0331dd7920fd4df9dfbfe9fa9e8", "is_reserved": 0, "rental_uris": {"android": "https://dc.lft.to/lastmile_qr_scan", "ios": "https://dc.lft.to/lastmile_qr_scan"}, "fusion_lon": 0.0}, {"lat": 38.900285, "is_disabled": 0, "type": "electric_scooter", "lon": -76.99612516666667, "bike_id": "0c8807016d39b15f168ff1cfc1603330", "fusion_lat": 0.0, "name": "0c8807016d39b15f168ff1cfc1603330", "is_reserved": 0, "rental_uris": {"android": "https://dc.lft.to/lastmile_qr_scan", "ios": "https://dc.lft.to/lastmile_qr_scan"}, "fusion_lon": 0.0}, {"lat": 38.91109633333333, "is_disabled": 0, "type": "electric_scooter", "lon": -77.044996, "bike_id": "c2dce040b55b66e3a1fc689724a90120", "fusion_lat": 0.0, "name": "c2dce040b55b66e3a1fc689724a90120", "is_reserved": 0, "rental_uris": {"android": "https://dc.lft.to/lastmile_qr_scan", "ios": "https://dc.lft.to/lastmile_qr_scan"}, "fusion_lon": 0.0}, {"lat": 38.89778616666667, "is_disabled": 0, "type": "electric_scooter", "lon": -77.03198416666666, "bike_id": "2b62062b185e2eaa4035dd92e8c5378f", "fusion_lat": 0.0, "name": "2b62062b185e2eaa4035dd92e8c5378f", "is_reserved": 0, "rental_uris": {"android": "https://dc.lft.to/lastmile_qr_scan", "ios": "https://dc.lft.to/lastmile_qr_scan"}, "fusion_lon": 0.0}, {"lat": 38.902541666666664, "is_disabled": 0, "type": "electric_scooter", "lon": -77.03363666666667, "bike_id": "8365a9f4de0efad96b33756bafa1c453", "fusion_lat": 0.0, "name": "8365a9f4de0efad96b33756bafa1c453", "is_reserved": 0, "rental_uris": {"android": "https://dc.lft.to/lastmile_qr_scan", "ios": "https://dc.lft.to/lastmile_qr_scan"}, "fusion_lon": 0.0}, {"lat": 38.90577833333333, "is_disabled": 0, "type": "electric_scooter", "lon": -77.04872116666667, "bike_id": "e6da220ca950bb6eba91a94f84dd4c9d", "fusion_lat": 0.0, "name": "e6da220ca950bb6eba91a94f84dd4c9d", "is_reserved": 0, "rental_uris": {"android": "https://dc.lft.to/lastmile_qr_scan", "ios": "https://dc.lft.to/lastmile_qr_scan"}, "fusion_lon": 0.0}, {"lat": 38.84426833333333, "is_disabled": 0, "type": "electric_scooter", "lon": -76.99775016666666, "bike_id": "21d1931d6d74502f6ade096b6eb80dc4", "fusion_lat": 0.0, "name": "21d1931d6d74502f6ade096b6eb80dc4", "is_reserved": 0, "rental_uris": {"android": "https://dc.lft.to/lastmile_qr_scan", "ios": "https://dc.lft.to/lastmile_qr_scan"}, "fusion_lon": 0.0}, {"lat": 38.91180766666667, "is_disabled": 0, "type": "electric_scooter", "lon": -77.03832866666667, "bike_id": "2ea01a77ebbf7f2ec2da2718cc50d5b3", "fusion_lat": 0.0, "name": "2ea01a77ebbf7f2ec2da2718cc50d5b3", "is_reserved": 0, "rental_uris": {"android": "https://dc.lft.to/lastmile_qr_scan", "ios": "https://dc.lft.to/lastmile_qr_scan"}, "fusion_lon": 0.0}, {"lat": 38.87625966666667, "is_disabled": 0, "type": "electric_scooter", "lon": -77.00740133333333, "bike_id": "31a26898c0487d7e75c117fd9ec60af3", "fusion_lat": 0.0, "name": "31a26898c0487d7e75c117fd9ec60af3", "is_reserved": 0, "rental_uris": {"android": "https://dc.lft.to/lastmile_qr_scan", "ios": "https://dc.lft.to/lastmile_qr_scan"}, "fusion_lon": 0.0}, {"lat": 38.9149855, "is_disabled": 0, "type": "electric_scooter", "lon": -77.01861416666667, "bike_id": "de3e4f1c5a45adff2842ee87d7e99d32", "fusion_lat": 0.0, "name": "de3e4f1c5a45adff2842ee87d7e99d32", "is_reserved": 0, "rental_uris": {"android": "https://dc.lft.to/lastmile_qr_scan", "ios": "https://dc.lft.to/lastmile_qr_scan"}, "fusion_lon": 0.0}, {"lat": 38.93480566666667, "is_disabled": 0, "type": "electric_scooter", "lon": -77.036037, "bike_id": "1e0887800bed785694bd1f5bf1a5f90b", "fusion_lat": 0.0, "name": "1e0887800bed785694bd1f5bf1a5f90b", "is_reserved": 0, "rental_uris": {"android": "https://dc.lft.to/lastmile_qr_scan", "ios": "https://dc.lft.to/lastmile_qr_scan"}, "fusion_lon": 0.0}, {"lat": 38.859063166666665, "is_disabled": 0, "type": "electric_scooter", "lon": -76.99139983333333, "bike_id": "6ba5020f35fed3e6996016149892c34c", "fusion_lat": 0.0, "name": "6ba5020f35fed3e6996016149892c34c", "is_reserved": 0, "rental_uris": {"android": "https://dc.lft.to/lastmile_qr_scan", "ios": "https://dc.lft.to/lastmile_qr_scan"}, "fusion_lon": 0.0}, {"lat": 38.90625133333333, "is_disabled": 0, "type": "electric_scooter", "lon": -76.98984516666667, "bike_id": "0694c78b889ea50d78fdee975b6bf5b0", "fusion_lat": 0.0, "name": "0694c78b889ea50d78fdee975b6bf5b0", "is_reserved": 0, "rental_uris": {"android": "https://dc.lft.to/lastmile_qr_scan", "ios": "https://dc.lft.to/lastmile_qr_scan"}, "fusion_lon": 0.0}, {"lat": 38.89906216666667, "is_disabled": 0, "type": "electric_scooter", "lon": -76.933589, "bike_id": "66b174ba89b8eef7eed2607dac497fad", "fusion_lat": 0.0, "name": "66b174ba89b8eef7eed2607dac497fad", "is_reserved": 0, "rental_uris": {"android": "https://dc.lft.to/lastmile_qr_scan", "ios": "https://dc.lft.to/lastmile_qr_scan"}, "fusion_lon": 0.0}, {"lat": 38.89599833333333, "is_disabled": 0, "type": "electric_bike", "lon": -77.0221625, "bike_id": "9494323e944147651463a2b8174c310c", "fusion_lat": 0.0, "name": "9494323e944147651463a2b8174c310c", "is_reserved": 0, "rental_uris": {"android": "https://dc.lft.to/lastmile_qr_scan", "ios": "https://dc.lft.to/lastmile_qr_scan"}, "fusion_lon": 0.0}, {"lat": 38.8910465, "is_disabled": 0, "type": "electric_scooter", "lon": -76.94385933333334, "bike_id": "038ad026f537dce1018acc4800cf805c", "fusion_lat": 0.0, "name": "038ad026f537dce1018acc4800cf805c", "is_reserved": 0, "rental_uris": {"android": "https://dc.lft.to/lastmile_qr_scan", "ios": "https://dc.lft.to/lastmile_qr_scan"}, "fusion_lon": 0.0}, {"lat": 38.93060116666667, "is_disabled": 0, "type": "electric_scooter", "lon": -77.04180516666666, "bike_id": "e61a6fc5125d27e69c575ea5ae6e06e1", "fusion_lat": 0.0, "name": "e61a6fc5125d27e69c575ea5ae6e06e1", "is_reserved": 0, "rental_uris": {"android": "https://dc.lft.to/lastmile_qr_scan", "ios": "https://dc.lft.to/lastmile_qr_scan"}, "fusion_lon": 0.0}, {"lat": 38.915187, "is_disabled": 0, "type": "electric_scooter", "lon": -77.0384405, "bike_id": "8dec5e35776f8f2863d3d5cc8b7bb9d1", "fusion_lat": 0.0, "name": "8dec5e35776f8f2863d3d5cc8b7bb9d1", "is_reserved": 0, "rental_uris": {"android": "https://dc.lft.to/lastmile_qr_scan", "ios": "https://dc.lft.to/lastmile_qr_scan"}, "fusion_lon": 0.0}, {"lat": 38.90869383333333, "is_disabled": 0, "type": "electric_scooter", "lon": -77.08593683333334, "bike_id": "80c357ebd746383969f244dd8105c814", "fusion_lat": 0.0, "name": "80c357ebd746383969f244dd8105c814", "is_reserved": 0, "rental_uris": {"android": "https://dc.lft.to/lastmile_qr_scan", "ios": "https://dc.lft.to/lastmile_qr_scan"}, "fusion_lon": 0.0}, {"lat": 38.934800333333335, "is_disabled": 0, "type": "electric_scooter", "lon": -77.072665, "bike_id": "f50dea576f32b92bc576d72be0d203e4", "fusion_lat": 0.0, "name": "f50dea576f32b92bc576d72be0d203e4", "is_reserved": 0, "rental_uris": {"android": "https://dc.lft.to/lastmile_qr_scan", "ios": "https://dc.lft.to/lastmile_qr_scan"}, "fusion_lon": 0.0}, {"lat": 38.9071225, "is_disabled": 0, "type": "electric_scooter", "lon": -77.00367866666667, "bike_id": "f0b37aff71d8b3d257bab24a0c1448f0", "fusion_lat": 0.0, "name": "f0b37aff71d8b3d257bab24a0c1448f0", "is_reserved": 0, "rental_uris": {"android": "https://dc.lft.to/lastmile_qr_scan", "ios": "https://dc.lft.to/lastmile_qr_scan"}, "fusion_lon": 0.0}, {"lat": 38.909757, "is_disabled": 0, "type": "electric_scooter", "lon": -77.03215583333333, "bike_id": "26c20458892f614192e68984e5a9b401", "fusion_lat": 0.0, "name": "26c20458892f614192e68984e5a9b401", "is_reserved": 0, "rental_uris": {"android": "https://dc.lft.to/lastmile_qr_scan", "ios": "https://dc.lft.to/lastmile_qr_scan"}, "fusion_lon": 0.0}, {"lat": 38.90771433333333, "is_disabled": 0, "type": "electric_scooter", "lon": -77.06810366666667, "bike_id": "6ebfcab3806228a235d8812b35f502c7", "fusion_lat": 0.0, "name": "6ebfcab3806228a235d8812b35f502c7", "is_reserved": 0, "rental_uris": {"android": "https://dc.lft.to/lastmile_qr_scan", "ios": "https://dc.lft.to/lastmile_qr_scan"}, "fusion_lon": 0.0}, {"lat": 38.9077435, "is_disabled": 0, "type": "electric_scooter", "lon": -77.0435685, "bike_id": "32e5d1749d3ef0ed42da2a9ef38977dc", "fusion_lat": 0.0, "name": "32e5d1749d3ef0ed42da2a9ef38977dc", "is_reserved": 0, "rental_uris": {"android": "https://dc.lft.to/lastmile_qr_scan", "ios": "https://dc.lft.to/lastmile_qr_scan"}, "fusion_lon": 0.0}, {"lat": 38.913465333333335, "is_disabled": 0, "type": "electric_scooter", "lon": -77.03183366666667, "bike_id": "317bb5d7d7765bbc87debfae0070c4c2", "fusion_lat": 0.0, "name": "317bb5d7d7765bbc87debfae0070c4c2", "is_reserved": 0, "rental_uris": {"android": "https://dc.lft.to/lastmile_qr_scan", "ios": "https://dc.lft.to/lastmile_qr_scan"}, "fusion_lon": 0.0}, {"lat": 38.90458533333333, "is_disabled": 0, "type": "electric_scooter", "lon": -77.02947633333333, "bike_id": "9baf327cdaab325b64d25605473cdab2", "fusion_lat": 0.0, "name": "9baf327cdaab325b64d25605473cdab2", "is_reserved": 0, "rental_uris": {"android": "https://dc.lft.to/lastmile_qr_scan", "ios": "https://dc.lft.to/lastmile_qr_scan"}, "fusion_lon": 0.0}, {"lat": 38.91701183333333, "is_disabled": 0, "type": "electric_scooter", "lon": -77.00809033333333, "bike_id": "72b2b878309caaecd7e7299a12d14e52", "fusion_lat": 0.0, "name": "72b2b878309caaecd7e7299a12d14e52", "is_reserved": 0, "rental_uris": {"android": "https://dc.lft.to/lastmile_qr_scan", "ios": "https://dc.lft.to/lastmile_qr_scan"}, "fusion_lon": 0.0}, {"lat": 38.930608166666666, "is_disabled": 0, "type": "electric_scooter", "lon": -77.0315515, "bike_id": "a56519959763305baa43cd5e119e9bcd", "fusion_lat": 0.0, "name": "a56519959763305baa43cd5e119e9bcd", "is_reserved": 0, "rental_uris": {"android": "https://dc.lft.to/lastmile_qr_scan", "ios": "https://dc.lft.to/lastmile_qr_scan"}, "fusion_lon": 0.0}, {"lat": 38.9321165, "is_disabled": 0, "type": "electric_scooter", "lon": -77.03657666666666, "bike_id": "8f0099485d57453b2910309d944aacf1", "fusion_lat": 0.0, "name": "8f0099485d57453b2910309d944aacf1", "is_reserved": 0, "rental_uris": {"android": "https://dc.lft.to/lastmile_qr_scan", "ios": "https://dc.lft.to/lastmile_qr_scan"}, "fusion_lon": 0.0}, {"lat": 38.936364833333336, "is_disabled": 0, "type": "electric_scooter", "lon": -77.0587555, "bike_id": "607b8a01bd8aed87bfeb6590d55cd5d3", "fusion_lat": 0.0, "name": "607b8a01bd8aed87bfeb6590d55cd5d3", "is_reserved": 0, "rental_uris": {"android": "https://dc.lft.to/lastmile_qr_scan", "ios": "https://dc.lft.to/lastmile_qr_scan"}, "fusion_lon": 0.0}, {"lat": 38.93344866666666, "is_disabled": 0, "type": "electric_scooter", "lon": -77.05699316666667, "bike_id": "71d92e0b6064142311b33144019d8a93", "fusion_lat": 0.0, "name": "71d92e0b6064142311b33144019d8a93", "is_reserved": 0, "rental_uris": {"android": "https://dc.lft.to/lastmile_qr_scan", "ios": "https://dc.lft.to/lastmile_qr_scan"}, "fusion_lon": 0.0}, {"lat": 38.9201895, "is_disabled": 0, "type": "electric_scooter", "lon": -77.0317705, "bike_id": "a250199ad67df826a0b286dc75f32edd", "fusion_lat": 0.0, "name": "a250199ad67df826a0b286dc75f32edd", "is_reserved": 0, "rental_uris": {"android": "https://dc.lft.to/lastmile_qr_scan", "ios": "https://dc.lft.to/lastmile_qr_scan"}, "fusion_lon": 0.0}, {"lat": 38.8961425, "is_disabled": 0, "type": "electric_scooter", "lon": -76.9559885, "bike_id": "4ea17d5772b9d99753e42f1c72107fb3", "fusion_lat": 0.0, "name": "4ea17d5772b9d99753e42f1c72107fb3", "is_reserved": 0, "rental_uris": {"android": "https://dc.lft.to/lastmile_qr_scan", "ios": "https://dc.lft.to/lastmile_qr_scan"}, "fusion_lon": 0.0}, {"lat": 38.918927, "is_disabled": 0, "type": "electric_scooter", "lon": -77.03904533333333, "bike_id": "2273882b2032ffc5eb4fe94b09b45132", "fusion_lat": 0.0, "name": "2273882b2032ffc5eb4fe94b09b45132", "is_reserved": 0, "rental_uris": {"android": "https://dc.lft.to/lastmile_qr_scan", "ios": "https://dc.lft.to/lastmile_qr_scan"}, "fusion_lon": 0.0}, {"lat": 38.9170855, "is_disabled": 0, "type": "electric_scooter", "lon": -77.03866233333333, "bike_id": "82ab8bb9c024862d77e5faf126c088b7", "fusion_lat": 0.0, "name": "82ab8bb9c024862d77e5faf126c088b7", "is_reserved": 0, "rental_uris": {"android": "https://dc.lft.to/lastmile_qr_scan", "ios": "https://dc.lft.to/lastmile_qr_scan"}, "fusion_lon": 0.0}, {"lat": 38.914001666666664, "is_disabled": 0, "type": "electric_scooter", "lon": -77.03061783333334, "bike_id": "1b526fb9875bb3406835a1dc822d1b84", "fusion_lat": 0.0, "name": "1b526fb9875bb3406835a1dc822d1b84", "is_reserved": 0, "rental_uris": {"android": "https://dc.lft.to/lastmile_qr_scan", "ios": "https://dc.lft.to/lastmile_qr_scan"}, "fusion_lon": 0.0}, {"lat": 38.9026485, "is_disabled": 0, "type": "electric_scooter", "lon": -77.017607, "bike_id": "6efe7a41281292841bfad1e65dbe970e", "fusion_lat": 0.0, "name": "6efe7a41281292841bfad1e65dbe970e", "is_reserved": 0, "rental_uris": {"android": "https://dc.lft.to/lastmile_qr_scan", "ios": "https://dc.lft.to/lastmile_qr_scan"}, "fusion_lon": 0.0}, {"lat": 38.9020755, "is_disabled": 0, "type": "electric_scooter", "lon": -77.0470845, "bike_id": "ea80dad7ef93538f24b37b161813d500", "fusion_lat": 0.0, "name": "ea80dad7ef93538f24b37b161813d500", "is_reserved": 0, "rental_uris": {"android": "https://dc.lft.to/lastmile_qr_scan", "ios": "https://dc.lft.to/lastmile_qr_scan"}, "fusion_lon": 0.0}, {"lat": 38.904622, "is_disabled": 0, "type": "electric_scooter", "lon": -77.0077, "bike_id": "52cb1e19a0b6a0b07c2edddf4c68f189", "fusion_lat": 0.0, "name": "52cb1e19a0b6a0b07c2edddf4c68f189", "is_reserved": 0, "rental_uris": {"android": "https://dc.lft.to/lastmile_qr_scan", "ios": "https://dc.lft.to/lastmile_qr_scan"}, "fusion_lon": 0.0}, {"lat": 38.910535833333334, "is_disabled": 0, "type": "electric_scooter", "lon": -77.04586633333334, "bike_id": "d02e376252060e73fa1f826d08682bef", "fusion_lat": 0.0, "name": "d02e376252060e73fa1f826d08682bef", "is_reserved": 0, "rental_uris": {"android": "https://dc.lft.to/lastmile_qr_scan", "ios": "https://dc.lft.to/lastmile_qr_scan"}, "fusion_lon": 0.0}, {"lat": 38.901516666666666, "is_disabled": 0, "type": "electric_scooter", "lon": -77.0416135, "bike_id": "bf5c377d00097cf2c05e10e08fa1a5ca", "fusion_lat": 0.0, "name": "bf5c377d00097cf2c05e10e08fa1a5ca", "is_reserved": 0, "rental_uris": {"android": "https://dc.lft.to/lastmile_qr_scan", "ios": "https://dc.lft.to/lastmile_qr_scan"}, "fusion_lon": 0.0}, {"lat": 38.92413533333333, "is_disabled": 0, "type": "electric_scooter", "lon": -77.035468, "bike_id": "06405de1338bb5c2ab823b07d8ad8abc", "fusion_lat": 0.0, "name": "06405de1338bb5c2ab823b07d8ad8abc", "is_reserved": 0, "rental_uris": {"android": "https://dc.lft.to/lastmile_qr_scan", "ios": "https://dc.lft.to/lastmile_qr_scan"}, "fusion_lon": 0.0}, {"lat": 38.90015133333333, "is_disabled": 0, "type": "electric_scooter", "lon": -76.9986895, "bike_id": "2ea6554c790a18b7db73f4e8d8d9350c", "fusion_lat": 0.0, "name": "2ea6554c790a18b7db73f4e8d8d9350c", "is_reserved": 0, "rental_uris": {"android": "https://dc.lft.to/lastmile_qr_scan", "ios": "https://dc.lft.to/lastmile_qr_scan"}, "fusion_lon": 0.0}, {"lat": 38.886553666666664, "is_disabled": 0, "type": "electric_bike", "lon": -77.16234116666666, "bike_id": "3a4ad1b97ca0b1bab1e193b7bc3e234d", "fusion_lat": 0.0, "name": "3a4ad1b97ca0b1bab1e193b7bc3e234d", "is_reserved": 0, "rental_uris": {"android": "https://dc.lft.to/lastmile_qr_scan", "ios": "https://dc.lft.to/lastmile_qr_scan"}, "fusion_lon": 0.0}, {"lat": 38.94270433333333, "is_disabled": 0, "type": "electric_scooter", "lon": -77.03258283333334, "bike_id": "169418931e5d5970b16a200aa4940854", "fusion_lat": 0.0, "name": "169418931e5d5970b16a200aa4940854", "is_reserved": 0, "rental_uris": {"android": "https://dc.lft.to/lastmile_qr_scan", "ios": "https://dc.lft.to/lastmile_qr_scan"}, "fusion_lon": 0.0}, {"lat": 38.92630533333333, "is_disabled": 0, "type": "electric_scooter", "lon": -77.036117, "bike_id": "d34cf7ef921338a5c43740512da0ecbe", "fusion_lat": 0.0, "name": "d34cf7ef921338a5c43740512da0ecbe", "is_reserved": 0, "rental_uris": {"android": "https://dc.lft.to/lastmile_qr_scan", "ios": "https://dc.lft.to/lastmile_qr_scan"}, "fusion_lon": 0.0}, {"lat": 38.92201083333333, "is_disabled": 0, "type": "electric_scooter", "lon": -77.04246633333334, "bike_id": "9a0afde49300a0ca407f251bba0760fe", "fusion_lat": 0.0, "name": "9a0afde49300a0ca407f251bba0760fe", "is_reserved": 0, "rental_uris": {"android": "https://dc.lft.to/lastmile_qr_scan", "ios": "https://dc.lft.to/lastmile_qr_scan"}, "fusion_lon": 0.0}, {"lat": 38.92326216666667, "is_disabled": 0, "type": "electric_scooter", "lon": -77.03899683333333, "bike_id": "227f57950faa5d67baaae207b3a3bfba", "fusion_lat": 0.0, "name": "227f57950faa5d67baaae207b3a3bfba", "is_reserved": 0, "rental_uris": {"android": "https://dc.lft.to/lastmile_qr_scan", "ios": "https://dc.lft.to/lastmile_qr_scan"}, "fusion_lon": 0.0}, {"lat": 38.895200833333334, "is_disabled": 0, "type": "electric_scooter", "lon": -77.04359816666667, "bike_id": "6224494a3743de67ab51bb57a8e99279", "fusion_lat": 0.0, "name": "6224494a3743de67ab51bb57a8e99279", "is_reserved": 0, "rental_uris": {"android": "https://dc.lft.to/lastmile_qr_scan", "ios": "https://dc.lft.to/lastmile_qr_scan"}, "fusion_lon": 0.0}, {"lat": 39.030497833333335, "is_disabled": 0, "type": "electric_bike", "lon": -77.09479216666666, "bike_id": "749c0b6d73b7a3e24d63ece9dee35530", "fusion_lat": 0.0, "name": "749c0b6d73b7a3e24d63ece9dee35530", "is_reserved": 0, "rental_uris": {"android": "https://dc.lft.to/lastmile_qr_scan", "ios": "https://dc.lft.to/lastmile_qr_scan"}, "fusion_lon": 0.0}, {"lat": 38.901404166666666, "is_disabled": 0, "type": "electric_scooter", "lon": -77.00067033333333, "bike_id": "e5c856dc176b0618770f14d9b78f9515", "fusion_lat": 0.0, "name": "e5c856dc176b0618770f14d9b78f9515", "is_reserved": 0, "rental_uris": {"android": "https://dc.lft.to/lastmile_qr_scan", "ios": "https://dc.lft.to/lastmile_qr_scan"}, "fusion_lon": 0.0}, {"lat": 38.9097, "is_disabled": 0, "type": "electric_scooter", "lon": -77.045181, "bike_id": "9879b86b675a80f22551557314f2f7e2", "fusion_lat": 0.0, "name": "9879b86b675a80f22551557314f2f7e2", "is_reserved": 0, "rental_uris": {"android": "https://dc.lft.to/lastmile_qr_scan", "ios": "https://dc.lft.to/lastmile_qr_scan"}, "fusion_lon": 0.0}, {"lat": 38.92182016666667, "is_disabled": 0, "type": "electric_scooter", "lon": -77.04227666666667, "bike_id": "516c304dce8ead04e2d98d8048a7023c", "fusion_lat": 0.0, "name": "516c304dce8ead04e2d98d8048a7023c", "is_reserved": 0, "rental_uris": {"android": "https://dc.lft.to/lastmile_qr_scan", "ios": "https://dc.lft.to/lastmile_qr_scan"}, "fusion_lon": 0.0}, {"lat": 38.907281, "is_disabled": 0, "type": "electric_scooter", "lon": -77.048277, "bike_id": "65389f75c99d540b32b2cbe3932757e6", "fusion_lat": 0.0, "name": "65389f75c99d540b32b2cbe3932757e6", "is_reserved": 0, "rental_uris": {"android": "https://dc.lft.to/lastmile_qr_scan", "ios": "https://dc.lft.to/lastmile_qr_scan"}, "fusion_lon": 0.0}, {"lat": 38.88511333333334, "is_disabled": 0, "type": "electric_scooter", "lon": -77.0057205, "bike_id": "80534674a41a20c71c457f39f37ed9d8", "fusion_lat": 0.0, "name": "80534674a41a20c71c457f39f37ed9d8", "is_reserved": 0, "rental_uris": {"android": "https://dc.lft.to/lastmile_qr_scan", "ios": "https://dc.lft.to/lastmile_qr_scan"}, "fusion_lon": 0.0}, {"lat": 38.92898266666667, "is_disabled": 0, "type": "electric_scooter", "lon": -77.03256033333334, "bike_id": "8a55aa5401227bb3bfb275e0c2e36145", "fusion_lat": 0.0, "name": "8a55aa5401227bb3bfb275e0c2e36145", "is_reserved": 0, "rental_uris": {"android": "https://dc.lft.to/lastmile_qr_scan", "ios": "https://dc.lft.to/lastmile_qr_scan"}, "fusion_lon": 0.0}, {"lat": 38.93678883333333, "is_disabled": 0, "type": "electric_scooter", "lon": -77.03573516666667, "bike_id": "0e3553771f2c4522332a4fe0d66d25ee", "fusion_lat": 0.0, "name": "0e3553771f2c4522332a4fe0d66d25ee", "is_reserved": 0, "rental_uris": {"android": "https://dc.lft.to/lastmile_qr_scan", "ios": "https://dc.lft.to/lastmile_qr_scan"}, "fusion_lon": 0.0}, {"lat": 38.900749, "is_disabled": 0, "type": "electric_scooter", "lon": -77.05309083333333, "bike_id": "2783dc188e82abd433a04750d6a1714d", "fusion_lat": 0.0, "name": "2783dc188e82abd433a04750d6a1714d", "is_reserved": 0, "rental_uris": {"android": "https://dc.lft.to/lastmile_qr_scan", "ios": "https://dc.lft.to/lastmile_qr_scan"}, "fusion_lon": 0.0}, {"lat": 38.94632816666667, "is_disabled": 0, "type": "electric_scooter", "lon": -77.0184685, "bike_id": "b48c0d2bc4d19f2f2b9edd1aa0e656f4", "fusion_lat": 0.0, "name": "b48c0d2bc4d19f2f2b9edd1aa0e656f4", "is_reserved": 0, "rental_uris": {"android": "https://dc.lft.to/lastmile_qr_scan", "ios": "https://dc.lft.to/lastmile_qr_scan"}, "fusion_lon": 0.0}, {"lat": 38.8609515, "is_disabled": 0, "type": "electric_scooter", "lon": -76.98379233333333, "bike_id": "7a01d29a61d6a7aa1bb3d954930f462a", "fusion_lat": 0.0, "name": "7a01d29a61d6a7aa1bb3d954930f462a", "is_reserved": 0, "rental_uris": {"android": "https://dc.lft.to/lastmile_qr_scan", "ios": "https://dc.lft.to/lastmile_qr_scan"}, "fusion_lon": 0.0}, {"lat": 38.9245415, "is_disabled": 0, "type": "electric_scooter", "lon": -77.02032983333334, "bike_id": "f91fb04a0f03a2ce7d9a5ba530bc27be", "fusion_lat": 0.0, "name": "f91fb04a0f03a2ce7d9a5ba530bc27be", "is_reserved": 0, "rental_uris": {"android": "https://dc.lft.to/lastmile_qr_scan", "ios": "https://dc.lft.to/lastmile_qr_scan"}, "fusion_lon": 0.0}, {"lat": 38.83235533333333, "is_disabled": 0, "type": "electric_bike", "lon": -76.94626983333333, "bike_id": "90bc78ffb03d322bd6c972e4d590aa8b", "fusion_lat": 0.0, "name": "90bc78ffb03d322bd6c972e4d590aa8b", "is_reserved": 0, "rental_uris": {"android": "https://dc.lft.to/lastmile_qr_scan", "ios": "https://dc.lft.to/lastmile_qr_scan"}, "fusion_lon": 0.0}, {"lat": 38.90008433333333, "is_disabled": 0, "type": "electric_scooter", "lon": -76.99869133333334, "bike_id": "7f795d4fb8b24c772b52c46a4ea0e45e", "fusion_lat": 0.0, "name": "7f795d4fb8b24c772b52c46a4ea0e45e", "is_reserved": 0, "rental_uris": {"android": "https://dc.lft.to/lastmile_qr_scan", "ios": "https://dc.lft.to/lastmile_qr_scan"}, "fusion_lon": 0.0}, {"lat": 38.90415333333333, "is_disabled": 0, "type": "electric_scooter", "lon": -77.02947516666667, "bike_id": "0d58d3be36f81aa81543b9566f86204d", "fusion_lat": 0.0, "name": "0d58d3be36f81aa81543b9566f86204d", "is_reserved": 0, "rental_uris": {"android": "https://dc.lft.to/lastmile_qr_scan", "ios": "https://dc.lft.to/lastmile_qr_scan"}, "fusion_lon": 0.0}, {"lat": 38.943057833333334, "is_disabled": 0, "type": "electric_scooter", "lon": -77.05924633333333, "bike_id": "277769031252662c3eba31d796c580c7", "fusion_lat": 0.0, "name": "277769031252662c3eba31d796c580c7", "is_reserved": 0, "rental_uris": {"android": "https://dc.lft.to/lastmile_qr_scan", "ios": "https://dc.lft.to/lastmile_qr_scan"}, "fusion_lon": 0.0}, {"lat": 38.86381566666667, "is_disabled": 0, "type": "electric_scooter", "lon": -76.99245833333333, "bike_id": "dca5f3c42f600b990cc12994a0dfbb57", "fusion_lat": 0.0, "name": "dca5f3c42f600b990cc12994a0dfbb57", "is_reserved": 0, "rental_uris": {"android": "https://dc.lft.to/lastmile_qr_scan", "ios": "https://dc.lft.to/lastmile_qr_scan"}, "fusion_lon": 0.0}, {"lat": 38.898241166666665, "is_disabled": 0, "type": "electric_scooter", "lon": -77.03330833333334, "bike_id": "a21c31a75e388555f5a55bd6585d41f7", "fusion_lat": 0.0, "name": "a21c31a75e388555f5a55bd6585d41f7", "is_reserved": 0, "rental_uris": {"android": "https://dc.lft.to/lastmile_qr_scan", "ios": "https://dc.lft.to/lastmile_qr_scan"}, "fusion_lon": 0.0}, {"lat": 38.906389, "is_disabled": 0, "type": "electric_scooter", "lon": -76.97951066666667, "bike_id": "a492e586c9a0885666f39a9ec05ca234", "fusion_lat": 0.0, "name": "a492e586c9a0885666f39a9ec05ca234", "is_reserved": 0, "rental_uris": {"android": "https://dc.lft.to/lastmile_qr_scan", "ios": "https://dc.lft.to/lastmile_qr_scan"}, "fusion_lon": 0.0}, {"lat": 38.97831, "is_disabled": 0, "type": "electric_bike", "lon": -77.02642766666666, "bike_id": "bcc77758d3b3d32c8ac597a4dbb65ce9", "fusion_lat": 0.0, "name": "bcc77758d3b3d32c8ac597a4dbb65ce9", "is_reserved": 0, "rental_uris": {"android": "https://dc.lft.to/lastmile_qr_scan", "ios": "https://dc.lft.to/lastmile_qr_scan"}, "fusion_lon": 0.0}, {"lat": 38.916943333333336, "is_disabled": 0, "type": "electric_scooter", "lon": -77.02281683333334, "bike_id": "de94a2ce25f93ce613c54b71c9a8dd96", "fusion_lat": 0.0, "name": "de94a2ce25f93ce613c54b71c9a8dd96", "is_reserved": 0, "rental_uris": {"android": "https://dc.lft.to/lastmile_qr_scan", "ios": "https://dc.lft.to/lastmile_qr_scan"}, "fusion_lon": 0.0}, {"lat": 38.91325966666667, "is_disabled": 0, "type": "electric_scooter", "lon": -77.01500566666667, "bike_id": "0dc8e00c4455847aea66558add04008c", "fusion_lat": 0.0, "name": "0dc8e00c4455847aea66558add04008c", "is_reserved": 0, "rental_uris": {"android": "https://dc.lft.to/lastmile_qr_scan", "ios": "https://dc.lft.to/lastmile_qr_scan"}, "fusion_lon": 0.0}, {"lat": 38.8551265, "is_disabled": 0, "type": "electric_bike", "lon": -77.12045233333333, "bike_id": "b7e8fe57b3c7a65e40160c1e01828014", "fusion_lat": 0.0, "name": "b7e8fe57b3c7a65e40160c1e01828014", "is_reserved": 0, "rental_uris": {"android": "https://dc.lft.to/lastmile_qr_scan", "ios": "https://dc.lft.to/lastmile_qr_scan"}, "fusion_lon": 0.0}, {"lat": 38.900168666666666, "is_disabled": 0, "type": "electric_scooter", "lon": -76.99215233333334, "bike_id": "cc0f2a08a32178f164afa190214dc7d8", "fusion_lat": 0.0, "name": "cc0f2a08a32178f164afa190214dc7d8", "is_reserved": 0, "rental_uris": {"android": "https://dc.lft.to/lastmile_qr_scan", "ios": "https://dc.lft.to/lastmile_qr_scan"}, "fusion_lon": 0.0}, {"lat": 38.91708916666666, "is_disabled": 0, "type": "electric_scooter", "lon": -77.03219916666667, "bike_id": "97f2e25c795dc0b901d25a1a1516c9d1", "fusion_lat": 0.0, "name": "97f2e25c795dc0b901d25a1a1516c9d1", "is_reserved": 0, "rental_uris": {"android": "https://dc.lft.to/lastmile_qr_scan", "ios": "https://dc.lft.to/lastmile_qr_scan"}, "fusion_lon": 0.0}, {"lat": 38.9106315, "is_disabled": 0, "type": "electric_scooter", "lon": -77.0291245, "bike_id": "b52dd9f29fd9d498f4d71baada5748e0", "fusion_lat": 0.0, "name": "b52dd9f29fd9d498f4d71baada5748e0", "is_reserved": 0, "rental_uris": {"android": "https://dc.lft.to/lastmile_qr_scan", "ios": "https://dc.lft.to/lastmile_qr_scan"}, "fusion_lon": 0.0}, {"lat": 38.882662333333336, "is_disabled": 0, "type": "electric_scooter", "lon": -76.98827283333334, "bike_id": "f7fef6bdf7f66956b52db607d49063ae", "fusion_lat": 0.0, "name": "f7fef6bdf7f66956b52db607d49063ae", "is_reserved": 0, "rental_uris": {"android": "https://dc.lft.to/lastmile_qr_scan", "ios": "https://dc.lft.to/lastmile_qr_scan"}, "fusion_lon": 0.0}, {"lat": 38.92979283333333, "is_disabled": 0, "type": "electric_scooter", "lon": -77.03831766666667, "bike_id": "0a1d46fbb5e1d08d45d2ae9fbe53f8af", "fusion_lat": 0.0, "name": "0a1d46fbb5e1d08d45d2ae9fbe53f8af", "is_reserved": 0, "rental_uris": {"android": "https://dc.lft.to/lastmile_qr_scan", "ios": "https://dc.lft.to/lastmile_qr_scan"}, "fusion_lon": 0.0}, {"lat": 38.91808783333333, "is_disabled": 0, "type": "electric_scooter", "lon": -77.026905, "bike_id": "81d4f5767a2941c782d61021d401d726", "fusion_lat": 0.0, "name": "81d4f5767a2941c782d61021d401d726", "is_reserved": 0, "rental_uris": {"android": "https://dc.lft.to/lastmile_qr_scan", "ios": "https://dc.lft.to/lastmile_qr_scan"}, "fusion_lon": 0.0}, {"lat": 38.883748833333335, "is_disabled": 0, "type": "electric_scooter", "lon": -77.02428133333333, "bike_id": "f9581bd213b473d828b9d6661a973c14", "fusion_lat": 0.0, "name": "f9581bd213b473d828b9d6661a973c14", "is_reserved": 0, "rental_uris": {"android": "https://dc.lft.to/lastmile_qr_scan", "ios": "https://dc.lft.to/lastmile_qr_scan"}, "fusion_lon": 0.0}, {"lat": 38.915411, "is_disabled": 0, "type": "electric_scooter", "lon": -77.032089, "bike_id": "c5ea51a66c27a9e7df322e2b2b8bc8f5", "fusion_lat": 0.0, "name": "c5ea51a66c27a9e7df322e2b2b8bc8f5", "is_reserved": 0, "rental_uris": {"android": "https://dc.lft.to/lastmile_qr_scan", "ios": "https://dc.lft.to/lastmile_qr_scan"}, "fusion_lon": 0.0}, {"lat": 38.90514966666667, "is_disabled": 0, "type": "electric_scooter", "lon": -77.04484916666667, "bike_id": "04e8f2410b283a2f662814bf2bdabb90", "fusion_lat": 0.0, "name": "04e8f2410b283a2f662814bf2bdabb90", "is_reserved": 0, "rental_uris": {"android": "https://dc.lft.to/lastmile_qr_scan", "ios": "https://dc.lft.to/lastmile_qr_scan"}, "fusion_lon": 0.0}, {"lat": 38.935968, "is_disabled": 0, "type": "electric_scooter", "lon": -77.056336, "bike_id": "9815346bbf08bb41ddb5a476133d899f", "fusion_lat": 0.0, "name": "9815346bbf08bb41ddb5a476133d899f", "is_reserved": 0, "rental_uris": {"android": "https://dc.lft.to/lastmile_qr_scan", "ios": "https://dc.lft.to/lastmile_qr_scan"}, "fusion_lon": 0.0}, {"lat": 38.917325166666664, "is_disabled": 0, "type": "electric_scooter", "lon": -77.04169083333333, "bike_id": "577b0d4944df2bf33272286dc0f60c75", "fusion_lat": 0.0, "name": "577b0d4944df2bf33272286dc0f60c75", "is_reserved": 0, "rental_uris": {"android": "https://dc.lft.to/lastmile_qr_scan", "ios": "https://dc.lft.to/lastmile_qr_scan"}, "fusion_lon": 0.0}, {"lat": 38.903557, "is_disabled": 0, "type": "electric_scooter", "lon": -77.04114316666667, "bike_id": "39870bbe75ed06b8138fbc31386e96d7", "fusion_lat": 0.0, "name": "39870bbe75ed06b8138fbc31386e96d7", "is_reserved": 0, "rental_uris": {"android": "https://dc.lft.to/lastmile_qr_scan", "ios": "https://dc.lft.to/lastmile_qr_scan"}, "fusion_lon": 0.0}, {"lat": 38.856482166666666, "is_disabled": 0, "type": "electric_bike", "lon": -77.11254616666666, "bike_id": "95c4bf25e8453169c55271ddd1b305e5", "fusion_lat": 0.0, "name": "95c4bf25e8453169c55271ddd1b305e5", "is_reserved": 0, "rental_uris": {"android": "https://dc.lft.to/lastmile_qr_scan", "ios": "https://dc.lft.to/lastmile_qr_scan"}, "fusion_lon": 0.0}, {"lat": 38.894972833333334, "is_disabled": 0, "type": "electric_scooter", "lon": -77.002119, "bike_id": "1ca1a8f06c7beb177dde97532939bc70", "fusion_lat": 0.0, "name": "1ca1a8f06c7beb177dde97532939bc70", "is_reserved": 0, "rental_uris": {"android": "https://dc.lft.to/lastmile_qr_scan", "ios": "https://dc.lft.to/lastmile_qr_scan"}, "fusion_lon": 0.0}, {"lat": 38.91704766666667, "is_disabled": 0, "type": "electric_scooter", "lon": -77.04030983333334, "bike_id": "9a7a73b5a4ff78d19b80443e614ae03f", "fusion_lat": 0.0, "name": "9a7a73b5a4ff78d19b80443e614ae03f", "is_reserved": 0, "rental_uris": {"android": "https://dc.lft.to/lastmile_qr_scan", "ios": "https://dc.lft.to/lastmile_qr_scan"}, "fusion_lon": 0.0}, {"lat": 38.919194833333336, "is_disabled": 0, "type": "electric_scooter", "lon": -77.031968, "bike_id": "b3ade8054e25a7880c5c144a46f8ba4f", "fusion_lat": 0.0, "name": "b3ade8054e25a7880c5c144a46f8ba4f", "is_reserved": 0, "rental_uris": {"android": "https://dc.lft.to/lastmile_qr_scan", "ios": "https://dc.lft.to/lastmile_qr_scan"}, "fusion_lon": 0.0}, {"lat": 38.90729416666667, "is_disabled": 0, "type": "electric_scooter", "lon": -77.02378716666666, "bike_id": "9d6df49e1c6be7c7f323e510280dee45", "fusion_lat": 0.0, "name": "9d6df49e1c6be7c7f323e510280dee45", "is_reserved": 0, "rental_uris": {"android": "https://dc.lft.to/lastmile_qr_scan", "ios": "https://dc.lft.to/lastmile_qr_scan"}, "fusion_lon": 0.0}, {"lat": 38.911742, "is_disabled": 0, "type": "electric_scooter", "lon": -77.03857666666667, "bike_id": "36eec1a8856f2a0d7c1ea058ee098dfe", "fusion_lat": 0.0, "name": "36eec1a8856f2a0d7c1ea058ee098dfe", "is_reserved": 0, "rental_uris": {"android": "https://dc.lft.to/lastmile_qr_scan", "ios": "https://dc.lft.to/lastmile_qr_scan"}, "fusion_lon": 0.0}, {"lat": 38.8871615, "is_disabled": 0, "type": "electric_bike", "lon": -77.1330325, "bike_id": "1691b41a1608584587fbad4216de9c14", "fusion_lat": 0.0, "name": "1691b41a1608584587fbad4216de9c14", "is_reserved": 0, "rental_uris": {"android": "https://dc.lft.to/lastmile_qr_scan", "ios": "https://dc.lft.to/lastmile_qr_scan"}, "fusion_lon": 0.0}, {"lat": 38.900332666666664, "is_disabled": 0, "type": "electric_scooter", "lon": -77.00191516666666, "bike_id": "a18d05b6d89bb5b055fd3de1ba379ac5", "fusion_lat": 0.0, "name": "a18d05b6d89bb5b055fd3de1ba379ac5", "is_reserved": 0, "rental_uris": {"android": "https://dc.lft.to/lastmile_qr_scan", "ios": "https://dc.lft.to/lastmile_qr_scan"}, "fusion_lon": 0.0}, {"lat": 38.88454266666667, "is_disabled": 0, "type": "electric_scooter", "lon": -76.92955166666667, "bike_id": "95beb82959feebe85ba8668122403c18", "fusion_lat": 0.0, "name": "95beb82959feebe85ba8668122403c18", "is_reserved": 0, "rental_uris": {"android": "https://dc.lft.to/lastmile_qr_scan", "ios": "https://dc.lft.to/lastmile_qr_scan"}, "fusion_lon": 0.0}, {"lat": 38.8860325, "is_disabled": 0, "type": "electric_scooter", "lon": -77.01910416666666, "bike_id": "3470c6bbae3810ab61a95189bbd01d52", "fusion_lat": 0.0, "name": "3470c6bbae3810ab61a95189bbd01d52", "is_reserved": 0, "rental_uris": {"android": "https://dc.lft.to/lastmile_qr_scan", "ios": "https://dc.lft.to/lastmile_qr_scan"}, "fusion_lon": 0.0}, {"lat": 38.88548516666667, "is_disabled": 0, "type": "electric_bike", "lon": -77.117877, "bike_id": "496d415263155245e4bfe5a18d30e576", "fusion_lat": 0.0, "name": "496d415263155245e4bfe5a18d30e576", "is_reserved": 0, "rental_uris": {"android": "https://dc.lft.to/lastmile_qr_scan", "ios": "https://dc.lft.to/lastmile_qr_scan"}, "fusion_lon": 0.0}, {"lat": 38.876843666666666, "is_disabled": 0, "type": "electric_scooter", "lon": -77.01614583333334, "bike_id": "56ace7c50da84e35b7af235f935a34d2", "fusion_lat": 0.0, "name": "56ace7c50da84e35b7af235f935a34d2", "is_reserved": 0, "rental_uris": {"android": "https://dc.lft.to/lastmile_qr_scan", "ios": "https://dc.lft.to/lastmile_qr_scan"}, "fusion_lon": 0.0}, {"lat": 38.929001666666665, "is_disabled": 0, "type": "electric_scooter", "lon": -77.01639683333333, "bike_id": "49134bc40ab7317daa96c2b2de5ed5ba", "fusion_lat": 0.0, "name": "49134bc40ab7317daa96c2b2de5ed5ba", "is_reserved": 0, "rental_uris": {"android": "https://dc.lft.to/lastmile_qr_scan", "ios": "https://dc.lft.to/lastmile_qr_scan"}, "fusion_lon": 0.0}, {"lat": 38.892489166666664, "is_disabled": 0, "type": "electric_scooter", "lon": -77.03955466666666, "bike_id": "f96317531d216ad4678b1817da0139aa", "fusion_lat": 0.0, "name": "f96317531d216ad4678b1817da0139aa", "is_reserved": 0, "rental_uris": {"android": "https://dc.lft.to/lastmile_qr_scan", "ios": "https://dc.lft.to/lastmile_qr_scan"}, "fusion_lon": 0.0}, {"lat": 38.9343005, "is_disabled": 0, "type": "electric_scooter", "lon": -76.96509583333334, "bike_id": "1f5dc8c1378836029933c08bb112fa01", "fusion_lat": 0.0, "name": "1f5dc8c1378836029933c08bb112fa01", "is_reserved": 0, "rental_uris": {"android": "https://dc.lft.to/lastmile_qr_scan", "ios": "https://dc.lft.to/lastmile_qr_scan"}, "fusion_lon": 0.0}, {"lat": 38.95707766666666, "is_disabled": 0, "type": "electric_scooter", "lon": -77.02396883333333, "bike_id": "f71d7b6d8e4ecb357e07abd9d443b09d", "fusion_lat": 0.0, "name": "f71d7b6d8e4ecb357e07abd9d443b09d", "is_reserved": 0, "rental_uris": {"android": "https://dc.lft.to/lastmile_qr_scan", "ios": "https://dc.lft.to/lastmile_qr_scan"}, "fusion_lon": 0.0}, {"lat": 38.9337115, "is_disabled": 0, "type": "electric_scooter", "lon": -77.03556483333334, "bike_id": "b0c8da15d1cc1fc7907a2a2e1c1d4e3f", "fusion_lat": 0.0, "name": "b0c8da15d1cc1fc7907a2a2e1c1d4e3f", "is_reserved": 0, "rental_uris": {"android": "https://dc.lft.to/lastmile_qr_scan", "ios": "https://dc.lft.to/lastmile_qr_scan"}, "fusion_lon": 0.0}, {"lat": 38.998763333333336, "is_disabled": 0, "type": "electric_bike", "lon": -77.0288845, "bike_id": "330858697fd4a416bac08bfa704ca6e0", "fusion_lat": 0.0, "name": "330858697fd4a416bac08bfa704ca6e0", "is_reserved": 0, "rental_uris": {"android": "https://dc.lft.to/lastmile_qr_scan", "ios": "https://dc.lft.to/lastmile_qr_scan"}, "fusion_lon": 0.0}, {"lat": 38.89816716666667, "is_disabled": 0, "type": "electric_scooter", "lon": -77.033056, "bike_id": "2771ba48868b7e68a767cce3d2bb284f", "fusion_lat": 0.0, "name": "2771ba48868b7e68a767cce3d2bb284f", "is_reserved": 0, "rental_uris": {"android": "https://dc.lft.to/lastmile_qr_scan", "ios": "https://dc.lft.to/lastmile_qr_scan"}, "fusion_lon": 0.0}, {"lat": 38.90241916666667, "is_disabled": 0, "type": "electric_scooter", "lon": -77.026843, "bike_id": "f71b9ec0c531fcc39e862f2355077bc3", "fusion_lat": 0.0, "name": "f71b9ec0c531fcc39e862f2355077bc3", "is_reserved": 0, "rental_uris": {"android": "https://dc.lft.to/lastmile_qr_scan", "ios": "https://dc.lft.to/lastmile_qr_scan"}, "fusion_lon": 0.0}, {"lat": 38.900306, "is_disabled": 0, "type": "electric_scooter", "lon": -77.00197, "bike_id": "723080b872674101261acee384b87fd6", "fusion_lat": 0.0, "name": "723080b872674101261acee384b87fd6", "is_reserved": 0, "rental_uris": {"android": "https://dc.lft.to/lastmile_qr_scan", "ios": "https://dc.lft.to/lastmile_qr_scan"}, "fusion_lon": 0.0}, {"lat": 38.95738633333333, "is_disabled": 0, "type": "electric_bike", "lon": -77.02320966666667, "bike_id": "66d61b17d00cf90a2b08bdd1be3283da", "fusion_lat": 0.0, "name": "66d61b17d00cf90a2b08bdd1be3283da", "is_reserved": 0, "rental_uris": {"android": "https://dc.lft.to/lastmile_qr_scan", "ios": "https://dc.lft.to/lastmile_qr_scan"}, "fusion_lon": 0.0}, {"lat": 38.9003585, "is_disabled": 0, "type": "electric_scooter", "lon": -77.00535683333334, "bike_id": "9ebd43af7873aec4fb214b5c2de09946", "fusion_lat": 0.0, "name": "9ebd43af7873aec4fb214b5c2de09946", "is_reserved": 0, "rental_uris": {"android": "https://dc.lft.to/lastmile_qr_scan", "ios": "https://dc.lft.to/lastmile_qr_scan"}, "fusion_lon": 0.0}, {"lat": 38.91685366666667, "is_disabled": 0, "type": "electric_scooter", "lon": -77.04147666666667, "bike_id": "d2896d524f546feca7fbe62b14822a1f", "fusion_lat": 0.0, "name": "d2896d524f546feca7fbe62b14822a1f", "is_reserved": 0, "rental_uris": {"android": "https://dc.lft.to/lastmile_qr_scan", "ios": "https://dc.lft.to/lastmile_qr_scan"}, "fusion_lon": 0.0}, {"lat": 38.8914365, "is_disabled": 0, "type": "electric_bike", "lon": -77.11304583333333, "bike_id": "e4947997b7e5ccdfdafe3351882a5b61", "fusion_lat": 0.0, "name": "e4947997b7e5ccdfdafe3351882a5b61", "is_reserved": 0, "rental_uris": {"android": "https://dc.lft.to/lastmile_qr_scan", "ios": "https://dc.lft.to/lastmile_qr_scan"}, "fusion_lon": 0.0}, {"lat": 38.90818483333334, "is_disabled": 0, "type": "electric_scooter", "lon": -76.99678266666666, "bike_id": "a0b9caf19dbb70898a816b1b454abc97", "fusion_lat": 0.0, "name": "a0b9caf19dbb70898a816b1b454abc97", "is_reserved": 0, "rental_uris": {"android": "https://dc.lft.to/lastmile_qr_scan", "ios": "https://dc.lft.to/lastmile_qr_scan"}, "fusion_lon": 0.0}, {"lat": 38.92672266666667, "is_disabled": 0, "type": "electric_scooter", "lon": -77.00740733333333, "bike_id": "75f45400e41f55e45b2a563dc5662c68", "fusion_lat": 0.0, "name": "75f45400e41f55e45b2a563dc5662c68", "is_reserved": 0, "rental_uris": {"android": "https://dc.lft.to/lastmile_qr_scan", "ios": "https://dc.lft.to/lastmile_qr_scan"}, "fusion_lon": 0.0}, {"lat": 38.88465383333333, "is_disabled": 0, "type": "electric_scooter", "lon": -77.01537633333334, "bike_id": "40cfe480136e416ede7c6716bbe29930", "fusion_lat": 0.0, "name": "40cfe480136e416ede7c6716bbe29930", "is_reserved": 0, "rental_uris": {"android": "https://dc.lft.to/lastmile_qr_scan", "ios": "https://dc.lft.to/lastmile_qr_scan"}, "fusion_lon": 0.0}, {"lat": 38.89222816666667, "is_disabled": 0, "type": "electric_bike", "lon": -77.1078215, "bike_id": "cf249fc854f508d0d6b2324d6a7d052e", "fusion_lat": 0.0, "name": "cf249fc854f508d0d6b2324d6a7d052e", "is_reserved": 0, "rental_uris": {"android": "https://dc.lft.to/lastmile_qr_scan", "ios": "https://dc.lft.to/lastmile_qr_scan"}, "fusion_lon": 0.0}, {"lat": 38.909671333333335, "is_disabled": 0, "type": "electric_scooter", "lon": -77.04060716666666, "bike_id": "f81fff2e164abfc23fff41ed3c869d2b", "fusion_lat": 0.0, "name": "f81fff2e164abfc23fff41ed3c869d2b", "is_reserved": 0, "rental_uris": {"android": "https://dc.lft.to/lastmile_qr_scan", "ios": "https://dc.lft.to/lastmile_qr_scan"}, "fusion_lon": 0.0}, {"lat": 38.906037166666664, "is_disabled": 0, "type": "electric_scooter", "lon": -77.058541, "bike_id": "83eaacc70f48bcd2639169f28f2640cf", "fusion_lat": 0.0, "name": "83eaacc70f48bcd2639169f28f2640cf", "is_reserved": 0, "rental_uris": {"android": "https://dc.lft.to/lastmile_qr_scan", "ios": "https://dc.lft.to/lastmile_qr_scan"}, "fusion_lon": 0.0}, {"lat": 38.904494666666665, "is_disabled": 0, "type": "electric_scooter", "lon": -77.028871, "bike_id": "cf2f7841c7f5556a8328befef88c6e30", "fusion_lat": 0.0, "name": "cf2f7841c7f5556a8328befef88c6e30", "is_reserved": 0, "rental_uris": {"android": "https://dc.lft.to/lastmile_qr_scan", "ios": "https://dc.lft.to/lastmile_qr_scan"}, "fusion_lon": 0.0}, {"lat": 38.89525416666667, "is_disabled": 0, "type": "electric_scooter", "lon": -77.0110695, "bike_id": "263e5984758e1ab89f0dc5fff1f8b20f", "fusion_lat": 0.0, "name": "263e5984758e1ab89f0dc5fff1f8b20f", "is_reserved": 0, "rental_uris": {"android": "https://dc.lft.to/lastmile_qr_scan", "ios": "https://dc.lft.to/lastmile_qr_scan"}, "fusion_lon": 0.0}, {"lat": 38.92367633333333, "is_disabled": 0, "type": "electric_scooter", "lon": -77.0768285, "bike_id": "e90d7587f8e5c0803f51468ae7d8981a", "fusion_lat": 0.0, "name": "e90d7587f8e5c0803f51468ae7d8981a", "is_reserved": 0, "rental_uris": {"android": "https://dc.lft.to/lastmile_qr_scan", "ios": "https://dc.lft.to/lastmile_qr_scan"}, "fusion_lon": 0.0}, {"lat": 38.91863416666666, "is_disabled": 0, "type": "electric_scooter", "lon": -77.07422633333333, "bike_id": "2f65c75a6b33c54899ad3e57029bd97f", "fusion_lat": 0.0, "name": "2f65c75a6b33c54899ad3e57029bd97f", "is_reserved": 0, "rental_uris": {"android": "https://dc.lft.to/lastmile_qr_scan", "ios": "https://dc.lft.to/lastmile_qr_scan"}, "fusion_lon": 0.0}, {"lat": 38.89892833333333, "is_disabled": 0, "type": "electric_bike", "lon": -77.0217125, "bike_id": "60352f82aed5e0385d041ef7e653e5f8", "fusion_lat": 0.0, "name": "60352f82aed5e0385d041ef7e653e5f8", "is_reserved": 0, "rental_uris": {"android": "https://dc.lft.to/lastmile_qr_scan", "ios": "https://dc.lft.to/lastmile_qr_scan"}, "fusion_lon": 0.0}, {"lat": 38.88423816666667, "is_disabled": 0, "type": "electric_bike", "lon": -76.9808535, "bike_id": "b56458527cdf7c470b16b7537f5fccab", "fusion_lat": 0.0, "name": "b56458527cdf7c470b16b7537f5fccab", "is_reserved": 0, "rental_uris": {"android": "https://dc.lft.to/lastmile_qr_scan", "ios": "https://dc.lft.to/lastmile_qr_scan"}, "fusion_lon": 0.0}, {"lat": 38.90510883333334, "is_disabled": 0, "type": "electric_scooter", "lon": -77.05050316666667, "bike_id": "3b46bfbf6cc2e8455d4c7a349301c063", "fusion_lat": 0.0, "name": "3b46bfbf6cc2e8455d4c7a349301c063", "is_reserved": 0, "rental_uris": {"android": "https://dc.lft.to/lastmile_qr_scan", "ios": "https://dc.lft.to/lastmile_qr_scan"}, "fusion_lon": 0.0}, {"lat": 38.892004, "is_disabled": 0, "type": "electric_bike", "lon": -76.970486, "bike_id": "d6a8e7b995665886918e5f04a9569251", "fusion_lat": 0.0, "name": "d6a8e7b995665886918e5f04a9569251", "is_reserved": 0, "rental_uris": {"android": "https://dc.lft.to/lastmile_qr_scan", "ios": "https://dc.lft.to/lastmile_qr_scan"}, "fusion_lon": 0.0}, {"lat": 38.91467883333333, "is_disabled": 0, "type": "electric_scooter", "lon": -77.01895566666667, "bike_id": "1591abb4fafe02fbd8240b43b9bf54cf", "fusion_lat": 0.0, "name": "1591abb4fafe02fbd8240b43b9bf54cf", "is_reserved": 0, "rental_uris": {"android": "https://dc.lft.to/lastmile_qr_scan", "ios": "https://dc.lft.to/lastmile_qr_scan"}, "fusion_lon": 0.0}, {"lat": 38.930477333333336, "is_disabled": 0, "type": "electric_scooter", "lon": -77.032497, "bike_id": "3958666e8ad59106558cd8f257ea3d8b", "fusion_lat": 0.0, "name": "3958666e8ad59106558cd8f257ea3d8b", "is_reserved": 0, "rental_uris": {"android": "https://dc.lft.to/lastmile_qr_scan", "ios": "https://dc.lft.to/lastmile_qr_scan"}, "fusion_lon": 0.0}, {"lat": 38.91676916666667, "is_disabled": 0, "type": "electric_scooter", "lon": -77.02966633333334, "bike_id": "711fc63bcf5247708841894af201db72", "fusion_lat": 0.0, "name": "711fc63bcf5247708841894af201db72", "is_reserved": 0, "rental_uris": {"android": "https://dc.lft.to/lastmile_qr_scan", "ios": "https://dc.lft.to/lastmile_qr_scan"}, "fusion_lon": 0.0}, {"lat": 38.89291866666667, "is_disabled": 0, "type": "electric_bike", "lon": -77.00143783333333, "bike_id": "8f1181415b736456de64e1e76be94682", "fusion_lat": 0.0, "name": "8f1181415b736456de64e1e76be94682", "is_reserved": 0, "rental_uris": {"android": "https://dc.lft.to/lastmile_qr_scan", "ios": "https://dc.lft.to/lastmile_qr_scan"}, "fusion_lon": 0.0}, {"lat": 38.902136166666665, "is_disabled": 0, "type": "electric_scooter", "lon": -76.94591116666666, "bike_id": "73e03f2f8c1bb21a38cf10866c3be0a7", "fusion_lat": 0.0, "name": "73e03f2f8c1bb21a38cf10866c3be0a7", "is_reserved": 0, "rental_uris": {"android": "https://dc.lft.to/lastmile_qr_scan", "ios": "https://dc.lft.to/lastmile_qr_scan"}, "fusion_lon": 0.0}, {"lat": 38.9553965, "is_disabled": 0, "type": "electric_bike", "lon": -77.01782033333333, "bike_id": "fc5684d10dea5e4707681e6c2ab77e03", "fusion_lat": 0.0, "name": "fc5684d10dea5e4707681e6c2ab77e03", "is_reserved": 0, "rental_uris": {"android": "https://dc.lft.to/lastmile_qr_scan", "ios": "https://dc.lft.to/lastmile_qr_scan"}, "fusion_lon": 0.0}, {"lat": 38.93011966666667, "is_disabled": 0, "type": "electric_bike", "lon": -77.21649283333333, "bike_id": "c5464e47e0d845702df50d4a191807a2", "fusion_lat": 0.0, "name": "c5464e47e0d845702df50d4a191807a2", "is_reserved": 0, "rental_uris": {"android": "https://dc.lft.to/lastmile_qr_scan", "ios": "https://dc.lft.to/lastmile_qr_scan"}, "fusion_lon": 0.0}, {"lat": 38.89783883333333, "is_disabled": 0, "type": "electric_scooter", "lon": -77.0435595, "bike_id": "8d6a37af94a16a7efebac40bdb9d037c", "fusion_lat": 0.0, "name": "8d6a37af94a16a7efebac40bdb9d037c", "is_reserved": 0, "rental_uris": {"android": "https://dc.lft.to/lastmile_qr_scan", "ios": "https://dc.lft.to/lastmile_qr_scan"}, "fusion_lon": 0.0}, {"lat": 38.91565766666667, "is_disabled": 0, "type": "electric_scooter", "lon": -77.04677433333333, "bike_id": "a3e040d4d12e2fd86ea05c605984737a", "fusion_lat": 0.0, "name": "a3e040d4d12e2fd86ea05c605984737a", "is_reserved": 0, "rental_uris": {"android": "https://dc.lft.to/lastmile_qr_scan", "ios": "https://dc.lft.to/lastmile_qr_scan"}, "fusion_lon": 0.0}, {"lat": 38.956144333333334, "is_disabled": 0, "type": "electric_scooter", "lon": -77.02776916666667, "bike_id": "8b03ed4fc78d198e1e8519d69fe37f70", "fusion_lat": 0.0, "name": "8b03ed4fc78d198e1e8519d69fe37f70", "is_reserved": 0, "rental_uris": {"android": "https://dc.lft.to/lastmile_qr_scan", "ios": "https://dc.lft.to/lastmile_qr_scan"}, "fusion_lon": 0.0}, {"lat": 38.917688, "is_disabled": 0, "type": "electric_scooter", "lon": -77.02311233333333, "bike_id": "aa4ae843deb237ac574f6b4f961d054a", "fusion_lat": 0.0, "name": "aa4ae843deb237ac574f6b4f961d054a", "is_reserved": 0, "rental_uris": {"android": "https://dc.lft.to/lastmile_qr_scan", "ios": "https://dc.lft.to/lastmile_qr_scan"}, "fusion_lon": 0.0}, {"lat": 38.962855833333336, "is_disabled": 0, "type": "electric_bike", "lon": -77.03254016666666, "bike_id": "2f900f9ec1281726a2a47c36633cb90f", "fusion_lat": 0.0, "name": "2f900f9ec1281726a2a47c36633cb90f", "is_reserved": 0, "rental_uris": {"android": "https://dc.lft.to/lastmile_qr_scan", "ios": "https://dc.lft.to/lastmile_qr_scan"}, "fusion_lon": 0.0}, {"lat": 38.92335666666666, "is_disabled": 0, "type": "electric_bike", "lon": -77.05676683333333, "bike_id": "06ca9adec6575a1739f1db0b86fa141f", "fusion_lat": 0.0, "name": "06ca9adec6575a1739f1db0b86fa141f", "is_reserved": 0, "rental_uris": {"android": "https://dc.lft.to/lastmile_qr_scan", "ios": "https://dc.lft.to/lastmile_qr_scan"}, "fusion_lon": 0.0}, {"lat": 38.91321216666667, "is_disabled": 0, "type": "electric_scooter", "lon": -77.0364335, "bike_id": "c104cd33c6839b8b67f860cea2c6db99", "fusion_lat": 0.0, "name": "c104cd33c6839b8b67f860cea2c6db99", "is_reserved": 0, "rental_uris": {"android": "https://dc.lft.to/lastmile_qr_scan", "ios": "https://dc.lft.to/lastmile_qr_scan"}, "fusion_lon": 0.0}, {"lat": 38.898538, "is_disabled": 0, "type": "electric_scooter", "lon": -76.9903485, "bike_id": "75fb81c258fcb316469076ff7f33cf4c", "fusion_lat": 0.0, "name": "75fb81c258fcb316469076ff7f33cf4c", "is_reserved": 0, "rental_uris": {"android": "https://dc.lft.to/lastmile_qr_scan", "ios": "https://dc.lft.to/lastmile_qr_scan"}, "fusion_lon": 0.0}, {"lat": 38.869144666666664, "is_disabled": 0, "type": "electric_scooter", "lon": -76.98295516666667, "bike_id": "f5b3a97d3e6f817171b87bad727b74ca", "fusion_lat": 0.0, "name": "f5b3a97d3e6f817171b87bad727b74ca", "is_reserved": 0, "rental_uris": {"android": "https://dc.lft.to/lastmile_qr_scan", "ios": "https://dc.lft.to/lastmile_qr_scan"}, "fusion_lon": 0.0}, {"lat": 38.913338333333336, "is_disabled": 0, "type": "electric_scooter", "lon": -77.03123283333333, "bike_id": "220ee181da30777b6b36825bcf648aff", "fusion_lat": 0.0, "name": "220ee181da30777b6b36825bcf648aff", "is_reserved": 0, "rental_uris": {"android": "https://dc.lft.to/lastmile_qr_scan", "ios": "https://dc.lft.to/lastmile_qr_scan"}, "fusion_lon": 0.0}, {"lat": 38.8841945, "is_disabled": 0, "type": "electric_scooter", "lon": -77.0002415, "bike_id": "6610db3060749396da62e5b90aff5744", "fusion_lat": 0.0, "name": "6610db3060749396da62e5b90aff5744", "is_reserved": 0, "rental_uris": {"android": "https://dc.lft.to/lastmile_qr_scan", "ios": "https://dc.lft.to/lastmile_qr_scan"}, "fusion_lon": 0.0}, {"lat": 38.92881583333333, "is_disabled": 0, "type": "electric_scooter", "lon": -77.03338966666666, "bike_id": "46cdbda16d98e498072cd8b0d4bc45b7", "fusion_lat": 0.0, "name": "46cdbda16d98e498072cd8b0d4bc45b7", "is_reserved": 0, "rental_uris": {"android": "https://dc.lft.to/lastmile_qr_scan", "ios": "https://dc.lft.to/lastmile_qr_scan"}, "fusion_lon": 0.0}, {"lat": 38.98656783333333, "is_disabled": 0, "type": "electric_bike", "lon": -77.0564425, "bike_id": "651df322dc2a94df58cb948f8b8bc1ec", "fusion_lat": 0.0, "name": "651df322dc2a94df58cb948f8b8bc1ec", "is_reserved": 0, "rental_uris": {"android": "https://dc.lft.to/lastmile_qr_scan", "ios": "https://dc.lft.to/lastmile_qr_scan"}, "fusion_lon": 0.0}, {"lat": 38.87808533333333, "is_disabled": 0, "type": "electric_bike", "lon": -76.96072566666666, "bike_id": "2c101c0169e05451a6e6654e58dce0a6", "fusion_lat": 0.0, "name": "2c101c0169e05451a6e6654e58dce0a6", "is_reserved": 0, "rental_uris": {"android": "https://dc.lft.to/lastmile_qr_scan", "ios": "https://dc.lft.to/lastmile_qr_scan"}, "fusion_lon": 0.0}, {"lat": 38.8442785, "is_disabled": 0, "type": "electric_scooter", "lon": -76.99779, "bike_id": "88f71d70b93fd5158376941e1a047e04", "fusion_lat": 0.0, "name": "88f71d70b93fd5158376941e1a047e04", "is_reserved": 0, "rental_uris": {"android": "https://dc.lft.to/lastmile_qr_scan", "ios": "https://dc.lft.to/lastmile_qr_scan"}, "fusion_lon": 0.0}, {"lat": 38.90585733333333, "is_disabled": 0, "type": "electric_scooter", "lon": -77.06516633333334, "bike_id": "8f7004300fdf2995d2b8f03c517d5afb", "fusion_lat": 0.0, "name": "8f7004300fdf2995d2b8f03c517d5afb", "is_reserved": 0, "rental_uris": {"android": "https://dc.lft.to/lastmile_qr_scan", "ios": "https://dc.lft.to/lastmile_qr_scan"}, "fusion_lon": 0.0}, {"lat": 38.906674333333335, "is_disabled": 0, "type": "electric_scooter", "lon": -77.02945983333333, "bike_id": "9c1c8c2146f069f6c6fea4ae36c19091", "fusion_lat": 0.0, "name": "9c1c8c2146f069f6c6fea4ae36c19091", "is_reserved": 0, "rental_uris": {"android": "https://dc.lft.to/lastmile_qr_scan", "ios": "https://dc.lft.to/lastmile_qr_scan"}, "fusion_lon": 0.0}, {"lat": 38.91972616666666, "is_disabled": 0, "type": "electric_scooter", "lon": -77.04143416666666, "bike_id": "c0aaec92ce78edbbe43a84789924ebe7", "fusion_lat": 0.0, "name": "c0aaec92ce78edbbe43a84789924ebe7", "is_reserved": 0, "rental_uris": {"android": "https://dc.lft.to/lastmile_qr_scan", "ios": "https://dc.lft.to/lastmile_qr_scan"}, "fusion_lon": 0.0}, {"lat": 38.89818616666667, "is_disabled": 0, "type": "electric_scooter", "lon": -77.03169866666667, "bike_id": "4de0a3d4b09beb1ce045527955d90a58", "fusion_lat": 0.0, "name": "4de0a3d4b09beb1ce045527955d90a58", "is_reserved": 0, "rental_uris": {"android": "https://dc.lft.to/lastmile_qr_scan", "ios": "https://dc.lft.to/lastmile_qr_scan"}, "fusion_lon": 0.0}, {"lat": 38.907969, "is_disabled": 0, "type": "electric_scooter", "lon": -77.03637366666666, "bike_id": "c7bb6d768bae0398eda831300971144b", "fusion_lat": 0.0, "name": "c7bb6d768bae0398eda831300971144b", "is_reserved": 0, "rental_uris": {"android": "https://dc.lft.to/lastmile_qr_scan", "ios": "https://dc.lft.to/lastmile_qr_scan"}, "fusion_lon": 0.0}, {"lat": 38.8801, "is_disabled": 0, "type": "electric_scooter", "lon": -77.02483383333333, "bike_id": "32c87b64b31684035f4c28e3d7d29863", "fusion_lat": 0.0, "name": "32c87b64b31684035f4c28e3d7d29863", "is_reserved": 0, "rental_uris": {"android": "https://dc.lft.to/lastmile_qr_scan", "ios": "https://dc.lft.to/lastmile_qr_scan"}, "fusion_lon": 0.0}, {"lat": 38.82265366666667, "is_disabled": 0, "type": "electric_bike", "lon": -77.05805683333334, "bike_id": "c21f1f9bb75abf49bbe6de4ec91b9e6f", "fusion_lat": 0.0, "name": "c21f1f9bb75abf49bbe6de4ec91b9e6f", "is_reserved": 0, "rental_uris": {"android": "https://dc.lft.to/lastmile_qr_scan", "ios": "https://dc.lft.to/lastmile_qr_scan"}, "fusion_lon": 0.0}, {"lat": 38.985042166666666, "is_disabled": 0, "type": "electric_bike", "lon": -76.981919, "bike_id": "cbcb1229c21955d1b68416d5eec3e942", "fusion_lat": 0.0, "name": "cbcb1229c21955d1b68416d5eec3e942", "is_reserved": 0, "rental_uris": {"android": "https://dc.lft.to/lastmile_qr_scan", "ios": "https://dc.lft.to/lastmile_qr_scan"}, "fusion_lon": 0.0}, {"lat": 38.92831, "is_disabled": 0, "type": "electric_scooter", "lon": -77.02187016666667, "bike_id": "a75b737807698a64c652ce989cd8913a", "fusion_lat": 0.0, "name": "a75b737807698a64c652ce989cd8913a", "is_reserved": 0, "rental_uris": {"android": "https://dc.lft.to/lastmile_qr_scan", "ios": "https://dc.lft.to/lastmile_qr_scan"}, "fusion_lon": 0.0}, {"lat": 38.91100266666667, "is_disabled": 0, "type": "electric_scooter", "lon": -77.03187533333333, "bike_id": "888a9274f9b7da0e4b616e7618ba81f7", "fusion_lat": 0.0, "name": "888a9274f9b7da0e4b616e7618ba81f7", "is_reserved": 0, "rental_uris": {"android": "https://dc.lft.to/lastmile_qr_scan", "ios": "https://dc.lft.to/lastmile_qr_scan"}, "fusion_lon": 0.0}, {"lat": 38.9287615, "is_disabled": 0, "type": "electric_scooter", "lon": -77.0330055, "bike_id": "c61198ca3755ca50f1fb0c5c1d41f683", "fusion_lat": 0.0, "name": "c61198ca3755ca50f1fb0c5c1d41f683", "is_reserved": 0, "rental_uris": {"android": "https://dc.lft.to/lastmile_qr_scan", "ios": "https://dc.lft.to/lastmile_qr_scan"}, "fusion_lon": 0.0}, {"lat": 38.905070333333335, "is_disabled": 0, "type": "electric_scooter", "lon": -77.050594, "bike_id": "9aa49889a6bb5deaa4f20e3aefad94a5", "fusion_lat": 0.0, "name": "9aa49889a6bb5deaa4f20e3aefad94a5", "is_reserved": 0, "rental_uris": {"android": "https://dc.lft.to/lastmile_qr_scan", "ios": "https://dc.lft.to/lastmile_qr_scan"}, "fusion_lon": 0.0}, {"lat": 38.86987333333333, "is_disabled": 0, "type": "electric_bike", "lon": -76.959875, "bike_id": "dbd159c7c586e51fa5ee490908124cfa", "fusion_lat": 0.0, "name": "dbd159c7c586e51fa5ee490908124cfa", "is_reserved": 0, "rental_uris": {"android": "https://dc.lft.to/lastmile_qr_scan", "ios": "https://dc.lft.to/lastmile_qr_scan"}, "fusion_lon": 0.0}, {"lat": 38.96859716666667, "is_disabled": 0, "type": "electric_scooter", "lon": -77.01754366666667, "bike_id": "02840783e0ff39d37466b541591f453b", "fusion_lat": 0.0, "name": "02840783e0ff39d37466b541591f453b", "is_reserved": 0, "rental_uris": {"android": "https://dc.lft.to/lastmile_qr_scan", "ios": "https://dc.lft.to/lastmile_qr_scan"}, "fusion_lon": 0.0}, {"lat": 38.91120266666667, "is_disabled": 0, "type": "electric_scooter", "lon": -77.03836566666666, "bike_id": "c490c3c65cd25510c9e4a542357ab700", "fusion_lat": 0.0, "name": "c490c3c65cd25510c9e4a542357ab700", "is_reserved": 0, "rental_uris": {"android": "https://dc.lft.to/lastmile_qr_scan", "ios": "https://dc.lft.to/lastmile_qr_scan"}, "fusion_lon": 0.0}, {"lat": 38.89953633333333, "is_disabled": 0, "type": "electric_scooter", "lon": -77.0210775, "bike_id": "94124f2b1b27b6bc21cc394e4bb9a38d", "fusion_lat": 0.0, "name": "94124f2b1b27b6bc21cc394e4bb9a38d", "is_reserved": 0, "rental_uris": {"android": "https://dc.lft.to/lastmile_qr_scan", "ios": "https://dc.lft.to/lastmile_qr_scan"}, "fusion_lon": 0.0}, {"lat": 38.932364166666666, "is_disabled": 0, "type": "electric_bike", "lon": -76.97422283333333, "bike_id": "43ec3c8d1d2971ceb2588bc6636840f6", "fusion_lat": 0.0, "name": "43ec3c8d1d2971ceb2588bc6636840f6", "is_reserved": 0, "rental_uris": {"android": "https://dc.lft.to/lastmile_qr_scan", "ios": "https://dc.lft.to/lastmile_qr_scan"}, "fusion_lon": 0.0}, {"lat": 38.884314, "is_disabled": 0, "type": "electric_scooter", "lon": -76.95759233333334, "bike_id": "0f0784da54f3566e3d1c999b9cffad3c", "fusion_lat": 0.0, "name": "0f0784da54f3566e3d1c999b9cffad3c", "is_reserved": 0, "rental_uris": {"android": "https://dc.lft.to/lastmile_qr_scan", "ios": "https://dc.lft.to/lastmile_qr_scan"}, "fusion_lon": 0.0}, {"lat": 38.89221833333333, "is_disabled": 0, "type": "electric_scooter", "lon": -76.93298766666666, "bike_id": "ac164ac44ca50ef5a90399c5182725b2", "fusion_lat": 0.0, "name": "ac164ac44ca50ef5a90399c5182725b2", "is_reserved": 0, "rental_uris": {"android": "https://dc.lft.to/lastmile_qr_scan", "ios": "https://dc.lft.to/lastmile_qr_scan"}, "fusion_lon": 0.0}, {"lat": 38.9045955, "is_disabled": 0, "type": "electric_scooter", "lon": -77.02948366666666, "bike_id": "0921ba0111b693c04a98cc00b7cbb883", "fusion_lat": 0.0, "name": "0921ba0111b693c04a98cc00b7cbb883", "is_reserved": 0, "rental_uris": {"android": "https://dc.lft.to/lastmile_qr_scan", "ios": "https://dc.lft.to/lastmile_qr_scan"}, "fusion_lon": 0.0}, {"lat": 38.8746025, "is_disabled": 0, "type": "electric_scooter", "lon": -77.00492633333333, "bike_id": "cebbb0eea09c814c740cdcecd067015b", "fusion_lat": 0.0, "name": "cebbb0eea09c814c740cdcecd067015b", "is_reserved": 0, "rental_uris": {"android": "https://dc.lft.to/lastmile_qr_scan", "ios": "https://dc.lft.to/lastmile_qr_scan"}, "fusion_lon": 0.0}, {"lat": 38.90776483333333, "is_disabled": 0, "type": "electric_scooter", "lon": -77.038623, "bike_id": "326d7b7a5db8e1c4cccfbe4bd57b684f", "fusion_lat": 0.0, "name": "326d7b7a5db8e1c4cccfbe4bd57b684f", "is_reserved": 0, "rental_uris": {"android": "https://dc.lft.to/lastmile_qr_scan", "ios": "https://dc.lft.to/lastmile_qr_scan"}, "fusion_lon": 0.0}, {"lat": 38.88972666666667, "is_disabled": 0, "type": "electric_scooter", "lon": -76.93740149999999, "bike_id": "821380a2292240346c5580c6a7647ae5", "fusion_lat": 0.0, "name": "821380a2292240346c5580c6a7647ae5", "is_reserved": 0, "rental_uris": {"android": "https://dc.lft.to/lastmile_qr_scan", "ios": "https://dc.lft.to/lastmile_qr_scan"}, "fusion_lon": 0.0}, {"lat": 38.90384, "is_disabled": 0, "type": "electric_scooter", "lon": -77.043739, "bike_id": "c523e3d1834c4a9c6c49f8e2a6910e31", "fusion_lat": 0.0, "name": "c523e3d1834c4a9c6c49f8e2a6910e31", "is_reserved": 0, "rental_uris": {"android": "https://dc.lft.to/lastmile_qr_scan", "ios": "https://dc.lft.to/lastmile_qr_scan"}, "fusion_lon": 0.0}, {"lat": 38.86618966666666, "is_disabled": 0, "type": "electric_bike", "lon": -76.94569866666667, "bike_id": "4c76ba9dca837f07b7852fa2b0a7ce04", "fusion_lat": 0.0, "name": "4c76ba9dca837f07b7852fa2b0a7ce04", "is_reserved": 0, "rental_uris": {"android": "https://dc.lft.to/lastmile_qr_scan", "ios": "https://dc.lft.to/lastmile_qr_scan"}, "fusion_lon": 0.0}, {"lat": 38.899534, "is_disabled": 0, "type": "electric_scooter", "lon": -77.0552115, "bike_id": "71c5cb6f7abda1c850764887a514172f", "fusion_lat": 0.0, "name": "71c5cb6f7abda1c850764887a514172f", "is_reserved": 0, "rental_uris": {"android": "https://dc.lft.to/lastmile_qr_scan", "ios": "https://dc.lft.to/lastmile_qr_scan"}, "fusion_lon": 0.0}, {"lat": 38.932189666666666, "is_disabled": 0, "type": "electric_scooter", "lon": -77.02732283333333, "bike_id": "35d53f514a5b82033c0ff5b8907acc66", "fusion_lat": 0.0, "name": "35d53f514a5b82033c0ff5b8907acc66", "is_reserved": 0, "rental_uris": {"android": "https://dc.lft.to/lastmile_qr_scan", "ios": "https://dc.lft.to/lastmile_qr_scan"}, "fusion_lon": 0.0}, {"lat": 38.94092366666667, "is_disabled": 0, "type": "electric_scooter", "lon": -77.02303416666666, "bike_id": "c292828366dd94f340dfb1e67d66e4f2", "fusion_lat": 0.0, "name": "c292828366dd94f340dfb1e67d66e4f2", "is_reserved": 0, "rental_uris": {"android": "https://dc.lft.to/lastmile_qr_scan", "ios": "https://dc.lft.to/lastmile_qr_scan"}, "fusion_lon": 0.0}, {"lat": 38.9073745, "is_disabled": 0, "type": "electric_scooter", "lon": -77.02536216666667, "bike_id": "123df0c0b1e41027e9285fda6431d967", "fusion_lat": 0.0, "name": "123df0c0b1e41027e9285fda6431d967", "is_reserved": 0, "rental_uris": {"android": "https://dc.lft.to/lastmile_qr_scan", "ios": "https://dc.lft.to/lastmile_qr_scan"}, "fusion_lon": 0.0}, {"lat": 38.86662416666667, "is_disabled": 0, "type": "electric_scooter", "lon": -76.98900433333333, "bike_id": "65549c3cb4688b231c6ffba42313404a", "fusion_lat": 0.0, "name": "65549c3cb4688b231c6ffba42313404a", "is_reserved": 0, "rental_uris": {"android": "https://dc.lft.to/lastmile_qr_scan", "ios": "https://dc.lft.to/lastmile_qr_scan"}, "fusion_lon": 0.0}, {"lat": 38.90970383333333, "is_disabled": 0, "type": "electric_scooter", "lon": -77.03211066666667, "bike_id": "85c081bff38eff96cb5b3908f9b77e18", "fusion_lat": 0.0, "name": "85c081bff38eff96cb5b3908f9b77e18", "is_reserved": 0, "rental_uris": {"android": "https://dc.lft.to/lastmile_qr_scan", "ios": "https://dc.lft.to/lastmile_qr_scan"}, "fusion_lon": 0.0}, {"lat": 38.9649475, "is_disabled": 0, "type": "electric_bike", "lon": -77.0649115, "bike_id": "a5c601e614631dd170ffe8a630502a8c", "fusion_lat": 0.0, "name": "a5c601e614631dd170ffe8a630502a8c", "is_reserved": 0, "rental_uris": {"android": "https://dc.lft.to/lastmile_qr_scan", "ios": "https://dc.lft.to/lastmile_qr_scan"}, "fusion_lon": 0.0}, {"lat": 38.9095575, "is_disabled": 0, "type": "electric_scooter", "lon": -77.0210945, "bike_id": "d401de503675dca73096dc926f9d8f97", "fusion_lat": 0.0, "name": "d401de503675dca73096dc926f9d8f97", "is_reserved": 0, "rental_uris": {"android": "https://dc.lft.to/lastmile_qr_scan", "ios": "https://dc.lft.to/lastmile_qr_scan"}, "fusion_lon": 0.0}, {"lat": 38.918923166666666, "is_disabled": 0, "type": "electric_scooter", "lon": -77.04740416666667, "bike_id": "d980f55476b7bf00e1fc23ee41748111", "fusion_lat": 0.0, "name": "d980f55476b7bf00e1fc23ee41748111", "is_reserved": 0, "rental_uris": {"android": "https://dc.lft.to/lastmile_qr_scan", "ios": "https://dc.lft.to/lastmile_qr_scan"}, "fusion_lon": 0.0}, {"lat": 38.87315516666666, "is_disabled": 0, "type": "electric_bike", "lon": -76.99156133333334, "bike_id": "72375fe5419b540308d190d40efe02a4", "fusion_lat": 0.0, "name": "72375fe5419b540308d190d40efe02a4", "is_reserved": 0, "rental_uris": {"android": "https://dc.lft.to/lastmile_qr_scan", "ios": "https://dc.lft.to/lastmile_qr_scan"}, "fusion_lon": 0.0}, {"lat": 38.951382, "is_disabled": 0, "type": "electric_scooter", "lon": -77.013338, "bike_id": "08d327a7091ba55dad7b84ce54af5830", "fusion_lat": 0.0, "name": "08d327a7091ba55dad7b84ce54af5830", "is_reserved": 0, "rental_uris": {"android": "https://dc.lft.to/lastmile_qr_scan", "ios": "https://dc.lft.to/lastmile_qr_scan"}, "fusion_lon": 0.0}, {"lat": 38.90315733333333, "is_disabled": 0, "type": "electric_scooter", "lon": -76.97802916666667, "bike_id": "17acec84b3926c39260be6690f1340fd", "fusion_lat": 0.0, "name": "17acec84b3926c39260be6690f1340fd", "is_reserved": 0, "rental_uris": {"android": "https://dc.lft.to/lastmile_qr_scan", "ios": "https://dc.lft.to/lastmile_qr_scan"}, "fusion_lon": 0.0}, {"lat": 38.917886, "is_disabled": 0, "type": "electric_scooter", "lon": -77.04069433333333, "bike_id": "8cbecdb3daab22e89230bf44bb91b5f3", "fusion_lat": 0.0, "name": "8cbecdb3daab22e89230bf44bb91b5f3", "is_reserved": 0, "rental_uris": {"android": "https://dc.lft.to/lastmile_qr_scan", "ios": "https://dc.lft.to/lastmile_qr_scan"}, "fusion_lon": 0.0}, {"lat": 38.9133245, "is_disabled": 0, "type": "electric_scooter", "lon": -77.03124583333333, "bike_id": "dc316cc5d236f1800f0e7d7bcdc98bf3", "fusion_lat": 0.0, "name": "dc316cc5d236f1800f0e7d7bcdc98bf3", "is_reserved": 0, "rental_uris": {"android": "https://dc.lft.to/lastmile_qr_scan", "ios": "https://dc.lft.to/lastmile_qr_scan"}, "fusion_lon": 0.0}, {"lat": 38.901286, "is_disabled": 0, "type": "electric_scooter", "lon": -76.99740333333334, "bike_id": "d6d30e0daa50ca41fb8c2abf0226c860", "fusion_lat": 0.0, "name": "d6d30e0daa50ca41fb8c2abf0226c860", "is_reserved": 0, "rental_uris": {"android": "https://dc.lft.to/lastmile_qr_scan", "ios": "https://dc.lft.to/lastmile_qr_scan"}, "fusion_lon": 0.0}, {"lat": 38.894905333333334, "is_disabled": 0, "type": "electric_scooter", "lon": -77.02160383333333, "bike_id": "00447d3fbd484fadfefd36e2d03d8b4a", "fusion_lat": 0.0, "name": "00447d3fbd484fadfefd36e2d03d8b4a", "is_reserved": 0, "rental_uris": {"android": "https://dc.lft.to/lastmile_qr_scan", "ios": "https://dc.lft.to/lastmile_qr_scan"}, "fusion_lon": 0.0}, {"lat": 38.9071945, "is_disabled": 0, "type": "electric_scooter", "lon": -77.0475365, "bike_id": "1a7f0638799d7af3786e722273777f33", "fusion_lat": 0.0, "name": "1a7f0638799d7af3786e722273777f33", "is_reserved": 0, "rental_uris": {"android": "https://dc.lft.to/lastmile_qr_scan", "ios": "https://dc.lft.to/lastmile_qr_scan"}, "fusion_lon": 0.0}, {"lat": 38.90646483333333, "is_disabled": 0, "type": "electric_scooter", "lon": -77.02507416666667, "bike_id": "cf7d7d9f068bb4f10054c092fc477b15", "fusion_lat": 0.0, "name": "cf7d7d9f068bb4f10054c092fc477b15", "is_reserved": 0, "rental_uris": {"android": "https://dc.lft.to/lastmile_qr_scan", "ios": "https://dc.lft.to/lastmile_qr_scan"}, "fusion_lon": 0.0}, {"lat": 38.91558083333334, "is_disabled": 0, "type": "electric_scooter", "lon": -77.04878066666667, "bike_id": "299aac161030be05f3445e367c719c85", "fusion_lat": 0.0, "name": "299aac161030be05f3445e367c719c85", "is_reserved": 0, "rental_uris": {"android": "https://dc.lft.to/lastmile_qr_scan", "ios": "https://dc.lft.to/lastmile_qr_scan"}, "fusion_lon": 0.0}, {"lat": 38.8849985, "is_disabled": 0, "type": "electric_scooter", "lon": -77.015498, "bike_id": "09c325b7b8e95a72574f5153aaef44d7", "fusion_lat": 0.0, "name": "09c325b7b8e95a72574f5153aaef44d7", "is_reserved": 0, "rental_uris": {"android": "https://dc.lft.to/lastmile_qr_scan", "ios": "https://dc.lft.to/lastmile_qr_scan"}, "fusion_lon": 0.0}, {"lat": 38.92596066666667, "is_disabled": 0, "type": "electric_scooter", "lon": -77.00471333333333, "bike_id": "1be1a2b3baf48c7aa751b30228d914c0", "fusion_lat": 0.0, "name": "1be1a2b3baf48c7aa751b30228d914c0", "is_reserved": 0, "rental_uris": {"android": "https://dc.lft.to/lastmile_qr_scan", "ios": "https://dc.lft.to/lastmile_qr_scan"}, "fusion_lon": 0.0},