{"data": {"bikes": [{"lon": -77.04243833333334, "bike_id": "f30b93f823f003834b19471da32a2ad9", "lat": 38.909565, "fusion_lon": 0.0, "fusion_lat": 0.0, "type": "electric_scooter", "name": "f30b93f823f003834b19471da32a2ad9", "is_disabled": 0, "rental_uris": {"ios": "https://dc.lft.to/lastmile_qr_scan", "android": "https://dc.lft.to/lastmile_qr_scan"}, "is_reserved": 0}, {"lon": -77.02568183333334, "bike_id": "e1ccdce7cb2ebb58a06da24d78290abe", "lat": 38.91339716666667, "fusion_lon": 0.0, "fusion_lat": 0.0, "type": "electric_scooter", "name": "e1ccdce7cb2ebb58a06da24d78290abe", "is_disabled": 0, "rental_uris": {"ios": "https://dc.lft.to/lastmile_qr_scan", "android": "https://dc.lft.to/lastmile_qr_scan"}, "is_reserved": 0}, {"lon": -77.043184, "bike_id": "e58491c89b4b8f1c4d33297777ca4a05", "lat": 38.92252283333333, "fusion_lon": 0.0, "fusion_lat": 0.0, "type": "electric_scooter", "name": "e58491c89b4b8f1c4d33297777ca4a05", "is_disabled": 0, "rental_uris": {"ios": "https://dc.lft.to/lastmile_qr_scan", "android": "https://dc.lft.to/lastmile_qr_scan"}, "is_reserved": 0}, {"lon": -76.99960266666666, "bike_id": "571342e9e52e64bd364e813cbedc6acf", "lat": 38.908508, "fusion_lon": 0.0, "fusion_lat": 0.0, "type": "electric_scooter", "name": "571342e9e52e64bd364e813cbedc6acf", "is_disabled": 0, "rental_uris": {"ios": "https://dc.lft.to/lastmile_qr_scan", "android": "https://dc.lft.to/lastmile_qr_scan"}, "is_reserved": 0}, {"lon": -77.02531983333333, "bike_id": "38cb5bd03ac201c007cb1e6febec066e", "lat": 38.94098733333333, "fusion_lon": 0.0, "fusion_lat": 0.0, "type": "electric_scooter", "name": "38cb5bd03ac201c007cb1e6febec066e", "is_disabled": 0, "rental_uris": {"ios": "https://dc.lft.to/lastmile_qr_scan", "android": "https://dc.lft.to/lastmile_qr_scan"}, "is_reserved": 0}, {"lon": -77.03961466666667, "bike_id": "1a2491523f20ab4da71206b7b560e221", "lat": 38.9162845, "fusion_lon": 0.0, "fusion_lat": 0.0, "type": "electric_scooter", "name": "1a2491523f20ab4da71206b7b560e221", "is_disabled": 0, "rental_uris": {"ios": "https://dc.lft.to/lastmile_qr_scan", "android": "https://dc.lft.to/lastmile_qr_scan"}, "is_reserved": 0}, {"lon": -76.98403466666667, "bike_id": "5dc4e2c414f649f51b149686a989a318", "lat": 38.90628683333333, "fusion_lon": 0.0, "fusion_lat": 0.0, "type": "electric_scooter", "name": "5dc4e2c414f649f51b149686a989a318", "is_disabled": 0, "rental_uris": {"ios": "https://dc.lft.to/lastmile_qr_scan", "android": "https://dc.lft.to/lastmile_qr_scan"}, "is_reserved": 0}, {"lon": -77.02618866666667, "bike_id": "709ca020810e0d7d6932e48ea4113e55", "lat": 38.93355716666667, "fusion_lon": 0.0, "fusion_lat": 0.0, "type": "electric_scooter", "name": "709ca020810e0d7d6932e48ea4113e55", "is_disabled": 0, "rental_uris": {"ios": "https://dc.lft.to/lastmile_qr_scan", "android": "https://dc.lft.to/lastmile_qr_scan"}, "is_reserved": 0}, {"lon": -77.03772283333333, "bike_id": "25779ecc5a582374cc6dfd1138fbe6f0", "lat": 38.929688166666665, "fusion_lon": 0.0, "fusion_lat": 0.0, "type": "electric_scooter", "name": "25779ecc5a582374cc6dfd1138fbe6f0", "is_disabled": 0, "rental_uris": {"ios": "https://dc.lft.to/lastmile_qr_scan", "android": "https://dc.lft.to/lastmile_qr_scan"}, "is_reserved": 0}, {"lon": -77.04507833333334, "bike_id": "ceb1c1af1a3a7ce3bc1c2820dc41effa", "lat": 38.886001, "fusion_lon": 0.0, "fusion_lat": 0.0, "type": "electric_scooter", "name": "ceb1c1af1a3a7ce3bc1c2820dc41effa", "is_disabled": 0, "rental_uris": {"ios": "https://dc.lft.to/lastmile_qr_scan", "android": "https://dc.lft.to/lastmile_qr_scan"}, "is_reserved": 0}, {"lon": -76.98773166666666, "bike_id": "2a250f385f01d9f2ffed65680a816826", "lat": 38.866069833333334, "fusion_lon": 0.0, "fusion_lat": 0.0, "type": "electric_bike", "name": "2a250f385f01d9f2ffed65680a816826", "is_disabled": 0, "rental_uris": {"ios": "https://dc.lft.to/lastmile_qr_scan", "android": "https://dc.lft.to/lastmile_qr_scan"}, "is_reserved": 0}, {"lon": -76.98936866666666, "bike_id": "14c171f81b0509d4603da7770ef19e96", "lat": 38.9183525, "fusion_lon": 0.0, "fusion_lat": 0.0, "type": "electric_scooter", "name": "14c171f81b0509d4603da7770ef19e96", "is_disabled": 0, "rental_uris": {"ios": "https://dc.lft.to/lastmile_qr_scan", "android": "https://dc.lft.to/lastmile_qr_scan"}, "is_reserved": 0}, {"lon": -77.04349533333334, "bike_id": "0e55abfe8c6cc49cb37df0844f4c6c69", "lat": 38.90481483333333, "fusion_lon": 0.0, "fusion_lat": 0.0, "type": "electric_scooter", "name": "0e55abfe8c6cc49cb37df0844f4c6c69", "is_disabled": 0, "rental_uris": {"ios": "https://dc.lft.to/lastmile_qr_scan", "android": "https://dc.lft.to/lastmile_qr_scan"}, "is_reserved": 0}, {"lon": -77.05860266666667, "bike_id": "e7183f9bc80b4fe0cdafe593c0e1b116", "lat": 38.9360565, "fusion_lon": 0.0, "fusion_lat": 0.0, "type": "electric_scooter", "name": "e7183f9bc80b4fe0cdafe593c0e1b116", "is_disabled": 0, "rental_uris": {"ios": "https://dc.lft.to/lastmile_qr_scan", "android": "https://dc.lft.to/lastmile_qr_scan"}, "is_reserved": 0}, {"lon": -76.9904975, "bike_id": "98d9271fcfec4684e1b0462e2bf9e518", "lat": 38.884173833333335, "fusion_lon": 0.0, "fusion_lat": 0.0, "type": "electric_scooter", "name": "98d9271fcfec4684e1b0462e2bf9e518", "is_disabled": 0, "rental_uris": {"ios": "https://dc.lft.to/lastmile_qr_scan", "android": "https://dc.lft.to/lastmile_qr_scan"}, "is_reserved": 0}, {"lon": -77.01853566666666, "bike_id": "0ec66d6d074ab06a56de9da7f859bfbb", "lat": 38.904270333333336, "fusion_lon": 0.0, "fusion_lat": 0.0, "type": "electric_scooter", "name": "0ec66d6d074ab06a56de9da7f859bfbb", "is_disabled": 0, "rental_uris": {"ios": "https://dc.lft.to/lastmile_qr_scan", "android": "https://dc.lft.to/lastmile_qr_scan"}, "is_reserved": 0}, {"lon": -77.0431475, "bike_id": "3863cff40fa18ab80cdef4e61a22b104", "lat": 38.89197466666667, "fusion_lon": 0.0, "fusion_lat": 0.0, "type": "electric_scooter", "name": "3863cff40fa18ab80cdef4e61a22b104", "is_disabled": 0, "rental_uris": {"ios": "https://dc.lft.to/lastmile_qr_scan", "android": "https://dc.lft.to/lastmile_qr_scan"}, "is_reserved": 0}, {"lon": -76.94885166666667, "bike_id": "1cc539f8af39534c235fbb37b8fe9d03", "lat": 38.895091, "fusion_lon": 0.0, "fusion_lat": 0.0, "type": "electric_scooter", "name": "1cc539f8af39534c235fbb37b8fe9d03", "is_disabled": 0, "rental_uris": {"ios": "https://dc.lft.to/lastmile_qr_scan", "android": "https://dc.lft.to/lastmile_qr_scan"}, "is_reserved": 0}, {"lon": -77.02175266666667, "bike_id": "b2f61b413c6f1d18ecdb41d7d3f8c236", "lat": 38.8974285, "fusion_lon": 0.0, "fusion_lat": 0.0, "type": "electric_scooter", "name": "b2f61b413c6f1d18ecdb41d7d3f8c236", "is_disabled": 0, "rental_uris": {"ios": "https://dc.lft.to/lastmile_qr_scan", "android": "https://dc.lft.to/lastmile_qr_scan"}, "is_reserved": 0}, {"lon": -76.91597683333333, "bike_id": "f780ad43df9f574a610fb337c4421ea1", "lat": 38.879824166666666, "fusion_lon": 0.0, "fusion_lat": 0.0, "type": "electric_bike", "name": "f780ad43df9f574a610fb337c4421ea1", "is_disabled": 0, "rental_uris": {"ios": "https://dc.lft.to/lastmile_qr_scan", "android": "https://dc.lft.to/lastmile_qr_scan"}, "is_reserved": 0}, {"lon": -77.08196116666667, "bike_id": "9e7f5dbbf4a96d0ed3a1b9821b4d9216", "lat": 38.9351455, "fusion_lon": 0.0, "fusion_lat": 0.0, "type": "electric_scooter", "name": "9e7f5dbbf4a96d0ed3a1b9821b4d9216", "is_disabled": 0, "rental_uris": {"ios": "https://dc.lft.to/lastmile_qr_scan", "android": "https://dc.lft.to/lastmile_qr_scan"}, "is_reserved": 0}, {"lon": -77.02688616666667, "bike_id": "fb8d39558d48de4bb475bc553cd987da", "lat": 38.9006905, "fusion_lon": 0.0, "fusion_lat": 0.0, "type": "electric_scooter", "name": "fb8d39558d48de4bb475bc553cd987da", "is_disabled": 0, "rental_uris": {"ios": "https://dc.lft.to/lastmile_qr_scan", "android": "https://dc.lft.to/lastmile_qr_scan"}, "is_reserved": 0}, {"lon": -76.9950965, "bike_id": "fe9ee46e82c9db926ff2337790ce3e84", "lat": 38.883013166666665, "fusion_lon": 0.0, "fusion_lat": 0.0, "type": "electric_scooter", "name": "fe9ee46e82c9db926ff2337790ce3e84", "is_disabled": 0, "rental_uris": {"ios": "https://dc.lft.to/lastmile_qr_scan", "android": "https://dc.lft.to/lastmile_qr_scan"}, "is_reserved": 0}, {"lon": -77.03284716666667, "bike_id": "234b955edbc80e42a00b85d7bfecd42d", "lat": 38.93487833333333, "fusion_lon": 0.0, "fusion_lat": 0.0, "type": "electric_scooter", "name": "234b955edbc80e42a00b85d7bfecd42d", "is_disabled": 0, "rental_uris": {"ios": "https://dc.lft.to/lastmile_qr_scan", "android": "https://dc.lft.to/lastmile_qr_scan"}, "is_reserved": 0}, {"lon": -76.973318, "bike_id": "51f04c7070c87cd67c6e7474e8e2db1c", "lat": 38.90481716666667, "fusion_lon": 0.0, "fusion_lat": 0.0, "type": "electric_bike", "name": "51f04c7070c87cd67c6e7474e8e2db1c", "is_disabled": 0, "rental_uris": {"ios": "https://dc.lft.to/lastmile_qr_scan", "android": "https://dc.lft.to/lastmile_qr_scan"}, "is_reserved": 0}, {"lon": -77.04380866666666, "bike_id": "222b9fc073a772737fa17c30b7d79a79", "lat": 38.9187665, "fusion_lon": 0.0, "fusion_lat": 0.0, "type": "electric_scooter", "name": "222b9fc073a772737fa17c30b7d79a79", "is_disabled": 0, "rental_uris": {"ios": "https://dc.lft.to/lastmile_qr_scan", "android": "https://dc.lft.to/lastmile_qr_scan"}, "is_reserved": 0}, {"lon": -77.03187233333334, "bike_id": "c9f92760cdab192aba20b891665b9ad1", "lat": 38.91741733333333, "fusion_lon": 0.0, "fusion_lat": 0.0, "type": "electric_scooter", "name": "c9f92760cdab192aba20b891665b9ad1", "is_disabled": 0, "rental_uris": {"ios": "https://dc.lft.to/lastmile_qr_scan", "android": "https://dc.lft.to/lastmile_qr_scan"}, "is_reserved": 0}, {"lon": -77.0487225, "bike_id": "c09ba474b58fc8d76286432e1702968f", "lat": 38.916237833333334, "fusion_lon": 0.0, "fusion_lat": 0.0, "type": "electric_scooter", "name": "c09ba474b58fc8d76286432e1702968f", "is_disabled": 0, "rental_uris": {"ios": "https://dc.lft.to/lastmile_qr_scan", "android": "https://dc.lft.to/lastmile_qr_scan"}, "is_reserved": 0}, {"lon": -77.03290266666667, "bike_id": "247a556e79f463a3e2fd504a3d844a94", "lat": 38.927418333333335, "fusion_lon": 0.0, "fusion_lat": 0.0, "type": "electric_scooter", "name": "247a556e79f463a3e2fd504a3d844a94", "is_disabled": 0, "rental_uris": {"ios": "https://dc.lft.to/lastmile_qr_scan", "android": "https://dc.lft.to/lastmile_qr_scan"}, "is_reserved": 0}, {"lon": -77.00063133333333, "bike_id": "25c8aae7cf93cd566ac9bfffe64133bf", "lat": 38.8999035, "fusion_lon": 0.0, "fusion_lat": 0.0, "type": "electric_scooter", "name": "25c8aae7cf93cd566ac9bfffe64133bf", "is_disabled": 0, "rental_uris": {"ios": "https://dc.lft.to/lastmile_qr_scan", "android": "https://dc.lft.to/lastmile_qr_scan"}, "is_reserved": 0}, {"lon": -77.0185015, "bike_id": "e8bad09da9d26ee5cc65324e59a896c9", "lat": 38.912678166666666, "fusion_lon": 0.0, "fusion_lat": 0.0, "type": "electric_scooter", "name": "e8bad09da9d26ee5cc65324e59a896c9", "is_disabled": 0, "rental_uris": {"ios": "https://dc.lft.to/lastmile_qr_scan", "android": "https://dc.lft.to/lastmile_qr_scan"}, "is_reserved": 0}, {"lon": -77.01097983333334, "bike_id": "6500dae7e7ae61de37a4c4b3698bb466", "lat": 38.9036295, "fusion_lon": 0.0, "fusion_lat": 0.0, "type": "electric_scooter", "name": "6500dae7e7ae61de37a4c4b3698bb466", "is_disabled": 0, "rental_uris": {"ios": "https://dc.lft.to/lastmile_qr_scan", "android": "https://dc.lft.to/lastmile_qr_scan"}, "is_reserved": 0}, {"lon": -77.18563666666667, "bike_id": "1740f34f8a00791a29d928acbde7bb45", "lat": 39.09974616666667, "fusion_lon": 0.0, "fusion_lat": 0.0, "type": "electric_bike", "name": "1740f34f8a00791a29d928acbde7bb45", "is_disabled": 0, "rental_uris": {"ios": "https://dc.lft.to/lastmile_qr_scan", "android": "https://dc.lft.to/lastmile_qr_scan"}, "is_reserved": 0}, {"lon": -77.039119, "bike_id": "adc2e6fa11ee99b2dbada83ffa7ca718", "lat": 38.918458666666666, "fusion_lon": 0.0, "fusion_lat": 0.0, "type": "electric_scooter", "name": "adc2e6fa11ee99b2dbada83ffa7ca718", "is_disabled": 0, "rental_uris": {"ios": "https://dc.lft.to/lastmile_qr_scan", "android": "https://dc.lft.to/lastmile_qr_scan"}, "is_reserved": 0}, {"lon": -76.977369, "bike_id": "0f29d23eb3e3564612a33661f246b20c", "lat": 38.86487366666667, "fusion_lon": 0.0, "fusion_lat": 0.0, "type": "electric_bike", "name": "0f29d23eb3e3564612a33661f246b20c", "is_disabled": 0, "rental_uris": {"ios": "https://dc.lft.to/lastmile_qr_scan", "android": "https://dc.lft.to/lastmile_qr_scan"}, "is_reserved": 0}, {"lon": -77.00715766666667, "bike_id": "0c328ba6147a4683d55d7bbd2edd4c9e", "lat": 38.945986166666664, "fusion_lon": 0.0, "fusion_lat": 0.0, "type": "electric_bike", "name": "0c328ba6147a4683d55d7bbd2edd4c9e", "is_disabled": 0, "rental_uris": {"ios": "https://dc.lft.to/lastmile_qr_scan", "android": "https://dc.lft.to/lastmile_qr_scan"}, "is_reserved": 0}, {"lon": -76.9626175, "bike_id": "2cf0abb90195099e04d1fcccf5fe73d1", "lat": 38.882433166666665, "fusion_lon": 0.0, "fusion_lat": 0.0, "type": "electric_bike", "name": "2cf0abb90195099e04d1fcccf5fe73d1", "is_disabled": 0, "rental_uris": {"ios": "https://dc.lft.to/lastmile_qr_scan", "android": "https://dc.lft.to/lastmile_qr_scan"}, "is_reserved": 0}, {"lon": -76.98349, "bike_id": "d3ae4261d778863a043994da6bcbb91a", "lat": 38.892052166666666, "fusion_lon": 0.0, "fusion_lat": 0.0, "type": "electric_bike", "name": "d3ae4261d778863a043994da6bcbb91a", "is_disabled": 0, "rental_uris": {"ios": "https://dc.lft.to/lastmile_qr_scan", "android": "https://dc.lft.to/lastmile_qr_scan"}, "is_reserved": 0}, {"lon": -77.00657183333334, "bike_id": "0cbab8b70741a0dfdd5a8e52546c6e7c", "lat": 38.9446165, "fusion_lon": 0.0, "fusion_lat": 0.0, "type": "electric_scooter", "name": "0cbab8b70741a0dfdd5a8e52546c6e7c", "is_disabled": 0, "rental_uris": {"ios": "https://dc.lft.to/lastmile_qr_scan", "android": "https://dc.lft.to/lastmile_qr_scan"}, "is_reserved": 0}, {"lon": -77.0317485, "bike_id": "a7bc66424424b6db5e1cfee24eda67be", "lat": 38.93602533333333, "fusion_lon": 0.0, "fusion_lat": 0.0, "type": "electric_scooter", "name": "a7bc66424424b6db5e1cfee24eda67be", "is_disabled": 0, "rental_uris": {"ios": "https://dc.lft.to/lastmile_qr_scan", "android": "https://dc.lft.to/lastmile_qr_scan"}, "is_reserved": 0}, {"lon": -77.04561266666667, "bike_id": "dfbfc19ad0a8512273345123290c42c4", "lat": 38.91592633333333, "fusion_lon": 0.0, "fusion_lat": 0.0, "type": "electric_scooter", "name": "dfbfc19ad0a8512273345123290c42c4", "is_disabled": 0, "rental_uris": {"ios": "https://dc.lft.to/lastmile_qr_scan", "android": "https://dc.lft.to/lastmile_qr_scan"}, "is_reserved": 0}, {"lon": -77.03213466666666, "bike_id": "a8ad00b3b5d294aabfee206c2d823b4c", "lat": 38.916313, "fusion_lon": 0.0, "fusion_lat": 0.0, "type": "electric_scooter", "name": "a8ad00b3b5d294aabfee206c2d823b4c", "is_disabled": 0, "rental_uris": {"ios": "https://dc.lft.to/lastmile_qr_scan", "android": "https://dc.lft.to/lastmile_qr_scan"}, "is_reserved": 0}, {"lon": -76.99381683333333, "bike_id": "259c24922243341148f9328e1b6cbac8", "lat": 38.92397916666667, "fusion_lon": 0.0, "fusion_lat": 0.0, "type": "electric_scooter", "name": "259c24922243341148f9328e1b6cbac8", "is_disabled": 0, "rental_uris": {"ios": "https://dc.lft.to/lastmile_qr_scan", "android": "https://dc.lft.to/lastmile_qr_scan"}, "is_reserved": 0}, {"lon": -77.04345166666667, "bike_id": "a5ce18a5704902e5923e86a17bf2c5ff", "lat": 38.9105915, "fusion_lon": 0.0, "fusion_lat": 0.0, "type": "electric_scooter", "name": "a5ce18a5704902e5923e86a17bf2c5ff", "is_disabled": 0, "rental_uris": {"ios": "https://dc.lft.to/lastmile_qr_scan", "android": "https://dc.lft.to/lastmile_qr_scan"}, "is_reserved": 0}, {"lon": -77.03526766666667, "bike_id": "ab538655f3e486450c3de701d041008e", "lat": 38.915976666666666, "fusion_lon": 0.0, "fusion_lat": 0.0, "type": "electric_scooter", "name": "ab538655f3e486450c3de701d041008e", "is_disabled": 0, "rental_uris": {"ios": "https://dc.lft.to/lastmile_qr_scan", "android": "https://dc.lft.to/lastmile_qr_scan"}, "is_reserved": 0}, {"lon": -77.032634, "bike_id": "859624a82556ebfa82c936cef2fdc206", "lat": 38.93900583333333, "fusion_lon": 0.0, "fusion_lat": 0.0, "type": "electric_scooter", "name": "859624a82556ebfa82c936cef2fdc206", "is_disabled": 0, "rental_uris": {"ios": "https://dc.lft.to/lastmile_qr_scan", "android": "https://dc.lft.to/lastmile_qr_scan"}, "is_reserved": 0}, {"lon": -77.033294, "bike_id": "1d7f6d7b63c4d64097d45eb70823bb75", "lat": 38.938958, "fusion_lon": 0.0, "fusion_lat": 0.0, "type": "electric_scooter", "name": "1d7f6d7b63c4d64097d45eb70823bb75", "is_disabled": 0, "rental_uris": {"ios": "https://dc.lft.to/lastmile_qr_scan", "android": "https://dc.lft.to/lastmile_qr_scan"}, "is_reserved": 0}, {"lon": -77.0353805, "bike_id": "2bb08ba23a63566841dc881948ad474f", "lat": 38.918482166666664, "fusion_lon": 0.0, "fusion_lat": 0.0, "type": "electric_scooter", "name": "2bb08ba23a63566841dc881948ad474f", "is_disabled": 0, "rental_uris": {"ios": "https://dc.lft.to/lastmile_qr_scan", "android": "https://dc.lft.to/lastmile_qr_scan"}, "is_reserved": 0}, {"lon": -77.03291766666666, "bike_id": "6c60b02505957f0a70ce917d8412c876", "lat": 38.9096185, "fusion_lon": 0.0, "fusion_lat": 0.0, "type": "electric_scooter", "name": "6c60b02505957f0a70ce917d8412c876", "is_disabled": 0, "rental_uris": {"ios": "https://dc.lft.to/lastmile_qr_scan", "android": "https://dc.lft.to/lastmile_qr_scan"}, "is_reserved": 0}, {"lon": -77.03396333333333, "bike_id": "570c8192ea4ebf14f6ecb01ee477074c", "lat": 38.9053485, "fusion_lon": 0.0, "fusion_lat": 0.0, "type": "electric_scooter", "name": "570c8192ea4ebf14f6ecb01ee477074c", "is_disabled": 0, "rental_uris": {"ios": "https://dc.lft.to/lastmile_qr_scan", "android": "https://dc.lft.to/lastmile_qr_scan"}, "is_reserved": 0}, {"lon": -77.07004966666666, "bike_id": "02f8eb27eea1edeb14bfb061bab9daec", "lat": 38.95849916666667, "fusion_lon": 0.0, "fusion_lat": 0.0, "type": "electric_scooter", "name": "02f8eb27eea1edeb14bfb061bab9daec", "is_disabled": 0, "rental_uris": {"ios": "https://dc.lft.to/lastmile_qr_scan", "android": "https://dc.lft.to/lastmile_qr_scan"}, "is_reserved": 0}, {"lon": -76.99375216666667, "bike_id": "243f8ced4cd7e230cadea151af4d7cbe", "lat": 38.97183966666667, "fusion_lon": 0.0, "fusion_lat": 0.0, "type": "electric_bike", "name": "243f8ced4cd7e230cadea151af4d7cbe", "is_disabled": 0, "rental_uris": {"ios": "https://dc.lft.to/lastmile_qr_scan", "android": "https://dc.lft.to/lastmile_qr_scan"}, "is_reserved": 0}, {"lon": -77.03300216666666, "bike_id": "b6fcbc2444a53d6ec43e96cc94a7c87b", "lat": 38.907268333333334, "fusion_lon": 0.0, "fusion_lat": 0.0, "type": "electric_scooter", "name": "b6fcbc2444a53d6ec43e96cc94a7c87b", "is_disabled": 0, "rental_uris": {"ios": "https://dc.lft.to/lastmile_qr_scan", "android": "https://dc.lft.to/lastmile_qr_scan"}, "is_reserved": 0}, {"lon": -77.013085, "bike_id": "18834f7c6f0e12b1af359085af359a12", "lat": 38.943287833333336, "fusion_lon": 0.0, "fusion_lat": 0.0, "type": "electric_scooter", "name": "18834f7c6f0e12b1af359085af359a12", "is_disabled": 0, "rental_uris": {"ios": "https://dc.lft.to/lastmile_qr_scan", "android": "https://dc.lft.to/lastmile_qr_scan"}, "is_reserved": 0}, {"lon": -77.0331975, "bike_id": "2fb048a34ed4b94cf2e0d9e61961473c", "lat": 38.890085166666665, "fusion_lon": 0.0, "fusion_lat": 0.0, "type": "electric_scooter", "name": "2fb048a34ed4b94cf2e0d9e61961473c", "is_disabled": 0, "rental_uris": {"ios": "https://dc.lft.to/lastmile_qr_scan", "android": "https://dc.lft.to/lastmile_qr_scan"}, "is_reserved": 0}, {"lon": -77.04426733333334, "bike_id": "54d42bb6305d5f6ee124b6f2f5ad5b14", "lat": 38.9097605, "fusion_lon": 0.0, "fusion_lat": 0.0, "type": "electric_scooter", "name": "54d42bb6305d5f6ee124b6f2f5ad5b14", "is_disabled": 0, "rental_uris": {"ios": "https://dc.lft.to/lastmile_qr_scan", "android": "https://dc.lft.to/lastmile_qr_scan"}, "is_reserved": 0}, {"lon": -77.02887416666667, "bike_id": "c7d3191f4faf0dfee308a5a2030cf3d3", "lat": 38.916967, "fusion_lon": 0.0, "fusion_lat": 0.0, "type": "electric_scooter", "name": "c7d3191f4faf0dfee308a5a2030cf3d3", "is_disabled": 0, "rental_uris": {"ios": "https://dc.lft.to/lastmile_qr_scan", "android": "https://dc.lft.to/lastmile_qr_scan"}, "is_reserved": 0}, {"lon": -77.00577083333333, "bike_id": "c135fe3a6ae9aa429cff30298e80012a", "lat": 38.83590083333333, "fusion_lon": 0.0, "fusion_lat": 0.0, "type": "electric_scooter", "name": "c135fe3a6ae9aa429cff30298e80012a", "is_disabled": 0, "rental_uris": {"ios": "https://dc.lft.to/lastmile_qr_scan", "android": "https://dc.lft.to/lastmile_qr_scan"}, "is_reserved": 0}, {"lon": -77.044647, "bike_id": "7a92378367af73f17fb55f7ed4aa339b", "lat": 38.911178666666665, "fusion_lon": 0.0, "fusion_lat": 0.0, "type": "electric_bike", "name": "7a92378367af73f17fb55f7ed4aa339b", "is_disabled": 0, "rental_uris": {"ios": "https://dc.lft.to/lastmile_qr_scan", "android": "https://dc.lft.to/lastmile_qr_scan"}, "is_reserved": 0}, {"lon": -76.9609195, "bike_id": "fc8770189de0d8a3fa79429890e16f4e", "lat": 38.91867666666667, "fusion_lon": 0.0, "fusion_lat": 0.0, "type": "electric_bike", "name": "fc8770189de0d8a3fa79429890e16f4e", "is_disabled": 0, "rental_uris": {"ios": "https://dc.lft.to/lastmile_qr_scan", "android": "https://dc.lft.to/lastmile_qr_scan"}, "is_reserved": 0}, {"lon": -77.04873866666667, "bike_id": "fe4940f4fc8d8c8259243674c793b822", "lat": 38.892374333333336, "fusion_lon": 0.0, "fusion_lat": 0.0, "type": "electric_scooter", "name": "fe4940f4fc8d8c8259243674c793b822", "is_disabled": 0, "rental_uris": {"ios": "https://dc.lft.to/lastmile_qr_scan", "android": "https://dc.lft.to/lastmile_qr_scan"}, "is_reserved": 0}, {"lon": -77.07231066666667, "bike_id": "2ee82bf9b94364c2a7eb0a4845410e93", "lat": 38.968117166666666, "fusion_lon": 0.0, "fusion_lat": 0.0, "type": "electric_bike", "name": "2ee82bf9b94364c2a7eb0a4845410e93", "is_disabled": 0, "rental_uris": {"ios": "https://dc.lft.to/lastmile_qr_scan", "android": "https://dc.lft.to/lastmile_qr_scan"}, "is_reserved": 0}, {"lon": -77.03221283333333, "bike_id": "66a74333ae3388dae674e5b824fede8a", "lat": 38.92866883333333, "fusion_lon": 0.0, "fusion_lat": 0.0, "type": "electric_scooter", "name": "66a74333ae3388dae674e5b824fede8a", "is_disabled": 0, "rental_uris": {"ios": "https://dc.lft.to/lastmile_qr_scan", "android": "https://dc.lft.to/lastmile_qr_scan"}, "is_reserved": 0}, {"lon": -77.032562, "bike_id": "dfa8ef3aad860bc419b58a148ec65dcf", "lat": 38.956752333333334, "fusion_lon": 0.0, "fusion_lat": 0.0, "type": "electric_bike", "name": "dfa8ef3aad860bc419b58a148ec65dcf", "is_disabled": 0, "rental_uris": {"ios": "https://dc.lft.to/lastmile_qr_scan", "android": "https://dc.lft.to/lastmile_qr_scan"}, "is_reserved": 0}, {"lon": -77.00206483333334, "bike_id": "d51d92b8f229fcfacdda340fd0e16762", "lat": 38.90037616666667, "fusion_lon": 0.0, "fusion_lat": 0.0, "type": "electric_scooter", "name": "d51d92b8f229fcfacdda340fd0e16762", "is_disabled": 0, "rental_uris": {"ios": "https://dc.lft.to/lastmile_qr_scan", "android": "https://dc.lft.to/lastmile_qr_scan"}, "is_reserved": 0}, {"lon": -77.10807433333333, "bike_id": "0732297889043791f17c15f794d55bca", "lat": 38.81204483333333, "fusion_lon": 0.0, "fusion_lat": 0.0, "type": "electric_bike", "name": "0732297889043791f17c15f794d55bca", "is_disabled": 0, "rental_uris": {"ios": "https://dc.lft.to/lastmile_qr_scan", "android": "https://dc.lft.to/lastmile_qr_scan"}, "is_reserved": 0}, {"lon": -77.031791, "bike_id": "6f29206a91b48255aa1c744975724bb9", "lat": 38.902839666666665, "fusion_lon": 0.0, "fusion_lat": 0.0, "type": "electric_scooter", "name": "6f29206a91b48255aa1c744975724bb9", "is_disabled": 0, "rental_uris": {"ios": "https://dc.lft.to/lastmile_qr_scan", "android": "https://dc.lft.to/lastmile_qr_scan"}, "is_reserved": 0}, {"lon": -77.0317725, "bike_id": "daba03a4e3491fd4ffbcdfdafb61f776", "lat": 38.921007, "fusion_lon": 0.0, "fusion_lat": 0.0, "type": "electric_scooter", "name": "daba03a4e3491fd4ffbcdfdafb61f776", "is_disabled": 0, "rental_uris": {"ios": "https://dc.lft.to/lastmile_qr_scan", "android": "https://dc.lft.to/lastmile_qr_scan"}, "is_reserved": 0}, {"lon": -77.04284633333333, "bike_id": "a1eb0a76dabb775f1ce8becbd64df9b4", "lat": 38.91020116666667, "fusion_lon": 0.0, "fusion_lat": 0.0, "type": "electric_scooter", "name": "a1eb0a76dabb775f1ce8becbd64df9b4", "is_disabled": 0, "rental_uris": {"ios": "https://dc.lft.to/lastmile_qr_scan", "android": "https://dc.lft.to/lastmile_qr_scan"}, "is_reserved": 0}, {"lon": -77.01521983333333, "bike_id": "e449a8a63dc5c33289bdb23fdd11f4cb", "lat": 38.884983, "fusion_lon": 0.0, "fusion_lat": 0.0, "type": "electric_scooter", "name": "e449a8a63dc5c33289bdb23fdd11f4cb", "is_disabled": 0, "rental_uris": {"ios": "https://dc.lft.to/lastmile_qr_scan", "android": "https://dc.lft.to/lastmile_qr_scan"}, "is_reserved": 0}, {"lon": -76.99938133333333, "bike_id": "64978fb7c667e90dbf30cea478e522b1", "lat": 38.919327, "fusion_lon": 0.0, "fusion_lat": 0.0, "type": "electric_scooter", "name": "64978fb7c667e90dbf30cea478e522b1", "is_disabled": 0, "rental_uris": {"ios": "https://dc.lft.to/lastmile_qr_scan", "android": "https://dc.lft.to/lastmile_qr_scan"}, "is_reserved": 0}, {"lon": -77.02181033333333, "bike_id": "e7e69bec8b8f6d340339d898dc0eba07", "lat": 38.8935615, "fusion_lon": 0.0, "fusion_lat": 0.0, "type": "electric_scooter", "name": "e7e69bec8b8f6d340339d898dc0eba07", "is_disabled": 0, "rental_uris": {"ios": "https://dc.lft.to/lastmile_qr_scan", "android": "https://dc.lft.to/lastmile_qr_scan"}, "is_reserved": 0}, {"lon": -77.033743, "bike_id": "47bd72585bec720bcd22f3d7c4246062", "lat": 38.90015283333334, "fusion_lon": 0.0, "fusion_lat": 0.0, "type": "electric_scooter", "name": "47bd72585bec720bcd22f3d7c4246062", "is_disabled": 0, "rental_uris": {"ios": "https://dc.lft.to/lastmile_qr_scan", "android": "https://dc.lft.to/lastmile_qr_scan"}, "is_reserved": 0}, {"lon": -76.93737766666666, "bike_id": "c6c2056f16921aff89295c02e6246e78", "lat": 38.890241833333334, "fusion_lon": 0.0, "fusion_lat": 0.0, "type": "electric_scooter", "name": "c6c2056f16921aff89295c02e6246e78", "is_disabled": 0, "rental_uris": {"ios": "https://dc.lft.to/lastmile_qr_scan", "android": "https://dc.lft.to/lastmile_qr_scan"}, "is_reserved": 0}, {"lon": -77.04161166666667, "bike_id": "722c7ae1183979aa3df5e37821ce02e3", "lat": 38.9124765, "fusion_lon": 0.0, "fusion_lat": 0.0, "type": "electric_scooter", "name": "722c7ae1183979aa3df5e37821ce02e3", "is_disabled": 0, "rental_uris": {"ios": "https://dc.lft.to/lastmile_qr_scan", "android": "https://dc.lft.to/lastmile_qr_scan"}, "is_reserved": 0}, {"lon": -77.0248535, "bike_id": "776eed87548990ff86ae112f1b5c180c", "lat": 38.91931783333333, "fusion_lon": 0.0, "fusion_lat": 0.0, "type": "electric_scooter", "name": "776eed87548990ff86ae112f1b5c180c", "is_disabled": 0, "rental_uris": {"ios": "https://dc.lft.to/lastmile_qr_scan", "android": "https://dc.lft.to/lastmile_qr_scan"}, "is_reserved": 0}, {"lon": -77.04376216666667, "bike_id": "0abd70e2d38f14c0638d5b9c06e216ce", "lat": 38.920688, "fusion_lon": 0.0, "fusion_lat": 0.0, "type": "electric_scooter", "name": "0abd70e2d38f14c0638d5b9c06e216ce", "is_disabled": 0, "rental_uris": {"ios": "https://dc.lft.to/lastmile_qr_scan", "android": "https://dc.lft.to/lastmile_qr_scan"}, "is_reserved": 0}, {"lon": -77.06275816666667, "bike_id": "af9d1a27a9ee651822af52dd89854251", "lat": 38.905370833333336, "fusion_lon": 0.0, "fusion_lat": 0.0, "type": "electric_scooter", "name": "af9d1a27a9ee651822af52dd89854251", "is_disabled": 0, "rental_uris": {"ios": "https://dc.lft.to/lastmile_qr_scan", "android": "https://dc.lft.to/lastmile_qr_scan"}, "is_reserved": 0}, {"lon": -77.02346266666666, "bike_id": "0bedd657ce2982bb4d91d6ab5bfd0e23", "lat": 38.902934333333334, "fusion_lon": 0.0, "fusion_lat": 0.0, "type": "electric_scooter", "name": "0bedd657ce2982bb4d91d6ab5bfd0e23", "is_disabled": 0, "rental_uris": {"ios": "https://dc.lft.to/lastmile_qr_scan", "android": "https://dc.lft.to/lastmile_qr_scan"}, "is_reserved": 0}, {"lon": -77.02169416666666, "bike_id": "3cb973857ac383b04669c276eca1a495", "lat": 38.908461, "fusion_lon": 0.0, "fusion_lat": 0.0, "type": "electric_scooter", "name": "3cb973857ac383b04669c276eca1a495", "is_disabled": 0, "rental_uris": {"ios": "https://dc.lft.to/lastmile_qr_scan", "android": "https://dc.lft.to/lastmile_qr_scan"}, "is_reserved": 0}, {"lon": -77.05807083333333, "bike_id": "33230e165d0458bbee2a5ea4e8b9897e", "lat": 38.935106166666664, "fusion_lon": 0.0, "fusion_lat": 0.0, "type": "electric_scooter", "name": "33230e165d0458bbee2a5ea4e8b9897e", "is_disabled": 0, "rental_uris": {"ios": "https://dc.lft.to/lastmile_qr_scan", "android": "https://dc.lft.to/lastmile_qr_scan"}, "is_reserved": 0}, {"lon": -77.07760366666666, "bike_id": "6ebc8c0d7904a02e948668082e81e0ef", "lat": 38.92553616666667, "fusion_lon": 0.0, "fusion_lat": 0.0, "type": "electric_scooter", "name": "6ebc8c0d7904a02e948668082e81e0ef", "is_disabled": 0, "rental_uris": {"ios": "https://dc.lft.to/lastmile_qr_scan", "android": "https://dc.lft.to/lastmile_qr_scan"}, "is_reserved": 0}, {"lon": -77.04426033333333, "bike_id": "5d72f61229fa0eaf90691ad783d15d4b", "lat": 38.92122666666667, "fusion_lon": 0.0, "fusion_lat": 0.0, "type": "electric_scooter", "name": "5d72f61229fa0eaf90691ad783d15d4b", "is_disabled": 0, "rental_uris": {"ios": "https://dc.lft.to/lastmile_qr_scan", "android": "https://dc.lft.to/lastmile_qr_scan"}, "is_reserved": 0}, {"lon": -77.02589333333333, "bike_id": "bee1efb084fbfb4b5212d9789d9fbdac", "lat": 38.94304016666667, "fusion_lon": 0.0, "fusion_lat": 0.0, "type": "electric_scooter", "name": "bee1efb084fbfb4b5212d9789d9fbdac", "is_disabled": 0, "rental_uris": {"ios": "https://dc.lft.to/lastmile_qr_scan", "android": "https://dc.lft.to/lastmile_qr_scan"}, "is_reserved": 0}, {"lon": -77.01653033333334, "bike_id": "e4c1bbac47674bb17f2211636f8014d6", "lat": 38.928942, "fusion_lon": 0.0, "fusion_lat": 0.0, "type": "electric_scooter", "name": "e4c1bbac47674bb17f2211636f8014d6", "is_disabled": 0, "rental_uris": {"ios": "https://dc.lft.to/lastmile_qr_scan", "android": "https://dc.lft.to/lastmile_qr_scan"}, "is_reserved": 0}, {"lon": -77.02172016666667, "bike_id": "ebb6117f5dd2131f55799592948247ab", "lat": 38.89894616666667, "fusion_lon": 0.0, "fusion_lat": 0.0, "type": "electric_scooter", "name": "ebb6117f5dd2131f55799592948247ab", "is_disabled": 0, "rental_uris": {"ios": "https://dc.lft.to/lastmile_qr_scan", "android": "https://dc.lft.to/lastmile_qr_scan"}, "is_reserved": 0}, {"lon": -77.00847833333333, "bike_id": "e87b1c2cc4d19d9c9b23e5852cd0c914", "lat": 38.916257333333334, "fusion_lon": 0.0, "fusion_lat": 0.0, "type": "electric_scooter", "name": "e87b1c2cc4d19d9c9b23e5852cd0c914", "is_disabled": 0, "rental_uris": {"ios": "https://dc.lft.to/lastmile_qr_scan", "android": "https://dc.lft.to/lastmile_qr_scan"}, "is_reserved": 0}, {"lon": -77.03826683333334, "bike_id": "ec3d28b8bd838ee61491a2c997d4719b", "lat": 38.90674833333333, "fusion_lon": 0.0, "fusion_lat": 0.0, "type": "electric_scooter", "name": "ec3d28b8bd838ee61491a2c997d4719b", "is_disabled": 0, "rental_uris": {"ios": "https://dc.lft.to/lastmile_qr_scan", "android": "https://dc.lft.to/lastmile_qr_scan"}, "is_reserved": 0}, {"lon": -77.04244116666666, "bike_id": "524e2f6c72bb7b668a108f3074c08de2", "lat": 38.90032083333333, "fusion_lon": 0.0, "fusion_lat": 0.0, "type": "electric_scooter", "name": "524e2f6c72bb7b668a108f3074c08de2", "is_disabled": 0, "rental_uris": {"ios": "https://dc.lft.to/lastmile_qr_scan", "android": "https://dc.lft.to/lastmile_qr_scan"}, "is_reserved": 0}, {"lon": -77.0365465, "bike_id": "69988f384b7ccbebdb369b37f45c68fe", "lat": 38.93610666666667, "fusion_lon": 0.0, "fusion_lat": 0.0, "type": "electric_scooter", "name": "69988f384b7ccbebdb369b37f45c68fe", "is_disabled": 0, "rental_uris": {"ios": "https://dc.lft.to/lastmile_qr_scan", "android": "https://dc.lft.to/lastmile_qr_scan"}, "is_reserved": 0}, {"lon": -77.034441, "bike_id": "b69c85f8eeb9d201d008c9c538c00340", "lat": 38.9149545, "fusion_lon": 0.0, "fusion_lat": 0.0, "type": "electric_scooter", "name": "b69c85f8eeb9d201d008c9c538c00340", "is_disabled": 0, "rental_uris": {"ios": "https://dc.lft.to/lastmile_qr_scan", "android": "https://dc.lft.to/lastmile_qr_scan"}, "is_reserved": 0}, {"lon": -77.04322283333333, "bike_id": "641abd27d7322b3f1b4c1e4a738fafa9", "lat": 38.90729016666667, "fusion_lon": 0.0, "fusion_lat": 0.0, "type": "electric_scooter", "name": "641abd27d7322b3f1b4c1e4a738fafa9", "is_disabled": 0, "rental_uris": {"ios": "https://dc.lft.to/lastmile_qr_scan", "android": "https://dc.lft.to/lastmile_qr_scan"}, "is_reserved": 0}, {"lon": -76.98892916666667, "bike_id": "56dd9e2197e503e2e6240edd44fe05c6", "lat": 38.913413166666665, "fusion_lon": 0.0, "fusion_lat": 0.0, "type": "electric_scooter", "name": "56dd9e2197e503e2e6240edd44fe05c6", "is_disabled": 0, "rental_uris": {"ios": "https://dc.lft.to/lastmile_qr_scan", "android": "https://dc.lft.to/lastmile_qr_scan"}, "is_reserved": 0}, {"lon": -77.034412, "bike_id": "1ba8665a4ace69e7b42c3e3b4a5d736f", "lat": 38.909763166666664, "fusion_lon": 0.0, "fusion_lat": 0.0, "type": "electric_scooter", "name": "1ba8665a4ace69e7b42c3e3b4a5d736f", "is_disabled": 0, "rental_uris": {"ios": "https://dc.lft.to/lastmile_qr_scan", "android": "https://dc.lft.to/lastmile_qr_scan"}, "is_reserved": 0}, {"lon": -77.03210566666667, "bike_id": "9a72052ef79314a9d2472c0bc7ff3713", "lat": 38.907861833333335, "fusion_lon": 0.0, "fusion_lat": 0.0, "type": "electric_scooter", "name": "9a72052ef79314a9d2472c0bc7ff3713", "is_disabled": 0, "rental_uris": {"ios": "https://dc.lft.to/lastmile_qr_scan", "android": "https://dc.lft.to/lastmile_qr_scan"}, "is_reserved": 0}, {"lon": -76.93280216666666, "bike_id": "bc25834a027ffe4249bc31ae6fff3318", "lat": 38.9542045, "fusion_lon": 0.0, "fusion_lat": 0.0, "type": "electric_bike", "name": "bc25834a027ffe4249bc31ae6fff3318", "is_disabled": 0, "rental_uris": {"ios": "https://dc.lft.to/lastmile_qr_scan", "android": "https://dc.lft.to/lastmile_qr_scan"}, "is_reserved": 0}, {"lon": -77.00538533333334, "bike_id": "c5354d78866c7183252a67ef5d0f5122", "lat": 38.87544166666667, "fusion_lon": 0.0, "fusion_lat": 0.0, "type": "electric_scooter", "name": "c5354d78866c7183252a67ef5d0f5122", "is_disabled": 0, "rental_uris": {"ios": "https://dc.lft.to/lastmile_qr_scan", "android": "https://dc.lft.to/lastmile_qr_scan"}, "is_reserved": 0}, {"lon": -77.03212433333333, "bike_id": "844ba09d396c2f30da490f90fa503952", "lat": 38.93616866666667, "fusion_lon": 0.0, "fusion_lat": 0.0, "type": "electric_scooter", "name": "844ba09d396c2f30da490f90fa503952", "is_disabled": 0, "rental_uris": {"ios": "https://dc.lft.to/lastmile_qr_scan", "android": "https://dc.lft.to/lastmile_qr_scan"}, "is_reserved": 0}, {"lon": -77.02090183333334, "bike_id": "c23173ef3b95fa255689748d34fb165f", "lat": 38.9290965, "fusion_lon": 0.0, "fusion_lat": 0.0, "type": "electric_scooter", "name": "c23173ef3b95fa255689748d34fb165f", "is_disabled": 0, "rental_uris": {"ios": "https://dc.lft.to/lastmile_qr_scan", "android": "https://dc.lft.to/lastmile_qr_scan"}, "is_reserved": 0}, {"lon": -77.03182816666667, "bike_id": "dea340c3d7d38911931eb027ef94fd45", "lat": 38.915664, "fusion_lon": 0.0, "fusion_lat": 0.0, "type": "electric_scooter", "name": "dea340c3d7d38911931eb027ef94fd45", "is_disabled": 0, "rental_uris": {"ios": "https://dc.lft.to/lastmile_qr_scan", "android": "https://dc.lft.to/lastmile_qr_scan"}, "is_reserved": 0}, {"lon": -77.02387566666667, "bike_id": "7d836aae29a82c53f310afb2d2d86bfe", "lat": 38.91852166666666, "fusion_lon": 0.0, "fusion_lat": 0.0, "type": "electric_scooter", "name": "7d836aae29a82c53f310afb2d2d86bfe", "is_disabled": 0, "rental_uris": {"ios": "https://dc.lft.to/lastmile_qr_scan", "android": "https://dc.lft.to/lastmile_qr_scan"}, "is_reserved": 0}, {"lon": -77.05597266666666, "bike_id": "8544d1a83fd783841c056b7189863480", "lat": 38.93698283333333, "fusion_lon": 0.0, "fusion_lat": 0.0, "type": "electric_scooter", "name": "8544d1a83fd783841c056b7189863480", "is_disabled": 0, "rental_uris": {"ios": "https://dc.lft.to/lastmile_qr_scan", "android": "https://dc.lft.to/lastmile_qr_scan"}, "is_reserved": 0}, {"lon": -77.06121533333334, "bike_id": "8685e58972aa714a4ae0495537f9c97f", "lat": 38.90529883333333, "fusion_lon": 0.0, "fusion_lat": 0.0, "type": "electric_scooter", "name": "8685e58972aa714a4ae0495537f9c97f", "is_disabled": 0, "rental_uris": {"ios": "https://dc.lft.to/lastmile_qr_scan", "android": "https://dc.lft.to/lastmile_qr_scan"}, "is_reserved": 0}, {"lon": -77.03627583333333, "bike_id": "320cd98f7d556d4b8ff1f4e1d3ab8ec2", "lat": 38.9155355, "fusion_lon": 0.0, "fusion_lat": 0.0, "type": "electric_scooter", "name": "320cd98f7d556d4b8ff1f4e1d3ab8ec2", "is_disabled": 0, "rental_uris": {"ios": "https://dc.lft.to/lastmile_qr_scan", "android": "https://dc.lft.to/lastmile_qr_scan"}, "is_reserved": 0}, {"lon": -77.03506383333334, "bike_id": "e717aeadd9b128bc12819d316ccf06de", "lat": 38.911854, "fusion_lon": 0.0, "fusion_lat": 0.0, "type": "electric_scooter", "name": "e717aeadd9b128bc12819d316ccf06de", "is_disabled": 0, "rental_uris": {"ios": "https://dc.lft.to/lastmile_qr_scan", "android": "https://dc.lft.to/lastmile_qr_scan"}, "is_reserved": 0}, {"lon": -77.00126033333333, "bike_id": "ab212b0c350f01c45d41f30636030e82", "lat": 38.8781755, "fusion_lon": 0.0, "fusion_lat": 0.0, "type": "electric_scooter", "name": "ab212b0c350f01c45d41f30636030e82", "is_disabled": 0, "rental_uris": {"ios": "https://dc.lft.to/lastmile_qr_scan", "android": "https://dc.lft.to/lastmile_qr_scan"}, "is_reserved": 0}, {"lon": -77.02386133333333, "bike_id": "03cdd7ab66b11cbd197ff415ebb9c593", "lat": 38.906430666666665, "fusion_lon": 0.0, "fusion_lat": 0.0, "type": "electric_scooter", "name": "03cdd7ab66b11cbd197ff415ebb9c593", "is_disabled": 0, "rental_uris": {"ios": "https://dc.lft.to/lastmile_qr_scan", "android": "https://dc.lft.to/lastmile_qr_scan"}, "is_reserved": 0}, {"lon": -77.0295615, "bike_id": "73bdfa2f7bf83e5bb0298dc2a25ee0d4", "lat": 38.8964205, "fusion_lon": 0.0, "fusion_lat": 0.0, "type": "electric_scooter", "name": "73bdfa2f7bf83e5bb0298dc2a25ee0d4", "is_disabled": 0, "rental_uris": {"ios": "https://dc.lft.to/lastmile_qr_scan", "android": "https://dc.lft.to/lastmile_qr_scan"}, "is_reserved": 0}, {"lon": -77.0358525, "bike_id": "b3f584fc6dcfe8bae0e1a91937acee8d", "lat": 38.992259, "fusion_lon": 0.0, "fusion_lat": 0.0, "type": "electric_scooter", "name": "b3f584fc6dcfe8bae0e1a91937acee8d", "is_disabled": 0, "rental_uris": {"ios": "https://dc.lft.to/lastmile_qr_scan", "android": "https://dc.lft.to/lastmile_qr_scan"}, "is_reserved": 0}, {"lon": -77.0352135, "bike_id": "fb834442e0a969f0f41c2eef4fe67041", "lat": 38.92731583333333, "fusion_lon": 0.0, "fusion_lat": 0.0, "type": "electric_scooter", "name": "fb834442e0a969f0f41c2eef4fe67041", "is_disabled": 0, "rental_uris": {"ios": "https://dc.lft.to/lastmile_qr_scan", "android": "https://dc.lft.to/lastmile_qr_scan"}, "is_reserved": 0}, {"lon": -77.0251365, "bike_id": "5488b8590c51519150f48d87d8c477dc", "lat": 38.9041925, "fusion_lon": 0.0, "fusion_lat": 0.0, "type": "electric_scooter", "name": "5488b8590c51519150f48d87d8c477dc", "is_disabled": 0, "rental_uris": {"ios": "https://dc.lft.to/lastmile_qr_scan", "android": "https://dc.lft.to/lastmile_qr_scan"}, "is_reserved": 0}, {"lon": -77.00930883333334, "bike_id": "0dd1cf1062b5250e36a3183c21a13442", "lat": 38.899724166666665, "fusion_lon": 0.0, "fusion_lat": 0.0, "type": "electric_scooter", "name": "0dd1cf1062b5250e36a3183c21a13442", "is_disabled": 0, "rental_uris": {"ios": "https://dc.lft.to/lastmile_qr_scan", "android": "https://dc.lft.to/lastmile_qr_scan"}, "is_reserved": 0}, {"lon": -77.03322983333334, "bike_id": "afcabc6701312951db3ba5732409f959", "lat": 38.92158883333333, "fusion_lon": 0.0, "fusion_lat": 0.0, "type": "electric_scooter", "name": "afcabc6701312951db3ba5732409f959", "is_disabled": 0, "rental_uris": {"ios": "https://dc.lft.to/lastmile_qr_scan", "android": "https://dc.lft.to/lastmile_qr_scan"}, "is_reserved": 0}, {"lon": -77.041715, "bike_id": "8a61dc200c99aefdbfc6de768d7e2b21", "lat": 38.913955, "fusion_lon": 0.0, "fusion_lat": 0.0, "type": "electric_scooter", "name": "8a61dc200c99aefdbfc6de768d7e2b21", "is_disabled": 0, "rental_uris": {"ios": "https://dc.lft.to/lastmile_qr_scan", "android": "https://dc.lft.to/lastmile_qr_scan"}, "is_reserved": 0}, {"lon": -77.08335183333334, "bike_id": "3e050a33d13c0b074d08ea2cbc135a12", "lat": 38.854415833333334, "fusion_lon": 0.0, "fusion_lat": 0.0, "type": "electric_bike", "name": "3e050a33d13c0b074d08ea2cbc135a12", "is_disabled": 0, "rental_uris": {"ios": "https://dc.lft.to/lastmile_qr_scan", "android": "https://dc.lft.to/lastmile_qr_scan"}, "is_reserved": 0}, {"lon": -77.01088983333334, "bike_id": "622727e1d6ff244d4c09acacd7fb018e", "lat": 38.9163025, "fusion_lon": 0.0, "fusion_lat": 0.0, "type": "electric_scooter", "name": "622727e1d6ff244d4c09acacd7fb018e", "is_disabled": 0, "rental_uris": {"ios": "https://dc.lft.to/lastmile_qr_scan", "android": "https://dc.lft.to/lastmile_qr_scan"}, "is_reserved": 0}, {"lon": -77.03865466666667, "bike_id": "f74da12e1715664e40b057447666176e", "lat": 38.912730333333336, "fusion_lon": 0.0, "fusion_lat": 0.0, "type": "electric_scooter", "name": "f74da12e1715664e40b057447666176e", "is_disabled": 0, "rental_uris": {"ios": "https://dc.lft.to/lastmile_qr_scan", "android": "https://dc.lft.to/lastmile_qr_scan"}, "is_reserved": 0}, {"lon": -76.978303, "bike_id": "6fd1d1d431b0cf650f7b67a7f6d5cb2b", "lat": 38.8437285, "fusion_lon": 0.0, "fusion_lat": 0.0, "type": "electric_bike", "name": "6fd1d1d431b0cf650f7b67a7f6d5cb2b", "is_disabled": 0, "rental_uris": {"ios": "https://dc.lft.to/lastmile_qr_scan", "android": "https://dc.lft.to/lastmile_qr_scan"}, "is_reserved": 0}, {"lon": -77.0172055, "bike_id": "98cf7249243299ebd5f80679e26df02a", "lat": 38.90563983333333, "fusion_lon": 0.0, "fusion_lat": 0.0, "type": "electric_scooter", "name": "98cf7249243299ebd5f80679e26df02a", "is_disabled": 0, "rental_uris": {"ios": "https://dc.lft.to/lastmile_qr_scan", "android": "https://dc.lft.to/lastmile_qr_scan"}, "is_reserved": 0}, {"lon": -76.985648, "bike_id": "a1c97b4aab12ace34d99e9071e2e2ccd", "lat": 38.899581166666664, "fusion_lon": 0.0, "fusion_lat": 0.0, "type": "electric_scooter", "name": "a1c97b4aab12ace34d99e9071e2e2ccd", "is_disabled": 0, "rental_uris": {"ios": "https://dc.lft.to/lastmile_qr_scan", "android": "https://dc.lft.to/lastmile_qr_scan"}, "is_reserved": 0}, {"lon": -76.98187583333333, "bike_id": "63d451578334a82e6a2ac546ae720a1c", "lat": 38.92605283333333, "fusion_lon": 0.0, "fusion_lat": 0.0, "type": "electric_scooter", "name": "63d451578334a82e6a2ac546ae720a1c", "is_disabled": 0, "rental_uris": {"ios": "https://dc.lft.to/lastmile_qr_scan", "android": "https://dc.lft.to/lastmile_qr_scan"}, "is_reserved": 0}, {"lon": -77.12658966666666, "bike_id": "7a43971884940c734919edeaa8df2b57", "lat": 38.81516833333333, "fusion_lon": 0.0, "fusion_lat": 0.0, "type": "electric_bike", "name": "7a43971884940c734919edeaa8df2b57", "is_disabled": 0, "rental_uris": {"ios": "https://dc.lft.to/lastmile_qr_scan", "android": "https://dc.lft.to/lastmile_qr_scan"}, "is_reserved": 0}, {"lon": -77.07165566666667, "bike_id": "23b75d5f1833dc5cf4ea7e45b660bc98", "lat": 38.90775716666667, "fusion_lon": 0.0, "fusion_lat": 0.0, "type": "electric_scooter", "name": "23b75d5f1833dc5cf4ea7e45b660bc98", "is_disabled": 0, "rental_uris": {"ios": "https://dc.lft.to/lastmile_qr_scan", "android": "https://dc.lft.to/lastmile_qr_scan"}, "is_reserved": 0}, {"lon": -76.991093, "bike_id": "99393aa0277361ff412bee8316b9c5a0", "lat": 38.903196333333334, "fusion_lon": 0.0, "fusion_lat": 0.0, "type": "electric_scooter", "name": "99393aa0277361ff412bee8316b9c5a0", "is_disabled": 0, "rental_uris": {"ios": "https://dc.lft.to/lastmile_qr_scan", "android": "https://dc.lft.to/lastmile_qr_scan"}, "is_reserved": 0}, {"lon": -77.046314, "bike_id": "a528ee64f9e69e8e3cbb16bd4d08764c", "lat": 38.919118166666664, "fusion_lon": 0.0, "fusion_lat": 0.0, "type": "electric_scooter", "name": "a528ee64f9e69e8e3cbb16bd4d08764c", "is_disabled": 0, "rental_uris": {"ios": "https://dc.lft.to/lastmile_qr_scan", "android": "https://dc.lft.to/lastmile_qr_scan"}, "is_reserved": 0}, {"lon": -77.02680483333333, "bike_id": "657b178a35c688052a85350397e066a4", "lat": 38.94326, "fusion_lon": 0.0, "fusion_lat": 0.0, "type": "electric_scooter", "name": "657b178a35c688052a85350397e066a4", "is_disabled": 0, "rental_uris": {"ios": "https://dc.lft.to/lastmile_qr_scan", "android": "https://dc.lft.to/lastmile_qr_scan"}, "is_reserved": 0}, {"lon": -77.0383665, "bike_id": "cbffaa889b3f7b8ea8f56c9c1f5356c5", "lat": 38.91040983333333, "fusion_lon": 0.0, "fusion_lat": 0.0, "type": "electric_scooter", "name": "cbffaa889b3f7b8ea8f56c9c1f5356c5", "is_disabled": 0, "rental_uris": {"ios": "https://dc.lft.to/lastmile_qr_scan", "android": "https://dc.lft.to/lastmile_qr_scan"}, "is_reserved": 0}, {"lon": -76.933784, "bike_id": "5fbb5c62498be52ade43bf3a16d4b94f", "lat": 38.91029866666667, "fusion_lon": 0.0, "fusion_lat": 0.0, "type": "electric_scooter", "name": "5fbb5c62498be52ade43bf3a16d4b94f", "is_disabled": 0, "rental_uris": {"ios": "https://dc.lft.to/lastmile_qr_scan", "android": "https://dc.lft.to/lastmile_qr_scan"}, "is_reserved": 0}, {"lon": -76.93352783333333, "bike_id": "55b8c1f7d9984d2aac2e5d726baf07ad", "lat": 38.8990805, "fusion_lon": 0.0, "fusion_lat": 0.0, "type": "electric_scooter", "name": "55b8c1f7d9984d2aac2e5d726baf07ad", "is_disabled": 0, "rental_uris": {"ios": "https://dc.lft.to/lastmile_qr_scan", "android": "https://dc.lft.to/lastmile_qr_scan"}, "is_reserved": 0}, {"lon": -77.04446033333333, "bike_id": "c97f1ba8e80ffa8c89c1d25a79f0329b", "lat": 38.91887416666667, "fusion_lon": 0.0, "fusion_lat": 0.0, "type": "electric_scooter", "name": "c97f1ba8e80ffa8c89c1d25a79f0329b", "is_disabled": 0, "rental_uris": {"ios": "https://dc.lft.to/lastmile_qr_scan", "android": "https://dc.lft.to/lastmile_qr_scan"}, "is_reserved": 0}, {"lon": -77.03205966666667, "bike_id": "b427e51411a948c75f5311910ea27f23", "lat": 38.912051, "fusion_lon": 0.0, "fusion_lat": 0.0, "type": "electric_scooter", "name": "b427e51411a948c75f5311910ea27f23", "is_disabled": 0, "rental_uris": {"ios": "https://dc.lft.to/lastmile_qr_scan", "android": "https://dc.lft.to/lastmile_qr_scan"}, "is_reserved": 0}, {"lon": -77.03261033333334, "bike_id": "ab0f1e0db61323a8efa2e51fa7a10363", "lat": 38.937752, "fusion_lon": 0.0, "fusion_lat": 0.0, "type": "electric_scooter", "name": "ab0f1e0db61323a8efa2e51fa7a10363", "is_disabled": 0, "rental_uris": {"ios": "https://dc.lft.to/lastmile_qr_scan", "android": "https://dc.lft.to/lastmile_qr_scan"}, "is_reserved": 0}, {"lon": -77.03148933333334, "bike_id": "331cd9840d3b6c59e908fbf2c4d20fd2", "lat": 38.93244166666667, "fusion_lon": 0.0, "fusion_lat": 0.0, "type": "electric_scooter", "name": "331cd9840d3b6c59e908fbf2c4d20fd2", "is_disabled": 0, "rental_uris": {"ios": "https://dc.lft.to/lastmile_qr_scan", "android": "https://dc.lft.to/lastmile_qr_scan"}, "is_reserved": 0}, {"lon": -77.04425183333333, "bike_id": "59236915a1d579ede6690ce291213445", "lat": 38.911248, "fusion_lon": 0.0, "fusion_lat": 0.0, "type": "electric_scooter", "name": "59236915a1d579ede6690ce291213445", "is_disabled": 0, "rental_uris": {"ios": "https://dc.lft.to/lastmile_qr_scan", "android": "https://dc.lft.to/lastmile_qr_scan"}, "is_reserved": 0}, {"lon": -76.99294116666667, "bike_id": "f835d67253923f527c1505e9cc43f5d5", "lat": 38.89887133333333, "fusion_lon": 0.0, "fusion_lat": 0.0, "type": "electric_scooter", "name": "f835d67253923f527c1505e9cc43f5d5", "is_disabled": 0, "rental_uris": {"ios": "https://dc.lft.to/lastmile_qr_scan", "android": "https://dc.lft.to/lastmile_qr_scan"}, "is_reserved": 0}, {"lon": -77.0275455, "bike_id": "5c658ce40a3727415091d8f04c896277", "lat": 38.916936666666665, "fusion_lon": 0.0, "fusion_lat": 0.0, "type": "electric_scooter", "name": "5c658ce40a3727415091d8f04c896277", "is_disabled": 0, "rental_uris": {"ios": "https://dc.lft.to/lastmile_qr_scan", "android": "https://dc.lft.to/lastmile_qr_scan"}, "is_reserved": 0}, {"lon": -77.0533475, "bike_id": "8b0d03d8416bc1d7d7b3f483d3f7f6bd", "lat": 38.90418283333333, "fusion_lon": 0.0, "fusion_lat": 0.0, "type": "electric_scooter", "name": "8b0d03d8416bc1d7d7b3f483d3f7f6bd", "is_disabled": 0, "rental_uris": {"ios": "https://dc.lft.to/lastmile_qr_scan", "android": "https://dc.lft.to/lastmile_qr_scan"}, "is_reserved": 0}, {"lon": -77.04227916666666, "bike_id": "566e373a50952df966396df6042cd9c5", "lat": 38.913486166666665, "fusion_lon": 0.0, "fusion_lat": 0.0, "type": "electric_scooter", "name": "566e373a50952df966396df6042cd9c5", "is_disabled": 0, "rental_uris": {"ios": "https://dc.lft.to/lastmile_qr_scan", "android": "https://dc.lft.to/lastmile_qr_scan"}, "is_reserved": 0}, {"lon": -77.0038455, "bike_id": "28c9f0ce5f1aa04329bbf57fc59fcf1e", "lat": 38.836033, "fusion_lon": 0.0, "fusion_lat": 0.0, "type": "electric_bike", "name": "28c9f0ce5f1aa04329bbf57fc59fcf1e", "is_disabled": 0, "rental_uris": {"ios": "https://dc.lft.to/lastmile_qr_scan", "android": "https://dc.lft.to/lastmile_qr_scan"}, "is_reserved": 0}, {"lon": -77.021682, "bike_id": "84afe6d76d3c5d73e7f1a27f42e7aa8e", "lat": 38.929966666666665, "fusion_lon": 0.0, "fusion_lat": 0.0, "type": "electric_scooter", "name": "84afe6d76d3c5d73e7f1a27f42e7aa8e", "is_disabled": 0, "rental_uris": {"ios": "https://dc.lft.to/lastmile_qr_scan", "android": "https://dc.lft.to/lastmile_qr_scan"}, "is_reserved": 0}, {"lon": -77.02609866666667, "bike_id": "19953c9f6bd6504383f883b6d724dcc7", "lat": 38.93489916666667, "fusion_lon": 0.0, "fusion_lat": 0.0, "type": "electric_scooter", "name": "19953c9f6bd6504383f883b6d724dcc7", "is_disabled": 0, "rental_uris": {"ios": "https://dc.lft.to/lastmile_qr_scan", "android": "https://dc.lft.to/lastmile_qr_scan"}, "is_reserved": 0}, {"lon": -77.03448733333333, "bike_id": "3abfbb42ee3f8afd0f3a7610167864c3", "lat": 38.90520083333333, "fusion_lon": 0.0, "fusion_lat": 0.0, "type": "electric_scooter", "name": "3abfbb42ee3f8afd0f3a7610167864c3", "is_disabled": 0, "rental_uris": {"ios": "https://dc.lft.to/lastmile_qr_scan", "android": "https://dc.lft.to/lastmile_qr_scan"}, "is_reserved": 0}, {"lon": -77.032686, "bike_id": "3779c100edd9099700b11cd97032d06b", "lat": 38.932088, "fusion_lon": 0.0, "fusion_lat": 0.0, "type": "electric_scooter", "name": "3779c100edd9099700b11cd97032d06b", "is_disabled": 0, "rental_uris": {"ios": "https://dc.lft.to/lastmile_qr_scan", "android": "https://dc.lft.to/lastmile_qr_scan"}, "is_reserved": 0}, {"lon": -77.03580833333334, "bike_id": "cfcbb23b84b9d8a36ec2c7e9f2f3b601", "lat": 38.910388833333336, "fusion_lon": 0.0, "fusion_lat": 0.0, "type": "electric_scooter", "name": "cfcbb23b84b9d8a36ec2c7e9f2f3b601", "is_disabled": 0, "rental_uris": {"ios": "https://dc.lft.to/lastmile_qr_scan", "android": "https://dc.lft.to/lastmile_qr_scan"}, "is_reserved": 0}, {"lon": -77.03190466666666, "bike_id": "9b4b84d89a6ba86ff6f2d8d5b0147e26", "lat": 38.91739616666667, "fusion_lon": 0.0, "fusion_lat": 0.0, "type": "electric_scooter", "name": "9b4b84d89a6ba86ff6f2d8d5b0147e26", "is_disabled": 0, "rental_uris": {"ios": "https://dc.lft.to/lastmile_qr_scan", "android": "https://dc.lft.to/lastmile_qr_scan"}, "is_reserved": 0}, {"lon": -77.03541383333334, "bike_id": "29d0253d6afeda6f55d286cbc7648c87", "lat": 38.924952, "fusion_lon": 0.0, "fusion_lat": 0.0, "type": "electric_scooter", "name": "29d0253d6afeda6f55d286cbc7648c87", "is_disabled": 0, "rental_uris": {"ios": "https://dc.lft.to/lastmile_qr_scan", "android": "https://dc.lft.to/lastmile_qr_scan"}, "is_reserved": 0}, {"lon": -77.04462233333334, "bike_id": "5b294b47e442cd81cf0afc75f9f4ad42", "lat": 38.90863233333334, "fusion_lon": 0.0, "fusion_lat": 0.0, "type": "electric_scooter", "name": "5b294b47e442cd81cf0afc75f9f4ad42", "is_disabled": 0, "rental_uris": {"ios": "https://dc.lft.to/lastmile_qr_scan", "android": "https://dc.lft.to/lastmile_qr_scan"}, "is_reserved": 0}, {"lon": -76.98036066666667, "bike_id": "d4ddbcebbc8fbbf4acbbfea11e5728bd", "lat": 38.889641833333336, "fusion_lon": 0.0, "fusion_lat": 0.0, "type": "electric_scooter", "name": "d4ddbcebbc8fbbf4acbbfea11e5728bd", "is_disabled": 0, "rental_uris": {"ios": "https://dc.lft.to/lastmile_qr_scan", "android": "https://dc.lft.to/lastmile_qr_scan"}, "is_reserved": 0}, {"lon": -76.98342316666667, "bike_id": "ebc0b058f95fb3ab7cc1f17193af261c", "lat": 38.86640083333333, "fusion_lon": 0.0, "fusion_lat": 0.0, "type": "electric_scooter", "name": "ebc0b058f95fb3ab7cc1f17193af261c", "is_disabled": 0, "rental_uris": {"ios": "https://dc.lft.to/lastmile_qr_scan", "android": "https://dc.lft.to/lastmile_qr_scan"}, "is_reserved": 0}, {"lon": -77.07751416666666, "bike_id": "f8c7f9353efedd13a404386e2ccb0050", "lat": 38.841905, "fusion_lon": 0.0, "fusion_lat": 0.0, "type": "electric_bike", "name": "f8c7f9353efedd13a404386e2ccb0050", "is_disabled": 0, "rental_uris": {"ios": "https://dc.lft.to/lastmile_qr_scan", "android": "https://dc.lft.to/lastmile_qr_scan"}, "is_reserved": 0}, {"lon": -76.93186483333334, "bike_id": "a714978242d7b561d790c8775746f730", "lat": 38.898748499999996, "fusion_lon": 0.0, "fusion_lat": 0.0, "type": "electric_scooter", "name": "a714978242d7b561d790c8775746f730", "is_disabled": 0, "rental_uris": {"ios": "https://dc.lft.to/lastmile_qr_scan", "android": "https://dc.lft.to/lastmile_qr_scan"}, "is_reserved": 0}, {"lon": -77.01716733333333, "bike_id": "69dbdd22c9bacd03355ebc6e880d1678", "lat": 38.911714333333336, "fusion_lon": 0.0, "fusion_lat": 0.0, "type": "electric_scooter", "name": "69dbdd22c9bacd03355ebc6e880d1678", "is_disabled": 0, "rental_uris": {"ios": "https://dc.lft.to/lastmile_qr_scan", "android": "https://dc.lft.to/lastmile_qr_scan"}, "is_reserved": 0}, {"lon": -77.03759366666667, "bike_id": "1f2ec07cdebe57681c230b2ee3b66cc3", "lat": 38.91693183333334, "fusion_lon": 0.0, "fusion_lat": 0.0, "type": "electric_scooter", "name": "1f2ec07cdebe57681c230b2ee3b66cc3", "is_disabled": 0, "rental_uris": {"ios": "https://dc.lft.to/lastmile_qr_scan", "android": "https://dc.lft.to/lastmile_qr_scan"}, "is_reserved": 0}, {"lon": -77.03275833333333, "bike_id": "f8e6f49e72a6cbebf6cc98045098f7d1", "lat": 38.90715316666667, "fusion_lon": 0.0, "fusion_lat": 0.0, "type": "electric_scooter", "name": "f8e6f49e72a6cbebf6cc98045098f7d1", "is_disabled": 0, "rental_uris": {"ios": "https://dc.lft.to/lastmile_qr_scan", "android": "https://dc.lft.to/lastmile_qr_scan"}, "is_reserved": 0}, {"lon": -77.08003883333333, "bike_id": "722a88ede62b0b748131127b608d290b", "lat": 38.96489233333333, "fusion_lon": 0.0, "fusion_lat": 0.0, "type": "electric_scooter", "name": "722a88ede62b0b748131127b608d290b", "is_disabled": 0, "rental_uris": {"ios": "https://dc.lft.to/lastmile_qr_scan", "android": "https://dc.lft.to/lastmile_qr_scan"}, "is_reserved": 0}, {"lon": -77.00370633333333, "bike_id": "4570b6d4c1894722ab96943b96f361a0", "lat": 38.89740033333333, "fusion_lon": 0.0, "fusion_lat": 0.0, "type": "electric_scooter", "name": "4570b6d4c1894722ab96943b96f361a0", "is_disabled": 0, "rental_uris": {"ios": "https://dc.lft.to/lastmile_qr_scan", "android": "https://dc.lft.to/lastmile_qr_scan"}, "is_reserved": 0}, {"lon": -77.0789745, "bike_id": "1c09e7a79fcbfebe0f85e035073fdd20", "lat": 38.8393055, "fusion_lon": 0.0, "fusion_lat": 0.0, "type": "electric_bike", "name": "1c09e7a79fcbfebe0f85e035073fdd20", "is_disabled": 0, "rental_uris": {"ios": "https://dc.lft.to/lastmile_qr_scan", "android": "https://dc.lft.to/lastmile_qr_scan"}, "is_reserved": 0}, {"lon": -76.99013233333334, "bike_id": "4e737387aa0556675e55efe323cd7763", "lat": 38.8826795, "fusion_lon": 0.0, "fusion_lat": 0.0, "type": "electric_scooter", "name": "4e737387aa0556675e55efe323cd7763", "is_disabled": 0, "rental_uris": {"ios": "https://dc.lft.to/lastmile_qr_scan", "android": "https://dc.lft.to/lastmile_qr_scan"}, "is_reserved": 0}, {"lon": -77.03880083333334, "bike_id": "cfd68921a2912120a16742fa4cc558c7", "lat": 38.931824, "fusion_lon": 0.0, "fusion_lat": 0.0, "type": "electric_scooter", "name": "cfd68921a2912120a16742fa4cc558c7", "is_disabled": 0, "rental_uris": {"ios": "https://dc.lft.to/lastmile_qr_scan", "android": "https://dc.lft.to/lastmile_qr_scan"}, "is_reserved": 0}, {"lon": -76.97326966666667, "bike_id": "6853501007f68a05eeb04340e2407809", "lat": 38.90411183333333, "fusion_lon": 0.0, "fusion_lat": 0.0, "type": "electric_scooter", "name": "6853501007f68a05eeb04340e2407809", "is_disabled": 0, "rental_uris": {"ios": "https://dc.lft.to/lastmile_qr_scan", "android": "https://dc.lft.to/lastmile_qr_scan"}, "is_reserved": 0}, {"lon": -77.0237195, "bike_id": "3ff2beea19cabc32113fb37c9878bdf0", "lat": 38.915494833333334, "fusion_lon": 0.0, "fusion_lat": 0.0, "type": "electric_scooter", "name": "3ff2beea19cabc32113fb37c9878bdf0", "is_disabled": 0, "rental_uris": {"ios": "https://dc.lft.to/lastmile_qr_scan", "android": "https://dc.lft.to/lastmile_qr_scan"}, "is_reserved": 0}, {"lon": -77.01328783333334, "bike_id": "0ea1648becc1a55422fa5c6a06d91480", "lat": 38.900162333333334, "fusion_lon": 0.0, "fusion_lat": 0.0, "type": "electric_scooter", "name": "0ea1648becc1a55422fa5c6a06d91480", "is_disabled": 0, "rental_uris": {"ios": "https://dc.lft.to/lastmile_qr_scan", "android": "https://dc.lft.to/lastmile_qr_scan"}, "is_reserved": 0}, {"lon": -77.02719533333334, "bike_id": "35deac079dcae255e3ed75c395336a29", "lat": 38.90529683333333, "fusion_lon": 0.0, "fusion_lat": 0.0, "type": "electric_scooter", "name": "35deac079dcae255e3ed75c395336a29", "is_disabled": 0, "rental_uris": {"ios": "https://dc.lft.to/lastmile_qr_scan", "android": "https://dc.lft.to/lastmile_qr_scan"}, "is_reserved": 0}, {"lon": -77.04261216666667, "bike_id": "580807445b9f6c0874415b2346786dd3", "lat": 38.922519333333334, "fusion_lon": 0.0, "fusion_lat": 0.0, "type": "electric_scooter", "name": "580807445b9f6c0874415b2346786dd3", "is_disabled": 0, "rental_uris": {"ios": "https://dc.lft.to/lastmile_qr_scan", "android": "https://dc.lft.to/lastmile_qr_scan"}, "is_reserved": 0}, {"lon": -77.04158, "bike_id": "b87f6798903faeff2034b429202153e9", "lat": 38.91816, "fusion_lon": 0.0, "fusion_lat": 0.0, "type": "electric_scooter", "name": "b87f6798903faeff2034b429202153e9", "is_disabled": 0, "rental_uris": {"ios": "https://dc.lft.to/lastmile_qr_scan", "android": "https://dc.lft.to/lastmile_qr_scan"}, "is_reserved": 0}, {"lon": -77.04684216666666, "bike_id": "e023d8a992b6aaa25c4811966fd04b70", "lat": 38.89222083333333, "fusion_lon": 0.0, "fusion_lat": 0.0, "type": "electric_scooter", "name": "e023d8a992b6aaa25c4811966fd04b70", "is_disabled": 0, "rental_uris": {"ios": "https://dc.lft.to/lastmile_qr_scan", "android": "https://dc.lft.to/lastmile_qr_scan"}, "is_reserved": 0}, {"lon": -77.07104833333334, "bike_id": "5bf80be7a58e37ee0e236e6e6d4fde38", "lat": 38.91978233333333, "fusion_lon": 0.0, "fusion_lat": 0.0, "type": "electric_scooter", "name": "5bf80be7a58e37ee0e236e6e6d4fde38", "is_disabled": 0, "rental_uris": {"ios": "https://dc.lft.to/lastmile_qr_scan", "android": "https://dc.lft.to/lastmile_qr_scan"}, "is_reserved": 0}, {"lon": -77.03349966666667, "bike_id": "fbb5e78babd7e8cf14d8dc7c862f390a", "lat": 38.92343116666667, "fusion_lon": 0.0, "fusion_lat": 0.0, "type": "electric_scooter", "name": "fbb5e78babd7e8cf14d8dc7c862f390a", "is_disabled": 0, "rental_uris": {"ios": "https://dc.lft.to/lastmile_qr_scan", "android": "https://dc.lft.to/lastmile_qr_scan"}, "is_reserved": 0}, {"lon": -76.99439516666666, "bike_id": "9f89362c2bae803a05dbe23699d9268c", "lat": 38.933417666666664, "fusion_lon": 0.0, "fusion_lat": 0.0, "type": "electric_scooter", "name": "9f89362c2bae803a05dbe23699d9268c", "is_disabled": 0, "rental_uris": {"ios": "https://dc.lft.to/lastmile_qr_scan", "android": "https://dc.lft.to/lastmile_qr_scan"}, "is_reserved": 0}, {"lon": -77.0310925, "bike_id": "fb7fb85187fa3a752aa20887bc03607f", "lat": 38.91562, "fusion_lon": 0.0, "fusion_lat": 0.0, "type": "electric_scooter", "name": "fb7fb85187fa3a752aa20887bc03607f", "is_disabled": 0, "rental_uris": {"ios": "https://dc.lft.to/lastmile_qr_scan", "android": "https://dc.lft.to/lastmile_qr_scan"}, "is_reserved": 0}, {"lon": -77.05511066666666, "bike_id": "a76d0104bf56c3a19aa6b14dacd5b3a2", "lat": 38.899949, "fusion_lon": 0.0, "fusion_lat": 0.0, "type": "electric_scooter", "name": "a76d0104bf56c3a19aa6b14dacd5b3a2", "is_disabled": 0, "rental_uris": {"ios": "https://dc.lft.to/lastmile_qr_scan", "android": "https://dc.lft.to/lastmile_qr_scan"}, "is_reserved": 0}, {"lon": -77.03829866666666, "bike_id": "f226a8d360059aed8031d30918bc49f3", "lat": 38.90674683333334, "fusion_lon": 0.0, "fusion_lat": 0.0, "type": "electric_scooter", "name": "f226a8d360059aed8031d30918bc49f3", "is_disabled": 0, "rental_uris": {"ios": "https://dc.lft.to/lastmile_qr_scan", "android": "https://dc.lft.to/lastmile_qr_scan"}, "is_reserved": 0}, {"lon": -77.0792665, "bike_id": "a846eeb536445f04cfd6f9f22f6aea05", "lat": 38.9310815, "fusion_lon": 0.0, "fusion_lat": 0.0, "type": "electric_scooter", "name": "a846eeb536445f04cfd6f9f22f6aea05", "is_disabled": 0, "rental_uris": {"ios": "https://dc.lft.to/lastmile_qr_scan", "android": "https://dc.lft.to/lastmile_qr_scan"}, "is_reserved": 0}, {"lon": -77.02924433333334, "bike_id": "078e962c06472de0754a8355cc2e49f4", "lat": 38.934597, "fusion_lon": 0.0, "fusion_lat": 0.0, "type": "electric_scooter", "name": "078e962c06472de0754a8355cc2e49f4", "is_disabled": 0, "rental_uris": {"ios": "https://dc.lft.to/lastmile_qr_scan", "android": "https://dc.lft.to/lastmile_qr_scan"}, "is_reserved": 0}, {"lon": -77.02442066666667, "bike_id": "1d4382148217395d4d73a554e0b40d2e", "lat": 38.92501266666667, "fusion_lon": 0.0, "fusion_lat": 0.0, "type": "electric_scooter", "name": "1d4382148217395d4d73a554e0b40d2e", "is_disabled": 0, "rental_uris": {"ios": "https://dc.lft.to/lastmile_qr_scan", "android": "https://dc.lft.to/lastmile_qr_scan"}, "is_reserved": 0}, {"lon": -76.98149166666667, "bike_id": "75a54e802bd25356c00ce5c67e9e9cfa", "lat": 38.903189833333336, "fusion_lon": 0.0, "fusion_lat": 0.0, "type": "electric_scooter", "name": "75a54e802bd25356c00ce5c67e9e9cfa", "is_disabled": 0, "rental_uris": {"ios": "https://dc.lft.to/lastmile_qr_scan", "android": "https://dc.lft.to/lastmile_qr_scan"}, "is_reserved": 0}, {"lon": -76.97670633333334, "bike_id": "cfd2b6de1f9667c09ef4210008a60282", "lat": 38.95246983333333, "fusion_lon": 0.0, "fusion_lat": 0.0, "type": "electric_bike", "name": "cfd2b6de1f9667c09ef4210008a60282", "is_disabled": 0, "rental_uris": {"ios": "https://dc.lft.to/lastmile_qr_scan", "android": "https://dc.lft.to/lastmile_qr_scan"}, "is_reserved": 0}, {"lon": -76.98863933333334, "bike_id": "3aa03f9cfe752f69b7d88657792a432f", "lat": 38.891716833333334, "fusion_lon": 0.0, "fusion_lat": 0.0, "type": "electric_scooter", "name": "3aa03f9cfe752f69b7d88657792a432f", "is_disabled": 0, "rental_uris": {"ios": "https://dc.lft.to/lastmile_qr_scan", "android": "https://dc.lft.to/lastmile_qr_scan"}, "is_reserved": 0}, {"lon": -77.041009, "bike_id": "4534dd0664744227766a3d296ecb9230", "lat": 38.90899566666667, "fusion_lon": 0.0, "fusion_lat": 0.0, "type": "electric_scooter", "name": "4534dd0664744227766a3d296ecb9230", "is_disabled": 0, "rental_uris": {"ios": "https://dc.lft.to/lastmile_qr_scan", "android": "https://dc.lft.to/lastmile_qr_scan"}, "is_reserved": 0}, {"lon": -76.987993, "bike_id": "d0846bb8427ec1febd7c9adc5dae4881", "lat": 38.8672195, "fusion_lon": 0.0, "fusion_lat": 0.0, "type": "electric_scooter", "name": "d0846bb8427ec1febd7c9adc5dae4881", "is_disabled": 0, "rental_uris": {"ios": "https://dc.lft.to/lastmile_qr_scan", "android": "https://dc.lft.to/lastmile_qr_scan"}, "is_reserved": 0}, {"lon": -77.0005405, "bike_id": "76ca3b5d9ed4729e5296709dfbeff7a1", "lat": 38.894964333333334, "fusion_lon": 0.0, "fusion_lat": 0.0, "type": "electric_scooter", "name": "76ca3b5d9ed4729e5296709dfbeff7a1", "is_disabled": 0, "rental_uris": {"ios": "https://dc.lft.to/lastmile_qr_scan", "android": "https://dc.lft.to/lastmile_qr_scan"}, "is_reserved": 0}, {"lon": -77.042729, "bike_id": "ab440d2187588db6c1e76474820b7f23", "lat": 38.90740016666667, "fusion_lon": 0.0, "fusion_lat": 0.0, "type": "electric_scooter", "name": "ab440d2187588db6c1e76474820b7f23", "is_disabled": 0, "rental_uris": {"ios": "https://dc.lft.to/lastmile_qr_scan", "android": "https://dc.lft.to/lastmile_qr_scan"}, "is_reserved": 0}, {"lon": -76.98227233333333, "bike_id": "db56d0c42813e643389d4370d6d2f51b", "lat": 38.8864355, "fusion_lon": 0.0, "fusion_lat": 0.0, "type": "electric_scooter", "name": "db56d0c42813e643389d4370d6d2f51b", "is_disabled": 0, "rental_uris": {"ios": "https://dc.lft.to/lastmile_qr_scan", "android": "https://dc.lft.to/lastmile_qr_scan"}, "is_reserved": 0}, {"lon": -77.04156433333333, "bike_id": "5b781780a1ba86d81bdab9e739d4a292", "lat": 38.91420316666667, "fusion_lon": 0.0, "fusion_lat": 0.0, "type": "electric_scooter", "name": "5b781780a1ba86d81bdab9e739d4a292", "is_disabled": 0, "rental_uris": {"ios": "https://dc.lft.to/lastmile_qr_scan", "android": "https://dc.lft.to/lastmile_qr_scan"}, "is_reserved": 0}, {"lon": -77.03181183333334, "bike_id": "f9dc1321ea849b6d41ae158a0e7f1c8e", "lat": 38.9368995, "fusion_lon": 0.0, "fusion_lat": 0.0, "type": "electric_scooter", "name": "f9dc1321ea849b6d41ae158a0e7f1c8e", "is_disabled": 0, "rental_uris": {"ios": "https://dc.lft.to/lastmile_qr_scan", "android": "https://dc.lft.to/lastmile_qr_scan"}, "is_reserved": 0}, {"lon": -76.93003933333334, "bike_id": "1a6abb4fc9ff08b05a743f6f7597a2f1", "lat": 38.8919535, "fusion_lon": 0.0, "fusion_lat": 0.0, "type": "electric_scooter", "name": "1a6abb4fc9ff08b05a743f6f7597a2f1", "is_disabled": 0, "rental_uris": {"ios": "https://dc.lft.to/lastmile_qr_scan", "android": "https://dc.lft.to/lastmile_qr_scan"}, "is_reserved": 0}, {"lon": -77.01210183333333, "bike_id": "e7c64881601ba605d09c97a321ca2ce7", "lat": 38.92121933333333, "fusion_lon": 0.0, "fusion_lat": 0.0, "type": "electric_scooter", "name": "e7c64881601ba605d09c97a321ca2ce7", "is_disabled": 0, "rental_uris": {"ios": "https://dc.lft.to/lastmile_qr_scan", "android": "https://dc.lft.to/lastmile_qr_scan"}, "is_reserved": 0}, {"lon": -76.99529883333334, "bike_id": "b402e6b79103c5967846bcd2b44ca745", "lat": 38.8836915, "fusion_lon": 0.0, "fusion_lat": 0.0, "type": "electric_scooter", "name": "b402e6b79103c5967846bcd2b44ca745", "is_disabled": 0, "rental_uris": {"ios": "https://dc.lft.to/lastmile_qr_scan", "android": "https://dc.lft.to/lastmile_qr_scan"}, "is_reserved": 0}, {"lon": -77.05693316666667, "bike_id": "994e1c5f4e8d0a9ea24a105e2d7f653d", "lat": 38.937179666666665, "fusion_lon": 0.0, "fusion_lat": 0.0, "type": "electric_scooter", "name": "994e1c5f4e8d0a9ea24a105e2d7f653d", "is_disabled": 0, "rental_uris": {"ios": "https://dc.lft.to/lastmile_qr_scan", "android": "https://dc.lft.to/lastmile_qr_scan"}, "is_reserved": 0}, {"lon": -76.975353, "bike_id": "5044a17353d1bb56b3670f963f2356ff", "lat": 38.86424433333333, "fusion_lon": 0.0, "fusion_lat": 0.0, "type": "electric_scooter", "name": "5044a17353d1bb56b3670f963f2356ff", "is_disabled": 0, "rental_uris": {"ios": "https://dc.lft.to/lastmile_qr_scan", "android": "https://dc.lft.to/lastmile_qr_scan"}, "is_reserved": 0}, {"lon": -76.9811035, "bike_id": "b23545c5da21cb0ad37817995c0044e7", "lat": 38.9147555, "fusion_lon": 0.0, "fusion_lat": 0.0, "type": "electric_scooter", "name": "b23545c5da21cb0ad37817995c0044e7", "is_disabled": 0, "rental_uris": {"ios": "https://dc.lft.to/lastmile_qr_scan", "android": "https://dc.lft.to/lastmile_qr_scan"}, "is_reserved": 0}, {"lon": -77.10486933333334, "bike_id": "88866c03f51d96f72e4f10594e5b5529", "lat": 38.856093333333334, "fusion_lon": 0.0, "fusion_lat": 0.0, "type": "electric_bike", "name": "88866c03f51d96f72e4f10594e5b5529", "is_disabled": 0, "rental_uris": {"ios": "https://dc.lft.to/lastmile_qr_scan", "android": "https://dc.lft.to/lastmile_qr_scan"}, "is_reserved": 0}, {"lon": -77.057241, "bike_id": "2a27061d1c21b5e275a9358ddedcf78d", "lat": 38.93366833333333, "fusion_lon": 0.0, "fusion_lat": 0.0, "type": "electric_scooter", "name": "2a27061d1c21b5e275a9358ddedcf78d", "is_disabled": 0, "rental_uris": {"ios": "https://dc.lft.to/lastmile_qr_scan", "android": "https://dc.lft.to/lastmile_qr_scan"}, "is_reserved": 0}, {"lon": -77.05158633333333, "bike_id": "aa61c6245e637477f76edf5140e6f36d", "lat": 39.043079, "fusion_lon": 0.0, "fusion_lat": 0.0, "type": "electric_bike", "name": "aa61c6245e637477f76edf5140e6f36d", "is_disabled": 0, "rental_uris": {"ios": "https://dc.lft.to/lastmile_qr_scan", "android": "https://dc.lft.to/lastmile_qr_scan"}, "is_reserved": 0}, {"lon": -77.0433605, "bike_id": "9cd5b97ef5ef9e57bcd29c864b226dd1", "lat": 38.9221585, "fusion_lon": 0.0, "fusion_lat": 0.0, "type": "electric_scooter", "name": "9cd5b97ef5ef9e57bcd29c864b226dd1", "is_disabled": 0, "rental_uris": {"ios": "https://dc.lft.to/lastmile_qr_scan", "android": "https://dc.lft.to/lastmile_qr_scan"}, "is_reserved": 0}, {"lon": -77.01426416666666, "bike_id": "36f42f1b75cfc5df08a6c9a7a9c95d0a", "lat": 38.929046, "fusion_lon": 0.0, "fusion_lat": 0.0, "type": "electric_scooter", "name": "36f42f1b75cfc5df08a6c9a7a9c95d0a", "is_disabled": 0, "rental_uris": {"ios": "https://dc.lft.to/lastmile_qr_scan", "android": "https://dc.lft.to/lastmile_qr_scan"}, "is_reserved": 0}, {"lon": -77.00560283333333, "bike_id": "fbd78255fc293dcbc344e95a89ca5c41", "lat": 38.89612, "fusion_lon": 0.0, "fusion_lat": 0.0, "type": "electric_scooter", "name": "fbd78255fc293dcbc344e95a89ca5c41", "is_disabled": 0, "rental_uris": {"ios": "https://dc.lft.to/lastmile_qr_scan", "android": "https://dc.lft.to/lastmile_qr_scan"}, "is_reserved": 0}, {"lon": -77.04020566666667, "bike_id": "61b7815eb7e0c80176e1a6d207a28312", "lat": 38.9110955, "fusion_lon": 0.0, "fusion_lat": 0.0, "type": "electric_scooter", "name": "61b7815eb7e0c80176e1a6d207a28312", "is_disabled": 0, "rental_uris": {"ios": "https://dc.lft.to/lastmile_qr_scan", "android": "https://dc.lft.to/lastmile_qr_scan"}, "is_reserved": 0}, {"lon": -77.1091775, "bike_id": "87e690a315da7e4730f167cf36fe862e", "lat": 39.052031666666664, "fusion_lon": 0.0, "fusion_lat": 0.0, "type": "electric_bike", "name": "87e690a315da7e4730f167cf36fe862e", "is_disabled": 0, "rental_uris": {"ios": "https://dc.lft.to/lastmile_qr_scan", "android": "https://dc.lft.to/lastmile_qr_scan"}, "is_reserved": 0}, {"lon": -77.02715166666667, "bike_id": "84adb6e42bb850f606e2de48dec15c70", "lat": 38.925914166666665, "fusion_lon": 0.0, "fusion_lat": 0.0, "type": "electric_scooter", "name": "84adb6e42bb850f606e2de48dec15c70", "is_disabled": 0, "rental_uris": {"ios": "https://dc.lft.to/lastmile_qr_scan", "android": "https://dc.lft.to/lastmile_qr_scan"}, "is_reserved": 0}, {"lon": -77.03175583333334, "bike_id": "3aea1b712ec5575ddd98eeca66dca222", "lat": 38.91116983333333, "fusion_lon": 0.0, "fusion_lat": 0.0, "type": "electric_scooter", "name": "3aea1b712ec5575ddd98eeca66dca222", "is_disabled": 0, "rental_uris": {"ios": "https://dc.lft.to/lastmile_qr_scan", "android": "https://dc.lft.to/lastmile_qr_scan"}, "is_reserved": 0}, {"lon": -77.03210233333333, "bike_id": "1354e8d4b89ab77e85ddce01b7d69ab7", "lat": 38.9154165, "fusion_lon": 0.0, "fusion_lat": 0.0, "type": "electric_scooter", "name": "1354e8d4b89ab77e85ddce01b7d69ab7", "is_disabled": 0, "rental_uris": {"ios": "https://dc.lft.to/lastmile_qr_scan", "android": "https://dc.lft.to/lastmile_qr_scan"}, "is_reserved": 0}, {"lon": -77.03228216666666, "bike_id": "1925301d211cd88074fc6938e5d676ab", "lat": 38.89611766666667, "fusion_lon": 0.0, "fusion_lat": 0.0, "type": "electric_scooter", "name": "1925301d211cd88074fc6938e5d676ab", "is_disabled": 0, "rental_uris": {"ios": "https://dc.lft.to/lastmile_qr_scan", "android": "https://dc.lft.to/lastmile_qr_scan"}, "is_reserved": 0}, {"lon": -77.01730883333333, "bike_id": "14352d889f1e6755ceac9009a5ee6edf", "lat": 38.916104833333335, "fusion_lon": 0.0, "fusion_lat": 0.0, "type": "electric_bike", "name": "14352d889f1e6755ceac9009a5ee6edf", "is_disabled": 0, "rental_uris": {"ios": "https://dc.lft.to/lastmile_qr_scan", "android": "https://dc.lft.to/lastmile_qr_scan"}, "is_reserved": 0}, {"lon": -76.92996516666666, "bike_id": "a1fc7e3d0163ade917d46bfd498a4851", "lat": 38.90186966666667, "fusion_lon": 0.0, "fusion_lat": 0.0, "type": "electric_scooter", "name": "a1fc7e3d0163ade917d46bfd498a4851", "is_disabled": 0, "rental_uris": {"ios": "https://dc.lft.to/lastmile_qr_scan", "android": "https://dc.lft.to/lastmile_qr_scan"}, "is_reserved": 0}, {"lon": -77.0610755, "bike_id": "05e76e773ef161f354dac08f894ba16a", "lat": 38.937070166666665, "fusion_lon": 0.0, "fusion_lat": 0.0, "type": "electric_scooter", "name": "05e76e773ef161f354dac08f894ba16a", "is_disabled": 0, "rental_uris": {"ios": "https://dc.lft.to/lastmile_qr_scan", "android": "https://dc.lft.to/lastmile_qr_scan"}, "is_reserved": 0}, {"lon": -77.0425215, "bike_id": "3c40101430e0ee34c765b3a4d5611dc8", "lat": 38.90018466666667, "fusion_lon": 0.0, "fusion_lat": 0.0, "type": "electric_scooter", "name": "3c40101430e0ee34c765b3a4d5611dc8", "is_disabled": 0, "rental_uris": {"ios": "https://dc.lft.to/lastmile_qr_scan", "android": "https://dc.lft.to/lastmile_qr_scan"}, "is_reserved": 0}, {"lon": -77.03763883333333, "bike_id": "4f24a260c10168aa00484ddcd4756634", "lat": 38.92480883333333, "fusion_lon": 0.0, "fusion_lat": 0.0, "type": "electric_scooter", "name": "4f24a260c10168aa00484ddcd4756634", "is_disabled": 0, "rental_uris": {"ios": "https://dc.lft.to/lastmile_qr_scan", "android": "https://dc.lft.to/lastmile_qr_scan"}, "is_reserved": 0}, {"lon": -77.0403415, "bike_id": "542ba58ff907f40c83ecbdcdf270fe1b", "lat": 38.92565666666667, "fusion_lon": 0.0, "fusion_lat": 0.0, "type": "electric_scooter", "name": "542ba58ff907f40c83ecbdcdf270fe1b", "is_disabled": 0, "rental_uris": {"ios": "https://dc.lft.to/lastmile_qr_scan", "android": "https://dc.lft.to/lastmile_qr_scan"}, "is_reserved": 0}, {"lon": -77.06923016666667, "bike_id": "1df3dceda99ae4990749df1d2f818498", "lat": 38.955528666666666, "fusion_lon": 0.0, "fusion_lat": 0.0, "type": "electric_bike", "name": "1df3dceda99ae4990749df1d2f818498", "is_disabled": 0, "rental_uris": {"ios": "https://dc.lft.to/lastmile_qr_scan", "android": "https://dc.lft.to/lastmile_qr_scan"}, "is_reserved": 0}, {"lon": -76.94883716666666, "bike_id": "bfc603cd9f60f38598dad389c8a89c5e", "lat": 38.8951115, "fusion_lon": 0.0, "fusion_lat": 0.0, "type": "electric_scooter", "name": "bfc603cd9f60f38598dad389c8a89c5e", "is_disabled": 0, "rental_uris": {"ios": "https://dc.lft.to/lastmile_qr_scan", "android": "https://dc.lft.to/lastmile_qr_scan"}, "is_reserved": 0}, {"lon": -77.03181433333333, "bike_id": "96d0e512a2697244c82b92af98d12f12", "lat": 38.912636166666665, "fusion_lon": 0.0, "fusion_lat": 0.0, "type": "electric_scooter", "name": "96d0e512a2697244c82b92af98d12f12", "is_disabled": 0, "rental_uris": {"ios": "https://dc.lft.to/lastmile_qr_scan", "android": "https://dc.lft.to/lastmile_qr_scan"}, "is_reserved": 0}, {"lon": -77.04342033333333, "bike_id": "c0dcb74edf13828940452e6c005425c6", "lat": 38.910416166666664, "fusion_lon": 0.0, "fusion_lat": 0.0, "type": "electric_scooter", "name": "c0dcb74edf13828940452e6c005425c6", "is_disabled": 0, "rental_uris": {"ios": "https://dc.lft.to/lastmile_qr_scan", "android": "https://dc.lft.to/lastmile_qr_scan"}, "is_reserved": 0}, {"lon": -77.03402633333333, "bike_id": "2f31e41a55c31009c5847f35831fc72b", "lat": 38.93413816666666, "fusion_lon": 0.0, "fusion_lat": 0.0, "type": "electric_scooter", "name": "2f31e41a55c31009c5847f35831fc72b", "is_disabled": 0, "rental_uris": {"ios": "https://dc.lft.to/lastmile_qr_scan", "android": "https://dc.lft.to/lastmile_qr_scan"}, "is_reserved": 0}, {"lon": -77.036438, "bike_id": "848c628baaa1b41f5ff954e887497540", "lat": 38.904719, "fusion_lon": 0.0, "fusion_lat": 0.0, "type": "electric_scooter", "name": "848c628baaa1b41f5ff954e887497540", "is_disabled": 0, "rental_uris": {"ios": "https://dc.lft.to/lastmile_qr_scan", "android": "https://dc.lft.to/lastmile_qr_scan"}, "is_reserved": 0}, {"lon": -77.04636783333333, "bike_id": "82b85c058134ae8b9bdae70a26a186e7", "lat": 38.921218333333336, "fusion_lon": 0.0, "fusion_lat": 0.0, "type": "electric_scooter", "name": "82b85c058134ae8b9bdae70a26a186e7", "is_disabled": 0, "rental_uris": {"ios": "https://dc.lft.to/lastmile_qr_scan", "android": "https://dc.lft.to/lastmile_qr_scan"}, "is_reserved": 0}, {"lon": -77.04125733333333, "bike_id": "68c735a737f4659fb1bed1bc9f2c1b24", "lat": 38.92303316666667, "fusion_lon": 0.0, "fusion_lat": 0.0, "type": "electric_scooter", "name": "68c735a737f4659fb1bed1bc9f2c1b24", "is_disabled": 0, "rental_uris": {"ios": "https://dc.lft.to/lastmile_qr_scan", "android": "https://dc.lft.to/lastmile_qr_scan"}, "is_reserved": 0}, {"lon": -76.99956816666666, "bike_id": "0a6717d22a2fa898e6db3aae1a95be19", "lat": 38.908462166666666, "fusion_lon": 0.0, "fusion_lat": 0.0, "type": "electric_scooter", "name": "0a6717d22a2fa898e6db3aae1a95be19", "is_disabled": 0, "rental_uris": {"ios": "https://dc.lft.to/lastmile_qr_scan", "android": "https://dc.lft.to/lastmile_qr_scan"}, "is_reserved": 0}, {"lon": -77.0590805, "bike_id": "640802fe4f9e04103e1ae752564da811", "lat": 38.936241, "fusion_lon": 0.0, "fusion_lat": 0.0, "type": "electric_scooter", "name": "640802fe4f9e04103e1ae752564da811", "is_disabled": 0, "rental_uris": {"ios": "https://dc.lft.to/lastmile_qr_scan", "android": "https://dc.lft.to/lastmile_qr_scan"}, "is_reserved": 0}, {"lon": -76.985839, "bike_id": "a3f335d6769b4ef375f7eb66fc58cb4c", "lat": 38.866883, "fusion_lon": 0.0, "fusion_lat": 0.0, "type": "electric_scooter", "name": "a3f335d6769b4ef375f7eb66fc58cb4c", "is_disabled": 0, "rental_uris": {"ios": "https://dc.lft.to/lastmile_qr_scan", "android": "https://dc.lft.to/lastmile_qr_scan"}, "is_reserved": 0}, {"lon": -77.054375, "bike_id": "183b5b50753d6cd8c9386be49be19421", "lat": 38.903726, "fusion_lon": 0.0, "fusion_lat": 0.0, "type": "electric_scooter", "name": "183b5b50753d6cd8c9386be49be19421", "is_disabled": 0, "rental_uris": {"ios": "https://dc.lft.to/lastmile_qr_scan", "android": "https://dc.lft.to/lastmile_qr_scan"}, "is_reserved": 0}, {"lon": -77.00068333333333, "bike_id": "141883f1e88da12e5333a7dc8909ad64", "lat": 38.8739255, "fusion_lon": 0.0, "fusion_lat": 0.0, "type": "electric_scooter", "name": "141883f1e88da12e5333a7dc8909ad64", "is_disabled": 0, "rental_uris": {"ios": "https://dc.lft.to/lastmile_qr_scan", "android": "https://dc.lft.to/lastmile_qr_scan"}, "is_reserved": 0}, {"lon": -76.9895355, "bike_id": "5551f65c362c1151be6a9d0c20e04ec5", "lat": 38.86693966666667, "fusion_lon": 0.0, "fusion_lat": 0.0, "type": "electric_bike", "name": "5551f65c362c1151be6a9d0c20e04ec5", "is_disabled": 0, "rental_uris": {"ios": "https://dc.lft.to/lastmile_qr_scan", "android": "https://dc.lft.to/lastmile_qr_scan"}, "is_reserved": 0}, {"lon": -77.04361216666666, "bike_id": "2026bbf84ef43db07f1867e9b49077ea", "lat": 39.0153655, "fusion_lon": 0.0, "fusion_lat": 0.0, "type": "electric_bike", "name": "2026bbf84ef43db07f1867e9b49077ea", "is_disabled": 0, "rental_uris": {"ios": "https://dc.lft.to/lastmile_qr_scan", "android": "https://dc.lft.to/lastmile_qr_scan"}, "is_reserved": 0}, {"lon": -77.03864283333333, "bike_id": "0ca22c09ac33aa94a9770cf86dc9b3a9", "lat": 38.9097325, "fusion_lon": 0.0, "fusion_lat": 0.0, "type": "electric_scooter", "name": "0ca22c09ac33aa94a9770cf86dc9b3a9", "is_disabled": 0, "rental_uris": {"ios": "https://dc.lft.to/lastmile_qr_scan", "android": "https://dc.lft.to/lastmile_qr_scan"}, "is_reserved": 0}, {"lon": -77.03811033333334, "bike_id": "668d1b35dcc6728e7766a3f51fcf2582", "lat": 38.931124, "fusion_lon": 0.0, "fusion_lat": 0.0, "type": "electric_scooter", "name": "668d1b35dcc6728e7766a3f51fcf2582", "is_disabled": 0, "rental_uris": {"ios": "https://dc.lft.to/lastmile_qr_scan", "android": "https://dc.lft.to/lastmile_qr_scan"}, "is_reserved": 0}, {"lon": -76.9784085, "bike_id": "bed52916662c07970b7d54bcf08a8e96", "lat": 38.865643, "fusion_lon": 0.0, "fusion_lat": 0.0, "type": "electric_scooter", "name": "bed52916662c07970b7d54bcf08a8e96", "is_disabled": 0, "rental_uris": {"ios": "https://dc.lft.to/lastmile_qr_scan", "android": "https://dc.lft.to/lastmile_qr_scan"}, "is_reserved": 0}, {"lon": -77.02712133333333, "bike_id": "4c314c1bb834a1ee524769b9338e1aa4", "lat": 38.897046333333336, "fusion_lon": 0.0, "fusion_lat": 0.0, "type": "electric_scooter", "name": "4c314c1bb834a1ee524769b9338e1aa4", "is_disabled": 0, "rental_uris": {"ios": "https://dc.lft.to/lastmile_qr_scan", "android": "https://dc.lft.to/lastmile_qr_scan"}, "is_reserved": 0}, {"lon": -77.02396283333333, "bike_id": "9ea243b5a83e534883c9a4feb58b0677", "lat": 38.915180666666664, "fusion_lon": 0.0, "fusion_lat": 0.0, "type": "electric_scooter", "name": "9ea243b5a83e534883c9a4feb58b0677", "is_disabled": 0, "rental_uris": {"ios": "https://dc.lft.to/lastmile_qr_scan", "android": "https://dc.lft.to/lastmile_qr_scan"}, "is_reserved": 0}, {"lon": -77.02964783333333, "bike_id": "cfcd598887128506cd6bf8042d59b249", "lat": 38.92288683333334, "fusion_lon": 0.0, "fusion_lat": 0.0, "type": "electric_scooter", "name": "cfcd598887128506cd6bf8042d59b249", "is_disabled": 0, "rental_uris": {"ios": "https://dc.lft.to/lastmile_qr_scan", "android": "https://dc.lft.to/lastmile_qr_scan"}, "is_reserved": 0}, {"lon": -77.03455433333333, "bike_id": "e0a694e15680c3443fd5e275ad994fab", "lat": 38.918024, "fusion_lon": 0.0, "fusion_lat": 0.0, "type": "electric_scooter", "name": "e0a694e15680c3443fd5e275ad994fab", "is_disabled": 0, "rental_uris": {"ios": "https://dc.lft.to/lastmile_qr_scan", "android": "https://dc.lft.to/lastmile_qr_scan"}, "is_reserved": 0}, {"lon": -77.03900233333333, "bike_id": "3363cbde949bb15e3c2b963fdf8ce3fa", "lat": 38.923402333333335, "fusion_lon": 0.0, "fusion_lat": 0.0, "type": "electric_scooter", "name": "3363cbde949bb15e3c2b963fdf8ce3fa", "is_disabled": 0, "rental_uris": {"ios": "https://dc.lft.to/lastmile_qr_scan", "android": "https://dc.lft.to/lastmile_qr_scan"}, "is_reserved": 0}, {"lon": -77.02202533333333, "bike_id": "3bb03aa94cdaca993b8357d257312bb3", "lat": 38.916488333333334, "fusion_lon": 0.0, "fusion_lat": 0.0, "type": "electric_scooter", "name": "3bb03aa94cdaca993b8357d257312bb3", "is_disabled": 0, "rental_uris": {"ios": "https://dc.lft.to/lastmile_qr_scan", "android": "https://dc.lft.to/lastmile_qr_scan"}, "is_reserved": 0}, {"lon": -77.04878283333333, "bike_id": "c41dc42e4fc03d5a49a1aaf5b7540ba7", "lat": 38.8922965, "fusion_lon": 0.0, "fusion_lat": 0.0, "type": "electric_scooter", "name": "c41dc42e4fc03d5a49a1aaf5b7540ba7", "is_disabled": 0, "rental_uris": {"ios": "https://dc.lft.to/lastmile_qr_scan", "android": "https://dc.lft.to/lastmile_qr_scan"}, "is_reserved": 0}, {"lon": -77.024334, "bike_id": "f157bfe5b22c6ded9dededee881baa93", "lat": 38.92053633333333, "fusion_lon": 0.0, "fusion_lat": 0.0, "type": "electric_scooter", "name": "f157bfe5b22c6ded9dededee881baa93", "is_disabled": 0, "rental_uris": {"ios": "https://dc.lft.to/lastmile_qr_scan", "android": "https://dc.lft.to/lastmile_qr_scan"}, "is_reserved": 0}, {"lon": -77.03921016666666, "bike_id": "e21d56f3cc558186a4072fc5931b2682", "lat": 38.899646833333335, "fusion_lon": 0.0, "fusion_lat": 0.0, "type": "electric_scooter", "name": "e21d56f3cc558186a4072fc5931b2682", "is_disabled": 0, "rental_uris": {"ios": "https://dc.lft.to/lastmile_qr_scan", "android": "https://dc.lft.to/lastmile_qr_scan"}, "is_reserved": 0}, {"lon": -77.04315366666667, "bike_id": "0728f30161ccffa93496c494341661d6", "lat": 38.90355533333334, "fusion_lon": 0.0, "fusion_lat": 0.0, "type": "electric_scooter", "name": "0728f30161ccffa93496c494341661d6", "is_disabled": 0, "rental_uris": {"ios": "https://dc.lft.to/lastmile_qr_scan", "android": "https://dc.lft.to/lastmile_qr_scan"}, "is_reserved": 0}, {"lon": -77.02561766666666, "bike_id": "95ec3472f7fe43d941b2bd96c3b39e56", "lat": 38.93354183333334, "fusion_lon": 0.0, "fusion_lat": 0.0, "type": "electric_scooter", "name": "95ec3472f7fe43d941b2bd96c3b39e56", "is_disabled": 0, "rental_uris": {"ios": "https://dc.lft.to/lastmile_qr_scan", "android": "https://dc.lft.to/lastmile_qr_scan"}, "is_reserved": 0}, {"lon": -77.06015816666667, "bike_id": "09cd3920791d9c2c59966fba1ef83ab3", "lat": 38.90501583333333, "fusion_lon": 0.0, "fusion_lat": 0.0, "type": "electric_scooter", "name": "09cd3920791d9c2c59966fba1ef83ab3", "is_disabled": 0, "rental_uris": {"ios": "https://dc.lft.to/lastmile_qr_scan", "android": "https://dc.lft.to/lastmile_qr_scan"}, "is_reserved": 0}, {"lon": -76.94633833333333, "bike_id": "179feaae2d44cb09a7a7f887b63898a8", "lat": 38.89833016666667, "fusion_lon": 0.0, "fusion_lat": 0.0, "type": "electric_scooter", "name": "179feaae2d44cb09a7a7f887b63898a8", "is_disabled": 0, "rental_uris": {"ios": "https://dc.lft.to/lastmile_qr_scan", "android": "https://dc.lft.to/lastmile_qr_scan"}, "is_reserved": 0}, {"lon": -77.00754866666666, "bike_id": "ef104deb91a262f65fa447cced9dad88", "lat": 38.870911166666666, "fusion_lon": 0.0, "fusion_lat": 0.0, "type": "electric_scooter", "name": "ef104deb91a262f65fa447cced9dad88", "is_disabled": 0, "rental_uris": {"ios": "https://dc.lft.to/lastmile_qr_scan", "android": "https://dc.lft.to/lastmile_qr_scan"}, "is_reserved": 0}, {"lon": -77.04030666666667, "bike_id": "a4bc5cd093c7607c46d0ce3671480cc8", "lat": 38.9240775, "fusion_lon": 0.0, "fusion_lat": 0.0, "type": "electric_scooter", "name": "a4bc5cd093c7607c46d0ce3671480cc8", "is_disabled": 0, "rental_uris": {"ios": "https://dc.lft.to/lastmile_qr_scan", "android": "https://dc.lft.to/lastmile_qr_scan"}, "is_reserved": 0}, {"lon": -77.02259633333334, "bike_id": "1382d7b63c3346a1f2290c8030d5241f", "lat": 38.92896066666667, "fusion_lon": 0.0, "fusion_lat": 0.0, "type": "electric_scooter", "name": "1382d7b63c3346a1f2290c8030d5241f", "is_disabled": 0, "rental_uris": {"ios": "https://dc.lft.to/lastmile_qr_scan", "android": "https://dc.lft.to/lastmile_qr_scan"}, "is_reserved": 0}, {"lon": -77.02157633333333, "bike_id": "a7863812449cdbf83a16109b431317aa", "lat": 38.90259916666667, "fusion_lon": 0.0, "fusion_lat": 0.0, "type": "electric_scooter", "name": "a7863812449cdbf83a16109b431317aa", "is_disabled": 0, "rental_uris": {"ios": "https://dc.lft.to/lastmile_qr_scan", "android": "https://dc.lft.to/lastmile_qr_scan"}, "is_reserved": 0}, {"lon": -77.02164733333333, "bike_id": "a49c6b2d03a83017cb43d250cc4bdbae", "lat": 38.894900166666666, "fusion_lon": 0.0, "fusion_lat": 0.0, "type": "electric_scooter", "name": "a49c6b2d03a83017cb43d250cc4bdbae", "is_disabled": 0, "rental_uris": {"ios": "https://dc.lft.to/lastmile_qr_scan", "android": "https://dc.lft.to/lastmile_qr_scan"}, "is_reserved": 0}, {"lon": -76.96532866666666, "bike_id": "0824eef9becd2d648e22c91dc5c89912", "lat": 38.8747945, "fusion_lon": 0.0, "fusion_lat": 0.0, "type": "electric_scooter", "name": "0824eef9becd2d648e22c91dc5c89912", "is_disabled": 0, "rental_uris": {"ios": "https://dc.lft.to/lastmile_qr_scan", "android": "https://dc.lft.to/lastmile_qr_scan"}, "is_reserved": 0}, {"lon": -77.07226183333333, "bike_id": "36fa68e14717d7e6ac769f24a9c81ee7", "lat": 38.92262866666667, "fusion_lon": 0.0, "fusion_lat": 0.0, "type": "electric_scooter", "name": "36fa68e14717d7e6ac769f24a9c81ee7", "is_disabled": 0, "rental_uris": {"ios": "https://dc.lft.to/lastmile_qr_scan", "android": "https://dc.lft.to/lastmile_qr_scan"}, "is_reserved": 0}, {"lon": -77.0400535, "bike_id": "2b8a625b0cf34c91344e8fdee8e13ed6", "lat": 38.903603333333336, "fusion_lon": 0.0, "fusion_lat": 0.0, "type": "electric_scooter", "name": "2b8a625b0cf34c91344e8fdee8e13ed6", "is_disabled": 0, "rental_uris": {"ios": "https://dc.lft.to/lastmile_qr_scan", "android": "https://dc.lft.to/lastmile_qr_scan"}, "is_reserved": 0}, {"lon": -76.98389233333333, "bike_id": "23df4b1604549b0119f31862a043679f", "lat": 38.8988475, "fusion_lon": 0.0, "fusion_lat": 0.0, "type": "electric_bike", "name": "23df4b1604549b0119f31862a043679f", "is_disabled": 0, "rental_uris": {"ios": "https://dc.lft.to/lastmile_qr_scan", "android": "https://dc.lft.to/lastmile_qr_scan"}, "is_reserved": 0}, {"lon": -77.0235875, "bike_id": "2237383c72eb8619d65e7c5685dc8094", "lat": 38.92225716666667, "fusion_lon": 0.0, "fusion_lat": 0.0, "type": "electric_scooter", "name": "2237383c72eb8619d65e7c5685dc8094", "is_disabled": 0, "rental_uris": {"ios": "https://dc.lft.to/lastmile_qr_scan", "android": "https://dc.lft.to/lastmile_qr_scan"}, "is_reserved": 0}, {"lon": -77.00046533333334, "bike_id": "e3c687979dfdba0d7fdeced92dd0e307", "lat": 38.9239835, "fusion_lon": 0.0, "fusion_lat": 0.0, "type": "electric_scooter", "name": "e3c687979dfdba0d7fdeced92dd0e307", "is_disabled": 0, "rental_uris": {"ios": "https://dc.lft.to/lastmile_qr_scan", "android": "https://dc.lft.to/lastmile_qr_scan"}, "is_reserved": 0}, {"lon": -76.94068516666667, "bike_id": "9d9749adb6b8a8f6b299bd021db3a8f8", "lat": 38.8931895, "fusion_lon": 0.0, "fusion_lat": 0.0, "type": "electric_scooter", "name": "9d9749adb6b8a8f6b299bd021db3a8f8", "is_disabled": 0, "rental_uris": {"ios": "https://dc.lft.to/lastmile_qr_scan", "android": "https://dc.lft.to/lastmile_qr_scan"}, "is_reserved": 0}, {"lon": -76.9980735, "bike_id": "e88aca0c6e39735e9fb79897cf06eae1", "lat": 38.82914533333334, "fusion_lon": 0.0, "fusion_lat": 0.0, "type": "electric_bike", "name": "e88aca0c6e39735e9fb79897cf06eae1", "is_disabled": 0, "rental_uris": {"ios": "https://dc.lft.to/lastmile_qr_scan", "android": "https://dc.lft.to/lastmile_qr_scan"}, "is_reserved": 0}, {"lon": -77.03203916666666, "bike_id": "b79fc9bcd7fb9cde4b96973c8014b359", "lat": 38.906927333333336, "fusion_lon": 0.0, "fusion_lat": 0.0, "type": "electric_scooter", "name": "b79fc9bcd7fb9cde4b96973c8014b359", "is_disabled": 0, "rental_uris": {"ios": "https://dc.lft.to/lastmile_qr_scan", "android": "https://dc.lft.to/lastmile_qr_scan"}, "is_reserved": 0}, {"lon": -77.02287083333333, "bike_id": "bec9e69fe9b122db5c6e42492b31fe42", "lat": 38.909706166666666, "fusion_lon": 0.0, "fusion_lat": 0.0, "type": "electric_scooter", "name": "bec9e69fe9b122db5c6e42492b31fe42", "is_disabled": 0, "rental_uris": {"ios": "https://dc.lft.to/lastmile_qr_scan", "android": "https://dc.lft.to/lastmile_qr_scan"}, "is_reserved": 0}, {"lon": -77.03015983333333, "bike_id": "474cb70b0c7a4e82fd80509d62048452", "lat": 38.884461, "fusion_lon": 0.0, "fusion_lat": 0.0, "type": "electric_scooter", "name": "474cb70b0c7a4e82fd80509d62048452", "is_disabled": 0, "rental_uris": {"ios": "https://dc.lft.to/lastmile_qr_scan", "android": "https://dc.lft.to/lastmile_qr_scan"}, "is_reserved": 0}, {"lon": -77.04048433333334, "bike_id": "daff6dfb1f005eba21930181bb89c574", "lat": 38.9287555, "fusion_lon": 0.0, "fusion_lat": 0.0, "type": "electric_scooter", "name": "daff6dfb1f005eba21930181bb89c574", "is_disabled": 0, "rental_uris": {"ios": "https://dc.lft.to/lastmile_qr_scan", "android": "https://dc.lft.to/lastmile_qr_scan"}, "is_reserved": 0}, {"lon": -77.0231, "bike_id": "1f7cb6037cc8d2734cd0ed84c8ee180a", "lat": 38.8948425, "fusion_lon": 0.0, "fusion_lat": 0.0, "type": "electric_scooter", "name": "1f7cb6037cc8d2734cd0ed84c8ee180a", "is_disabled": 0, "rental_uris": {"ios": "https://dc.lft.to/lastmile_qr_scan", "android": "https://dc.lft.to/lastmile_qr_scan"}, "is_reserved": 0}, {"lon": -77.00603616666666, "bike_id": "6e6677d6e96bff14d7d750551fb31057", "lat": 38.892098, "fusion_lon": 0.0, "fusion_lat": 0.0, "type": "electric_scooter", "name": "6e6677d6e96bff14d7d750551fb31057", "is_disabled": 0, "rental_uris": {"ios": "https://dc.lft.to/lastmile_qr_scan", "android": "https://dc.lft.to/lastmile_qr_scan"}, "is_reserved": 0}, {"lon": -77.02973016666667, "bike_id": "fc505a6afc4529edc2994cb0182f8745", "lat": 38.917207833333336, "fusion_lon": 0.0, "fusion_lat": 0.0, "type": "electric_scooter", "name": "fc505a6afc4529edc2994cb0182f8745", "is_disabled": 0, "rental_uris": {"ios": "https://dc.lft.to/lastmile_qr_scan", "android": "https://dc.lft.to/lastmile_qr_scan"}, "is_reserved": 0}, {"lon": -77.02696883333333, "bike_id": "df6a380cad097ba4918832d7a95785e8", "lat": 38.926624, "fusion_lon": 0.0, "fusion_lat": 0.0, "type": "electric_scooter", "name": "df6a380cad097ba4918832d7a95785e8", "is_disabled": 0, "rental_uris": {"ios": "https://dc.lft.to/lastmile_qr_scan", "android": "https://dc.lft.to/lastmile_qr_scan"}, "is_reserved": 0}, {"lon": -77.11708816666666, "bike_id": "723dfbaf5f55db5efc44cbfc0d6e3529", "lat": 38.86745416666667, "fusion_lon": 0.0, "fusion_lat": 0.0, "type": "electric_bike", "name": "723dfbaf5f55db5efc44cbfc0d6e3529", "is_disabled": 0, "rental_uris": {"ios": "https://dc.lft.to/lastmile_qr_scan", "android": "https://dc.lft.to/lastmile_qr_scan"}, "is_reserved": 0}, {"lon": -76.9575125, "bike_id": "3ded165df9dc3d9e8c35a98f68061d39", "lat": 38.8842795, "fusion_lon": 0.0, "fusion_lat": 0.0, "type": "electric_scooter", "name": "3ded165df9dc3d9e8c35a98f68061d39", "is_disabled": 0, "rental_uris": {"ios": "https://dc.lft.to/lastmile_qr_scan", "android": "https://dc.lft.to/lastmile_qr_scan"}, "is_reserved": 0}, {"lon": -77.0419615, "bike_id": "bb873f150f2a2c9ec156308c58243404", "lat": 38.899803166666665, "fusion_lon": 0.0, "fusion_lat": 0.0, "type": "electric_scooter", "name": "bb873f150f2a2c9ec156308c58243404", "is_disabled": 0, "rental_uris": {"ios": "https://dc.lft.to/lastmile_qr_scan", "android": "https://dc.lft.to/lastmile_qr_scan"}, "is_reserved": 0}, {"lon": -77.0487545, "bike_id": "a1eb3daffcdbe6252e150736f371cd3a", "lat": 38.89233433333333, "fusion_lon": 0.0, "fusion_lat": 0.0, "type": "electric_scooter", "name": "a1eb3daffcdbe6252e150736f371cd3a", "is_disabled": 0, "rental_uris": {"ios": "https://dc.lft.to/lastmile_qr_scan", "android": "https://dc.lft.to/lastmile_qr_scan"}, "is_reserved": 0}, {"lon": -77.016159, "bike_id": "3e6a26f52530e60cf56438d3adbf8b6d", "lat": 38.906085833333336, "fusion_lon": 0.0, "fusion_lat": 0.0, "type": "electric_scooter", "name": "3e6a26f52530e60cf56438d3adbf8b6d", "is_disabled": 0, "rental_uris": {"ios": "https://dc.lft.to/lastmile_qr_scan", "android": "https://dc.lft.to/lastmile_qr_scan"}, "is_reserved": 0}, {"lon": -77.03638366666667, "bike_id": "cab9178483c96fefa98c12586c419b10", "lat": 38.924635333333335, "fusion_lon": 0.0, "fusion_lat": 0.0, "type": "electric_scooter", "name": "cab9178483c96fefa98c12586c419b10", "is_disabled": 0, "rental_uris": {"ios": "https://dc.lft.to/lastmile_qr_scan", "android": "https://dc.lft.to/lastmile_qr_scan"}, "is_reserved": 0}, {"lon": -77.03641833333333, "bike_id": "939e6961ef64d0df3b42c815ef6814e8", "lat": 38.903497, "fusion_lon": 0.0, "fusion_lat": 0.0, "type": "electric_scooter", "name": "939e6961ef64d0df3b42c815ef6814e8", "is_disabled": 0, "rental_uris": {"ios": "https://dc.lft.to/lastmile_qr_scan", "android": "https://dc.lft.to/lastmile_qr_scan"}, "is_reserved": 0}, {"lon": -77.09493633333334, "bike_id": "728eb1dd41c2ecf06d663e9cb6a9f292", "lat": 38.80764766666667, "fusion_lon": 0.0, "fusion_lat": 0.0, "type": "electric_bike", "name": "728eb1dd41c2ecf06d663e9cb6a9f292", "is_disabled": 0, "rental_uris": {"ios": "https://dc.lft.to/lastmile_qr_scan", "android": "https://dc.lft.to/lastmile_qr_scan"}, "is_reserved": 0}, {"lon": -77.0415485, "bike_id": "fa0a6dcad2487eb2b1d230590ebea199", "lat": 38.918007, "fusion_lon": 0.0, "fusion_lat": 0.0, "type": "electric_scooter", "name": "fa0a6dcad2487eb2b1d230590ebea199", "is_disabled": 0, "rental_uris": {"ios": "https://dc.lft.to/lastmile_qr_scan", "android": "https://dc.lft.to/lastmile_qr_scan"}, "is_reserved": 0}, {"lon": -76.98837183333333, "bike_id": "439dc07e67b5362997faaca15ed58c9b", "lat": 38.901270333333336, "fusion_lon": 0.0, "fusion_lat": 0.0, "type": "electric_scooter", "name": "439dc07e67b5362997faaca15ed58c9b", "is_disabled": 0, "rental_uris": {"ios": "https://dc.lft.to/lastmile_qr_scan", "android": "https://dc.lft.to/lastmile_qr_scan"}, "is_reserved": 0}, {"lon": -77.024089, "bike_id": "78e7d906113da16da381e7765ec014c8", "lat": 38.921445, "fusion_lon": 0.0, "fusion_lat": 0.0, "type": "electric_scooter", "name": "78e7d906113da16da381e7765ec014c8", "is_disabled": 0, "rental_uris": {"ios": "https://dc.lft.to/lastmile_qr_scan", "android": "https://dc.lft.to/lastmile_qr_scan"}, "is_reserved": 0}, {"lon": -77.00612133333334, "bike_id": "f39da1ece92d5f7ea32f72fa2e411449", "lat": 38.871796833333335, "fusion_lon": 0.0, "fusion_lat": 0.0, "type": "electric_scooter", "name": "f39da1ece92d5f7ea32f72fa2e411449", "is_disabled": 0, "rental_uris": {"ios": "https://dc.lft.to/lastmile_qr_scan", "android": "https://dc.lft.to/lastmile_qr_scan"}, "is_reserved": 0}, {"lon": -77.034413, "bike_id": "8fe065b6cd0c574cd7e0da697c2e525d", "lat": 38.909750833333334, "fusion_lon": 0.0, "fusion_lat": 0.0, "type": "electric_scooter", "name": "8fe065b6cd0c574cd7e0da697c2e525d", "is_disabled": 0, "rental_uris": {"ios": "https://dc.lft.to/lastmile_qr_scan", "android": "https://dc.lft.to/lastmile_qr_scan"}, "is_reserved": 0}, {"lon": -76.98928266666667, "bike_id": "f391aa37d89e9900f12cdf2f96cfb6e7", "lat": 38.9018625, "fusion_lon": 0.0, "fusion_lat": 0.0, "type": "electric_scooter", "name": "f391aa37d89e9900f12cdf2f96cfb6e7", "is_disabled": 0, "rental_uris": {"ios": "https://dc.lft.to/lastmile_qr_scan", "android": "https://dc.lft.to/lastmile_qr_scan"}, "is_reserved": 0}, {"lon": -77.04103166666667, "bike_id": "69dfd58881dd850b818d6a4502725e53", "lat": 38.923145166666664, "fusion_lon": 0.0, "fusion_lat": 0.0, "type": "electric_scooter", "name": "69dfd58881dd850b818d6a4502725e53", "is_disabled": 0, "rental_uris": {"ios": "https://dc.lft.to/lastmile_qr_scan", "android": "https://dc.lft.to/lastmile_qr_scan"}, "is_reserved": 0}, {"lon": -77.05687983333333, "bike_id": "9ec5396e31674e53e862c23dc663c593", "lat": 38.905134833333335, "fusion_lon": 0.0, "fusion_lat": 0.0, "type": "electric_bike", "name": "9ec5396e31674e53e862c23dc663c593", "is_disabled": 0, "rental_uris": {"ios": "https://dc.lft.to/lastmile_qr_scan", "android": "https://dc.lft.to/lastmile_qr_scan"}, "is_reserved": 0}, {"lon": -76.95746383333334, "bike_id": "54bf0e4193157d27aaa1e9f60aa168b6", "lat": 38.88425633333333, "fusion_lon": 0.0, "fusion_lat": 0.0, "type": "electric_scooter", "name": "54bf0e4193157d27aaa1e9f60aa168b6", "is_disabled": 0, "rental_uris": {"ios": "https://dc.lft.to/lastmile_qr_scan", "android": "https://dc.lft.to/lastmile_qr_scan"}, "is_reserved": 0}, {"lon": -77.02973683333333, "bike_id": "19f692200835e0252119f31a2d4ac5de", "lat": 38.912464, "fusion_lon": 0.0, "fusion_lat": 0.0, "type": "electric_scooter", "name": "19f692200835e0252119f31a2d4ac5de", "is_disabled": 0, "rental_uris": {"ios": "https://dc.lft.to/lastmile_qr_scan", "android": "https://dc.lft.to/lastmile_qr_scan"}, "is_reserved": 0}, {"lon": -77.05023933333334, "bike_id": "954b630356b7d8258edde0fe935c8ddf", "lat": 38.90141, "fusion_lon": 0.0, "fusion_lat": 0.0, "type": "electric_scooter", "name": "954b630356b7d8258edde0fe935c8ddf", "is_disabled": 0, "rental_uris": {"ios": "https://dc.lft.to/lastmile_qr_scan", "android": "https://dc.lft.to/lastmile_qr_scan"}, "is_reserved": 0}, {"lon": -77.03049083333333, "bike_id": "7820316b5ebb75415efd1bde753fa7d8", "lat": 38.8842755, "fusion_lon": 0.0, "fusion_lat": 0.0, "type": "electric_scooter", "name": "7820316b5ebb75415efd1bde753fa7d8", "is_disabled": 0, "rental_uris": {"ios": "https://dc.lft.to/lastmile_qr_scan", "android": "https://dc.lft.to/lastmile_qr_scan"}, "is_reserved": 0}, {"lon": -77.04159766666666, "bike_id": "f838547cf413ceaae7ec9d775f3da852", "lat": 38.91248366666667, "fusion_lon": 0.0, "fusion_lat": 0.0, "type": "electric_scooter", "name": "f838547cf413ceaae7ec9d775f3da852", "is_disabled": 0, "rental_uris": {"ios": "https://dc.lft.to/lastmile_qr_scan", "android": "https://dc.lft.to/lastmile_qr_scan"}, "is_reserved": 0},