{"data": {"bikes": [{"lat": 38.88671083333333, "is_disabled": 0, "type": "electric_scooter", "lon": -77.02591766666667, "bike_id": "f28c3b374917fe5fe54ba8823d568a1a", "fusion_lat": 0.0, "name": "f28c3b374917fe5fe54ba8823d568a1a", "is_reserved": 0, "rental_uris": {"android": "https://dc.lft.to/lastmile_qr_scan", "ios": "https://dc.lft.to/lastmile_qr_scan"}, "fusion_lon": 0.0}, {"lat": 38.93251516666667, "is_disabled": 0, "type": "electric_scooter", "lon": -77.066558, "bike_id": "a552e38e6753ed7c32af5d476306b1c6", "fusion_lat": 0.0, "name": "a552e38e6753ed7c32af5d476306b1c6", "is_reserved": 0, "rental_uris": {"android": "https://dc.lft.to/lastmile_qr_scan", "ios": "https://dc.lft.to/lastmile_qr_scan"}, "fusion_lon": 0.0}, {"lat": 38.93616016666667, "is_disabled": 0, "type": "electric_scooter", "lon": -77.0574755, "bike_id": "10f1ba25505b285e64a8bbecaf647f23", "fusion_lat": 0.0, "name": "10f1ba25505b285e64a8bbecaf647f23", "is_reserved": 0, "rental_uris": {"android": "https://dc.lft.to/lastmile_qr_scan", "ios": "https://dc.lft.to/lastmile_qr_scan"}, "fusion_lon": 0.0}, {"lat": 38.879906, "is_disabled": 0, "type": "electric_scooter", "lon": -76.98679366666667, "bike_id": "4f025caba8b51c3c407ae964ce790242", "fusion_lat": 0.0, "name": "4f025caba8b51c3c407ae964ce790242", "is_reserved": 0, "rental_uris": {"android": "https://dc.lft.to/lastmile_qr_scan", "ios": "https://dc.lft.to/lastmile_qr_scan"}, "fusion_lon": 0.0}, {"lat": 38.90014216666667, "is_disabled": 0, "type": "electric_scooter", "lon": -77.01199116666666, "bike_id": "0789d49423bbb2a3e0dd4789c62bf1a9", "fusion_lat": 0.0, "name": "0789d49423bbb2a3e0dd4789c62bf1a9", "is_reserved": 0, "rental_uris": {"android": "https://dc.lft.to/lastmile_qr_scan", "ios": "https://dc.lft.to/lastmile_qr_scan"}, "fusion_lon": 0.0}, {"lat": 38.9261905, "is_disabled": 0, "type": "electric_scooter", "lon": -77.037863, "bike_id": "333536b7bbecd1d06fc4ddc82141f82e", "fusion_lat": 0.0, "name": "333536b7bbecd1d06fc4ddc82141f82e", "is_reserved": 0, "rental_uris": {"android": "https://dc.lft.to/lastmile_qr_scan", "ios": "https://dc.lft.to/lastmile_qr_scan"}, "fusion_lon": 0.0}, {"lat": 38.91769333333333, "is_disabled": 0, "type": "electric_scooter", "lon": -77.0409965, "bike_id": "b309a28c81c0815b038ad985a1b126d2", "fusion_lat": 0.0, "name": "b309a28c81c0815b038ad985a1b126d2", "is_reserved": 0, "rental_uris": {"android": "https://dc.lft.to/lastmile_qr_scan", "ios": "https://dc.lft.to/lastmile_qr_scan"}, "fusion_lon": 0.0}, {"lat": 38.909666, "is_disabled": 0, "type": "electric_scooter", "lon": -77.03945833333333, "bike_id": "383e241fe89b6eece09328ae59c1f536", "fusion_lat": 0.0, "name": "383e241fe89b6eece09328ae59c1f536", "is_reserved": 0, "rental_uris": {"android": "https://dc.lft.to/lastmile_qr_scan", "ios": "https://dc.lft.to/lastmile_qr_scan"}, "fusion_lon": 0.0}, {"lat": 38.8747395, "is_disabled": 0, "type": "electric_scooter", "lon": -77.010691, "bike_id": "75775ec0f295f722b31db357af19ecf8", "fusion_lat": 0.0, "name": "75775ec0f295f722b31db357af19ecf8", "is_reserved": 0, "rental_uris": {"android": "https://dc.lft.to/lastmile_qr_scan", "ios": "https://dc.lft.to/lastmile_qr_scan"}, "fusion_lon": 0.0}, {"lat": 38.87851966666667, "is_disabled": 0, "type": "electric_scooter", "lon": -77.00732333333333, "bike_id": "cd6597386748c550c4a63535a6473856", "fusion_lat": 0.0, "name": "cd6597386748c550c4a63535a6473856", "is_reserved": 0, "rental_uris": {"android": "https://dc.lft.to/lastmile_qr_scan", "ios": "https://dc.lft.to/lastmile_qr_scan"}, "fusion_lon": 0.0}, {"lat": 38.9098795, "is_disabled": 0, "type": "electric_scooter", "lon": -77.031851, "bike_id": "2fa60d766afc05a8e5b2a8efca273327", "fusion_lat": 0.0, "name": "2fa60d766afc05a8e5b2a8efca273327", "is_reserved": 0, "rental_uris": {"android": "https://dc.lft.to/lastmile_qr_scan", "ios": "https://dc.lft.to/lastmile_qr_scan"}, "fusion_lon": 0.0}, {"lat": 38.902161666666665, "is_disabled": 0, "type": "electric_scooter", "lon": -77.02828633333333, "bike_id": "eb1380baf2f215c1033059206b8b43eb", "fusion_lat": 0.0, "name": "eb1380baf2f215c1033059206b8b43eb", "is_reserved": 0, "rental_uris": {"android": "https://dc.lft.to/lastmile_qr_scan", "ios": "https://dc.lft.to/lastmile_qr_scan"}, "fusion_lon": 0.0}, {"lat": 38.87728416666667, "is_disabled": 0, "type": "electric_bike", "lon": -76.98107666666667, "bike_id": "c0751effa79572aa90145bebf5791492", "fusion_lat": 0.0, "name": "c0751effa79572aa90145bebf5791492", "is_reserved": 0, "rental_uris": {"android": "https://dc.lft.to/lastmile_qr_scan", "ios": "https://dc.lft.to/lastmile_qr_scan"}, "fusion_lon": 0.0}, {"lat": 38.91464466666667, "is_disabled": 0, "type": "electric_scooter", "lon": -77.01794633333333, "bike_id": "edba9ee19c376b4748c7dff814b1d69c", "fusion_lat": 0.0, "name": "edba9ee19c376b4748c7dff814b1d69c", "is_reserved": 0, "rental_uris": {"android": "https://dc.lft.to/lastmile_qr_scan", "ios": "https://dc.lft.to/lastmile_qr_scan"}, "fusion_lon": 0.0}, {"lat": 38.83232683333333, "is_disabled": 0, "type": "electric_bike", "lon": -77.049694, "bike_id": "55b1df4e7d957312932ca51180d6ba65", "fusion_lat": 0.0, "name": "55b1df4e7d957312932ca51180d6ba65", "is_reserved": 0, "rental_uris": {"android": "https://dc.lft.to/lastmile_qr_scan", "ios": "https://dc.lft.to/lastmile_qr_scan"}, "fusion_lon": 0.0}, {"lat": 38.898731166666664, "is_disabled": 0, "type": "electric_scooter", "lon": -77.02020333333333, "bike_id": "d999abc31e086f56cd0913d641139c43", "fusion_lat": 0.0, "name": "d999abc31e086f56cd0913d641139c43", "is_reserved": 0, "rental_uris": {"android": "https://dc.lft.to/lastmile_qr_scan", "ios": "https://dc.lft.to/lastmile_qr_scan"}, "fusion_lon": 0.0}, {"lat": 38.881626833333335, "is_disabled": 0, "type": "electric_scooter", "lon": -76.99493183333334, "bike_id": "f1e8b642d5e95b77469e52fbad1c7b81", "fusion_lat": 0.0, "name": "f1e8b642d5e95b77469e52fbad1c7b81", "is_reserved": 0, "rental_uris": {"android": "https://dc.lft.to/lastmile_qr_scan", "ios": "https://dc.lft.to/lastmile_qr_scan"}, "fusion_lon": 0.0}, {"lat": 38.91560416666667, "is_disabled": 0, "type": "electric_scooter", "lon": -77.03321633333333, "bike_id": "c299c47c8e615498cca288fa042bda0c", "fusion_lat": 0.0, "name": "c299c47c8e615498cca288fa042bda0c", "is_reserved": 0, "rental_uris": {"android": "https://dc.lft.to/lastmile_qr_scan", "ios": "https://dc.lft.to/lastmile_qr_scan"}, "fusion_lon": 0.0}, {"lat": 38.876478666666664, "is_disabled": 0, "type": "electric_scooter", "lon": -77.0081075, "bike_id": "0379e4d28460f156a829b8f7077ae826", "fusion_lat": 0.0, "name": "0379e4d28460f156a829b8f7077ae826", "is_reserved": 0, "rental_uris": {"android": "https://dc.lft.to/lastmile_qr_scan", "ios": "https://dc.lft.to/lastmile_qr_scan"}, "fusion_lon": 0.0}, {"lat": 38.92062166666667, "is_disabled": 0, "type": "electric_scooter", "lon": -77.04807616666666, "bike_id": "6b8db8345dc71da96b6b64e6716c8ca8", "fusion_lat": 0.0, "name": "6b8db8345dc71da96b6b64e6716c8ca8", "is_reserved": 0, "rental_uris": {"android": "https://dc.lft.to/lastmile_qr_scan", "ios": "https://dc.lft.to/lastmile_qr_scan"}, "fusion_lon": 0.0}, {"lat": 38.897512, "is_disabled": 0, "type": "electric_scooter", "lon": -77.01859333333333, "bike_id": "a48abe37131dec80125c750cc6531bec", "fusion_lat": 0.0, "name": "a48abe37131dec80125c750cc6531bec", "is_reserved": 0, "rental_uris": {"android": "https://dc.lft.to/lastmile_qr_scan", "ios": "https://dc.lft.to/lastmile_qr_scan"}, "fusion_lon": 0.0}, {"lat": 38.932322166666665, "is_disabled": 0, "type": "electric_scooter", "lon": -77.032693, "bike_id": "c74fbbe6f2580ff0fef9e46090bd192d", "fusion_lat": 0.0, "name": "c74fbbe6f2580ff0fef9e46090bd192d", "is_reserved": 0, "rental_uris": {"android": "https://dc.lft.to/lastmile_qr_scan", "ios": "https://dc.lft.to/lastmile_qr_scan"}, "fusion_lon": 0.0}, {"lat": 38.900313833333335, "is_disabled": 0, "type": "electric_scooter", "lon": -77.0020925, "bike_id": "2d04fe84fb4b9062e896a226320e1206", "fusion_lat": 0.0, "name": "2d04fe84fb4b9062e896a226320e1206", "is_reserved": 0, "rental_uris": {"android": "https://dc.lft.to/lastmile_qr_scan", "ios": "https://dc.lft.to/lastmile_qr_scan"}, "fusion_lon": 0.0}, {"lat": 38.907772, "is_disabled": 0, "type": "electric_scooter", "lon": -77.03858516666666, "bike_id": "0306ddc8a986689ec524fcc263057bd7", "fusion_lat": 0.0, "name": "0306ddc8a986689ec524fcc263057bd7", "is_reserved": 0, "rental_uris": {"android": "https://dc.lft.to/lastmile_qr_scan", "ios": "https://dc.lft.to/lastmile_qr_scan"}, "fusion_lon": 0.0}, {"lat": 38.90386933333333, "is_disabled": 0, "type": "electric_scooter", "lon": -77.01771316666667, "bike_id": "a6000589fdd1f7963c5f850ef490f482", "fusion_lat": 0.0, "name": "a6000589fdd1f7963c5f850ef490f482", "is_reserved": 0, "rental_uris": {"android": "https://dc.lft.to/lastmile_qr_scan", "ios": "https://dc.lft.to/lastmile_qr_scan"}, "fusion_lon": 0.0}, {"lat": 38.92085466666666, "is_disabled": 0, "type": "electric_scooter", "lon": -77.04202216666667, "bike_id": "4acd1eba3a8e0439789792f5349923cd", "fusion_lat": 0.0, "name": "4acd1eba3a8e0439789792f5349923cd", "is_reserved": 0, "rental_uris": {"android": "https://dc.lft.to/lastmile_qr_scan", "ios": "https://dc.lft.to/lastmile_qr_scan"}, "fusion_lon": 0.0}, {"lat": 38.9287005, "is_disabled": 0, "type": "electric_scooter", "lon": -77.0344375, "bike_id": "0d52f8088e7d39b3f4e475c6342bfdae", "fusion_lat": 0.0, "name": "0d52f8088e7d39b3f4e475c6342bfdae", "is_reserved": 0, "rental_uris": {"android": "https://dc.lft.to/lastmile_qr_scan", "ios": "https://dc.lft.to/lastmile_qr_scan"}, "fusion_lon": 0.0}, {"lat": 38.9218315, "is_disabled": 0, "type": "electric_scooter", "lon": -77.04705083333333, "bike_id": "ef96b57fe1051fe92b731ce8c53cdc9c", "fusion_lat": 0.0, "name": "ef96b57fe1051fe92b731ce8c53cdc9c", "is_reserved": 0, "rental_uris": {"android": "https://dc.lft.to/lastmile_qr_scan", "ios": "https://dc.lft.to/lastmile_qr_scan"}, "fusion_lon": 0.0}, {"lat": 38.92024766666667, "is_disabled": 0, "type": "electric_scooter", "lon": -77.038542, "bike_id": "8cc44210b81d25ede0264fc7fe54140e", "fusion_lat": 0.0, "name": "8cc44210b81d25ede0264fc7fe54140e", "is_reserved": 0, "rental_uris": {"android": "https://dc.lft.to/lastmile_qr_scan", "ios": "https://dc.lft.to/lastmile_qr_scan"}, "fusion_lon": 0.0}, {"lat": 38.92604516666667, "is_disabled": 0, "type": "electric_scooter", "lon": -77.05689633333333, "bike_id": "63bb845da5e29a7985d49a1def572c22", "fusion_lat": 0.0, "name": "63bb845da5e29a7985d49a1def572c22", "is_reserved": 0, "rental_uris": {"android": "https://dc.lft.to/lastmile_qr_scan", "ios": "https://dc.lft.to/lastmile_qr_scan"}, "fusion_lon": 0.0}, {"lat": 38.9540345, "is_disabled": 0, "type": "electric_scooter", "lon": -77.027481, "bike_id": "2f0289ce4fff7111d157bd2730dc57b1", "fusion_lat": 0.0, "name": "2f0289ce4fff7111d157bd2730dc57b1", "is_reserved": 0, "rental_uris": {"android": "https://dc.lft.to/lastmile_qr_scan", "ios": "https://dc.lft.to/lastmile_qr_scan"}, "fusion_lon": 0.0}, {"lat": 38.90287383333333, "is_disabled": 0, "type": "electric_scooter", "lon": -77.0179335, "bike_id": "bfdabadf55787376b9833ab4eaeebfeb", "fusion_lat": 0.0, "name": "bfdabadf55787376b9833ab4eaeebfeb", "is_reserved": 0, "rental_uris": {"android": "https://dc.lft.to/lastmile_qr_scan", "ios": "https://dc.lft.to/lastmile_qr_scan"}, "fusion_lon": 0.0}, {"lat": 38.897682833333334, "is_disabled": 0, "type": "electric_scooter", "lon": -77.02953166666667, "bike_id": "1869350cbbf916e5014d2b374357f69c", "fusion_lat": 0.0, "name": "1869350cbbf916e5014d2b374357f69c", "is_reserved": 0, "rental_uris": {"android": "https://dc.lft.to/lastmile_qr_scan", "ios": "https://dc.lft.to/lastmile_qr_scan"}, "fusion_lon": 0.0}, {"lat": 38.912724, "is_disabled": 0, "type": "electric_scooter", "lon": -77.03845766666667, "bike_id": "a13601316a68f60454ab1a83e4af72e9", "fusion_lat": 0.0, "name": "a13601316a68f60454ab1a83e4af72e9", "is_reserved": 0, "rental_uris": {"android": "https://dc.lft.to/lastmile_qr_scan", "ios": "https://dc.lft.to/lastmile_qr_scan"}, "fusion_lon": 0.0}, {"lat": 38.8778915, "is_disabled": 0, "type": "electric_bike", "lon": -77.02325766666667, "bike_id": "b15ba3acf4dd7b53d19211817965f16b", "fusion_lat": 0.0, "name": "b15ba3acf4dd7b53d19211817965f16b", "is_reserved": 0, "rental_uris": {"android": "https://dc.lft.to/lastmile_qr_scan", "ios": "https://dc.lft.to/lastmile_qr_scan"}, "fusion_lon": 0.0}, {"lat": 38.90454966666667, "is_disabled": 0, "type": "electric_scooter", "lon": -76.99454083333333, "bike_id": "72355ed9af00c063375e0fe71b062ffe", "fusion_lat": 0.0, "name": "72355ed9af00c063375e0fe71b062ffe", "is_reserved": 0, "rental_uris": {"android": "https://dc.lft.to/lastmile_qr_scan", "ios": "https://dc.lft.to/lastmile_qr_scan"}, "fusion_lon": 0.0}, {"lat": 38.90980883333334, "is_disabled": 0, "type": "electric_scooter", "lon": -77.03374916666667, "bike_id": "fadac50bafc85eda36cc962315fcdfd9", "fusion_lat": 0.0, "name": "fadac50bafc85eda36cc962315fcdfd9", "is_reserved": 0, "rental_uris": {"android": "https://dc.lft.to/lastmile_qr_scan", "ios": "https://dc.lft.to/lastmile_qr_scan"}, "fusion_lon": 0.0}, {"lat": 38.913396166666665, "is_disabled": 0, "type": "electric_scooter", "lon": -77.04051583333333, "bike_id": "eb497841d3a6a3d535fa77719ef1a8dd", "fusion_lat": 0.0, "name": "eb497841d3a6a3d535fa77719ef1a8dd", "is_reserved": 0, "rental_uris": {"android": "https://dc.lft.to/lastmile_qr_scan", "ios": "https://dc.lft.to/lastmile_qr_scan"}, "fusion_lon": 0.0}, {"lat": 38.930985166666666, "is_disabled": 0, "type": "electric_scooter", "lon": -77.024962, "bike_id": "78ce05745521b49577f609322446bdb2", "fusion_lat": 0.0, "name": "78ce05745521b49577f609322446bdb2", "is_reserved": 0, "rental_uris": {"android": "https://dc.lft.to/lastmile_qr_scan", "ios": "https://dc.lft.to/lastmile_qr_scan"}, "fusion_lon": 0.0}, {"lat": 39.0000745, "is_disabled": 0, "type": "electric_bike", "lon": -76.91073866666666, "bike_id": "760d2dd079a10781806d04f820afbfe8", "fusion_lat": 0.0, "name": "760d2dd079a10781806d04f820afbfe8", "is_reserved": 0, "rental_uris": {"android": "https://dc.lft.to/lastmile_qr_scan", "ios": "https://dc.lft.to/lastmile_qr_scan"}, "fusion_lon": 0.0}, {"lat": 38.9155105, "is_disabled": 0, "type": "electric_scooter", "lon": -77.01237766666667, "bike_id": "8cf72d8ad0d2612cad4d6c53e41e3c1a", "fusion_lat": 0.0, "name": "8cf72d8ad0d2612cad4d6c53e41e3c1a", "is_reserved": 0, "rental_uris": {"android": "https://dc.lft.to/lastmile_qr_scan", "ios": "https://dc.lft.to/lastmile_qr_scan"}, "fusion_lon": 0.0}, {"lat": 38.90088166666666, "is_disabled": 0, "type": "electric_scooter", "lon": -77.04907666666666, "bike_id": "f24ddf1346067731702ac80ec66ab175", "fusion_lat": 0.0, "name": "f24ddf1346067731702ac80ec66ab175", "is_reserved": 0, "rental_uris": {"android": "https://dc.lft.to/lastmile_qr_scan", "ios": "https://dc.lft.to/lastmile_qr_scan"}, "fusion_lon": 0.0}, {"lat": 38.951936333333336, "is_disabled": 0, "type": "electric_bike", "lon": -76.96722466666667, "bike_id": "5e84947751089d815522d58537e3d822", "fusion_lat": 0.0, "name": "5e84947751089d815522d58537e3d822", "is_reserved": 0, "rental_uris": {"android": "https://dc.lft.to/lastmile_qr_scan", "ios": "https://dc.lft.to/lastmile_qr_scan"}, "fusion_lon": 0.0}, {"lat": 38.8638555, "is_disabled": 0, "type": "electric_bike", "lon": -76.98989983333334, "bike_id": "bf6496622fea49fa6f131ac378e55b1b", "fusion_lat": 0.0, "name": "bf6496622fea49fa6f131ac378e55b1b", "is_reserved": 0, "rental_uris": {"android": "https://dc.lft.to/lastmile_qr_scan", "ios": "https://dc.lft.to/lastmile_qr_scan"}, "fusion_lon": 0.0}, {"lat": 38.932963666666666, "is_disabled": 0, "type": "electric_scooter", "lon": -77.02840583333334, "bike_id": "e6f34145ec10823543659b2af3505b47", "fusion_lat": 0.0, "name": "e6f34145ec10823543659b2af3505b47", "is_reserved": 0, "rental_uris": {"android": "https://dc.lft.to/lastmile_qr_scan", "ios": "https://dc.lft.to/lastmile_qr_scan"}, "fusion_lon": 0.0}, {"lat": 38.90686066666667, "is_disabled": 0, "type": "electric_scooter", "lon": -77.063488, "bike_id": "d46e1ebe58e3178ef3901002d6018665", "fusion_lat": 0.0, "name": "d46e1ebe58e3178ef3901002d6018665", "is_reserved": 0, "rental_uris": {"android": "https://dc.lft.to/lastmile_qr_scan", "ios": "https://dc.lft.to/lastmile_qr_scan"}, "fusion_lon": 0.0}, {"lat": 38.92796083333333, "is_disabled": 0, "type": "electric_scooter", "lon": -77.0552605, "bike_id": "d8f8e7f53dbff678e35abe4f292da477", "fusion_lat": 0.0, "name": "d8f8e7f53dbff678e35abe4f292da477", "is_reserved": 0, "rental_uris": {"android": "https://dc.lft.to/lastmile_qr_scan", "ios": "https://dc.lft.to/lastmile_qr_scan"}, "fusion_lon": 0.0}, {"lat": 38.865529333333335, "is_disabled": 0, "type": "electric_scooter", "lon": -76.97418583333334, "bike_id": "d0b910f38a3f87c7bc19f71a7da1986a", "fusion_lat": 0.0, "name": "d0b910f38a3f87c7bc19f71a7da1986a", "is_reserved": 0, "rental_uris": {"android": "https://dc.lft.to/lastmile_qr_scan", "ios": "https://dc.lft.to/lastmile_qr_scan"}, "fusion_lon": 0.0}, {"lat": 38.9228685, "is_disabled": 0, "type": "electric_scooter", "lon": -77.024279, "bike_id": "ffab439d18ac303e31bdaefb0fe1ae3e", "fusion_lat": 0.0, "name": "ffab439d18ac303e31bdaefb0fe1ae3e", "is_reserved": 0, "rental_uris": {"android": "https://dc.lft.to/lastmile_qr_scan", "ios": "https://dc.lft.to/lastmile_qr_scan"}, "fusion_lon": 0.0}, {"lat": 38.8762805, "is_disabled": 0, "type": "electric_scooter", "lon": -76.96522916666666, "bike_id": "bd1bc3c83151a8bd045cc9e12870a8f0", "fusion_lat": 0.0, "name": "bd1bc3c83151a8bd045cc9e12870a8f0", "is_reserved": 0, "rental_uris": {"android": "https://dc.lft.to/lastmile_qr_scan", "ios": "https://dc.lft.to/lastmile_qr_scan"}, "fusion_lon": 0.0}, {"lat": 38.905613, "is_disabled": 0, "type": "electric_scooter", "lon": -77.0280005, "bike_id": "9335c61619ecc2cc5ebf16fa68b5f090", "fusion_lat": 0.0, "name": "9335c61619ecc2cc5ebf16fa68b5f090", "is_reserved": 0, "rental_uris": {"android": "https://dc.lft.to/lastmile_qr_scan", "ios": "https://dc.lft.to/lastmile_qr_scan"}, "fusion_lon": 0.0}, {"lat": 38.9170735, "is_disabled": 0, "type": "electric_scooter", "lon": -77.03508033333334, "bike_id": "d4f700728bfb56829e92b984e06e5420", "fusion_lat": 0.0, "name": "d4f700728bfb56829e92b984e06e5420", "is_reserved": 0, "rental_uris": {"android": "https://dc.lft.to/lastmile_qr_scan", "ios": "https://dc.lft.to/lastmile_qr_scan"}, "fusion_lon": 0.0}, {"lat": 38.8969545, "is_disabled": 0, "type": "electric_scooter", "lon": -77.0266725, "bike_id": "39615098570c83f2d86585456c28ea56", "fusion_lat": 0.0, "name": "39615098570c83f2d86585456c28ea56", "is_reserved": 0, "rental_uris": {"android": "https://dc.lft.to/lastmile_qr_scan", "ios": "https://dc.lft.to/lastmile_qr_scan"}, "fusion_lon": 0.0}, {"lat": 38.8962375, "is_disabled": 0, "type": "electric_scooter", "lon": -76.99850233333333, "bike_id": "715e6f04a3fcd779a55e276c7113dc7c", "fusion_lat": 0.0, "name": "715e6f04a3fcd779a55e276c7113dc7c", "is_reserved": 0, "rental_uris": {"android": "https://dc.lft.to/lastmile_qr_scan", "ios": "https://dc.lft.to/lastmile_qr_scan"}, "fusion_lon": 0.0}, {"lat": 38.9386365, "is_disabled": 0, "type": "electric_scooter", "lon": -77.0264835, "bike_id": "f51b8feff08c9ccc9570fd1fced3b56f", "fusion_lat": 0.0, "name": "f51b8feff08c9ccc9570fd1fced3b56f", "is_reserved": 0, "rental_uris": {"android": "https://dc.lft.to/lastmile_qr_scan", "ios": "https://dc.lft.to/lastmile_qr_scan"}, "fusion_lon": 0.0}, {"lat": 38.893300833333335, "is_disabled": 0, "type": "electric_scooter", "lon": -76.92989233333333, "bike_id": "a3e5da2cdc0c1a12117c8bc101447f69", "fusion_lat": 0.0, "name": "a3e5da2cdc0c1a12117c8bc101447f69", "is_reserved": 0, "rental_uris": {"android": "https://dc.lft.to/lastmile_qr_scan", "ios": "https://dc.lft.to/lastmile_qr_scan"}, "fusion_lon": 0.0}, {"lat": 38.9181525, "is_disabled": 0, "type": "electric_scooter", "lon": -77.03167683333334, "bike_id": "3c0c410092ebfbd1e444cd5f597e51c7", "fusion_lat": 0.0, "name": "3c0c410092ebfbd1e444cd5f597e51c7", "is_reserved": 0, "rental_uris": {"android": "https://dc.lft.to/lastmile_qr_scan", "ios": "https://dc.lft.to/lastmile_qr_scan"}, "fusion_lon": 0.0}, {"lat": 38.898139, "is_disabled": 0, "type": "electric_scooter", "lon": -77.04336916666666, "bike_id": "e31ee76d1420f1485aceb400ff04bad3", "fusion_lat": 0.0, "name": "e31ee76d1420f1485aceb400ff04bad3", "is_reserved": 0, "rental_uris": {"android": "https://dc.lft.to/lastmile_qr_scan", "ios": "https://dc.lft.to/lastmile_qr_scan"}, "fusion_lon": 0.0}, {"lat": 38.9099095, "is_disabled": 0, "type": "electric_scooter", "lon": -76.99738983333333, "bike_id": "70686367f0cf72dfdf8e771d351c7dea", "fusion_lat": 0.0, "name": "70686367f0cf72dfdf8e771d351c7dea", "is_reserved": 0, "rental_uris": {"android": "https://dc.lft.to/lastmile_qr_scan", "ios": "https://dc.lft.to/lastmile_qr_scan"}, "fusion_lon": 0.0}, {"lat": 38.88129416666666, "is_disabled": 0, "type": "electric_scooter", "lon": -76.98716133333333, "bike_id": "952375c5fcdeb7c8d2507e067603f138", "fusion_lat": 0.0, "name": "952375c5fcdeb7c8d2507e067603f138", "is_reserved": 0, "rental_uris": {"android": "https://dc.lft.to/lastmile_qr_scan", "ios": "https://dc.lft.to/lastmile_qr_scan"}, "fusion_lon": 0.0}, {"lat": 38.92342033333333, "is_disabled": 0, "type": "electric_scooter", "lon": -77.05169816666667, "bike_id": "c81c2020bf40d705c5f05d63c591b608", "fusion_lat": 0.0, "name": "c81c2020bf40d705c5f05d63c591b608", "is_reserved": 0, "rental_uris": {"android": "https://dc.lft.to/lastmile_qr_scan", "ios": "https://dc.lft.to/lastmile_qr_scan"}, "fusion_lon": 0.0}, {"lat": 38.9313335, "is_disabled": 0, "type": "electric_scooter", "lon": -77.02142616666667, "bike_id": "ad1615c43b48e24c94b6e02b83425d5d", "fusion_lat": 0.0, "name": "ad1615c43b48e24c94b6e02b83425d5d", "is_reserved": 0, "rental_uris": {"android": "https://dc.lft.to/lastmile_qr_scan", "ios": "https://dc.lft.to/lastmile_qr_scan"}, "fusion_lon": 0.0}, {"lat": 38.9064825, "is_disabled": 0, "type": "electric_scooter", "lon": -77.00837283333334, "bike_id": "0fd5a2c658d5bdd048f9c71dcdfcc6e9", "fusion_lat": 0.0, "name": "0fd5a2c658d5bdd048f9c71dcdfcc6e9", "is_reserved": 0, "rental_uris": {"android": "https://dc.lft.to/lastmile_qr_scan", "ios": "https://dc.lft.to/lastmile_qr_scan"}, "fusion_lon": 0.0}, {"lat": 38.91708366666667, "is_disabled": 0, "type": "electric_scooter", "lon": -77.02886616666666, "bike_id": "0b4659a74dc494dd57aab28789a86703", "fusion_lat": 0.0, "name": "0b4659a74dc494dd57aab28789a86703", "is_reserved": 0, "rental_uris": {"android": "https://dc.lft.to/lastmile_qr_scan", "ios": "https://dc.lft.to/lastmile_qr_scan"}, "fusion_lon": 0.0}, {"lat": 38.922254333333335, "is_disabled": 0, "type": "electric_scooter", "lon": -77.04237983333333, "bike_id": "224723c114a95c97475d71dd2f2c23a6", "fusion_lat": 0.0, "name": "224723c114a95c97475d71dd2f2c23a6", "is_reserved": 0, "rental_uris": {"android": "https://dc.lft.to/lastmile_qr_scan", "ios": "https://dc.lft.to/lastmile_qr_scan"}, "fusion_lon": 0.0}, {"lat": 38.90677683333333, "is_disabled": 0, "type": "electric_scooter", "lon": -77.06265816666667, "bike_id": "1c2a42f9790f56ddb986ef22fba61ba6", "fusion_lat": 0.0, "name": "1c2a42f9790f56ddb986ef22fba61ba6", "is_reserved": 0, "rental_uris": {"android": "https://dc.lft.to/lastmile_qr_scan", "ios": "https://dc.lft.to/lastmile_qr_scan"}, "fusion_lon": 0.0}, {"lat": 38.916939166666666, "is_disabled": 0, "type": "electric_scooter", "lon": -77.02790866666666, "bike_id": "ce33e81e4e830d53e7b62fb28f37b4d7", "fusion_lat": 0.0, "name": "ce33e81e4e830d53e7b62fb28f37b4d7", "is_reserved": 0, "rental_uris": {"android": "https://dc.lft.to/lastmile_qr_scan", "ios": "https://dc.lft.to/lastmile_qr_scan"}, "fusion_lon": 0.0}, {"lat": 38.866621333333335, "is_disabled": 0, "type": "electric_scooter", "lon": -76.9890665, "bike_id": "d4620d58030661ba2b2eedc1e37158a6", "fusion_lat": 0.0, "name": "d4620d58030661ba2b2eedc1e37158a6", "is_reserved": 0, "rental_uris": {"android": "https://dc.lft.to/lastmile_qr_scan", "ios": "https://dc.lft.to/lastmile_qr_scan"}, "fusion_lon": 0.0}, {"lat": 38.92442716666667, "is_disabled": 0, "type": "electric_scooter", "lon": -77.03357866666667, "bike_id": "407305f22273c59460e59aa06d82cf41", "fusion_lat": 0.0, "name": "407305f22273c59460e59aa06d82cf41", "is_reserved": 0, "rental_uris": {"android": "https://dc.lft.to/lastmile_qr_scan", "ios": "https://dc.lft.to/lastmile_qr_scan"}, "fusion_lon": 0.0}, {"lat": 38.903174666666665, "is_disabled": 0, "type": "electric_scooter", "lon": -77.02133133333334, "bike_id": "84edaebef24278399a934679ffb36ce9", "fusion_lat": 0.0, "name": "84edaebef24278399a934679ffb36ce9", "is_reserved": 0, "rental_uris": {"android": "https://dc.lft.to/lastmile_qr_scan", "ios": "https://dc.lft.to/lastmile_qr_scan"}, "fusion_lon": 0.0}, {"lat": 38.88685316666667, "is_disabled": 0, "type": "electric_scooter", "lon": -77.01296566666667, "bike_id": "6420df9ffb3b7271087ad27a8037a726", "fusion_lat": 0.0, "name": "6420df9ffb3b7271087ad27a8037a726", "is_reserved": 0, "rental_uris": {"android": "https://dc.lft.to/lastmile_qr_scan", "ios": "https://dc.lft.to/lastmile_qr_scan"}, "fusion_lon": 0.0}, {"lat": 38.91417333333333, "is_disabled": 0, "type": "electric_scooter", "lon": -77.031697, "bike_id": "634710d12886161f1bfab2d5ba50fb0a", "fusion_lat": 0.0, "name": "634710d12886161f1bfab2d5ba50fb0a", "is_reserved": 0, "rental_uris": {"android": "https://dc.lft.to/lastmile_qr_scan", "ios": "https://dc.lft.to/lastmile_qr_scan"}, "fusion_lon": 0.0}, {"lat": 38.866183166666666, "is_disabled": 0, "type": "electric_scooter", "lon": -76.98665483333333, "bike_id": "6b78d21f4e3aabd99ebf5e8144c07632", "fusion_lat": 0.0, "name": "6b78d21f4e3aabd99ebf5e8144c07632", "is_reserved": 0, "rental_uris": {"android": "https://dc.lft.to/lastmile_qr_scan", "ios": "https://dc.lft.to/lastmile_qr_scan"}, "fusion_lon": 0.0}, {"lat": 38.902834, "is_disabled": 0, "type": "electric_scooter", "lon": -77.0469485, "bike_id": "e8aa4921f97bcb696026c14095b89541", "fusion_lat": 0.0, "name": "e8aa4921f97bcb696026c14095b89541", "is_reserved": 0, "rental_uris": {"android": "https://dc.lft.to/lastmile_qr_scan", "ios": "https://dc.lft.to/lastmile_qr_scan"}, "fusion_lon": 0.0}, {"lat": 38.80052633333333, "is_disabled": 0, "type": "electric_bike", "lon": -77.07106, "bike_id": "ae1e3481ed2bf272347e2a92146bc4ca", "fusion_lat": 0.0, "name": "ae1e3481ed2bf272347e2a92146bc4ca", "is_reserved": 0, "rental_uris": {"android": "https://dc.lft.to/lastmile_qr_scan", "ios": "https://dc.lft.to/lastmile_qr_scan"}, "fusion_lon": 0.0}, {"lat": 38.884901166666666, "is_disabled": 0, "type": "electric_scooter", "lon": -77.00707266666667, "bike_id": "112f2cd0e1c33df0a79b6b08b93df968", "fusion_lat": 0.0, "name": "112f2cd0e1c33df0a79b6b08b93df968", "is_reserved": 0, "rental_uris": {"android": "https://dc.lft.to/lastmile_qr_scan", "ios": "https://dc.lft.to/lastmile_qr_scan"}, "fusion_lon": 0.0}, {"lat": 38.97362616666667, "is_disabled": 0, "type": "electric_scooter", "lon": -77.01858233333333, "bike_id": "a8c4678e093d89599c9c56ecb405165b", "fusion_lat": 0.0, "name": "a8c4678e093d89599c9c56ecb405165b", "is_reserved": 0, "rental_uris": {"android": "https://dc.lft.to/lastmile_qr_scan", "ios": "https://dc.lft.to/lastmile_qr_scan"}, "fusion_lon": 0.0}, {"lat": 38.914556, "is_disabled": 0, "type": "electric_scooter", "lon": -77.03210333333334, "bike_id": "f6d321c56047117c9184b6bc5c3d6555", "fusion_lat": 0.0, "name": "f6d321c56047117c9184b6bc5c3d6555", "is_reserved": 0, "rental_uris": {"android": "https://dc.lft.to/lastmile_qr_scan", "ios": "https://dc.lft.to/lastmile_qr_scan"}, "fusion_lon": 0.0}, {"lat": 38.89265, "is_disabled": 0, "type": "electric_scooter", "lon": -76.9415455, "bike_id": "67afb292eb3dc8a5a78f39bf78a242a1", "fusion_lat": 0.0, "name": "67afb292eb3dc8a5a78f39bf78a242a1", "is_reserved": 0, "rental_uris": {"android": "https://dc.lft.to/lastmile_qr_scan", "ios": "https://dc.lft.to/lastmile_qr_scan"}, "fusion_lon": 0.0}, {"lat": 38.858132499999996, "is_disabled": 0, "type": "electric_scooter", "lon": -76.989928, "bike_id": "4c15a4458df7083ea7307dade2cda069", "fusion_lat": 0.0, "name": "4c15a4458df7083ea7307dade2cda069", "is_reserved": 0, "rental_uris": {"android": "https://dc.lft.to/lastmile_qr_scan", "ios": "https://dc.lft.to/lastmile_qr_scan"}, "fusion_lon": 0.0}, {"lat": 38.92761566666667, "is_disabled": 0, "type": "electric_scooter", "lon": -77.02316483333334, "bike_id": "2d11c0e45502c65a6849f39fffd19e6c", "fusion_lat": 0.0, "name": "2d11c0e45502c65a6849f39fffd19e6c", "is_reserved": 0, "rental_uris": {"android": "https://dc.lft.to/lastmile_qr_scan", "ios": "https://dc.lft.to/lastmile_qr_scan"}, "fusion_lon": 0.0}, {"lat": 38.9167775, "is_disabled": 0, "type": "electric_scooter", "lon": -77.02962, "bike_id": "419404ba29efbbafdf09194475dc257f", "fusion_lat": 0.0, "name": "419404ba29efbbafdf09194475dc257f", "is_reserved": 0, "rental_uris": {"android": "https://dc.lft.to/lastmile_qr_scan", "ios": "https://dc.lft.to/lastmile_qr_scan"}, "fusion_lon": 0.0}, {"lat": 38.866601, "is_disabled": 0, "type": "electric_scooter", "lon": -76.9888195, "bike_id": "74f30bf57f28773a3b3d41eeb258c856", "fusion_lat": 0.0, "name": "74f30bf57f28773a3b3d41eeb258c856", "is_reserved": 0, "rental_uris": {"android": "https://dc.lft.to/lastmile_qr_scan", "ios": "https://dc.lft.to/lastmile_qr_scan"}, "fusion_lon": 0.0}, {"lat": 38.939941833333336, "is_disabled": 0, "type": "electric_scooter", "lon": -77.07174, "bike_id": "08b4e8720208332ce8dfc28e192622ac", "fusion_lat": 0.0, "name": "08b4e8720208332ce8dfc28e192622ac", "is_reserved": 0, "rental_uris": {"android": "https://dc.lft.to/lastmile_qr_scan", "ios": "https://dc.lft.to/lastmile_qr_scan"}, "fusion_lon": 0.0}, {"lat": 38.904729833333334, "is_disabled": 0, "type": "electric_bike", "lon": -77.007402, "bike_id": "410ae540c536d47592291d10a848d46c", "fusion_lat": 0.0, "name": "410ae540c536d47592291d10a848d46c", "is_reserved": 0, "rental_uris": {"android": "https://dc.lft.to/lastmile_qr_scan", "ios": "https://dc.lft.to/lastmile_qr_scan"}, "fusion_lon": 0.0}, {"lat": 38.925640666666666, "is_disabled": 0, "type": "electric_scooter", "lon": -77.05767366666667, "bike_id": "9a0863c99c90c95efaa34b808bd99af9", "fusion_lat": 0.0, "name": "9a0863c99c90c95efaa34b808bd99af9", "is_reserved": 0, "rental_uris": {"android": "https://dc.lft.to/lastmile_qr_scan", "ios": "https://dc.lft.to/lastmile_qr_scan"}, "fusion_lon": 0.0}, {"lat": 38.897576666666666, "is_disabled": 0, "type": "electric_scooter", "lon": -77.04526066666666, "bike_id": "81f22db716430b3393ff44ff1752d8cc", "fusion_lat": 0.0, "name": "81f22db716430b3393ff44ff1752d8cc", "is_reserved": 0, "rental_uris": {"android": "https://dc.lft.to/lastmile_qr_scan", "ios": "https://dc.lft.to/lastmile_qr_scan"}, "fusion_lon": 0.0}, {"lat": 38.899107666666666, "is_disabled": 0, "type": "electric_scooter", "lon": -76.9335045, "bike_id": "c02ff3ba70bc5607045ac1243b27c847", "fusion_lat": 0.0, "name": "c02ff3ba70bc5607045ac1243b27c847", "is_reserved": 0, "rental_uris": {"android": "https://dc.lft.to/lastmile_qr_scan", "ios": "https://dc.lft.to/lastmile_qr_scan"}, "fusion_lon": 0.0}, {"lat": 38.917790333333336, "is_disabled": 0, "type": "electric_scooter", "lon": -77.04329233333333, "bike_id": "20c76cb5c025f3cfb1dc7b187d5eb3b3", "fusion_lat": 0.0, "name": "20c76cb5c025f3cfb1dc7b187d5eb3b3", "is_reserved": 0, "rental_uris": {"android": "https://dc.lft.to/lastmile_qr_scan", "ios": "https://dc.lft.to/lastmile_qr_scan"}, "fusion_lon": 0.0}, {"lat": 38.88004033333333, "is_disabled": 0, "type": "electric_scooter", "lon": -76.98538383333333, "bike_id": "867893b4f3fe3e90c284892033f91714", "fusion_lat": 0.0, "name": "867893b4f3fe3e90c284892033f91714", "is_reserved": 0, "rental_uris": {"android": "https://dc.lft.to/lastmile_qr_scan", "ios": "https://dc.lft.to/lastmile_qr_scan"}, "fusion_lon": 0.0}, {"lat": 38.93254616666667, "is_disabled": 0, "type": "electric_scooter", "lon": -77.03266833333333, "bike_id": "3230ea38dafb03afb1a81e4f9a77a5f9", "fusion_lat": 0.0, "name": "3230ea38dafb03afb1a81e4f9a77a5f9", "is_reserved": 0, "rental_uris": {"android": "https://dc.lft.to/lastmile_qr_scan", "ios": "https://dc.lft.to/lastmile_qr_scan"}, "fusion_lon": 0.0}, {"lat": 38.921482, "is_disabled": 0, "type": "electric_scooter", "lon": -77.04358133333334, "bike_id": "61c56909d7aabe2fc958824faf598569", "fusion_lat": 0.0, "name": "61c56909d7aabe2fc958824faf598569", "is_reserved": 0, "rental_uris": {"android": "https://dc.lft.to/lastmile_qr_scan", "ios": "https://dc.lft.to/lastmile_qr_scan"}, "fusion_lon": 0.0}, {"lat": 38.8734015, "is_disabled": 0, "type": "electric_scooter", "lon": -77.01853366666667, "bike_id": "77a364296124e689a18ecc9270eec12a", "fusion_lat": 0.0, "name": "77a364296124e689a18ecc9270eec12a", "is_reserved": 0, "rental_uris": {"android": "https://dc.lft.to/lastmile_qr_scan", "ios": "https://dc.lft.to/lastmile_qr_scan"}, "fusion_lon": 0.0}, {"lat": 38.92372833333334, "is_disabled": 0, "type": "electric_scooter", "lon": -77.02123766666666, "bike_id": "8dde6241a77761b12c0dc36ad0719a9a", "fusion_lat": 0.0, "name": "8dde6241a77761b12c0dc36ad0719a9a", "is_reserved": 0, "rental_uris": {"android": "https://dc.lft.to/lastmile_qr_scan", "ios": "https://dc.lft.to/lastmile_qr_scan"}, "fusion_lon": 0.0}, {"lat": 38.89724183333333, "is_disabled": 0, "type": "electric_scooter", "lon": -76.9756055, "bike_id": "f6e5e4f8c0124c183e4a3d1697a8cf74", "fusion_lat": 0.0, "name": "f6e5e4f8c0124c183e4a3d1697a8cf74", "is_reserved": 0, "rental_uris": {"android": "https://dc.lft.to/lastmile_qr_scan", "ios": "https://dc.lft.to/lastmile_qr_scan"}, "fusion_lon": 0.0}, {"lat": 38.868915333333334, "is_disabled": 0, "type": "electric_scooter", "lon": -76.98309883333333, "bike_id": "3037013de74628d7429b801faf54edc5", "fusion_lat": 0.0, "name": "3037013de74628d7429b801faf54edc5", "is_reserved": 0, "rental_uris": {"android": "https://dc.lft.to/lastmile_qr_scan", "ios": "https://dc.lft.to/lastmile_qr_scan"}, "fusion_lon": 0.0}, {"lat": 38.917066166666665, "is_disabled": 0, "type": "electric_scooter", "lon": -77.02492416666666, "bike_id": "4b8041fe6411a193b281af2bd6291d6d", "fusion_lat": 0.0, "name": "4b8041fe6411a193b281af2bd6291d6d", "is_reserved": 0, "rental_uris": {"android": "https://dc.lft.to/lastmile_qr_scan", "ios": "https://dc.lft.to/lastmile_qr_scan"}, "fusion_lon": 0.0}, {"lat": 38.89780733333333, "is_disabled": 0, "type": "electric_bike", "lon": -77.02953066666667, "bike_id": "3bbbc799b25d24c8116a15e54876d76d", "fusion_lat": 0.0, "name": "3bbbc799b25d24c8116a15e54876d76d", "is_reserved": 0, "rental_uris": {"android": "https://dc.lft.to/lastmile_qr_scan", "ios": "https://dc.lft.to/lastmile_qr_scan"}, "fusion_lon": 0.0}, {"lat": 38.90002333333333, "is_disabled": 0, "type": "electric_scooter", "lon": -77.03989633333333, "bike_id": "f6a713a9cffc898a2cf41842807342b6", "fusion_lat": 0.0, "name": "f6a713a9cffc898a2cf41842807342b6", "is_reserved": 0, "rental_uris": {"android": "https://dc.lft.to/lastmile_qr_scan", "ios": "https://dc.lft.to/lastmile_qr_scan"}, "fusion_lon": 0.0}, {"lat": 38.886905, "is_disabled": 0, "type": "electric_scooter", "lon": -77.0176775, "bike_id": "baab79798bf8b21acdc43ea5e0182ab7", "fusion_lat": 0.0, "name": "baab79798bf8b21acdc43ea5e0182ab7", "is_reserved": 0, "rental_uris": {"android": "https://dc.lft.to/lastmile_qr_scan", "ios": "https://dc.lft.to/lastmile_qr_scan"}, "fusion_lon": 0.0}, {"lat": 38.88122233333333, "is_disabled": 0, "type": "electric_scooter", "lon": -76.99514283333333, "bike_id": "5903af7cdc861ecd847d7fc65fb58611", "fusion_lat": 0.0, "name": "5903af7cdc861ecd847d7fc65fb58611", "is_reserved": 0, "rental_uris": {"android": "https://dc.lft.to/lastmile_qr_scan", "ios": "https://dc.lft.to/lastmile_qr_scan"}, "fusion_lon": 0.0}, {"lat": 38.903675166666666, "is_disabled": 0, "type": "electric_scooter", "lon": -77.0220825, "bike_id": "a0e49d48e66c80e0381e800ed26e531b", "fusion_lat": 0.0, "name": "a0e49d48e66c80e0381e800ed26e531b", "is_reserved": 0, "rental_uris": {"android": "https://dc.lft.to/lastmile_qr_scan", "ios": "https://dc.lft.to/lastmile_qr_scan"}, "fusion_lon": 0.0}, {"lat": 38.883910666666665, "is_disabled": 0, "type": "electric_scooter", "lon": -77.018899, "bike_id": "b4c407ef68e9497564378ff4defff836", "fusion_lat": 0.0, "name": "b4c407ef68e9497564378ff4defff836", "is_reserved": 0, "rental_uris": {"android": "https://dc.lft.to/lastmile_qr_scan", "ios": "https://dc.lft.to/lastmile_qr_scan"}, "fusion_lon": 0.0}, {"lat": 38.87391366666667, "is_disabled": 0, "type": "electric_bike", "lon": -77.00582133333333, "bike_id": "86a21657f1776232ae081dd10839ff83", "fusion_lat": 0.0, "name": "86a21657f1776232ae081dd10839ff83", "is_reserved": 0, "rental_uris": {"android": "https://dc.lft.to/lastmile_qr_scan", "ios": "https://dc.lft.to/lastmile_qr_scan"}, "fusion_lon": 0.0}, {"lat": 38.973473, "is_disabled": 0, "type": "electric_scooter", "lon": -77.0179675, "bike_id": "0c0801fb732a723052751374559a9c6d", "fusion_lat": 0.0, "name": "0c0801fb732a723052751374559a9c6d", "is_reserved": 0, "rental_uris": {"android": "https://dc.lft.to/lastmile_qr_scan", "ios": "https://dc.lft.to/lastmile_qr_scan"}, "fusion_lon": 0.0}, {"lat": 38.884929, "is_disabled": 0, "type": "electric_scooter", "lon": -77.0071325, "bike_id": "049cb765a6e8abefa128713753b4de12", "fusion_lat": 0.0, "name": "049cb765a6e8abefa128713753b4de12", "is_reserved": 0, "rental_uris": {"android": "https://dc.lft.to/lastmile_qr_scan", "ios": "https://dc.lft.to/lastmile_qr_scan"}, "fusion_lon": 0.0}, {"lat": 38.876319333333335, "is_disabled": 0, "type": "electric_scooter", "lon": -77.00951433333333, "bike_id": "5e63cef3378807c31cd75d7c1354fab4", "fusion_lat": 0.0, "name": "5e63cef3378807c31cd75d7c1354fab4", "is_reserved": 0, "rental_uris": {"android": "https://dc.lft.to/lastmile_qr_scan", "ios": "https://dc.lft.to/lastmile_qr_scan"}, "fusion_lon": 0.0}, {"lat": 38.9371145, "is_disabled": 0, "type": "electric_bike", "lon": -77.03633966666666, "bike_id": "f464077fec2a78f4946106ebea630179", "fusion_lat": 0.0, "name": "f464077fec2a78f4946106ebea630179", "is_reserved": 0, "rental_uris": {"android": "https://dc.lft.to/lastmile_qr_scan", "ios": "https://dc.lft.to/lastmile_qr_scan"}, "fusion_lon": 0.0}, {"lat": 38.900938833333335, "is_disabled": 0, "type": "electric_scooter", "lon": -77.04924883333334, "bike_id": "01e27a683687f097e8d31fbd9b4b398f", "fusion_lat": 0.0, "name": "01e27a683687f097e8d31fbd9b4b398f", "is_reserved": 0, "rental_uris": {"android": "https://dc.lft.to/lastmile_qr_scan", "ios": "https://dc.lft.to/lastmile_qr_scan"}, "fusion_lon": 0.0}, {"lat": 38.960194, "is_disabled": 0, "type": "electric_bike", "lon": -77.017236, "bike_id": "63ff0e0be303706676354d349f33f55f", "fusion_lat": 0.0, "name": "63ff0e0be303706676354d349f33f55f", "is_reserved": 0, "rental_uris": {"android": "https://dc.lft.to/lastmile_qr_scan", "ios": "https://dc.lft.to/lastmile_qr_scan"}, "fusion_lon": 0.0}, {"lat": 38.87861916666667, "is_disabled": 0, "type": "electric_scooter", "lon": -77.02246166666667, "bike_id": "7e7577783b526049272c970034cb3cda", "fusion_lat": 0.0, "name": "7e7577783b526049272c970034cb3cda", "is_reserved": 0, "rental_uris": {"android": "https://dc.lft.to/lastmile_qr_scan", "ios": "https://dc.lft.to/lastmile_qr_scan"}, "fusion_lon": 0.0}, {"lat": 38.80751033333333, "is_disabled": 0, "type": "electric_bike", "lon": -77.09475666666667, "bike_id": "5c4a00b948329db5b7f21e106255d006", "fusion_lat": 0.0, "name": "5c4a00b948329db5b7f21e106255d006", "is_reserved": 0, "rental_uris": {"android": "https://dc.lft.to/lastmile_qr_scan", "ios": "https://dc.lft.to/lastmile_qr_scan"}, "fusion_lon": 0.0}, {"lat": 38.884680833333334, "is_disabled": 0, "type": "electric_scooter", "lon": -76.99261666666666, "bike_id": "aaafb7ebf5e3d30d5bed8710b25d9486", "fusion_lat": 0.0, "name": "aaafb7ebf5e3d30d5bed8710b25d9486", "is_reserved": 0, "rental_uris": {"android": "https://dc.lft.to/lastmile_qr_scan", "ios": "https://dc.lft.to/lastmile_qr_scan"}, "fusion_lon": 0.0}, {"lat": 38.9533035, "is_disabled": 0, "type": "electric_scooter", "lon": -77.027556, "bike_id": "d9ad1aabf9ded4cd1280f5b5caee00c9", "fusion_lat": 0.0, "name": "d9ad1aabf9ded4cd1280f5b5caee00c9", "is_reserved": 0, "rental_uris": {"android": "https://dc.lft.to/lastmile_qr_scan", "ios": "https://dc.lft.to/lastmile_qr_scan"}, "fusion_lon": 0.0}, {"lat": 39.0293495, "is_disabled": 0, "type": "electric_bike", "lon": -77.04925683333333, "bike_id": "9521134271f52185ee9a4e912bb4035a", "fusion_lat": 0.0, "name": "9521134271f52185ee9a4e912bb4035a", "is_reserved": 0, "rental_uris": {"android": "https://dc.lft.to/lastmile_qr_scan", "ios": "https://dc.lft.to/lastmile_qr_scan"}, "fusion_lon": 0.0}, {"lat": 38.927186166666665, "is_disabled": 0, "type": "electric_scooter", "lon": -77.0228695, "bike_id": "da33ac218eea939720710c5d60602503", "fusion_lat": 0.0, "name": "da33ac218eea939720710c5d60602503", "is_reserved": 0, "rental_uris": {"android": "https://dc.lft.to/lastmile_qr_scan", "ios": "https://dc.lft.to/lastmile_qr_scan"}, "fusion_lon": 0.0}, {"lat": 38.919794, "is_disabled": 0, "type": "electric_scooter", "lon": -76.9730595, "bike_id": "3ce97c2918e43cd489223a2c2b9a1023", "fusion_lat": 0.0, "name": "3ce97c2918e43cd489223a2c2b9a1023", "is_reserved": 0, "rental_uris": {"android": "https://dc.lft.to/lastmile_qr_scan", "ios": "https://dc.lft.to/lastmile_qr_scan"}, "fusion_lon": 0.0}, {"lat": 38.903646, "is_disabled": 0, "type": "electric_scooter", "lon": -76.9765295, "bike_id": "56bac17e0a09221ec573a932f09dab22", "fusion_lat": 0.0, "name": "56bac17e0a09221ec573a932f09dab22", "is_reserved": 0, "rental_uris": {"android": "https://dc.lft.to/lastmile_qr_scan", "ios": "https://dc.lft.to/lastmile_qr_scan"}, "fusion_lon": 0.0}, {"lat": 38.90202, "is_disabled": 0, "type": "electric_scooter", "lon": -76.98841633333333, "bike_id": "f67012de7638d44f9aa308dc4da93843", "fusion_lat": 0.0, "name": "f67012de7638d44f9aa308dc4da93843", "is_reserved": 0, "rental_uris": {"android": "https://dc.lft.to/lastmile_qr_scan", "ios": "https://dc.lft.to/lastmile_qr_scan"}, "fusion_lon": 0.0}, {"lat": 38.896973, "is_disabled": 0, "type": "electric_scooter", "lon": -77.05015016666667, "bike_id": "7cfc0a29c0a8a85a3ccc578209bddb58", "fusion_lat": 0.0, "name": "7cfc0a29c0a8a85a3ccc578209bddb58", "is_reserved": 0, "rental_uris": {"android": "https://dc.lft.to/lastmile_qr_scan", "ios": "https://dc.lft.to/lastmile_qr_scan"}, "fusion_lon": 0.0}, {"lat": 38.924947, "is_disabled": 0, "type": "electric_scooter", "lon": -77.0522285, "bike_id": "120cbcf0a1ccc7fe3c6ec400759c5c9f", "fusion_lat": 0.0, "name": "120cbcf0a1ccc7fe3c6ec400759c5c9f", "is_reserved": 0, "rental_uris": {"android": "https://dc.lft.to/lastmile_qr_scan", "ios": "https://dc.lft.to/lastmile_qr_scan"}, "fusion_lon": 0.0}, {"lat": 38.946494333333334, "is_disabled": 0, "type": "electric_scooter", "lon": -77.0648055, "bike_id": "89f3ef42e27f0a10b287af294649bb1a", "fusion_lat": 0.0, "name": "89f3ef42e27f0a10b287af294649bb1a", "is_reserved": 0, "rental_uris": {"android": "https://dc.lft.to/lastmile_qr_scan", "ios": "https://dc.lft.to/lastmile_qr_scan"}, "fusion_lon": 0.0}, {"lat": 38.92661916666667, "is_disabled": 0, "type": "electric_scooter", "lon": -77.05597516666667, "bike_id": "cc6b624174aa5a4ba9f0976b8e1d8de0", "fusion_lat": 0.0, "name": "cc6b624174aa5a4ba9f0976b8e1d8de0", "is_reserved": 0, "rental_uris": {"android": "https://dc.lft.to/lastmile_qr_scan", "ios": "https://dc.lft.to/lastmile_qr_scan"}, "fusion_lon": 0.0}, {"lat": 38.91129166666666, "is_disabled": 0, "type": "electric_scooter", "lon": -77.04363316666667, "bike_id": "b1574d154d27e85b4e8bfbec8ce66271", "fusion_lat": 0.0, "name": "b1574d154d27e85b4e8bfbec8ce66271", "is_reserved": 0, "rental_uris": {"android": "https://dc.lft.to/lastmile_qr_scan", "ios": "https://dc.lft.to/lastmile_qr_scan"}, "fusion_lon": 0.0}, {"lat": 38.895544666666666, "is_disabled": 0, "type": "electric_scooter", "lon": -76.933721, "bike_id": "3a9362ea9205ba0e74c6ea20beaa1bea", "fusion_lat": 0.0, "name": "3a9362ea9205ba0e74c6ea20beaa1bea", "is_reserved": 0, "rental_uris": {"android": "https://dc.lft.to/lastmile_qr_scan", "ios": "https://dc.lft.to/lastmile_qr_scan"}, "fusion_lon": 0.0}, {"lat": 38.895889333333336, "is_disabled": 0, "type": "electric_scooter", "lon": -77.04361466666667, "bike_id": "c5c11e8232f12bd36196868caed53449", "fusion_lat": 0.0, "name": "c5c11e8232f12bd36196868caed53449", "is_reserved": 0, "rental_uris": {"android": "https://dc.lft.to/lastmile_qr_scan", "ios": "https://dc.lft.to/lastmile_qr_scan"}, "fusion_lon": 0.0}, {"lat": 38.918779, "is_disabled": 0, "type": "electric_scooter", "lon": -77.035, "bike_id": "96ada6a4eef7e75428a1d2c74281407d", "fusion_lat": 0.0, "name": "96ada6a4eef7e75428a1d2c74281407d", "is_reserved": 0, "rental_uris": {"android": "https://dc.lft.to/lastmile_qr_scan", "ios": "https://dc.lft.to/lastmile_qr_scan"}, "fusion_lon": 0.0}, {"lat": 38.925597, "is_disabled": 0, "type": "electric_scooter", "lon": -77.0379775, "bike_id": "1947a1d735f083cc5932b54c04ec5c17", "fusion_lat": 0.0, "name": "1947a1d735f083cc5932b54c04ec5c17", "is_reserved": 0, "rental_uris": {"android": "https://dc.lft.to/lastmile_qr_scan", "ios": "https://dc.lft.to/lastmile_qr_scan"}, "fusion_lon": 0.0}, {"lat": 38.88809, "is_disabled": 0, "type": "electric_scooter", "lon": -77.04424816666666, "bike_id": "ad1c0a11bca7b2c34b00ec39bce0a6e9", "fusion_lat": 0.0, "name": "ad1c0a11bca7b2c34b00ec39bce0a6e9", "is_reserved": 0, "rental_uris": {"android": "https://dc.lft.to/lastmile_qr_scan", "ios": "https://dc.lft.to/lastmile_qr_scan"}, "fusion_lon": 0.0}, {"lat": 38.930876, "is_disabled": 0, "type": "electric_scooter", "lon": -77.02356366666666, "bike_id": "76aa463f2e34c133e2fc52c8fb2e5591", "fusion_lat": 0.0, "name": "76aa463f2e34c133e2fc52c8fb2e5591", "is_reserved": 0, "rental_uris": {"android": "https://dc.lft.to/lastmile_qr_scan", "ios": "https://dc.lft.to/lastmile_qr_scan"}, "fusion_lon": 0.0}, {"lat": 38.8657015, "is_disabled": 0, "type": "electric_bike", "lon": -76.97340466666667, "bike_id": "ac20682d531e6864c650fce3c580e9a2", "fusion_lat": 0.0, "name": "ac20682d531e6864c650fce3c580e9a2", "is_reserved": 0, "rental_uris": {"android": "https://dc.lft.to/lastmile_qr_scan", "ios": "https://dc.lft.to/lastmile_qr_scan"}, "fusion_lon": 0.0}, {"lat": 38.993163, "is_disabled": 0, "type": "electric_bike", "lon": -77.03287933333333, "bike_id": "c1a59eabbc07f1df2b44fe073ab16a60", "fusion_lat": 0.0, "name": "c1a59eabbc07f1df2b44fe073ab16a60", "is_reserved": 0, "rental_uris": {"android": "https://dc.lft.to/lastmile_qr_scan", "ios": "https://dc.lft.to/lastmile_qr_scan"}, "fusion_lon": 0.0}, {"lat": 38.909726, "is_disabled": 0, "type": "electric_scooter", "lon": -77.04517783333333, "bike_id": "f801002de6c7fced6bdb5d5622e21b12", "fusion_lat": 0.0, "name": "f801002de6c7fced6bdb5d5622e21b12", "is_reserved": 0, "rental_uris": {"android": "https://dc.lft.to/lastmile_qr_scan", "ios": "https://dc.lft.to/lastmile_qr_scan"}, "fusion_lon": 0.0}, {"lat": 38.996134833333336, "is_disabled": 0, "type": "electric_scooter", "lon": -77.0321895, "bike_id": "e34534b1e0521ca1e11965bfcb0f98cb", "fusion_lat": 0.0, "name": "e34534b1e0521ca1e11965bfcb0f98cb", "is_reserved": 0, "rental_uris": {"android": "https://dc.lft.to/lastmile_qr_scan", "ios": "https://dc.lft.to/lastmile_qr_scan"}, "fusion_lon": 0.0}, {"lat": 38.902717, "is_disabled": 0, "type": "electric_scooter", "lon": -77.0459835, "bike_id": "ddb8a076a4e24153e708cc2a5e244335", "fusion_lat": 0.0, "name": "ddb8a076a4e24153e708cc2a5e244335", "is_reserved": 0, "rental_uris": {"android": "https://dc.lft.to/lastmile_qr_scan", "ios": "https://dc.lft.to/lastmile_qr_scan"}, "fusion_lon": 0.0}, {"lat": 38.90417383333333, "is_disabled": 0, "type": "electric_scooter", "lon": -76.99284966666667, "bike_id": "833e30ea34dd946e6b458ea91087eaec", "fusion_lat": 0.0, "name": "833e30ea34dd946e6b458ea91087eaec", "is_reserved": 0, "rental_uris": {"android": "https://dc.lft.to/lastmile_qr_scan", "ios": "https://dc.lft.to/lastmile_qr_scan"}, "fusion_lon": 0.0}, {"lat": 38.876955, "is_disabled": 0, "type": "electric_scooter", "lon": -77.0071405, "bike_id": "01a8740a198fb6bf6ba7acbf9812462a", "fusion_lat": 0.0, "name": "01a8740a198fb6bf6ba7acbf9812462a", "is_reserved": 0, "rental_uris": {"android": "https://dc.lft.to/lastmile_qr_scan", "ios": "https://dc.lft.to/lastmile_qr_scan"}, "fusion_lon": 0.0}, {"lat": 38.94042133333333, "is_disabled": 0, "type": "electric_bike", "lon": -77.05156233333334, "bike_id": "23b00bc71538232d66193016dd2c1854", "fusion_lat": 0.0, "name": "23b00bc71538232d66193016dd2c1854", "is_reserved": 0, "rental_uris": {"android": "https://dc.lft.to/lastmile_qr_scan", "ios": "https://dc.lft.to/lastmile_qr_scan"}, "fusion_lon": 0.0}, {"lat": 38.890457166666664, "is_disabled": 0, "type": "electric_scooter", "lon": -76.9407365, "bike_id": "864b27a904ab14edf82e9f00a8a4a4b5", "fusion_lat": 0.0, "name": "864b27a904ab14edf82e9f00a8a4a4b5", "is_reserved": 0, "rental_uris": {"android": "https://dc.lft.to/lastmile_qr_scan", "ios": "https://dc.lft.to/lastmile_qr_scan"}, "fusion_lon": 0.0}, {"lat": 38.91793333333333, "is_disabled": 0, "type": "electric_scooter", "lon": -77.04430416666666, "bike_id": "e4e4691973b98e5dbef8df6f16f3e143", "fusion_lat": 0.0, "name": "e4e4691973b98e5dbef8df6f16f3e143", "is_reserved": 0, "rental_uris": {"android": "https://dc.lft.to/lastmile_qr_scan", "ios": "https://dc.lft.to/lastmile_qr_scan"}, "fusion_lon": 0.0}, {"lat": 38.902755166666665, "is_disabled": 0, "type": "electric_scooter", "lon": -77.03649366666667, "bike_id": "fc147a6428e4a6fa02ff7561bf71b618", "fusion_lat": 0.0, "name": "fc147a6428e4a6fa02ff7561bf71b618", "is_reserved": 0, "rental_uris": {"android": "https://dc.lft.to/lastmile_qr_scan", "ios": "https://dc.lft.to/lastmile_qr_scan"}, "fusion_lon": 0.0}, {"lat": 38.921111, "is_disabled": 0, "type": "electric_bike", "lon": -76.98573483333334, "bike_id": "d26a51dd0fdfa2f6ac1d3f09703dad1f", "fusion_lat": 0.0, "name": "d26a51dd0fdfa2f6ac1d3f09703dad1f", "is_reserved": 0, "rental_uris": {"android": "https://dc.lft.to/lastmile_qr_scan", "ios": "https://dc.lft.to/lastmile_qr_scan"}, "fusion_lon": 0.0}, {"lat": 38.85850833333333, "is_disabled": 0, "type": "electric_bike", "lon": -77.09752733333333, "bike_id": "f29152c355752a6664e0c00d3f5335d7", "fusion_lat": 0.0, "name": "f29152c355752a6664e0c00d3f5335d7", "is_reserved": 0, "rental_uris": {"android": "https://dc.lft.to/lastmile_qr_scan", "ios": "https://dc.lft.to/lastmile_qr_scan"}, "fusion_lon": 0.0}, {"lat": 38.913229333333334, "is_disabled": 0, "type": "electric_scooter", "lon": -77.03195283333334, "bike_id": "f9ad0ab12a3f1427efa5c58c2fb4d45f", "fusion_lat": 0.0, "name": "f9ad0ab12a3f1427efa5c58c2fb4d45f", "is_reserved": 0, "rental_uris": {"android": "https://dc.lft.to/lastmile_qr_scan", "ios": "https://dc.lft.to/lastmile_qr_scan"}, "fusion_lon": 0.0}, {"lat": 38.929218666666664, "is_disabled": 0, "type": "electric_scooter", "lon": -77.03189516666667, "bike_id": "4287d6a4334c91c6caeb022ea706071c", "fusion_lat": 0.0, "name": "4287d6a4334c91c6caeb022ea706071c", "is_reserved": 0, "rental_uris": {"android": "https://dc.lft.to/lastmile_qr_scan", "ios": "https://dc.lft.to/lastmile_qr_scan"}, "fusion_lon": 0.0}, {"lat": 38.93101033333333, "is_disabled": 0, "type": "electric_scooter", "lon": -77.02494466666667, "bike_id": "4e0b9406e4d8e321b628599214bf463e", "fusion_lat": 0.0, "name": "4e0b9406e4d8e321b628599214bf463e", "is_reserved": 0, "rental_uris": {"android": "https://dc.lft.to/lastmile_qr_scan", "ios": "https://dc.lft.to/lastmile_qr_scan"}, "fusion_lon": 0.0}, {"lat": 38.958886666666665, "is_disabled": 0, "type": "electric_bike", "lon": -76.9248, "bike_id": "576812456e6d7290c42863f1ba89af79", "fusion_lat": 0.0, "name": "576812456e6d7290c42863f1ba89af79", "is_reserved": 0, "rental_uris": {"android": "https://dc.lft.to/lastmile_qr_scan", "ios": "https://dc.lft.to/lastmile_qr_scan"}, "fusion_lon": 0.0}, {"lat": 38.867132166666664, "is_disabled": 0, "type": "electric_scooter", "lon": -76.9872305, "bike_id": "d134d4a1ae77603ad3985d3cef8ffe94", "fusion_lat": 0.0, "name": "d134d4a1ae77603ad3985d3cef8ffe94", "is_reserved": 0, "rental_uris": {"android": "https://dc.lft.to/lastmile_qr_scan", "ios": "https://dc.lft.to/lastmile_qr_scan"}, "fusion_lon": 0.0}, {"lat": 38.90525916666667, "is_disabled": 0, "type": "electric_scooter", "lon": -77.04870416666667, "bike_id": "21b410e976041245e7957149fc680481", "fusion_lat": 0.0, "name": "21b410e976041245e7957149fc680481", "is_reserved": 0, "rental_uris": {"android": "https://dc.lft.to/lastmile_qr_scan", "ios": "https://dc.lft.to/lastmile_qr_scan"}, "fusion_lon": 0.0}, {"lat": 38.9251175, "is_disabled": 0, "type": "electric_scooter", "lon": -76.98577733333333, "bike_id": "09c5357bbc8fd61ec43d97c8a2010045", "fusion_lat": 0.0, "name": "09c5357bbc8fd61ec43d97c8a2010045", "is_reserved": 0, "rental_uris": {"android": "https://dc.lft.to/lastmile_qr_scan", "ios": "https://dc.lft.to/lastmile_qr_scan"}, "fusion_lon": 0.0}, {"lat": 38.91193166666667, "is_disabled": 0, "type": "electric_scooter", "lon": -77.0609485, "bike_id": "e0f8b94ac34ff949ac88f7b42acbe65a", "fusion_lat": 0.0, "name": "e0f8b94ac34ff949ac88f7b42acbe65a", "is_reserved": 0, "rental_uris": {"android": "https://dc.lft.to/lastmile_qr_scan", "ios": "https://dc.lft.to/lastmile_qr_scan"}, "fusion_lon": 0.0}, {"lat": 38.88742766666667, "is_disabled": 0, "type": "electric_scooter", "lon": -77.0217355, "bike_id": "465d258ab78792f7d71e8311143d0f0a", "fusion_lat": 0.0, "name": "465d258ab78792f7d71e8311143d0f0a", "is_reserved": 0, "rental_uris": {"android": "https://dc.lft.to/lastmile_qr_scan", "ios": "https://dc.lft.to/lastmile_qr_scan"}, "fusion_lon": 0.0}, {"lat": 38.913123166666665, "is_disabled": 0, "type": "electric_scooter", "lon": -77.0320855, "bike_id": "130b92455c5cf95274fb5bacac081e75", "fusion_lat": 0.0, "name": "130b92455c5cf95274fb5bacac081e75", "is_reserved": 0, "rental_uris": {"android": "https://dc.lft.to/lastmile_qr_scan", "ios": "https://dc.lft.to/lastmile_qr_scan"}, "fusion_lon": 0.0}, {"lat": 38.900135666666664, "is_disabled": 0, "type": "electric_scooter", "lon": -77.01200483333334, "bike_id": "a669ec3cc9bac60b4a166b2f1f358c64", "fusion_lat": 0.0, "name": "a669ec3cc9bac60b4a166b2f1f358c64", "is_reserved": 0, "rental_uris": {"android": "https://dc.lft.to/lastmile_qr_scan", "ios": "https://dc.lft.to/lastmile_qr_scan"}, "fusion_lon": 0.0}, {"lat": 38.8847045, "is_disabled": 0, "type": "electric_scooter", "lon": -77.02406083333334, "bike_id": "bc4e63dcdc87f6df9816675cab97c04a", "fusion_lat": 0.0, "name": "bc4e63dcdc87f6df9816675cab97c04a", "is_reserved": 0, "rental_uris": {"android": "https://dc.lft.to/lastmile_qr_scan", "ios": "https://dc.lft.to/lastmile_qr_scan"}, "fusion_lon": 0.0}, {"lat": 38.94438483333333, "is_disabled": 0, "type": "electric_scooter", "lon": -77.023434, "bike_id": "8e45c100151ee8387631fff65454e3bd", "fusion_lat": 0.0, "name": "8e45c100151ee8387631fff65454e3bd", "is_reserved": 0, "rental_uris": {"android": "https://dc.lft.to/lastmile_qr_scan", "ios": "https://dc.lft.to/lastmile_qr_scan"}, "fusion_lon": 0.0}, {"lat": 38.92437316666667, "is_disabled": 0, "type": "electric_scooter", "lon": -77.0297295, "bike_id": "b42431337db03c8021d41167de873ef3", "fusion_lat": 0.0, "name": "b42431337db03c8021d41167de873ef3", "is_reserved": 0, "rental_uris": {"android": "https://dc.lft.to/lastmile_qr_scan", "ios": "https://dc.lft.to/lastmile_qr_scan"}, "fusion_lon": 0.0}, {"lat": 38.90983166666667, "is_disabled": 0, "type": "electric_scooter", "lon": -77.0239645, "bike_id": "24154b3036afebaeb99fb5831f69ba01", "fusion_lat": 0.0, "name": "24154b3036afebaeb99fb5831f69ba01", "is_reserved": 0, "rental_uris": {"android": "https://dc.lft.to/lastmile_qr_scan", "ios": "https://dc.lft.to/lastmile_qr_scan"}, "fusion_lon": 0.0}, {"lat": 38.88740716666667, "is_disabled": 0, "type": "electric_scooter", "lon": -77.015302, "bike_id": "623c175f297958a17d72cddad603d489", "fusion_lat": 0.0, "name": "623c175f297958a17d72cddad603d489", "is_reserved": 0, "rental_uris": {"android": "https://dc.lft.to/lastmile_qr_scan", "ios": "https://dc.lft.to/lastmile_qr_scan"}, "fusion_lon": 0.0}, {"lat": 38.90143966666667, "is_disabled": 0, "type": "electric_scooter", "lon": -77.04139333333333, "bike_id": "03a4cb1cd9f94982f063df3842fb9d00", "fusion_lat": 0.0, "name": "03a4cb1cd9f94982f063df3842fb9d00", "is_reserved": 0, "rental_uris": {"android": "https://dc.lft.to/lastmile_qr_scan", "ios": "https://dc.lft.to/lastmile_qr_scan"}, "fusion_lon": 0.0}, {"lat": 38.90727866666667, "is_disabled": 0, "type": "electric_scooter", "lon": -77.023701, "bike_id": "f88250aac9d8c5a8794aae4612c69d6a", "fusion_lat": 0.0, "name": "f88250aac9d8c5a8794aae4612c69d6a", "is_reserved": 0, "rental_uris": {"android": "https://dc.lft.to/lastmile_qr_scan", "ios": "https://dc.lft.to/lastmile_qr_scan"}, "fusion_lon": 0.0}, {"lat": 38.857337666666666, "is_disabled": 0, "type": "electric_scooter", "lon": -76.9943225, "bike_id": "fd7e8fdbee1fdd327e8eec6375318265", "fusion_lat": 0.0, "name": "fd7e8fdbee1fdd327e8eec6375318265", "is_reserved": 0, "rental_uris": {"android": "https://dc.lft.to/lastmile_qr_scan", "ios": "https://dc.lft.to/lastmile_qr_scan"}, "fusion_lon": 0.0}, {"lat": 38.92508016666667, "is_disabled": 0, "type": "electric_bike", "lon": -77.03794283333333, "bike_id": "a509cfc9c8d32edac2a2764e497ceaee", "fusion_lat": 0.0, "name": "a509cfc9c8d32edac2a2764e497ceaee", "is_reserved": 0, "rental_uris": {"android": "https://dc.lft.to/lastmile_qr_scan", "ios": "https://dc.lft.to/lastmile_qr_scan"}, "fusion_lon": 0.0}, {"lat": 38.917866833333335, "is_disabled": 0, "type": "electric_scooter", "lon": -77.02258283333333, "bike_id": "d4830cb85c106c717f32c5d9549bc04e", "fusion_lat": 0.0, "name": "d4830cb85c106c717f32c5d9549bc04e", "is_reserved": 0, "rental_uris": {"android": "https://dc.lft.to/lastmile_qr_scan", "ios": "https://dc.lft.to/lastmile_qr_scan"}, "fusion_lon": 0.0}, {"lat": 38.9204945, "is_disabled": 0, "type": "electric_scooter", "lon": -77.03288133333334, "bike_id": "c183cef4bdadc7f4602abddcedd536a0", "fusion_lat": 0.0, "name": "c183cef4bdadc7f4602abddcedd536a0", "is_reserved": 0, "rental_uris": {"android": "https://dc.lft.to/lastmile_qr_scan", "ios": "https://dc.lft.to/lastmile_qr_scan"}, "fusion_lon": 0.0}, {"lat": 38.9039975, "is_disabled": 0, "type": "electric_scooter", "lon": -77.06510683333333, "bike_id": "4e2c97b6914d4b1b42744823d9b66ad3", "fusion_lat": 0.0, "name": "4e2c97b6914d4b1b42744823d9b66ad3", "is_reserved": 0, "rental_uris": {"android": "https://dc.lft.to/lastmile_qr_scan", "ios": "https://dc.lft.to/lastmile_qr_scan"}, "fusion_lon": 0.0}, {"lat": 38.91098133333333, "is_disabled": 0, "type": "electric_scooter", "lon": -77.048164, "bike_id": "c24660281bfc3bbce82e1a9a68a69f5f", "fusion_lat": 0.0, "name": "c24660281bfc3bbce82e1a9a68a69f5f", "is_reserved": 0, "rental_uris": {"android": "https://dc.lft.to/lastmile_qr_scan", "ios": "https://dc.lft.to/lastmile_qr_scan"}, "fusion_lon": 0.0}, {"lat": 38.889268666666666, "is_disabled": 0, "type": "electric_scooter", "lon": -76.97375366666667, "bike_id": "ad23b63fda8b47c0eac2cf4287b24bbc", "fusion_lat": 0.0, "name": "ad23b63fda8b47c0eac2cf4287b24bbc", "is_reserved": 0, "rental_uris": {"android": "https://dc.lft.to/lastmile_qr_scan", "ios": "https://dc.lft.to/lastmile_qr_scan"}, "fusion_lon": 0.0}, {"lat": 38.9221555, "is_disabled": 0, "type": "electric_scooter", "lon": -77.04335683333333, "bike_id": "55ca94c8ed49e3f1690c07ccb31e3f16", "fusion_lat": 0.0, "name": "55ca94c8ed49e3f1690c07ccb31e3f16", "is_reserved": 0, "rental_uris": {"android": "https://dc.lft.to/lastmile_qr_scan", "ios": "https://dc.lft.to/lastmile_qr_scan"}, "fusion_lon": 0.0}, {"lat": 38.90631883333333, "is_disabled": 0, "type": "electric_scooter", "lon": -77.06280366666667, "bike_id": "6fcb3be0f1bcd12cb77f7a07af5d6ad7", "fusion_lat": 0.0, "name": "6fcb3be0f1bcd12cb77f7a07af5d6ad7", "is_reserved": 0, "rental_uris": {"android": "https://dc.lft.to/lastmile_qr_scan", "ios": "https://dc.lft.to/lastmile_qr_scan"}, "fusion_lon": 0.0}, {"lat": 38.861591833333335, "is_disabled": 0, "type": "electric_bike", "lon": -77.130938, "bike_id": "b15a11a5dfedb0c1a6c9aae96fb4407e", "fusion_lat": 0.0, "name": "b15a11a5dfedb0c1a6c9aae96fb4407e", "is_reserved": 0, "rental_uris": {"android": "https://dc.lft.to/lastmile_qr_scan", "ios": "https://dc.lft.to/lastmile_qr_scan"}, "fusion_lon": 0.0}, {"lat": 38.8955155, "is_disabled": 0, "type": "electric_scooter", "lon": -77.00362316666667, "bike_id": "e95e79ea6cb0c02e93cd933284abbf43", "fusion_lat": 0.0, "name": "e95e79ea6cb0c02e93cd933284abbf43", "is_reserved": 0, "rental_uris": {"android": "https://dc.lft.to/lastmile_qr_scan", "ios": "https://dc.lft.to/lastmile_qr_scan"}, "fusion_lon": 0.0}, {"lat": 38.92791883333334, "is_disabled": 0, "type": "electric_scooter", "lon": -77.053579, "bike_id": "5a3f62676587ceff8fb785a8a484bd18", "fusion_lat": 0.0, "name": "5a3f62676587ceff8fb785a8a484bd18", "is_reserved": 0, "rental_uris": {"android": "https://dc.lft.to/lastmile_qr_scan", "ios": "https://dc.lft.to/lastmile_qr_scan"}, "fusion_lon": 0.0}, {"lat": 38.9351205, "is_disabled": 0, "type": "electric_scooter", "lon": -77.03678083333334, "bike_id": "8780445543add808568a8e9b208deb81", "fusion_lat": 0.0, "name": "8780445543add808568a8e9b208deb81", "is_reserved": 0, "rental_uris": {"android": "https://dc.lft.to/lastmile_qr_scan", "ios": "https://dc.lft.to/lastmile_qr_scan"}, "fusion_lon": 0.0}, {"lat": 38.91962066666667, "is_disabled": 0, "type": "electric_bike", "lon": -76.97263266666667, "bike_id": "0f7881e309c44943bf7da55512420cc2", "fusion_lat": 0.0, "name": "0f7881e309c44943bf7da55512420cc2", "is_reserved": 0, "rental_uris": {"android": "https://dc.lft.to/lastmile_qr_scan", "ios": "https://dc.lft.to/lastmile_qr_scan"}, "fusion_lon": 0.0}, {"lat": 38.9561525, "is_disabled": 0, "type": "electric_scooter", "lon": -77.02779733333334, "bike_id": "830cce2820b8bb20a9b0168c3f665524", "fusion_lat": 0.0, "name": "830cce2820b8bb20a9b0168c3f665524", "is_reserved": 0, "rental_uris": {"android": "https://dc.lft.to/lastmile_qr_scan", "ios": "https://dc.lft.to/lastmile_qr_scan"}, "fusion_lon": 0.0}, {"lat": 38.897821666666665, "is_disabled": 0, "type": "electric_scooter", "lon": -77.043597, "bike_id": "c151165c50417227275b06dd75582b38", "fusion_lat": 0.0, "name": "c151165c50417227275b06dd75582b38", "is_reserved": 0, "rental_uris": {"android": "https://dc.lft.to/lastmile_qr_scan", "ios": "https://dc.lft.to/lastmile_qr_scan"}, "fusion_lon": 0.0}, {"lat": 38.90217416666667, "is_disabled": 0, "type": "electric_scooter", "lon": -76.945877, "bike_id": "ae81d2c3b477f4326ef5ab24b86e8a39", "fusion_lat": 0.0, "name": "ae81d2c3b477f4326ef5ab24b86e8a39", "is_reserved": 0, "rental_uris": {"android": "https://dc.lft.to/lastmile_qr_scan", "ios": "https://dc.lft.to/lastmile_qr_scan"}, "fusion_lon": 0.0}, {"lat": 38.933751, "is_disabled": 0, "type": "electric_scooter", "lon": -77.03792766666666, "bike_id": "3a3974511fd2e954c0ea7715aaea276a", "fusion_lat": 0.0, "name": "3a3974511fd2e954c0ea7715aaea276a", "is_reserved": 0, "rental_uris": {"android": "https://dc.lft.to/lastmile_qr_scan", "ios": "https://dc.lft.to/lastmile_qr_scan"}, "fusion_lon": 0.0}, {"lat": 38.93009766666667, "is_disabled": 0, "type": "electric_bike", "lon": -77.21648816666666, "bike_id": "40c88cea2bb2bc253b7acda2c19d4336", "fusion_lat": 0.0, "name": "40c88cea2bb2bc253b7acda2c19d4336", "is_reserved": 0, "rental_uris": {"android": "https://dc.lft.to/lastmile_qr_scan", "ios": "https://dc.lft.to/lastmile_qr_scan"}, "fusion_lon": 0.0}, {"lat": 38.957684666666665, "is_disabled": 0, "type": "electric_bike", "lon": -77.01160683333333, "bike_id": "8a8ce42db524d1ed73684ada0f42ef71", "fusion_lat": 0.0, "name": "8a8ce42db524d1ed73684ada0f42ef71", "is_reserved": 0, "rental_uris": {"android": "https://dc.lft.to/lastmile_qr_scan", "ios": "https://dc.lft.to/lastmile_qr_scan"}, "fusion_lon": 0.0}, {"lat": 38.9628225, "is_disabled": 0, "type": "electric_bike", "lon": -77.0324505, "bike_id": "4ee3bfc780c259cea0c9d9d060a41f3e", "fusion_lat": 0.0, "name": "4ee3bfc780c259cea0c9d9d060a41f3e", "is_reserved": 0, "rental_uris": {"android": "https://dc.lft.to/lastmile_qr_scan", "ios": "https://dc.lft.to/lastmile_qr_scan"}, "fusion_lon": 0.0}, {"lat": 38.90321083333333, "is_disabled": 0, "type": "electric_scooter", "lon": -77.02887116666666, "bike_id": "158471d90acb1ee9220c93a38ea579a1", "fusion_lat": 0.0, "name": "158471d90acb1ee9220c93a38ea579a1", "is_reserved": 0, "rental_uris": {"android": "https://dc.lft.to/lastmile_qr_scan", "ios": "https://dc.lft.to/lastmile_qr_scan"}, "fusion_lon": 0.0}, {"lat": 38.902260166666665, "is_disabled": 0, "type": "electric_scooter", "lon": -77.043602, "bike_id": "ac9ae26b8e00c8eb5cce8b5a15eb94c8", "fusion_lat": 0.0, "name": "ac9ae26b8e00c8eb5cce8b5a15eb94c8", "is_reserved": 0, "rental_uris": {"android": "https://dc.lft.to/lastmile_qr_scan", "ios": "https://dc.lft.to/lastmile_qr_scan"}, "fusion_lon": 0.0}, {"lat": 38.91641383333334, "is_disabled": 0, "type": "electric_scooter", "lon": -77.04615683333333, "bike_id": "a0e09a0c27c011a70fb6f92f782eb396", "fusion_lat": 0.0, "name": "a0e09a0c27c011a70fb6f92f782eb396", "is_reserved": 0, "rental_uris": {"android": "https://dc.lft.to/lastmile_qr_scan", "ios": "https://dc.lft.to/lastmile_qr_scan"}, "fusion_lon": 0.0}, {"lat": 38.884372666666664, "is_disabled": 0, "type": "electric_bike", "lon": -76.980859, "bike_id": "4e3d152a060e69234a995e3086d2fc78", "fusion_lat": 0.0, "name": "4e3d152a060e69234a995e3086d2fc78", "is_reserved": 0, "rental_uris": {"android": "https://dc.lft.to/lastmile_qr_scan", "ios": "https://dc.lft.to/lastmile_qr_scan"}, "fusion_lon": 0.0}, {"lat": 38.876389, "is_disabled": 0, "type": "electric_scooter", "lon": -76.99320633333333, "bike_id": "fa1f80169b6c020345dad2845da339af", "fusion_lat": 0.0, "name": "fa1f80169b6c020345dad2845da339af", "is_reserved": 0, "rental_uris": {"android": "https://dc.lft.to/lastmile_qr_scan", "ios": "https://dc.lft.to/lastmile_qr_scan"}, "fusion_lon": 0.0}, {"lat": 39.08856216666667, "is_disabled": 0, "type": "electric_bike", "lon": -77.17842633333333, "bike_id": "8f2534a700677b2f018220404c69eaaf", "fusion_lat": 0.0, "name": "8f2534a700677b2f018220404c69eaaf", "is_reserved": 0, "rental_uris": {"android": "https://dc.lft.to/lastmile_qr_scan", "ios": "https://dc.lft.to/lastmile_qr_scan"}, "fusion_lon": 0.0}, {"lat": 38.928590166666666, "is_disabled": 0, "type": "electric_bike", "lon": -77.22207416666667, "bike_id": "7fdfaa3fd1c10a08fdc74f7d4bce5baf", "fusion_lat": 0.0, "name": "7fdfaa3fd1c10a08fdc74f7d4bce5baf", "is_reserved": 0, "rental_uris": {"android": "https://dc.lft.to/lastmile_qr_scan", "ios": "https://dc.lft.to/lastmile_qr_scan"}, "fusion_lon": 0.0}, {"lat": 38.917733, "is_disabled": 0, "type": "electric_scooter", "lon": -77.0289115, "bike_id": "35c8c6c1ab73bc6f0868c0bee9e6b85f", "fusion_lat": 0.0, "name": "35c8c6c1ab73bc6f0868c0bee9e6b85f", "is_reserved": 0, "rental_uris": {"android": "https://dc.lft.to/lastmile_qr_scan", "ios": "https://dc.lft.to/lastmile_qr_scan"}, "fusion_lon": 0.0}, {"lat": 38.93869316666667, "is_disabled": 0, "type": "electric_scooter", "lon": -77.03262033333333, "bike_id": "ddc4ac01f05ce0e2780fe7a0d150bb87", "fusion_lat": 0.0, "name": "ddc4ac01f05ce0e2780fe7a0d150bb87", "is_reserved": 0, "rental_uris": {"android": "https://dc.lft.to/lastmile_qr_scan", "ios": "https://dc.lft.to/lastmile_qr_scan"}, "fusion_lon": 0.0}, {"lat": 38.88601466666667, "is_disabled": 0, "type": "electric_scooter", "lon": -77.01889583333333, "bike_id": "92a1c48df347c6436715b55767630c49", "fusion_lat": 0.0, "name": "92a1c48df347c6436715b55767630c49", "is_reserved": 0, "rental_uris": {"android": "https://dc.lft.to/lastmile_qr_scan", "ios": "https://dc.lft.to/lastmile_qr_scan"}, "fusion_lon": 0.0}, {"lat": 38.9317965, "is_disabled": 0, "type": "electric_scooter", "lon": -77.023672, "bike_id": "6dd7540968d94d79a8d88b720d8a799c", "fusion_lat": 0.0, "name": "6dd7540968d94d79a8d88b720d8a799c", "is_reserved": 0, "rental_uris": {"android": "https://dc.lft.to/lastmile_qr_scan", "ios": "https://dc.lft.to/lastmile_qr_scan"}, "fusion_lon": 0.0}, {"lat": 38.88548766666667, "is_disabled": 0, "type": "electric_bike", "lon": -77.11782166666667, "bike_id": "cf9557d669eda0b701276a121632bfe5", "fusion_lat": 0.0, "name": "cf9557d669eda0b701276a121632bfe5", "is_reserved": 0, "rental_uris": {"android": "https://dc.lft.to/lastmile_qr_scan", "ios": "https://dc.lft.to/lastmile_qr_scan"}, "fusion_lon": 0.0}, {"lat": 38.91963833333333, "is_disabled": 0, "type": "electric_scooter", "lon": -77.01434616666667, "bike_id": "cf15a36bff7e22568ff724689b6d17d2", "fusion_lat": 0.0, "name": "cf15a36bff7e22568ff724689b6d17d2", "is_reserved": 0, "rental_uris": {"android": "https://dc.lft.to/lastmile_qr_scan", "ios": "https://dc.lft.to/lastmile_qr_scan"}, "fusion_lon": 0.0}, {"lat": 38.902356, "is_disabled": 0, "type": "electric_scooter", "lon": -77.02886783333334, "bike_id": "3d60c334b8a7ff11419ec6c6d5b9ed51", "fusion_lat": 0.0, "name": "3d60c334b8a7ff11419ec6c6d5b9ed51", "is_reserved": 0, "rental_uris": {"android": "https://dc.lft.to/lastmile_qr_scan", "ios": "https://dc.lft.to/lastmile_qr_scan"}, "fusion_lon": 0.0}, {"lat": 38.89910183333333, "is_disabled": 0, "type": "electric_scooter", "lon": -77.03929333333333, "bike_id": "680bd97d8c1ab5d9c1ad7fad2264ded7", "fusion_lat": 0.0, "name": "680bd97d8c1ab5d9c1ad7fad2264ded7", "is_reserved": 0, "rental_uris": {"android": "https://dc.lft.to/lastmile_qr_scan", "ios": "https://dc.lft.to/lastmile_qr_scan"}, "fusion_lon": 0.0}, {"lat": 38.886705, "is_disabled": 0, "type": "electric_bike", "lon": -77.16242433333333, "bike_id": "e21b9c1350e5cdfd698bfe696b850826", "fusion_lat": 0.0, "name": "e21b9c1350e5cdfd698bfe696b850826", "is_reserved": 0, "rental_uris": {"android": "https://dc.lft.to/lastmile_qr_scan", "ios": "https://dc.lft.to/lastmile_qr_scan"}, "fusion_lon": 0.0}, {"lat": 38.957067, "is_disabled": 0, "type": "electric_scooter", "lon": -77.02410066666667, "bike_id": "a9157e062013e70ef69bd0203b741d9e", "fusion_lat": 0.0, "name": "a9157e062013e70ef69bd0203b741d9e", "is_reserved": 0, "rental_uris": {"android": "https://dc.lft.to/lastmile_qr_scan", "ios": "https://dc.lft.to/lastmile_qr_scan"}, "fusion_lon": 0.0}, {"lat": 38.884573833333334, "is_disabled": 0, "type": "electric_scooter", "lon": -76.92953116666666, "bike_id": "492de9fd2d13fd40a01f51b5b7a93028", "fusion_lat": 0.0, "name": "492de9fd2d13fd40a01f51b5b7a93028", "is_reserved": 0, "rental_uris": {"android": "https://dc.lft.to/lastmile_qr_scan", "ios": "https://dc.lft.to/lastmile_qr_scan"}, "fusion_lon": 0.0}, {"lat": 38.934242, "is_disabled": 0, "type": "electric_scooter", "lon": -76.9650485, "bike_id": "2db5469e8b0c6f25496bc609cade7bde", "fusion_lat": 0.0, "name": "2db5469e8b0c6f25496bc609cade7bde", "is_reserved": 0, "rental_uris": {"android": "https://dc.lft.to/lastmile_qr_scan", "ios": "https://dc.lft.to/lastmile_qr_scan"}, "fusion_lon": 0.0}, {"lat": 38.8559615, "is_disabled": 0, "type": "electric_scooter", "lon": -76.97006716666667, "bike_id": "d5c998f94d0c402f184ec90ef6a189d4", "fusion_lat": 0.0, "name": "d5c998f94d0c402f184ec90ef6a189d4", "is_reserved": 0, "rental_uris": {"android": "https://dc.lft.to/lastmile_qr_scan", "ios": "https://dc.lft.to/lastmile_qr_scan"}, "fusion_lon": 0.0}, {"lat": 38.9155485, "is_disabled": 0, "type": "electric_scooter", "lon": -77.0313195, "bike_id": "707adcdbde2f795480fed236b1981901", "fusion_lat": 0.0, "name": "707adcdbde2f795480fed236b1981901", "is_reserved": 0, "rental_uris": {"android": "https://dc.lft.to/lastmile_qr_scan", "ios": "https://dc.lft.to/lastmile_qr_scan"}, "fusion_lon": 0.0}, {"lat": 38.90033966666667, "is_disabled": 0, "type": "electric_scooter", "lon": -77.00210183333333, "bike_id": "6628207b4970b252fdf7ca33b2d6cdb4", "fusion_lat": 0.0, "name": "6628207b4970b252fdf7ca33b2d6cdb4", "is_reserved": 0, "rental_uris": {"android": "https://dc.lft.to/lastmile_qr_scan", "ios": "https://dc.lft.to/lastmile_qr_scan"}, "fusion_lon": 0.0}, {"lat": 38.933808166666665, "is_disabled": 0, "type": "electric_scooter", "lon": -77.03548516666666, "bike_id": "daf20886e7127b273f1fdffb09e9f175", "fusion_lat": 0.0, "name": "daf20886e7127b273f1fdffb09e9f175", "is_reserved": 0, "rental_uris": {"android": "https://dc.lft.to/lastmile_qr_scan", "ios": "https://dc.lft.to/lastmile_qr_scan"}, "fusion_lon": 0.0}, {"lat": 38.89225866666666, "is_disabled": 0, "type": "electric_bike", "lon": -77.0332205, "bike_id": "28d66344e802376a5678249ba5322ba4", "fusion_lat": 0.0, "name": "28d66344e802376a5678249ba5322ba4", "is_reserved": 0, "rental_uris": {"android": "https://dc.lft.to/lastmile_qr_scan", "ios": "https://dc.lft.to/lastmile_qr_scan"}, "fusion_lon": 0.0}, {"lat": 38.957291166666664, "is_disabled": 0, "type": "electric_scooter", "lon": -77.024037, "bike_id": "58cf9f3c3a2c337e3a0008e4400c9210", "fusion_lat": 0.0, "name": "58cf9f3c3a2c337e3a0008e4400c9210", "is_reserved": 0, "rental_uris": {"android": "https://dc.lft.to/lastmile_qr_scan", "ios": "https://dc.lft.to/lastmile_qr_scan"}, "fusion_lon": 0.0}, {"lat": 38.897488833333334, "is_disabled": 0, "type": "electric_scooter", "lon": -77.046676, "bike_id": "b67ad6b719670631673a809695d95fba", "fusion_lat": 0.0, "name": "b67ad6b719670631673a809695d95fba", "is_reserved": 0, "rental_uris": {"android": "https://dc.lft.to/lastmile_qr_scan", "ios": "https://dc.lft.to/lastmile_qr_scan"}, "fusion_lon": 0.0}, {"lat": 38.898391, "is_disabled": 0, "type": "electric_scooter", "lon": -77.0233925, "bike_id": "acc4a4f62a4b0a5d064cf87d0ddf3e64", "fusion_lat": 0.0, "name": "acc4a4f62a4b0a5d064cf87d0ddf3e64", "is_reserved": 0, "rental_uris": {"android": "https://dc.lft.to/lastmile_qr_scan", "ios": "https://dc.lft.to/lastmile_qr_scan"}, "fusion_lon": 0.0}, {"lat": 38.946327833333335, "is_disabled": 0, "type": "electric_scooter", "lon": -77.02521816666666, "bike_id": "b97ca59a27993c78f3fd1a51ad30a2d1", "fusion_lat": 0.0, "name": "b97ca59a27993c78f3fd1a51ad30a2d1", "is_reserved": 0, "rental_uris": {"android": "https://dc.lft.to/lastmile_qr_scan", "ios": "https://dc.lft.to/lastmile_qr_scan"}, "fusion_lon": 0.0}, {"lat": 38.8818265, "is_disabled": 0, "type": "electric_scooter", "lon": -77.0357285, "bike_id": "59091b42852bbbd7609f5770fcd19c23", "fusion_lat": 0.0, "name": "59091b42852bbbd7609f5770fcd19c23", "is_reserved": 0, "rental_uris": {"android": "https://dc.lft.to/lastmile_qr_scan", "ios": "https://dc.lft.to/lastmile_qr_scan"}, "fusion_lon": 0.0}, {"lat": 38.927389, "is_disabled": 0, "type": "electric_scooter", "lon": -77.02416116666667, "bike_id": "b5613ee5ac06e0c8211f6b11a0bbca13", "fusion_lat": 0.0, "name": "b5613ee5ac06e0c8211f6b11a0bbca13", "is_reserved": 0, "rental_uris": {"android": "https://dc.lft.to/lastmile_qr_scan", "ios": "https://dc.lft.to/lastmile_qr_scan"}, "fusion_lon": 0.0}, {"lat": 38.90219333333334, "is_disabled": 0, "type": "electric_scooter", "lon": -77.06030666666666, "bike_id": "b2d963c1860d09720b3cf39531608216", "fusion_lat": 0.0, "name": "b2d963c1860d09720b3cf39531608216", "is_reserved": 0, "rental_uris": {"android": "https://dc.lft.to/lastmile_qr_scan", "ios": "https://dc.lft.to/lastmile_qr_scan"}, "fusion_lon": 0.0}, {"lat": 38.9001025, "is_disabled": 0, "type": "electric_scooter", "lon": -77.00021466666666, "bike_id": "e12b179cc46b852923f6fa190a6873f1", "fusion_lat": 0.0, "name": "e12b179cc46b852923f6fa190a6873f1", "is_reserved": 0, "rental_uris": {"android": "https://dc.lft.to/lastmile_qr_scan", "ios": "https://dc.lft.to/lastmile_qr_scan"}, "fusion_lon": 0.0}, {"lat": 38.92365983333333, "is_disabled": 0, "type": "electric_scooter", "lon": -77.041521, "bike_id": "fa60fb7a476ef8837aef6881dfa0d85a", "fusion_lat": 0.0, "name": "fa60fb7a476ef8837aef6881dfa0d85a", "is_reserved": 0, "rental_uris": {"android": "https://dc.lft.to/lastmile_qr_scan", "ios": "https://dc.lft.to/lastmile_qr_scan"}, "fusion_lon": 0.0}, {"lat": 38.91564183333333, "is_disabled": 0, "type": "electric_scooter", "lon": -77.024184, "bike_id": "fe0947ac0227046e21e999fe75757f4c", "fusion_lat": 0.0, "name": "fe0947ac0227046e21e999fe75757f4c", "is_reserved": 0, "rental_uris": {"android": "https://dc.lft.to/lastmile_qr_scan", "ios": "https://dc.lft.to/lastmile_qr_scan"}, "fusion_lon": 0.0}, {"lat": 38.870898, "is_disabled": 0, "type": "electric_scooter", "lon": -77.0120845, "bike_id": "dd3c028debadcad85b5a637636e6f0c3", "fusion_lat": 0.0, "name": "dd3c028debadcad85b5a637636e6f0c3", "is_reserved": 0, "rental_uris": {"android": "https://dc.lft.to/lastmile_qr_scan", "ios": "https://dc.lft.to/lastmile_qr_scan"}, "fusion_lon": 0.0}, {"lat": 38.92470316666667, "is_disabled": 0, "type": "electric_scooter", "lon": -77.03969766666667, "bike_id": "45b66af2de7b3935a6be0905ef159e2a", "fusion_lat": 0.0, "name": "45b66af2de7b3935a6be0905ef159e2a", "is_reserved": 0, "rental_uris": {"android": "https://dc.lft.to/lastmile_qr_scan", "ios": "https://dc.lft.to/lastmile_qr_scan"}, "fusion_lon": 0.0}, {"lat": 38.91117, "is_disabled": 0, "type": "electric_scooter", "lon": -77.03824666666667, "bike_id": "71b0b7a1d4a3e9132fc36d0a5a1b2058", "fusion_lat": 0.0, "name": "71b0b7a1d4a3e9132fc36d0a5a1b2058", "is_reserved": 0, "rental_uris": {"android": "https://dc.lft.to/lastmile_qr_scan", "ios": "https://dc.lft.to/lastmile_qr_scan"}, "fusion_lon": 0.0}, {"lat": 38.905534833333334, "is_disabled": 0, "type": "electric_scooter", "lon": -77.04374383333334, "bike_id": "1106110633e55c0700854b2f77c81581", "fusion_lat": 0.0, "name": "1106110633e55c0700854b2f77c81581", "is_reserved": 0, "rental_uris": {"android": "https://dc.lft.to/lastmile_qr_scan", "ios": "https://dc.lft.to/lastmile_qr_scan"}, "fusion_lon": 0.0}, {"lat": 38.9045565, "is_disabled": 0, "type": "electric_scooter", "lon": -77.03176783333333, "bike_id": "2c9ec3ee320c85c2fd0d30f0f87cde6e", "fusion_lat": 0.0, "name": "2c9ec3ee320c85c2fd0d30f0f87cde6e", "is_reserved": 0, "rental_uris": {"android": "https://dc.lft.to/lastmile_qr_scan", "ios": "https://dc.lft.to/lastmile_qr_scan"}, "fusion_lon": 0.0}, {"lat": 38.94916383333333, "is_disabled": 0, "type": "electric_scooter", "lon": -77.00860283333333, "bike_id": "e99fa110dbeb83d91ba286a1c37bf87d", "fusion_lat": 0.0, "name": "e99fa110dbeb83d91ba286a1c37bf87d", "is_reserved": 0, "rental_uris": {"android": "https://dc.lft.to/lastmile_qr_scan", "ios": "https://dc.lft.to/lastmile_qr_scan"}, "fusion_lon": 0.0}, {"lat": 38.90139383333333, "is_disabled": 0, "type": "electric_scooter", "lon": -77.02875816666666, "bike_id": "562db8266567ad272cf9c66f67af30e9", "fusion_lat": 0.0, "name": "562db8266567ad272cf9c66f67af30e9", "is_reserved": 0, "rental_uris": {"android": "https://dc.lft.to/lastmile_qr_scan", "ios": "https://dc.lft.to/lastmile_qr_scan"}, "fusion_lon": 0.0}, {"lat": 38.915837833333335, "is_disabled": 0, "type": "electric_scooter", "lon": -77.04023066666667, "bike_id": "884ab3c4206b877412e4fe3f3670fb4c", "fusion_lat": 0.0, "name": "884ab3c4206b877412e4fe3f3670fb4c", "is_reserved": 0, "rental_uris": {"android": "https://dc.lft.to/lastmile_qr_scan", "ios": "https://dc.lft.to/lastmile_qr_scan"}, "fusion_lon": 0.0}, {"lat": 39.024286, "is_disabled": 0, "type": "electric_bike", "lon": -77.131018, "bike_id": "544c585aea9a1b5f77fb50b7fed7aa10", "fusion_lat": 0.0, "name": "544c585aea9a1b5f77fb50b7fed7aa10", "is_reserved": 0, "rental_uris": {"android": "https://dc.lft.to/lastmile_qr_scan", "ios": "https://dc.lft.to/lastmile_qr_scan"}, "fusion_lon": 0.0}, {"lat": 38.95159533333333, "is_disabled": 0, "type": "electric_scooter", "lon": -77.06771583333334, "bike_id": "cde6fd906141822c04f7330a10985471", "fusion_lat": 0.0, "name": "cde6fd906141822c04f7330a10985471", "is_reserved": 0, "rental_uris": {"android": "https://dc.lft.to/lastmile_qr_scan", "ios": "https://dc.lft.to/lastmile_qr_scan"}, "fusion_lon": 0.0}, {"lat": 38.917123, "is_disabled": 0, "type": "electric_scooter", "lon": -77.03865566666667, "bike_id": "0dc25bbdcee8ae18fcc3667fea785093", "fusion_lat": 0.0, "name": "0dc25bbdcee8ae18fcc3667fea785093", "is_reserved": 0, "rental_uris": {"android": "https://dc.lft.to/lastmile_qr_scan", "ios": "https://dc.lft.to/lastmile_qr_scan"}, "fusion_lon": 0.0}, {"lat": 38.998176666666666, "is_disabled": 0, "type": "electric_bike", "lon": -76.88377316666667, "bike_id": "5421b63d3e0ca0130cb179e93f203281", "fusion_lat": 0.0, "name": "5421b63d3e0ca0130cb179e93f203281", "is_reserved": 0, "rental_uris": {"android": "https://dc.lft.to/lastmile_qr_scan", "ios": "https://dc.lft.to/lastmile_qr_scan"}, "fusion_lon": 0.0}, {"lat": 38.8959305, "is_disabled": 0, "type": "electric_scooter", "lon": -77.022887, "bike_id": "3026271a410ef6c240ad4fbef8b8a8ca", "fusion_lat": 0.0, "name": "3026271a410ef6c240ad4fbef8b8a8ca", "is_reserved": 0, "rental_uris": {"android": "https://dc.lft.to/lastmile_qr_scan", "ios": "https://dc.lft.to/lastmile_qr_scan"}, "fusion_lon": 0.0}, {"lat": 39.030441833333335, "is_disabled": 0, "type": "electric_bike", "lon": -77.09477816666667, "bike_id": "1a5477dc2c24ec132c9e9d7cb1d451e9", "fusion_lat": 0.0, "name": "1a5477dc2c24ec132c9e9d7cb1d451e9", "is_reserved": 0, "rental_uris": {"android": "https://dc.lft.to/lastmile_qr_scan", "ios": "https://dc.lft.to/lastmile_qr_scan"}, "fusion_lon": 0.0}, {"lat": 38.9497465, "is_disabled": 0, "type": "electric_scooter", "lon": -77.06759416666667, "bike_id": "6aecf08bd4d3d9064b980bd2fa3df638", "fusion_lat": 0.0, "name": "6aecf08bd4d3d9064b980bd2fa3df638", "is_reserved": 0, "rental_uris": {"android": "https://dc.lft.to/lastmile_qr_scan", "ios": "https://dc.lft.to/lastmile_qr_scan"}, "fusion_lon": 0.0}, {"lat": 38.88479783333333, "is_disabled": 0, "type": "electric_scooter", "lon": -76.945289, "bike_id": "1af231f883d9df4f68c02dc0f36cbb64", "fusion_lat": 0.0, "name": "1af231f883d9df4f68c02dc0f36cbb64", "is_reserved": 0, "rental_uris": {"android": "https://dc.lft.to/lastmile_qr_scan", "ios": "https://dc.lft.to/lastmile_qr_scan"}, "fusion_lon": 0.0}, {"lat": 38.93335183333333, "is_disabled": 0, "type": "electric_scooter", "lon": -76.9930055, "bike_id": "d7f2b136843bd7e96bbfe257bfb45aac", "fusion_lat": 0.0, "name": "d7f2b136843bd7e96bbfe257bfb45aac", "is_reserved": 0, "rental_uris": {"android": "https://dc.lft.to/lastmile_qr_scan", "ios": "https://dc.lft.to/lastmile_qr_scan"}, "fusion_lon": 0.0}, {"lat": 38.91695383333333, "is_disabled": 0, "type": "electric_scooter", "lon": -77.031245, "bike_id": "3f155ccb962f355447c488ccb7b6bc81", "fusion_lat": 0.0, "name": "3f155ccb962f355447c488ccb7b6bc81", "is_reserved": 0, "rental_uris": {"android": "https://dc.lft.to/lastmile_qr_scan", "ios": "https://dc.lft.to/lastmile_qr_scan"}, "fusion_lon": 0.0}, {"lat": 38.917582, "is_disabled": 0, "type": "electric_scooter", "lon": -77.038781, "bike_id": "feae7f8c95998951448bfbebad8fb34e", "fusion_lat": 0.0, "name": "feae7f8c95998951448bfbebad8fb34e", "is_reserved": 0, "rental_uris": {"android": "https://dc.lft.to/lastmile_qr_scan", "ios": "https://dc.lft.to/lastmile_qr_scan"}, "fusion_lon": 0.0}, {"lat": 38.915411666666664, "is_disabled": 0, "type": "electric_scooter", "lon": -77.03200983333333, "bike_id": "62c3ea95161f1b47d6d4e7e077bc19c8", "fusion_lat": 0.0, "name": "62c3ea95161f1b47d6d4e7e077bc19c8", "is_reserved": 0, "rental_uris": {"android": "https://dc.lft.to/lastmile_qr_scan", "ios": "https://dc.lft.to/lastmile_qr_scan"}, "fusion_lon": 0.0}, {"lat": 38.90766333333333, "is_disabled": 0, "type": "electric_scooter", "lon": -77.03203383333333, "bike_id": "fc55ec50c123096c219fb07d9da0c86c", "fusion_lat": 0.0, "name": "fc55ec50c123096c219fb07d9da0c86c", "is_reserved": 0, "rental_uris": {"android": "https://dc.lft.to/lastmile_qr_scan", "ios": "https://dc.lft.to/lastmile_qr_scan"}, "fusion_lon": 0.0}, {"lat": 38.896020666666665, "is_disabled": 0, "type": "electric_scooter", "lon": -76.95520716666667, "bike_id": "aea0c290181aab49132e8c39fd3f4d39", "fusion_lat": 0.0, "name": "aea0c290181aab49132e8c39fd3f4d39", "is_reserved": 0, "rental_uris": {"android": "https://dc.lft.to/lastmile_qr_scan", "ios": "https://dc.lft.to/lastmile_qr_scan"}, "fusion_lon": 0.0}, {"lat": 38.925648333333335, "is_disabled": 0, "type": "electric_scooter", "lon": -77.0283645, "bike_id": "102da6a15c63484ef2345aa4f3baa86c", "fusion_lat": 0.0, "name": "102da6a15c63484ef2345aa4f3baa86c", "is_reserved": 0, "rental_uris": {"android": "https://dc.lft.to/lastmile_qr_scan", "ios": "https://dc.lft.to/lastmile_qr_scan"}, "fusion_lon": 0.0}, {"lat": 38.902263, "is_disabled": 0, "type": "electric_scooter", "lon": -77.043515, "bike_id": "40b68f5b23fdc154e961b22301a0b985", "fusion_lat": 0.0, "name": "40b68f5b23fdc154e961b22301a0b985", "is_reserved": 0, "rental_uris": {"android": "https://dc.lft.to/lastmile_qr_scan", "ios": "https://dc.lft.to/lastmile_qr_scan"}, "fusion_lon": 0.0}, {"lat": 38.915630166666666, "is_disabled": 0, "type": "electric_scooter", "lon": -77.00979283333334, "bike_id": "7e3dd84851f99577112af83d23049c13", "fusion_lat": 0.0, "name": "7e3dd84851f99577112af83d23049c13", "is_reserved": 0, "rental_uris": {"android": "https://dc.lft.to/lastmile_qr_scan", "ios": "https://dc.lft.to/lastmile_qr_scan"}, "fusion_lon": 0.0}, {"lat": 38.914920333333335, "is_disabled": 0, "type": "electric_scooter", "lon": -76.983655, "bike_id": "a7864f22374919bf63cd9bff69821ea1", "fusion_lat": 0.0, "name": "a7864f22374919bf63cd9bff69821ea1", "is_reserved": 0, "rental_uris": {"android": "https://dc.lft.to/lastmile_qr_scan", "ios": "https://dc.lft.to/lastmile_qr_scan"}, "fusion_lon": 0.0}, {"lat": 38.914286, "is_disabled": 0, "type": "electric_scooter", "lon": -77.03213783333334, "bike_id": "f3c2b22e1e98d696890331102721d36b", "fusion_lat": 0.0, "name": "f3c2b22e1e98d696890331102721d36b", "is_reserved": 0, "rental_uris": {"android": "https://dc.lft.to/lastmile_qr_scan", "ios": "https://dc.lft.to/lastmile_qr_scan"}, "fusion_lon": 0.0}, {"lat": 38.9088205, "is_disabled": 0, "type": "electric_scooter", "lon": -77.036664, "bike_id": "8f6985aad90b51c41b115325db9942ef", "fusion_lat": 0.0, "name": "8f6985aad90b51c41b115325db9942ef", "is_reserved": 0, "rental_uris": {"android": "https://dc.lft.to/lastmile_qr_scan", "ios": "https://dc.lft.to/lastmile_qr_scan"}, "fusion_lon": 0.0}, {"lat": 38.90743333333333, "is_disabled": 0, "type": "electric_scooter", "lon": -77.04166433333333, "bike_id": "e02dbad5551dcc01d1bffb2dbda9d925", "fusion_lat": 0.0, "name": "e02dbad5551dcc01d1bffb2dbda9d925", "is_reserved": 0, "rental_uris": {"android": "https://dc.lft.to/lastmile_qr_scan", "ios": "https://dc.lft.to/lastmile_qr_scan"}, "fusion_lon": 0.0}, {"lat": 38.957341166666666, "is_disabled": 0, "type": "electric_scooter", "lon": -77.02381916666667, "bike_id": "09d5b0ea57bbb7d465348dd51c9c295a", "fusion_lat": 0.0, "name": "09d5b0ea57bbb7d465348dd51c9c295a", "is_reserved": 0, "rental_uris": {"android": "https://dc.lft.to/lastmile_qr_scan", "ios": "https://dc.lft.to/lastmile_qr_scan"}, "fusion_lon": 0.0}, {"lat": 38.86224766666667, "is_disabled": 0, "type": "electric_scooter", "lon": -76.98360533333333, "bike_id": "13a875a38035261b17b7af323c912434", "fusion_lat": 0.0, "name": "13a875a38035261b17b7af323c912434", "is_reserved": 0, "rental_uris": {"android": "https://dc.lft.to/lastmile_qr_scan", "ios": "https://dc.lft.to/lastmile_qr_scan"}, "fusion_lon": 0.0}, {"lat": 38.90336083333333, "is_disabled": 0, "type": "electric_scooter", "lon": -76.97054316666667, "bike_id": "0badd6d202cc984e0f5370542f23145c", "fusion_lat": 0.0, "name": "0badd6d202cc984e0f5370542f23145c", "is_reserved": 0, "rental_uris": {"android": "https://dc.lft.to/lastmile_qr_scan", "ios": "https://dc.lft.to/lastmile_qr_scan"}, "fusion_lon": 0.0}, {"lat": 38.915635, "is_disabled": 0, "type": "electric_scooter", "lon": -77.01033133333334, "bike_id": "fd21ce7288f56a85e0fb5e28579a6994", "fusion_lat": 0.0, "name": "fd21ce7288f56a85e0fb5e28579a6994", "is_reserved": 0, "rental_uris": {"android": "https://dc.lft.to/lastmile_qr_scan", "ios": "https://dc.lft.to/lastmile_qr_scan"}, "fusion_lon": 0.0}, {"lat": 38.8827145, "is_disabled": 0, "type": "electric_bike", "lon": -76.932379, "bike_id": "2011b7b643e5312171c03fd3ea48c02e", "fusion_lat": 0.0, "name": "2011b7b643e5312171c03fd3ea48c02e", "is_reserved": 0, "rental_uris": {"android": "https://dc.lft.to/lastmile_qr_scan", "ios": "https://dc.lft.to/lastmile_qr_scan"}, "fusion_lon": 0.0}, {"lat": 38.88767283333333, "is_disabled": 0, "type": "electric_scooter", "lon": -76.98347766666667, "bike_id": "4ea6ac2077fa4a28d165db603d640c8d", "fusion_lat": 0.0, "name": "4ea6ac2077fa4a28d165db603d640c8d", "is_reserved": 0, "rental_uris": {"android": "https://dc.lft.to/lastmile_qr_scan", "ios": "https://dc.lft.to/lastmile_qr_scan"}, "fusion_lon": 0.0}, {"lat": 38.93568, "is_disabled": 0, "type": "electric_scooter", "lon": -77.03730083333333, "bike_id": "3317b5f299a20b2fcc03cf9d2260f76a", "fusion_lat": 0.0, "name": "3317b5f299a20b2fcc03cf9d2260f76a", "is_reserved": 0, "rental_uris": {"android": "https://dc.lft.to/lastmile_qr_scan", "ios": "https://dc.lft.to/lastmile_qr_scan"}, "fusion_lon": 0.0}, {"lat": 38.91200033333333, "is_disabled": 0, "type": "electric_scooter", "lon": -77.04483183333333, "bike_id": "64edce8199a70eb833e7e964e1a8d017", "fusion_lat": 0.0, "name": "64edce8199a70eb833e7e964e1a8d017", "is_reserved": 0, "rental_uris": {"android": "https://dc.lft.to/lastmile_qr_scan", "ios": "https://dc.lft.to/lastmile_qr_scan"}, "fusion_lon": 0.0}, {"lat": 38.9006225, "is_disabled": 0, "type": "electric_scooter", "lon": -77.05060816666666, "bike_id": "f109dab5e6662b6ff8f218a3cee27b88", "fusion_lat": 0.0, "name": "f109dab5e6662b6ff8f218a3cee27b88", "is_reserved": 0, "rental_uris": {"android": "https://dc.lft.to/lastmile_qr_scan", "ios": "https://dc.lft.to/lastmile_qr_scan"}, "fusion_lon": 0.0}, {"lat": 38.901190666666665, "is_disabled": 0, "type": "electric_scooter", "lon": -77.04994116666667, "bike_id": "1fd3dd6c431500685c6d3934627bc74b", "fusion_lat": 0.0, "name": "1fd3dd6c431500685c6d3934627bc74b", "is_reserved": 0, "rental_uris": {"android": "https://dc.lft.to/lastmile_qr_scan", "ios": "https://dc.lft.to/lastmile_qr_scan"}, "fusion_lon": 0.0}, {"lat": 38.950808333333335, "is_disabled": 0, "type": "electric_bike", "lon": -77.01200516666667, "bike_id": "9afe13907d6bd37647a5d9166ef7ebdc", "fusion_lat": 0.0, "name": "9afe13907d6bd37647a5d9166ef7ebdc", "is_reserved": 0, "rental_uris": {"android": "https://dc.lft.to/lastmile_qr_scan", "ios": "https://dc.lft.to/lastmile_qr_scan"}, "fusion_lon": 0.0}, {"lat": 38.8661755, "is_disabled": 0, "type": "electric_scooter", "lon": -76.98660016666666, "bike_id": "ff006d1d385f728a1186ff836288595f", "fusion_lat": 0.0, "name": "ff006d1d385f728a1186ff836288595f", "is_reserved": 0, "rental_uris": {"android": "https://dc.lft.to/lastmile_qr_scan", "ios": "https://dc.lft.to/lastmile_qr_scan"}, "fusion_lon": 0.0}, {"lat": 38.90093816666667, "is_disabled": 0, "type": "electric_scooter", "lon": -77.0492305, "bike_id": "fcc25949f3b682ebda0e8b32cbb32d0c", "fusion_lat": 0.0, "name": "fcc25949f3b682ebda0e8b32cbb32d0c", "is_reserved": 0, "rental_uris": {"android": "https://dc.lft.to/lastmile_qr_scan", "ios": "https://dc.lft.to/lastmile_qr_scan"}, "fusion_lon": 0.0}, {"lat": 38.925876, "is_disabled": 0, "type": "electric_scooter", "lon": -77.02288883333334, "bike_id": "e66135f2d605b4ea6f1d03d87a65fbb8", "fusion_lat": 0.0, "name": "e66135f2d605b4ea6f1d03d87a65fbb8", "is_reserved": 0, "rental_uris": {"android": "https://dc.lft.to/lastmile_qr_scan", "ios": "https://dc.lft.to/lastmile_qr_scan"}, "fusion_lon": 0.0}, {"lat": 38.957808166666666, "is_disabled": 0, "type": "electric_scooter", "lon": -77.0275595, "bike_id": "13a95c04b6b81236704ca6b911f0c989", "fusion_lat": 0.0, "name": "13a95c04b6b81236704ca6b911f0c989", "is_reserved": 0, "rental_uris": {"android": "https://dc.lft.to/lastmile_qr_scan", "ios": "https://dc.lft.to/lastmile_qr_scan"}, "fusion_lon": 0.0}, {"lat": 38.93973866666666, "is_disabled": 0, "type": "electric_scooter", "lon": -77.03584683333334, "bike_id": "e0c6687bd6cfc9f510d0fe48931ffeb3", "fusion_lat": 0.0, "name": "e0c6687bd6cfc9f510d0fe48931ffeb3", "is_reserved": 0, "rental_uris": {"android": "https://dc.lft.to/lastmile_qr_scan", "ios": "https://dc.lft.to/lastmile_qr_scan"}, "fusion_lon": 0.0}, {"lat": 38.90987633333334, "is_disabled": 0, "type": "electric_scooter", "lon": -77.00889033333333, "bike_id": "3cb1c6fb56bd9b8da60233f8731aad8f", "fusion_lat": 0.0, "name": "3cb1c6fb56bd9b8da60233f8731aad8f", "is_reserved": 0, "rental_uris": {"android": "https://dc.lft.to/lastmile_qr_scan", "ios": "https://dc.lft.to/lastmile_qr_scan"}, "fusion_lon": 0.0}, {"lat": 38.9087945, "is_disabled": 0, "type": "electric_scooter", "lon": -77.0366975, "bike_id": "170b54d3ce27ca7fbb2562ec2213c6dc", "fusion_lat": 0.0, "name": "170b54d3ce27ca7fbb2562ec2213c6dc", "is_reserved": 0, "rental_uris": {"android": "https://dc.lft.to/lastmile_qr_scan", "ios": "https://dc.lft.to/lastmile_qr_scan"}, "fusion_lon": 0.0}, {"lat": 38.88693333333333, "is_disabled": 0, "type": "electric_scooter", "lon": -77.00216266666666, "bike_id": "5134c3b53ec4d081257e93ae865a8c07", "fusion_lat": 0.0, "name": "5134c3b53ec4d081257e93ae865a8c07", "is_reserved": 0, "rental_uris": {"android": "https://dc.lft.to/lastmile_qr_scan", "ios": "https://dc.lft.to/lastmile_qr_scan"}, "fusion_lon": 0.0}, {"lat": 38.862447333333336, "is_disabled": 0, "type": "electric_scooter", "lon": -76.99260766666667, "bike_id": "1d5cb5a06c82b8c90da4660a11f6dda0", "fusion_lat": 0.0, "name": "1d5cb5a06c82b8c90da4660a11f6dda0", "is_reserved": 0, "rental_uris": {"android": "https://dc.lft.to/lastmile_qr_scan", "ios": "https://dc.lft.to/lastmile_qr_scan"}, "fusion_lon": 0.0}, {"lat": 38.9311965, "is_disabled": 0, "type": "electric_scooter", "lon": -77.030266, "bike_id": "9799f47ca10e9647848da88ea51a78eb", "fusion_lat": 0.0, "name": "9799f47ca10e9647848da88ea51a78eb", "is_reserved": 0, "rental_uris": {"android": "https://dc.lft.to/lastmile_qr_scan", "ios": "https://dc.lft.to/lastmile_qr_scan"}, "fusion_lon": 0.0}, {"lat": 38.88490566666667, "is_disabled": 0, "type": "electric_scooter", "lon": -77.00724966666667, "bike_id": "0547a38c5f4cefe573d574a3566b295c", "fusion_lat": 0.0, "name": "0547a38c5f4cefe573d574a3566b295c", "is_reserved": 0, "rental_uris": {"android": "https://dc.lft.to/lastmile_qr_scan", "ios": "https://dc.lft.to/lastmile_qr_scan"}, "fusion_lon": 0.0}, {"lat": 38.92007433333333, "is_disabled": 0, "type": "electric_scooter", "lon": -77.03877033333333, "bike_id": "2e4809ca9bd0112b3c1a3ab6891ab42e", "fusion_lat": 0.0, "name": "2e4809ca9bd0112b3c1a3ab6891ab42e", "is_reserved": 0, "rental_uris": {"android": "https://dc.lft.to/lastmile_qr_scan", "ios": "https://dc.lft.to/lastmile_qr_scan"}, "fusion_lon": 0.0}, {"lat": 38.9170595, "is_disabled": 0, "type": "electric_scooter", "lon": -77.001136, "bike_id": "588e82f61aba5b5ad854f52101c99b26", "fusion_lat": 0.0, "name": "588e82f61aba5b5ad854f52101c99b26", "is_reserved": 0, "rental_uris": {"android": "https://dc.lft.to/lastmile_qr_scan", "ios": "https://dc.lft.to/lastmile_qr_scan"}, "fusion_lon": 0.0}, {"lat": 38.90892683333333, "is_disabled": 0, "type": "electric_scooter", "lon": -77.04302416666667, "bike_id": "ee241f263bebaf6553ec04d7ee16e349", "fusion_lat": 0.0, "name": "ee241f263bebaf6553ec04d7ee16e349", "is_reserved": 0, "rental_uris": {"android": "https://dc.lft.to/lastmile_qr_scan", "ios": "https://dc.lft.to/lastmile_qr_scan"}, "fusion_lon": 0.0}, {"lat": 38.895582, "is_disabled": 0, "type": "electric_scooter", "lon": -76.930773, "bike_id": "7d67bdab90489bda4610b655f29ddd09", "fusion_lat": 0.0, "name": "7d67bdab90489bda4610b655f29ddd09", "is_reserved": 0, "rental_uris": {"android": "https://dc.lft.to/lastmile_qr_scan", "ios": "https://dc.lft.to/lastmile_qr_scan"}, "fusion_lon": 0.0}, {"lat": 38.93958766666667, "is_disabled": 0, "type": "electric_bike", "lon": -77.36092633333334, "bike_id": "c2c286fe37b0f43236a322c798669d93", "fusion_lat": 0.0, "name": "c2c286fe37b0f43236a322c798669d93", "is_reserved": 0, "rental_uris": {"android": "https://dc.lft.to/lastmile_qr_scan", "ios": "https://dc.lft.to/lastmile_qr_scan"}, "fusion_lon": 0.0}, {"lat": 38.92678316666667, "is_disabled": 0, "type": "electric_scooter", "lon": -77.03054516666667, "bike_id": "9bc2d2c4689688d080f9b6811c10bc9b", "fusion_lat": 0.0, "name": "9bc2d2c4689688d080f9b6811c10bc9b", "is_reserved": 0, "rental_uris": {"android": "https://dc.lft.to/lastmile_qr_scan", "ios": "https://dc.lft.to/lastmile_qr_scan"}, "fusion_lon": 0.0}, {"lat": 38.952888, "is_disabled": 0, "type": "electric_bike", "lon": -76.94603133333334, "bike_id": "21431ecb541b21e4a80235998bfe02c7", "fusion_lat": 0.0, "name": "21431ecb541b21e4a80235998bfe02c7", "is_reserved": 0, "rental_uris": {"android": "https://dc.lft.to/lastmile_qr_scan", "ios": "https://dc.lft.to/lastmile_qr_scan"}, "fusion_lon": 0.0}, {"lat": 38.9428975, "is_disabled": 0, "type": "electric_bike", "lon": -77.02800816666667, "bike_id": "54ae873fdba65ebc8fc7cec1ebbf5b9d", "fusion_lat": 0.0, "name": "54ae873fdba65ebc8fc7cec1ebbf5b9d", "is_reserved": 0, "rental_uris": {"android": "https://dc.lft.to/lastmile_qr_scan", "ios": "https://dc.lft.to/lastmile_qr_scan"}, "fusion_lon": 0.0}, {"lat": 38.917338666666666, "is_disabled": 0, "type": "electric_scooter", "lon": -77.02399016666666, "bike_id": "d60792e88ffc769cdbe44357bbb0f885", "fusion_lat": 0.0, "name": "d60792e88ffc769cdbe44357bbb0f885", "is_reserved": 0, "rental_uris": {"android": "https://dc.lft.to/lastmile_qr_scan", "ios": "https://dc.lft.to/lastmile_qr_scan"}, "fusion_lon": 0.0}, {"lat": 38.89123083333333, "is_disabled": 0, "type": "electric_scooter", "lon": -76.94090016666667, "bike_id": "8b8c2aac4e831466e3f1fd835dd3f7d7", "fusion_lat": 0.0, "name": "8b8c2aac4e831466e3f1fd835dd3f7d7", "is_reserved": 0, "rental_uris": {"android": "https://dc.lft.to/lastmile_qr_scan", "ios": "https://dc.lft.to/lastmile_qr_scan"}, "fusion_lon": 0.0}, {"lat": 38.935524666666666, "is_disabled": 0, "type": "electric_scooter", "lon": -77.0586505, "bike_id": "87987a3aa4c516e23dd0f4199afe28c1", "fusion_lat": 0.0, "name": "87987a3aa4c516e23dd0f4199afe28c1", "is_reserved": 0, "rental_uris": {"android": "https://dc.lft.to/lastmile_qr_scan", "ios": "https://dc.lft.to/lastmile_qr_scan"}, "fusion_lon": 0.0}, {"lat": 38.89827, "is_disabled": 0, "type": "electric_scooter", "lon": -77.04004866666666, "bike_id": "3b456d90b854ba26c08116007b3c59fe", "fusion_lat": 0.0, "name": "3b456d90b854ba26c08116007b3c59fe", "is_reserved": 0, "rental_uris": {"android": "https://dc.lft.to/lastmile_qr_scan", "ios": "https://dc.lft.to/lastmile_qr_scan"}, "fusion_lon": 0.0}, {"lat": 38.9183525, "is_disabled": 0, "type": "electric_scooter", "lon": -77.02302333333333, "bike_id": "d1b7d3cda314e6796474c511e33324b7", "fusion_lat": 0.0, "name": "d1b7d3cda314e6796474c511e33324b7", "is_reserved": 0, "rental_uris": {"android": "https://dc.lft.to/lastmile_qr_scan", "ios": "https://dc.lft.to/lastmile_qr_scan"}, "fusion_lon": 0.0}, {"lat": 38.96093066666667, "is_disabled": 0, "type": "electric_scooter", "lon": -77.08284183333333, "bike_id": "487573e8449695fa7995690d82e242a9", "fusion_lat": 0.0, "name": "487573e8449695fa7995690d82e242a9", "is_reserved": 0, "rental_uris": {"android": "https://dc.lft.to/lastmile_qr_scan", "ios": "https://dc.lft.to/lastmile_qr_scan"}, "fusion_lon": 0.0}, {"lat": 38.91694616666667, "is_disabled": 0, "type": "electric_scooter", "lon": -77.03477966666667, "bike_id": "a078519c5f32b8bce7bfc16059d98c3a", "fusion_lat": 0.0, "name": "a078519c5f32b8bce7bfc16059d98c3a", "is_reserved": 0, "rental_uris": {"android": "https://dc.lft.to/lastmile_qr_scan", "ios": "https://dc.lft.to/lastmile_qr_scan"}, "fusion_lon": 0.0}, {"lat": 38.900046, "is_disabled": 0, "type": "electric_scooter", "lon": -76.998418, "bike_id": "1b38e1b30753f0eeb2daf1b0f348795e", "fusion_lat": 0.0, "name": "1b38e1b30753f0eeb2daf1b0f348795e", "is_reserved": 0, "rental_uris": {"android": "https://dc.lft.to/lastmile_qr_scan", "ios": "https://dc.lft.to/lastmile_qr_scan"},