{"data": {"bikes": [{"rental_uris": {"ios": "https://dc.lft.to/lastmile_qr_scan", "android": "https://dc.lft.to/lastmile_qr_scan"}, "fusion_lat": 0.0, "name": "a80e92c1eeb7b81b0a1c1838ffa2546b", "bike_id": "a80e92c1eeb7b81b0a1c1838ffa2546b", "is_disabled": 0, "type": "electric_bike", "lat": 38.84290416666666, "lon": -77.04488766666667, "is_reserved": 0, "fusion_lon": 0.0}, {"rental_uris": {"ios": "https://dc.lft.to/lastmile_qr_scan", "android": "https://dc.lft.to/lastmile_qr_scan"}, "fusion_lat": 0.0, "name": "b15123f93f2a7dd5954155e31bfd1da5", "bike_id": "b15123f93f2a7dd5954155e31bfd1da5", "is_disabled": 0, "type": "electric_scooter", "lat": 38.892219833333336, "lon": -77.0222125, "is_reserved": 0, "fusion_lon": 0.0}, {"rental_uris": {"ios": "https://dc.lft.to/lastmile_qr_scan", "android": "https://dc.lft.to/lastmile_qr_scan"}, "fusion_lat": 0.0, "name": "a53ac22eacbbf47eda10dac5ea8be6ea", "bike_id": "a53ac22eacbbf47eda10dac5ea8be6ea", "is_disabled": 0, "type": "electric_scooter", "lat": 38.950773166666664, "lon": -77.0310115, "is_reserved": 0, "fusion_lon": 0.0}, {"rental_uris": {"ios": "https://dc.lft.to/lastmile_qr_scan", "android": "https://dc.lft.to/lastmile_qr_scan"}, "fusion_lat": 0.0, "name": "1205f06f6d9e700ea587c6469075a64e", "bike_id": "1205f06f6d9e700ea587c6469075a64e", "is_disabled": 0, "type": "electric_scooter", "lat": 38.89867383333333, "lon": -77.03980966666667, "is_reserved": 0, "fusion_lon": 0.0}, {"rental_uris": {"ios": "https://dc.lft.to/lastmile_qr_scan", "android": "https://dc.lft.to/lastmile_qr_scan"}, "fusion_lat": 0.0, "name": "35581b4221492e0234675533ea879073", "bike_id": "35581b4221492e0234675533ea879073", "is_disabled": 0, "type": "electric_scooter", "lat": 38.9003745, "lon": -76.997748, "is_reserved": 0, "fusion_lon": 0.0}, {"rental_uris": {"ios": "https://dc.lft.to/lastmile_qr_scan", "android": "https://dc.lft.to/lastmile_qr_scan"}, "fusion_lat": 0.0, "name": "ae2083b94983320af2e0ff95b3cedccd", "bike_id": "ae2083b94983320af2e0ff95b3cedccd", "is_disabled": 0, "type": "electric_scooter", "lat": 38.92591816666667, "lon": -77.02140716666666, "is_reserved": 0, "fusion_lon": 0.0}, {"rental_uris": {"ios": "https://dc.lft.to/lastmile_qr_scan", "android": "https://dc.lft.to/lastmile_qr_scan"}, "fusion_lat": 0.0, "name": "47d1dd2a0b42426bb8cd104bbeaeb2a2", "bike_id": "47d1dd2a0b42426bb8cd104bbeaeb2a2", "is_disabled": 0, "type": "electric_bike", "lat": 38.924145833333334, "lon": -77.05041516666667, "is_reserved": 0, "fusion_lon": 0.0}, {"rental_uris": {"ios": "https://dc.lft.to/lastmile_qr_scan", "android": "https://dc.lft.to/lastmile_qr_scan"}, "fusion_lat": 0.0, "name": "f5f96eabe85756f945305b32cd15a7fb", "bike_id": "f5f96eabe85756f945305b32cd15a7fb", "is_disabled": 0, "type": "electric_scooter", "lat": 38.934868, "lon": -77.07271616666667, "is_reserved": 0, "fusion_lon": 0.0}, {"rental_uris": {"ios": "https://dc.lft.to/lastmile_qr_scan", "android": "https://dc.lft.to/lastmile_qr_scan"}, "fusion_lat": 0.0, "name": "b53f7db4234de816f6a96c0f0b81abea", "bike_id": "b53f7db4234de816f6a96c0f0b81abea", "is_disabled": 0, "type": "electric_scooter", "lat": 38.90035733333333, "lon": -77.03996283333333, "is_reserved": 0, "fusion_lon": 0.0}, {"rental_uris": {"ios": "https://dc.lft.to/lastmile_qr_scan", "android": "https://dc.lft.to/lastmile_qr_scan"}, "fusion_lat": 0.0, "name": "23b1afaac06a7ddeda11464bc85366cd", "bike_id": "23b1afaac06a7ddeda11464bc85366cd", "is_disabled": 0, "type": "electric_scooter", "lat": 38.90566, "lon": -77.03432383333333, "is_reserved": 0, "fusion_lon": 0.0}, {"rental_uris": {"ios": "https://dc.lft.to/lastmile_qr_scan", "android": "https://dc.lft.to/lastmile_qr_scan"}, "fusion_lat": 0.0, "name": "1f0174b8727ca26323eca2c14b199186", "bike_id": "1f0174b8727ca26323eca2c14b199186", "is_disabled": 0, "type": "electric_scooter", "lat": 38.9205035, "lon": -77.02579133333333, "is_reserved": 0, "fusion_lon": 0.0}, {"rental_uris": {"ios": "https://dc.lft.to/lastmile_qr_scan", "android": "https://dc.lft.to/lastmile_qr_scan"}, "fusion_lat": 0.0, "name": "a24529b47da0175e51372557460e1c50", "bike_id": "a24529b47da0175e51372557460e1c50", "is_disabled": 0, "type": "electric_scooter", "lat": 38.92616816666666, "lon": -77.0394325, "is_reserved": 0, "fusion_lon": 0.0}, {"rental_uris": {"ios": "https://dc.lft.to/lastmile_qr_scan", "android": "https://dc.lft.to/lastmile_qr_scan"}, "fusion_lat": 0.0, "name": "8840b6f7968f4746b22a6b3191e92041", "bike_id": "8840b6f7968f4746b22a6b3191e92041", "is_disabled": 0, "type": "electric_scooter", "lat": 38.933028166666666, "lon": -77.0246255, "is_reserved": 0, "fusion_lon": 0.0}, {"rental_uris": {"ios": "https://dc.lft.to/lastmile_qr_scan", "android": "https://dc.lft.to/lastmile_qr_scan"}, "fusion_lat": 0.0, "name": "5c32493e55754351520a99334c6328f1", "bike_id": "5c32493e55754351520a99334c6328f1", "is_disabled": 0, "type": "electric_scooter", "lat": 38.90144866666667, "lon": -77.04392633333333, "is_reserved": 0, "fusion_lon": 0.0}, {"rental_uris": {"ios": "https://dc.lft.to/lastmile_qr_scan", "android": "https://dc.lft.to/lastmile_qr_scan"}, "fusion_lat": 0.0, "name": "b51b7847605bd8cbf05672c3fd443277", "bike_id": "b51b7847605bd8cbf05672c3fd443277", "is_disabled": 0, "type": "electric_scooter", "lat": 38.91267366666667, "lon": -77.0443735, "is_reserved": 0, "fusion_lon": 0.0}, {"rental_uris": {"ios": "https://dc.lft.to/lastmile_qr_scan", "android": "https://dc.lft.to/lastmile_qr_scan"}, "fusion_lat": 0.0, "name": "d035170207b54a73dd10ed55a1b758f0", "bike_id": "d035170207b54a73dd10ed55a1b758f0", "is_disabled": 0, "type": "electric_scooter", "lat": 38.902464333333334, "lon": -77.03958, "is_reserved": 0, "fusion_lon": 0.0}, {"rental_uris": {"ios": "https://dc.lft.to/lastmile_qr_scan", "android": "https://dc.lft.to/lastmile_qr_scan"}, "fusion_lat": 0.0, "name": "50099d25823055664595404f290f6da3", "bike_id": "50099d25823055664595404f290f6da3", "is_disabled": 0, "type": "electric_bike", "lat": 38.92263666666667, "lon": -76.98153333333333, "is_reserved": 0, "fusion_lon": 0.0}, {"rental_uris": {"ios": "https://dc.lft.to/lastmile_qr_scan", "android": "https://dc.lft.to/lastmile_qr_scan"}, "fusion_lat": 0.0, "name": "b4f2c8b4912436d3e6d1bdb25cd2853e", "bike_id": "b4f2c8b4912436d3e6d1bdb25cd2853e", "is_disabled": 0, "type": "electric_scooter", "lat": 38.913327333333335, "lon": -77.03168466666666, "is_reserved": 0, "fusion_lon": 0.0}, {"rental_uris": {"ios": "https://dc.lft.to/lastmile_qr_scan", "android": "https://dc.lft.to/lastmile_qr_scan"}, "fusion_lat": 0.0, "name": "d5f63657d82e11e4431522f17a3bd92b", "bike_id": "d5f63657d82e11e4431522f17a3bd92b", "is_disabled": 0, "type": "electric_bike", "lat": 39.0293155, "lon": -77.04927033333334, "is_reserved": 0, "fusion_lon": 0.0}, {"rental_uris": {"ios": "https://dc.lft.to/lastmile_qr_scan", "android": "https://dc.lft.to/lastmile_qr_scan"}, "fusion_lat": 0.0, "name": "6dff2afe5eebaee5bba946f9a6d836a6", "bike_id": "6dff2afe5eebaee5bba946f9a6d836a6", "is_disabled": 0, "type": "electric_scooter", "lat": 38.902790333333336, "lon": -77.02802633333333, "is_reserved": 0, "fusion_lon": 0.0}, {"rental_uris": {"ios": "https://dc.lft.to/lastmile_qr_scan", "android": "https://dc.lft.to/lastmile_qr_scan"}, "fusion_lat": 0.0, "name": "7315481b6405dab59660cf455285c456", "bike_id": "7315481b6405dab59660cf455285c456", "is_disabled": 0, "type": "electric_scooter", "lat": 38.90502033333333, "lon": -76.97930483333333, "is_reserved": 0, "fusion_lon": 0.0}, {"rental_uris": {"ios": "https://dc.lft.to/lastmile_qr_scan", "android": "https://dc.lft.to/lastmile_qr_scan"}, "fusion_lat": 0.0, "name": "d469a3d56d6c979ba821b1bdceaad288", "bike_id": "d469a3d56d6c979ba821b1bdceaad288", "is_disabled": 0, "type": "electric_scooter", "lat": 38.9213055, "lon": -77.04420083333333, "is_reserved": 0, "fusion_lon": 0.0}, {"rental_uris": {"ios": "https://dc.lft.to/lastmile_qr_scan", "android": "https://dc.lft.to/lastmile_qr_scan"}, "fusion_lat": 0.0, "name": "b2156433bcd24b4a92008e2e92583132", "bike_id": "b2156433bcd24b4a92008e2e92583132", "is_disabled": 0, "type": "electric_scooter", "lat": 38.902682666666664, "lon": -77.038794, "is_reserved": 0, "fusion_lon": 0.0}, {"rental_uris": {"ios": "https://dc.lft.to/lastmile_qr_scan", "android": "https://dc.lft.to/lastmile_qr_scan"}, "fusion_lat": 0.0, "name": "fef8e242314184ac9c50838a53112c5c", "bike_id": "fef8e242314184ac9c50838a53112c5c", "is_disabled": 0, "type": "electric_scooter", "lat": 38.921496166666664, "lon": -77.03502733333333, "is_reserved": 0, "fusion_lon": 0.0}, {"rental_uris": {"ios": "https://dc.lft.to/lastmile_qr_scan", "android": "https://dc.lft.to/lastmile_qr_scan"}, "fusion_lat": 0.0, "name": "e8f4a893035ba7a170be6bf4d252b8ee", "bike_id": "e8f4a893035ba7a170be6bf4d252b8ee", "is_disabled": 0, "type": "electric_scooter", "lat": 38.94384633333333, "lon": -77.077057, "is_reserved": 0, "fusion_lon": 0.0}, {"rental_uris": {"ios": "https://dc.lft.to/lastmile_qr_scan", "android": "https://dc.lft.to/lastmile_qr_scan"}, "fusion_lat": 0.0, "name": "5d2ce1fd0d500655b8d064e6e0f42f9d", "bike_id": "5d2ce1fd0d500655b8d064e6e0f42f9d", "is_disabled": 0, "type": "electric_scooter", "lat": 38.903776, "lon": -77.0387035, "is_reserved": 0, "fusion_lon": 0.0}, {"rental_uris": {"ios": "https://dc.lft.to/lastmile_qr_scan", "android": "https://dc.lft.to/lastmile_qr_scan"}, "fusion_lat": 0.0, "name": "199a1a8d6d1212a643fe696befeae647", "bike_id": "199a1a8d6d1212a643fe696befeae647", "is_disabled": 0, "type": "electric_scooter", "lat": 38.90568783333333, "lon": -77.0055615, "is_reserved": 0, "fusion_lon": 0.0}, {"rental_uris": {"ios": "https://dc.lft.to/lastmile_qr_scan", "android": "https://dc.lft.to/lastmile_qr_scan"}, "fusion_lat": 0.0, "name": "b384587623a9def97e62b9ffb142c6bd", "bike_id": "b384587623a9def97e62b9ffb142c6bd", "is_disabled": 0, "type": "electric_scooter", "lat": 38.903123, "lon": -77.02432683333333, "is_reserved": 0, "fusion_lon": 0.0}, {"rental_uris": {"ios": "https://dc.lft.to/lastmile_qr_scan", "android": "https://dc.lft.to/lastmile_qr_scan"}, "fusion_lat": 0.0, "name": "a5be5ed8abbd678ed48ccced1eddcebe", "bike_id": "a5be5ed8abbd678ed48ccced1eddcebe", "is_disabled": 0, "type": "electric_scooter", "lat": 38.9163585, "lon": -77.02549133333333, "is_reserved": 0, "fusion_lon": 0.0}, {"rental_uris": {"ios": "https://dc.lft.to/lastmile_qr_scan", "android": "https://dc.lft.to/lastmile_qr_scan"}, "fusion_lat": 0.0, "name": "1d2d4d96b89ed96c995a52aaa1a29e30", "bike_id": "1d2d4d96b89ed96c995a52aaa1a29e30", "is_disabled": 0, "type": "electric_bike", "lat": 38.859054666666665, "lon": -76.96694933333333, "is_reserved": 0, "fusion_lon": 0.0}, {"rental_uris": {"ios": "https://dc.lft.to/lastmile_qr_scan", "android": "https://dc.lft.to/lastmile_qr_scan"}, "fusion_lat": 0.0, "name": "2d4e02a669bcbe146e2b97fb6f4e5f2c", "bike_id": "2d4e02a669bcbe146e2b97fb6f4e5f2c", "is_disabled": 0, "type": "electric_bike", "lat": 39.06294783333333, "lon": -77.0497725, "is_reserved": 0, "fusion_lon": 0.0}, {"rental_uris": {"ios": "https://dc.lft.to/lastmile_qr_scan", "android": "https://dc.lft.to/lastmile_qr_scan"}, "fusion_lat": 0.0, "name": "484fa4bd3b198757b71cb7af86ba963b", "bike_id": "484fa4bd3b198757b71cb7af86ba963b", "is_disabled": 0, "type": "electric_scooter", "lat": 38.9063155, "lon": -77.00601316666666, "is_reserved": 0, "fusion_lon": 0.0}, {"rental_uris": {"ios": "https://dc.lft.to/lastmile_qr_scan", "android": "https://dc.lft.to/lastmile_qr_scan"}, "fusion_lat": 0.0, "name": "abae082728564ba9eac699e3276cc898", "bike_id": "abae082728564ba9eac699e3276cc898", "is_disabled": 0, "type": "electric_scooter", "lat": 38.91559683333333, "lon": -77.03149316666666, "is_reserved": 0, "fusion_lon": 0.0}, {"rental_uris": {"ios": "https://dc.lft.to/lastmile_qr_scan", "android": "https://dc.lft.to/lastmile_qr_scan"}, "fusion_lat": 0.0, "name": "34e7799ca6ceeed732367ca6943882cb", "bike_id": "34e7799ca6ceeed732367ca6943882cb", "is_disabled": 0, "type": "electric_scooter", "lat": 38.89228716666667, "lon": -77.01364433333333, "is_reserved": 0, "fusion_lon": 0.0}, {"rental_uris": {"ios": "https://dc.lft.to/lastmile_qr_scan", "android": "https://dc.lft.to/lastmile_qr_scan"}, "fusion_lat": 0.0, "name": "53060cdaef723796743c011a132d96c9", "bike_id": "53060cdaef723796743c011a132d96c9", "is_disabled": 0, "type": "electric_scooter", "lat": 38.89621533333333, "lon": -77.03162433333334, "is_reserved": 0, "fusion_lon": 0.0}, {"rental_uris": {"ios": "https://dc.lft.to/lastmile_qr_scan", "android": "https://dc.lft.to/lastmile_qr_scan"}, "fusion_lat": 0.0, "name": "114ccbf3ef350148fe04023e8c52661c", "bike_id": "114ccbf3ef350148fe04023e8c52661c", "is_disabled": 0, "type": "electric_scooter", "lat": 38.924119166666664, "lon": -77.02106466666666, "is_reserved": 0, "fusion_lon": 0.0}, {"rental_uris": {"ios": "https://dc.lft.to/lastmile_qr_scan", "android": "https://dc.lft.to/lastmile_qr_scan"}, "fusion_lat": 0.0, "name": "c90fa31a3e2571185247bf1b6d24a533", "bike_id": "c90fa31a3e2571185247bf1b6d24a533", "is_disabled": 0, "type": "electric_scooter", "lat": 38.961642166666664, "lon": -77.02783016666666, "is_reserved": 0, "fusion_lon": 0.0}, {"rental_uris": {"ios": "https://dc.lft.to/lastmile_qr_scan", "android": "https://dc.lft.to/lastmile_qr_scan"}, "fusion_lat": 0.0, "name": "7f760f9fc52e64b11fe18ddd8d9df216", "bike_id": "7f760f9fc52e64b11fe18ddd8d9df216", "is_disabled": 0, "type": "electric_scooter", "lat": 38.916513333333334, "lon": -77.02289, "is_reserved": 0, "fusion_lon": 0.0}, {"rental_uris": {"ios": "https://dc.lft.to/lastmile_qr_scan", "android": "https://dc.lft.to/lastmile_qr_scan"}, "fusion_lat": 0.0, "name": "5777b11b9bdfd49e3fac751e4eb52e98", "bike_id": "5777b11b9bdfd49e3fac751e4eb52e98", "is_disabled": 0, "type": "electric_scooter", "lat": 38.90543533333334, "lon": -77.03246333333334, "is_reserved": 0, "fusion_lon": 0.0}, {"rental_uris": {"ios": "https://dc.lft.to/lastmile_qr_scan", "android": "https://dc.lft.to/lastmile_qr_scan"}, "fusion_lat": 0.0, "name": "817d88a97d6227100c34856d9a1e99a5", "bike_id": "817d88a97d6227100c34856d9a1e99a5", "is_disabled": 0, "type": "electric_bike", "lat": 38.885707, "lon": -77.08521166666667, "is_reserved": 0, "fusion_lon": 0.0}, {"rental_uris": {"ios": "https://dc.lft.to/lastmile_qr_scan", "android": "https://dc.lft.to/lastmile_qr_scan"}, "fusion_lat": 0.0, "name": "62f129085c1f40bc3c134faf8321d1d6", "bike_id": "62f129085c1f40bc3c134faf8321d1d6", "is_disabled": 0, "type": "electric_scooter", "lat": 38.908312, "lon": -77.00925733333334, "is_reserved": 0, "fusion_lon": 0.0}, {"rental_uris": {"ios": "https://dc.lft.to/lastmile_qr_scan", "android": "https://dc.lft.to/lastmile_qr_scan"}, "fusion_lat": 0.0, "name": "f4e19e1e9489c6ba19d7597de208bdc4", "bike_id": "f4e19e1e9489c6ba19d7597de208bdc4", "is_disabled": 0, "type": "electric_scooter", "lat": 38.931256, "lon": -77.03401133333334, "is_reserved": 0, "fusion_lon": 0.0}, {"rental_uris": {"ios": "https://dc.lft.to/lastmile_qr_scan", "android": "https://dc.lft.to/lastmile_qr_scan"}, "fusion_lat": 0.0, "name": "d7f540f6bdf6bccc1f5f75bdf75bb22c", "bike_id": "d7f540f6bdf6bccc1f5f75bdf75bb22c", "is_disabled": 0, "type": "electric_bike", "lat": 38.91097216666667, "lon": -76.9971225, "is_reserved": 0, "fusion_lon": 0.0}, {"rental_uris": {"ios": "https://dc.lft.to/lastmile_qr_scan", "android": "https://dc.lft.to/lastmile_qr_scan"}, "fusion_lat": 0.0, "name": "e16fb25aa8db5fdfd971b4a946b6f614", "bike_id": "e16fb25aa8db5fdfd971b4a946b6f614", "is_disabled": 0, "type": "electric_scooter", "lat": 38.919242, "lon": -77.03414883333333, "is_reserved": 0, "fusion_lon": 0.0}, {"rental_uris": {"ios": "https://dc.lft.to/lastmile_qr_scan", "android": "https://dc.lft.to/lastmile_qr_scan"}, "fusion_lat": 0.0, "name": "b5e69c1a4dc573306327e8a02f4a97c6", "bike_id": "b5e69c1a4dc573306327e8a02f4a97c6", "is_disabled": 0, "type": "electric_bike", "lat": 38.95887916666667, "lon": -76.9249235, "is_reserved": 0, "fusion_lon": 0.0}, {"rental_uris": {"ios": "https://dc.lft.to/lastmile_qr_scan", "android": "https://dc.lft.to/lastmile_qr_scan"}, "fusion_lat": 0.0, "name": "7ee30f16aa3ad2edf9b5a10caed3afeb", "bike_id": "7ee30f16aa3ad2edf9b5a10caed3afeb", "is_disabled": 0, "type": "electric_scooter", "lat": 38.910654, "lon": -77.00917416666667, "is_reserved": 0, "fusion_lon": 0.0}, {"rental_uris": {"ios": "https://dc.lft.to/lastmile_qr_scan", "android": "https://dc.lft.to/lastmile_qr_scan"}, "fusion_lat": 0.0, "name": "991476500a46d2eb08360811929a29e9", "bike_id": "991476500a46d2eb08360811929a29e9", "is_disabled": 0, "type": "electric_bike", "lat": 38.90042366666667, "lon": -76.9718045, "is_reserved": 0, "fusion_lon": 0.0}, {"rental_uris": {"ios": "https://dc.lft.to/lastmile_qr_scan", "android": "https://dc.lft.to/lastmile_qr_scan"}, "fusion_lat": 0.0, "name": "23ddbe2e46ac43afc0af72bd8762771b", "bike_id": "23ddbe2e46ac43afc0af72bd8762771b", "is_disabled": 0, "type": "electric_bike", "lat": 38.957538666666665, "lon": -76.98022533333334, "is_reserved": 0, "fusion_lon": 0.0}, {"rental_uris": {"ios": "https://dc.lft.to/lastmile_qr_scan", "android": "https://dc.lft.to/lastmile_qr_scan"}, "fusion_lat": 0.0, "name": "3a24915e2d61269bbb1cc696ed6e9cce", "bike_id": "3a24915e2d61269bbb1cc696ed6e9cce", "is_disabled": 0, "type": "electric_scooter", "lat": 38.907804666666664, "lon": -77.03998933333334, "is_reserved": 0, "fusion_lon": 0.0}, {"rental_uris": {"ios": "https://dc.lft.to/lastmile_qr_scan", "android": "https://dc.lft.to/lastmile_qr_scan"}, "fusion_lat": 0.0, "name": "5ba508cdf116642b9c56ddda8bd27e96", "bike_id": "5ba508cdf116642b9c56ddda8bd27e96", "is_disabled": 0, "type": "electric_scooter", "lat": 38.8971335, "lon": -77.00677466666667, "is_reserved": 0, "fusion_lon": 0.0}, {"rental_uris": {"ios": "https://dc.lft.to/lastmile_qr_scan", "android": "https://dc.lft.to/lastmile_qr_scan"}, "fusion_lat": 0.0, "name": "006cdb70d56efe50c0d7a17eed66458d", "bike_id": "006cdb70d56efe50c0d7a17eed66458d", "is_disabled": 0, "type": "electric_bike", "lat": 38.853551833333334, "lon": -77.13467833333333, "is_reserved": 0, "fusion_lon": 0.0}, {"rental_uris": {"ios": "https://dc.lft.to/lastmile_qr_scan", "android": "https://dc.lft.to/lastmile_qr_scan"}, "fusion_lat": 0.0, "name": "cb92291a7b22241bd3ca48002e867aa3", "bike_id": "cb92291a7b22241bd3ca48002e867aa3", "is_disabled": 0, "type": "electric_scooter", "lat": 38.9037375, "lon": -77.04185783333334, "is_reserved": 0, "fusion_lon": 0.0}, {"rental_uris": {"ios": "https://dc.lft.to/lastmile_qr_scan", "android": "https://dc.lft.to/lastmile_qr_scan"}, "fusion_lat": 0.0, "name": "23c4da891cb4abcc050216e32abf4b37", "bike_id": "23c4da891cb4abcc050216e32abf4b37", "is_disabled": 0, "type": "electric_scooter", "lat": 38.9011845, "lon": -77.03182033333333, "is_reserved": 0, "fusion_lon": 0.0}, {"rental_uris": {"ios": "https://dc.lft.to/lastmile_qr_scan", "android": "https://dc.lft.to/lastmile_qr_scan"}, "fusion_lat": 0.0, "name": "0b2da0b8e7afdf2d5dac83b5ab1d9637", "bike_id": "0b2da0b8e7afdf2d5dac83b5ab1d9637", "is_disabled": 0, "type": "electric_scooter", "lat": 38.909616166666666, "lon": -77.03475633333333, "is_reserved": 0, "fusion_lon": 0.0}, {"rental_uris": {"ios": "https://dc.lft.to/lastmile_qr_scan", "android": "https://dc.lft.to/lastmile_qr_scan"}, "fusion_lat": 0.0, "name": "ebdcc15cf06379af83390a5141547f5c", "bike_id": "ebdcc15cf06379af83390a5141547f5c", "is_disabled": 0, "type": "electric_scooter", "lat": 38.88752916666667, "lon": -77.03360383333333, "is_reserved": 0, "fusion_lon": 0.0}, {"rental_uris": {"ios": "https://dc.lft.to/lastmile_qr_scan", "android": "https://dc.lft.to/lastmile_qr_scan"}, "fusion_lat": 0.0, "name": "6953a0d7ab633cf54e833bc3d5ba47f4", "bike_id": "6953a0d7ab633cf54e833bc3d5ba47f4", "is_disabled": 0, "type": "electric_scooter", "lat": 38.9101615, "lon": -77.03853666666667, "is_reserved": 0, "fusion_lon": 0.0}, {"rental_uris": {"ios": "https://dc.lft.to/lastmile_qr_scan", "android": "https://dc.lft.to/lastmile_qr_scan"}, "fusion_lat": 0.0, "name": "d88ecf7f2eb4460d68d995f047a47e5c", "bike_id": "d88ecf7f2eb4460d68d995f047a47e5c", "is_disabled": 0, "type": "electric_scooter", "lat": 38.91417283333333, "lon": -77.021136, "is_reserved": 0, "fusion_lon": 0.0}, {"rental_uris": {"ios": "https://dc.lft.to/lastmile_qr_scan", "android": "https://dc.lft.to/lastmile_qr_scan"}, "fusion_lat": 0.0, "name": "5414b477ca8009c9c59b6b800d620bf0", "bike_id": "5414b477ca8009c9c59b6b800d620bf0", "is_disabled": 0, "type": "electric_bike", "lat": 38.87732066666667, "lon": -76.98104766666667, "is_reserved": 0, "fusion_lon": 0.0}, {"rental_uris": {"ios": "https://dc.lft.to/lastmile_qr_scan", "android": "https://dc.lft.to/lastmile_qr_scan"}, "fusion_lat": 0.0, "name": "0b13616867f78a14506519f59f8742bf", "bike_id": "0b13616867f78a14506519f59f8742bf", "is_disabled": 0, "type": "electric_scooter", "lat": 38.9420005, "lon": -77.02587216666667, "is_reserved": 0, "fusion_lon": 0.0}, {"rental_uris": {"ios": "https://dc.lft.to/lastmile_qr_scan", "android": "https://dc.lft.to/lastmile_qr_scan"}, "fusion_lat": 0.0, "name": "5e692854535720dd1112a25f87e3ce44", "bike_id": "5e692854535720dd1112a25f87e3ce44", "is_disabled": 0, "type": "electric_scooter", "lat": 38.916829166666666, "lon": -77.022925, "is_reserved": 0, "fusion_lon": 0.0}, {"rental_uris": {"ios": "https://dc.lft.to/lastmile_qr_scan", "android": "https://dc.lft.to/lastmile_qr_scan"}, "fusion_lat": 0.0, "name": "5f0cfc9e7518fe9bfa46b9f54c7bb826", "bike_id": "5f0cfc9e7518fe9bfa46b9f54c7bb826", "is_disabled": 0, "type": "electric_scooter", "lat": 38.90245383333333, "lon": -77.04376766666667, "is_reserved": 0, "fusion_lon": 0.0}, {"rental_uris": {"ios": "https://dc.lft.to/lastmile_qr_scan", "android": "https://dc.lft.to/lastmile_qr_scan"}, "fusion_lat": 0.0, "name": "b0166a9b7564ed6e827262074ffd20b1", "bike_id": "b0166a9b7564ed6e827262074ffd20b1", "is_disabled": 0, "type": "electric_scooter", "lat": 38.915578833333335, "lon": -77.02411616666667, "is_reserved": 0, "fusion_lon": 0.0}, {"rental_uris": {"ios": "https://dc.lft.to/lastmile_qr_scan", "android": "https://dc.lft.to/lastmile_qr_scan"}, "fusion_lat": 0.0, "name": "6bc65fe8622168f3bc16f752355062de", "bike_id": "6bc65fe8622168f3bc16f752355062de", "is_disabled": 0, "type": "electric_scooter", "lat": 38.949596666666665, "lon": -77.02721566666666, "is_reserved": 0, "fusion_lon": 0.0}, {"rental_uris": {"ios": "https://dc.lft.to/lastmile_qr_scan", "android": "https://dc.lft.to/lastmile_qr_scan"}, "fusion_lat": 0.0, "name": "04f3f0dca7f9d0adb69e32f993b7e73e", "bike_id": "04f3f0dca7f9d0adb69e32f993b7e73e", "is_disabled": 0, "type": "electric_scooter", "lat": 38.9495835, "lon": -77.027202, "is_reserved": 0, "fusion_lon": 0.0}, {"rental_uris": {"ios": "https://dc.lft.to/lastmile_qr_scan", "android": "https://dc.lft.to/lastmile_qr_scan"}, "fusion_lat": 0.0, "name": "9ce405e2b881790011ec102d97e4165e", "bike_id": "9ce405e2b881790011ec102d97e4165e", "is_disabled": 0, "type": "electric_scooter", "lat": 38.90972983333333, "lon": -77.03475516666667, "is_reserved": 0, "fusion_lon": 0.0}, {"rental_uris": {"ios": "https://dc.lft.to/lastmile_qr_scan", "android": "https://dc.lft.to/lastmile_qr_scan"}, "fusion_lat": 0.0, "name": "fca6ef56b02f5933bf6f486704741935", "bike_id": "fca6ef56b02f5933bf6f486704741935", "is_disabled": 0, "type": "electric_scooter", "lat": 38.892421666666664, "lon": -77.04661766666666, "is_reserved": 0, "fusion_lon": 0.0}, {"rental_uris": {"ios": "https://dc.lft.to/lastmile_qr_scan", "android": "https://dc.lft.to/lastmile_qr_scan"}, "fusion_lat": 0.0, "name": "12550d0145c066560bfd19a7edfea6a6", "bike_id": "12550d0145c066560bfd19a7edfea6a6", "is_disabled": 0, "type": "electric_scooter", "lat": 38.89225283333333, "lon": -77.03160483333333, "is_reserved": 0, "fusion_lon": 0.0}, {"rental_uris": {"ios": "https://dc.lft.to/lastmile_qr_scan", "android": "https://dc.lft.to/lastmile_qr_scan"}, "fusion_lat": 0.0, "name": "304107f6f300cf11b02256579819cb39", "bike_id": "304107f6f300cf11b02256579819cb39", "is_disabled": 0, "type": "electric_scooter", "lat": 38.935986666666665, "lon": -77.02329583333334, "is_reserved": 0, "fusion_lon": 0.0}, {"rental_uris": {"ios": "https://dc.lft.to/lastmile_qr_scan", "android": "https://dc.lft.to/lastmile_qr_scan"}, "fusion_lat": 0.0, "name": "c4a4107bdcc7e2e7763f087c3e8acb41", "bike_id": "c4a4107bdcc7e2e7763f087c3e8acb41", "is_disabled": 0, "type": "electric_scooter", "lat": 38.9171125, "lon": -77.03498483333334, "is_reserved": 0, "fusion_lon": 0.0}, {"rental_uris": {"ios": "https://dc.lft.to/lastmile_qr_scan", "android": "https://dc.lft.to/lastmile_qr_scan"}, "fusion_lat": 0.0, "name": "c9fefad97c7da93c3f3006777a93969f", "bike_id": "c9fefad97c7da93c3f3006777a93969f", "is_disabled": 0, "type": "electric_scooter", "lat": 38.91522233333333, "lon": -77.04157966666666, "is_reserved": 0, "fusion_lon": 0.0}, {"rental_uris": {"ios": "https://dc.lft.to/lastmile_qr_scan", "android": "https://dc.lft.to/lastmile_qr_scan"}, "fusion_lat": 0.0, "name": "7907148eccc5606616364f23d6fa7523", "bike_id": "7907148eccc5606616364f23d6fa7523", "is_disabled": 0, "type": "electric_scooter", "lat": 38.905785333333334, "lon": -77.00618583333333, "is_reserved": 0, "fusion_lon": 0.0}, {"rental_uris": {"ios": "https://dc.lft.to/lastmile_qr_scan", "android": "https://dc.lft.to/lastmile_qr_scan"}, "fusion_lat": 0.0, "name": "a68607d69099eff02438201b60423759", "bike_id": "a68607d69099eff02438201b60423759", "is_disabled": 0, "type": "electric_scooter", "lat": 38.90316116666666, "lon": -77.05172666666667, "is_reserved": 0, "fusion_lon": 0.0}, {"rental_uris": {"ios": "https://dc.lft.to/lastmile_qr_scan", "android": "https://dc.lft.to/lastmile_qr_scan"}, "fusion_lat": 0.0, "name": "f332cedde10ed6c86cc15a3cf182e1de", "bike_id": "f332cedde10ed6c86cc15a3cf182e1de", "is_disabled": 0, "type": "electric_scooter", "lat": 38.928557, "lon": -77.01421466666666, "is_reserved": 0, "fusion_lon": 0.0}, {"rental_uris": {"ios": "https://dc.lft.to/lastmile_qr_scan", "android": "https://dc.lft.to/lastmile_qr_scan"}, "fusion_lat": 0.0, "name": "6231630035771673996ea46c52364594", "bike_id": "6231630035771673996ea46c52364594", "is_disabled": 0, "type": "electric_scooter", "lat": 38.90872683333333, "lon": -77.03238266666666, "is_reserved": 0, "fusion_lon": 0.0}, {"rental_uris": {"ios": "https://dc.lft.to/lastmile_qr_scan", "android": "https://dc.lft.to/lastmile_qr_scan"}, "fusion_lat": 0.0, "name": "6e1f60679b8d206a92c7796f5fb017c0", "bike_id": "6e1f60679b8d206a92c7796f5fb017c0", "is_disabled": 0, "type": "electric_scooter", "lat": 38.93375266666666, "lon": -77.057306, "is_reserved": 0, "fusion_lon": 0.0}, {"rental_uris": {"ios": "https://dc.lft.to/lastmile_qr_scan", "android": "https://dc.lft.to/lastmile_qr_scan"}, "fusion_lat": 0.0, "name": "79efa85228c6ea21dd2b4b8237236925", "bike_id": "79efa85228c6ea21dd2b4b8237236925", "is_disabled": 0, "type": "electric_scooter", "lat": 38.89683433333333, "lon": -76.9360915, "is_reserved": 0, "fusion_lon": 0.0}, {"rental_uris": {"ios": "https://dc.lft.to/lastmile_qr_scan", "android": "https://dc.lft.to/lastmile_qr_scan"}, "fusion_lat": 0.0, "name": "220a48e26074b3afa072c67349a959bb", "bike_id": "220a48e26074b3afa072c67349a959bb", "is_disabled": 0, "type": "electric_scooter", "lat": 38.9127355, "lon": -77.04554233333333, "is_reserved": 0, "fusion_lon": 0.0}, {"rental_uris": {"ios": "https://dc.lft.to/lastmile_qr_scan", "android": "https://dc.lft.to/lastmile_qr_scan"}, "fusion_lat": 0.0, "name": "ec4544d2a0d5e90c91c82a829830fa54", "bike_id": "ec4544d2a0d5e90c91c82a829830fa54", "is_disabled": 0, "type": "electric_scooter", "lat": 38.9282395, "lon": -77.0261495, "is_reserved": 0, "fusion_lon": 0.0}, {"rental_uris": {"ios": "https://dc.lft.to/lastmile_qr_scan", "android": "https://dc.lft.to/lastmile_qr_scan"}, "fusion_lat": 0.0, "name": "bb79207a81cf5e7d7a7f9857a25aea0f", "bike_id": "bb79207a81cf5e7d7a7f9857a25aea0f", "is_disabled": 0, "type": "electric_scooter", "lat": 38.9095855, "lon": -77.031643, "is_reserved": 0, "fusion_lon": 0.0}, {"rental_uris": {"ios": "https://dc.lft.to/lastmile_qr_scan", "android": "https://dc.lft.to/lastmile_qr_scan"}, "fusion_lat": 0.0, "name": "30409bbc310872fbf2c364eafa07caa1", "bike_id": "30409bbc310872fbf2c364eafa07caa1", "is_disabled": 0, "type": "electric_bike", "lat": 38.902727166666665, "lon": -77.04468466666667, "is_reserved": 0, "fusion_lon": 0.0}, {"rental_uris": {"ios": "https://dc.lft.to/lastmile_qr_scan", "android": "https://dc.lft.to/lastmile_qr_scan"}, "fusion_lat": 0.0, "name": "eaedc08fecbfb0e21dbc8dce99819527", "bike_id": "eaedc08fecbfb0e21dbc8dce99819527", "is_disabled": 0, "type": "electric_scooter", "lat": 38.88744233333333, "lon": -77.02124316666666, "is_reserved": 0, "fusion_lon": 0.0}, {"rental_uris": {"ios": "https://dc.lft.to/lastmile_qr_scan", "android": "https://dc.lft.to/lastmile_qr_scan"}, "fusion_lat": 0.0, "name": "a360c6475a4731fb84a4baa5a35a063f", "bike_id": "a360c6475a4731fb84a4baa5a35a063f", "is_disabled": 0, "type": "electric_scooter", "lat": 38.948248166666666, "lon": -76.99903966666666, "is_reserved": 0, "fusion_lon": 0.0}, {"rental_uris": {"ios": "https://dc.lft.to/lastmile_qr_scan", "android": "https://dc.lft.to/lastmile_qr_scan"}, "fusion_lat": 0.0, "name": "b7bf6ef873ffc9f34e5a22af8fa3caab", "bike_id": "b7bf6ef873ffc9f34e5a22af8fa3caab", "is_disabled": 0, "type": "electric_scooter", "lat": 38.90404016666667, "lon": -77.04362233333333, "is_reserved": 0, "fusion_lon": 0.0}, {"rental_uris": {"ios": "https://dc.lft.to/lastmile_qr_scan", "android": "https://dc.lft.to/lastmile_qr_scan"}, "fusion_lat": 0.0, "name": "d85ab5114e0aed35bc38a9cb8960883d", "bike_id": "d85ab5114e0aed35bc38a9cb8960883d", "is_disabled": 0, "type": "electric_scooter", "lat": 38.914863833333335, "lon": -77.02186683333333, "is_reserved": 0, "fusion_lon": 0.0}, {"rental_uris": {"ios": "https://dc.lft.to/lastmile_qr_scan", "android": "https://dc.lft.to/lastmile_qr_scan"}, "fusion_lat": 0.0, "name": "b74fdd60b6f04c5de6256f2f782f7316", "bike_id": "b74fdd60b6f04c5de6256f2f782f7316", "is_disabled": 0, "type": "electric_scooter", "lat": 38.9023005, "lon": -77.06043033333333, "is_reserved": 0, "fusion_lon": 0.0}, {"rental_uris": {"ios": "https://dc.lft.to/lastmile_qr_scan", "android": "https://dc.lft.to/lastmile_qr_scan"}, "fusion_lat": 0.0, "name": "f32f6a75ca5c6aee755c3c25b5b6f33c", "bike_id": "f32f6a75ca5c6aee755c3c25b5b6f33c", "is_disabled": 0, "type": "electric_scooter", "lat": 38.90377483333333, "lon": -77.04158833333334, "is_reserved": 0, "fusion_lon": 0.0}, {"rental_uris": {"ios": "https://dc.lft.to/lastmile_qr_scan", "android": "https://dc.lft.to/lastmile_qr_scan"}, "fusion_lat": 0.0, "name": "55295348d7621807b9a6d58c9fe12640", "bike_id": "55295348d7621807b9a6d58c9fe12640", "is_disabled": 0, "type": "electric_bike", "lat": 38.9072275, "lon": -77.050267, "is_reserved": 0, "fusion_lon": 0.0}, {"rental_uris": {"ios": "https://dc.lft.to/lastmile_qr_scan", "android": "https://dc.lft.to/lastmile_qr_scan"}, "fusion_lat": 0.0, "name": "1310708bc69470f7a1f9a4efabd00dae", "bike_id": "1310708bc69470f7a1f9a4efabd00dae", "is_disabled": 0, "type": "electric_scooter", "lat": 38.881428166666666, "lon": -77.01766333333333, "is_reserved": 0, "fusion_lon": 0.0}, {"rental_uris": {"ios": "https://dc.lft.to/lastmile_qr_scan", "android": "https://dc.lft.to/lastmile_qr_scan"}, "fusion_lat": 0.0, "name": "7935b01dc1ec83ecf5546033862e56c4", "bike_id": "7935b01dc1ec83ecf5546033862e56c4", "is_disabled": 0, "type": "electric_scooter", "lat": 38.91266316666667, "lon": -77.04483483333334, "is_reserved": 0, "fusion_lon": 0.0}, {"rental_uris": {"ios": "https://dc.lft.to/lastmile_qr_scan", "android": "https://dc.lft.to/lastmile_qr_scan"}, "fusion_lat": 0.0, "name": "bcc5baed94f4b0451091852150d329b1", "bike_id": "bcc5baed94f4b0451091852150d329b1", "is_disabled": 0, "type": "electric_scooter", "lat": 38.89679616666667, "lon": -77.04996533333333, "is_reserved": 0, "fusion_lon": 0.0}, {"rental_uris": {"ios": "https://dc.lft.to/lastmile_qr_scan", "android": "https://dc.lft.to/lastmile_qr_scan"}, "fusion_lat": 0.0, "name": "50b52719487242e32ec9b22df29aa63c", "bike_id": "50b52719487242e32ec9b22df29aa63c", "is_disabled": 0, "type": "electric_scooter", "lat": 38.9155035, "lon": -76.9851345, "is_reserved": 0, "fusion_lon": 0.0}, {"rental_uris": {"ios": "https://dc.lft.to/lastmile_qr_scan", "android": "https://dc.lft.to/lastmile_qr_scan"}, "fusion_lat": 0.0, "name": "0694eb7c0a1357a52f41077564cda59c", "bike_id": "0694eb7c0a1357a52f41077564cda59c", "is_disabled": 0, "type": "electric_scooter", "lat": 38.892225, "lon": -77.04644683333333, "is_reserved": 0, "fusion_lon": 0.0}, {"rental_uris": {"ios": "https://dc.lft.to/lastmile_qr_scan", "android": "https://dc.lft.to/lastmile_qr_scan"}, "fusion_lat": 0.0, "name": "3d7411fd84b3fa01cf39d66f7d201861", "bike_id": "3d7411fd84b3fa01cf39d66f7d201861", "is_disabled": 0, "type": "electric_scooter", "lat": 38.9247365, "lon": -77.03914716666667, "is_reserved": 0, "fusion_lon": 0.0}, {"rental_uris": {"ios": "https://dc.lft.to/lastmile_qr_scan", "android": "https://dc.lft.to/lastmile_qr_scan"}, "fusion_lat": 0.0, "name": "cc7bc44f289f0c72865d5f9014e2de62", "bike_id": "cc7bc44f289f0c72865d5f9014e2de62", "is_disabled": 0, "type": "electric_scooter", "lat": 38.8960615, "lon": -77.054656, "is_reserved": 0, "fusion_lon": 0.0}, {"rental_uris": {"ios": "https://dc.lft.to/lastmile_qr_scan", "android": "https://dc.lft.to/lastmile_qr_scan"}, "fusion_lat": 0.0, "name": "51550a5343ce1f243ea1f71f5723410a", "bike_id": "51550a5343ce1f243ea1f71f5723410a", "is_disabled": 0, "type": "electric_scooter", "lat": 38.862424, "lon": -76.99497183333334, "is_reserved": 0, "fusion_lon": 0.0}, {"rental_uris": {"ios": "https://dc.lft.to/lastmile_qr_scan", "android": "https://dc.lft.to/lastmile_qr_scan"}, "fusion_lat": 0.0, "name": "6c50a5cdec13066d38c536ec2628b782", "bike_id": "6c50a5cdec13066d38c536ec2628b782", "is_disabled": 0, "type": "electric_scooter", "lat": 38.887286833333334, "lon": -77.0282595, "is_reserved": 0, "fusion_lon": 0.0}, {"rental_uris": {"ios": "https://dc.lft.to/lastmile_qr_scan", "android": "https://dc.lft.to/lastmile_qr_scan"}, "fusion_lat": 0.0, "name": "f0979d3d55c677daee1de4598d1a0eba", "bike_id": "f0979d3d55c677daee1de4598d1a0eba", "is_disabled": 0, "type": "electric_scooter", "lat": 38.92427333333333, "lon": -77.0255745, "is_reserved": 0, "fusion_lon": 0.0}, {"rental_uris": {"ios": "https://dc.lft.to/lastmile_qr_scan", "android": "https://dc.lft.to/lastmile_qr_scan"}, "fusion_lat": 0.0, "name": "3a972fbe87f723d42e8f9027ecf8b72f", "bike_id": "3a972fbe87f723d42e8f9027ecf8b72f", "is_disabled": 0, "type": "electric_scooter", "lat": 38.924152666666664, "lon": -77.02280633333334, "is_reserved": 0, "fusion_lon": 0.0}, {"rental_uris": {"ios": "https://dc.lft.to/lastmile_qr_scan", "android": "https://dc.lft.to/lastmile_qr_scan"}, "fusion_lat": 0.0, "name": "181e614e980f2023ec9aa1a912bf568e", "bike_id": "181e614e980f2023ec9aa1a912bf568e", "is_disabled": 0, "type": "electric_scooter", "lat": 38.9246285, "lon": -77.05765083333333, "is_reserved": 0, "fusion_lon": 0.0}, {"rental_uris": {"ios": "https://dc.lft.to/lastmile_qr_scan", "android": "https://dc.lft.to/lastmile_qr_scan"}, "fusion_lat": 0.0, "name": "733eee68f53f05abaa56d1eca5d1d648", "bike_id": "733eee68f53f05abaa56d1eca5d1d648", "is_disabled": 0, "type": "electric_scooter", "lat": 38.900596666666665, "lon": -77.00764416666667, "is_reserved": 0, "fusion_lon": 0.0}, {"rental_uris": {"ios": "https://dc.lft.to/lastmile_qr_scan", "android": "https://dc.lft.to/lastmile_qr_scan"}, "fusion_lat": 0.0, "name": "723a5f5f9719991e27af6e26eb93a6f7", "bike_id": "723a5f5f9719991e27af6e26eb93a6f7", "is_disabled": 0, "type": "electric_scooter", "lat": 38.851769833333336, "lon": -76.99576766666667, "is_reserved": 0, "fusion_lon": 0.0}, {"rental_uris": {"ios": "https://dc.lft.to/lastmile_qr_scan", "android": "https://dc.lft.to/lastmile_qr_scan"}, "fusion_lat": 0.0, "name": "761bea4206c1ade240114413949a5442", "bike_id": "761bea4206c1ade240114413949a5442", "is_disabled": 0, "type": "electric_scooter", "lat": 38.9066895, "lon": -77.05022133333334, "is_reserved": 0, "fusion_lon": 0.0}, {"rental_uris": {"ios": "https://dc.lft.to/lastmile_qr_scan", "android": "https://dc.lft.to/lastmile_qr_scan"}, "fusion_lat": 0.0, "name": "8365fcc764f8ed1c34fbe4c101c71835", "bike_id": "8365fcc764f8ed1c34fbe4c101c71835", "is_disabled": 0, "type": "electric_scooter", "lat": 38.912765, "lon": -77.012195, "is_reserved": 0, "fusion_lon": 0.0}, {"rental_uris": {"ios": "https://dc.lft.to/lastmile_qr_scan", "android": "https://dc.lft.to/lastmile_qr_scan"}, "fusion_lat": 0.0, "name": "4a7498222d8b42ba01c49741b11f65e3", "bike_id": "4a7498222d8b42ba01c49741b11f65e3", "is_disabled": 0, "type": "electric_scooter", "lat": 38.9097345, "lon": -77.033797, "is_reserved": 0, "fusion_lon": 0.0}, {"rental_uris": {"ios": "https://dc.lft.to/lastmile_qr_scan", "android": "https://dc.lft.to/lastmile_qr_scan"}, "fusion_lat": 0.0, "name": "0bdbfc2cdd2200a9da78d94a706b1501", "bike_id": "0bdbfc2cdd2200a9da78d94a706b1501", "is_disabled": 0, "type": "electric_scooter", "lat": 38.9057465, "lon": -77.03464133333334, "is_reserved": 0, "fusion_lon": 0.0}, {"rental_uris": {"ios": "https://dc.lft.to/lastmile_qr_scan", "android": "https://dc.lft.to/lastmile_qr_scan"}, "fusion_lat": 0.0, "name": "2917563cb8cf92362ed7850ce728e39e", "bike_id": "2917563cb8cf92362ed7850ce728e39e", "is_disabled": 0, "type": "electric_scooter", "lat": 38.922029, "lon": -77.04249433333334, "is_reserved": 0, "fusion_lon": 0.0}, {"rental_uris": {"ios": "https://dc.lft.to/lastmile_qr_scan", "android": "https://dc.lft.to/lastmile_qr_scan"}, "fusion_lat": 0.0, "name": "397dd0cd9a54bc4e74cc2dd3064f7f79", "bike_id": "397dd0cd9a54bc4e74cc2dd3064f7f79", "is_disabled": 0, "type": "electric_scooter", "lat": 38.9037715, "lon": -77.04487483333334, "is_reserved": 0, "fusion_lon": 0.0}, {"rental_uris": {"ios": "https://dc.lft.to/lastmile_qr_scan", "android": "https://dc.lft.to/lastmile_qr_scan"}, "fusion_lat": 0.0, "name": "498f864decd9f3a5d595f2eb0bd2aa28", "bike_id": "498f864decd9f3a5d595f2eb0bd2aa28", "is_disabled": 0, "type": "electric_scooter", "lat": 38.9441295, "lon": -77.055188, "is_reserved": 0, "fusion_lon": 0.0}, {"rental_uris": {"ios": "https://dc.lft.to/lastmile_qr_scan", "android": "https://dc.lft.to/lastmile_qr_scan"}, "fusion_lat": 0.0, "name": "138d9d56157b3d0744830e37fb4ff0e5", "bike_id": "138d9d56157b3d0744830e37fb4ff0e5", "is_disabled": 0, "type": "electric_scooter", "lat": 38.91113566666667, "lon": -77.04472783333334, "is_reserved": 0, "fusion_lon": 0.0}, {"rental_uris": {"ios": "https://dc.lft.to/lastmile_qr_scan", "android": "https://dc.lft.to/lastmile_qr_scan"}, "fusion_lat": 0.0, "name": "ed90b154f0cfa4cfbd4f00f8cb2270a2", "bike_id": "ed90b154f0cfa4cfbd4f00f8cb2270a2", "is_disabled": 0, "type": "electric_scooter", "lat": 38.9111805, "lon": -77.04208, "is_reserved": 0, "fusion_lon": 0.0}, {"rental_uris": {"ios": "https://dc.lft.to/lastmile_qr_scan", "android": "https://dc.lft.to/lastmile_qr_scan"}, "fusion_lat": 0.0, "name": "e7575676e4024e5b293ab5edf5514e13", "bike_id": "e7575676e4024e5b293ab5edf5514e13", "is_disabled": 0, "type": "electric_scooter", "lat": 38.906241333333334, "lon": -77.02175183333334, "is_reserved": 0, "fusion_lon": 0.0}, {"rental_uris": {"ios": "https://dc.lft.to/lastmile_qr_scan", "android": "https://dc.lft.to/lastmile_qr_scan"}, "fusion_lat": 0.0, "name": "528dd7726657e53881f1945a6429ccb2", "bike_id": "528dd7726657e53881f1945a6429ccb2", "is_disabled": 0, "type": "electric_scooter", "lat": 38.915945, "lon": -77.029678, "is_reserved": 0, "fusion_lon": 0.0}, {"rental_uris": {"ios": "https://dc.lft.to/lastmile_qr_scan", "android": "https://dc.lft.to/lastmile_qr_scan"}, "fusion_lat": 0.0, "name": "be973618b613914f8e2dd0d3c8641bad", "bike_id": "be973618b613914f8e2dd0d3c8641bad", "is_disabled": 0, "type": "electric_bike", "lat": 38.90612866666667, "lon": -77.07637, "is_reserved": 0, "fusion_lon": 0.0}, {"rental_uris": {"ios": "https://dc.lft.to/lastmile_qr_scan", "android": "https://dc.lft.to/lastmile_qr_scan"}, "fusion_lat": 0.0, "name": "4960744c07be3f1f9fceee87ab47ad2a", "bike_id": "4960744c07be3f1f9fceee87ab47ad2a", "is_disabled": 0, "type": "electric_scooter", "lat": 38.9111275, "lon": -77.0314685, "is_reserved": 0, "fusion_lon": 0.0}, {"rental_uris": {"ios": "https://dc.lft.to/lastmile_qr_scan", "android": "https://dc.lft.to/lastmile_qr_scan"}, "fusion_lat": 0.0, "name": "79cd8e8b232b747fd8b99dafe0000717", "bike_id": "79cd8e8b232b747fd8b99dafe0000717", "is_disabled": 0, "type": "electric_scooter", "lat": 38.91556333333333, "lon": -77.03658283333333, "is_reserved": 0, "fusion_lon": 0.0}, {"rental_uris": {"ios": "https://dc.lft.to/lastmile_qr_scan", "android": "https://dc.lft.to/lastmile_qr_scan"}, "fusion_lat": 0.0, "name": "6b55bed964c0af83a3c1137481ef429c", "bike_id": "6b55bed964c0af83a3c1137481ef429c", "is_disabled": 0, "type": "electric_scooter", "lat": 38.89228216666667, "lon": -77.0280445, "is_reserved": 0, "fusion_lon": 0.0}, {"rental_uris": {"ios": "https://dc.lft.to/lastmile_qr_scan", "android": "https://dc.lft.to/lastmile_qr_scan"}, "fusion_lat": 0.0, "name": "15a3a4054decc414f9945421bb4dc014", "bike_id": "15a3a4054decc414f9945421bb4dc014", "is_disabled": 0, "type": "electric_bike", "lat": 38.9147865, "lon": -76.981174, "is_reserved": 0, "fusion_lon": 0.0}, {"rental_uris": {"ios": "https://dc.lft.to/lastmile_qr_scan", "android": "https://dc.lft.to/lastmile_qr_scan"}, "fusion_lat": 0.0, "name": "3c7cc427cff683df33d98ca40bef0673", "bike_id": "3c7cc427cff683df33d98ca40bef0673", "is_disabled": 0, "type": "electric_scooter", "lat": 38.842956666666666, "lon": -76.99944016666667, "is_reserved": 0, "fusion_lon": 0.0}, {"rental_uris": {"ios": "https://dc.lft.to/lastmile_qr_scan", "android": "https://dc.lft.to/lastmile_qr_scan"}, "fusion_lat": 0.0, "name": "069093c9df7bbd5e9facf7caa9424963", "bike_id": "069093c9df7bbd5e9facf7caa9424963", "is_disabled": 0, "type": "electric_scooter", "lat": 38.903220833333336, "lon": -77.03347383333333, "is_reserved": 0, "fusion_lon": 0.0}, {"rental_uris": {"ios": "https://dc.lft.to/lastmile_qr_scan", "android": "https://dc.lft.to/lastmile_qr_scan"}, "fusion_lat": 0.0, "name": "fcbb3c40a0fd9610dce706cde7fd83ec", "bike_id": "fcbb3c40a0fd9610dce706cde7fd83ec", "is_disabled": 0, "type": "electric_scooter", "lat": 38.915658, "lon": -77.02002133333333, "is_reserved": 0, "fusion_lon": 0.0}, {"rental_uris": {"ios": "https://dc.lft.to/lastmile_qr_scan", "android": "https://dc.lft.to/lastmile_qr_scan"}, "fusion_lat": 0.0, "name": "67eb9cc5fcd7ee769c4d05c5243cac45", "bike_id": "67eb9cc5fcd7ee769c4d05c5243cac45", "is_disabled": 0, "type": "electric_scooter", "lat": 38.9026585, "lon": -77.03328966666666, "is_reserved": 0, "fusion_lon": 0.0}, {"rental_uris": {"ios": "https://dc.lft.to/lastmile_qr_scan", "android": "https://dc.lft.to/lastmile_qr_scan"}, "fusion_lat": 0.0, "name": "d216d285655ac9a3ae375556e6963579", "bike_id": "d216d285655ac9a3ae375556e6963579", "is_disabled": 0, "type": "electric_scooter", "lat": 38.8941885, "lon": -76.91147183333334, "is_reserved": 0, "fusion_lon": 0.0}, {"rental_uris": {"ios": "https://dc.lft.to/lastmile_qr_scan", "android": "https://dc.lft.to/lastmile_qr_scan"}, "fusion_lat": 0.0, "name": "09a82a6023862844c281578274217f80", "bike_id": "09a82a6023862844c281578274217f80", "is_disabled": 0, "type": "electric_scooter", "lat": 38.91617683333333, "lon": -77.0416025, "is_reserved": 0, "fusion_lon": 0.0}, {"rental_uris": {"ios": "https://dc.lft.to/lastmile_qr_scan", "android": "https://dc.lft.to/lastmile_qr_scan"}, "fusion_lat": 0.0, "name": "99623807a0325e87023f956cf2640b5f", "bike_id": "99623807a0325e87023f956cf2640b5f", "is_disabled": 0, "type": "electric_scooter", "lat": 38.936587833333334, "lon": -77.05495633333334, "is_reserved": 0, "fusion_lon": 0.0}, {"rental_uris": {"ios": "https://dc.lft.to/lastmile_qr_scan", "android": "https://dc.lft.to/lastmile_qr_scan"}, "fusion_lat": 0.0, "name": "f6651b2534a5abf868ab2a8ca4dbedea", "bike_id": "f6651b2534a5abf868ab2a8ca4dbedea", "is_disabled": 0, "type": "electric_bike", "lat": 38.91790916666667, "lon": -76.97181216666667, "is_reserved": 0, "fusion_lon": 0.0}, {"rental_uris": {"ios": "https://dc.lft.to/lastmile_qr_scan", "android": "https://dc.lft.to/lastmile_qr_scan"}, "fusion_lat": 0.0, "name": "82bc2c14b7d798d9eb43b38d3c086736", "bike_id": "82bc2c14b7d798d9eb43b38d3c086736", "is_disabled": 0, "type": "electric_scooter", "lat": 38.89196033333333, "lon": -77.02411166666667, "is_reserved": 0, "fusion_lon": 0.0}, {"rental_uris": {"ios": "https://dc.lft.to/lastmile_qr_scan", "android": "https://dc.lft.to/lastmile_qr_scan"}, "fusion_lat": 0.0, "name": "9c5a0f1751d72139833da1d5c8a21ae1", "bike_id": "9c5a0f1751d72139833da1d5c8a21ae1", "is_disabled": 0, "type": "electric_scooter", "lat": 38.90139766666667, "lon": -77.04490283333334, "is_reserved": 0, "fusion_lon": 0.0}, {"rental_uris": {"ios": "https://dc.lft.to/lastmile_qr_scan", "android": "https://dc.lft.to/lastmile_qr_scan"}, "fusion_lat": 0.0, "name": "b3d3e27e77b75fb27b4a5e18b958fb1a", "bike_id": "b3d3e27e77b75fb27b4a5e18b958fb1a", "is_disabled": 0, "type": "electric_scooter", "lat": 38.91050383333334, "lon": -77.021954, "is_reserved": 0, "fusion_lon": 0.0}, {"rental_uris": {"ios": "https://dc.lft.to/lastmile_qr_scan", "android": "https://dc.lft.to/lastmile_qr_scan"}, "fusion_lat": 0.0, "name": "48151b2586abcf03effdbdba7bc9ef8a", "bike_id": "48151b2586abcf03effdbdba7bc9ef8a", "is_disabled": 0, "type": "electric_scooter", "lat": 38.894671, "lon": -77.03103566666667, "is_reserved": 0, "fusion_lon": 0.0}, {"rental_uris": {"ios": "https://dc.lft.to/lastmile_qr_scan", "android": "https://dc.lft.to/lastmile_qr_scan"}, "fusion_lat": 0.0, "name": "7807297af66404084fb46f2fc63fc165", "bike_id": "7807297af66404084fb46f2fc63fc165", "is_disabled": 0, "type": "electric_scooter", "lat": 38.942898, "lon": -77.0217245, "is_reserved": 0, "fusion_lon": 0.0}, {"rental_uris": {"ios": "https://dc.lft.to/lastmile_qr_scan", "android": "https://dc.lft.to/lastmile_qr_scan"}, "fusion_lat": 0.0, "name": "bcd01315be8f0d181da2322524bac570", "bike_id": "bcd01315be8f0d181da2322524bac570", "is_disabled": 0, "type": "electric_scooter", "lat": 38.865403666666666, "lon": -76.98706816666666, "is_reserved": 0, "fusion_lon": 0.0}, {"rental_uris": {"ios": "https://dc.lft.to/lastmile_qr_scan", "android": "https://dc.lft.to/lastmile_qr_scan"}, "fusion_lat": 0.0, "name": "f73f9fc19e577b7ac03c3319badd8ac4", "bike_id": "f73f9fc19e577b7ac03c3319badd8ac4", "is_disabled": 0, "type": "electric_scooter", "lat": 38.887408666666666, "lon": -77.0261245, "is_reserved": 0, "fusion_lon": 0.0}, {"rental_uris": {"ios": "https://dc.lft.to/lastmile_qr_scan", "android": "https://dc.lft.to/lastmile_qr_scan"}, "fusion_lat": 0.0, "name": "42bc1370b3fb8f3e0d5074ec3b50e415", "bike_id": "42bc1370b3fb8f3e0d5074ec3b50e415", "is_disabled": 0, "type": "electric_scooter", "lat": 38.9053505, "lon": -77.05025766666667, "is_reserved": 0, "fusion_lon": 0.0}, {"rental_uris": {"ios": "https://dc.lft.to/lastmile_qr_scan", "android": "https://dc.lft.to/lastmile_qr_scan"}, "fusion_lat": 0.0, "name": "e47bf26b52784dd035ec7b8b529376f7", "bike_id": "e47bf26b52784dd035ec7b8b529376f7", "is_disabled": 0, "type": "electric_bike", "lat": 38.8616975, "lon": -77.13145216666666, "is_reserved": 0, "fusion_lon": 0.0}, {"rental_uris": {"ios": "https://dc.lft.to/lastmile_qr_scan", "android": "https://dc.lft.to/lastmile_qr_scan"}, "fusion_lat": 0.0, "name": "4f2a666897401770a5415285d5123c42", "bike_id": "4f2a666897401770a5415285d5123c42", "is_disabled": 0, "type": "electric_scooter", "lat": 38.9171035, "lon": -77.034727, "is_reserved": 0, "fusion_lon": 0.0}, {"rental_uris": {"ios": "https://dc.lft.to/lastmile_qr_scan", "android": "https://dc.lft.to/lastmile_qr_scan"}, "fusion_lat": 0.0, "name": "d6dee31817a45dfc9ff5ae3c65c18a8a", "bike_id": "d6dee31817a45dfc9ff5ae3c65c18a8a", "is_disabled": 0, "type": "electric_scooter", "lat": 38.92383133333333, "lon": -77.02681933333334, "is_reserved": 0, "fusion_lon": 0.0}, {"rental_uris": {"ios": "https://dc.lft.to/lastmile_qr_scan", "android": "https://dc.lft.to/lastmile_qr_scan"}, "fusion_lat": 0.0, "name": "4657cffa1b9c3bbb3e83fe329717737a", "bike_id": "4657cffa1b9c3bbb3e83fe329717737a", "is_disabled": 0, "type": "electric_scooter", "lat": 38.8852515, "lon": -77.01133233333333, "is_reserved": 0, "fusion_lon": 0.0}, {"rental_uris": {"ios": "https://dc.lft.to/lastmile_qr_scan", "android": "https://dc.lft.to/lastmile_qr_scan"}, "fusion_lat": 0.0, "name": "ee057bca1ddc3fbdfbec23f429be8b1e", "bike_id": "ee057bca1ddc3fbdfbec23f429be8b1e", "is_disabled": 0, "type": "electric_scooter", "lat": 38.9418385, "lon": -77.02494183333333, "is_reserved": 0, "fusion_lon": 0.0}, {"rental_uris": {"ios": "https://dc.lft.to/lastmile_qr_scan", "android": "https://dc.lft.to/lastmile_qr_scan"}, "fusion_lat": 0.0, "name": "8b9fc211e90ad4dc58a6dd659bd581c1", "bike_id": "8b9fc211e90ad4dc58a6dd659bd581c1", "is_disabled": 0, "type": "electric_scooter", "lat": 38.906001, "lon": -77.04117183333334, "is_reserved": 0, "fusion_lon": 0.0}, {"rental_uris": {"ios": "https://dc.lft.to/lastmile_qr_scan", "android": "https://dc.lft.to/lastmile_qr_scan"}, "fusion_lat": 0.0, "name": "05b2e37288e51f4dd11127fcb9b4fdb6", "bike_id": "05b2e37288e51f4dd11127fcb9b4fdb6", "is_disabled": 0, "type": "electric_scooter", "lat": 38.895231833333334, "lon": -77.002086, "is_reserved": 0, "fusion_lon": 0.0}, {"rental_uris": {"ios": "https://dc.lft.to/lastmile_qr_scan", "android": "https://dc.lft.to/lastmile_qr_scan"}, "fusion_lat": 0.0, "name": "2fd01c202b1f38affe15eec4b868e0ab", "bike_id": "2fd01c202b1f38affe15eec4b868e0ab", "is_disabled": 0, "type": "electric_scooter", "lat": 38.909743166666665, "lon": -77.03439266666666, "is_reserved": 0, "fusion_lon": 0.0}, {"rental_uris": {"ios": "https://dc.lft.to/lastmile_qr_scan", "android": "https://dc.lft.to/lastmile_qr_scan"}, "fusion_lat": 0.0, "name": "53e73068128e30cf3f2771b01dabe88f", "bike_id": "53e73068128e30cf3f2771b01dabe88f", "is_disabled": 0, "type": "electric_scooter", "lat": 38.9176895, "lon": -77.03185366666666, "is_reserved": 0, "fusion_lon": 0.0}, {"rental_uris": {"ios": "https://dc.lft.to/lastmile_qr_scan", "android": "https://dc.lft.to/lastmile_qr_scan"}, "fusion_lat": 0.0, "name": "ad877f55067fc100d4c8fe0a154a29e5", "bike_id": "ad877f55067fc100d4c8fe0a154a29e5", "is_disabled": 0, "type": "electric_scooter", "lat": 38.886795666666664, "lon": -77.0135545, "is_reserved": 0, "fusion_lon": 0.0}, {"rental_uris": {"ios": "https://dc.lft.to/lastmile_qr_scan", "android": "https://dc.lft.to/lastmile_qr_scan"}, "fusion_lat": 0.0, "name": "9fd09f5a6ac48b8cb67679884bb3b15c", "bike_id": "9fd09f5a6ac48b8cb67679884bb3b15c", "is_disabled": 0, "type": "electric_scooter", "lat": 38.917479166666666, "lon": -77.0239465, "is_reserved": 0, "fusion_lon": 0.0}, {"rental_uris": {"ios": "https://dc.lft.to/lastmile_qr_scan", "android": "https://dc.lft.to/lastmile_qr_scan"}, "fusion_lat": 0.0, "name": "5b0da9f19c8e74c4ca35ceb3c2e234ee", "bike_id": "5b0da9f19c8e74c4ca35ceb3c2e234ee", "is_disabled": 0, "type": "electric_scooter", "lat": 38.91184716666667, "lon": -77.04841866666666, "is_reserved": 0, "fusion_lon": 0.0}, {"rental_uris": {"ios": "https://dc.lft.to/lastmile_qr_scan", "android": "https://dc.lft.to/lastmile_qr_scan"}, "fusion_lat": 0.0, "name": "5b153399026f638e19fd9925571e7867", "bike_id": "5b153399026f638e19fd9925571e7867", "is_disabled": 0, "type": "electric_scooter", "lat": 38.910594, "lon": -77.04102833333333, "is_reserved": 0, "fusion_lon": 0.0}, {"rental_uris": {"ios": "https://dc.lft.to/lastmile_qr_scan", "android": "https://dc.lft.to/lastmile_qr_scan"}, "fusion_lat": 0.0, "name": "10598d3ebb07e1d3d5e969ea566e0308", "bike_id": "10598d3ebb07e1d3d5e969ea566e0308", "is_disabled": 0, "type": "electric_scooter", "lat": 38.89218416666667, "lon": -77.04360816666667, "is_reserved": 0, "fusion_lon": 0.0}, {"rental_uris": {"ios": "https://dc.lft.to/lastmile_qr_scan", "android": "https://dc.lft.to/lastmile_qr_scan"}, "fusion_lat": 0.0, "name": "58736bfced2b045ee7e0fe99fc06a302", "bike_id": "58736bfced2b045ee7e0fe99fc06a302", "is_disabled": 0, "type": "electric_scooter", "lat": 38.9195245, "lon": -77.02488566666666, "is_reserved": 0, "fusion_lon": 0.0}, {"rental_uris": {"ios": "https://dc.lft.to/lastmile_qr_scan", "android": "https://dc.lft.to/lastmile_qr_scan"}, "fusion_lat": 0.0, "name": "e5c304dcc61269350867d84f95fde037", "bike_id": "e5c304dcc61269350867d84f95fde037", "is_disabled": 0, "type": "electric_bike", "lat": 38.819365166666664, "lon": -77.00207116666667, "is_reserved": 0, "fusion_lon": 0.0}, {"rental_uris": {"ios": "https://dc.lft.to/lastmile_qr_scan", "android": "https://dc.lft.to/lastmile_qr_scan"}, "fusion_lat": 0.0, "name": "21a9f6dd1b01b393253167b6bf1506f4", "bike_id": "21a9f6dd1b01b393253167b6bf1506f4", "is_disabled": 0, "type": "electric_scooter", "lat": 38.90608483333333, "lon": -77.02695483333333, "is_reserved": 0, "fusion_lon": 0.0}, {"rental_uris": {"ios": "https://dc.lft.to/lastmile_qr_scan", "android": "https://dc.lft.to/lastmile_qr_scan"}, "fusion_lat": 0.0, "name": "a9d15aba21b360e055761ed8493b92a1", "bike_id": "a9d15aba21b360e055761ed8493b92a1", "is_disabled": 0, "type": "electric_scooter", "lat": 38.905771666666666, "lon": -77.0451225, "is_reserved": 0, "fusion_lon": 0.0}, {"rental_uris": {"ios": "https://dc.lft.to/lastmile_qr_scan", "android": "https://dc.lft.to/lastmile_qr_scan"}, "fusion_lat": 0.0, "name": "0fec61bd216d34deca921464de83b115", "bike_id": "0fec61bd216d34deca921464de83b115", "is_disabled": 0, "type": "electric_scooter", "lat": 38.922619166666664, "lon": -77.04289233333333, "is_reserved": 0, "fusion_lon": 0.0}, {"rental_uris": {"ios": "https://dc.lft.to/lastmile_qr_scan", "android": "https://dc.lft.to/lastmile_qr_scan"}, "fusion_lat": 0.0, "name": "8d3985bc6d8ad140ed1abeaa0782ddfe", "bike_id": "8d3985bc6d8ad140ed1abeaa0782ddfe", "is_disabled": 0, "type": "electric_scooter", "lat": 38.909723, "lon": -77.034363, "is_reserved": 0, "fusion_lon": 0.0}, {"rental_uris": {"ios": "https://dc.lft.to/lastmile_qr_scan", "android": "https://dc.lft.to/lastmile_qr_scan"}, "fusion_lat": 0.0, "name": "67b105bcc1c33cf1897110fefc6b9329", "bike_id": "67b105bcc1c33cf1897110fefc6b9329", "is_disabled": 0, "type": "electric_bike", "lat": 38.80497066666667, "lon": -77.04126016666666, "is_reserved": 0, "fusion_lon": 0.0}, {"rental_uris": {"ios": "https://dc.lft.to/lastmile_qr_scan", "android": "https://dc.lft.to/lastmile_qr_scan"}, "fusion_lat": 0.0, "name": "05ffe6958812234bc20e1ec5195c7ff7", "bike_id": "05ffe6958812234bc20e1ec5195c7ff7", "is_disabled": 0, "type": "electric_scooter", "lat": 38.8950185, "lon": -76.9487505, "is_reserved": 0, "fusion_lon": 0.0}, {"rental_uris": {"ios": "https://dc.lft.to/lastmile_qr_scan", "android": "https://dc.lft.to/lastmile_qr_scan"}, "fusion_lat": 0.0, "name": "cb75e25602505cf3a9f4ee6f46a5907f", "bike_id": "cb75e25602505cf3a9f4ee6f46a5907f", "is_disabled": 0, "type": "electric_scooter", "lat": 38.906181, "lon": -77.0260375, "is_reserved": 0, "fusion_lon": 0.0}, {"rental_uris": {"ios": "https://dc.lft.to/lastmile_qr_scan", "android": "https://dc.lft.to/lastmile_qr_scan"}, "fusion_lat": 0.0, "name": "3c296e479721901599c199e61dc9c236", "bike_id": "3c296e479721901599c199e61dc9c236", "is_disabled": 0, "type": "electric_scooter", "lat": 38.906402666666665, "lon": -76.99506133333334, "is_reserved": 0, "fusion_lon": 0.0}, {"rental_uris": {"ios": "https://dc.lft.to/lastmile_qr_scan", "android": "https://dc.lft.to/lastmile_qr_scan"}, "fusion_lat": 0.0, "name": "764563c4dd241bcfdcc3570db507b61c", "bike_id": "764563c4dd241bcfdcc3570db507b61c", "is_disabled": 0, "type": "electric_scooter", "lat": 38.907824833333336, "lon": -77.03858283333334, "is_reserved": 0, "fusion_lon": 0.0}, {"rental_uris": {"ios": "https://dc.lft.to/lastmile_qr_scan", "android": "https://dc.lft.to/lastmile_qr_scan"}, "fusion_lat": 0.0, "name": "6e77d8aadd6df221e906ec70fa3a6182", "bike_id": "6e77d8aadd6df221e906ec70fa3a6182", "is_disabled": 0, "type": "electric_scooter", "lat": 38.91374366666667, "lon": -77.03203783333333, "is_reserved": 0, "fusion_lon": 0.0}, {"rental_uris": {"ios": "https://dc.lft.to/lastmile_qr_scan", "android": "https://dc.lft.to/lastmile_qr_scan"}, "fusion_lat": 0.0, "name": "a60924fe26d1ebb350b872d5e05c6bd3", "bike_id": "a60924fe26d1ebb350b872d5e05c6bd3", "is_disabled": 0, "type": "electric_scooter", "lat": 38.899070333333334, "lon": -76.93352383333334, "is_reserved": 0, "fusion_lon": 0.0}, {"rental_uris": {"ios": "https://dc.lft.to/lastmile_qr_scan", "android": "https://dc.lft.to/lastmile_qr_scan"}, "fusion_lat": 0.0, "name": "1f82a0a519c6e7c49b18a5e4fb31c270", "bike_id": "1f82a0a519c6e7c49b18a5e4fb31c270", "is_disabled": 0, "type": "electric_bike", "lat": 38.863685833333335, "lon": -76.9701025, "is_reserved": 0, "fusion_lon": 0.0}, {"rental_uris": {"ios": "https://dc.lft.to/lastmile_qr_scan", "android": "https://dc.lft.to/lastmile_qr_scan"}, "fusion_lat": 0.0, "name": "d2fc583484c3fa430df50dfd27432e9e", "bike_id": "d2fc583484c3fa430df50dfd27432e9e", "is_disabled": 0, "type": "electric_scooter", "lat": 38.910375, "lon": -77.04283333333333, "is_reserved": 0, "fusion_lon": 0.0}, {"rental_uris": {"ios": "https://dc.lft.to/lastmile_qr_scan", "android": "https://dc.lft.to/lastmile_qr_scan"}, "fusion_lat": 0.0, "name": "99c4d331532ba6f083f4c8595dd45bf6", "bike_id": "99c4d331532ba6f083f4c8595dd45bf6", "is_disabled": 0, "type": "electric_scooter", "lat": 38.909857, "lon": -76.9948295, "is_reserved": 0, "fusion_lon": 0.0}, {"rental_uris": {"ios": "https://dc.lft.to/lastmile_qr_scan", "android": "https://dc.lft.to/lastmile_qr_scan"}, "fusion_lat": 0.0, "name": "b6d4ce7bae5fd2e8428ba479fdbe003e", "bike_id": "b6d4ce7bae5fd2e8428ba479fdbe003e", "is_disabled": 0, "type": "electric_scooter", "lat": 38.887442166666666, "lon": -77.02566616666667, "is_reserved": 0, "fusion_lon": 0.0}, {"rental_uris": {"ios": "https://dc.lft.to/lastmile_qr_scan", "android": "https://dc.lft.to/lastmile_qr_scan"}, "fusion_lat": 0.0, "name": "41381c26134e064374ed64433fcd1caf", "bike_id": "41381c26134e064374ed64433fcd1caf", "is_disabled": 0, "type": "electric_bike", "lat": 38.828806666666665, "lon": -77.00833616666667, "is_reserved": 0, "fusion_lon": 0.0}, {"rental_uris": {"ios": "https://dc.lft.to/lastmile_qr_scan", "android": "https://dc.lft.to/lastmile_qr_scan"}, "fusion_lat": 0.0, "name": "f0540962f0c13073ea5d03b920ff04a5", "bike_id": "f0540962f0c13073ea5d03b920ff04a5", "is_disabled": 0, "type": "electric_scooter", "lat": 38.9095345, "lon": -77.048216, "is_reserved": 0, "fusion_lon": 0.0}, {"rental_uris": {"ios": "https://dc.lft.to/lastmile_qr_scan", "android": "https://dc.lft.to/lastmile_qr_scan"}, "fusion_lat": 0.0, "name": "bca7901f109c2f0dae183a3777d7e98d", "bike_id": "bca7901f109c2f0dae183a3777d7e98d", "is_disabled": 0, "type": "electric_scooter", "lat": 38.922953, "lon": -77.03658683333333, "is_reserved": 0, "fusion_lon": 0.0}, {"rental_uris": {"ios": "https://dc.lft.to/lastmile_qr_scan", "android": "https://dc.lft.to/lastmile_qr_scan"}, "fusion_lat": 0.0, "name": "962bc3e00016c89f99a1fe478948e9cd", "bike_id": "962bc3e00016c89f99a1fe478948e9cd", "is_disabled": 0, "type": "electric_bike", "lat": 38.93237366666666, "lon": -76.97423333333333, "is_reserved": 0, "fusion_lon": 0.0}, {"rental_uris": {"ios": "https://dc.lft.to/lastmile_qr_scan", "android": "https://dc.lft.to/lastmile_qr_scan"}, "fusion_lat": 0.0, "name": "a7f27606e72fa6a44bb51c4c0f2cdd95", "bike_id": "a7f27606e72fa6a44bb51c4c0f2cdd95", "is_disabled": 0, "type": "electric_scooter", "lat": 38.86243566666667, "lon": -76.99495366666666, "is_reserved": 0, "fusion_lon": 0.0}, {"rental_uris": {"ios": "https://dc.lft.to/lastmile_qr_scan", "android": "https://dc.lft.to/lastmile_qr_scan"}, "fusion_lat": 0.0, "name": "ff1305c0671727346f63a38b13bd147a", "bike_id": "ff1305c0671727346f63a38b13bd147a", "is_disabled": 0, "type": "electric_scooter", "lat": 38.902709, "lon": -77.04327666666667, "is_reserved": 0, "fusion_lon": 0.0}, {"rental_uris": {"ios": "https://dc.lft.to/lastmile_qr_scan", "android": "https://dc.lft.to/lastmile_qr_scan"}, "fusion_lat": 0.0, "name": "1f14cee8b400b5d35a82e843bf0ae71b", "bike_id": "1f14cee8b400b5d35a82e843bf0ae71b", "is_disabled": 0, "type": "electric_scooter", "lat": 38.93267483333333, "lon": -77.03480116666667, "is_reserved": 0, "fusion_lon": 0.0}, {"rental_uris": {"ios": "https://dc.lft.to/lastmile_qr_scan", "android": "https://dc.lft.to/lastmile_qr_scan"}, "fusion_lat": 0.0, "name": "b8ae10b8c0162d67eff7d0da631b9b74", "bike_id": "b8ae10b8c0162d67eff7d0da631b9b74", "is_disabled": 0, "type": "electric_scooter", "lat": 38.902928333333335, "lon": -77.03346016666667, "is_reserved": 0, "fusion_lon": 0.0}, {"rental_uris": {"ios": "https://dc.lft.to/lastmile_qr_scan", "android": "https://dc.lft.to/lastmile_qr_scan"}, "fusion_lat": 0.0, "name": "46237040fb716dba29600ae39c244b6c", "bike_id": "46237040fb716dba29600ae39c244b6c", "is_disabled": 0, "type": "electric_scooter", "lat": 38.8922155, "lon": -77.0419895, "is_reserved": 0, "fusion_lon": 0.0}, {"rental_uris": {"ios": "https://dc.lft.to/lastmile_qr_scan", "android": "https://dc.lft.to/lastmile_qr_scan"}, "fusion_lat": 0.0, "name": "1481f46770bf1b77aa4ecfba6bf60462", "bike_id": "1481f46770bf1b77aa4ecfba6bf60462", "is_disabled": 0, "type": "electric_scooter", "lat": 38.87896633333333, "lon": -76.93523516666667, "is_reserved": 0, "fusion_lon": 0.0}, {"rental_uris": {"ios": "https://dc.lft.to/lastmile_qr_scan", "android": "https://dc.lft.to/lastmile_qr_scan"}, "fusion_lat": 0.0, "name": "aad1a474337a70a1833f3245da831707", "bike_id": "aad1a474337a70a1833f3245da831707", "is_disabled": 0, "type": "electric_scooter", "lat": 38.92340016666667, "lon": -77.0533025, "is_reserved": 0, "fusion_lon": 0.0}, {"rental_uris": {"ios": "https://dc.lft.to/lastmile_qr_scan", "android": "https://dc.lft.to/lastmile_qr_scan"}, "fusion_lat": 0.0, "name": "7afa43684d2ad8a8647dd28263fe425f", "bike_id": "7afa43684d2ad8a8647dd28263fe425f", "is_disabled": 0, "type": "electric_scooter", "lat": 38.902763, "lon": -77.03451083333333, "is_reserved": 0, "fusion_lon": 0.0}, {"rental_uris": {"ios": "https://dc.lft.to/lastmile_qr_scan", "android": "https://dc.lft.to/lastmile_qr_scan"}, "fusion_lat": 0.0, "name": "ef5cf3ad83ad52f62ab513b993ac8701", "bike_id": "ef5cf3ad83ad52f62ab513b993ac8701", "is_disabled": 0, "type": "electric_scooter", "lat": 38.89883716666667, "lon": -77.03291116666666, "is_reserved": 0, "fusion_lon": 0.0}, {"rental_uris": {"ios": "https://dc.lft.to/lastmile_qr_scan", "android": "https://dc.lft.to/lastmile_qr_scan"}, "fusion_lat": 0.0, "name": "a11e353a7960bb04c4a7643df58c84cb", "bike_id": "a11e353a7960bb04c4a7643df58c84cb", "is_disabled": 0, "type": "electric_scooter", "lat": 38.92443, "lon": -77.02150466666667, "is_reserved": 0, "fusion_lon": 0.0}, {"rental_uris": {"ios": "https://dc.lft.to/lastmile_qr_scan", "android": "https://dc.lft.to/lastmile_qr_scan"}, "fusion_lat": 0.0, "name": "f45420cb00449a47f5746441c1179a91", "bike_id": "f45420cb00449a47f5746441c1179a91", "is_disabled": 0, "type": "electric_scooter", "lat": 38.88581666666666, "lon": -77.01773316666667, "is_reserved": 0, "fusion_lon": 0.0}, {"rental_uris": {"ios": "https://dc.lft.to/lastmile_qr_scan", "android": "https://dc.lft.to/lastmile_qr_scan"}, "fusion_lat": 0.0, "name": "1b37f3d53e7c34a5701582ef25864641", "bike_id": "1b37f3d53e7c34a5701582ef25864641", "is_disabled": 0, "type": "electric_scooter", "lat": 38.895726, "lon": -77.0320925, "is_reserved": 0, "fusion_lon": 0.0}, {"rental_uris": {"ios": "https://dc.lft.to/lastmile_qr_scan", "android": "https://dc.lft.to/lastmile_qr_scan"}, "fusion_lat": 0.0, "name": "fe26fb4b1c3e8dc3e03173766ae18b20", "bike_id": "fe26fb4b1c3e8dc3e03173766ae18b20", "is_disabled": 0, "type": "electric_scooter", "lat": 38.903754166666666, "lon": -77.04501233333333, "is_reserved": 0, "fusion_lon": 0.0}, {"rental_uris": {"ios": "https://dc.lft.to/lastmile_qr_scan", "android": "https://dc.lft.to/lastmile_qr_scan"}, "fusion_lat": 0.0, "name": "2d2992ba36f6375117be3b0384c7e2ef", "bike_id": "2d2992ba36f6375117be3b0384c7e2ef", "is_disabled": 0, "type": "electric_scooter", "lat": 38.885897166666666, "lon": -77.01766, "is_reserved": 0, "fusion_lon": 0.0}, {"rental_uris": {"ios": "https://dc.lft.to/lastmile_qr_scan", "android": "https://dc.lft.to/lastmile_qr_scan"}, "fusion_lat": 0.0, "name": "6d889f34e6980ad709f8d716dcdd8e52", "bike_id": "6d889f34e6980ad709f8d716dcdd8e52", "is_disabled": 0, "type": "electric_scooter", "lat": 38.881367833333336, "lon": -76.93301016666666, "is_reserved": 0, "fusion_lon": 0.0}, {"rental_uris": {"ios": "https://dc.lft.to/lastmile_qr_scan", "android": "https://dc.lft.to/lastmile_qr_scan"}, "fusion_lat": 0.0, "name": "29c1e862cd5888d1dbbabe7eaba9e4b0", "bike_id": "29c1e862cd5888d1dbbabe7eaba9e4b0", "is_disabled": 0, "type": "electric_scooter", "lat": 38.88366283333333, "lon": -76.99510116666667, "is_reserved": 0, "fusion_lon": 0.0}, {"rental_uris": {"ios": "https://dc.lft.to/lastmile_qr_scan", "android": "https://dc.lft.to/lastmile_qr_scan"}, "fusion_lat": 0.0, "name": "bc274acb7ed36e5a037faa5a5bfd2276", "bike_id": "bc274acb7ed36e5a037faa5a5bfd2276", "is_disabled": 0, "type": "electric_scooter", "lat": 38.902627333333335, "lon": -77.02817883333333, "is_reserved": 0, "fusion_lon": 0.0}, {"rental_uris": {"ios": "https://dc.lft.to/lastmile_qr_scan", "android": "https://dc.lft.to/lastmile_qr_scan"}, "fusion_lat": 0.0, "name": "82e566d58a7c55f14a0064b5139f91f8", "bike_id": "82e566d58a7c55f14a0064b5139f91f8", "is_disabled": 0, "type": "electric_scooter", "lat": 38.939710166666664, "lon": -77.03256666666667, "is_reserved": 0, "fusion_lon": 0.0}, {"rental_uris": {"ios": "https://dc.lft.to/lastmile_qr_scan", "android": "https://dc.lft.to/lastmile_qr_scan"}, "fusion_lat": 0.0, "name": "5b74d69beb4ee18ef2239026f2016996", "bike_id": "5b74d69beb4ee18ef2239026f2016996", "is_disabled": 0, "type": "electric_scooter", "lat": 38.92917, "lon": -77.01944716666667, "is_reserved": 0, "fusion_lon": 0.0}, {"rental_uris": {"ios": "https://dc.lft.to/lastmile_qr_scan", "android": "https://dc.lft.to/lastmile_qr_scan"}, "fusion_lat": 0.0, "name": "fe7aa72e772e82ae2118169418bee572", "bike_id": "fe7aa72e772e82ae2118169418bee572", "is_disabled": 0, "type": "electric_scooter", "lat": 38.917098333333335, "lon": -77.03672266666666, "is_reserved": 0, "fusion_lon": 0.0}, {"rental_uris": {"ios": "https://dc.lft.to/lastmile_qr_scan", "android": "https://dc.lft.to/lastmile_qr_scan"}, "fusion_lat": 0.0, "name": "575674560a1f3b174ef4225c1fba95ae", "bike_id": "575674560a1f3b174ef4225c1fba95ae", "is_disabled": 0, "type": "electric_scooter", "lat": 38.92062383333333, "lon": -77.04193483333333, "is_reserved": 0, "fusion_lon": 0.0}, {"rental_uris": {"ios": "https://dc.lft.to/lastmile_qr_scan", "android": "https://dc.lft.to/lastmile_qr_scan"}, "fusion_lat": 0.0, "name": "cec8c43fba1e0b94f779744425a81194", "bike_id": "cec8c43fba1e0b94f779744425a81194", "is_disabled": 0, "type": "electric_scooter", "lat": 38.825966333333334, "lon": -77.00313733333333, "is_reserved": 0, "fusion_lon": 0.0}, {"rental_uris": {"ios": "https://dc.lft.to/lastmile_qr_scan", "android": "https://dc.lft.to/lastmile_qr_scan"}, "fusion_lat": 0.0, "name": "152f65e20688f7ebe3430307ef07862c", "bike_id": "152f65e20688f7ebe3430307ef07862c", "is_disabled": 0, "type": "electric_scooter", "lat": 38.892228, "lon": -77.04804283333333, "is_reserved": 0, "fusion_lon": 0.0}, {"rental_uris": {"ios": "https://dc.lft.to/lastmile_qr_scan", "android": "https://dc.lft.to/lastmile_qr_scan"}, "fusion_lat": 0.0, "name": "a224a907ed0d9aa2b10dbe1196b7af56", "bike_id": "a224a907ed0d9aa2b10dbe1196b7af56", "is_disabled": 0, "type": "electric_scooter", "lat": 38.918486333333334, "lon": -77.02182733333333, "is_reserved": 0, "fusion_lon": 0.0}, {"rental_uris": {"ios": "https://dc.lft.to/lastmile_qr_scan", "android": "https://dc.lft.to/lastmile_qr_scan"}, "fusion_lat": 0.0, "name": "4f5aa3d2312980874911e8f724cc5108", "bike_id": "4f5aa3d2312980874911e8f724cc5108", "is_disabled": 0, "type": "electric_scooter", "lat": 38.90840166666667, "lon": -76.9969385, "is_reserved": 0, "fusion_lon": 0.0}, {"rental_uris": {"ios": "https://dc.lft.to/lastmile_qr_scan", "android": "https://dc.lft.to/lastmile_qr_scan"}, "fusion_lat": 0.0, "name": "968fb92f2efd48d7d495174b32b7bc18", "bike_id": "968fb92f2efd48d7d495174b32b7bc18", "is_disabled": 0, "type": "electric_scooter", "lat": 38.931535333333336, "lon": -77.01866516666666, "is_reserved": 0, "fusion_lon": 0.0}, {"rental_uris": {"ios": "https://dc.lft.to/lastmile_qr_scan", "android": "https://dc.lft.to/lastmile_qr_scan"}, "fusion_lat": 0.0, "name": "98d53ff0af4f6f34a9ea14c700743e96", "bike_id": "98d53ff0af4f6f34a9ea14c700743e96", "is_disabled": 0, "type": "electric_bike", "lat": 38.9722775, "lon": -76.99344716666667, "is_reserved": 0, "fusion_lon": 0.0}, {"rental_uris": {"ios": "https://dc.lft.to/lastmile_qr_scan", "android": "https://dc.lft.to/lastmile_qr_scan"}, "fusion_lat": 0.0, "name": "4622061f9e02d27061d5025052c1354c", "bike_id": "4622061f9e02d27061d5025052c1354c", "is_disabled": 0, "type": "electric_bike", "lat": 38.901275166666665, "lon": -77.0393215, "is_reserved": 0, "fusion_lon": 0.0}, {"rental_uris": {"ios": "https://dc.lft.to/lastmile_qr_scan", "android": "https://dc.lft.to/lastmile_qr_scan"}, "fusion_lat": 0.0, "name": "78d0306871628c9a83e9a2adf8b14c0e", "bike_id": "78d0306871628c9a83e9a2adf8b14c0e", "is_disabled": 0, "type": "electric_scooter", "lat": 38.892270833333335, "lon": -77.04327, "is_reserved": 0, "fusion_lon": 0.0}, {"rental_uris": {"ios": "https://dc.lft.to/lastmile_qr_scan", "android": "https://dc.lft.to/lastmile_qr_scan"}, "fusion_lat": 0.0, "name": "499485c27b6c5205723c0f06d3b8390a", "bike_id": "499485c27b6c5205723c0f06d3b8390a", "is_disabled": 0, "type": "electric_bike", "lat": 38.91787883333333, "lon": -76.9718915, "is_reserved": 0, "fusion_lon": 0.0}, {"rental_uris": {"ios": "https://dc.lft.to/lastmile_qr_scan", "android": "https://dc.lft.to/lastmile_qr_scan"}, "fusion_lat": 0.0, "name": "e62796e1c970eccbb16128d566a3dcb3", "bike_id": "e62796e1c970eccbb16128d566a3dcb3", "is_disabled": 0, "type": "electric_scooter", "lat": 38.91589183333333, "lon": -77.01720783333333, "is_reserved": 0, "fusion_lon": 0.0}, {"rental_uris": {"ios": "https://dc.lft.to/lastmile_qr_scan", "android": "https://dc.lft.to/lastmile_qr_scan"}, "fusion_lat": 0.0, "name": "718999a187595e04ced03cdf036ba5d7", "bike_id": "718999a187595e04ced03cdf036ba5d7", "is_disabled": 0, "type": "electric_scooter", "lat": 38.909940666666664, "lon": -77.04008566666667, "is_reserved": 0, "fusion_lon": 0.0}, {"rental_uris": {"ios": "https://dc.lft.to/lastmile_qr_scan", "android": "https://dc.lft.to/lastmile_qr_scan"}, "fusion_lat": 0.0, "name": "89caaea5db03111b54bb41cff7b38387", "bike_id": "89caaea5db03111b54bb41cff7b38387", "is_disabled": 0, "type": "electric_scooter", "lat": 38.9057755, "lon": -77.03949316666667, "is_reserved": 0, "fusion_lon": 0.0}, {"rental_uris": {"ios": "https://dc.lft.to/lastmile_qr_scan", "android": "https://dc.lft.to/lastmile_qr_scan"}, "fusion_lat": 0.0, "name": "17be2a27175a359b323f8547b663e18c", "bike_id": "17be2a27175a359b323f8547b663e18c", "is_disabled": 0, "type": "electric_scooter", "lat": 38.90005333333333, "lon": -77.0429685, "is_reserved": 0, "fusion_lon": 0.0}, {"rental_uris": {"ios": "https://dc.lft.to/lastmile_qr_scan", "android": "https://dc.lft.to/lastmile_qr_scan"}, "fusion_lat": 0.0, "name": "b3549f24f37657df244331e8ed18f305", "bike_id": "b3549f24f37657df244331e8ed18f305", "is_disabled": 0, "type": "electric_scooter", "lat": 38.90974716666667, "lon": -77.0321595, "is_reserved": 0, "fusion_lon": 0.0}, {"rental_uris": {"ios": "https://dc.lft.to/lastmile_qr_scan", "android": "https://dc.lft.to/lastmile_qr_scan"}, "fusion_lat": 0.0, "name": "b8c6500ed05083cd37479553c5b7c6ce", "bike_id": "b8c6500ed05083cd37479553c5b7c6ce", "is_disabled": 0, "type": "electric_scooter", "lat": 38.904546833333335, "lon": -77.02700783333333, "is_reserved": 0, "fusion_lon": 0.0}, {"rental_uris": {"ios": "https://dc.lft.to/lastmile_qr_scan", "android": "https://dc.lft.to/lastmile_qr_scan"}, "fusion_lat": 0.0, "name": "f9f1024692b9dd5ff748129b47c5a87e", "bike_id": "f9f1024692b9dd5ff748129b47c5a87e", "is_disabled": 0, "type": "electric_scooter", "lat": 38.90973966666667, "lon": -77.03373583333334, "is_reserved": 0, "fusion_lon": 0.0}, {"rental_uris": {"ios": "https://dc.lft.to/lastmile_qr_scan", "android": "https://dc.lft.to/lastmile_qr_scan"}, "fusion_lat": 0.0, "name": "ff477adec872dfd36ac56b571f837316", "bike_id": "ff477adec872dfd36ac56b571f837316", "is_disabled": 0, "type": "electric_scooter", "lat": 38.9077975, "lon": -76.98005766666667, "is_reserved": 0, "fusion_lon": 0.0}, {"rental_uris": {"ios": "https://dc.lft.to/lastmile_qr_scan", "android": "https://dc.lft.to/lastmile_qr_scan"}, "fusion_lat": 0.0, "name": "0abea3c0b8aa25aa6b3168c16b650a1d", "bike_id": "0abea3c0b8aa25aa6b3168c16b650a1d", "is_disabled": 0, "type": "electric_scooter", "lat": 38.89225883333334, "lon": -77.04326083333333, "is_reserved": 0, "fusion_lon": 0.0}, {"rental_uris": {"ios": "https://dc.lft.to/lastmile_qr_scan", "android": "https://dc.lft.to/lastmile_qr_scan"}, "fusion_lat": 0.0, "name": "f81501f269058309792a68fbe49ab803", "bike_id": "f81501f269058309792a68fbe49ab803", "is_disabled": 0, "type": "electric_scooter", "lat": 38.892237, "lon": -77.03983033333333, "is_reserved": 0, "fusion_lon": 0.0}, {"rental_uris": {"ios": "https://dc.lft.to/lastmile_qr_scan", "android": "https://dc.lft.to/lastmile_qr_scan"}, "fusion_lat": 0.0, "name": "ed8b06b0614b6648140885ebe7e23307", "bike_id": "ed8b06b0614b6648140885ebe7e23307", "is_disabled": 0, "type": "electric_scooter", "lat": 38.9014505, "lon": -77.00348416666667, "is_reserved": 0, "fusion_lon": 0.0}, {"rental_uris": {"ios": "https://dc.lft.to/lastmile_qr_scan", "android": "https://dc.lft.to/lastmile_qr_scan"}, "fusion_lat": 0.0, "name": "2e6975d5740ea664c948581b40214c1a", "bike_id": "2e6975d5740ea664c948581b40214c1a", "is_disabled": 0, "type": "electric_scooter", "lat": 38.90118783333333, "lon": -77.04991433333333, "is_reserved": 0, "fusion_lon": 0.0}, {"rental_uris": {"ios": "https://dc.lft.to/lastmile_qr_scan", "android": "https://dc.lft.to/lastmile_qr_scan"}, "fusion_lat": 0.0, "name": "af68da9cd95cf54b06d655b00bec1af9", "bike_id": "af68da9cd95cf54b06d655b00bec1af9", "is_disabled": 0, "type": "electric_scooter", "lat": 38.8922225, "lon": -77.03218833333334, "is_reserved": 0, "fusion_lon": 0.0}, {"rental_uris": {"ios": "https://dc.lft.to/lastmile_qr_scan", "android": "https://dc.lft.to/lastmile_qr_scan"}, "fusion_lat": 0.0, "name": "f27942502651167d8f85f0f1706fc0d5", "bike_id": "f27942502651167d8f85f0f1706fc0d5", "is_disabled": 0, "type": "electric_scooter", "lat": 38.892186833333334, "lon": -77.03219116666666, "is_reserved": 0, "fusion_lon": 0.0}, {"rental_uris": {"ios": "https://dc.lft.to/lastmile_qr_scan", "android": "https://dc.lft.to/lastmile_qr_scan"}, "fusion_lat": 0.0, "name": "475b045e5f1fa28d9777fe75237990e4", "bike_id": "475b045e5f1fa28d9777fe75237990e4", "is_disabled": 0, "type": "electric_scooter", "lat": 38.93881783333333, "lon": -77.03282616666667, "is_reserved": 0, "fusion_lon": 0.0}, {"rental_uris": {"ios": "https://dc.lft.to/lastmile_qr_scan", "android": "https://dc.lft.to/lastmile_qr_scan"}, "fusion_lat": 0.0, "name": "661d07e7e34af4f4178978f415d92fd1", "bike_id": "661d07e7e34af4f4178978f415d92fd1", "is_disabled": 0, "type": "electric_scooter", "lat": 38.9187235, "lon": -77.0318475, "is_reserved": 0, "fusion_lon": 0.0}, {"rental_uris": {"ios": "https://dc.lft.to/lastmile_qr_scan", "android": "https://dc.lft.to/lastmile_qr_scan"}, "fusion_lat": 0.0, "name": "52b9537b838cb14a0711dee2ccce0e53", "bike_id": "52b9537b838cb14a0711dee2ccce0e53", "is_disabled": 0, "type": "electric_scooter", "lat": 38.90390933333333, "lon": -77.038713, "is_reserved": 0, "fusion_lon": 0.0}, {"rental_uris": {"ios": "https://dc.lft.to/lastmile_qr_scan", "android": "https://dc.lft.to/lastmile_qr_scan"}, "fusion_lat": 0.0, "name": "8ad0c13e17e96a9df280b6de08bf55b5", "bike_id": "8ad0c13e17e96a9df280b6de08bf55b5", "is_disabled": 0, "type": "electric_scooter", "lat": 38.89223616666666, "lon": -77.031607, "is_reserved": 0, "fusion_lon": 0.0}, {"rental_uris": {"ios": "https://dc.lft.to/lastmile_qr_scan", "android": "https://dc.lft.to/lastmile_qr_scan"}, "fusion_lat": 0.0, "name": "ce85fff35429ba6eecd51cd59680094a", "bike_id": "ce85fff35429ba6eecd51cd59680094a", "is_disabled": 0, "type": "electric_scooter", "lat": 38.9274525, "lon": -77.03406816666667, "is_reserved": 0, "fusion_lon": 0.0}, {"rental_uris": {"ios": "https://dc.lft.to/lastmile_qr_scan", "android": "https://dc.lft.to/lastmile_qr_scan"}, "fusion_lat": 0.0, "name": "8352ec8d0e90c461ecda1bf8dfa6ce09", "bike_id": "8352ec8d0e90c461ecda1bf8dfa6ce09", "is_disabled": 0, "type": "electric_scooter", "lat": 38.9284025, "lon": -76.99362633333334, "is_reserved": 0, "fusion_lon": 0.0}, {"rental_uris": {"ios": "https://dc.lft.to/lastmile_qr_scan", "android": "https://dc.lft.to/lastmile_qr_scan"}, "fusion_lat": 0.0, "name": "fc873a1dd4009dcdca85228d70aa9139", "bike_id": "fc873a1dd4009dcdca85228d70aa9139", "is_disabled": 0, "type": "electric_bike", "lat": 38.793238333333335, "lon": -77.04018866666667, "is_reserved": 0, "fusion_lon": 0.0}, {"rental_uris": {"ios": "https://dc.lft.to/lastmile_qr_scan", "android": "https://dc.lft.to/lastmile_qr_scan"}, "fusion_lat": 0.0, "name": "a64d81a37b7b774772e0e2a0f825ab10", "bike_id": "a64d81a37b7b774772e0e2a0f825ab10", "is_disabled": 0, "type": "electric_scooter", "lat": 38.892179, "lon": -77.02625066666667, "is_reserved": 0, "fusion_lon": 0.0}, {"rental_uris": {"ios": "https://dc.lft.to/lastmile_qr_scan", "android": "https://dc.lft.to/lastmile_qr_scan"}, "fusion_lat": 0.0, "name": "137490b6ed3303f09593db3f89216bbe", "bike_id": "137490b6ed3303f09593db3f89216bbe", "is_disabled": 0, "type": "electric_scooter", "lat": 38.890973333333335, "lon": -77.00046266666666, "is_reserved": 0, "fusion_lon": 0.0}, {"rental_uris": {"ios": "https://dc.lft.to/lastmile_qr_scan", "android": "https://dc.lft.to/lastmile_qr_scan"}, "fusion_lat": 0.0, "name": "5f7259c7ca3b2628454d89f1b685e5d9", "bike_id": "5f7259c7ca3b2628454d89f1b685e5d9", "is_disabled": 0, "type": "electric_scooter", "lat": 38.9142745, "lon": -77.03183483333333, "is_reserved": 0, "fusion_lon": 0.0}, {"rental_uris": {"ios": "https://dc.lft.to/lastmile_qr_scan", "android": "https://dc.lft.to/lastmile_qr_scan"}, "fusion_lat": 0.0, "name": "a643df716feabafb597dd278daecc9c9", "bike_id": "a643df716feabafb597dd278daecc9c9", "is_disabled": 0, "type": "electric_scooter", "lat": 38.940990166666666, "lon": -77.021081, "is_reserved": 0, "fusion_lon": 0.0}, {"rental_uris": {"ios": "https://dc.lft.to/lastmile_qr_scan", "android": "https://dc.lft.to/lastmile_qr_scan"}, "fusion_lat": 0.0, "name": "8b99dc7a5aaa2aac204a48a17073cd53", "bike_id": "8b99dc7a5aaa2aac204a48a17073cd53", "is_disabled": 0, "type": "electric_bike", "lat": 38.94906966666667, "lon": -76.972355, "is_reserved": 0, "fusion_lon": 0.0}, {"rental_uris": {"ios": "https://dc.lft.to/lastmile_qr_scan", "android": "https://dc.lft.to/lastmile_qr_scan"}, "fusion_lat": 0.0, "name": "15251ccdcb7967bad8d2536988585957", "bike_id": "15251ccdcb7967bad8d2536988585957", "is_disabled": 0, "type": "electric_scooter", "lat": 38.9132605, "lon": -77.03183383333334, "is_reserved": 0, "fusion_lon": 0.0}, {"rental_uris": {"ios": "https://dc.lft.to/lastmile_qr_scan", "android": "https://dc.lft.to/lastmile_qr_scan"}, "fusion_lat": 0.0, "name": "9eff4af9d87ad13d6d39348511d7458d", "bike_id": "9eff4af9d87ad13d6d39348511d7458d", "is_disabled": 0, "type": "electric_scooter", "lat": 38.931919, "lon": -77.02830566666667, "is_reserved": 0, "fusion_lon": 0.0}, {"rental_uris": {"ios": "https://dc.lft.to/lastmile_qr_scan", "android": "https://dc.lft.to/lastmile_qr_scan"}, "fusion_lat": 0.0, "name": "fe3353b2018c2edfbee37ad39ddb0163", "bike_id": "fe3353b2018c2edfbee37ad39ddb0163", "is_disabled": 0, "type": "electric_scooter", "lat": 38.88336966666667, "lon": -77.00929766666667, "is_reserved": 0, "fusion_lon": 0.0}, {"rental_uris": {"ios": "https://dc.lft.to/lastmile_qr_scan", "android": "https://dc.lft.to/lastmile_qr_scan"}, "fusion_lat": 0.0, "name": "2546bca2ebff66b10b020a7434bbd52d", "bike_id": "2546bca2ebff66b10b020a7434bbd52d", "is_disabled": 0, "type": "electric_scooter", "lat": 38.917889, "lon": -77.031944, "is_reserved": 0, "fusion_lon": 0.0}, {"rental_uris": {"ios": "https://dc.lft.to/lastmile_qr_scan", "android": "https://dc.lft.to/lastmile_qr_scan"}, "fusion_lat": 0.0, "name": "33f0900a51e41a596e98f22657eb3a03", "bike_id": "33f0900a51e41a596e98f22657eb3a03", "is_disabled": 0, "type": "electric_scooter", "lat": 38.898895, "lon": -77.03292366666666, "is_reserved": 0, "fusion_lon": 0.0}, {"rental_uris": {"ios": "https://dc.lft.to/lastmile_qr_scan", "android": "https://dc.lft.to/lastmile_qr_scan"}, "fusion_lat": 0.0, "name": "67e2d2120bbc2d438583326e1893cea1", "bike_id": "67e2d2120bbc2d438583326e1893cea1", "is_disabled": 0, "type": "electric_scooter", "lat": 38.929139, "lon": -77.03480616666667, "is_reserved": 0, "fusion_lon": 0.0}, {"rental_uris": {"ios": "https://dc.lft.to/lastmile_qr_scan", "android": "https://dc.lft.to/lastmile_qr_scan"}, "fusion_lat": 0.0, "name": "ec16909525435fee9f402e49e2ddbb65", "bike_id": "ec16909525435fee9f402e49e2ddbb65", "is_disabled": 0, "type": "electric_scooter", "lat": 38.9068255, "lon": -77.02692066666667, "is_reserved": 0, "fusion_lon": 0.0}, {"rental_uris": {"ios": "https://dc.lft.to/lastmile_qr_scan", "android": "https://dc.lft.to/lastmile_qr_scan"}, "fusion_lat": 0.0, "name": "f842dbec2a14a052e8dc31955d2d6a37", "bike_id": "f842dbec2a14a052e8dc31955d2d6a37", "is_disabled": 0, "type": "electric_scooter", "lat": 38.89876666666667, "lon": -76.93182933333334, "is_reserved": 0, "fusion_lon": 0.0}, {"rental_uris": {"ios": "https://dc.lft.to/lastmile_qr_scan", "android": "https://dc.lft.to/lastmile_qr_scan"}, "fusion_lat": 0.0, "name": "9ddedcdab6bb899952911679f00c9bb4", "bike_id": "9ddedcdab6bb899952911679f00c9bb4", "is_disabled": 0, "type": "electric_scooter", "lat": 38.903696333333336, "lon": -77.0451455, "is_reserved": 0, "fusion_lon": 0.0}, {"rental_uris": {"ios": "https://dc.lft.to/lastmile_qr_scan", "android": "https://dc.lft.to/lastmile_qr_scan"}, "fusion_lat": 0.0, "name": "3c9c719044242d82f42d314b4fe5d28e", "bike_id": "3c9c719044242d82f42d314b4fe5d28e", "is_disabled": 0, "type": "electric_scooter", "lat": 38.9257205, "lon": -77.029068, "is_reserved": 0, "fusion_lon": 0.0}, {"rental_uris": {"ios": "https://dc.lft.to/lastmile_qr_scan", "android": "https://dc.lft.to/lastmile_qr_scan"}, "fusion_lat": 0.0, "name": "ea8191a8e9eba5bbc9c50ef4fa38b041", "bike_id": "ea8191a8e9eba5bbc9c50ef4fa38b041", "is_disabled": 0, "type": "electric_bike", "lat": 38.852046666666666, "lon": -77.101311, "is_reserved": 0, "fusion_lon": 0.0}, {"rental_uris": {"ios": "https://dc.lft.to/lastmile_qr_scan", "android": "https://dc.lft.to/lastmile_qr_scan"}, "fusion_lat": 0.0, "name": "f60e723b0095cb36363f39eafe7095e7", "bike_id": "f60e723b0095cb36363f39eafe7095e7", "is_disabled": 0, "type": "electric_scooter", "lat": 38.884199833333334, "lon": -76.99544033333333, "is_reserved": 0, "fusion_lon": 0.0}, {"rental_uris": {"ios": "https://dc.lft.to/lastmile_qr_scan", "android": "https://dc.lft.to/lastmile_qr_scan"}, "fusion_lat": 0.0, "name": "713e3f670578c8b298a2fc4534844b87", "bike_id": "713e3f670578c8b298a2fc4534844b87", "is_disabled": 0, "type": "electric_scooter", "lat": 38.900822833333336, "lon": -77.02705083333333, "is_reserved": 0, "fusion_lon": 0.0}, {"rental_uris": {"ios": "https://dc.lft.to/lastmile_qr_scan", "android": "https://dc.lft.to/lastmile_qr_scan"}, "fusion_lat": 0.0, "name": "d5b02dcb3afcebd54f270ece0f72d104", "bike_id": "d5b02dcb3afcebd54f270ece0f72d104", "is_disabled": 0, "type": "electric_scooter", "lat": 38.91847516666667, "lon": -76.965412, "is_reserved": 0, "fusion_lon": 0.0}, {"rental_uris": {"ios": "https://dc.lft.to/lastmile_qr_scan", "android": "https://dc.lft.to/lastmile_qr_scan"}, "fusion_lat": 0.0, "name": "cbf8c6d238f72651f2983a35f6aad97f", "bike_id": "cbf8c6d238f72651f2983a35f6aad97f", "is_disabled": 0, "type": "electric_scooter", "lat": 38.904979166666664, "lon": -77.04092316666667, "is_reserved": 0, "fusion_lon": 0.0}, {"rental_uris": {"ios": "https://dc.lft.to/lastmile_qr_scan", "android": "https://dc.lft.to/lastmile_qr_scan"}, "fusion_lat": 0.0, "name": "796061d7f70062026ba7fcf18396cbda", "bike_id": "796061d7f70062026ba7fcf18396cbda", "is_disabled": 0, "type": "electric_scooter", "lat": 38.918229833333335, "lon": -77.02695716666666, "is_reserved": 0, "fusion_lon": 0.0}, {"rental_uris": {"ios": "https://dc.lft.to/lastmile_qr_scan", "android": "https://dc.lft.to/lastmile_qr_scan"}, "fusion_lat": 0.0, "name": "939ad0f7d2c19538d78c1ba9b3c65a09", "bike_id": "939ad0f7d2c19538d78c1ba9b3c65a09", "is_disabled": 0, "type": "electric_scooter", "lat": 38.88814433333334, "lon": -77.01478, "is_reserved": 0, "fusion_lon": 0.0}, {"rental_uris": {"ios": "https://dc.lft.to/lastmile_qr_scan", "android": "https://dc.lft.to/lastmile_qr_scan"}, "fusion_lat": 0.0, "name": "a55acb8050a04688d15cc7ea9ad17221", "bike_id": "a55acb8050a04688d15cc7ea9ad17221", "is_disabled": 0, "type": "electric_scooter", "lat": 38.879160666666664, "lon": -77.030943, "is_reserved": 0, "fusion_lon": 0.0}, {"rental_uris": {"ios": "https://dc.lft.to/lastmile_qr_scan", "android": "https://dc.lft.to/lastmile_qr_scan"}, "fusion_lat": 0.0, "name": "a18634ae748f44105aeb83e3c0617139", "bike_id": "a18634ae748f44105aeb83e3c0617139", "is_disabled": 0, "type": "electric_scooter", "lat": 38.89193933333333, "lon": -77.02412816666667, "is_reserved": 0, "fusion_lon": 0.0}, {"rental_uris": {"ios": "https://dc.lft.to/lastmile_qr_scan", "android": "https://dc.lft.to/lastmile_qr_scan"}, "fusion_lat": 0.0, "name": "c634cf2e30b9284c695d32f28c9db6c7", "bike_id": "c634cf2e30b9284c695d32f28c9db6c7", "is_disabled": 0, "type": "electric_scooter", "lat": 38.917107333333334, "lon": -77.02575883333333, "is_reserved": 0, "fusion_lon": 0.0}, {"rental_uris": {"ios": "https://dc.lft.to/lastmile_qr_scan", "android": "https://dc.lft.to/lastmile_qr_scan"}, "fusion_lat": 0.0, "name": "6dc82556b5c3d5ab9d2c752d56fc707d", "bike_id": "6dc82556b5c3d5ab9d2c752d56fc707d", "is_disabled": 0, "type": "electric_scooter", "lat": 38.907085333333335, "lon": -77.0338595, "is_reserved": 0, "fusion_lon": 0.0}, {"rental_uris": {"ios": "https://dc.lft.to/lastmile_qr_scan", "android": "https://dc.lft.to/lastmile_qr_scan"}, "fusion_lat": 0.0, "name": "9c39fcc7e83643adce67c4a49a0f802b", "bike_id": "9c39fcc7e83643adce67c4a49a0f802b", "is_disabled": 0, "type": "electric_scooter", "lat": 38.916815666666665, "lon": -77.0297475, "is_reserved": 0, "fusion_lon": 0.0}, {"rental_uris": {"ios": "https://dc.lft.to/lastmile_qr_scan", "android": "https://dc.lft.to/lastmile_qr_scan"}, "fusion_lat": 0.0, "name": "0df9d1da0197c0cefc0af74b0e8816a8", "bike_id": "0df9d1da0197c0cefc0af74b0e8816a8", "is_disabled": 0, "type": "electric_scooter", "lat": 38.892276333333335, "lon": -77.04365083333333, "is_reserved": 0, "fusion_lon": 0.0}, {"rental_uris": {"ios": "https://dc.lft.to/lastmile_qr_scan", "android": "https://dc.lft.to/lastmile_qr_scan"}, "fusion_lat": 0.0, "name": "f61529dc80eaf6f26e5a44bb1badaff3", "bike_id": "f61529dc80eaf6f26e5a44bb1badaff3", "is_disabled": 0, "type": "electric_scooter", "lat": 38.909519833333334, "lon": -77.03207866666666, "is_reserved": 0, "fusion_lon": 0.0}, {"rental_uris": {"ios": "https://dc.lft.to/lastmile_qr_scan", "android": "https://dc.lft.to/lastmile_qr_scan"}, "fusion_lat": 0.0, "name": "9479cf56862ab85a1b295e83a2de35ea", "bike_id": "9479cf56862ab85a1b295e83a2de35ea", "is_disabled": 0, "type": "electric_scooter", "lat": 38.91707016666667, "lon": -77.02660366666667, "is_reserved": 0, "fusion_lon": 0.0}, {"rental_uris": {"ios": "https://dc.lft.to/lastmile_qr_scan", "android": "https://dc.lft.to/lastmile_qr_scan"}, "fusion_lat": 0.0, "name": "e2fbeaed0b3f4eb62084b04e11dc83ba", "bike_id": "e2fbeaed0b3f4eb62084b04e11dc83ba", "is_disabled": 0, "type": "electric_scooter", "lat": 38.9081235, "lon": -77.0343705, "is_reserved": 0, "fusion_lon": 0.0}, {"rental_uris": {"ios": "https://dc.lft.to/lastmile_qr_scan", "android": "https://dc.lft.to/lastmile_qr_scan"}, "fusion_lat": 0.0, "name": "ffbdbad657f3197500ee1be6297be95e", "bike_id": "ffbdbad657f3197500ee1be6297be95e", "is_disabled": 0, "type": "electric_bike", "lat": 38.92470183333333, "lon": -77.2084485, "is_reserved": 0, "fusion_lon": 0.0}, {"rental_uris": {"ios": "https://dc.lft.to/lastmile_qr_scan", "android": "https://dc.lft.to/lastmile_qr_scan"}, "fusion_lat": 0.0, "name": "6d4271fdd2ea7878a4c7f527dc3d79b1", "bike_id": "6d4271fdd2ea7878a4c7f527dc3d79b1", "is_disabled": 0, "type": "electric_scooter", "lat": 38.91707666666667, "lon": -77.032437, "is_reserved": 0, "fusion_lon": 0.0}, {"rental_uris": {"ios": "https://dc.lft.to/lastmile_qr_scan", "android": "https://dc.lft.to/lastmile_qr_scan"}, "fusion_lat": 0.0, "name": "a37aeca326eec53175495a0e6a792317", "bike_id": "a37aeca326eec53175495a0e6a792317", "is_disabled": 0, "type": "electric_scooter", "lat": 38.91567466666667, "lon": -77.01999416666666, "is_reserved": 0, "fusion_lon": 0.0}, {"rental_uris": {"ios": "https://dc.lft.to/lastmile_qr_scan", "android": "https://dc.lft.to/lastmile_qr_scan"}, "fusion_lat": 0.0, "name": "aad96033d9fe32830841966f7a81d32e", "bike_id": "aad96033d9fe32830841966f7a81d32e", "is_disabled": 0, "type": "electric_scooter", "lat": 38.9026675, "lon": -77.03478883333334, "is_reserved": 0, "fusion_lon": 0.0}, {"rental_uris": {"ios": "https://dc.lft.to/lastmile_qr_scan", "android": "https://dc.lft.to/lastmile_qr_scan"}, "fusion_lat": 0.0, "name": "416ee16e9ce7b7b84e060e8975231356", "bike_id": "416ee16e9ce7b7b84e060e8975231356", "is_disabled": 0, "type": "electric_scooter", "lat": 38.924193333333335, "lon": -77.019511, "is_reserved": 0, "fusion_lon": 0.0}, {"rental_uris": {"ios": "https://dc.lft.to/lastmile_qr_scan", "android": "https://dc.lft.to/lastmile_qr_scan"}, "fusion_lat": 0.0, "name": "e7251d4b143010f4b88130c153a78cfa", "bike_id": "e7251d4b143010f4b88130c153a78cfa", "is_disabled": 0, "type": "electric_bike", "lat": 38.8314155, "lon": -77.11331483333333, "is_reserved": 0, "fusion_lon": 0.0}, {"rental_uris": {"ios": "https://dc.lft.to/lastmile_qr_scan", "android": "https://dc.lft.to/lastmile_qr_scan"}, "fusion_lat": 0.0, "name": "c9074172d9306ba75b0b74fde7c323eb", "bike_id": "c9074172d9306ba75b0b74fde7c323eb", "is_disabled": 0, "type": "electric_scooter", "lat": 38.90828883333333, "lon": -76.996991, "is_reserved": 0, "fusion_lon": 0.0}, {"rental_uris": {"ios": "https://dc.lft.to/lastmile_qr_scan", "android": "https://dc.lft.to/lastmile_qr_scan"}, "fusion_lat": 0.0, "name": "e2b48e96768addfce24e8bd4834d4eab", "bike_id": "e2b48e96768addfce24e8bd4834d4eab", "is_disabled": 0, "type": "electric_scooter", "lat": 38.89224733333333, "lon": -77.02332183333333, "is_reserved": 0, "fusion_lon": 0.0}, {"rental_uris": {"ios": "https://dc.lft.to/lastmile_qr_scan", "android": "https://dc.lft.to/lastmile_qr_scan"}, "fusion_lat": 0.0, "name": "45099298f05a45fbfa499e31db85bfee", "bike_id": "45099298f05a45fbfa499e31db85bfee", "is_disabled": 0, "type": "electric_scooter", "lat": 38.88503716666666, "lon": -77.005662, "is_reserved": 0, "fusion_lon": 0.0}, {"rental_uris": {"ios": "https://dc.lft.to/lastmile_qr_scan", "android": "https://dc.lft.to/lastmile_qr_scan"}, "fusion_lat": 0.0, "name": "79a84df81ffada6ff21bcce6ba38b016", "bike_id": "79a84df81ffada6ff21bcce6ba38b016", "is_disabled": 0, "type": "electric_scooter", "lat": 38.92213683333333, "lon": -77.036596, "is_reserved": 0, "fusion_lon": 0.0}, {"rental_uris": {"ios": "https://dc.lft.to/lastmile_qr_scan", "android": "https://dc.lft.to/lastmile_qr_scan"}, "fusion_lat": 0.0, "name": "33a681d9afe1d1432c2700f1cf247746", "bike_id": "33a681d9afe1d1432c2700f1cf247746", "is_disabled": 0, "type": "electric_bike", "lat": 38.815119333333335, "lon": -77.126556, "is_reserved": 0, "fusion_lon": 0.0}, {"rental_uris": {"ios": "https://dc.lft.to/lastmile_qr_scan", "android": "https://dc.lft.to/lastmile_qr_scan"}, "fusion_lat": 0.0, "name": "7c75adadde67bb3bc65f1afe85bb2c96", "bike_id": "7c75adadde67bb3bc65f1afe85bb2c96", "is_disabled": 0, "type": "electric_scooter", "lat": 38.9125555, "lon": -77.04438866666666, "is_reserved": 0, "fusion_lon": 0.0}, {"rental_uris": {"ios": "https://dc.lft.to/lastmile_qr_scan", "android": "https://dc.lft.to/lastmile_qr_scan"}, "fusion_lat": 0.0, "name": "6dd17b863adfa03c11031843ad9575a0", "bike_id": "6dd17b863adfa03c11031843ad9575a0", "is_disabled": 0, "type": "electric_scooter", "lat": 38.89231566666667, "lon": -77.02801983333333, "is_reserved": 0, "fusion_lon": 0.0}, {"rental_uris": {"ios": "https://dc.lft.to/lastmile_qr_scan", "android": "https://dc.lft.to/lastmile_qr_scan"}, "fusion_lat": 0.0, "name": "b387bce96ef11a6f9eeec64807848109", "bike_id": "b387bce96ef11a6f9eeec64807848109", "is_disabled": 0, "type": "electric_scooter", "lat": 38.90944783333333, "lon": -77.04492266666666, "is_reserved": 0, "fusion_lon": 0.0}, {"rental_uris": {"ios": "https://dc.lft.to/lastmile_qr_scan", "android": "https://dc.lft.to/lastmile_qr_scan"}, "fusion_lat": 0.0, "name": "a98f3e7b83b602469f5a0e7d5a45617f", "bike_id": "a98f3e7b83b602469f5a0e7d5a45617f", "is_disabled": 0, "type": "electric_scooter", "lat": 38.9313375, "lon": -77.03256166666667, "is_reserved": 0, "fusion_lon": 0.0}, {"rental_uris": {"ios": "https://dc.lft.to/lastmile_qr_scan", "android": "https://dc.lft.to/lastmile_qr_scan"}, "fusion_lat": 0.0, "name": "483654c2d54eede72bd2203260f9ac26", "bike_id": "483654c2d54eede72bd2203260f9ac26", "is_disabled": 0, "type": "electric_scooter", "lat": 38.867136, "lon": -76.987248, "is_reserved": 0, "fusion_lon": 0.0}, {"rental_uris": {"ios": "https://dc.lft.to/lastmile_qr_scan", "android": "https://dc.lft.to/lastmile_qr_scan"}, "fusion_lat": 0.0, "name": "f7e51a56f3db7e7ee864c1b159031c6c", "bike_id": "f7e51a56f3db7e7ee864c1b159031c6c", "is_disabled": 0, "type": "electric_scooter", "lat": 38.92866016666667, "lon": -77.03080533333333, "is_reserved": 0, "fusion_lon": 0.0}, {"rental_uris": {"ios": "https://dc.lft.to/lastmile_qr_scan", "android": "https://dc.lft.to/lastmile_qr_scan"}, "fusion_lat": 0.0, "name": "a58a81ddb096068c9655629361a35782", "bike_id": "a58a81ddb096068c9655629361a35782", "is_disabled": 0, "type": "electric_scooter", "lat": 38.923021, "lon": -77.04141733333333, "is_reserved": 0, "fusion_lon": 0.0}, {"rental_uris": {"ios": "https://dc.lft.to/lastmile_qr_scan", "android": "https://dc.lft.to/lastmile_qr_scan"}, "fusion_lat": 0.0, "name": "3000257c457b5ef8832690427aba4db9", "bike_id": "3000257c457b5ef8832690427aba4db9", "is_disabled": 0, "type": "electric_scooter", "lat": 38.897738333333336, "lon": -77.03174233333333, "is_reserved": 0, "fusion_lon": 0.0}, {"rental_uris": {"ios": "https://dc.lft.to/lastmile_qr_scan", "android": "https://dc.lft.to/lastmile_qr_scan"}, "fusion_lat": 0.0, "name": "b1697f823e5f2654ea1afd99d509c77a", "bike_id": "b1697f823e5f2654ea1afd99d509c77a", "is_disabled": 0, "type": "electric_scooter", "lat": 38.92512383333333, "lon": -77.023575, "is_reserved": 0, "fusion_lon": 0.0}, {"rental_uris": {"ios": "https://dc.lft.to/lastmile_qr_scan", "android": "https://dc.lft.to/lastmile_qr_scan"}, "fusion_lat": 0.0, "name": "1eb6de28931ff087ef7dc150e6fb3d30", "bike_id": "1eb6de28931ff087ef7dc150e6fb3d30", "is_disabled": 0, "type": "electric_scooter", "lat": 38.917407, "lon": -77.03181516666666, "is_reserved": 0, "fusion_lon": 0.0}, {"rental_uris": {"ios": "https://dc.lft.to/lastmile_qr_scan", "android": "https://dc.lft.to/lastmile_qr_scan"}, "fusion_lat": 0.0, "name": "244b1abbfece5c7f5086ab62ead06c21", "bike_id": "244b1abbfece5c7f5086ab62ead06c21", "is_disabled": 0, "type": "electric_scooter", "lat": 38.9167495, "lon": -77.03690066666667, "is_reserved": 0, "fusion_lon": 0.0}, {"rental_uris": {"ios": "https://dc.lft.to/lastmile_qr_scan", "android": "https://dc.lft.to/lastmile_qr_scan"}, "fusion_lat": 0.0, "name": "fa869a00809a9acc552533c80721e3a5", "bike_id": "fa869a00809a9acc552533c80721e3a5", "is_disabled": 0, "type": "electric_scooter", "lat": 38.922206333333335, "lon": -77.04244383333334, "is_reserved": 0, "fusion_lon": 0.0}, {"rental_uris": {"ios": "https://dc.lft.to/lastmile_qr_scan", "android": "https://dc.lft.to/lastmile_qr_scan"}, "fusion_lat": 0.0, "name": "b614034a14d6e9bf91f3e6860043842b", "bike_id": "b614034a14d6e9bf91f3e6860043842b", "is_disabled": 0, "type": "electric_bike", "lat": 38.88468833333334, "lon": -76.99567866666666, "is_reserved": 0, "fusion_lon": 0.0}, {"rental_uris": {"ios": "https://dc.lft.to/lastmile_qr_scan", "android": "https://dc.lft.to/lastmile_qr_scan"}, "fusion_lat": 0.0, "name": "254aafc24aef91dfbc4184833b2f010c", "bike_id": "254aafc24aef91dfbc4184833b2f010c", "is_disabled": 0, "type": "electric_scooter", "lat": 38.89548716666667, "lon": -77.00920116666667, "is_reserved": 0, "fusion_lon": 0.0}, {"rental_uris": {"ios": "https://dc.lft.to/lastmile_qr_scan", "android": "https://dc.lft.to/lastmile_qr_scan"}, "fusion_lat": 0.0, "name": "e87d1efc830d055eb2ff69f67c059efa", "bike_id": "e87d1efc830d055eb2ff69f67c059efa", "is_disabled": 0, "type": "electric_scooter", "lat": 38.919293, "lon": -77.02397133333334, "is_reserved": 0, "fusion_lon": 0.0}, {"rental_uris": {"ios": "https://dc.lft.to/lastmile_qr_scan", "android": "https://dc.lft.to/lastmile_qr_scan"}, "fusion_lat": 0.0, "name": "cee1766098e54991cacf5c1d026ba845", "bike_id": "cee1766098e54991cacf5c1d026ba845", "is_disabled": 0, "type": "electric_scooter", "lat": 38.9394065, "lon": -77.07523283333333, "is_reserved": 0, "fusion_lon": 0.0}, {"rental_uris": {"ios": "https://dc.lft.to/lastmile_qr_scan", "android": "https://dc.lft.to/lastmile_qr_scan"}, "fusion_lat": 0.0, "name": "9a57b73732e57bfbaa37739cca86560e", "bike_id": "9a57b73732e57bfbaa37739cca86560e", "is_disabled": 0, "type": "electric_scooter", "lat": 38.93075483333333, "lon": -77.02156, "is_reserved": 0, "fusion_lon": 0.0}, {"rental_uris": {"ios": "https://dc.lft.to/lastmile_qr_scan", "android": "https://dc.lft.to/lastmile_qr_scan"}, "fusion_lat": 0.0, "name": "40648791a30670257926f06c1c169866", "bike_id": "40648791a30670257926f06c1c169866", "is_disabled": 0, "type": "electric_bike", "lat": 38.99996766666667, "lon": -76.924991, "is_reserved": 0, "fusion_lon": 0.0}, {"rental_uris": {"ios": "https://dc.lft.to/lastmile_qr_scan", "android": "https://dc.lft.to/lastmile_qr_scan"}, "fusion_lat": 0.0, "name": "55f42ae88118db18ae10682be33faeed", "bike_id": "55f42ae88118db18ae10682be33faeed", "is_disabled": 0, "type": "electric_scooter", "lat": 38.909764, "lon": -77.032122, "is_reserved": 0, "fusion_lon": 0.0}, {"rental_uris": {"ios": "https://dc.lft.to/lastmile_qr_scan", "android": "https://dc.lft.to/lastmile_qr_scan"}, "fusion_lat": 0.0, "name": "af3f10ac68e90bb879d66f72fa60b58e", "bike_id": "af3f10ac68e90bb879d66f72fa60b58e", "is_disabled": 0, "type": "electric_scooter", "lat": 38.909423333333336, "lon": -77.05928383333334, "is_reserved": 0, "fusion_lon": 0.0}, {"rental_uris": {"ios": "https://dc.lft.to/lastmile_qr_scan", "android": "https://dc.lft.to/lastmile_qr_scan"}, "fusion_lat": 0.0, "name": "096325fb58bb1cbedf229b32df63ba30", "bike_id": "096325fb58bb1cbedf229b32df63ba30", "is_disabled": 0, "type": "electric_scooter", "lat": 38.9012245, "lon": -77.02638, "is_reserved": 0, "fusion_lon": 0.0}, {"rental_uris": {"ios": "https://dc.lft.to/lastmile_qr_scan", "android": "https://dc.lft.to/lastmile_qr_scan"},