{"data": {"bikes": [{"bike_id": "b8e74c9db656979efde0e5cc072d88f5", "type": "electric_scooter", "is_disabled": 0, "lat": 38.9278685, "rental_uris": {"ios": "https://dc.lft.to/lastmile_qr_scan", "android": "https://dc.lft.to/lastmile_qr_scan"}, "is_reserved": 0, "fusion_lon": 0.0, "fusion_lat": 0.0, "lon": -77.02622483333333, "name": "b8e74c9db656979efde0e5cc072d88f5"}, {"bike_id": "cc94b09d360c393fe82a13a7b05bffae", "type": "electric_scooter", "is_disabled": 0, "lat": 38.906153833333335, "rental_uris": {"ios": "https://dc.lft.to/lastmile_qr_scan", "android": "https://dc.lft.to/lastmile_qr_scan"}, "is_reserved": 0, "fusion_lon": 0.0, "fusion_lat": 0.0, "lon": -77.0630295, "name": "cc94b09d360c393fe82a13a7b05bffae"}, {"bike_id": "6dc96120fe63188841d4848c35ff0000", "type": "electric_scooter", "is_disabled": 0, "lat": 38.926061833333335, "rental_uris": {"ios": "https://dc.lft.to/lastmile_qr_scan", "android": "https://dc.lft.to/lastmile_qr_scan"}, "is_reserved": 0, "fusion_lon": 0.0, "fusion_lat": 0.0, "lon": -77.03761916666667, "name": "6dc96120fe63188841d4848c35ff0000"}, {"bike_id": "18b14407c8355d8b92ee8005e64f651f", "type": "electric_scooter", "is_disabled": 0, "lat": 38.9147275, "rental_uris": {"ios": "https://dc.lft.to/lastmile_qr_scan", "android": "https://dc.lft.to/lastmile_qr_scan"}, "is_reserved": 0, "fusion_lon": 0.0, "fusion_lat": 0.0, "lon": -77.03183933333334, "name": "18b14407c8355d8b92ee8005e64f651f"}, {"bike_id": "1ba574eb48562301d3db42b0e590f104", "type": "electric_scooter", "is_disabled": 0, "lat": 38.92804483333333, "rental_uris": {"ios": "https://dc.lft.to/lastmile_qr_scan", "android": "https://dc.lft.to/lastmile_qr_scan"}, "is_reserved": 0, "fusion_lon": 0.0, "fusion_lat": 0.0, "lon": -77.02693683333334, "name": "1ba574eb48562301d3db42b0e590f104"}, {"bike_id": "55fb85aa017dd09cd19fe7d4094e8e92", "type": "electric_scooter", "is_disabled": 0, "lat": 38.914159166666664, "rental_uris": {"ios": "https://dc.lft.to/lastmile_qr_scan", "android": "https://dc.lft.to/lastmile_qr_scan"}, "is_reserved": 0, "fusion_lon": 0.0, "fusion_lat": 0.0, "lon": -77.02251166666667, "name": "55fb85aa017dd09cd19fe7d4094e8e92"}, {"bike_id": "765660deca81766ca1635846699fb6f2", "type": "electric_scooter", "is_disabled": 0, "lat": 38.917767166666664, "rental_uris": {"ios": "https://dc.lft.to/lastmile_qr_scan", "android": "https://dc.lft.to/lastmile_qr_scan"}, "is_reserved": 0, "fusion_lon": 0.0, "fusion_lat": 0.0, "lon": -77.01457916666666, "name": "765660deca81766ca1635846699fb6f2"}, {"bike_id": "0481b7616f9645d761c091ef3b305f26", "type": "electric_scooter", "is_disabled": 0, "lat": 38.89233933333333, "rental_uris": {"ios": "https://dc.lft.to/lastmile_qr_scan", "android": "https://dc.lft.to/lastmile_qr_scan"}, "is_reserved": 0, "fusion_lon": 0.0, "fusion_lat": 0.0, "lon": -77.049992, "name": "0481b7616f9645d761c091ef3b305f26"}, {"bike_id": "41239eda2c7131b598255977a60563a6", "type": "electric_scooter", "is_disabled": 0, "lat": 38.900893833333335, "rental_uris": {"ios": "https://dc.lft.to/lastmile_qr_scan", "android": "https://dc.lft.to/lastmile_qr_scan"}, "is_reserved": 0, "fusion_lon": 0.0, "fusion_lat": 0.0, "lon": -77.01761866666666, "name": "41239eda2c7131b598255977a60563a6"}, {"bike_id": "576f94334d582f1bf6df0f52149c7633", "type": "electric_scooter", "is_disabled": 0, "lat": 38.84312833333333, "rental_uris": {"ios": "https://dc.lft.to/lastmile_qr_scan", "android": "https://dc.lft.to/lastmile_qr_scan"}, "is_reserved": 0, "fusion_lon": 0.0, "fusion_lat": 0.0, "lon": -76.99929766666666, "name": "576f94334d582f1bf6df0f52149c7633"}, {"bike_id": "41a001b86ea7c50751643ed4d9bede7b", "type": "electric_scooter", "is_disabled": 0, "lat": 38.90022366666667, "rental_uris": {"ios": "https://dc.lft.to/lastmile_qr_scan", "android": "https://dc.lft.to/lastmile_qr_scan"}, "is_reserved": 0, "fusion_lon": 0.0, "fusion_lat": 0.0, "lon": -76.9815455, "name": "41a001b86ea7c50751643ed4d9bede7b"}, {"bike_id": "5c23afb59cc1db8993662207afc510e6", "type": "electric_scooter", "is_disabled": 0, "lat": 38.92907233333333, "rental_uris": {"ios": "https://dc.lft.to/lastmile_qr_scan", "android": "https://dc.lft.to/lastmile_qr_scan"}, "is_reserved": 0, "fusion_lon": 0.0, "fusion_lat": 0.0, "lon": -77.03246, "name": "5c23afb59cc1db8993662207afc510e6"}, {"bike_id": "8b9d51d3e71f99d814a2e63c2293fde6", "type": "electric_scooter", "is_disabled": 0, "lat": 38.884012, "rental_uris": {"ios": "https://dc.lft.to/lastmile_qr_scan", "android": "https://dc.lft.to/lastmile_qr_scan"}, "is_reserved": 0, "fusion_lon": 0.0, "fusion_lat": 0.0, "lon": -76.99624883333334, "name": "8b9d51d3e71f99d814a2e63c2293fde6"}, {"bike_id": "fb04b7bea10493edab416e617fa38700", "type": "electric_scooter", "is_disabled": 0, "lat": 38.90503116666667, "rental_uris": {"ios": "https://dc.lft.to/lastmile_qr_scan", "android": "https://dc.lft.to/lastmile_qr_scan"}, "is_reserved": 0, "fusion_lon": 0.0, "fusion_lat": 0.0, "lon": -77.06010766666667, "name": "fb04b7bea10493edab416e617fa38700"}, {"bike_id": "119d0153fdb26867577e9c3c723088fe", "type": "electric_scooter", "is_disabled": 0, "lat": 38.911067833333334, "rental_uris": {"ios": "https://dc.lft.to/lastmile_qr_scan", "android": "https://dc.lft.to/lastmile_qr_scan"}, "is_reserved": 0, "fusion_lon": 0.0, "fusion_lat": 0.0, "lon": -77.04899866666666, "name": "119d0153fdb26867577e9c3c723088fe"}, {"bike_id": "7cc0eeb40093d82e71395f9945502da0", "type": "electric_scooter", "is_disabled": 0, "lat": 38.9027245, "rental_uris": {"ios": "https://dc.lft.to/lastmile_qr_scan", "android": "https://dc.lft.to/lastmile_qr_scan"}, "is_reserved": 0, "fusion_lon": 0.0, "fusion_lat": 0.0, "lon": -77.0034865, "name": "7cc0eeb40093d82e71395f9945502da0"}, {"bike_id": "4e58f68fca9ad6b57a7cac0c93d4e669", "type": "electric_bike", "is_disabled": 0, "lat": 38.99091133333334, "rental_uris": {"ios": "https://dc.lft.to/lastmile_qr_scan", "android": "https://dc.lft.to/lastmile_qr_scan"}, "is_reserved": 0, "fusion_lon": 0.0, "fusion_lat": 0.0, "lon": -76.87490616666666, "name": "4e58f68fca9ad6b57a7cac0c93d4e669"}, {"bike_id": "0eb55a3ac585f022575dfd1c18949927", "type": "electric_scooter", "is_disabled": 0, "lat": 38.9037905, "rental_uris": {"ios": "https://dc.lft.to/lastmile_qr_scan", "android": "https://dc.lft.to/lastmile_qr_scan"}, "is_reserved": 0, "fusion_lon": 0.0, "fusion_lat": 0.0, "lon": -77.04123416666667, "name": "0eb55a3ac585f022575dfd1c18949927"}, {"bike_id": "aaddcb556f3d7fad24c79b67bd830f6a", "type": "electric_scooter", "is_disabled": 0, "lat": 38.919500166666666, "rental_uris": {"ios": "https://dc.lft.to/lastmile_qr_scan", "android": "https://dc.lft.to/lastmile_qr_scan"}, "is_reserved": 0, "fusion_lon": 0.0, "fusion_lat": 0.0, "lon": -77.02488566666666, "name": "aaddcb556f3d7fad24c79b67bd830f6a"}, {"bike_id": "27ed2dedfd514d1c8fc2ebdc9d9c65c9", "type": "electric_scooter", "is_disabled": 0, "lat": 38.914795833333336, "rental_uris": {"ios": "https://dc.lft.to/lastmile_qr_scan", "android": "https://dc.lft.to/lastmile_qr_scan"}, "is_reserved": 0, "fusion_lon": 0.0, "fusion_lat": 0.0, "lon": -77.03760583333333, "name": "27ed2dedfd514d1c8fc2ebdc9d9c65c9"}, {"bike_id": "1145e1017ae5cf2ac9a840c2fcebda7a", "type": "electric_scooter", "is_disabled": 0, "lat": 38.9267135, "rental_uris": {"ios": "https://dc.lft.to/lastmile_qr_scan", "android": "https://dc.lft.to/lastmile_qr_scan"}, "is_reserved": 0, "fusion_lon": 0.0, "fusion_lat": 0.0, "lon": -77.01473983333334, "name": "1145e1017ae5cf2ac9a840c2fcebda7a"}, {"bike_id": "941fcb29c92ce357528f7dfafaac9e82", "type": "electric_scooter", "is_disabled": 0, "lat": 38.90684783333333, "rental_uris": {"ios": "https://dc.lft.to/lastmile_qr_scan", "android": "https://dc.lft.to/lastmile_qr_scan"}, "is_reserved": 0, "fusion_lon": 0.0, "fusion_lat": 0.0, "lon": -77.0269245, "name": "941fcb29c92ce357528f7dfafaac9e82"}, {"bike_id": "a2c92eb15849127e79eb072799d62060", "type": "electric_bike", "is_disabled": 0, "lat": 38.857681666666664, "rental_uris": {"ios": "https://dc.lft.to/lastmile_qr_scan", "android": "https://dc.lft.to/lastmile_qr_scan"}, "is_reserved": 0, "fusion_lon": 0.0, "fusion_lat": 0.0, "lon": -76.98759116666666, "name": "a2c92eb15849127e79eb072799d62060"}, {"bike_id": "493be5a7586f12f9fb8ce067d4627c4a", "type": "electric_scooter", "is_disabled": 0, "lat": 38.905331833333335, "rental_uris": {"ios": "https://dc.lft.to/lastmile_qr_scan", "android": "https://dc.lft.to/lastmile_qr_scan"}, "is_reserved": 0, "fusion_lon": 0.0, "fusion_lat": 0.0, "lon": -77.06226733333334, "name": "493be5a7586f12f9fb8ce067d4627c4a"}, {"bike_id": "2422468395fdb8c601080c8c34ae09fc", "type": "electric_scooter", "is_disabled": 0, "lat": 38.9007025, "rental_uris": {"ios": "https://dc.lft.to/lastmile_qr_scan", "android": "https://dc.lft.to/lastmile_qr_scan"}, "is_reserved": 0, "fusion_lon": 0.0, "fusion_lat": 0.0, "lon": -77.03649283333333, "name": "2422468395fdb8c601080c8c34ae09fc"}, {"bike_id": "75f0e318034396ea3852b2cb04f1bca6", "type": "electric_scooter", "is_disabled": 0, "lat": 38.936628666666664, "rental_uris": {"ios": "https://dc.lft.to/lastmile_qr_scan", "android": "https://dc.lft.to/lastmile_qr_scan"}, "is_reserved": 0, "fusion_lon": 0.0, "fusion_lat": 0.0, "lon": -77.05493833333334, "name": "75f0e318034396ea3852b2cb04f1bca6"}, {"bike_id": "8f899f227906c0d62b40ef83cefcd5c3", "type": "electric_scooter", "is_disabled": 0, "lat": 38.920070333333335, "rental_uris": {"ios": "https://dc.lft.to/lastmile_qr_scan", "android": "https://dc.lft.to/lastmile_qr_scan"}, "is_reserved": 0, "fusion_lon": 0.0, "fusion_lat": 0.0, "lon": -77.0314365, "name": "8f899f227906c0d62b40ef83cefcd5c3"}, {"bike_id": "b13a6496d07622ae630c57d111fb14c1", "type": "electric_scooter", "is_disabled": 0, "lat": 38.92825233333333, "rental_uris": {"ios": "https://dc.lft.to/lastmile_qr_scan", "android": "https://dc.lft.to/lastmile_qr_scan"}, "is_reserved": 0, "fusion_lon": 0.0, "fusion_lat": 0.0, "lon": -77.02254333333333, "name": "b13a6496d07622ae630c57d111fb14c1"}, {"bike_id": "664ea159e50b1f07883a6dfffde66d06", "type": "electric_scooter", "is_disabled": 0, "lat": 38.914045, "rental_uris": {"ios": "https://dc.lft.to/lastmile_qr_scan", "android": "https://dc.lft.to/lastmile_qr_scan"}, "is_reserved": 0, "fusion_lon": 0.0, "fusion_lat": 0.0, "lon": -77.0358865, "name": "664ea159e50b1f07883a6dfffde66d06"}, {"bike_id": "b259a9c3e577afe0caea79b6758b4174", "type": "electric_scooter", "is_disabled": 0, "lat": 38.928794833333335, "rental_uris": {"ios": "https://dc.lft.to/lastmile_qr_scan", "android": "https://dc.lft.to/lastmile_qr_scan"}, "is_reserved": 0, "fusion_lon": 0.0, "fusion_lat": 0.0, "lon": -77.0344095, "name": "b259a9c3e577afe0caea79b6758b4174"}, {"bike_id": "dd665bb5c07b0424a8c9b6785fb9c387", "type": "electric_scooter", "is_disabled": 0, "lat": 38.90103533333333, "rental_uris": {"ios": "https://dc.lft.to/lastmile_qr_scan", "android": "https://dc.lft.to/lastmile_qr_scan"}, "is_reserved": 0, "fusion_lon": 0.0, "fusion_lat": 0.0, "lon": -77.0514065, "name": "dd665bb5c07b0424a8c9b6785fb9c387"}, {"bike_id": "b7b6e26160a25b8a2708a427446cbb08", "type": "electric_scooter", "is_disabled": 0, "lat": 38.90218766666667, "rental_uris": {"ios": "https://dc.lft.to/lastmile_qr_scan", "android": "https://dc.lft.to/lastmile_qr_scan"}, "is_reserved": 0, "fusion_lon": 0.0, "fusion_lat": 0.0, "lon": -77.05135116666666, "name": "b7b6e26160a25b8a2708a427446cbb08"}, {"bike_id": "320757c35e51a1bb1f6b27738713456e", "type": "electric_scooter", "is_disabled": 0, "lat": 38.917669, "rental_uris": {"ios": "https://dc.lft.to/lastmile_qr_scan", "android": "https://dc.lft.to/lastmile_qr_scan"}, "is_reserved": 0, "fusion_lon": 0.0, "fusion_lat": 0.0, "lon": -77.04772383333334, "name": "320757c35e51a1bb1f6b27738713456e"}, {"bike_id": "778f3b05db8ed8eaaaf492b66fe7d4d9", "type": "electric_scooter", "is_disabled": 0, "lat": 38.908506333333335, "rental_uris": {"ios": "https://dc.lft.to/lastmile_qr_scan", "android": "https://dc.lft.to/lastmile_qr_scan"}, "is_reserved": 0, "fusion_lon": 0.0, "fusion_lat": 0.0, "lon": -76.99966883333333, "name": "778f3b05db8ed8eaaaf492b66fe7d4d9"}, {"bike_id": "283c20eed81425a9bac9eb46ca0b844e", "type": "electric_bike", "is_disabled": 0, "lat": 38.862609, "rental_uris": {"ios": "https://dc.lft.to/lastmile_qr_scan", "android": "https://dc.lft.to/lastmile_qr_scan"}, "is_reserved": 0, "fusion_lon": 0.0, "fusion_lat": 0.0, "lon": -76.9834615, "name": "283c20eed81425a9bac9eb46ca0b844e"}, {"bike_id": "00f70d29be087cc3f2485b86d164e058", "type": "electric_scooter", "is_disabled": 0, "lat": 38.89617333333333, "rental_uris": {"ios": "https://dc.lft.to/lastmile_qr_scan", "android": "https://dc.lft.to/lastmile_qr_scan"}, "is_reserved": 0, "fusion_lon": 0.0, "fusion_lat": 0.0, "lon": -76.98165533333334, "name": "00f70d29be087cc3f2485b86d164e058"}, {"bike_id": "f9735ff74ed23f68d1cf9cf486cb6f7e", "type": "electric_scooter", "is_disabled": 0, "lat": 38.91351683333333, "rental_uris": {"ios": "https://dc.lft.to/lastmile_qr_scan", "android": "https://dc.lft.to/lastmile_qr_scan"}, "is_reserved": 0, "fusion_lon": 0.0, "fusion_lat": 0.0, "lon": -77.02585783333333, "name": "f9735ff74ed23f68d1cf9cf486cb6f7e"}, {"bike_id": "472e5def0b384e23d8bfe484e2fe5686", "type": "electric_scooter", "is_disabled": 0, "lat": 38.914737, "rental_uris": {"ios": "https://dc.lft.to/lastmile_qr_scan", "android": "https://dc.lft.to/lastmile_qr_scan"}, "is_reserved": 0, "fusion_lon": 0.0, "fusion_lat": 0.0, "lon": -77.04548583333333, "name": "472e5def0b384e23d8bfe484e2fe5686"}, {"bike_id": "db4440afb9dcf264e7130a9fb6cba183", "type": "electric_scooter", "is_disabled": 0, "lat": 38.91573266666666, "rental_uris": {"ios": "https://dc.lft.to/lastmile_qr_scan", "android": "https://dc.lft.to/lastmile_qr_scan"}, "is_reserved": 0, "fusion_lon": 0.0, "fusion_lat": 0.0, "lon": -77.020564, "name": "db4440afb9dcf264e7130a9fb6cba183"}, {"bike_id": "3eb6c174fe7f9b2cffdcc6b175f9bef1", "type": "electric_scooter", "is_disabled": 0, "lat": 38.91576283333333, "rental_uris": {"ios": "https://dc.lft.to/lastmile_qr_scan", "android": "https://dc.lft.to/lastmile_qr_scan"}, "is_reserved": 0, "fusion_lon": 0.0, "fusion_lat": 0.0, "lon": -77.02000616666666, "name": "3eb6c174fe7f9b2cffdcc6b175f9bef1"}, {"bike_id": "ad97dceaf14a9c0bf29b864b81e689e0", "type": "electric_scooter", "is_disabled": 0, "lat": 38.90278716666667, "rental_uris": {"ios": "https://dc.lft.to/lastmile_qr_scan", "android": "https://dc.lft.to/lastmile_qr_scan"}, "is_reserved": 0, "fusion_lon": 0.0, "fusion_lat": 0.0, "lon": -77.01901866666667, "name": "ad97dceaf14a9c0bf29b864b81e689e0"}, {"bike_id": "07feea7de8a3beddd3d9e3006023875e", "type": "electric_scooter", "is_disabled": 0, "lat": 38.903084666666665, "rental_uris": {"ios": "https://dc.lft.to/lastmile_qr_scan", "android": "https://dc.lft.to/lastmile_qr_scan"}, "is_reserved": 0, "fusion_lon": 0.0, "fusion_lat": 0.0, "lon": -77.02370833333333, "name": "07feea7de8a3beddd3d9e3006023875e"}, {"bike_id": "ca14d2781e629e9f95d45c1a33c80e8a", "type": "electric_scooter", "is_disabled": 0, "lat": 38.902107666666666, "rental_uris": {"ios": "https://dc.lft.to/lastmile_qr_scan", "android": "https://dc.lft.to/lastmile_qr_scan"}, "is_reserved": 0, "fusion_lon": 0.0, "fusion_lat": 0.0, "lon": -76.99272683333334, "name": "ca14d2781e629e9f95d45c1a33c80e8a"}, {"bike_id": "806ab9ac97b85ea4e52502045ac9f36d", "type": "electric_scooter", "is_disabled": 0, "lat": 38.910493833333334, "rental_uris": {"ios": "https://dc.lft.to/lastmile_qr_scan", "android": "https://dc.lft.to/lastmile_qr_scan"}, "is_reserved": 0, "fusion_lon": 0.0, "fusion_lat": 0.0, "lon": -77.04348983333334, "name": "806ab9ac97b85ea4e52502045ac9f36d"}, {"bike_id": "bed1664427f37e1b4f3f849e4454ff81", "type": "electric_scooter", "is_disabled": 0, "lat": 38.914070833333334, "rental_uris": {"ios": "https://dc.lft.to/lastmile_qr_scan", "android": "https://dc.lft.to/lastmile_qr_scan"}, "is_reserved": 0, "fusion_lon": 0.0, "fusion_lat": 0.0, "lon": -77.031776, "name": "bed1664427f37e1b4f3f849e4454ff81"}, {"bike_id": "55d199496b4b017171c15db3be3af5b4", "type": "electric_scooter", "is_disabled": 0, "lat": 38.92274283333333, "rental_uris": {"ios": "https://dc.lft.to/lastmile_qr_scan", "android": "https://dc.lft.to/lastmile_qr_scan"}, "is_reserved": 0, "fusion_lon": 0.0, "fusion_lat": 0.0, "lon": -77.04284083333333, "name": "55d199496b4b017171c15db3be3af5b4"}, {"bike_id": "42965e27628c6d142ae12cf4fe06614e", "type": "electric_scooter", "is_disabled": 0, "lat": 38.91708533333333, "rental_uris": {"ios": "https://dc.lft.to/lastmile_qr_scan", "android": "https://dc.lft.to/lastmile_qr_scan"}, "is_reserved": 0, "fusion_lon": 0.0, "fusion_lat": 0.0, "lon": -77.029335, "name": "42965e27628c6d142ae12cf4fe06614e"}, {"bike_id": "985d67a0524658054fc3b4264ea03686", "type": "electric_scooter", "is_disabled": 0, "lat": 38.9152115, "rental_uris": {"ios": "https://dc.lft.to/lastmile_qr_scan", "android": "https://dc.lft.to/lastmile_qr_scan"}, "is_reserved": 0, "fusion_lon": 0.0, "fusion_lat": 0.0, "lon": -77.01225383333333, "name": "985d67a0524658054fc3b4264ea03686"}, {"bike_id": "776ac7238b6dc2074c2a4632535abd29", "type": "electric_bike", "is_disabled": 0, "lat": 38.89742, "rental_uris": {"ios": "https://dc.lft.to/lastmile_qr_scan", "android": "https://dc.lft.to/lastmile_qr_scan"}, "is_reserved": 0, "fusion_lon": 0.0, "fusion_lat": 0.0, "lon": -76.920468, "name": "776ac7238b6dc2074c2a4632535abd29"}, {"bike_id": "16dea6d8133d7806b0dd064b305409ef", "type": "electric_scooter", "is_disabled": 0, "lat": 38.919259833333335, "rental_uris": {"ios": "https://dc.lft.to/lastmile_qr_scan", "android": "https://dc.lft.to/lastmile_qr_scan"}, "is_reserved": 0, "fusion_lon": 0.0, "fusion_lat": 0.0, "lon": -77.04633416666667, "name": "16dea6d8133d7806b0dd064b305409ef"}, {"bike_id": "ac29f2d2d49c78ec78aece832794fba1", "type": "electric_scooter", "is_disabled": 0, "lat": 38.905916833333336, "rental_uris": {"ios": "https://dc.lft.to/lastmile_qr_scan", "android": "https://dc.lft.to/lastmile_qr_scan"}, "is_reserved": 0, "fusion_lon": 0.0, "fusion_lat": 0.0, "lon": -77.07010716666667, "name": "ac29f2d2d49c78ec78aece832794fba1"}, {"bike_id": "b189d03dbb43df6bb2af8679442d2baa", "type": "electric_scooter", "is_disabled": 0, "lat": 38.96420833333333, "rental_uris": {"ios": "https://dc.lft.to/lastmile_qr_scan", "android": "https://dc.lft.to/lastmile_qr_scan"}, "is_reserved": 0, "fusion_lon": 0.0, "fusion_lat": 0.0, "lon": -77.02426416666667, "name": "b189d03dbb43df6bb2af8679442d2baa"}, {"bike_id": "9cfce4492e0ba0e1a7e3f60f33b5ecb6", "type": "electric_scooter", "is_disabled": 0, "lat": 38.918249833333334, "rental_uris": {"ios": "https://dc.lft.to/lastmile_qr_scan", "android": "https://dc.lft.to/lastmile_qr_scan"}, "is_reserved": 0, "fusion_lon": 0.0, "fusion_lat": 0.0, "lon": -77.04944783333333, "name": "9cfce4492e0ba0e1a7e3f60f33b5ecb6"}, {"bike_id": "a7840f66b7e4555a4116b516b8a2d3e0", "type": "electric_scooter", "is_disabled": 0, "lat": 38.922172833333335, "rental_uris": {"ios": "https://dc.lft.to/lastmile_qr_scan", "android": "https://dc.lft.to/lastmile_qr_scan"}, "is_reserved": 0, "fusion_lon": 0.0, "fusion_lat": 0.0, "lon": -77.03292, "name": "a7840f66b7e4555a4116b516b8a2d3e0"}, {"bike_id": "78d60857fabd44d134d782686decabdd", "type": "electric_scooter", "is_disabled": 0, "lat": 38.90582233333333, "rental_uris": {"ios": "https://dc.lft.to/lastmile_qr_scan", "android": "https://dc.lft.to/lastmile_qr_scan"}, "is_reserved": 0, "fusion_lon": 0.0, "fusion_lat": 0.0, "lon": -77.038339, "name": "78d60857fabd44d134d782686decabdd"}, {"bike_id": "3d7b13e45b48e9d660e0ee7e09503903", "type": "electric_scooter", "is_disabled": 0, "lat": 38.9192015, "rental_uris": {"ios": "https://dc.lft.to/lastmile_qr_scan", "android": "https://dc.lft.to/lastmile_qr_scan"}, "is_reserved": 0, "fusion_lon": 0.0, "fusion_lat": 0.0, "lon": -77.0336765, "name": "3d7b13e45b48e9d660e0ee7e09503903"}, {"bike_id": "d56b118f79621b78f1e2d1833a631657", "type": "electric_scooter", "is_disabled": 0, "lat": 38.902216, "rental_uris": {"ios": "https://dc.lft.to/lastmile_qr_scan", "android": "https://dc.lft.to/lastmile_qr_scan"}, "is_reserved": 0, "fusion_lon": 0.0, "fusion_lat": 0.0, "lon": -77.02113716666666, "name": "d56b118f79621b78f1e2d1833a631657"}, {"bike_id": "dcee9c6da0689768a7888999399e5a5f", "type": "electric_bike", "is_disabled": 0, "lat": 38.874782, "rental_uris": {"ios": "https://dc.lft.to/lastmile_qr_scan", "android": "https://dc.lft.to/lastmile_qr_scan"}, "is_reserved": 0, "fusion_lon": 0.0, "fusion_lat": 0.0, "lon": -76.96529583333333, "name": "dcee9c6da0689768a7888999399e5a5f"}, {"bike_id": "9582863938f6f88f41fb720e8f47bdb5", "type": "electric_scooter", "is_disabled": 0, "lat": 38.89688733333333, "rental_uris": {"ios": "https://dc.lft.to/lastmile_qr_scan", "android": "https://dc.lft.to/lastmile_qr_scan"}, "is_reserved": 0, "fusion_lon": 0.0, "fusion_lat": 0.0, "lon": -77.03342916666666, "name": "9582863938f6f88f41fb720e8f47bdb5"}, {"bike_id": "e8db779695d7eca6448ed49c2dcbd07e", "type": "electric_scooter", "is_disabled": 0, "lat": 38.956458833333336, "rental_uris": {"ios": "https://dc.lft.to/lastmile_qr_scan", "android": "https://dc.lft.to/lastmile_qr_scan"}, "is_reserved": 0, "fusion_lon": 0.0, "fusion_lat": 0.0, "lon": -77.0114135, "name": "e8db779695d7eca6448ed49c2dcbd07e"}, {"bike_id": "9d0fd23148d133adfd9ce3a10eb3c05c", "type": "electric_scooter", "is_disabled": 0, "lat": 38.9565585, "rental_uris": {"ios": "https://dc.lft.to/lastmile_qr_scan", "android": "https://dc.lft.to/lastmile_qr_scan"}, "is_reserved": 0, "fusion_lon": 0.0, "fusion_lat": 0.0, "lon": -77.01005783333333, "name": "9d0fd23148d133adfd9ce3a10eb3c05c"}, {"bike_id": "270a560dfdcb3c7b6c0bc918d3ceb5db", "type": "electric_bike", "is_disabled": 0, "lat": 38.81309, "rental_uris": {"ios": "https://dc.lft.to/lastmile_qr_scan", "android": "https://dc.lft.to/lastmile_qr_scan"}, "is_reserved": 0, "fusion_lon": 0.0, "fusion_lat": 0.0, "lon": -77.10964116666666, "name": "270a560dfdcb3c7b6c0bc918d3ceb5db"}, {"bike_id": "efb1955135bc8936557cf24e08fcb724", "type": "electric_scooter", "is_disabled": 0, "lat": 38.90679766666667, "rental_uris": {"ios": "https://dc.lft.to/lastmile_qr_scan", "android": "https://dc.lft.to/lastmile_qr_scan"}, "is_reserved": 0, "fusion_lon": 0.0, "fusion_lat": 0.0, "lon": -77.06266533333333, "name": "efb1955135bc8936557cf24e08fcb724"}, {"bike_id": "1d4eae8d326cfd64de6fc4d4d8d3492e", "type": "electric_scooter", "is_disabled": 0, "lat": 38.90836066666667, "rental_uris": {"ios": "https://dc.lft.to/lastmile_qr_scan", "android": "https://dc.lft.to/lastmile_qr_scan"}, "is_reserved": 0, "fusion_lon": 0.0, "fusion_lat": 0.0, "lon": -77.02931483333333, "name": "1d4eae8d326cfd64de6fc4d4d8d3492e"}, {"bike_id": "818fe6444b8011544e9af3b5a3617349", "type": "electric_scooter", "is_disabled": 0, "lat": 38.89216183333333, "rental_uris": {"ios": "https://dc.lft.to/lastmile_qr_scan", "android": "https://dc.lft.to/lastmile_qr_scan"}, "is_reserved": 0, "fusion_lon": 0.0, "fusion_lat": 0.0, "lon": -77.03160033333333, "name": "818fe6444b8011544e9af3b5a3617349"}, {"bike_id": "2050856beb851ece3dd42aaac49cdc74", "type": "electric_scooter", "is_disabled": 0, "lat": 38.933960666666664, "rental_uris": {"ios": "https://dc.lft.to/lastmile_qr_scan", "android": "https://dc.lft.to/lastmile_qr_scan"}, "is_reserved": 0, "fusion_lon": 0.0, "fusion_lat": 0.0, "lon": -77.0455515, "name": "2050856beb851ece3dd42aaac49cdc74"}, {"bike_id": "0497d4fe0739ea7a4d7ed5182cfd6b57", "type": "electric_scooter", "is_disabled": 0, "lat": 38.8792925, "rental_uris": {"ios": "https://dc.lft.to/lastmile_qr_scan", "android": "https://dc.lft.to/lastmile_qr_scan"}, "is_reserved": 0, "fusion_lon": 0.0, "fusion_lat": 0.0, "lon": -77.02382433333334, "name": "0497d4fe0739ea7a4d7ed5182cfd6b57"}, {"bike_id": "184ac93fa54b8ec803e07436bbb216d1", "type": "electric_scooter", "is_disabled": 0, "lat": 38.8874075, "rental_uris": {"ios": "https://dc.lft.to/lastmile_qr_scan", "android": "https://dc.lft.to/lastmile_qr_scan"}, "is_reserved": 0, "fusion_lon": 0.0, "fusion_lat": 0.0, "lon": -77.01534616666666, "name": "184ac93fa54b8ec803e07436bbb216d1"}, {"bike_id": "074f8e26638386679937271296fb8d78", "type": "electric_scooter", "is_disabled": 0, "lat": 38.924179333333335, "rental_uris": {"ios": "https://dc.lft.to/lastmile_qr_scan", "android": "https://dc.lft.to/lastmile_qr_scan"}, "is_reserved": 0, "fusion_lon": 0.0, "fusion_lat": 0.0, "lon": -77.05064516666667, "name": "074f8e26638386679937271296fb8d78"}, {"bike_id": "2a96c0530b41cb66dddcba79013ec9ec", "type": "electric_scooter", "is_disabled": 0, "lat": 38.9205635, "rental_uris": {"ios": "https://dc.lft.to/lastmile_qr_scan", "android": "https://dc.lft.to/lastmile_qr_scan"}, "is_reserved": 0, "fusion_lon": 0.0, "fusion_lat": 0.0, "lon": -76.99883433333333, "name": "2a96c0530b41cb66dddcba79013ec9ec"}, {"bike_id": "2c3bedf0895c2cd81ac7800881f2fcf7", "type": "electric_scooter", "is_disabled": 0, "lat": 38.901700166666664, "rental_uris": {"ios": "https://dc.lft.to/lastmile_qr_scan", "android": "https://dc.lft.to/lastmile_qr_scan"}, "is_reserved": 0, "fusion_lon": 0.0, "fusion_lat": 0.0, "lon": -76.93026766666667, "name": "2c3bedf0895c2cd81ac7800881f2fcf7"}, {"bike_id": "a30b85c0ba1e264ee61e8865a6fac69d", "type": "electric_scooter", "is_disabled": 0, "lat": 38.887015166666664, "rental_uris": {"ios": "https://dc.lft.to/lastmile_qr_scan", "android": "https://dc.lft.to/lastmile_qr_scan"}, "is_reserved": 0, "fusion_lon": 0.0, "fusion_lat": 0.0, "lon": -76.99608916666666, "name": "a30b85c0ba1e264ee61e8865a6fac69d"}, {"bike_id": "cdd91d93c4eff9def70b7016dbdc9aa7", "type": "electric_scooter", "is_disabled": 0, "lat": 38.92319466666667, "rental_uris": {"ios": "https://dc.lft.to/lastmile_qr_scan", "android": "https://dc.lft.to/lastmile_qr_scan"}, "is_reserved": 0, "fusion_lon": 0.0, "fusion_lat": 0.0, "lon": -77.03909883333333, "name": "cdd91d93c4eff9def70b7016dbdc9aa7"}, {"bike_id": "0ecaf863d48089ea14e22344f7939aef", "type": "electric_scooter", "is_disabled": 0, "lat": 38.8717775, "rental_uris": {"ios": "https://dc.lft.to/lastmile_qr_scan", "android": "https://dc.lft.to/lastmile_qr_scan"}, "is_reserved": 0, "fusion_lon": 0.0, "fusion_lat": 0.0, "lon": -77.00614633333333, "name": "0ecaf863d48089ea14e22344f7939aef"}, {"bike_id": "df4d4c5ed9fe52eab8ebbcb184247c89", "type": "electric_scooter", "is_disabled": 0, "lat": 38.876510333333336, "rental_uris": {"ios": "https://dc.lft.to/lastmile_qr_scan", "android": "https://dc.lft.to/lastmile_qr_scan"}, "is_reserved": 0, "fusion_lon": 0.0, "fusion_lat": 0.0, "lon": -77.00728466666666, "name": "df4d4c5ed9fe52eab8ebbcb184247c89"}, {"bike_id": "caf8dfc6368a6948946d39f4a1c4bd76", "type": "electric_scooter", "is_disabled": 0, "lat": 38.862463, "rental_uris": {"ios": "https://dc.lft.to/lastmile_qr_scan", "android": "https://dc.lft.to/lastmile_qr_scan"}, "is_reserved": 0, "fusion_lon": 0.0, "fusion_lat": 0.0, "lon": -76.9950245, "name": "caf8dfc6368a6948946d39f4a1c4bd76"}, {"bike_id": "436f16d785812fadc7efd58a6f1ddaac", "type": "electric_scooter", "is_disabled": 0, "lat": 38.90239733333333, "rental_uris": {"ios": "https://dc.lft.to/lastmile_qr_scan", "android": "https://dc.lft.to/lastmile_qr_scan"}, "is_reserved": 0, "fusion_lon": 0.0, "fusion_lat": 0.0, "lon": -77.04124033333333, "name": "436f16d785812fadc7efd58a6f1ddaac"}, {"bike_id": "502acf5d6664ae9e2c7673d3c1b0d241", "type": "electric_scooter", "is_disabled": 0, "lat": 38.90023766666667, "rental_uris": {"ios": "https://dc.lft.to/lastmile_qr_scan", "android": "https://dc.lft.to/lastmile_qr_scan"}, "is_reserved": 0, "fusion_lon": 0.0, "fusion_lat": 0.0, "lon": -76.99807483333333, "name": "502acf5d6664ae9e2c7673d3c1b0d241"}, {"bike_id": "c05e57788ae8c291d74e40eb69b4ad61", "type": "electric_bike", "is_disabled": 0, "lat": 38.90016583333333, "rental_uris": {"ios": "https://dc.lft.to/lastmile_qr_scan", "android": "https://dc.lft.to/lastmile_qr_scan"}, "is_reserved": 0, "fusion_lon": 0.0, "fusion_lat": 0.0, "lon": -76.99304016666666, "name": "c05e57788ae8c291d74e40eb69b4ad61"}, {"bike_id": "888ab3510289badec787b16bf053f378", "type": "electric_scooter", "is_disabled": 0, "lat": 38.950076, "rental_uris": {"ios": "https://dc.lft.to/lastmile_qr_scan", "android": "https://dc.lft.to/lastmile_qr_scan"}, "is_reserved": 0, "fusion_lon": 0.0, "fusion_lat": 0.0, "lon": -77.01561416666667, "name": "888ab3510289badec787b16bf053f378"}, {"bike_id": "cee3928927600dfb764b486f4dbd889b", "type": "electric_scooter", "is_disabled": 0, "lat": 38.9566335, "rental_uris": {"ios": "https://dc.lft.to/lastmile_qr_scan", "android": "https://dc.lft.to/lastmile_qr_scan"}, "is_reserved": 0, "fusion_lon": 0.0, "fusion_lat": 0.0, "lon": -77.02404366666667, "name": "cee3928927600dfb764b486f4dbd889b"}, {"bike_id": "b9f7d3aba07e3f812726a986f82c304f", "type": "electric_scooter", "is_disabled": 0, "lat": 38.8901125, "rental_uris": {"ios": "https://dc.lft.to/lastmile_qr_scan", "android": "https://dc.lft.to/lastmile_qr_scan"}, "is_reserved": 0, "fusion_lon": 0.0, "fusion_lat": 0.0, "lon": -76.93750416666667, "name": "b9f7d3aba07e3f812726a986f82c304f"}, {"bike_id": "75c54788124dfc2be0307e7f54740703", "type": "electric_scooter", "is_disabled": 0, "lat": 38.923206, "rental_uris": {"ios": "https://dc.lft.to/lastmile_qr_scan", "android": "https://dc.lft.to/lastmile_qr_scan"}, "is_reserved": 0, "fusion_lon": 0.0, "fusion_lat": 0.0, "lon": -77.038782, "name": "75c54788124dfc2be0307e7f54740703"}, {"bike_id": "77faf78c6be8eae439ffc866f1f12845", "type": "electric_bike", "is_disabled": 0, "lat": 38.98774566666667, "rental_uris": {"ios": "https://dc.lft.to/lastmile_qr_scan", "android": "https://dc.lft.to/lastmile_qr_scan"}, "is_reserved": 0, "fusion_lon": 0.0, "fusion_lat": 0.0, "lon": -77.02635366666667, "name": "77faf78c6be8eae439ffc866f1f12845"}, {"bike_id": "12d7869d3c8ca9aac0f2a97621bdd047", "type": "electric_scooter", "is_disabled": 0, "lat": 38.919547666666666, "rental_uris": {"ios": "https://dc.lft.to/lastmile_qr_scan", "android": "https://dc.lft.to/lastmile_qr_scan"}, "is_reserved": 0, "fusion_lon": 0.0, "fusion_lat": 0.0, "lon": -77.04884766666666, "name": "12d7869d3c8ca9aac0f2a97621bdd047"}, {"bike_id": "2a54357d1150304d44eae0ecd80d5952", "type": "electric_scooter", "is_disabled": 0, "lat": 38.928641999999996, "rental_uris": {"ios": "https://dc.lft.to/lastmile_qr_scan", "android": "https://dc.lft.to/lastmile_qr_scan"}, "is_reserved": 0, "fusion_lon": 0.0, "fusion_lat": 0.0, "lon": -77.0218015, "name": "2a54357d1150304d44eae0ecd80d5952"}, {"bike_id": "142697704b7dc0505452295dadc4992e", "type": "electric_bike", "is_disabled": 0, "lat": 38.8544065, "rental_uris": {"ios": "https://dc.lft.to/lastmile_qr_scan", "android": "https://dc.lft.to/lastmile_qr_scan"}, "is_reserved": 0, "fusion_lon": 0.0, "fusion_lat": 0.0, "lon": -77.08307483333333, "name": "142697704b7dc0505452295dadc4992e"}, {"bike_id": "7de8de964c0548135dd1b45078fcb7fd", "type": "electric_scooter", "is_disabled": 0, "lat": 38.9363115, "rental_uris": {"ios": "https://dc.lft.to/lastmile_qr_scan", "android": "https://dc.lft.to/lastmile_qr_scan"}, "is_reserved": 0, "fusion_lon": 0.0, "fusion_lat": 0.0, "lon": -77.0366575, "name": "7de8de964c0548135dd1b45078fcb7fd"}, {"bike_id": "630052df27967f841f25dc603530a532", "type": "electric_scooter", "is_disabled": 0, "lat": 38.95215916666667, "rental_uris": {"ios": "https://dc.lft.to/lastmile_qr_scan", "android": "https://dc.lft.to/lastmile_qr_scan"}, "is_reserved": 0, "fusion_lon": 0.0, "fusion_lat": 0.0, "lon": -77.07070066666667, "name": "630052df27967f841f25dc603530a532"}, {"bike_id": "a02110ebc427ddbc31522082ea5aeac2", "type": "electric_scooter", "is_disabled": 0, "lat": 38.876314666666666, "rental_uris": {"ios": "https://dc.lft.to/lastmile_qr_scan", "android": "https://dc.lft.to/lastmile_qr_scan"}, "is_reserved": 0, "fusion_lon": 0.0, "fusion_lat": 0.0, "lon": -77.00062633333333, "name": "a02110ebc427ddbc31522082ea5aeac2"}, {"bike_id": "b2ae22ef7e4d687ae08dd1d80b1e412c", "type": "electric_scooter", "is_disabled": 0, "lat": 38.92671266666667, "rental_uris": {"ios": "https://dc.lft.to/lastmile_qr_scan", "android": "https://dc.lft.to/lastmile_qr_scan"}, "is_reserved": 0, "fusion_lon": 0.0, "fusion_lat": 0.0, "lon": -77.01509116666666, "name": "b2ae22ef7e4d687ae08dd1d80b1e412c"}, {"bike_id": "0bbd588d2a4d660f6ca0e92c403276ba", "type": "electric_scooter", "is_disabled": 0, "lat": 38.90172733333333, "rental_uris": {"ios": "https://dc.lft.to/lastmile_qr_scan", "android": "https://dc.lft.to/lastmile_qr_scan"}, "is_reserved": 0, "fusion_lon": 0.0, "fusion_lat": 0.0, "lon": -77.03866866666667, "name": "0bbd588d2a4d660f6ca0e92c403276ba"}, {"bike_id": "5ae591d117e87a93a036caf583ebaca2", "type": "electric_scooter", "is_disabled": 0, "lat": 38.908539166666664, "rental_uris": {"ios": "https://dc.lft.to/lastmile_qr_scan", "android": "https://dc.lft.to/lastmile_qr_scan"}, "is_reserved": 0, "fusion_lon": 0.0, "fusion_lat": 0.0, "lon": -77.0206775, "name": "5ae591d117e87a93a036caf583ebaca2"}, {"bike_id": "f8f5acde99cb42edb6a3324a87e65391", "type": "electric_scooter", "is_disabled": 0, "lat": 38.920777333333334, "rental_uris": {"ios": "https://dc.lft.to/lastmile_qr_scan", "android": "https://dc.lft.to/lastmile_qr_scan"}, "is_reserved": 0, "fusion_lon": 0.0, "fusion_lat": 0.0, "lon": -77.00438766666667, "name": "f8f5acde99cb42edb6a3324a87e65391"}, {"bike_id": "c0e0d70740c70c60468359b9ee2e90e5", "type": "electric_scooter", "is_disabled": 0, "lat": 38.903037166666664, "rental_uris": {"ios": "https://dc.lft.to/lastmile_qr_scan", "android": "https://dc.lft.to/lastmile_qr_scan"}, "is_reserved": 0, "fusion_lon": 0.0, "fusion_lat": 0.0, "lon": -76.98344716666666, "name": "c0e0d70740c70c60468359b9ee2e90e5"}, {"bike_id": "15d4bb36cb147b8d5a46ef9e4fcca1b3", "type": "electric_scooter", "is_disabled": 0, "lat": 38.92331016666667, "rental_uris": {"ios": "https://dc.lft.to/lastmile_qr_scan", "android": "https://dc.lft.to/lastmile_qr_scan"}, "is_reserved": 0, "fusion_lon": 0.0, "fusion_lat": 0.0, "lon": -77.0431075, "name": "15d4bb36cb147b8d5a46ef9e4fcca1b3"}, {"bike_id": "3fe9d8ed857e78c064c01b05904991c8", "type": "electric_scooter", "is_disabled": 0, "lat": 38.91490616666667, "rental_uris": {"ios": "https://dc.lft.to/lastmile_qr_scan", "android": "https://dc.lft.to/lastmile_qr_scan"}, "is_reserved": 0, "fusion_lon": 0.0, "fusion_lat": 0.0, "lon": -77.0391115, "name": "3fe9d8ed857e78c064c01b05904991c8"}, {"bike_id": "008c5eb8e57753501ae142d5ac78d123", "type": "electric_bike", "is_disabled": 0, "lat": 38.89752883333333, "rental_uris": {"ios": "https://dc.lft.to/lastmile_qr_scan", "android": "https://dc.lft.to/lastmile_qr_scan"}, "is_reserved": 0, "fusion_lon": 0.0, "fusion_lat": 0.0, "lon": -77.00738816666667, "name": "008c5eb8e57753501ae142d5ac78d123"}, {"bike_id": "4bf1dd9d33fdd74139a5039b7ff63a23", "type": "electric_scooter", "is_disabled": 0, "lat": 38.92614116666667, "rental_uris": {"ios": "https://dc.lft.to/lastmile_qr_scan", "android": "https://dc.lft.to/lastmile_qr_scan"}, "is_reserved": 0, "fusion_lon": 0.0, "fusion_lat": 0.0, "lon": -77.02161466666666, "name": "4bf1dd9d33fdd74139a5039b7ff63a23"}, {"bike_id": "96ebfd93344c02c14852278ffd1c45ae", "type": "electric_scooter", "is_disabled": 0, "lat": 38.8919925, "rental_uris": {"ios": "https://dc.lft.to/lastmile_qr_scan", "android": "https://dc.lft.to/lastmile_qr_scan"}, "is_reserved": 0, "fusion_lon": 0.0, "fusion_lat": 0.0, "lon": -77.00234266666666, "name": "96ebfd93344c02c14852278ffd1c45ae"}, {"bike_id": "abfed053f0a203c4c40975f0b89403f7", "type": "electric_scooter", "is_disabled": 0, "lat": 38.93460016666667, "rental_uris": {"ios": "https://dc.lft.to/lastmile_qr_scan", "android": "https://dc.lft.to/lastmile_qr_scan"}, "is_reserved": 0, "fusion_lon": 0.0, "fusion_lat": 0.0, "lon": -77.03047583333333, "name": "abfed053f0a203c4c40975f0b89403f7"}, {"bike_id": "56360bc19bcd81e482f83679984f5eb2", "type": "electric_scooter", "is_disabled": 0, "lat": 38.920635, "rental_uris": {"ios": "https://dc.lft.to/lastmile_qr_scan", "android": "https://dc.lft.to/lastmile_qr_scan"}, "is_reserved": 0, "fusion_lon": 0.0, "fusion_lat": 0.0, "lon": -77.03455216666667, "name": "56360bc19bcd81e482f83679984f5eb2"}, {"bike_id": "5d838045c6ca27b8a89e238f898d1e64", "type": "electric_scooter", "is_disabled": 0, "lat": 38.89857466666667, "rental_uris": {"ios": "https://dc.lft.to/lastmile_qr_scan", "android": "https://dc.lft.to/lastmile_qr_scan"}, "is_reserved": 0, "fusion_lon": 0.0, "fusion_lat": 0.0, "lon": -77.0487815, "name": "5d838045c6ca27b8a89e238f898d1e64"}, {"bike_id": "2b4b0114a77b8e04ad7ec17022d8e0fd", "type": "electric_scooter", "is_disabled": 0, "lat": 38.8967265, "rental_uris": {"ios": "https://dc.lft.to/lastmile_qr_scan", "android": "https://dc.lft.to/lastmile_qr_scan"}, "is_reserved": 0, "fusion_lon": 0.0, "fusion_lat": 0.0, "lon": -76.98821033333333, "name": "2b4b0114a77b8e04ad7ec17022d8e0fd"}, {"bike_id": "95951e0cb7f0c24112f09a0ba469aa26", "type": "electric_scooter", "is_disabled": 0, "lat": 38.885146666666664, "rental_uris": {"ios": "https://dc.lft.to/lastmile_qr_scan", "android": "https://dc.lft.to/lastmile_qr_scan"}, "is_reserved": 0, "fusion_lon": 0.0, "fusion_lat": 0.0, "lon": -77.01530716666667, "name": "95951e0cb7f0c24112f09a0ba469aa26"}, {"bike_id": "76233bdac22e8c821a3207f236b9696c", "type": "electric_scooter", "is_disabled": 0, "lat": 38.89736716666667, "rental_uris": {"ios": "https://dc.lft.to/lastmile_qr_scan", "android": "https://dc.lft.to/lastmile_qr_scan"}, "is_reserved": 0, "fusion_lon": 0.0, "fusion_lat": 0.0, "lon": -77.00757366666667, "name": "76233bdac22e8c821a3207f236b9696c"}, {"bike_id": "118c476fdfabf7f0acb95d018a85087c", "type": "electric_scooter", "is_disabled": 0, "lat": 38.900239666666664, "rental_uris": {"ios": "https://dc.lft.to/lastmile_qr_scan", "android": "https://dc.lft.to/lastmile_qr_scan"}, "is_reserved": 0, "fusion_lon": 0.0, "fusion_lat": 0.0, "lon": -76.99896583333333, "name": "118c476fdfabf7f0acb95d018a85087c"}, {"bike_id": "a7a18e0ac91b986aeba11c8190ee52bf", "type": "electric_scooter", "is_disabled": 0, "lat": 38.91352283333333, "rental_uris": {"ios": "https://dc.lft.to/lastmile_qr_scan", "android": "https://dc.lft.to/lastmile_qr_scan"}, "is_reserved": 0, "fusion_lon": 0.0, "fusion_lat": 0.0, "lon": -77.03180033333334, "name": "a7a18e0ac91b986aeba11c8190ee52bf"}, {"bike_id": "72845297a6ab89bbf1d5f0e0899301ad", "type": "electric_scooter", "is_disabled": 0, "lat": 38.897340666666665, "rental_uris": {"ios": "https://dc.lft.to/lastmile_qr_scan", "android": "https://dc.lft.to/lastmile_qr_scan"}, "is_reserved": 0, "fusion_lon": 0.0, "fusion_lat": 0.0, "lon": -77.033482, "name": "72845297a6ab89bbf1d5f0e0899301ad"}, {"bike_id": "e0cc6230f0fef0ac0929e0ba678d6553", "type": "electric_scooter", "is_disabled": 0, "lat": 38.906839166666664, "rental_uris": {"ios": "https://dc.lft.to/lastmile_qr_scan", "android": "https://dc.lft.to/lastmile_qr_scan"}, "is_reserved": 0, "fusion_lon": 0.0, "fusion_lat": 0.0, "lon": -77.0716375, "name": "e0cc6230f0fef0ac0929e0ba678d6553"}, {"bike_id": "697fba0bc9372cd070f05c298e030f69", "type": "electric_bike", "is_disabled": 0, "lat": 38.876788833333336, "rental_uris": {"ios": "https://dc.lft.to/lastmile_qr_scan", "android": "https://dc.lft.to/lastmile_qr_scan"}, "is_reserved": 0, "fusion_lon": 0.0, "fusion_lat": 0.0, "lon": -77.01483683333333, "name": "697fba0bc9372cd070f05c298e030f69"}, {"bike_id": "977ed75e41098b4e11c1519c738e9fb3", "type": "electric_scooter", "is_disabled": 0, "lat": 38.909427, "rental_uris": {"ios": "https://dc.lft.to/lastmile_qr_scan", "android": "https://dc.lft.to/lastmile_qr_scan"}, "is_reserved": 0, "fusion_lon": 0.0, "fusion_lat": 0.0, "lon": -77.02218333333333, "name": "977ed75e41098b4e11c1519c738e9fb3"}, {"bike_id": "cc3db428ab97b8b5c78616e2d478f940", "type": "electric_scooter", "is_disabled": 0, "lat": 38.89845066666667, "rental_uris": {"ios": "https://dc.lft.to/lastmile_qr_scan", "android": "https://dc.lft.to/lastmile_qr_scan"}, "is_reserved": 0, "fusion_lon": 0.0, "fusion_lat": 0.0, "lon": -76.946329, "name": "cc3db428ab97b8b5c78616e2d478f940"}, {"bike_id": "47ad88e519c676a46ac50aa61289b147", "type": "electric_scooter", "is_disabled": 0, "lat": 38.92606583333333, "rental_uris": {"ios": "https://dc.lft.to/lastmile_qr_scan", "android": "https://dc.lft.to/lastmile_qr_scan"}, "is_reserved": 0, "fusion_lon": 0.0, "fusion_lat": 0.0, "lon": -77.102245, "name": "47ad88e519c676a46ac50aa61289b147"}, {"bike_id": "64841c5c9204c6d485db6df4e6a4df99", "type": "electric_scooter", "is_disabled": 0, "lat": 38.897211666666664, "rental_uris": {"ios": "https://dc.lft.to/lastmile_qr_scan", "android": "https://dc.lft.to/lastmile_qr_scan"}, "is_reserved": 0, "fusion_lon": 0.0, "fusion_lat": 0.0, "lon": -77.0487325, "name": "64841c5c9204c6d485db6df4e6a4df99"}, {"bike_id": "94abc899b5a6a6eb188a5da13eaa1726", "type": "electric_scooter", "is_disabled": 0, "lat": 38.892205833333335, "rental_uris": {"ios": "https://dc.lft.to/lastmile_qr_scan", "android": "https://dc.lft.to/lastmile_qr_scan"}, "is_reserved": 0, "fusion_lon": 0.0, "fusion_lat": 0.0, "lon": -77.02633583333333, "name": "94abc899b5a6a6eb188a5da13eaa1726"}, {"bike_id": "edf48f3615e17405f17bdcfcdb9c3915", "type": "electric_scooter", "is_disabled": 0, "lat": 38.917058833333336, "rental_uris": {"ios": "https://dc.lft.to/lastmile_qr_scan", "android": "https://dc.lft.to/lastmile_qr_scan"}, "is_reserved": 0, "fusion_lon": 0.0, "fusion_lat": 0.0, "lon": -77.02407366666667, "name": "edf48f3615e17405f17bdcfcdb9c3915"}, {"bike_id": "4c3c1ebdfab38bc9f663f7b19de27ced", "type": "electric_scooter", "is_disabled": 0, "lat": 38.88800466666667, "rental_uris": {"ios": "https://dc.lft.to/lastmile_qr_scan", "android": "https://dc.lft.to/lastmile_qr_scan"}, "is_reserved": 0, "fusion_lon": 0.0, "fusion_lat": 0.0, "lon": -77.01532033333334, "name": "4c3c1ebdfab38bc9f663f7b19de27ced"}, {"bike_id": "363cccd96e2d2a09338449deef0a8cf0", "type": "electric_scooter", "is_disabled": 0, "lat": 38.918632833333334, "rental_uris": {"ios": "https://dc.lft.to/lastmile_qr_scan", "android": "https://dc.lft.to/lastmile_qr_scan"}, "is_reserved": 0, "fusion_lon": 0.0, "fusion_lat": 0.0, "lon": -77.036529, "name": "363cccd96e2d2a09338449deef0a8cf0"}, {"bike_id": "095a899f400d866e45762f1f8969a9d5", "type": "electric_scooter", "is_disabled": 0, "lat": 38.904081166666664, "rental_uris": {"ios": "https://dc.lft.to/lastmile_qr_scan", "android": "https://dc.lft.to/lastmile_qr_scan"}, "is_reserved": 0, "fusion_lon": 0.0, "fusion_lat": 0.0, "lon": -76.97331266666667, "name": "095a899f400d866e45762f1f8969a9d5"}, {"bike_id": "b5fc2230681376a0cd200d4fa08a91bb", "type": "electric_scooter", "is_disabled": 0, "lat": 38.917531833333335, "rental_uris": {"ios": "https://dc.lft.to/lastmile_qr_scan", "android": "https://dc.lft.to/lastmile_qr_scan"}, "is_reserved": 0, "fusion_lon": 0.0, "fusion_lat": 0.0, "lon": -77.03662183333333, "name": "b5fc2230681376a0cd200d4fa08a91bb"}, {"bike_id": "4169923598c9130c57337b7ab732cec3", "type": "electric_scooter", "is_disabled": 0, "lat": 38.91573783333333, "rental_uris": {"ios": "https://dc.lft.to/lastmile_qr_scan", "android": "https://dc.lft.to/lastmile_qr_scan"}, "is_reserved": 0, "fusion_lon": 0.0, "fusion_lat": 0.0, "lon": -77.05008816666667, "name": "4169923598c9130c57337b7ab732cec3"}, {"bike_id": "f5ca3d08276d5dcf6632d8b2b95f766c", "type": "electric_scooter", "is_disabled": 0, "lat": 38.9235635, "rental_uris": {"ios": "https://dc.lft.to/lastmile_qr_scan", "android": "https://dc.lft.to/lastmile_qr_scan"}, "is_reserved": 0, "fusion_lon": 0.0, "fusion_lat": 0.0, "lon": -77.05277216666667, "name": "f5ca3d08276d5dcf6632d8b2b95f766c"}, {"bike_id": "e7800d10fabd361c125f894989247f00", "type": "electric_scooter", "is_disabled": 0, "lat": 38.91404583333333, "rental_uris": {"ios": "https://dc.lft.to/lastmile_qr_scan", "android": "https://dc.lft.to/lastmile_qr_scan"}, "is_reserved": 0, "fusion_lon": 0.0, "fusion_lat": 0.0, "lon": -77.03173766666667, "name": "e7800d10fabd361c125f894989247f00"}, {"bike_id": "e117711cf12230b9efe90f5c01b07f0a", "type": "electric_scooter", "is_disabled": 0, "lat": 38.888540666666664, "rental_uris": {"ios": "https://dc.lft.to/lastmile_qr_scan", "android": "https://dc.lft.to/lastmile_qr_scan"}, "is_reserved": 0, "fusion_lon": 0.0, "fusion_lat": 0.0, "lon": -77.00048916666667, "name": "e117711cf12230b9efe90f5c01b07f0a"}, {"bike_id": "ad63832b41ca9baf90f9399c28a47379", "type": "electric_scooter", "is_disabled": 0, "lat": 38.91060133333333, "rental_uris": {"ios": "https://dc.lft.to/lastmile_qr_scan", "android": "https://dc.lft.to/lastmile_qr_scan"}, "is_reserved": 0, "fusion_lon": 0.0, "fusion_lat": 0.0, "lon": -77.04175633333334, "name": "ad63832b41ca9baf90f9399c28a47379"}, {"bike_id": "0c8e0830edd6f5f0a0ae68559b1480cc", "type": "electric_scooter", "is_disabled": 0, "lat": 38.8893225, "rental_uris": {"ios": "https://dc.lft.to/lastmile_qr_scan", "android": "https://dc.lft.to/lastmile_qr_scan"}, "is_reserved": 0, "fusion_lon": 0.0, "fusion_lat": 0.0, "lon": -76.93577916666666, "name": "0c8e0830edd6f5f0a0ae68559b1480cc"}, {"bike_id": "01ede8423f6dd2426953f9e885159e8e", "type": "electric_scooter", "is_disabled": 0, "lat": 38.90582883333333, "rental_uris": {"ios": "https://dc.lft.to/lastmile_qr_scan", "android": "https://dc.lft.to/lastmile_qr_scan"}, "is_reserved": 0, "fusion_lon": 0.0, "fusion_lat": 0.0, "lon": -77.03470616666667, "name": "01ede8423f6dd2426953f9e885159e8e"}, {"bike_id": "bd7c18de0b101259760017f6ded191f5", "type": "electric_scooter", "is_disabled": 0, "lat": 38.844345833333335, "rental_uris": {"ios": "https://dc.lft.to/lastmile_qr_scan", "android": "https://dc.lft.to/lastmile_qr_scan"}, "is_reserved": 0, "fusion_lon": 0.0, "fusion_lat": 0.0, "lon": -76.99779483333333, "name": "bd7c18de0b101259760017f6ded191f5"}, {"bike_id": "ae35ce0196d2e4923903222b2d97a7bb", "type": "electric_scooter", "is_disabled": 0, "lat": 38.932919, "rental_uris": {"ios": "https://dc.lft.to/lastmile_qr_scan", "android": "https://dc.lft.to/lastmile_qr_scan"}, "is_reserved": 0, "fusion_lon": 0.0, "fusion_lat": 0.0, "lon": -77.03539166666667, "name": "ae35ce0196d2e4923903222b2d97a7bb"}, {"bike_id": "8510d39bbdef71deff67229e1a5167fc", "type": "electric_bike", "is_disabled": 0, "lat": 39.043215833333335, "rental_uris": {"ios": "https://dc.lft.to/lastmile_qr_scan", "android": "https://dc.lft.to/lastmile_qr_scan"}, "is_reserved": 0, "fusion_lon": 0.0, "fusion_lat": 0.0, "lon": -77.05158483333334, "name": "8510d39bbdef71deff67229e1a5167fc"}, {"bike_id": "5a579a5d5b3bfe5476a8886fe7615080", "type": "electric_scooter", "is_disabled": 0, "lat": 38.87158066666667, "rental_uris": {"ios": "https://dc.lft.to/lastmile_qr_scan", "android": "https://dc.lft.to/lastmile_qr_scan"}, "is_reserved": 0, "fusion_lon": 0.0, "fusion_lat": 0.0, "lon": -77.01355483333333, "name": "5a579a5d5b3bfe5476a8886fe7615080"}, {"bike_id": "cb28852a494f732a6c027b64bff676d8", "type": "electric_bike", "is_disabled": 0, "lat": 38.82379533333334, "rental_uris": {"ios": "https://dc.lft.to/lastmile_qr_scan", "android": "https://dc.lft.to/lastmile_qr_scan"}, "is_reserved": 0, "fusion_lon": 0.0, "fusion_lat": 0.0, "lon": -77.00227883333334, "name": "cb28852a494f732a6c027b64bff676d8"}, {"bike_id": "f0ceaa9c86bb3898ed1be2ae29128ce1", "type": "electric_scooter", "is_disabled": 0, "lat": 38.893604833333335, "rental_uris": {"ios": "https://dc.lft.to/lastmile_qr_scan", "android": "https://dc.lft.to/lastmile_qr_scan"}, "is_reserved": 0, "fusion_lon": 0.0, "fusion_lat": 0.0, "lon": -76.94936466666667, "name": "f0ceaa9c86bb3898ed1be2ae29128ce1"}, {"bike_id": "db2b63ada5f545ec7e5d9b859e356b58", "type": "electric_scooter", "is_disabled": 0, "lat": 38.897906166666665, "rental_uris": {"ios": "https://dc.lft.to/lastmile_qr_scan", "android": "https://dc.lft.to/lastmile_qr_scan"}, "is_reserved": 0, "fusion_lon": 0.0, "fusion_lat": 0.0, "lon": -77.022151, "name": "db2b63ada5f545ec7e5d9b859e356b58"}, {"bike_id": "623917e23c227da9eacbd98b8b0785c4", "type": "electric_scooter", "is_disabled": 0, "lat": 38.902313666666664, "rental_uris": {"ios": "https://dc.lft.to/lastmile_qr_scan", "android": "https://dc.lft.to/lastmile_qr_scan"}, "is_reserved": 0, "fusion_lon": 0.0, "fusion_lat": 0.0, "lon": -77.04573433333333, "name": "623917e23c227da9eacbd98b8b0785c4"}, {"bike_id": "0c33392915e2230f12300ba1dc8f6eb2", "type": "electric_scooter", "is_disabled": 0, "lat": 38.896086333333336, "rental_uris": {"ios": "https://dc.lft.to/lastmile_qr_scan", "android": "https://dc.lft.to/lastmile_qr_scan"}, "is_reserved": 0, "fusion_lon": 0.0, "fusion_lat": 0.0, "lon": -77.05440416666667, "name": "0c33392915e2230f12300ba1dc8f6eb2"}, {"bike_id": "1757f10a394d709984dd03cefb5302d0", "type": "electric_scooter", "is_disabled": 0, "lat": 38.92797616666667, "rental_uris": {"ios": "https://dc.lft.to/lastmile_qr_scan", "android": "https://dc.lft.to/lastmile_qr_scan"}, "is_reserved": 0, "fusion_lon": 0.0, "fusion_lat": 0.0, "lon": -77.03198716666667, "name": "1757f10a394d709984dd03cefb5302d0"}, {"bike_id": "8af909f58886d6eab659fcc8e4aead6e", "type": "electric_scooter", "is_disabled": 0, "lat": 38.9200605, "rental_uris": {"ios": "https://dc.lft.to/lastmile_qr_scan", "android": "https://dc.lft.to/lastmile_qr_scan"}, "is_reserved": 0, "fusion_lon": 0.0, "fusion_lat": 0.0, "lon": -77.04175916666667, "name": "8af909f58886d6eab659fcc8e4aead6e"}, {"bike_id": "51ee4db1fe7b3263d21267e590d3785b", "type": "electric_scooter", "is_disabled": 0, "lat": 38.903692, "rental_uris": {"ios": "https://dc.lft.to/lastmile_qr_scan", "android": "https://dc.lft.to/lastmile_qr_scan"}, "is_reserved": 0, "fusion_lon": 0.0, "fusion_lat": 0.0, "lon": -76.999463, "name": "51ee4db1fe7b3263d21267e590d3785b"}, {"bike_id": "a2bbfa55ff7159f6a03a4d85c7c3df2e", "type": "electric_scooter", "is_disabled": 0, "lat": 38.91918366666667, "rental_uris": {"ios": "https://dc.lft.to/lastmile_qr_scan", "android": "https://dc.lft.to/lastmile_qr_scan"}, "is_reserved": 0, "fusion_lon": 0.0, "fusion_lat": 0.0, "lon": -77.034119, "name": "a2bbfa55ff7159f6a03a4d85c7c3df2e"}, {"bike_id": "195bd06f943546fcab9a274faf19668c", "type": "electric_scooter", "is_disabled": 0, "lat": 38.90889816666667, "rental_uris": {"ios": "https://dc.lft.to/lastmile_qr_scan", "android": "https://dc.lft.to/lastmile_qr_scan"}, "is_reserved": 0, "fusion_lon": 0.0, "fusion_lat": 0.0, "lon": -77.043583, "name": "195bd06f943546fcab9a274faf19668c"}, {"bike_id": "568b5372b6a440a29a01bbfd225bb0e5", "type": "electric_scooter", "is_disabled": 0, "lat": 38.905144166666666, "rental_uris": {"ios": "https://dc.lft.to/lastmile_qr_scan", "android": "https://dc.lft.to/lastmile_qr_scan"}, "is_reserved": 0, "fusion_lon": 0.0, "fusion_lat": 0.0, "lon": -77.06373933333333, "name": "568b5372b6a440a29a01bbfd225bb0e5"}, {"bike_id": "f094c87d623c819200debb6b44fa4494", "type": "electric_scooter", "is_disabled": 0, "lat": 38.88271116666667, "rental_uris": {"ios": "https://dc.lft.to/lastmile_qr_scan", "android": "https://dc.lft.to/lastmile_qr_scan"}, "is_reserved": 0, "fusion_lon": 0.0, "fusion_lat": 0.0, "lon": -76.99257866666667, "name": "f094c87d623c819200debb6b44fa4494"}, {"bike_id": "9e02deaafaaa64297f4d7688b5a0cc36", "type": "electric_scooter", "is_disabled": 0, "lat": 38.90827633333333, "rental_uris": {"ios": "https://dc.lft.to/lastmile_qr_scan", "android": "https://dc.lft.to/lastmile_qr_scan"}, "is_reserved": 0, "fusion_lon": 0.0, "fusion_lat": 0.0, "lon": -77.02391433333334, "name": "9e02deaafaaa64297f4d7688b5a0cc36"}, {"bike_id": "3f02ccc617aa02d983440e75a6e2605e", "type": "electric_scooter", "is_disabled": 0, "lat": 38.9068235, "rental_uris": {"ios": "https://dc.lft.to/lastmile_qr_scan", "android": "https://dc.lft.to/lastmile_qr_scan"}, "is_reserved": 0, "fusion_lon": 0.0, "fusion_lat": 0.0, "lon": -77.06338166666667, "name": "3f02ccc617aa02d983440e75a6e2605e"}, {"bike_id": "01ce8b611a6c2e8ba218b1b2bbae1978", "type": "electric_scooter", "is_disabled": 0, "lat": 38.9153035, "rental_uris": {"ios": "https://dc.lft.to/lastmile_qr_scan", "android": "https://dc.lft.to/lastmile_qr_scan"}, "is_reserved": 0, "fusion_lon": 0.0, "fusion_lat": 0.0, "lon": -77.0200435, "name": "01ce8b611a6c2e8ba218b1b2bbae1978"}, {"bike_id": "a1c2a646851dff7bfbbbf96c536a1ad2", "type": "electric_scooter", "is_disabled": 0, "lat": 38.9085125, "rental_uris": {"ios": "https://dc.lft.to/lastmile_qr_scan", "android": "https://dc.lft.to/lastmile_qr_scan"}, "is_reserved": 0, "fusion_lon": 0.0, "fusion_lat": 0.0, "lon": -77.0556625, "name": "a1c2a646851dff7bfbbbf96c536a1ad2"}, {"bike_id": "b40443806ec9647a48e2f0fa422e1637", "type": "electric_scooter", "is_disabled": 0, "lat": 38.903906666666664, "rental_uris": {"ios": "https://dc.lft.to/lastmile_qr_scan", "android": "https://dc.lft.to/lastmile_qr_scan"}, "is_reserved": 0, "fusion_lon": 0.0, "fusion_lat": 0.0, "lon": -77.06865383333333, "name": "b40443806ec9647a48e2f0fa422e1637"}, {"bike_id": "6c3bd50d846362422620ea2dc54a8159", "type": "electric_scooter", "is_disabled": 0, "lat": 38.9432975, "rental_uris": {"ios": "https://dc.lft.to/lastmile_qr_scan", "android": "https://dc.lft.to/lastmile_qr_scan"}, "is_reserved": 0, "fusion_lon": 0.0, "fusion_lat": 0.0, "lon": -77.01481166666667, "name": "6c3bd50d846362422620ea2dc54a8159"}, {"bike_id": "16d63fbd6a545eadefa29cfd0f4fc5e4", "type": "electric_scooter", "is_disabled": 0, "lat": 38.923827333333335, "rental_uris": {"ios": "https://dc.lft.to/lastmile_qr_scan", "android": "https://dc.lft.to/lastmile_qr_scan"}, "is_reserved": 0, "fusion_lon": 0.0, "fusion_lat": 0.0, "lon": -77.04083733333333, "name": "16d63fbd6a545eadefa29cfd0f4fc5e4"}, {"bike_id": "e010aa3b08f429fdb1e425b4e074a0ba", "type": "electric_scooter", "is_disabled": 0, "lat": 38.92149783333333, "rental_uris": {"ios": "https://dc.lft.to/lastmile_qr_scan", "android": "https://dc.lft.to/lastmile_qr_scan"}, "is_reserved": 0, "fusion_lon": 0.0, "fusion_lat": 0.0, "lon": -77.04340516666667, "name": "e010aa3b08f429fdb1e425b4e074a0ba"}, {"bike_id": "08b2a1a8b8754681a12f8b463384d9c4", "type": "electric_scooter", "is_disabled": 0, "lat": 38.929114, "rental_uris": {"ios": "https://dc.lft.to/lastmile_qr_scan", "android": "https://dc.lft.to/lastmile_qr_scan"}, "is_reserved": 0, "fusion_lon": 0.0, "fusion_lat": 0.0, "lon": -77.03256016666667, "name": "08b2a1a8b8754681a12f8b463384d9c4"}, {"bike_id": "9ed18535c542080bd013b7de62d6257a", "type": "electric_bike", "is_disabled": 0, "lat": 39.06297466666667, "rental_uris": {"ios": "https://dc.lft.to/lastmile_qr_scan", "android": "https://dc.lft.to/lastmile_qr_scan"}, "is_reserved": 0, "fusion_lon": 0.0, "fusion_lat": 0.0, "lon": -77.04982833333334, "name": "9ed18535c542080bd013b7de62d6257a"}, {"bike_id": "7262531e9256ec326dddfb0507e1c5c0", "type": "electric_scooter", "is_disabled": 0, "lat": 38.901579166666664, "rental_uris": {"ios": "https://dc.lft.to/lastmile_qr_scan", "android": "https://dc.lft.to/lastmile_qr_scan"}, "is_reserved": 0, "fusion_lon": 0.0, "fusion_lat": 0.0, "lon": -76.930646, "name": "7262531e9256ec326dddfb0507e1c5c0"}, {"bike_id": "b99dfec95345feb81a5f1e7e435834d9", "type": "electric_scooter", "is_disabled": 0, "lat": 38.91698266666667, "rental_uris": {"ios": "https://dc.lft.to/lastmile_qr_scan", "android": "https://dc.lft.to/lastmile_qr_scan"}, "is_reserved": 0, "fusion_lon": 0.0, "fusion_lat": 0.0, "lon": -77.03493966666667, "name": "b99dfec95345feb81a5f1e7e435834d9"}, {"bike_id": "c288eedae43ccf24859747808a8077a2", "type": "electric_scooter", "is_disabled": 0, "lat": 38.9296125, "rental_uris": {"ios": "https://dc.lft.to/lastmile_qr_scan", "android": "https://dc.lft.to/lastmile_qr_scan"}, "is_reserved": 0, "fusion_lon": 0.0, "fusion_lat": 0.0, "lon": -77.02963516666667, "name": "c288eedae43ccf24859747808a8077a2"}, {"bike_id": "0c92324761ceed673b847353a0531e2b", "type": "electric_scooter", "is_disabled": 0, "lat": 38.8974515, "rental_uris": {"ios": "https://dc.lft.to/lastmile_qr_scan", "android": "https://dc.lft.to/lastmile_qr_scan"}, "is_reserved": 0, "fusion_lon": 0.0, "fusion_lat": 0.0, "lon": -77.03213466666666, "name": "0c92324761ceed673b847353a0531e2b"}, {"bike_id": "0d97ec47ca2bfb8bad8e5d38498655a3", "type": "electric_scooter", "is_disabled": 0, "lat": 38.90280283333333, "rental_uris": {"ios": "https://dc.lft.to/lastmile_qr_scan", "android": "https://dc.lft.to/lastmile_qr_scan"}, "is_reserved": 0, "fusion_lon": 0.0, "fusion_lat": 0.0, "lon": -77.0385745, "name": "0d97ec47ca2bfb8bad8e5d38498655a3"}, {"bike_id": "9ddaf16924cd95eb1309cf0de63821bd", "type": "electric_scooter", "is_disabled": 0, "lat": 38.93886283333333, "rental_uris": {"ios": "https://dc.lft.to/lastmile_qr_scan", "android": "https://dc.lft.to/lastmile_qr_scan"}, "is_reserved": 0, "fusion_lon": 0.0, "fusion_lat": 0.0, "lon": -77.02493833333334, "name": "9ddaf16924cd95eb1309cf0de63821bd"}, {"bike_id": "984035736b78534db827ca538345c86f", "type": "electric_scooter", "is_disabled": 0, "lat": 38.89732166666667, "rental_uris": {"ios": "https://dc.lft.to/lastmile_qr_scan", "android": "https://dc.lft.to/lastmile_qr_scan"}, "is_reserved": 0, "fusion_lon": 0.0, "fusion_lat": 0.0, "lon": -77.00750733333334, "name": "984035736b78534db827ca538345c86f"}, {"bike_id": "dca175020f67e84bdc2af9ee41f842f5", "type": "electric_scooter", "is_disabled": 0, "lat": 38.844356, "rental_uris": {"ios": "https://dc.lft.to/lastmile_qr_scan", "android": "https://dc.lft.to/lastmile_qr_scan"}, "is_reserved": 0, "fusion_lon": 0.0, "fusion_lat": 0.0, "lon": -76.99870933333334, "name": "dca175020f67e84bdc2af9ee41f842f5"}, {"bike_id": "66424c0620ab3bdd350fd0f3dd6ea9c7", "type": "electric_scooter", "is_disabled": 0, "lat": 38.90517583333333, "rental_uris": {"ios": "https://dc.lft.to/lastmile_qr_scan", "android": "https://dc.lft.to/lastmile_qr_scan"}, "is_reserved": 0, "fusion_lon": 0.0, "fusion_lat": 0.0, "lon": -77.0593465, "name": "66424c0620ab3bdd350fd0f3dd6ea9c7"}, {"bike_id": "322e1356115586a98d4a960d807c16d1", "type": "electric_scooter", "is_disabled": 0, "lat": 38.87204833333333, "rental_uris": {"ios": "https://dc.lft.to/lastmile_qr_scan", "android": "https://dc.lft.to/lastmile_qr_scan"}, "is_reserved": 0, "fusion_lon": 0.0, "fusion_lat": 0.0, "lon": -77.0093005, "name": "322e1356115586a98d4a960d807c16d1"}, {"bike_id": "4fceec1c359251570c16a19f3953ea06", "type": "electric_scooter", "is_disabled": 0, "lat": 38.938469, "rental_uris": {"ios": "https://dc.lft.to/lastmile_qr_scan", "android": "https://dc.lft.to/lastmile_qr_scan"}, "is_reserved": 0, "fusion_lon": 0.0, "fusion_lat": 0.0, "lon": -77.072346, "name": "4fceec1c359251570c16a19f3953ea06"}, {"bike_id": "a0658080d89b1577cceeb62f303391ca", "type": "electric_scooter", "is_disabled": 0, "lat": 38.9218165, "rental_uris": {"ios": "https://dc.lft.to/lastmile_qr_scan", "android": "https://dc.lft.to/lastmile_qr_scan"}, "is_reserved": 0, "fusion_lon": 0.0, "fusion_lat": 0.0, "lon": -76.99794566666667, "name": "a0658080d89b1577cceeb62f303391ca"}, {"bike_id": "64a379f77a68867ba62655e5e94d4cab", "type": "electric_scooter", "is_disabled": 0, "lat": 38.93775, "rental_uris": {"ios": "https://dc.lft.to/lastmile_qr_scan", "android": "https://dc.lft.to/lastmile_qr_scan"}, "is_reserved": 0, "fusion_lon": 0.0, "fusion_lat": 0.0, "lon": -77.01967066666667, "name": "64a379f77a68867ba62655e5e94d4cab"}, {"bike_id": "a25e1e93232ac16894ec8617b5e27d73", "type": "electric_scooter", "is_disabled": 0, "lat": 38.905061333333336, "rental_uris": {"ios": "https://dc.lft.to/lastmile_qr_scan", "android": "https://dc.lft.to/lastmile_qr_scan"}, "is_reserved": 0, "fusion_lon": 0.0, "fusion_lat": 0.0, "lon": -77.02949266666667, "name": "a25e1e93232ac16894ec8617b5e27d73"}, {"bike_id": "1811c7ab8b8ceffbc80d34741a1f8d64", "type": "electric_scooter", "is_disabled": 0, "lat": 38.916288, "rental_uris": {"ios": "https://dc.lft.to/lastmile_qr_scan", "android": "https://dc.lft.to/lastmile_qr_scan"}, "is_reserved": 0, "fusion_lon": 0.0, "fusion_lat": 0.0, "lon": -77.02953383333333, "name": "1811c7ab8b8ceffbc80d34741a1f8d64"}, {"bike_id": "5dd93b356dfa7cf347f75cab87eeeedc", "type": "electric_bike", "is_disabled": 0, "lat": 38.86329, "rental_uris": {"ios": "https://dc.lft.to/lastmile_qr_scan", "android": "https://dc.lft.to/lastmile_qr_scan"}, "is_reserved": 0, "fusion_lon": 0.0, "fusion_lat": 0.0, "lon": -76.98729483333334, "name": "5dd93b356dfa7cf347f75cab87eeeedc"}, {"bike_id": "6dd57b3cd15a9e92d3e1e66fdba31261", "type": "electric_scooter", "is_disabled": 0, "lat": 38.902899166666664, "rental_uris": {"ios": "https://dc.lft.to/lastmile_qr_scan", "android": "https://dc.lft.to/lastmile_qr_scan"}, "is_reserved": 0, "fusion_lon": 0.0, "fusion_lat": 0.0, "lon": -77.00327983333334, "name": "6dd57b3cd15a9e92d3e1e66fdba31261"}, {"bike_id": "e60df254534f1f9a9a4c39d75211fd9c", "type": "electric_scooter", "is_disabled": 0, "lat": 38.858928, "rental_uris": {"ios": "https://dc.lft.to/lastmile_qr_scan", "android": "https://dc.lft.to/lastmile_qr_scan"}, "is_reserved": 0, "fusion_lon": 0.0, "fusion_lat": 0.0, "lon": -76.99732266666666, "name": "e60df254534f1f9a9a4c39d75211fd9c"}, {"bike_id": "0bc8c7950bebd7f73fc1de07edef30af", "type": "electric_scooter", "is_disabled": 0, "lat": 38.893452, "rental_uris": {"ios": "https://dc.lft.to/lastmile_qr_scan", "android": "https://dc.lft.to/lastmile_qr_scan"}, "is_reserved": 0, "fusion_lon": 0.0, "fusion_lat": 0.0, "lon": -76.993797, "name": "0bc8c7950bebd7f73fc1de07edef30af"}, {"bike_id": "6f471325bf281167b45049778deaa771", "type": "electric_scooter", "is_disabled": 0, "lat": 38.899847, "rental_uris": {"ios": "https://dc.lft.to/lastmile_qr_scan", "android": "https://dc.lft.to/lastmile_qr_scan"}, "is_reserved": 0, "fusion_lon": 0.0, "fusion_lat": 0.0, "lon": -76.94999766666666, "name": "6f471325bf281167b45049778deaa771"}, {"bike_id": "c4039c57d7f5f3adae3013246e231e7e", "type": "electric_scooter", "is_disabled": 0, "lat": 38.905379833333335, "rental_uris": {"ios": "https://dc.lft.to/lastmile_qr_scan", "android": "https://dc.lft.to/lastmile_qr_scan"}, "is_reserved": 0, "fusion_lon": 0.0, "fusion_lat": 0.0, "lon": -77.05710766666667, "name": "c4039c57d7f5f3adae3013246e231e7e"}, {"bike_id": "ca7fb4b1bfa2562c1072aa4b958cb8d4", "type": "electric_scooter", "is_disabled": 0, "lat": 38.914762, "rental_uris": {"ios": "https://dc.lft.to/lastmile_qr_scan", "android": "https://dc.lft.to/lastmile_qr_scan"}, "is_reserved": 0, "fusion_lon": 0.0, "fusion_lat": 0.0, "lon": -76.98577933333334, "name": "ca7fb4b1bfa2562c1072aa4b958cb8d4"}, {"bike_id": "79b4fd2414b394f60be946356c244823", "type": "electric_scooter", "is_disabled": 0, "lat": 38.92274166666667, "rental_uris": {"ios": "https://dc.lft.to/lastmile_qr_scan", "android": "https://dc.lft.to/lastmile_qr_scan"}, "is_reserved": 0, "fusion_lon": 0.0, "fusion_lat": 0.0, "lon": -77.03655866666666, "name": "79b4fd2414b394f60be946356c244823"}, {"bike_id": "914ef675de0eac20de0d53fb1ed8ff73", "type": "electric_scooter", "is_disabled": 0, "lat": 38.907423333333334, "rental_uris": {"ios": "https://dc.lft.to/lastmile_qr_scan", "android": "https://dc.lft.to/lastmile_qr_scan"}, "is_reserved": 0, "fusion_lon": 0.0, "fusion_lat": 0.0, "lon": -77.0633445, "name": "914ef675de0eac20de0d53fb1ed8ff73"}, {"bike_id": "ea5a81afe5c5786e8a04d2bdcaebdaf8", "type": "electric_scooter", "is_disabled": 0, "lat": 38.887472, "rental_uris": {"ios": "https://dc.lft.to/lastmile_qr_scan", "android": "https://dc.lft.to/lastmile_qr_scan"}, "is_reserved": 0, "fusion_lon": 0.0, "fusion_lat": 0.0, "lon": -77.01396283333334, "name": "ea5a81afe5c5786e8a04d2bdcaebdaf8"}, {"bike_id": "9b8ba63f8fb17b0bb59bb3fcb39ad1bb", "type": "electric_scooter", "is_disabled": 0, "lat": 38.844364166666665, "rental_uris": {"ios": "https://dc.lft.to/lastmile_qr_scan", "android": "https://dc.lft.to/lastmile_qr_scan"}, "is_reserved": 0, "fusion_lon": 0.0, "fusion_lat": 0.0, "lon": -76.99778, "name": "9b8ba63f8fb17b0bb59bb3fcb39ad1bb"}, {"bike_id": "268be5ce4fbdc029299c42ebac8d3aa7", "type": "electric_scooter", "is_disabled": 0, "lat": 38.9003475, "rental_uris": {"ios": "https://dc.lft.to/lastmile_qr_scan", "android": "https://dc.lft.to/lastmile_qr_scan"}, "is_reserved": 0, "fusion_lon": 0.0, "fusion_lat": 0.0, "lon": -76.9805195, "name": "268be5ce4fbdc029299c42ebac8d3aa7"}, {"bike_id": "339949dab64599603f284485c3f2a89b", "type": "electric_scooter", "is_disabled": 0, "lat": 38.91121316666667, "rental_uris": {"ios": "https://dc.lft.to/lastmile_qr_scan", "android": "https://dc.lft.to/lastmile_qr_scan"}, "is_reserved": 0, "fusion_lon": 0.0, "fusion_lat": 0.0, "lon": -77.04655316666667, "name": "339949dab64599603f284485c3f2a89b"}, {"bike_id": "ffb793191d8e2570f138e0c16bbb3969", "type": "electric_scooter", "is_disabled": 0, "lat": 38.93182383333333, "rental_uris": {"ios": "https://dc.lft.to/lastmile_qr_scan", "android": "https://dc.lft.to/lastmile_qr_scan"}, "is_reserved": 0, "fusion_lon": 0.0, "fusion_lat": 0.0, "lon": -77.04301433333333, "name": "ffb793191d8e2570f138e0c16bbb3969"}, {"bike_id": "c829fbfe212bae5f996de347cabe8a90", "type": "electric_scooter", "is_disabled": 0, "lat": 38.9176905, "rental_uris": {"ios": "https://dc.lft.to/lastmile_qr_scan", "android": "https://dc.lft.to/lastmile_qr_scan"}, "is_reserved": 0, "fusion_lon": 0.0, "fusion_lat": 0.0, "lon": -77.0405745, "name": "c829fbfe212bae5f996de347cabe8a90"}, {"bike_id": "d632bdb8833bacc83b10fea834b1ee8a", "type": "electric_scooter", "is_disabled": 0, "lat": 38.88587883333334, "rental_uris": {"ios": "https://dc.lft.to/lastmile_qr_scan", "android": "https://dc.lft.to/lastmile_qr_scan"}, "is_reserved": 0, "fusion_lon": 0.0, "fusion_lat": 0.0, "lon": -77.02836683333334, "name": "d632bdb8833bacc83b10fea834b1ee8a"}, {"bike_id": "bd0698f15870da4474e3d00c4360426b", "type": "electric_scooter", "is_disabled": 0, "lat": 38.89964633333334, "rental_uris": {"ios": "https://dc.lft.to/lastmile_qr_scan", "android": "https://dc.lft.to/lastmile_qr_scan"}, "is_reserved": 0, "fusion_lon": 0.0, "fusion_lat": 0.0, "lon": -76.98294083333333, "name": "bd0698f15870da4474e3d00c4360426b"}, {"bike_id": "a76969a9e2a83af97a0e05fdef14b8b1", "type": "electric_scooter", "is_disabled": 0, "lat": 38.902370166666664, "rental_uris": {"ios": "https://dc.lft.to/lastmile_qr_scan", "android": "https://dc.lft.to/lastmile_qr_scan"}, "is_reserved": 0, "fusion_lon": 0.0, "fusion_lat": 0.0, "lon": -77.001984, "name": "a76969a9e2a83af97a0e05fdef14b8b1"}, {"bike_id": "e521e689fbea0c551d6bdd0a4dc83c08", "type": "electric_scooter", "is_disabled": 0, "lat": 38.932013166666664, "rental_uris": {"ios": "https://dc.lft.to/lastmile_qr_scan", "android": "https://dc.lft.to/lastmile_qr_scan"}, "is_reserved": 0, "fusion_lon": 0.0, "fusion_lat": 0.0, "lon": -77.03876916666667, "name": "e521e689fbea0c551d6bdd0a4dc83c08"}, {"bike_id": "c194d5907de11e64ab8b9a71bf3bef17", "type": "electric_bike", "is_disabled": 0, "lat": 38.871016833333336, "rental_uris": {"ios": "https://dc.lft.to/lastmile_qr_scan", "android": "https://dc.lft.to/lastmile_qr_scan"}, "is_reserved": 0, "fusion_lon": 0.0, "fusion_lat": 0.0, "lon": -77.01207933333333, "name": "c194d5907de11e64ab8b9a71bf3bef17"}, {"bike_id": "2a7ee44210a2ffee51af72b39be88c9a", "type": "electric_scooter", "is_disabled": 0, "lat": 38.945583666666664, "rental_uris": {"ios": "https://dc.lft.to/lastmile_qr_scan", "android": "https://dc.lft.to/lastmile_qr_scan"}, "is_reserved": 0, "fusion_lon": 0.0, "fusion_lat": 0.0, "lon": -77.07123366666667, "name": "2a7ee44210a2ffee51af72b39be88c9a"}, {"bike_id": "ea8e38e98b66a2d3ff2f1a09f6f0fe80", "type": "electric_scooter", "is_disabled": 0, "lat": 38.884515, "rental_uris": {"ios": "https://dc.lft.to/lastmile_qr_scan", "android": "https://dc.lft.to/lastmile_qr_scan"}, "is_reserved": 0, "fusion_lon": 0.0, "fusion_lat": 0.0, "lon": -76.95105033333333, "name": "ea8e38e98b66a2d3ff2f1a09f6f0fe80"}, {"bike_id": "efbaea751990ee0f0690eb06c33eae5c", "type": "electric_scooter", "is_disabled": 0, "lat": 38.90566283333333, "rental_uris": {"ios": "https://dc.lft.to/lastmile_qr_scan", "android": "https://dc.lft.to/lastmile_qr_scan"}, "is_reserved": 0, "fusion_lon": 0.0, "fusion_lat": 0.0, "lon": -77.006082, "name": "efbaea751990ee0f0690eb06c33eae5c"}, {"bike_id": "c21e69f7a5bb53e2a700b8137c05df59", "type": "electric_bike", "is_disabled": 0, "lat": 38.85894783333333, "rental_uris": {"ios": "https://dc.lft.to/lastmile_qr_scan", "android": "https://dc.lft.to/lastmile_qr_scan"}, "is_reserved": 0, "fusion_lon": 0.0, "fusion_lat": 0.0, "lon": -77.1186595, "name": "c21e69f7a5bb53e2a700b8137c05df59"}, {"bike_id": "895f5a756319849321eaf9543eae96e0", "type": "electric_scooter", "is_disabled": 0, "lat": 38.906748666666665, "rental_uris": {"ios": "https://dc.lft.to/lastmile_qr_scan", "android": "https://dc.lft.to/lastmile_qr_scan"}, "is_reserved": 0, "fusion_lon": 0.0, "fusion_lat": 0.0, "lon": -77.03806733333333, "name": "895f5a756319849321eaf9543eae96e0"}, {"bike_id": "c702b0ac4f09fedee7aa7107c24d62c7", "type": "electric_scooter", "is_disabled": 0, "lat": 38.8792395, "rental_uris": {"ios": "https://dc.lft.to/lastmile_qr_scan", "android": "https://dc.lft.to/lastmile_qr_scan"}, "is_reserved": 0, "fusion_lon": 0.0, "fusion_lat": 0.0, "lon": -77.00789633333333, "name": "c702b0ac4f09fedee7aa7107c24d62c7"}, {"bike_id": "288b24423a74d08fbf49e1f21d735448", "type": "electric_scooter", "is_disabled": 0, "lat": 38.91062933333333, "rental_uris": {"ios": "https://dc.lft.to/lastmile_qr_scan", "android": "https://dc.lft.to/lastmile_qr_scan"}, "is_reserved": 0, "fusion_lon": 0.0, "fusion_lat": 0.0, "lon": -77.03094366666667, "name": "288b24423a74d08fbf49e1f21d735448"}, {"bike_id": "70212c2e0b8c1830e5b1e1d718808bc0", "type": "electric_scooter", "is_disabled": 0, "lat": 38.919155333333336, "rental_uris": {"ios": "https://dc.lft.to/lastmile_qr_scan", "android": "https://dc.lft.to/lastmile_qr_scan"}, "is_reserved": 0, "fusion_lon": 0.0, "fusion_lat": 0.0, "lon": -77.04154516666667, "name": "70212c2e0b8c1830e5b1e1d718808bc0"}, {"bike_id": "066df84ffdfaea79ceeab61afe9e7c50", "type": "electric_scooter", "is_disabled": 0, "lat": 38.90485066666667, "rental_uris": {"ios": "https://dc.lft.to/lastmile_qr_scan", "android": "https://dc.lft.to/lastmile_qr_scan"}, "is_reserved": 0, "fusion_lon": 0.0, "fusion_lat": 0.0, "lon": -76.989859, "name": "066df84ffdfaea79ceeab61afe9e7c50"}, {"bike_id": "eb2cd487ab8d919cb8e7428cb59f68e8", "type": "electric_bike", "is_disabled": 0, "lat": 38.957886333333335, "rental_uris": {"ios": "https://dc.lft.to/lastmile_qr_scan", "android": "https://dc.lft.to/lastmile_qr_scan"}, "is_reserved": 0, "fusion_lon": 0.0, "fusion_lat": 0.0, "lon": -77.02004533333333, "name": "eb2cd487ab8d919cb8e7428cb59f68e8"}, {"bike_id": "5ed76193790a174dc571fa34581e5f17", "type": "electric_scooter", "is_disabled": 0, "lat": 38.917336166666665, "rental_uris": {"ios": "https://dc.lft.to/lastmile_qr_scan", "android": "https://dc.lft.to/lastmile_qr_scan"}, "is_reserved": 0, "fusion_lon": 0.0, "fusion_lat": 0.0, "lon": -77.01911983333333, "name": "5ed76193790a174dc571fa34581e5f17"}, {"bike_id": "ca38ee5f6d6979e2d4e86f647b0cc671", "type": "electric_scooter", "is_disabled": 0, "lat": 38.900076, "rental_uris": {"ios": "https://dc.lft.to/lastmile_qr_scan", "android": "https://dc.lft.to/lastmile_qr_scan"}, "is_reserved": 0, "fusion_lon": 0.0, "fusion_lat": 0.0, "lon": -76.99617433333333, "name": "ca38ee5f6d6979e2d4e86f647b0cc671"}, {"bike_id": "644480e5b4a49575532f6db4d6737b8a", "type": "electric_bike", "is_disabled": 0, "lat": 38.855243333333334, "rental_uris": {"ios": "https://dc.lft.to/lastmile_qr_scan", "android": "https://dc.lft.to/lastmile_qr_scan"}, "is_reserved": 0, "fusion_lon": 0.0, "fusion_lat": 0.0, "lon": -77.11990833333333, "name": "644480e5b4a49575532f6db4d6737b8a"}, {"bike_id": "ee7e36bb857f6893e5f4e8bb3ca643f0", "type": "electric_scooter", "is_disabled": 0, "lat": 38.92364466666667, "rental_uris": {"ios": "https://dc.lft.to/lastmile_qr_scan", "android": "https://dc.lft.to/lastmile_qr_scan"}, "is_reserved": 0, "fusion_lon": 0.0, "fusion_lat": 0.0, "lon": -77.041278, "name": "ee7e36bb857f6893e5f4e8bb3ca643f0"}, {"bike_id": "24803c4bd8ffad2c03e145a82da920e3", "type": "electric_scooter", "is_disabled": 0, "lat": 38.91399466666667, "rental_uris": {"ios": "https://dc.lft.to/lastmile_qr_scan", "android": "https://dc.lft.to/lastmile_qr_scan"}, "is_reserved": 0, "fusion_lon": 0.0, "fusion_lat": 0.0, "lon": -76.98187383333334, "name": "24803c4bd8ffad2c03e145a82da920e3"}, {"bike_id": "9598d037abc8d666da05e4a2e9f8a6b5", "type": "electric_scooter", "is_disabled": 0, "lat": 38.89667, "rental_uris": {"ios": "https://dc.lft.to/lastmile_qr_scan", "android": "https://dc.lft.to/lastmile_qr_scan"}, "is_reserved": 0, "fusion_lon": 0.0, "fusion_lat": 0.0, "lon": -77.026118, "name": "9598d037abc8d666da05e4a2e9f8a6b5"}, {"bike_id": "91fe100b7f41ec3f62c532a81bb21a7b", "type": "electric_scooter", "is_disabled": 0, "lat": 38.911659, "rental_uris": {"ios": "https://dc.lft.to/lastmile_qr_scan", "android": "https://dc.lft.to/lastmile_qr_scan"}, "is_reserved": 0, "fusion_lon": 0.0, "fusion_lat": 0.0, "lon": -77.0686655, "name": "91fe100b7f41ec3f62c532a81bb21a7b"}, {"bike_id": "3e2df4bb2082d55e05278b0b00146793", "type": "electric_scooter", "is_disabled": 0, "lat": 38.91683, "rental_uris": {"ios": "https://dc.lft.to/lastmile_qr_scan", "android": "https://dc.lft.to/lastmile_qr_scan"}, "is_reserved": 0, "fusion_lon": 0.0, "fusion_lat": 0.0, "lon": -77.029768, "name": "3e2df4bb2082d55e05278b0b00146793"}, {"bike_id": "541e945acd14ff2ee57e79d55b9c087b", "type": "electric_scooter", "is_disabled": 0, "lat": 38.91927, "rental_uris": {"ios": "https://dc.lft.to/lastmile_qr_scan", "android": "https://dc.lft.to/lastmile_qr_scan"}, "is_reserved": 0, "fusion_lon": 0.0, "fusion_lat": 0.0, "lon": -77.0415475, "name": "541e945acd14ff2ee57e79d55b9c087b"}, {"bike_id": "21a4f9fb8da53416cdbd5c354525059a", "type": "electric_bike", "is_disabled": 0, "lat": 38.85938, "rental_uris": {"ios": "https://dc.lft.to/lastmile_qr_scan", "android": "https://dc.lft.to/lastmile_qr_scan"}, "is_reserved": 0, "fusion_lon": 0.0, "fusion_lat": 0.0, "lon": -77.1183045, "name": "21a4f9fb8da53416cdbd5c354525059a"}, {"bike_id": "4aa8a93919c71149d6978732e146e09d", "type": "electric_scooter", "is_disabled": 0, "lat": 38.9229155, "rental_uris": {"ios": "https://dc.lft.to/lastmile_qr_scan", "android": "https://dc.lft.to/lastmile_qr_scan"}, "is_reserved": 0, "fusion_lon": 0.0, "fusion_lat": 0.0, "lon": -77.04229466666666, "name": "4aa8a93919c71149d6978732e146e09d"}, {"bike_id": "d040f807339424a6791ca303452848df", "type": "electric_bike", "is_disabled": 0, "lat": 38.823684166666666, "rental_uris": {"ios": "https://dc.lft.to/lastmile_qr_scan", "android": "https://dc.lft.to/lastmile_qr_scan"}, "is_reserved": 0, "fusion_lon": 0.0, "fusion_lat": 0.0, "lon": -77.00219033333333, "name": "d040f807339424a6791ca303452848df"}, {"bike_id": "68600f76145eb0d0a86a4e256344b7ae", "type": "electric_bike", "is_disabled": 0, "lat": 38.89816616666667, "rental_uris": {"ios": "https://dc.lft.to/lastmile_qr_scan", "android": "https://dc.lft.to/lastmile_qr_scan"}, "is_reserved": 0, "fusion_lon": 0.0, "fusion_lat": 0.0, "lon": -76.99061583333334, "name": "68600f76145eb0d0a86a4e256344b7ae"}, {"bike_id": "af4eb6dae09d2bc48a2a3f9030113650", "type": "electric_scooter", "is_disabled": 0, "lat": 38.906014, "rental_uris": {"ios": "https://dc.lft.to/lastmile_qr_scan", "android": "https://dc.lft.to/lastmile_qr_scan"}, "is_reserved": 0, "fusion_lon": 0.0, "fusion_lat": 0.0, "lon": -77.06804383333333, "name": "af4eb6dae09d2bc48a2a3f9030113650"}, {"bike_id": "cb937e35e04299a71f112b5f671c7234", "type": "electric_scooter", "is_disabled": 0, "lat": 38.922304833333335, "rental_uris": {"ios": "https://dc.lft.to/lastmile_qr_scan", "android": "https://dc.lft.to/lastmile_qr_scan"}, "is_reserved": 0, "fusion_lon": 0.0, "fusion_lat": 0.0, "lon": -77.04720166666667, "name": "cb937e35e04299a71f112b5f671c7234"}, {"bike_id": "4104a16d86c5ffd91fd5039a30ab7ae1", "type": "electric_scooter", "is_disabled": 0, "lat": 38.92106483333333, "rental_uris": {"ios": "https://dc.lft.to/lastmile_qr_scan", "android": "https://dc.lft.to/lastmile_qr_scan"}, "is_reserved": 0, "fusion_lon": 0.0, "fusion_lat": 0.0, "lon": -77.03181416666666, "name": "4104a16d86c5ffd91fd5039a30ab7ae1"}, {"bike_id": "36ccd2fb670b4b342133bf175ab08809", "type": "electric_scooter", "is_disabled": 0, "lat": 38.9332605, "rental_uris": {"ios": "https://dc.lft.to/lastmile_qr_scan", "android": "https://dc.lft.to/lastmile_qr_scan"}, "is_reserved": 0, "fusion_lon": 0.0, "fusion_lat": 0.0, "lon": -77.02925666666667, "name": "36ccd2fb670b4b342133bf175ab08809"}, {"bike_id": "fdc4bcc28dfc33810a2060760543255f", "type": "electric_scooter", "is_disabled": 0, "lat": 38.884948666666666, "rental_uris": {"ios": "https://dc.lft.to/lastmile_qr_scan", "android": "https://dc.lft.to/lastmile_qr_scan"}, "is_reserved": 0, "fusion_lon": 0.0, "fusion_lat": 0.0, "lon": -77.00713616666667, "name": "fdc4bcc28dfc33810a2060760543255f"}, {"bike_id": "d4088c7a83d529a3c60661128763f2a4", "type": "electric_scooter", "is_disabled": 0, "lat": 38.92452383333333, "rental_uris": {"ios": "https://dc.lft.to/lastmile_qr_scan", "android": "https://dc.lft.to/lastmile_qr_scan"}, "is_reserved": 0, "fusion_lon": 0.0, "fusion_lat": 0.0, "lon": -77.0241735, "name": "d4088c7a83d529a3c60661128763f2a4"}, {"bike_id": "989194c83367884d09ac6be4ed34688b", "type": "electric_bike", "is_disabled": 0, "lat": 38.85420633333333, "rental_uris": {"ios": "https://dc.lft.to/lastmile_qr_scan", "android": "https://dc.lft.to/lastmile_qr_scan"}, "is_reserved": 0, "fusion_lon": 0.0, "fusion_lat": 0.0, "lon": -77.120779, "name": "989194c83367884d09ac6be4ed34688b"}, {"bike_id": "fd3c6aee762d5648e3c749afde378063", "type": "electric_scooter", "is_disabled": 0, "lat": 38.92068316666666, "rental_uris": {"ios": "https://dc.lft.to/lastmile_qr_scan", "android": "https://dc.lft.to/lastmile_qr_scan"}, "is_reserved": 0, "fusion_lon": 0.0, "fusion_lat": 0.0, "lon": -77.04378416666667, "name": "fd3c6aee762d5648e3c749afde378063"}, {"bike_id": "a621eaa0c5aead4d8a723b561f3cb1fe", "type": "electric_scooter", "is_disabled": 0, "lat": 38.9017015, "rental_uris": {"ios": "https://dc.lft.to/lastmile_qr_scan", "android": "https://dc.lft.to/lastmile_qr_scan"}, "is_reserved": 0, "fusion_lon": 0.0, "fusion_lat": 0.0, "lon": -76.98442383333334, "name": "a621eaa0c5aead4d8a723b561f3cb1fe"}, {"bike_id": "faf3cfe9ad52b7fda6537b14486403b8", "type": "electric_scooter", "is_disabled": 0, "lat": 38.8624825, "rental_uris": {"ios": "https://dc.lft.to/lastmile_qr_scan", "android": "https://dc.lft.to/lastmile_qr_scan"}, "is_reserved": 0, "fusion_lon": 0.0, "fusion_lat": 0.0, "lon": -76.99500366666666, "name": "faf3cfe9ad52b7fda6537b14486403b8"}, {"bike_id": "a50f9d0b09257a928c55b1dc627ad622", "type": "electric_scooter", "is_disabled": 0, "lat": 38.942977166666665, "rental_uris": {"ios": "https://dc.lft.to/lastmile_qr_scan", "android": "https://dc.lft.to/lastmile_qr_scan"}, "is_reserved": 0, "fusion_lon": 0.0, "fusion_lat": 0.0, "lon": -77.02170866666667, "name": "a50f9d0b09257a928c55b1dc627ad622"}, {"bike_id": "04111bae13dfc2e0e299f37f7ebf5c3f", "type": "electric_scooter", "is_disabled": 0, "lat": 38.948394666666665, "rental_uris": {"ios": "https://dc.lft.to/lastmile_qr_scan", "android": "https://dc.lft.to/lastmile_qr_scan"}, "is_reserved": 0, "fusion_lon": 0.0, "fusion_lat": 0.0, "lon": -77.02542083333333, "name": "04111bae13dfc2e0e299f37f7ebf5c3f"}, {"bike_id": "8bc73da24447d6bbdc9e93ec72b035c1", "type": "electric_scooter", "is_disabled": 0, "lat": 38.91752866666667, "rental_uris": {"ios": "https://dc.lft.to/lastmile_qr_scan", "android": "https://dc.lft.to/lastmile_qr_scan"}, "is_reserved": 0, "fusion_lon": 0.0, "fusion_lat": 0.0, "lon": -77.03856183333333, "name": "8bc73da24447d6bbdc9e93ec72b035c1"}, {"bike_id": "01882919671a5734f011843a1d5b25a9", "type": "electric_scooter", "is_disabled": 0, "lat": 38.904211833333335, "rental_uris": {"ios": "https://dc.lft.to/lastmile_qr_scan", "android": "https://dc.lft.to/lastmile_qr_scan"}, "is_reserved": 0, "fusion_lon": 0.0, "fusion_lat": 0.0, "lon": -76.97375533333333, "name": "01882919671a5734f011843a1d5b25a9"}, {"bike_id": "0b9c78f7eabbb822a296fdc0f41e0cc3", "type": "electric_scooter", "is_disabled": 0, "lat": 38.9342225, "rental_uris": {"ios": "https://dc.lft.to/lastmile_qr_scan", "android": "https://dc.lft.to/lastmile_qr_scan"}, "is_reserved": 0, "fusion_lon": 0.0, "fusion_lat": 0.0, "lon": -77.03914616666667, "name": "0b9c78f7eabbb822a296fdc0f41e0cc3"}, {"bike_id": "3498ff91d74bc253bbd8f56b10221af8", "type": "electric_scooter", "is_disabled": 0, "lat": 38.90511866666667, "rental_uris": {"ios": "https://dc.lft.to/lastmile_qr_scan", "android": "https://dc.lft.to/lastmile_qr_scan"}, "is_reserved": 0, "fusion_lon": 0.0, "fusion_lat": 0.0, "lon": -77.06739783333333, "name": "3498ff91d74bc253bbd8f56b10221af8"}, {"bike_id": "c81995a3bb7b5fdc9caf80f64715eef8", "type": "electric_scooter", "is_disabled": 0, "lat": 38.85447533333333, "rental_uris": {"ios": "https://dc.lft.to/lastmile_qr_scan", "android": "https://dc.lft.to/lastmile_qr_scan"}, "is_reserved": 0, "fusion_lon": 0.0, "fusion_lat": 0.0, "lon": -76.98610016666666, "name": "c81995a3bb7b5fdc9caf80f64715eef8"}, {"bike_id": "9cf71810973334027db4f5e850cfaf7b", "type": "electric_scooter", "is_disabled": 0, "lat": 38.91190916666667, "rental_uris": {"ios": "https://dc.lft.to/lastmile_qr_scan", "android": "https://dc.lft.to/lastmile_qr_scan"}, "is_reserved": 0, "fusion_lon": 0.0, "fusion_lat": 0.0, "lon": -77.03837516666667, "name": "9cf71810973334027db4f5e850cfaf7b"}, {"bike_id": "2a8fbad6db3a359557c16598c808cd5c", "type": "electric_scooter", "is_disabled": 0, "lat": 38.9353525, "rental_uris": {"ios": "https://dc.lft.to/lastmile_qr_scan", "android": "https://dc.lft.to/lastmile_qr_scan"}, "is_reserved": 0, "fusion_lon": 0.0, "fusion_lat": 0.0, "lon": -77.02354716666666, "name": "2a8fbad6db3a359557c16598c808cd5c"}, {"bike_id": "7929a55545b4a506aef440d0c343d629", "type": "electric_scooter", "is_disabled": 0, "lat": 38.896182833333334, "rental_uris": {"ios": "https://dc.lft.to/lastmile_qr_scan", "android": "https://dc.lft.to/lastmile_qr_scan"}, "is_reserved": 0, "fusion_lon": 0.0, "fusion_lat": 0.0, "lon": -77.0002815, "name": "7929a55545b4a506aef440d0c343d629"}, {"bike_id": "5e2934552463cb3528de18447624c9da", "type": "electric_scooter", "is_disabled": 0, "lat": 38.907902666666665, "rental_uris": {"ios": "https://dc.lft.to/lastmile_qr_scan", "android": "https://dc.lft.to/lastmile_qr_scan"}, "is_reserved": 0, "fusion_lon": 0.0, "fusion_lat": 0.0, "lon": -77.06419383333333, "name": "5e2934552463cb3528de18447624c9da"}, {"bike_id": "c4f8735cdf87999394835a5d1575cb93", "type": "electric_scooter", "is_disabled": 0, "lat": 38.93021983333333, "rental_uris": {"ios": "https://dc.lft.to/lastmile_qr_scan", "android": "https://dc.lft.to/lastmile_qr_scan"}, "is_reserved": 0, "fusion_lon": 0.0, "fusion_lat": 0.0, "lon": -77.038013, "name": "c4f8735cdf87999394835a5d1575cb93"}, {"bike_id": "ae110fe01b9c6de1174101dbf7b0887d", "type": "electric_scooter", "is_disabled": 0, "lat": 38.90644366666667, "rental_uris": {"ios": "https://dc.lft.to/lastmile_qr_scan", "android": "https://dc.lft.to/lastmile_qr_scan"}, "is_reserved": 0, "fusion_lon": 0.0, "fusion_lat": 0.0, "lon": -77.04862616666666, "name": "ae110fe01b9c6de1174101dbf7b0887d"}, {"bike_id": "fe4be9c73e14cfb048d68e799b85f61c", "type": "electric_bike", "is_disabled": 0, "lat": 38.871368833333335, "rental_uris": {"ios": "https://dc.lft.to/lastmile_qr_scan", "android": "https://dc.lft.to/lastmile_qr_scan"}, "is_reserved": 0, "fusion_lon": 0.0, "fusion_lat": 0.0, "lon": -77.10033183333333, "name": "fe4be9c73e14cfb048d68e799b85f61c"}, {"bike_id": "e04c0a2395b7c58e520c33d23dec64c6", "type": "electric_scooter", "is_disabled": 0, "lat": 38.92112133333333, "rental_uris": {"ios": "https://dc.lft.to/lastmile_qr_scan", "android": "https://dc.lft.to/lastmile_qr_scan"}, "is_reserved": 0, "fusion_lon": 0.0, "fusion_lat": 0.0, "lon": -77.0220325, "name": "e04c0a2395b7c58e520c33d23dec64c6"}, {"bike_id": "2d2b98dabbd01a2cc61e459251771543", "type": "electric_scooter", "is_disabled": 0, "lat": 38.9205945, "rental_uris": {"ios": "https://dc.lft.to/lastmile_qr_scan", "android": "https://dc.lft.to/lastmile_qr_scan"}, "is_reserved": 0, "fusion_lon": 0.0, "fusion_lat": 0.0, "lon": -77.023834, "name": "2d2b98dabbd01a2cc61e459251771543"}, {"bike_id": "627e289983dc96f50c7b5f4b855428d1", "type": "electric_scooter", "is_disabled": 0, "lat": 38.920329, "rental_uris": {"ios": "https://dc.lft.to/lastmile_qr_scan", "android": "https://dc.lft.to/lastmile_qr_scan"}, "is_reserved": 0, "fusion_lon": 0.0, "fusion_lat": 0.0, "lon": -77.02809283333333, "name": "627e289983dc96f50c7b5f4b855428d1"}, {"bike_id": "f042b2bd05cfd3f2ffdaa142cc551a32", "type": "electric_scooter", "is_disabled": 0, "lat": 38.907574, "rental_uris": {"ios": "https://dc.lft.to/lastmile_qr_scan", "android": "https://dc.lft.to/lastmile_qr_scan"}, "is_reserved": 0, "fusion_lon": 0.0, "fusion_lat": 0.0, "lon": -77.0360055, "name": "f042b2bd05cfd3f2ffdaa142cc551a32"}, {"bike_id": "8d6284032ce93f33c220179446d57093", "type": "electric_bike", "is_disabled": 0, "lat": 38.8361325, "rental_uris": {"ios": "https://dc.lft.to/lastmile_qr_scan", "android": "https://dc.lft.to/lastmile_qr_scan"}, "is_reserved": 0, "fusion_lon": 0.0, "fusion_lat": 0.0, "lon": -77.0037955, "name": "8d6284032ce93f33c220179446d57093"}, {"bike_id": "2b15c008a7bce15a658c35a7d5937dbf", "type": "electric_bike", "is_disabled": 0, "lat": 38.90861066666667, "rental_uris": {"ios": "https://dc.lft.to/lastmile_qr_scan", "android": "https://dc.lft.to/lastmile_qr_scan"}, "is_reserved": 0, "fusion_lon": 0.0, "fusion_lat": 0.0, "lon": -76.9913565, "name": "2b15c008a7bce15a658c35a7d5937dbf"}, {"bike_id": "99a263684aa663a30569a1931e349de7", "type": "electric_scooter", "is_disabled": 0, "lat": 38.89237283333333, "rental_uris": {"ios": "https://dc.lft.to/lastmile_qr_scan", "android": "https://dc.lft.to/lastmile_qr_scan"}, "is_reserved": 0, "fusion_lon": 0.0, "fusion_lat": 0.0, "lon": -77.0221035, "name": "99a263684aa663a30569a1931e349de7"}, {"bike_id": "63290659e2c4d58d5597211e83e97807", "type": "electric_scooter", "is_disabled": 0, "lat": 38.89337783333333, "rental_uris": {"ios": "https://dc.lft.to/lastmile_qr_scan", "android": "https://dc.lft.to/lastmile_qr_scan"}, "is_reserved": 0, "fusion_lon": 0.0, "fusion_lat": 0.0, "lon": -77.0315755, "name": "63290659e2c4d58d5597211e83e97807"}, {"bike_id": "5fdebdf0c8407bf7cf8dd76a3c631476", "type": "electric_scooter", "is_disabled": 0, "lat": 38.912011166666666, "rental_uris": {"ios": "https://dc.lft.to/lastmile_qr_scan", "android": "https://dc.lft.to/lastmile_qr_scan"}, "is_reserved": 0, "fusion_lon": 0.0, "fusion_lat": 0.0, "lon": -77.07308566666667, "name": "5fdebdf0c8407bf7cf8dd76a3c631476"}, {"bike_id": "d35eb708a2f2021f7db53da849fefbdc", "type": "electric_scooter", "is_disabled": 0, "lat": 38.90278983333333, "rental_uris": {"ios": "https://dc.lft.to/lastmile_qr_scan", "android": "https://dc.lft.to/lastmile_qr_scan"}, "is_reserved": 0, "fusion_lon": 0.0, "fusion_lat": 0.0, "lon": -77.023106, "name": "d35eb708a2f2021f7db53da849fefbdc"}, {"bike_id": "a0cc0a8b39ae8c72c6e33106c290254b", "type": "electric_scooter", "is_disabled": 0, "lat": 38.900320666666666, "rental_uris": {"ios": "https://dc.lft.to/lastmile_qr_scan", "android": "https://dc.lft.to/lastmile_qr_scan"}, "is_reserved": 0, "fusion_lon": 0.0, "fusion_lat": 0.0, "lon": -77.00222566666666, "name": "a0cc0a8b39ae8c72c6e33106c290254b"}, {"bike_id": "81b722dfe24ec03d2203d58ce87373c5", "type": "electric_scooter", "is_disabled": 0, "lat": 38.876485, "rental_uris": {"ios": "https://dc.lft.to/lastmile_qr_scan", "android": "https://dc.lft.to/lastmile_qr_scan"}, "is_reserved": 0, "fusion_lon": 0.0, "fusion_lat": 0.0, "lon": -76.96506266666667, "name": "81b722dfe24ec03d2203d58ce87373c5"}, {"bike_id": "2c6b1f31e68962261cea76cdd1cca373", "type": "electric_scooter", "is_disabled": 0, "lat": 38.9214215, "rental_uris": {"ios": "https://dc.lft.to/lastmile_qr_scan", "android": "https://dc.lft.to/lastmile_qr_scan"}, "is_reserved": 0, "fusion_lon": 0.0, "fusion_lat": 0.0, "lon": -77.041301, "name": "2c6b1f31e68962261cea76cdd1cca373"}, {"bike_id": "f6d2efc2661c06f343fc8b52bd925e99", "type": "electric_scooter", "is_disabled": 0, "lat": 38.923135333333335, "rental_uris": {"ios": "https://dc.lft.to/lastmile_qr_scan", "android": "https://dc.lft.to/lastmile_qr_scan"}, "is_reserved": 0, "fusion_lon": 0.0, "fusion_lat": 0.0, "lon": -77.03910416666666, "name": "f6d2efc2661c06f343fc8b52bd925e99"}, {"bike_id": "a27c7dd1d0f029d7003111f46edc0a8a", "type": "electric_scooter", "is_disabled": 0, "lat": 38.92043733333333, "rental_uris": {"ios": "https://dc.lft.to/lastmile_qr_scan", "android": "https://dc.lft.to/lastmile_qr_scan"}, "is_reserved": 0, "fusion_lon": 0.0, "fusion_lat": 0.0, "lon": -77.03390883333333, "name": "a27c7dd1d0f029d7003111f46edc0a8a"}, {"bike_id": "9f9c0b6483f7783c349613754742eea0", "type": "electric_scooter", "is_disabled": 0, "lat": 38.924488, "rental_uris": {"ios": "https://dc.lft.to/lastmile_qr_scan", "android": "https://dc.lft.to/lastmile_qr_scan"}, "is_reserved": 0, "fusion_lon": 0.0, "fusion_lat": 0.0, "lon": -77.04108666666667, "name": "9f9c0b6483f7783c349613754742eea0"}, {"bike_id": "8020f45a0e56f4667492ec042fa70759", "type": "electric_scooter", "is_disabled": 0, "lat": 38.9155595, "rental_uris": {"ios": "https://dc.lft.to/lastmile_qr_scan", "android": "https://dc.lft.to/lastmile_qr_scan"}, "is_reserved": 0, "fusion_lon": 0.0, "fusion_lat": 0.0, "lon": -77.0323075, "name": "8020f45a0e56f4667492ec042fa70759"}, {"bike_id": "030fec9a94ebf66abe10f4b573470047", "type": "electric_bike", "is_disabled": 0, "lat": 38.94366516666667, "rental_uris": {"ios": "https://dc.lft.to/lastmile_qr_scan", "android": "https://dc.lft.to/lastmile_qr_scan"}, "is_reserved": 0, "fusion_lon": 0.0, "fusion_lat": 0.0, "lon": -76.96781333333334, "name": "030fec9a94ebf66abe10f4b573470047"}, {"bike_id": "0e443a1411182651c2edd4449b146ea7", "type": "electric_scooter", "is_disabled": 0, "lat": 38.92317716666667, "rental_uris": {"ios": "https://dc.lft.to/lastmile_qr_scan", "android": "https://dc.lft.to/lastmile_qr_scan"}, "is_reserved": 0, "fusion_lon": 0.0, "fusion_lat": 0.0, "lon": -77.04601616666666, "name": "0e443a1411182651c2edd4449b146ea7"}, {"bike_id": "e256a6be137daae1bf3a313de4864c82", "type": "electric_scooter", "is_disabled": 0, "lat": 38.9060425, "rental_uris": {"ios": "https://dc.lft.to/lastmile_qr_scan", "android": "https://dc.lft.to/lastmile_qr_scan"}, "is_reserved": 0, "fusion_lon": 0.0, "fusion_lat": 0.0, "lon": -77.00594016666666, "name": "e256a6be137daae1bf3a313de4864c82"}, {"bike_id": "a578490720aa20a17b8b9605cec2b717", "type": "electric_scooter", "is_disabled": 0, "lat": 38.92455866666667, "rental_uris": {"ios": "https://dc.lft.to/lastmile_qr_scan", "android": "https://dc.lft.to/lastmile_qr_scan"}, "is_reserved": 0, "fusion_lon": 0.0, "fusion_lat": 0.0, "lon": -77.03272783333334, "name": "a578490720aa20a17b8b9605cec2b717"}, {"bike_id": "36bdf43ffe4ab25977a7823c4827b9d9", "type": "electric_scooter", "is_disabled": 0, "lat": 38.895428, "rental_uris": {"ios": "https://dc.lft.to/lastmile_qr_scan", "android": "https://dc.lft.to/lastmile_qr_scan"}, "is_reserved": 0, "fusion_lon": 0.0, "fusion_lat": 0.0, "lon": -76.94934816666667, "name": "36bdf43ffe4ab25977a7823c4827b9d9"}, {"bike_id": "2f8f03207ab0eca9fc75d05769ebc4d3", "type": "electric_scooter", "is_disabled": 0, "lat": 38.92286816666667, "rental_uris": {"ios": "https://dc.lft.to/lastmile_qr_scan", "android": "https://dc.lft.to/lastmile_qr_scan"}, "is_reserved": 0, "fusion_lon": 0.0, "fusion_lat": 0.0, "lon": -77.022486, "name": "2f8f03207ab0eca9fc75d05769ebc4d3"}, {"bike_id": "8080531957019bf057c88a7e11a4a08b", "type": "electric_scooter", "is_disabled": 0, "lat": 38.89985516666667, "rental_uris": {"ios": "https://dc.lft.to/lastmile_qr_scan", "android": "https://dc.lft.to/lastmile_qr_scan"}, "is_reserved": 0, "fusion_lon": 0.0, "fusion_lat": 0.0, "lon": -76.98815816666666, "name": "8080531957019bf057c88a7e11a4a08b"}, {"bike_id": "8f7746144e1b0368ae2c2d7584674bc2", "type": "electric_scooter", "is_disabled": 0, "lat": 38.961433166666666, "rental_uris": {"ios": "https://dc.lft.to/lastmile_qr_scan", "android": "https://dc.lft.to/lastmile_qr_scan"}, "is_reserved": 0, "fusion_lon": 0.0, "fusion_lat": 0.0, "lon": -77.02992633333334, "name": "8f7746144e1b0368ae2c2d7584674bc2"}, {"bike_id": "f3eb7dd9488b4eadbc5c19c9022d8c61", "type": "electric_bike", "is_disabled": 0, "lat": 39.039898666666666, "rental_uris": {"ios": "https://dc.lft.to/lastmile_qr_scan", "android": "https://dc.lft.to/lastmile_qr_scan"}, "is_reserved": 0, "fusion_lon": 0.0, "fusion_lat": 0.0, "lon": -76.9993365, "name": "f3eb7dd9488b4eadbc5c19c9022d8c61"}, {"bike_id": "57e72d61953dcf111233448133f2a250", "type": "electric_scooter", "is_disabled": 0, "lat": 38.900724833333335, "rental_uris": {"ios": "https://dc.lft.to/lastmile_qr_scan", "android": "https://dc.lft.to/lastmile_qr_scan"}, "is_reserved": 0, "fusion_lon": 0.0, "fusion_lat": 0.0, "lon": -77.03635133333333, "name": "57e72d61953dcf111233448133f2a250"}, {"bike_id": "e7d5118b369a47da7c49375e93580402", "type": "electric_scooter", "is_disabled": 0, "lat": 38.902574, "rental_uris": {"ios": "https://dc.lft.to/lastmile_qr_scan", "android": "https://dc.lft.to/lastmile_qr_scan"}, "is_reserved": 0, "fusion_lon": 0.0, "fusion_lat": 0.0, "lon": -76.97546683333333, "name": "e7d5118b369a47da7c49375e93580402"}, {"bike_id": "0b18ff417c3b355ece433a75bb876580", "type": "electric_scooter", "is_disabled": 0, "lat": 38.90669716666667, "rental_uris": {"ios": "https://dc.lft.to/lastmile_qr_scan", "android": "https://dc.lft.to/lastmile_qr_scan"}, "is_reserved": 0, "fusion_lon": 0.0, "fusion_lat": 0.0, "lon": -77.03801016666667, "name": "0b18ff417c3b355ece433a75bb876580"}, {"bike_id": "d21c78177c723b250bb74dec63e27d45", "type": "electric_scooter", "is_disabled": 0, "lat": 38.9222075, "rental_uris": {"ios": "https://dc.lft.to/lastmile_qr_scan", "android": "https://dc.lft.to/lastmile_qr_scan"}, "is_reserved": 0, "fusion_lon": 0.0, "fusion_lat": 0.0, "lon": -77.0346425, "name": "d21c78177c723b250bb74dec63e27d45"}, {"bike_id": "11448386e674c7078a6f74502604a5a9", "type": "electric_scooter", "is_disabled": 0, "lat": 38.90837233333333, "rental_uris": {"ios": "https://dc.lft.to/lastmile_qr_scan", "android": "https://dc.lft.to/lastmile_qr_scan"}, "is_reserved": 0, "fusion_lon": 0.0, "fusion_lat": 0.0, "lon": -77.04352433333334, "name": "11448386e674c7078a6f74502604a5a9"}, {"bike_id": "8e96a0fc4c217d10527dba4ade4d579b", "type": "electric_scooter", "is_disabled": 0, "lat": 38.90494116666667, "rental_uris": {"ios": "https://dc.lft.to/lastmile_qr_scan", "android": "https://dc.lft.to/lastmile_qr_scan"}, "is_reserved": 0, "fusion_lon": 0.0, "fusion_lat": 0.0, "lon": -76.9868325, "name": "8e96a0fc4c217d10527dba4ade4d579b"}, {"bike_id": "f80ba488851df2db139da59827ceee81", "type": "electric_bike", "is_disabled": 0, "lat": 38.92908083333333, "rental_uris": {"ios": "https://dc.lft.to/lastmile_qr_scan", "android": "https://dc.lft.to/lastmile_qr_scan"}, "is_reserved": 0, "fusion_lon": 0.0, "fusion_lat": 0.0, "lon": -77.03257016666667, "name": "f80ba488851df2db139da59827ceee81"}, {"bike_id": "dd75ee9e75be000cac114870b3f04e32", "type": "electric_scooter", "is_disabled": 0, "lat": 38.89733866666667, "rental_uris": {"ios": "https://dc.lft.to/lastmile_qr_scan", "android": "https://dc.lft.to/lastmile_qr_scan"}, "is_reserved": 0, "fusion_lon": 0.0, "fusion_lat": 0.0, "lon": -77.05475166666666, "name": "dd75ee9e75be000cac114870b3f04e32"}, {"bike_id": "8d86e0f3bf94cafe7f0e2f4f936fbe8a", "type": "electric_scooter", "is_disabled": 0, "lat": 38.92067616666667, "rental_uris": {"ios": "https://dc.lft.to/lastmile_qr_scan", "android": "https://dc.lft.to/lastmile_qr_scan"}, "is_reserved": 0, "fusion_lon": 0.0, "fusion_lat": 0.0, "lon": -77.0321525, "name": "8d86e0f3bf94cafe7f0e2f4f936fbe8a"}, {"bike_id": "5955bfe415178711010da9aafd941ba0", "type": "electric_scooter", "is_disabled": 0, "lat": 38.91106283333333, "rental_uris": {"ios": "https://dc.lft.to/lastmile_qr_scan", "android": "https://dc.lft.to/lastmile_qr_scan"}, "is_reserved": 0, "fusion_lon": 0.0, "fusion_lat": 0.0, "lon": -77.0244395, "name": "5955bfe415178711010da9aafd941ba0"}, {"bike_id": "0f84c3c464979a0dad5acf41f00c1b9a", "type": "electric_scooter", "is_disabled": 0, "lat": 38.947159, "rental_uris": {"ios": "https://dc.lft.to/lastmile_qr_scan", "android": "https://dc.lft.to/lastmile_qr_scan"}, "is_reserved": 0, "fusion_lon": 0.0, "fusion_lat": 0.0, "lon": -77.02781716666667, "name": "0f84c3c464979a0dad5acf41f00c1b9a"}, {"bike_id": "7cfa960b943ce5cdd97fd9a798698358", "type": "electric_scooter", "is_disabled": 0, "lat": 38.92780416666667, "rental_uris": {"ios": "https://dc.lft.to/lastmile_qr_scan", "android": "https://dc.lft.to/lastmile_qr_scan"}, "is_reserved": 0, "fusion_lon": 0.0, "fusion_lat": 0.0, "lon": -77.0526955, "name": "7cfa960b943ce5cdd97fd9a798698358"}, {"bike_id": "bb424859fe2a84cda0564a293b40fb50", "type": "electric_scooter", "is_disabled": 0, "lat": 38.903815, "rental_uris": {"ios": "https://dc.lft.to/lastmile_qr_scan", "android": "https://dc.lft.to/lastmile_qr_scan"}, "is_reserved": 0, "fusion_lon": 0.0, "fusion_lat": 0.0, "lon": -77.0088125, "name": "bb424859fe2a84cda0564a293b40fb50"}, {"bike_id": "b5e9511a8fa040e44d43ce6a983913e3", "type": "electric_scooter", "is_disabled": 0, "lat": 38.862089833333336, "rental_uris": {"ios": "https://dc.lft.to/lastmile_qr_scan", "android": "https://dc.lft.to/lastmile_qr_scan"}, "is_reserved": 0, "fusion_lon": 0.0, "fusion_lat": 0.0, "lon": -76.99467533333333, "name": "b5e9511a8fa040e44d43ce6a983913e3"}, {"bike_id": "858d4f79626ae573e3f19cd2b412c0be", "type": "electric_scooter", "is_disabled": 0, "lat": 38.86697983333333, "rental_uris": {"ios": "https://dc.lft.to/lastmile_qr_scan", "android": "https://dc.lft.to/lastmile_qr_scan"}, "is_reserved": 0, "fusion_lon": 0.0, "fusion_lat": 0.0, "lon": -76.98714, "name": "858d4f79626ae573e3f19cd2b412c0be"}, {"bike_id": "732f4a37e983727a4864c7d3ee9e5b3f", "type": "electric_scooter", "is_disabled": 0, "lat": 38.925136333333334, "rental_uris": {"ios": "https://dc.lft.to/lastmile_qr_scan", "android": "https://dc.lft.to/lastmile_qr_scan"}, "is_reserved": 0, "fusion_lon": 0.0, "fusion_lat": 0.0, "lon": -77.008846, "name": "732f4a37e983727a4864c7d3ee9e5b3f"}, {"bike_id": "f4021e88277b4f0de45fb8ef4531463c", "type": "electric_scooter", "is_disabled": 0, "lat": 38.918297833333334, "rental_uris": {"ios": "https://dc.lft.to/lastmile_qr_scan", "android": "https://dc.lft.to/lastmile_qr_scan"}, "is_reserved": 0, "fusion_lon": 0.0, "fusion_lat": 0.0, "lon": -77.04558933333334, "name": "f4021e88277b4f0de45fb8ef4531463c"}, {"bike_id": "35c483d14eda51bd51f0fc2a1d479967", "type": "electric_scooter", "is_disabled": 0, "lat": 38.913334166666665, "rental_uris": {"ios": "https://dc.lft.to/lastmile_qr_scan", "android": "https://dc.lft.to/lastmile_qr_scan"}, "is_reserved": 0, "fusion_lon": 0.0, "fusion_lat": 0.0, "lon": -77.03177783333334, "name": "35c483d14eda51bd51f0fc2a1d479967"}, {"bike_id": "711bbf9b8dc9a8bcee982ec29b5c36f3", "type": "electric_scooter", "is_disabled": 0, "lat": 38.90848616666667, "rental_uris": {"ios": "https://dc.lft.to/lastmile_qr_scan", "android": "https://dc.lft.to/lastmile_qr_scan"}, "is_reserved": 0, "fusion_lon": 0.0, "fusion_lat": 0.0, "lon": -76.99960016666667, "name": "711bbf9b8dc9a8bcee982ec29b5c36f3"}, {"bike_id": "5d13dfb3bdf86ddc470ff0cf4aa0e928", "type": "electric_scooter", "is_disabled": 0, "lat": 38.906418, "rental_uris": {"ios": "https://dc.lft.to/lastmile_qr_scan", "android": "https://dc.lft.to/lastmile_qr_scan"}, "is_reserved": 0, "fusion_lon": 0.0, "fusion_lat": 0.0, "lon": -77.00582933333334, "name": "5d13dfb3bdf86ddc470ff0cf4aa0e928"},