{"data": {"bikes": [{"lat": 38.93150216666667, "is_disabled": 0, "type": "electric_scooter", "lon": -77.02139, "bike_id": "c68bf618d07d5c99fe643fb21063a5c8", "fusion_lat": 0.0, "name": "c68bf618d07d5c99fe643fb21063a5c8", "is_reserved": 0, "rental_uris": {"android": "https://dc.lft.to/lastmile_qr_scan", "ios": "https://dc.lft.to/lastmile_qr_scan"}, "fusion_lon": 0.0}, {"lat": 38.905516166666665, "is_disabled": 0, "type": "electric_scooter", "lon": -77.01308333333333, "bike_id": "b9e88732b72f9bade6639807b9ae40a2", "fusion_lat": 0.0, "name": "b9e88732b72f9bade6639807b9ae40a2", "is_reserved": 0, "rental_uris": {"android": "https://dc.lft.to/lastmile_qr_scan", "ios": "https://dc.lft.to/lastmile_qr_scan"}, "fusion_lon": 0.0}, {"lat": 38.9067435, "is_disabled": 0, "type": "electric_scooter", "lon": -77.0240345, "bike_id": "cb7546aae1bbdbb0a0b6072dce771251", "fusion_lat": 0.0, "name": "cb7546aae1bbdbb0a0b6072dce771251", "is_reserved": 0, "rental_uris": {"android": "https://dc.lft.to/lastmile_qr_scan", "ios": "https://dc.lft.to/lastmile_qr_scan"}, "fusion_lon": 0.0}, {"lat": 38.908447333333335, "is_disabled": 0, "type": "electric_bike", "lon": -77.04024916666667, "bike_id": "88f5e469a2de6bcb0573af95d2321853", "fusion_lat": 0.0, "name": "88f5e469a2de6bcb0573af95d2321853", "is_reserved": 0, "rental_uris": {"android": "https://dc.lft.to/lastmile_qr_scan", "ios": "https://dc.lft.to/lastmile_qr_scan"}, "fusion_lon": 0.0}, {"lat": 38.917391333333335, "is_disabled": 0, "type": "electric_scooter", "lon": -77.03200933333333, "bike_id": "21795da15e3f69ac1157b3bc75ed828e", "fusion_lat": 0.0, "name": "21795da15e3f69ac1157b3bc75ed828e", "is_reserved": 0, "rental_uris": {"android": "https://dc.lft.to/lastmile_qr_scan", "ios": "https://dc.lft.to/lastmile_qr_scan"}, "fusion_lon": 0.0}, {"lat": 38.90281433333333, "is_disabled": 0, "type": "electric_scooter", "lon": -77.0526185, "bike_id": "82c97f718fab12f5fa2050ff77396c7e", "fusion_lat": 0.0, "name": "82c97f718fab12f5fa2050ff77396c7e", "is_reserved": 0, "rental_uris": {"android": "https://dc.lft.to/lastmile_qr_scan", "ios": "https://dc.lft.to/lastmile_qr_scan"}, "fusion_lon": 0.0}, {"lat": 38.91744633333333, "is_disabled": 0, "type": "electric_scooter", "lon": -77.03182066666666, "bike_id": "5727ef64f31c11153e98bf21d2097119", "fusion_lat": 0.0, "name": "5727ef64f31c11153e98bf21d2097119", "is_reserved": 0, "rental_uris": {"android": "https://dc.lft.to/lastmile_qr_scan", "ios": "https://dc.lft.to/lastmile_qr_scan"}, "fusion_lon": 0.0}, {"lat": 38.92055833333333, "is_disabled": 0, "type": "electric_scooter", "lon": -77.034791, "bike_id": "baaad753df116e43346331d3036ea02b", "fusion_lat": 0.0, "name": "baaad753df116e43346331d3036ea02b", "is_reserved": 0, "rental_uris": {"android": "https://dc.lft.to/lastmile_qr_scan", "ios": "https://dc.lft.to/lastmile_qr_scan"}, "fusion_lon": 0.0}, {"lat": 38.88481733333333, "is_disabled": 0, "type": "electric_scooter", "lon": -76.94523766666667, "bike_id": "60299b0207551808320b8f4df1cf5978", "fusion_lat": 0.0, "name": "60299b0207551808320b8f4df1cf5978", "is_reserved": 0, "rental_uris": {"android": "https://dc.lft.to/lastmile_qr_scan", "ios": "https://dc.lft.to/lastmile_qr_scan"}, "fusion_lon": 0.0}, {"lat": 38.93076116666667, "is_disabled": 0, "type": "electric_scooter", "lon": -77.077628, "bike_id": "7ccb7cd4c8aab9aef6547583070bf730", "fusion_lat": 0.0, "name": "7ccb7cd4c8aab9aef6547583070bf730", "is_reserved": 0, "rental_uris": {"android": "https://dc.lft.to/lastmile_qr_scan", "ios": "https://dc.lft.to/lastmile_qr_scan"}, "fusion_lon": 0.0}, {"lat": 38.9178035, "is_disabled": 0, "type": "electric_scooter", "lon": -77.02234766666666, "bike_id": "c42ffa1b58747495ab389c7f402eca03", "fusion_lat": 0.0, "name": "c42ffa1b58747495ab389c7f402eca03", "is_reserved": 0, "rental_uris": {"android": "https://dc.lft.to/lastmile_qr_scan", "ios": "https://dc.lft.to/lastmile_qr_scan"}, "fusion_lon": 0.0}, {"lat": 38.900321166666664, "is_disabled": 0, "type": "electric_scooter", "lon": -76.98375683333333, "bike_id": "39e00cbc89fc681a59ae0960a25a1195", "fusion_lat": 0.0, "name": "39e00cbc89fc681a59ae0960a25a1195", "is_reserved": 0, "rental_uris": {"android": "https://dc.lft.to/lastmile_qr_scan", "ios": "https://dc.lft.to/lastmile_qr_scan"}, "fusion_lon": 0.0}, {"lat": 38.9342785, "is_disabled": 0, "type": "electric_scooter", "lon": -76.99347716666666, "bike_id": "b1aefc612da200c80d25e0e1946a0545", "fusion_lat": 0.0, "name": "b1aefc612da200c80d25e0e1946a0545", "is_reserved": 0, "rental_uris": {"android": "https://dc.lft.to/lastmile_qr_scan", "ios": "https://dc.lft.to/lastmile_qr_scan"}, "fusion_lon": 0.0}, {"lat": 38.90769983333333, "is_disabled": 0, "type": "electric_scooter", "lon": -76.98304916666666, "bike_id": "97047b2a2a3d5b13e532347a741d5dfa", "fusion_lat": 0.0, "name": "97047b2a2a3d5b13e532347a741d5dfa", "is_reserved": 0, "rental_uris": {"android": "https://dc.lft.to/lastmile_qr_scan", "ios": "https://dc.lft.to/lastmile_qr_scan"}, "fusion_lon": 0.0}, {"lat": 38.86559416666667, "is_disabled": 0, "type": "electric_scooter", "lon": -76.98950466666666, "bike_id": "fdb10ae81b7afb96ba5a6b62c2a6dfa7", "fusion_lat": 0.0, "name": "fdb10ae81b7afb96ba5a6b62c2a6dfa7", "is_reserved": 0, "rental_uris": {"android": "https://dc.lft.to/lastmile_qr_scan", "ios": "https://dc.lft.to/lastmile_qr_scan"}, "fusion_lon": 0.0}, {"lat": 38.955671833333334, "is_disabled": 0, "type": "electric_scooter", "lon": -77.02230033333333, "bike_id": "d2ef621b4c7d15e8fa62ae085b68f518", "fusion_lat": 0.0, "name": "d2ef621b4c7d15e8fa62ae085b68f518", "is_reserved": 0, "rental_uris": {"android": "https://dc.lft.to/lastmile_qr_scan", "ios": "https://dc.lft.to/lastmile_qr_scan"}, "fusion_lon": 0.0}, {"lat": 38.89398466666667, "is_disabled": 0, "type": "electric_scooter", "lon": -76.9866545, "bike_id": "b36c46cb6500dc46fed3977c4a2c1dde", "fusion_lat": 0.0, "name": "b36c46cb6500dc46fed3977c4a2c1dde", "is_reserved": 0, "rental_uris": {"android": "https://dc.lft.to/lastmile_qr_scan", "ios": "https://dc.lft.to/lastmile_qr_scan"}, "fusion_lon": 0.0}, {"lat": 38.869977166666665, "is_disabled": 0, "type": "electric_bike", "lon": -77.06568733333333, "bike_id": "db0f11735135874a2f7978ab2a1d8fac", "fusion_lat": 0.0, "name": "db0f11735135874a2f7978ab2a1d8fac", "is_reserved": 0, "rental_uris": {"android": "https://dc.lft.to/lastmile_qr_scan", "ios": "https://dc.lft.to/lastmile_qr_scan"}, "fusion_lon": 0.0}, {"lat": 38.91680483333333, "is_disabled": 0, "type": "electric_scooter", "lon": -77.03188533333334, "bike_id": "b246453253509c5e802a42c1c77f29fb", "fusion_lat": 0.0, "name": "b246453253509c5e802a42c1c77f29fb", "is_reserved": 0, "rental_uris": {"android": "https://dc.lft.to/lastmile_qr_scan", "ios": "https://dc.lft.to/lastmile_qr_scan"}, "fusion_lon": 0.0}, {"lat": 38.901120666666664, "is_disabled": 0, "type": "electric_scooter", "lon": -77.03162133333333, "bike_id": "97342cd22ae75a3950bfddc744325eef", "fusion_lat": 0.0, "name": "97342cd22ae75a3950bfddc744325eef", "is_reserved": 0, "rental_uris": {"android": "https://dc.lft.to/lastmile_qr_scan", "ios": "https://dc.lft.to/lastmile_qr_scan"}, "fusion_lon": 0.0}, {"lat": 38.90604283333333, "is_disabled": 0, "type": "electric_scooter", "lon": -76.98982416666666, "bike_id": "e52f5fbf806e5dbf61c16906ed15ee0b", "fusion_lat": 0.0, "name": "e52f5fbf806e5dbf61c16906ed15ee0b", "is_reserved": 0, "rental_uris": {"android": "https://dc.lft.to/lastmile_qr_scan", "ios": "https://dc.lft.to/lastmile_qr_scan"}, "fusion_lon": 0.0}, {"lat": 38.85923533333333, "is_disabled": 0, "type": "electric_scooter", "lon": -76.99714783333333, "bike_id": "432c0e9e14d207d6c7459c2501f66b78", "fusion_lat": 0.0, "name": "432c0e9e14d207d6c7459c2501f66b78", "is_reserved": 0, "rental_uris": {"android": "https://dc.lft.to/lastmile_qr_scan", "ios": "https://dc.lft.to/lastmile_qr_scan"}, "fusion_lon": 0.0}, {"lat": 38.8651925, "is_disabled": 0, "type": "electric_scooter", "lon": -76.9903305, "bike_id": "cf5b8bca559944e9b47ad5bb2b0256b6", "fusion_lat": 0.0, "name": "cf5b8bca559944e9b47ad5bb2b0256b6", "is_reserved": 0, "rental_uris": {"android": "https://dc.lft.to/lastmile_qr_scan", "ios": "https://dc.lft.to/lastmile_qr_scan"}, "fusion_lon": 0.0}, {"lat": 38.93445666666667, "is_disabled": 0, "type": "electric_scooter", "lon": -77.03090666666667, "bike_id": "54bed0ba9d5c4651b677113861803e53", "fusion_lat": 0.0, "name": "54bed0ba9d5c4651b677113861803e53", "is_reserved": 0, "rental_uris": {"android": "https://dc.lft.to/lastmile_qr_scan", "ios": "https://dc.lft.to/lastmile_qr_scan"}, "fusion_lon": 0.0}, {"lat": 38.91998533333334, "is_disabled": 0, "type": "electric_scooter", "lon": -77.02381433333333, "bike_id": "dd6919f61d79c99bb6176abf039dbd94", "fusion_lat": 0.0, "name": "dd6919f61d79c99bb6176abf039dbd94", "is_reserved": 0, "rental_uris": {"android": "https://dc.lft.to/lastmile_qr_scan", "ios": "https://dc.lft.to/lastmile_qr_scan"}, "fusion_lon": 0.0}, {"lat": 38.90526916666666, "is_disabled": 0, "type": "electric_scooter", "lon": -77.06242666666667, "bike_id": "20c2a6549ebba696e2f83d284c11d66f", "fusion_lat": 0.0, "name": "20c2a6549ebba696e2f83d284c11d66f", "is_reserved": 0, "rental_uris": {"android": "https://dc.lft.to/lastmile_qr_scan", "ios": "https://dc.lft.to/lastmile_qr_scan"}, "fusion_lon": 0.0}, {"lat": 38.9036535, "is_disabled": 0, "type": "electric_scooter", "lon": -77.042344, "bike_id": "a26368aa352747a1525ee2715f782642", "fusion_lat": 0.0, "name": "a26368aa352747a1525ee2715f782642", "is_reserved": 0, "rental_uris": {"android": "https://dc.lft.to/lastmile_qr_scan", "ios": "https://dc.lft.to/lastmile_qr_scan"}, "fusion_lon": 0.0}, {"lat": 38.91691616666667, "is_disabled": 0, "type": "electric_scooter", "lon": -77.02690516666667, "bike_id": "8ea6a8dab2554fbf7f193af7ced9c882", "fusion_lat": 0.0, "name": "8ea6a8dab2554fbf7f193af7ced9c882", "is_reserved": 0, "rental_uris": {"android": "https://dc.lft.to/lastmile_qr_scan", "ios": "https://dc.lft.to/lastmile_qr_scan"}, "fusion_lon": 0.0}, {"lat": 38.924065666666664, "is_disabled": 0, "type": "electric_scooter", "lon": -77.02743983333333, "bike_id": "67cde19e0eb0ba25db8782bb7a660594", "fusion_lat": 0.0, "name": "67cde19e0eb0ba25db8782bb7a660594", "is_reserved": 0, "rental_uris": {"android": "https://dc.lft.to/lastmile_qr_scan", "ios": "https://dc.lft.to/lastmile_qr_scan"}, "fusion_lon": 0.0}, {"lat": 38.925708666666665, "is_disabled": 0, "type": "electric_scooter", "lon": -77.04369666666666, "bike_id": "622d50a2faac4e213beccb35bc1eab55", "fusion_lat": 0.0, "name": "622d50a2faac4e213beccb35bc1eab55", "is_reserved": 0, "rental_uris": {"android": "https://dc.lft.to/lastmile_qr_scan", "ios": "https://dc.lft.to/lastmile_qr_scan"}, "fusion_lon": 0.0}, {"lat": 38.8950345, "is_disabled": 0, "type": "electric_scooter", "lon": -77.00324033333334, "bike_id": "9d8c7a76ea952e065f03aa703022b5a0", "fusion_lat": 0.0, "name": "9d8c7a76ea952e065f03aa703022b5a0", "is_reserved": 0, "rental_uris": {"android": "https://dc.lft.to/lastmile_qr_scan", "ios": "https://dc.lft.to/lastmile_qr_scan"}, "fusion_lon": 0.0}, {"lat": 38.92264466666666, "is_disabled": 0, "type": "electric_scooter", "lon": -77.02244316666666, "bike_id": "69583403c598ff6da371cdc6d0d47ed3", "fusion_lat": 0.0, "name": "69583403c598ff6da371cdc6d0d47ed3", "is_reserved": 0, "rental_uris": {"android": "https://dc.lft.to/lastmile_qr_scan", "ios": "https://dc.lft.to/lastmile_qr_scan"}, "fusion_lon": 0.0}, {"lat": 38.882007, "is_disabled": 0, "type": "electric_scooter", "lon": -76.99611566666667, "bike_id": "fdf91edef4ba4ce74732e2d3fa603d33", "fusion_lat": 0.0, "name": "fdf91edef4ba4ce74732e2d3fa603d33", "is_reserved": 0, "rental_uris": {"android": "https://dc.lft.to/lastmile_qr_scan", "ios": "https://dc.lft.to/lastmile_qr_scan"}, "fusion_lon": 0.0}, {"lat": 38.920003, "is_disabled": 0, "type": "electric_scooter", "lon": -77.03233016666667, "bike_id": "37f4519f40aa88f4666063d8e385a07f", "fusion_lat": 0.0, "name": "37f4519f40aa88f4666063d8e385a07f", "is_reserved": 0, "rental_uris": {"android": "https://dc.lft.to/lastmile_qr_scan", "ios": "https://dc.lft.to/lastmile_qr_scan"}, "fusion_lon": 0.0}, {"lat": 38.938587166666665, "is_disabled": 0, "type": "electric_scooter", "lon": -77.02593933333333, "bike_id": "4a47fc4eb3282e5d786f3a3fc5f917ea", "fusion_lat": 0.0, "name": "4a47fc4eb3282e5d786f3a3fc5f917ea", "is_reserved": 0, "rental_uris": {"android": "https://dc.lft.to/lastmile_qr_scan", "ios": "https://dc.lft.to/lastmile_qr_scan"}, "fusion_lon": 0.0}, {"lat": 38.90567516666667, "is_disabled": 0, "type": "electric_scooter", "lon": -76.98135416666666, "bike_id": "f5d0d4842f7bf738ebcf6c8158a6ad08", "fusion_lat": 0.0, "name": "f5d0d4842f7bf738ebcf6c8158a6ad08", "is_reserved": 0, "rental_uris": {"android": "https://dc.lft.to/lastmile_qr_scan", "ios": "https://dc.lft.to/lastmile_qr_scan"}, "fusion_lon": 0.0}, {"lat": 38.923161666666665, "is_disabled": 0, "type": "electric_scooter", "lon": -77.04652333333334, "bike_id": "ece6515ac1985c8e551e468afccd51fd", "fusion_lat": 0.0, "name": "ece6515ac1985c8e551e468afccd51fd", "is_reserved": 0, "rental_uris": {"android": "https://dc.lft.to/lastmile_qr_scan", "ios": "https://dc.lft.to/lastmile_qr_scan"}, "fusion_lon": 0.0}, {"lat": 38.916842833333334, "is_disabled": 0, "type": "electric_scooter", "lon": -77.0356795, "bike_id": "e9c1c5dedf581fd0cd801a12a8a571a7", "fusion_lat": 0.0, "name": "e9c1c5dedf581fd0cd801a12a8a571a7", "is_reserved": 0, "rental_uris": {"android": "https://dc.lft.to/lastmile_qr_scan", "ios": "https://dc.lft.to/lastmile_qr_scan"}, "fusion_lon": 0.0}, {"lat": 38.8443125, "is_disabled": 0, "type": "electric_scooter", "lon": -76.998139, "bike_id": "1e7e8a41135d05e493aa1c3d65e64076", "fusion_lat": 0.0, "name": "1e7e8a41135d05e493aa1c3d65e64076", "is_reserved": 0, "rental_uris": {"android": "https://dc.lft.to/lastmile_qr_scan", "ios": "https://dc.lft.to/lastmile_qr_scan"}, "fusion_lon": 0.0}, {"lat": 38.94598916666666, "is_disabled": 0, "type": "electric_scooter", "lon": -77.07033883333334, "bike_id": "ac0e370813a703dad433c2df7b7265a9", "fusion_lat": 0.0, "name": "ac0e370813a703dad433c2df7b7265a9", "is_reserved": 0, "rental_uris": {"android": "https://dc.lft.to/lastmile_qr_scan", "ios": "https://dc.lft.to/lastmile_qr_scan"}, "fusion_lon": 0.0}, {"lat": 38.9443565, "is_disabled": 0, "type": "electric_scooter", "lon": -77.0634875, "bike_id": "2b7597c2705dd0caa74b7caf5e819a51", "fusion_lat": 0.0, "name": "2b7597c2705dd0caa74b7caf5e819a51", "is_reserved": 0, "rental_uris": {"android": "https://dc.lft.to/lastmile_qr_scan", "ios": "https://dc.lft.to/lastmile_qr_scan"}, "fusion_lon": 0.0}, {"lat": 38.854267, "is_disabled": 0, "type": "electric_bike", "lon": -76.90964333333334, "bike_id": "43a4fd50a92d331ab93aef2af8416622", "fusion_lat": 0.0, "name": "43a4fd50a92d331ab93aef2af8416622", "is_reserved": 0, "rental_uris": {"android": "https://dc.lft.to/lastmile_qr_scan", "ios": "https://dc.lft.to/lastmile_qr_scan"}, "fusion_lon": 0.0}, {"lat": 38.91821083333333, "is_disabled": 0, "type": "electric_scooter", "lon": -77.02954033333333, "bike_id": "4be1d59793ab044311b02ad9d8252115", "fusion_lat": 0.0, "name": "4be1d59793ab044311b02ad9d8252115", "is_reserved": 0, "rental_uris": {"android": "https://dc.lft.to/lastmile_qr_scan", "ios": "https://dc.lft.to/lastmile_qr_scan"}, "fusion_lon": 0.0}, {"lat": 38.854472333333334, "is_disabled": 0, "type": "electric_scooter", "lon": -76.97216083333333, "bike_id": "50033dbe15fbf8fff2af8e519efd3dad", "fusion_lat": 0.0, "name": "50033dbe15fbf8fff2af8e519efd3dad", "is_reserved": 0, "rental_uris": {"android": "https://dc.lft.to/lastmile_qr_scan", "ios": "https://dc.lft.to/lastmile_qr_scan"}, "fusion_lon": 0.0}, {"lat": 38.9783495, "is_disabled": 0, "type": "electric_bike", "lon": -77.0264115, "bike_id": "316c6825b0039291032576b549fc8d26", "fusion_lat": 0.0, "name": "316c6825b0039291032576b549fc8d26", "is_reserved": 0, "rental_uris": {"android": "https://dc.lft.to/lastmile_qr_scan", "ios": "https://dc.lft.to/lastmile_qr_scan"}, "fusion_lon": 0.0}, {"lat": 38.86382, "is_disabled": 0, "type": "electric_scooter", "lon": -76.992519, "bike_id": "356e2273465892d3b59e456297d45569", "fusion_lat": 0.0, "name": "356e2273465892d3b59e456297d45569", "is_reserved": 0, "rental_uris": {"android": "https://dc.lft.to/lastmile_qr_scan", "ios": "https://dc.lft.to/lastmile_qr_scan"}, "fusion_lon": 0.0}, {"lat": 38.923501, "is_disabled": 0, "type": "electric_scooter", "lon": -77.04394166666667, "bike_id": "87112f594c6fc074ac6b92b9bf1c2d72", "fusion_lat": 0.0, "name": "87112f594c6fc074ac6b92b9bf1c2d72", "is_reserved": 0, "rental_uris": {"android": "https://dc.lft.to/lastmile_qr_scan", "ios": "https://dc.lft.to/lastmile_qr_scan"}, "fusion_lon": 0.0}, {"lat": 38.91456216666667, "is_disabled": 0, "type": "electric_scooter", "lon": -77.03856533333334, "bike_id": "7bd5bf91fb186e8e4629a56e59802063", "fusion_lat": 0.0, "name": "7bd5bf91fb186e8e4629a56e59802063", "is_reserved": 0, "rental_uris": {"android": "https://dc.lft.to/lastmile_qr_scan", "ios": "https://dc.lft.to/lastmile_qr_scan"}, "fusion_lon": 0.0}, {"lat": 38.909576, "is_disabled": 0, "type": "electric_scooter", "lon": -77.03807, "bike_id": "9701ab9dbb6e56038e6cfc0440828cee", "fusion_lat": 0.0, "name": "9701ab9dbb6e56038e6cfc0440828cee", "is_reserved": 0, "rental_uris": {"android": "https://dc.lft.to/lastmile_qr_scan", "ios": "https://dc.lft.to/lastmile_qr_scan"}, "fusion_lon": 0.0}, {"lat": 38.918215833333335, "is_disabled": 0, "type": "electric_scooter", "lon": -77.02420983333333, "bike_id": "bd0185de170faccd9ac0bf56dc66b993", "fusion_lat": 0.0, "name": "bd0185de170faccd9ac0bf56dc66b993", "is_reserved": 0, "rental_uris": {"android": "https://dc.lft.to/lastmile_qr_scan", "ios": "https://dc.lft.to/lastmile_qr_scan"}, "fusion_lon": 0.0}, {"lat": 38.90315566666666, "is_disabled": 0, "type": "electric_bike", "lon": -77.0627725, "bike_id": "8b5ed0caeed1e95fe2baf9f80ed9eec4", "fusion_lat": 0.0, "name": "8b5ed0caeed1e95fe2baf9f80ed9eec4", "is_reserved": 0, "rental_uris": {"android": "https://dc.lft.to/lastmile_qr_scan", "ios": "https://dc.lft.to/lastmile_qr_scan"}, "fusion_lon": 0.0}, {"lat": 38.9431155, "is_disabled": 0, "type": "electric_scooter", "lon": -77.0592725, "bike_id": "c6405f3f504220a93f5b4392e5a08498", "fusion_lat": 0.0, "name": "c6405f3f504220a93f5b4392e5a08498", "is_reserved": 0, "rental_uris": {"android": "https://dc.lft.to/lastmile_qr_scan", "ios": "https://dc.lft.to/lastmile_qr_scan"}, "fusion_lon": 0.0}, {"lat": 38.948936333333336, "is_disabled": 0, "type": "electric_scooter", "lon": -77.03045916666666, "bike_id": "1c2a7d6c3b9dfcfb92982054ad0d6ed4", "fusion_lat": 0.0, "name": "1c2a7d6c3b9dfcfb92982054ad0d6ed4", "is_reserved": 0, "rental_uris": {"android": "https://dc.lft.to/lastmile_qr_scan", "ios": "https://dc.lft.to/lastmile_qr_scan"}, "fusion_lon": 0.0}, {"lat": 38.972278333333335, "is_disabled": 0, "type": "electric_bike", "lon": -76.99339716666667, "bike_id": "8d0a383a807385ceed33417959a095c4", "fusion_lat": 0.0, "name": "8d0a383a807385ceed33417959a095c4", "is_reserved": 0, "rental_uris": {"android": "https://dc.lft.to/lastmile_qr_scan", "ios": "https://dc.lft.to/lastmile_qr_scan"}, "fusion_lon": 0.0}, {"lat": 38.9032865, "is_disabled": 0, "type": "electric_scooter", "lon": -77.0374825, "bike_id": "525dcef16a9b25f0b87c5b5d4910b16f", "fusion_lat": 0.0, "name": "525dcef16a9b25f0b87c5b5d4910b16f", "is_reserved": 0, "rental_uris": {"android": "https://dc.lft.to/lastmile_qr_scan", "ios": "https://dc.lft.to/lastmile_qr_scan"}, "fusion_lon": 0.0}, {"lat": 38.922399166666665, "is_disabled": 0, "type": "electric_scooter", "lon": -77.045766, "bike_id": "904d15e5d0db145eb34532c5403c65c6", "fusion_lat": 0.0, "name": "904d15e5d0db145eb34532c5403c65c6", "is_reserved": 0, "rental_uris": {"android": "https://dc.lft.to/lastmile_qr_scan", "ios": "https://dc.lft.to/lastmile_qr_scan"}, "fusion_lon": 0.0}, {"lat": 38.908318333333334, "is_disabled": 0, "type": "electric_scooter", "lon": -76.99681483333333, "bike_id": "83731f28afd1f47e2410a3e634fe7c25", "fusion_lat": 0.0, "name": "83731f28afd1f47e2410a3e634fe7c25", "is_reserved": 0, "rental_uris": {"android": "https://dc.lft.to/lastmile_qr_scan", "ios": "https://dc.lft.to/lastmile_qr_scan"}, "fusion_lon": 0.0}, {"lat": 38.933141, "is_disabled": 0, "type": "electric_scooter", "lon": -77.04531933333334, "bike_id": "901eb96793e17f333601531326a9240c", "fusion_lat": 0.0, "name": "901eb96793e17f333601531326a9240c", "is_reserved": 0, "rental_uris": {"android": "https://dc.lft.to/lastmile_qr_scan", "ios": "https://dc.lft.to/lastmile_qr_scan"}, "fusion_lon": 0.0}, {"lat": 38.884448, "is_disabled": 0, "type": "electric_scooter", "lon": -77.00060983333333, "bike_id": "5f9fc64443d62801663f32dec0b714c8", "fusion_lat": 0.0, "name": "5f9fc64443d62801663f32dec0b714c8", "is_reserved": 0, "rental_uris": {"android": "https://dc.lft.to/lastmile_qr_scan", "ios": "https://dc.lft.to/lastmile_qr_scan"}, "fusion_lon": 0.0}, {"lat": 38.90923683333333, "is_disabled": 0, "type": "electric_scooter", "lon": -77.0320145, "bike_id": "fdd4f05337ec8118af9ce1da8e96e555", "fusion_lat": 0.0, "name": "fdd4f05337ec8118af9ce1da8e96e555", "is_reserved": 0, "rental_uris": {"android": "https://dc.lft.to/lastmile_qr_scan", "ios": "https://dc.lft.to/lastmile_qr_scan"}, "fusion_lon": 0.0}, {"lat": 38.914999, "is_disabled": 0, "type": "electric_scooter", "lon": -77.06787183333333, "bike_id": "81bd32690e92030de06cde8c578d6fcd", "fusion_lat": 0.0, "name": "81bd32690e92030de06cde8c578d6fcd", "is_reserved": 0, "rental_uris": {"android": "https://dc.lft.to/lastmile_qr_scan", "ios": "https://dc.lft.to/lastmile_qr_scan"}, "fusion_lon": 0.0}, {"lat": 38.866984, "is_disabled": 0, "type": "electric_scooter", "lon": -76.98703983333333, "bike_id": "01d56ffd1509815b451e1747bc5e29e4", "fusion_lat": 0.0, "name": "01d56ffd1509815b451e1747bc5e29e4", "is_reserved": 0, "rental_uris": {"android": "https://dc.lft.to/lastmile_qr_scan", "ios": "https://dc.lft.to/lastmile_qr_scan"}, "fusion_lon": 0.0}, {"lat": 38.917990833333334, "is_disabled": 0, "type": "electric_scooter", "lon": -77.0401125, "bike_id": "261789e556323889bd6f8b4816a63e84", "fusion_lat": 0.0, "name": "261789e556323889bd6f8b4816a63e84", "is_reserved": 0, "rental_uris": {"android": "https://dc.lft.to/lastmile_qr_scan", "ios": "https://dc.lft.to/lastmile_qr_scan"}, "fusion_lon": 0.0}, {"lat": 38.928508, "is_disabled": 0, "type": "electric_scooter", "lon": -77.01398083333333, "bike_id": "2c6603ff272d51ccd3f5e6cca98f7699", "fusion_lat": 0.0, "name": "2c6603ff272d51ccd3f5e6cca98f7699", "is_reserved": 0, "rental_uris": {"android": "https://dc.lft.to/lastmile_qr_scan", "ios": "https://dc.lft.to/lastmile_qr_scan"}, "fusion_lon": 0.0}, {"lat": 38.8983845, "is_disabled": 0, "type": "electric_scooter", "lon": -77.01996783333334, "bike_id": "1568651979d0163ca034413cee37e38f", "fusion_lat": 0.0, "name": "1568651979d0163ca034413cee37e38f", "is_reserved": 0, "rental_uris": {"android": "https://dc.lft.to/lastmile_qr_scan", "ios": "https://dc.lft.to/lastmile_qr_scan"}, "fusion_lon": 0.0}, {"lat": 38.91204533333333, "is_disabled": 0, "type": "electric_scooter", "lon": -77.03427966666666, "bike_id": "1464174e37bfe12e1177dc14157ddf24", "fusion_lat": 0.0, "name": "1464174e37bfe12e1177dc14157ddf24", "is_reserved": 0, "rental_uris": {"android": "https://dc.lft.to/lastmile_qr_scan", "ios": "https://dc.lft.to/lastmile_qr_scan"}, "fusion_lon": 0.0}, {"lat": 38.900905, "is_disabled": 0, "type": "electric_scooter", "lon": -77.050347, "bike_id": "b426aa0427c5a389670ed8b6650b0ffb", "fusion_lat": 0.0, "name": "b426aa0427c5a389670ed8b6650b0ffb", "is_reserved": 0, "rental_uris": {"android": "https://dc.lft.to/lastmile_qr_scan", "ios": "https://dc.lft.to/lastmile_qr_scan"}, "fusion_lon": 0.0}, {"lat": 38.91632966666667, "is_disabled": 0, "type": "electric_scooter", "lon": -77.02552966666667, "bike_id": "826b94ece9d42d56cbf3d31c516f4d2d", "fusion_lat": 0.0, "name": "826b94ece9d42d56cbf3d31c516f4d2d", "is_reserved": 0, "rental_uris": {"android": "https://dc.lft.to/lastmile_qr_scan", "ios": "https://dc.lft.to/lastmile_qr_scan"}, "fusion_lon": 0.0}, {"lat": 38.965439, "is_disabled": 0, "type": "electric_scooter", "lon": -77.00200816666667, "bike_id": "e69e345ef112d7b3844456d5bcd7b99e", "fusion_lat": 0.0, "name": "e69e345ef112d7b3844456d5bcd7b99e", "is_reserved": 0, "rental_uris": {"android": "https://dc.lft.to/lastmile_qr_scan", "ios": "https://dc.lft.to/lastmile_qr_scan"}, "fusion_lon": 0.0}, {"lat": 38.9049535, "is_disabled": 0, "type": "electric_scooter", "lon": -77.04820883333333, "bike_id": "2940530f808f71a90bcd90dae5023355", "fusion_lat": 0.0, "name": "2940530f808f71a90bcd90dae5023355", "is_reserved": 0, "rental_uris": {"android": "https://dc.lft.to/lastmile_qr_scan", "ios": "https://dc.lft.to/lastmile_qr_scan"}, "fusion_lon": 0.0}, {"lat": 38.93499416666667, "is_disabled": 0, "type": "electric_scooter", "lon": -77.0272675, "bike_id": "9bf2ce9488c75810e4927c09a15e9a3d", "fusion_lat": 0.0, "name": "9bf2ce9488c75810e4927c09a15e9a3d", "is_reserved": 0, "rental_uris": {"android": "https://dc.lft.to/lastmile_qr_scan", "ios": "https://dc.lft.to/lastmile_qr_scan"}, "fusion_lon": 0.0}, {"lat": 38.95483183333333, "is_disabled": 0, "type": "electric_scooter", "lon": -77.065542, "bike_id": "62274aa30de0ce5296dcc83d080c5d40", "fusion_lat": 0.0, "name": "62274aa30de0ce5296dcc83d080c5d40", "is_reserved": 0, "rental_uris": {"android": "https://dc.lft.to/lastmile_qr_scan", "ios": "https://dc.lft.to/lastmile_qr_scan"}, "fusion_lon": 0.0}, {"lat": 38.922822, "is_disabled": 0, "type": "electric_scooter", "lon": -77.02966883333333, "bike_id": "f248cf2324c165e87efeb2c4dee4d7d8", "fusion_lat": 0.0, "name": "f248cf2324c165e87efeb2c4dee4d7d8", "is_reserved": 0, "rental_uris": {"android": "https://dc.lft.to/lastmile_qr_scan", "ios": "https://dc.lft.to/lastmile_qr_scan"}, "fusion_lon": 0.0}, {"lat": 38.918643, "is_disabled": 0, "type": "electric_scooter", "lon": -77.031715, "bike_id": "2da52180a4a9d10b5cbbe81b9cf848d6", "fusion_lat": 0.0, "name": "2da52180a4a9d10b5cbbe81b9cf848d6", "is_reserved": 0, "rental_uris": {"android": "https://dc.lft.to/lastmile_qr_scan", "ios": "https://dc.lft.to/lastmile_qr_scan"}, "fusion_lon": 0.0}, {"lat": 38.9120415, "is_disabled": 0, "type": "electric_scooter", "lon": -77.01462933333333, "bike_id": "44ef0e3a8af8e324fc2c1fa7c74bcd73", "fusion_lat": 0.0, "name": "44ef0e3a8af8e324fc2c1fa7c74bcd73", "is_reserved": 0, "rental_uris": {"android": "https://dc.lft.to/lastmile_qr_scan", "ios": "https://dc.lft.to/lastmile_qr_scan"}, "fusion_lon": 0.0}, {"lat": 38.89350366666667, "is_disabled": 0, "type": "electric_scooter", "lon": -77.041565, "bike_id": "4b30092e43f1206f3047a8f0aa6427e8", "fusion_lat": 0.0, "name": "4b30092e43f1206f3047a8f0aa6427e8", "is_reserved": 0, "rental_uris": {"android": "https://dc.lft.to/lastmile_qr_scan", "ios": "https://dc.lft.to/lastmile_qr_scan"}, "fusion_lon": 0.0}, {"lat": 38.90279, "is_disabled": 0, "type": "electric_scooter", "lon": -77.03643516666666, "bike_id": "f626fafcdae489a50cadfda57f72672a", "fusion_lat": 0.0, "name": "f626fafcdae489a50cadfda57f72672a", "is_reserved": 0, "rental_uris": {"android": "https://dc.lft.to/lastmile_qr_scan", "ios": "https://dc.lft.to/lastmile_qr_scan"}, "fusion_lon": 0.0}, {"lat": 38.92204666666667, "is_disabled": 0, "type": "electric_scooter", "lon": -77.03291983333334, "bike_id": "f5c773fb6859ba43401da26afeb2827d", "fusion_lat": 0.0, "name": "f5c773fb6859ba43401da26afeb2827d", "is_reserved": 0, "rental_uris": {"android": "https://dc.lft.to/lastmile_qr_scan", "ios": "https://dc.lft.to/lastmile_qr_scan"}, "fusion_lon": 0.0}, {"lat": 38.901385166666664, "is_disabled": 0, "type": "electric_scooter", "lon": -77.00072716666666, "bike_id": "155589232ff98096e45bbe3ab1fb0a85", "fusion_lat": 0.0, "name": "155589232ff98096e45bbe3ab1fb0a85", "is_reserved": 0, "rental_uris": {"android": "https://dc.lft.to/lastmile_qr_scan", "ios": "https://dc.lft.to/lastmile_qr_scan"}, "fusion_lon": 0.0}, {"lat": 38.960916166666664, "is_disabled": 0, "type": "electric_scooter", "lon": -77.08284116666667, "bike_id": "f2e0a559b8db0ed84c2937db192343d7", "fusion_lat": 0.0, "name": "f2e0a559b8db0ed84c2937db192343d7", "is_reserved": 0, "rental_uris": {"android": "https://dc.lft.to/lastmile_qr_scan", "ios": "https://dc.lft.to/lastmile_qr_scan"}, "fusion_lon": 0.0}, {"lat": 38.902084, "is_disabled": 0, "type": "electric_scooter", "lon": -77.04863383333333, "bike_id": "37120b21d7185bd1d3bcb92b96f5de3b", "fusion_lat": 0.0, "name": "37120b21d7185bd1d3bcb92b96f5de3b", "is_reserved": 0, "rental_uris": {"android": "https://dc.lft.to/lastmile_qr_scan", "ios": "https://dc.lft.to/lastmile_qr_scan"}, "fusion_lon": 0.0}, {"lat": 38.90604066666667, "is_disabled": 0, "type": "electric_scooter", "lon": -77.016277, "bike_id": "593a98192b907d30343a7e1cc2a8f6ce", "fusion_lat": 0.0, "name": "593a98192b907d30343a7e1cc2a8f6ce", "is_reserved": 0, "rental_uris": {"android": "https://dc.lft.to/lastmile_qr_scan", "ios": "https://dc.lft.to/lastmile_qr_scan"}, "fusion_lon": 0.0}, {"lat": 38.8934105, "is_disabled": 0, "type": "electric_scooter", "lon": -76.99156183333334, "bike_id": "75e3da27d7154f578384e048489a9913", "fusion_lat": 0.0, "name": "75e3da27d7154f578384e048489a9913", "is_reserved": 0, "rental_uris": {"android": "https://dc.lft.to/lastmile_qr_scan", "ios": "https://dc.lft.to/lastmile_qr_scan"}, "fusion_lon": 0.0}, {"lat": 38.899271, "is_disabled": 0, "type": "electric_scooter", "lon": -77.0035285, "bike_id": "742ab0efc0c10d3a1e91e7eff532a3d0", "fusion_lat": 0.0, "name": "742ab0efc0c10d3a1e91e7eff532a3d0", "is_reserved": 0, "rental_uris": {"android": "https://dc.lft.to/lastmile_qr_scan", "ios": "https://dc.lft.to/lastmile_qr_scan"}, "fusion_lon": 0.0}, {"lat": 38.92641283333333, "is_disabled": 0, "type": "electric_scooter", "lon": -77.025036, "bike_id": "71f1bebe7f16fe01d6cb34dc64b0227b", "fusion_lat": 0.0, "name": "71f1bebe7f16fe01d6cb34dc64b0227b", "is_reserved": 0, "rental_uris": {"android": "https://dc.lft.to/lastmile_qr_scan", "ios": "https://dc.lft.to/lastmile_qr_scan"}, "fusion_lon": 0.0}, {"lat": 38.92383816666667, "is_disabled": 0, "type": "electric_scooter", "lon": -77.032062, "bike_id": "c5d0f9a2fc2533e95b5d7f6cb1fdd0dd", "fusion_lat": 0.0, "name": "c5d0f9a2fc2533e95b5d7f6cb1fdd0dd", "is_reserved": 0, "rental_uris": {"android": "https://dc.lft.to/lastmile_qr_scan", "ios": "https://dc.lft.to/lastmile_qr_scan"}, "fusion_lon": 0.0}, {"lat": 38.917898, "is_disabled": 0, "type": "electric_scooter", "lon": -77.03195033333333, "bike_id": "23d0ab7f3a07c6a70d3a34a14ba83546", "fusion_lat": 0.0, "name": "23d0ab7f3a07c6a70d3a34a14ba83546", "is_reserved": 0, "rental_uris": {"android": "https://dc.lft.to/lastmile_qr_scan", "ios": "https://dc.lft.to/lastmile_qr_scan"}, "fusion_lon": 0.0}, {"lat": 38.9012905, "is_disabled": 0, "type": "electric_scooter", "lon": -77.01153916666667, "bike_id": "b9a3b751c9b43bd275c277c799ada7a3", "fusion_lat": 0.0, "name": "b9a3b751c9b43bd275c277c799ada7a3", "is_reserved": 0, "rental_uris": {"android": "https://dc.lft.to/lastmile_qr_scan", "ios": "https://dc.lft.to/lastmile_qr_scan"}, "fusion_lon": 0.0}, {"lat": 38.95073266666667, "is_disabled": 0, "type": "electric_scooter", "lon": -77.027194, "bike_id": "a4a422504c57c03894f948c540c60c79", "fusion_lat": 0.0, "name": "a4a422504c57c03894f948c540c60c79", "is_reserved": 0, "rental_uris": {"android": "https://dc.lft.to/lastmile_qr_scan", "ios": "https://dc.lft.to/lastmile_qr_scan"}, "fusion_lon": 0.0}, {"lat": 38.9142205, "is_disabled": 0, "type": "electric_scooter", "lon": -77.01616533333333, "bike_id": "d055e424a6be3b196390bdebb76e6313", "fusion_lat": 0.0, "name": "d055e424a6be3b196390bdebb76e6313", "is_reserved": 0, "rental_uris": {"android": "https://dc.lft.to/lastmile_qr_scan", "ios": "https://dc.lft.to/lastmile_qr_scan"}, "fusion_lon": 0.0}, {"lat": 38.92574166666667, "is_disabled": 0, "type": "electric_scooter", "lon": -77.05759416666666, "bike_id": "52d6e39d4eec80b368551ab039cb36c3", "fusion_lat": 0.0, "name": "52d6e39d4eec80b368551ab039cb36c3", "is_reserved": 0, "rental_uris": {"android": "https://dc.lft.to/lastmile_qr_scan", "ios": "https://dc.lft.to/lastmile_qr_scan"}, "fusion_lon": 0.0}, {"lat": 38.88645666666667, "is_disabled": 0, "type": "electric_scooter", "lon": -77.021534, "bike_id": "fd904e4f1742818dc7ed55cfebeef6dd", "fusion_lat": 0.0, "name": "fd904e4f1742818dc7ed55cfebeef6dd", "is_reserved": 0, "rental_uris": {"android": "https://dc.lft.to/lastmile_qr_scan", "ios": "https://dc.lft.to/lastmile_qr_scan"}, "fusion_lon": 0.0}, {"lat": 38.895162166666665, "is_disabled": 0, "type": "electric_scooter", "lon": -77.007331, "bike_id": "a12a5a5915620cf0c0df82bc3f0d81e1", "fusion_lat": 0.0, "name": "a12a5a5915620cf0c0df82bc3f0d81e1", "is_reserved": 0, "rental_uris": {"android": "https://dc.lft.to/lastmile_qr_scan", "ios": "https://dc.lft.to/lastmile_qr_scan"}, "fusion_lon": 0.0}, {"lat": 38.85512, "is_disabled": 0, "type": "electric_bike", "lon": -77.12033983333333, "bike_id": "62e8245401ebbb597f0b2435f6536be1", "fusion_lat": 0.0, "name": "62e8245401ebbb597f0b2435f6536be1", "is_reserved": 0, "rental_uris": {"android": "https://dc.lft.to/lastmile_qr_scan", "ios": "https://dc.lft.to/lastmile_qr_scan"}, "fusion_lon": 0.0}, {"lat": 38.921557166666666, "is_disabled": 0, "type": "electric_scooter", "lon": -77.035173, "bike_id": "d2e4518bf3273606628c968c66ca1aa1", "fusion_lat": 0.0, "name": "d2e4518bf3273606628c968c66ca1aa1", "is_reserved": 0, "rental_uris": {"android": "https://dc.lft.to/lastmile_qr_scan", "ios": "https://dc.lft.to/lastmile_qr_scan"}, "fusion_lon": 0.0}, {"lat": 38.9200005, "is_disabled": 0, "type": "electric_scooter", "lon": -77.0316745, "bike_id": "8214f73b1ecb9405a97eddb49d34778a", "fusion_lat": 0.0, "name": "8214f73b1ecb9405a97eddb49d34778a", "is_reserved": 0, "rental_uris": {"android": "https://dc.lft.to/lastmile_qr_scan", "ios": "https://dc.lft.to/lastmile_qr_scan"}, "fusion_lon": 0.0}, {"lat": 38.912513833333335, "is_disabled": 0, "type": "electric_scooter", "lon": -77.0198885, "bike_id": "8d4aa55f20bbdadecf30412a23b21556", "fusion_lat": 0.0, "name": "8d4aa55f20bbdadecf30412a23b21556", "is_reserved": 0, "rental_uris": {"android": "https://dc.lft.to/lastmile_qr_scan", "ios": "https://dc.lft.to/lastmile_qr_scan"}, "fusion_lon": 0.0}, {"lat": 38.9156525, "is_disabled": 0, "type": "electric_scooter", "lon": -77.03666983333333, "bike_id": "5e2641991883d61bc95f73ab107d62ba", "fusion_lat": 0.0, "name": "5e2641991883d61bc95f73ab107d62ba", "is_reserved": 0, "rental_uris": {"android": "https://dc.lft.to/lastmile_qr_scan", "ios": "https://dc.lft.to/lastmile_qr_scan"}, "fusion_lon": 0.0}, {"lat": 38.926637, "is_disabled": 0, "type": "electric_scooter", "lon": -77.01468633333333, "bike_id": "70b3ca6a9e171cc1dd0a1bb8de9783ca", "fusion_lat": 0.0, "name": "70b3ca6a9e171cc1dd0a1bb8de9783ca", "is_reserved": 0, "rental_uris": {"android": "https://dc.lft.to/lastmile_qr_scan", "ios": "https://dc.lft.to/lastmile_qr_scan"}, "fusion_lon": 0.0}, {"lat": 38.859082, "is_disabled": 0, "type": "electric_scooter", "lon": -76.9915085, "bike_id": "507050ee5e285b154fde6541506d70de", "fusion_lat": 0.0, "name": "507050ee5e285b154fde6541506d70de", "is_reserved": 0, "rental_uris": {"android": "https://dc.lft.to/lastmile_qr_scan", "ios": "https://dc.lft.to/lastmile_qr_scan"}, "fusion_lon": 0.0}, {"lat": 38.9086035, "is_disabled": 0, "type": "electric_scooter", "lon": -76.99167133333333, "bike_id": "918d5db152fb14bd4ed1d0948353d91c", "fusion_lat": 0.0, "name": "918d5db152fb14bd4ed1d0948353d91c", "is_reserved": 0, "rental_uris": {"android": "https://dc.lft.to/lastmile_qr_scan", "ios": "https://dc.lft.to/lastmile_qr_scan"}, "fusion_lon": 0.0}, {"lat": 38.89901866666666, "is_disabled": 0, "type": "electric_scooter", "lon": -76.93356733333333, "bike_id": "05c1e104040934fca3c51ae3e5a92cb8", "fusion_lat": 0.0, "name": "05c1e104040934fca3c51ae3e5a92cb8", "is_reserved": 0, "rental_uris": {"android": "https://dc.lft.to/lastmile_qr_scan", "ios": "https://dc.lft.to/lastmile_qr_scan"}, "fusion_lon": 0.0}, {"lat": 38.915442666666664, "is_disabled": 0, "type": "electric_scooter", "lon": -77.0378465, "bike_id": "d732985ce4830f538ebe7bc5b5da2698", "fusion_lat": 0.0, "name": "d732985ce4830f538ebe7bc5b5da2698", "is_reserved": 0, "rental_uris": {"android": "https://dc.lft.to/lastmile_qr_scan", "ios": "https://dc.lft.to/lastmile_qr_scan"}, "fusion_lon": 0.0}, {"lat": 38.89113833333333, "is_disabled": 0, "type": "electric_scooter", "lon": -76.94387583333334, "bike_id": "c3c8e2aa778088298793f31ade39b727", "fusion_lat": 0.0, "name": "c3c8e2aa778088298793f31ade39b727", "is_reserved": 0, "rental_uris": {"android": "https://dc.lft.to/lastmile_qr_scan", "ios": "https://dc.lft.to/lastmile_qr_scan"}, "fusion_lon": 0.0}, {"lat": 38.900487, "is_disabled": 0, "type": "electric_scooter", "lon": -76.99372883333334, "bike_id": "e1939f9adcf3edab39a58c733e690ce0", "fusion_lat": 0.0, "name": "e1939f9adcf3edab39a58c733e690ce0", "is_reserved": 0, "rental_uris": {"android": "https://dc.lft.to/lastmile_qr_scan", "ios": "https://dc.lft.to/lastmile_qr_scan"}, "fusion_lon": 0.0}, {"lat": 38.952679, "is_disabled": 0, "type": "electric_scooter", "lon": -77.0687275, "bike_id": "878dff83738ee47e01243f6dc0ac8fe1", "fusion_lat": 0.0, "name": "878dff83738ee47e01243f6dc0ac8fe1", "is_reserved": 0, "rental_uris": {"android": "https://dc.lft.to/lastmile_qr_scan", "ios": "https://dc.lft.to/lastmile_qr_scan"}, "fusion_lon": 0.0}, {"lat": 39.05193533333333, "is_disabled": 0, "type": "electric_bike", "lon": -77.1091875, "bike_id": "8ec0a18c7b75cdf25ec12663b15cde3e", "fusion_lat": 0.0, "name": "8ec0a18c7b75cdf25ec12663b15cde3e", "is_reserved": 0, "rental_uris": {"android": "https://dc.lft.to/lastmile_qr_scan", "ios": "https://dc.lft.to/lastmile_qr_scan"}, "fusion_lon": 0.0}, {"lat": 38.86647266666667, "is_disabled": 0, "type": "electric_scooter", "lon": -76.98881716666666, "bike_id": "81c10830c90c65c0a0d76bbc1351b34b", "fusion_lat": 0.0, "name": "81c10830c90c65c0a0d76bbc1351b34b", "is_reserved": 0, "rental_uris": {"android": "https://dc.lft.to/lastmile_qr_scan", "ios": "https://dc.lft.to/lastmile_qr_scan"}, "fusion_lon": 0.0}, {"lat": 38.910490333333335, "is_disabled": 0, "type": "electric_scooter", "lon": -77.027613, "bike_id": "14b3a6436bde7ad7e53658b10bf6ed4e", "fusion_lat": 0.0, "name": "14b3a6436bde7ad7e53658b10bf6ed4e", "is_reserved": 0, "rental_uris": {"android": "https://dc.lft.to/lastmile_qr_scan", "ios": "https://dc.lft.to/lastmile_qr_scan"}, "fusion_lon": 0.0}, {"lat": 38.900315666666664, "is_disabled": 0, "type": "electric_scooter", "lon": -77.00200333333333, "bike_id": "80f45430b79b9c9a557d1a9de25aea8b", "fusion_lat": 0.0, "name": "80f45430b79b9c9a557d1a9de25aea8b", "is_reserved": 0, "rental_uris": {"android": "https://dc.lft.to/lastmile_qr_scan", "ios": "https://dc.lft.to/lastmile_qr_scan"}, "fusion_lon": 0.0}, {"lat": 38.896165, "is_disabled": 0, "type": "electric_scooter", "lon": -77.04499016666666, "bike_id": "cd8980f0525a16f87959349051319555", "fusion_lat": 0.0, "name": "cd8980f0525a16f87959349051319555", "is_reserved": 0, "rental_uris": {"android": "https://dc.lft.to/lastmile_qr_scan", "ios": "https://dc.lft.to/lastmile_qr_scan"}, "fusion_lon": 0.0}, {"lat": 38.91542166666667, "is_disabled": 0, "type": "electric_scooter", "lon": -77.05319483333334, "bike_id": "36e9e2c0f62c52b564eb06283ba282af", "fusion_lat": 0.0, "name": "36e9e2c0f62c52b564eb06283ba282af", "is_reserved": 0, "rental_uris": {"android": "https://dc.lft.to/lastmile_qr_scan", "ios": "https://dc.lft.to/lastmile_qr_scan"}, "fusion_lon": 0.0}, {"lat": 38.9062025, "is_disabled": 0, "type": "electric_scooter", "lon": -76.98980016666667, "bike_id": "10621075d34578d99fa08f7ca474032b", "fusion_lat": 0.0, "name": "10621075d34578d99fa08f7ca474032b", "is_reserved": 0, "rental_uris": {"android": "https://dc.lft.to/lastmile_qr_scan", "ios": "https://dc.lft.to/lastmile_qr_scan"}, "fusion_lon": 0.0}, {"lat": 38.8927895, "is_disabled": 0, "type": "electric_scooter", "lon": -77.05034933333333, "bike_id": "745f45a2db0119575abfd639d652d128", "fusion_lat": 0.0, "name": "745f45a2db0119575abfd639d652d128", "is_reserved": 0, "rental_uris": {"android": "https://dc.lft.to/lastmile_qr_scan", "ios": "https://dc.lft.to/lastmile_qr_scan"}, "fusion_lon": 0.0}, {"lat": 38.9248285, "is_disabled": 0, "type": "electric_bike", "lon": -76.9903095, "bike_id": "b36886c7a17bc106fe816beceb5435fc", "fusion_lat": 0.0, "name": "b36886c7a17bc106fe816beceb5435fc", "is_reserved": 0, "rental_uris": {"android": "https://dc.lft.to/lastmile_qr_scan", "ios": "https://dc.lft.to/lastmile_qr_scan"}, "fusion_lon": 0.0}, {"lat": 39.0885605, "is_disabled": 0, "type": "electric_bike", "lon": -77.17838233333333, "bike_id": "e2d2cf4711a32317210e7ffe4f2c1c41", "fusion_lat": 0.0, "name": "e2d2cf4711a32317210e7ffe4f2c1c41", "is_reserved": 0, "rental_uris": {"android": "https://dc.lft.to/lastmile_qr_scan", "ios": "https://dc.lft.to/lastmile_qr_scan"}, "fusion_lon": 0.0}, {"lat": 38.907568166666664, "is_disabled": 0, "type": "electric_bike", "lon": -77.06995266666667, "bike_id": "1d7e7d507d78c25163e989ed933ec1aa", "fusion_lat": 0.0, "name": "1d7e7d507d78c25163e989ed933ec1aa", "is_reserved": 0, "rental_uris": {"android": "https://dc.lft.to/lastmile_qr_scan", "ios": "https://dc.lft.to/lastmile_qr_scan"}, "fusion_lon": 0.0}, {"lat": 38.928569833333334, "is_disabled": 0, "type": "electric_bike", "lon": -77.22221116666667, "bike_id": "b89ba7894c0dad5cd9217bb0cee33042", "fusion_lat": 0.0, "name": "b89ba7894c0dad5cd9217bb0cee33042", "is_reserved": 0, "rental_uris": {"android": "https://dc.lft.to/lastmile_qr_scan", "ios": "https://dc.lft.to/lastmile_qr_scan"}, "fusion_lon": 0.0}, {"lat": 38.91761416666667, "is_disabled": 0, "type": "electric_scooter", "lon": -77.04768333333334, "bike_id": "c0351f5271b86d59476437e28bcb91d7", "fusion_lat": 0.0, "name": "c0351f5271b86d59476437e28bcb91d7", "is_reserved": 0, "rental_uris": {"android": "https://dc.lft.to/lastmile_qr_scan", "ios": "https://dc.lft.to/lastmile_qr_scan"}, "fusion_lon": 0.0}, {"lat": 38.906336, "is_disabled": 0, "type": "electric_scooter", "lon": -77.031441, "bike_id": "a85fa8ad4aee836368a0c1a8cda87687", "fusion_lat": 0.0, "name": "a85fa8ad4aee836368a0c1a8cda87687", "is_reserved": 0, "rental_uris": {"android": "https://dc.lft.to/lastmile_qr_scan", "ios": "https://dc.lft.to/lastmile_qr_scan"}, "fusion_lon": 0.0}, {"lat": 38.903119833333335, "is_disabled": 0, "type": "electric_scooter", "lon": -77.02876916666666, "bike_id": "fb404c1b498b17b6849d094494d6b3d0", "fusion_lat": 0.0, "name": "fb404c1b498b17b6849d094494d6b3d0", "is_reserved": 0, "rental_uris": {"android": "https://dc.lft.to/lastmile_qr_scan", "ios": "https://dc.lft.to/lastmile_qr_scan"}, "fusion_lon": 0.0}, {"lat": 38.905561166666665, "is_disabled": 0, "type": "electric_bike", "lon": -77.0570385, "bike_id": "54b214045a36c6d8796178c9409450e5", "fusion_lat": 0.0, "name": "54b214045a36c6d8796178c9409450e5", "is_reserved": 0, "rental_uris": {"android": "https://dc.lft.to/lastmile_qr_scan", "ios": "https://dc.lft.to/lastmile_qr_scan"}, "fusion_lon": 0.0}, {"lat": 38.98651483333333, "is_disabled": 0, "type": "electric_bike", "lon": -77.0562745, "bike_id": "67f261ebb29baed4e052201db396659f", "fusion_lat": 0.0, "name": "67f261ebb29baed4e052201db396659f", "is_reserved": 0, "rental_uris": {"android": "https://dc.lft.to/lastmile_qr_scan", "ios": "https://dc.lft.to/lastmile_qr_scan"}, "fusion_lon": 0.0}, {"lat": 38.900898833333336, "is_disabled": 0, "type": "electric_scooter", "lon": -76.99487833333333, "bike_id": "89d89324622bf874c2fb4b840be59430", "fusion_lat": 0.0, "name": "89d89324622bf874c2fb4b840be59430", "is_reserved": 0, "rental_uris": {"android": "https://dc.lft.to/lastmile_qr_scan", "ios": "https://dc.lft.to/lastmile_qr_scan"}, "fusion_lon": 0.0}, {"lat": 38.921898166666665, "is_disabled": 0, "type": "electric_scooter", "lon": -77.03979316666667, "bike_id": "562b56cc9f2f04c679a576d78abc1510", "fusion_lat": 0.0, "name": "562b56cc9f2f04c679a576d78abc1510", "is_reserved": 0, "rental_uris": {"android": "https://dc.lft.to/lastmile_qr_scan", "ios": "https://dc.lft.to/lastmile_qr_scan"}, "fusion_lon": 0.0}, {"lat": 38.8442355, "is_disabled": 0, "type": "electric_scooter", "lon": -76.9977635, "bike_id": "0f2d7248cf7fbe0bec2053fcaf1aad83", "fusion_lat": 0.0, "name": "0f2d7248cf7fbe0bec2053fcaf1aad83", "is_reserved": 0, "rental_uris": {"android": "https://dc.lft.to/lastmile_qr_scan", "ios": "https://dc.lft.to/lastmile_qr_scan"}, "fusion_lon": 0.0}, {"lat": 38.924821666666666, "is_disabled": 0, "type": "electric_scooter", "lon": -77.02836483333333, "bike_id": "6da2545d175e05e4a802fec90bd7ae65", "fusion_lat": 0.0, "name": "6da2545d175e05e4a802fec90bd7ae65", "is_reserved": 0, "rental_uris": {"android": "https://dc.lft.to/lastmile_qr_scan", "ios": "https://dc.lft.to/lastmile_qr_scan"}, "fusion_lon": 0.0}, {"lat": 38.914489833333334, "is_disabled": 0, "type": "electric_scooter", "lon": -77.0321485, "bike_id": "93f01cb81dfa7828c5b40f03f5757961", "fusion_lat": 0.0, "name": "93f01cb81dfa7828c5b40f03f5757961", "is_reserved": 0, "rental_uris": {"android": "https://dc.lft.to/lastmile_qr_scan", "ios": "https://dc.lft.to/lastmile_qr_scan"}, "fusion_lon": 0.0}, {"lat": 38.919214833333335, "is_disabled": 0, "type": "electric_scooter", "lon": -77.03392616666666, "bike_id": "f525efee88644cf710f76dfba287ee9f", "fusion_lat": 0.0, "name": "f525efee88644cf710f76dfba287ee9f", "is_reserved": 0, "rental_uris": {"android": "https://dc.lft.to/lastmile_qr_scan", "ios": "https://dc.lft.to/lastmile_qr_scan"}, "fusion_lon": 0.0}, {"lat": 38.90781666666667, "is_disabled": 0, "type": "electric_scooter", "lon": -77.03848483333333, "bike_id": "bafcb7345df12803eca14dad0783d9d4", "fusion_lat": 0.0, "name": "bafcb7345df12803eca14dad0783d9d4", "is_reserved": 0, "rental_uris": {"android": "https://dc.lft.to/lastmile_qr_scan", "ios": "https://dc.lft.to/lastmile_qr_scan"}, "fusion_lon": 0.0}, {"lat": 38.914708166666664, "is_disabled": 0, "type": "electric_scooter", "lon": -77.0035, "bike_id": "28474757ff2e4ce9d740072d9b7d60eb", "fusion_lat": 0.0, "name": "28474757ff2e4ce9d740072d9b7d60eb", "is_reserved": 0, "rental_uris": {"android": "https://dc.lft.to/lastmile_qr_scan", "ios": "https://dc.lft.to/lastmile_qr_scan"}, "fusion_lon": 0.0}, {"lat": 38.930827666666666, "is_disabled": 0, "type": "electric_scooter", "lon": -77.07747566666667, "bike_id": "705bf0b28039c744da90d88bb316562d", "fusion_lat": 0.0, "name": "705bf0b28039c744da90d88bb316562d", "is_reserved": 0, "rental_uris": {"android": "https://dc.lft.to/lastmile_qr_scan", "ios": "https://dc.lft.to/lastmile_qr_scan"}, "fusion_lon": 0.0}, {"lat": 38.86698666666667, "is_disabled": 0, "type": "electric_scooter", "lon": -76.98706883333334, "bike_id": "f16e332e39d413aa25326e9ec7dadc16", "fusion_lat": 0.0, "name": "f16e332e39d413aa25326e9ec7dadc16", "is_reserved": 0, "rental_uris": {"android": "https://dc.lft.to/lastmile_qr_scan", "ios": "https://dc.lft.to/lastmile_qr_scan"}, "fusion_lon": 0.0}, {"lat": 38.9094285, "is_disabled": 0, "type": "electric_scooter", "lon": -76.9895935, "bike_id": "897bdc560e4f75c131ef86dd9089ca46", "fusion_lat": 0.0, "name": "897bdc560e4f75c131ef86dd9089ca46", "is_reserved": 0, "rental_uris": {"android": "https://dc.lft.to/lastmile_qr_scan", "ios": "https://dc.lft.to/lastmile_qr_scan"}, "fusion_lon": 0.0}, {"lat": 38.898351166666664, "is_disabled": 0, "type": "electric_scooter", "lon": -77.02600983333333, "bike_id": "5cb209e0706bf4d4c149cd7fece80d81", "fusion_lat": 0.0, "name": "5cb209e0706bf4d4c149cd7fece80d81", "is_reserved": 0, "rental_uris": {"android": "https://dc.lft.to/lastmile_qr_scan", "ios": "https://dc.lft.to/lastmile_qr_scan"}, "fusion_lon": 0.0}, {"lat": 38.900736333333334, "is_disabled": 0, "type": "electric_scooter", "lon": -77.02711183333334, "bike_id": "25fb4fc3206a7b693ed30a9d00037a4e", "fusion_lat": 0.0, "name": "25fb4fc3206a7b693ed30a9d00037a4e", "is_reserved": 0, "rental_uris": {"android": "https://dc.lft.to/lastmile_qr_scan", "ios": "https://dc.lft.to/lastmile_qr_scan"}, "fusion_lon": 0.0}, {"lat": 38.957841333333334, "is_disabled": 0, "type": "electric_bike", "lon": -77.02753116666666, "bike_id": "192f03de16cd445cbef97be4f5a00fdb", "fusion_lat": 0.0, "name": "192f03de16cd445cbef97be4f5a00fdb", "is_reserved": 0, "rental_uris": {"android": "https://dc.lft.to/lastmile_qr_scan", "ios": "https://dc.lft.to/lastmile_qr_scan"}, "fusion_lon": 0.0}, {"lat": 38.840321, "is_disabled": 0, "type": "electric_bike", "lon": -76.975816, "bike_id": "00586034ff233682a2deff0985e80315", "fusion_lat": 0.0, "name": "00586034ff233682a2deff0985e80315", "is_reserved": 0, "rental_uris": {"android": "https://dc.lft.to/lastmile_qr_scan", "ios": "https://dc.lft.to/lastmile_qr_scan"}, "fusion_lon": 0.0}, {"lat": 38.900138, "is_disabled": 0, "type": "electric_scooter", "lon": -77.0500855, "bike_id": "05a134eb4f74eb992ee0d9ec4340f5c8", "fusion_lat": 0.0, "name": "05a134eb4f74eb992ee0d9ec4340f5c8", "is_reserved": 0, "rental_uris": {"android": "https://dc.lft.to/lastmile_qr_scan", "ios": "https://dc.lft.to/lastmile_qr_scan"}, "fusion_lon": 0.0}, {"lat": 38.900113166666664, "is_disabled": 0, "type": "electric_scooter", "lon": -76.99903633333334, "bike_id": "d0beac90b242b17cca2a3c7f76ace21d", "fusion_lat": 0.0, "name": "d0beac90b242b17cca2a3c7f76ace21d", "is_reserved": 0, "rental_uris": {"android": "https://dc.lft.to/lastmile_qr_scan", "ios": "https://dc.lft.to/lastmile_qr_scan"}, "fusion_lon": 0.0}, {"lat": 38.902861, "is_disabled": 0, "type": "electric_scooter", "lon": -77.0581645, "bike_id": "c7463f6ab0e605b2348f73c27f18bb06", "fusion_lat": 0.0, "name": "c7463f6ab0e605b2348f73c27f18bb06", "is_reserved": 0, "rental_uris": {"android": "https://dc.lft.to/lastmile_qr_scan", "ios": "https://dc.lft.to/lastmile_qr_scan"}, "fusion_lon": 0.0}, {"lat": 38.936028666666665, "is_disabled": 0, "type": "electric_scooter", "lon": -77.03168966666667, "bike_id": "cc21c0438200885620bdc5e65fcf580a", "fusion_lat": 0.0, "name": "cc21c0438200885620bdc5e65fcf580a", "is_reserved": 0, "rental_uris": {"android": "https://dc.lft.to/lastmile_qr_scan", "ios": "https://dc.lft.to/lastmile_qr_scan"}, "fusion_lon": 0.0}, {"lat": 38.89493616666667, "is_disabled": 0, "type": "electric_scooter", "lon": -77.002093, "bike_id": "6a49287d21bc2f81a09cc6545381cf25", "fusion_lat": 0.0, "name": "6a49287d21bc2f81a09cc6545381cf25", "is_reserved": 0, "rental_uris": {"android": "https://dc.lft.to/lastmile_qr_scan", "ios": "https://dc.lft.to/lastmile_qr_scan"}, "fusion_lon": 0.0}, {"lat": 38.92616, "is_disabled": 0, "type": "electric_scooter", "lon": -77.04194483333333, "bike_id": "1f5999e0dc5e035ffc394df0e7dc18ef", "fusion_lat": 0.0, "name": "1f5999e0dc5e035ffc394df0e7dc18ef", "is_reserved": 0, "rental_uris": {"android": "https://dc.lft.to/lastmile_qr_scan", "ios": "https://dc.lft.to/lastmile_qr_scan"}, "fusion_lon": 0.0}, {"lat": 38.9441785, "is_disabled": 0, "type": "electric_scooter", "lon": -77.06261416666666, "bike_id": "13c8b32a531663d5b6a3b86d68e2fcb1", "fusion_lat": 0.0, "name": "13c8b32a531663d5b6a3b86d68e2fcb1", "is_reserved": 0, "rental_uris": {"android": "https://dc.lft.to/lastmile_qr_scan", "ios": "https://dc.lft.to/lastmile_qr_scan"}, "fusion_lon": 0.0}, {"lat": 38.92028333333333, "is_disabled": 0, "type": "electric_scooter", "lon": -77.013287, "bike_id": "959096455eb358073c75ba70af0abe64", "fusion_lat": 0.0, "name": "959096455eb358073c75ba70af0abe64", "is_reserved": 0, "rental_uris": {"android": "https://dc.lft.to/lastmile_qr_scan", "ios": "https://dc.lft.to/lastmile_qr_scan"}, "fusion_lon": 0.0}, {"lat": 38.90754066666667, "is_disabled": 0, "type": "electric_scooter", "lon": -76.999053, "bike_id": "8e0198ec938777ab3f57d0c5b18dca26", "fusion_lat": 0.0, "name": "8e0198ec938777ab3f57d0c5b18dca26", "is_reserved": 0, "rental_uris": {"android": "https://dc.lft.to/lastmile_qr_scan", "ios": "https://dc.lft.to/lastmile_qr_scan"}, "fusion_lon": 0.0}, {"lat": 38.92718083333333, "is_disabled": 0, "type": "electric_bike", "lon": -77.02962416666666, "bike_id": "9ab738a95b4ce5fce89bf4668ea6c870", "fusion_lat": 0.0, "name": "9ab738a95b4ce5fce89bf4668ea6c870", "is_reserved": 0, "rental_uris": {"android": "https://dc.lft.to/lastmile_qr_scan", "ios": "https://dc.lft.to/lastmile_qr_scan"}, "fusion_lon": 0.0}, {"lat": 38.8962085, "is_disabled": 0, "type": "electric_scooter", "lon": -77.04484033333334, "bike_id": "7aaad082c1d18727f42424aeccf30668", "fusion_lat": 0.0, "name": "7aaad082c1d18727f42424aeccf30668", "is_reserved": 0, "rental_uris": {"android": "https://dc.lft.to/lastmile_qr_scan", "ios": "https://dc.lft.to/lastmile_qr_scan"}, "fusion_lon": 0.0}, {"lat": 38.884034, "is_disabled": 0, "type": "electric_bike", "lon": -76.9605765, "bike_id": "164d060d3636400c576c9e8082915e5d", "fusion_lat": 0.0, "name": "164d060d3636400c576c9e8082915e5d", "is_reserved": 0, "rental_uris": {"android": "https://dc.lft.to/lastmile_qr_scan", "ios": "https://dc.lft.to/lastmile_qr_scan"}, "fusion_lon": 0.0}, {"lat": 38.852066666666666, "is_disabled": 0, "type": "electric_bike", "lon": -77.10129716666667, "bike_id": "ece204159353c03027ecb4387be3343d", "fusion_lat": 0.0, "name": "ece204159353c03027ecb4387be3343d", "is_reserved": 0, "rental_uris": {"android": "https://dc.lft.to/lastmile_qr_scan", "ios": "https://dc.lft.to/lastmile_qr_scan"}, "fusion_lon": 0.0}, {"lat": 38.91924316666667, "is_disabled": 0, "type": "electric_scooter", "lon": -77.03427716666667, "bike_id": "6fc9d3fdb0778cbb8d52b8a9915d484d", "fusion_lat": 0.0, "name": "6fc9d3fdb0778cbb8d52b8a9915d484d", "is_reserved": 0, "rental_uris": {"android": "https://dc.lft.to/lastmile_qr_scan", "ios": "https://dc.lft.to/lastmile_qr_scan"}, "fusion_lon": 0.0}, {"lat": 38.915646833333334, "is_disabled": 0, "type": "electric_scooter", "lon": -77.0200545, "bike_id": "e07cec4e1bc85d0b6e05680e367347e5", "fusion_lat": 0.0, "name": "e07cec4e1bc85d0b6e05680e367347e5", "is_reserved": 0, "rental_uris": {"android": "https://dc.lft.to/lastmile_qr_scan", "ios": "https://dc.lft.to/lastmile_qr_scan"}, "fusion_lon": 0.0}, {"lat": 38.90270433333333, "is_disabled": 0, "type": "electric_scooter", "lon": -77.0386665, "bike_id": "e94747ca2685e7bef1a308ab05af123e", "fusion_lat": 0.0, "name": "e94747ca2685e7bef1a308ab05af123e", "is_reserved": 0, "rental_uris": {"android": "https://dc.lft.to/lastmile_qr_scan", "ios": "https://dc.lft.to/lastmile_qr_scan"}, "fusion_lon": 0.0}, {"lat": 38.879213, "is_disabled": 0, "type": "electric_scooter", "lon": -77.03092433333333, "bike_id": "b7f11fdfda2435f2cb298db2edb3029e", "fusion_lat": 0.0, "name": "b7f11fdfda2435f2cb298db2edb3029e", "is_reserved": 0, "rental_uris": {"android": "https://dc.lft.to/lastmile_qr_scan", "ios": "https://dc.lft.to/lastmile_qr_scan"}, "fusion_lon": 0.0}, {"lat": 38.911906333333334, "is_disabled": 0, "type": "electric_scooter", "lon": -77.0403235, "bike_id": "79dc25375bc0aa0dcb94a12a129d4fa4", "fusion_lat": 0.0, "name": "79dc25375bc0aa0dcb94a12a129d4fa4", "is_reserved": 0, "rental_uris": {"android": "https://dc.lft.to/lastmile_qr_scan", "ios": "https://dc.lft.to/lastmile_qr_scan"}, "fusion_lon": 0.0}, {"lat": 38.970870166666664, "is_disabled": 0, "type": "electric_bike", "lon": -77.06961916666667, "bike_id": "0c70e77744ebcaeca54a3b4721e29f6e", "fusion_lat": 0.0, "name": "0c70e77744ebcaeca54a3b4721e29f6e", "is_reserved": 0, "rental_uris": {"android": "https://dc.lft.to/lastmile_qr_scan", "ios": "https://dc.lft.to/lastmile_qr_scan"}, "fusion_lon": 0.0}, {"lat": 38.921076666666664, "is_disabled": 0, "type": "electric_scooter", "lon": -77.01800333333334, "bike_id": "1e068d12a1062bc3572e7442e798611e", "fusion_lat": 0.0, "name": "1e068d12a1062bc3572e7442e798611e", "is_reserved": 0, "rental_uris": {"android": "https://dc.lft.to/lastmile_qr_scan", "ios": "https://dc.lft.to/lastmile_qr_scan"}, "fusion_lon": 0.0}, {"lat": 38.908477833333336, "is_disabled": 0, "type": "electric_scooter", "lon": -76.99954283333334, "bike_id": "6da4d2044d74b4068746f4dbc323a92d", "fusion_lat": 0.0, "name": "6da4d2044d74b4068746f4dbc323a92d", "is_reserved": 0, "rental_uris": {"android": "https://dc.lft.to/lastmile_qr_scan", "ios": "https://dc.lft.to/lastmile_qr_scan"}, "fusion_lon": 0.0}, {"lat": 38.93337833333333, "is_disabled": 0, "type": "electric_scooter", "lon": -77.02620766666666, "bike_id": "cb95066fdf1958ba1e2fec875f731d82", "fusion_lat": 0.0, "name": "cb95066fdf1958ba1e2fec875f731d82", "is_reserved": 0, "rental_uris": {"android": "https://dc.lft.to/lastmile_qr_scan", "ios": "https://dc.lft.to/lastmile_qr_scan"}, "fusion_lon": 0.0}, {"lat": 38.880190166666665, "is_disabled": 0, "type": "electric_scooter", "lon": -77.0248145, "bike_id": "b9ddd312a68fc0aca1d38c7fdc75bde0", "fusion_lat": 0.0, "name": "b9ddd312a68fc0aca1d38c7fdc75bde0", "is_reserved": 0, "rental_uris": {"android": "https://dc.lft.to/lastmile_qr_scan", "ios": "https://dc.lft.to/lastmile_qr_scan"}, "fusion_lon": 0.0}, {"lat": 38.87684383333333, "is_disabled": 0, "type": "electric_bike", "lon": -77.017602, "bike_id": "9a508f61cd1730a6d49f726a6f84df0a", "fusion_lat": 0.0, "name": "9a508f61cd1730a6d49f726a6f84df0a", "is_reserved": 0, "rental_uris": {"android": "https://dc.lft.to/lastmile_qr_scan", "ios": "https://dc.lft.to/lastmile_qr_scan"}, "fusion_lon": 0.0}, {"lat": 38.90037016666667, "is_disabled": 0, "type": "electric_scooter", "lon": -76.994988, "bike_id": "043d5fb38b4cba22d58e79ff09dc9423", "fusion_lat": 0.0, "name": "043d5fb38b4cba22d58e79ff09dc9423", "is_reserved": 0, "rental_uris": {"android": "https://dc.lft.to/lastmile_qr_scan", "ios": "https://dc.lft.to/lastmile_qr_scan"}, "fusion_lon": 0.0}, {"lat": 38.9267965, "is_disabled": 0, "type": "electric_scooter", "lon": -77.021169, "bike_id": "8ba94827163a0b32d38b615154a0c017", "fusion_lat": 0.0, "name": "8ba94827163a0b32d38b615154a0c017", "is_reserved": 0, "rental_uris": {"android": "https://dc.lft.to/lastmile_qr_scan", "ios": "https://dc.lft.to/lastmile_qr_scan"}, "fusion_lon": 0.0}, {"lat": 38.839908, "is_disabled": 0, "type": "electric_bike", "lon": -77.00568483333333, "bike_id": "979d51d768c603eb19419c15974df17a", "fusion_lat": 0.0, "name": "979d51d768c603eb19419c15974df17a", "is_reserved": 0, "rental_uris": {"android": "https://dc.lft.to/lastmile_qr_scan", "ios": "https://dc.lft.to/lastmile_qr_scan"}, "fusion_lon": 0.0}, {"lat": 38.904020333333335, "is_disabled": 0, "type": "electric_scooter", "lon": -77.0592325, "bike_id": "a8efede98a20cf00869dd5a63977b12b", "fusion_lat": 0.0, "name": "a8efede98a20cf00869dd5a63977b12b", "is_reserved": 0, "rental_uris": {"android": "https://dc.lft.to/lastmile_qr_scan", "ios": "https://dc.lft.to/lastmile_qr_scan"}, "fusion_lon": 0.0}, {"lat": 38.91688033333333, "is_disabled": 0, "type": "electric_scooter", "lon": -77.03717533333334, "bike_id": "438d63e9fb3d801516400c7acc145c30", "fusion_lat": 0.0, "name": "438d63e9fb3d801516400c7acc145c30", "is_reserved": 0, "rental_uris": {"android": "https://dc.lft.to/lastmile_qr_scan", "ios": "https://dc.lft.to/lastmile_qr_scan"}, "fusion_lon": 0.0}, {"lat": 38.924027, "is_disabled": 0, "type": "electric_scooter", "lon": -77.05255666666666, "bike_id": "34daad4b5d61e217465e1f738f2ba677", "fusion_lat": 0.0, "name": "34daad4b5d61e217465e1f738f2ba677", "is_reserved": 0, "rental_uris": {"android": "https://dc.lft.to/lastmile_qr_scan", "ios": "https://dc.lft.to/lastmile_qr_scan"}, "fusion_lon": 0.0}, {"lat": 38.916002166666665, "is_disabled": 0, "type": "electric_scooter", "lon": -77.021483, "bike_id": "2acb92c5d9e09952582be47a4a17e617", "fusion_lat": 0.0, "name": "2acb92c5d9e09952582be47a4a17e617", "is_reserved": 0, "rental_uris": {"android": "https://dc.lft.to/lastmile_qr_scan", "ios": "https://dc.lft.to/lastmile_qr_scan"}, "fusion_lon": 0.0}, {"lat": 38.90986083333333, "is_disabled": 0, "type": "electric_scooter", "lon": -76.98463466666666, "bike_id": "e3b529bbf8aca0632f14950dd5a5be0c", "fusion_lat": 0.0, "name": "e3b529bbf8aca0632f14950dd5a5be0c", "is_reserved": 0, "rental_uris": {"android": "https://dc.lft.to/lastmile_qr_scan", "ios": "https://dc.lft.to/lastmile_qr_scan"}, "fusion_lon": 0.0}, {"lat": 38.936368, "is_disabled": 0, "type": "electric_scooter", "lon": -77.02499216666666, "bike_id": "501d264ff650db959486ead9a5c30b68", "fusion_lat": 0.0, "name": "501d264ff650db959486ead9a5c30b68", "is_reserved": 0, "rental_uris": {"android": "https://dc.lft.to/lastmile_qr_scan", "ios": "https://dc.lft.to/lastmile_qr_scan"}, "fusion_lon": 0.0}, {"lat": 38.922512166666664, "is_disabled": 0, "type": "electric_scooter", "lon": -77.04277666666667, "bike_id": "d74565c320c09a235a87a1f9b0320a9f", "fusion_lat": 0.0, "name": "d74565c320c09a235a87a1f9b0320a9f", "is_reserved": 0, "rental_uris": {"android": "https://dc.lft.to/lastmile_qr_scan", "ios": "https://dc.lft.to/lastmile_qr_scan"}, "fusion_lon": 0.0}, {"lat": 38.89342666666667, "is_disabled": 0, "type": "electric_scooter", "lon": -77.04140266666667, "bike_id": "dbd5076e75852f27bef80990b462693c", "fusion_lat": 0.0, "name": "dbd5076e75852f27bef80990b462693c", "is_reserved": 0, "rental_uris": {"android": "https://dc.lft.to/lastmile_qr_scan", "ios": "https://dc.lft.to/lastmile_qr_scan"}, "fusion_lon": 0.0}, {"lat": 38.928499, "is_disabled": 0, "type": "electric_bike", "lon": -77.10675783333333, "bike_id": "125bfff3bca29a9749ec843f6fc7f620", "fusion_lat": 0.0, "name": "125bfff3bca29a9749ec843f6fc7f620", "is_reserved": 0, "rental_uris": {"android": "https://dc.lft.to/lastmile_qr_scan", "ios": "https://dc.lft.to/lastmile_qr_scan"}, "fusion_lon": 0.0}, {"lat": 38.91637133333333, "is_disabled": 0, "type": "electric_scooter", "lon": -77.04787516666667, "bike_id": "955bccc2a7353ab5cbbb73dd895ecf47", "fusion_lat": 0.0, "name": "955bccc2a7353ab5cbbb73dd895ecf47", "is_reserved": 0, "rental_uris": {"android": "https://dc.lft.to/lastmile_qr_scan", "ios": "https://dc.lft.to/lastmile_qr_scan"}, "fusion_lon": 0.0}, {"lat": 38.91490483333333, "is_disabled": 0, "type": "electric_scooter", "lon": -77.03260383333334, "bike_id": "ebcb0368d87a96f490e5b6bf0087150b", "fusion_lat": 0.0, "name": "ebcb0368d87a96f490e5b6bf0087150b", "is_reserved": 0, "rental_uris": {"android": "https://dc.lft.to/lastmile_qr_scan", "ios": "https://dc.lft.to/lastmile_qr_scan"}, "fusion_lon": 0.0}, {"lat": 38.9168395, "is_disabled": 0, "type": "electric_scooter", "lon": -77.02557883333333, "bike_id": "54efa6eebc43bccc75f9b816ed984dc9", "fusion_lat": 0.0, "name": "54efa6eebc43bccc75f9b816ed984dc9", "is_reserved": 0, "rental_uris": {"android": "https://dc.lft.to/lastmile_qr_scan", "ios": "https://dc.lft.to/lastmile_qr_scan"}, "fusion_lon": 0.0}, {"lat": 38.925377833333336, "is_disabled": 0, "type": "electric_scooter", "lon": -77.0443225, "bike_id": "91cf203ad75efca96e7e4f689edddb7e", "fusion_lat": 0.0, "name": "91cf203ad75efca96e7e4f689edddb7e", "is_reserved": 0, "rental_uris": {"android": "https://dc.lft.to/lastmile_qr_scan", "ios": "https://dc.lft.to/lastmile_qr_scan"}, "fusion_lon": 0.0}, {"lat": 38.93200983333333, "is_disabled": 0, "type": "electric_scooter", "lon": -77.03660516666666, "bike_id": "5769fc32ff84cf496ae462662f2f2487", "fusion_lat": 0.0, "name": "5769fc32ff84cf496ae462662f2f2487", "is_reserved": 0, "rental_uris": {"android": "https://dc.lft.to/lastmile_qr_scan", "ios": "https://dc.lft.to/lastmile_qr_scan"}, "fusion_lon": 0.0}, {"lat": 38.900308833333334, "is_disabled": 0, "type": "electric_scooter", "lon": -76.99392933333333, "bike_id": "2c5957fbb3bd1c785e1f765571f5d564", "fusion_lat": 0.0, "name": "2c5957fbb3bd1c785e1f765571f5d564", "is_reserved": 0, "rental_uris": {"android": "https://dc.lft.to/lastmile_qr_scan", "ios": "https://dc.lft.to/lastmile_qr_scan"}, "fusion_lon": 0.0}, {"lat": 38.90102516666666, "is_disabled": 0, "type": "electric_scooter", "lon": -77.018101, "bike_id": "c147d5656afbd1562223bf324f83ffd8", "fusion_lat": 0.0, "name": "c147d5656afbd1562223bf324f83ffd8", "is_reserved": 0, "rental_uris": {"android": "https://dc.lft.to/lastmile_qr_scan", "ios": "https://dc.lft.to/lastmile_qr_scan"}, "fusion_lon": 0.0}, {"lat": 38.945098333333334, "is_disabled": 0, "type": "electric_scooter", "lon": -77.06392833333334, "bike_id": "38a53a2f31251abf595642a9ca32d9af", "fusion_lat": 0.0, "name": "38a53a2f31251abf595642a9ca32d9af", "is_reserved": 0, "rental_uris": {"android": "https://dc.lft.to/lastmile_qr_scan", "ios": "https://dc.lft.to/lastmile_qr_scan"}, "fusion_lon": 0.0}, {"lat": 38.91285716666667, "is_disabled": 0, "type": "electric_scooter", "lon": -77.0384745, "bike_id": "41cc8142a2f00b5ed27d101cc2812c02", "fusion_lat": 0.0, "name": "41cc8142a2f00b5ed27d101cc2812c02", "is_reserved": 0, "rental_uris": {"android": "https://dc.lft.to/lastmile_qr_scan", "ios": "https://dc.lft.to/lastmile_qr_scan"}, "fusion_lon": 0.0}, {"lat": 38.94104883333333, "is_disabled": 0, "type": "electric_scooter", "lon": -77.00043566666666, "bike_id": "ee442a2c7b78c8dece25c9682b34c424", "fusion_lat": 0.0, "name": "ee442a2c7b78c8dece25c9682b34c424", "is_reserved": 0, "rental_uris": {"android": "https://dc.lft.to/lastmile_qr_scan", "ios": "https://dc.lft.to/lastmile_qr_scan"}, "fusion_lon": 0.0}, {"lat": 38.895536166666666, "is_disabled": 0, "type": "electric_scooter", "lon": -77.00363166666666, "bike_id": "501db15694e8a46dd6afb76c3f554a6f", "fusion_lat": 0.0, "name": "501db15694e8a46dd6afb76c3f554a6f", "is_reserved": 0, "rental_uris": {"android": "https://dc.lft.to/lastmile_qr_scan", "ios": "https://dc.lft.to/lastmile_qr_scan"}, "fusion_lon": 0.0}, {"lat": 38.90773566666667, "is_disabled": 0, "type": "electric_scooter", "lon": -77.01101783333333, "bike_id": "d444bbf5fd557b39e35a0c0f2fd10c4a", "fusion_lat": 0.0, "name": "d444bbf5fd557b39e35a0c0f2fd10c4a", "is_reserved": 0, "rental_uris": {"android": "https://dc.lft.to/lastmile_qr_scan", "ios": "https://dc.lft.to/lastmile_qr_scan"}, "fusion_lon": 0.0}, {"lat": 38.853130666666665, "is_disabled": 0, "type": "electric_scooter", "lon": -76.98017933333334, "bike_id": "e151cc4da31f269326b2313de456b76b", "fusion_lat": 0.0, "name": "e151cc4da31f269326b2313de456b76b", "is_reserved": 0, "rental_uris": {"android": "https://dc.lft.to/lastmile_qr_scan", "ios": "https://dc.lft.to/lastmile_qr_scan"}, "fusion_lon": 0.0}, {"lat": 38.962051833333334, "is_disabled": 0, "type": "electric_bike", "lon": -77.03512116666667, "bike_id": "7af77e6ed7ba9c7611714db2e61acda1", "fusion_lat": 0.0, "name": "7af77e6ed7ba9c7611714db2e61acda1", "is_reserved": 0, "rental_uris": {"android": "https://dc.lft.to/lastmile_qr_scan", "ios": "https://dc.lft.to/lastmile_qr_scan"}, "fusion_lon": 0.0}, {"lat": 38.81346766666667, "is_disabled": 0, "type": "electric_bike", "lon": -77.04925233333333, "bike_id": "f946b0b6acdc1b284ee935fb72481088", "fusion_lat": 0.0, "name": "f946b0b6acdc1b284ee935fb72481088", "is_reserved": 0, "rental_uris": {"android": "https://dc.lft.to/lastmile_qr_scan", "ios": "https://dc.lft.to/lastmile_qr_scan"}, "fusion_lon": 0.0}, {"lat": 38.900071833333335, "is_disabled": 0, "type": "electric_scooter", "lon": -77.0331705, "bike_id": "70ea9baee6b4ed5d24f5b45e13a87eee", "fusion_lat": 0.0, "name": "70ea9baee6b4ed5d24f5b45e13a87eee", "is_reserved": 0, "rental_uris": {"android": "https://dc.lft.to/lastmile_qr_scan", "ios": "https://dc.lft.to/lastmile_qr_scan"}, "fusion_lon": 0.0}, {"lat": 38.871921666666665, "is_disabled": 0, "type": "electric_scooter", "lon": -77.01353516666667, "bike_id": "81985409a63b5a286331b096ad4f6515", "fusion_lat": 0.0, "name": "81985409a63b5a286331b096ad4f6515", "is_reserved": 0, "rental_uris": {"android": "https://dc.lft.to/lastmile_qr_scan", "ios": "https://dc.lft.to/lastmile_qr_scan"}, "fusion_lon": 0.0}, {"lat": 38.909794833333336, "is_disabled": 0, "type": "electric_scooter", "lon": -77.031746, "bike_id": "60c0e6c703557a5b13fa9e3d8a5f59b0", "fusion_lat": 0.0, "name": "60c0e6c703557a5b13fa9e3d8a5f59b0", "is_reserved": 0, "rental_uris": {"android": "https://dc.lft.to/lastmile_qr_scan", "ios": "https://dc.lft.to/lastmile_qr_scan"}, "fusion_lon": 0.0}, {"lat": 38.907166333333336, "is_disabled": 0, "type": "electric_scooter", "lon": -77.02987733333333, "bike_id": "4673bea567d9c62600a88ae1aa87f82a", "fusion_lat": 0.0, "name": "4673bea567d9c62600a88ae1aa87f82a", "is_reserved": 0, "rental_uris": {"android": "https://dc.lft.to/lastmile_qr_scan", "ios": "https://dc.lft.to/lastmile_qr_scan"}, "fusion_lon": 0.0}, {"lat": 38.925759, "is_disabled": 0, "type": "electric_scooter", "lon": -77.04008083333333, "bike_id": "ac118f5167543ad6120e47ad883d0d24", "fusion_lat": 0.0, "name": "ac118f5167543ad6120e47ad883d0d24", "is_reserved": 0, "rental_uris": {"android": "https://dc.lft.to/lastmile_qr_scan", "ios": "https://dc.lft.to/lastmile_qr_scan"}, "fusion_lon": 0.0}, {"lat": 38.91123233333333, "is_disabled": 0, "type": "electric_scooter", "lon": -77.038145, "bike_id": "6e6142b76b22b54a6d4671db9ba134d3", "fusion_lat": 0.0, "name": "6e6142b76b22b54a6d4671db9ba134d3", "is_reserved": 0, "rental_uris": {"android": "https://dc.lft.to/lastmile_qr_scan", "ios": "https://dc.lft.to/lastmile_qr_scan"}, "fusion_lon": 0.0}, {"lat": 38.92126316666667, "is_disabled": 0, "type": "electric_scooter", "lon": -77.04231166666666, "bike_id": "0431dd86bfc20477964fab95f27331c0", "fusion_lat": 0.0, "name": "0431dd86bfc20477964fab95f27331c0", "is_reserved": 0, "rental_uris": {"android": "https://dc.lft.to/lastmile_qr_scan", "ios": "https://dc.lft.to/lastmile_qr_scan"}, "fusion_lon": 0.0}, {"lat": 38.89607316666667, "is_disabled": 0, "type": "electric_scooter", "lon": -76.95653216666666, "bike_id": "3987770e1ef8275815dafb2533d41d9b", "fusion_lat": 0.0, "name": "3987770e1ef8275815dafb2533d41d9b", "is_reserved": 0, "rental_uris": {"android": "https://dc.lft.to/lastmile_qr_scan", "ios": "https://dc.lft.to/lastmile_qr_scan"}, "fusion_lon": 0.0}, {"lat": 38.904324833333334, "is_disabled": 0, "type": "electric_scooter", "lon": -77.002142, "bike_id": "f2e56e7c2ecc0984f7fb7803e76e5435", "fusion_lat": 0.0, "name": "f2e56e7c2ecc0984f7fb7803e76e5435", "is_reserved": 0, "rental_uris": {"android": "https://dc.lft.to/lastmile_qr_scan", "ios": "https://dc.lft.to/lastmile_qr_scan"}, "fusion_lon": 0.0}, {"lat": 38.93869816666667, "is_disabled": 0, "type": "electric_scooter", "lon": -77.0311925, "bike_id": "b4a6f71589fb41736225355cb3c0f369", "fusion_lat": 0.0, "name": "b4a6f71589fb41736225355cb3c0f369", "is_reserved": 0, "rental_uris": {"android": "https://dc.lft.to/lastmile_qr_scan", "ios": "https://dc.lft.to/lastmile_qr_scan"}, "fusion_lon": 0.0}, {"lat": 38.88019333333333, "is_disabled": 0, "type": "electric_scooter", "lon": -76.96015066666666, "bike_id": "d2a18b9621f4e2200741bb412ec3b18b", "fusion_lat": 0.0, "name": "d2a18b9621f4e2200741bb412ec3b18b", "is_reserved": 0, "rental_uris": {"android": "https://dc.lft.to/lastmile_qr_scan", "ios": "https://dc.lft.to/lastmile_qr_scan"}, "fusion_lon": 0.0}, {"lat": 38.916851333333334, "is_disabled": 0, "type": "electric_scooter", "lon": -77.03747433333334, "bike_id": "0779f73e566b43bdc8efd002cafb1f83", "fusion_lat": 0.0, "name": "0779f73e566b43bdc8efd002cafb1f83", "is_reserved": 0, "rental_uris": {"android": "https://dc.lft.to/lastmile_qr_scan", "ios": "https://dc.lft.to/lastmile_qr_scan"}, "fusion_lon": 0.0}, {"lat": 38.92066, "is_disabled": 0, "type": "electric_scooter", "lon": -77.04374866666667, "bike_id": "3641986b557d9613f2398c0b83706954", "fusion_lat": 0.0, "name": "3641986b557d9613f2398c0b83706954", "is_reserved": 0, "rental_uris": {"android": "https://dc.lft.to/lastmile_qr_scan", "ios": "https://dc.lft.to/lastmile_qr_scan"}, "fusion_lon": 0.0}, {"lat": 38.93854283333334, "is_disabled": 0, "type": "electric_scooter", "lon": -77.030839, "bike_id": "e86c024321b9b3f4429ff4ac6ddaff58", "fusion_lat": 0.0, "name": "e86c024321b9b3f4429ff4ac6ddaff58", "is_reserved": 0, "rental_uris": {"android": "https://dc.lft.to/lastmile_qr_scan", "ios": "https://dc.lft.to/lastmile_qr_scan"}, "fusion_lon": 0.0}, {"lat": 38.900313833333335, "is_disabled": 0, "type": "electric_scooter", "lon": -76.98980233333333, "bike_id": "efd03bae257fef7c9f5f91fa23c31ffd", "fusion_lat": 0.0, "name": "efd03bae257fef7c9f5f91fa23c31ffd", "is_reserved": 0, "rental_uris": {"android": "https://dc.lft.to/lastmile_qr_scan", "ios": "https://dc.lft.to/lastmile_qr_scan"}, "fusion_lon": 0.0}, {"lat": 38.90305866666667, "is_disabled": 0, "type": "electric_bike", "lon": -77.01629616666666, "bike_id": "c12af73ad3c4aa959faabb687c0ecccb", "fusion_lat": 0.0, "name": "c12af73ad3c4aa959faabb687c0ecccb", "is_reserved": 0, "rental_uris": {"android": "https://dc.lft.to/lastmile_qr_scan", "ios": "https://dc.lft.to/lastmile_qr_scan"}, "fusion_lon": 0.0}, {"lat": 38.866443833333335, "is_disabled": 0, "type": "electric_scooter", "lon": -76.98883583333334, "bike_id": "d2d2233abbbffd6d5476bffe6a1cd017", "fusion_lat": 0.0, "name": "d2d2233abbbffd6d5476bffe6a1cd017", "is_reserved": 0, "rental_uris": {"android": "https://dc.lft.to/lastmile_qr_scan", "ios": "https://dc.lft.to/lastmile_qr_scan"}, "fusion_lon": 0.0}, {"lat": 38.897149666666664, "is_disabled": 0, "type": "electric_scooter", "lon": -77.00794933333333, "bike_id": "ceb290620747b559a21fdf630c002c5f", "fusion_lat": 0.0, "name": "ceb290620747b559a21fdf630c002c5f", "is_reserved": 0, "rental_uris": {"android": "https://dc.lft.to/lastmile_qr_scan", "ios": "https://dc.lft.to/lastmile_qr_scan"}, "fusion_lon": 0.0}, {"lat": 38.898041166666665, "is_disabled": 0, "type": "electric_scooter", "lon": -77.05022266666667, "bike_id": "f66b26cfb722a5a39e209835194c965a", "fusion_lat": 0.0, "name": "f66b26cfb722a5a39e209835194c965a", "is_reserved": 0, "rental_uris": {"android": "https://dc.lft.to/lastmile_qr_scan", "ios": "https://dc.lft.to/lastmile_qr_scan"}, "fusion_lon": 0.0}, {"lat": 38.90582716666667, "is_disabled": 0, "type": "electric_scooter", "lon": -77.03397616666666, "bike_id": "f98092fcfa2464fe9782f257715e0f80", "fusion_lat": 0.0, "name": "f98092fcfa2464fe9782f257715e0f80", "is_reserved": 0, "rental_uris": {"android": "https://dc.lft.to/lastmile_qr_scan", "ios": "https://dc.lft.to/lastmile_qr_scan"}, "fusion_lon": 0.0}, {"lat": 38.79322766666667, "is_disabled": 0, "type": "electric_bike", "lon": -77.0401595, "bike_id": "abe54fdfa150fde52b50a83ed45454e1", "fusion_lat": 0.0, "name": "abe54fdfa150fde52b50a83ed45454e1", "is_reserved": 0, "rental_uris": {"android": "https://dc.lft.to/lastmile_qr_scan", "ios": "https://dc.lft.to/lastmile_qr_scan"}, "fusion_lon": 0.0}, {"lat": 38.9490405, "is_disabled": 0, "type": "electric_bike", "lon": -76.972389, "bike_id": "5e1d7530e0ce8fc07cb7c5aaa45f976f", "fusion_lat": 0.0, "name": "5e1d7530e0ce8fc07cb7c5aaa45f976f", "is_reserved": 0, "rental_uris": {"android": "https://dc.lft.to/lastmile_qr_scan", "ios": "https://dc.lft.to/lastmile_qr_scan"}, "fusion_lon": 0.0}, {"lat": 38.92683433333333, "is_disabled": 0, "type": "electric_scooter", "lon": -77.01570666666667, "bike_id": "ef53641f6d8641f480555ae0dcc8edf8", "fusion_lat": 0.0, "name": "ef53641f6d8641f480555ae0dcc8edf8", "is_reserved": 0, "rental_uris": {"android": "https://dc.lft.to/lastmile_qr_scan", "ios": "https://dc.lft.to/lastmile_qr_scan"}, "fusion_lon": 0.0}, {"lat": 38.883339166666666, "is_disabled": 0, "type": "electric_scooter", "lon": -77.00930883333334, "bike_id": "bcdb5760486148756008e6e274315888", "fusion_lat": 0.0, "name": "bcdb5760486148756008e6e274315888", "is_reserved": 0, "rental_uris": {"android": "https://dc.lft.to/lastmile_qr_scan", "ios": "https://dc.lft.to/lastmile_qr_scan"}, "fusion_lon": 0.0}, {"lat": 38.915525833333334, "is_disabled": 0, "type": "electric_scooter", "lon": -77.037897, "bike_id": "b8ccc4292c0245ab92daab32ce18033f", "fusion_lat": 0.0, "name": "b8ccc4292c0245ab92daab32ce18033f", "is_reserved": 0, "rental_uris": {"android": "https://dc.lft.to/lastmile_qr_scan", "ios": "https://dc.lft.to/lastmile_qr_scan"}, "fusion_lon": 0.0}, {"lat": 38.8865135, "is_disabled": 0, "type": "electric_bike", "lon": -77.16232116666667, "bike_id": "2f291f66a87e08c93c59bba6ac156b68", "fusion_lat": 0.0, "name": "2f291f66a87e08c93c59bba6ac156b68", "is_reserved": 0, "rental_uris": {"android": "https://dc.lft.to/lastmile_qr_scan", "ios": "https://dc.lft.to/lastmile_qr_scan"}, "fusion_lon": 0.0}, {"lat": 38.9388235, "is_disabled": 0, "type": "electric_scooter", "lon": -77.03283383333333, "bike_id": "1ea39355c71449bae767131c6ff987b1", "fusion_lat": 0.0, "name": "1ea39355c71449bae767131c6ff987b1", "is_reserved": 0, "rental_uris": {"android": "https://dc.lft.to/lastmile_qr_scan", "ios": "https://dc.lft.to/lastmile_qr_scan"}, "fusion_lon": 0.0}, {"lat": 38.901089666666664, "is_disabled": 0, "type": "electric_scooter", "lon": -76.995469, "bike_id": "1ae2c00666c5af983207e6f3047c14c4", "fusion_lat": 0.0, "name": "1ae2c00666c5af983207e6f3047c14c4", "is_reserved": 0, "rental_uris": {"android": "https://dc.lft.to/lastmile_qr_scan", "ios": "https://dc.lft.to/lastmile_qr_scan"}, "fusion_lon": 0.0}, {"lat": 38.900613666666665, "is_disabled": 0, "type": "electric_scooter", "lon": -77.002024, "bike_id": "d7daddd69e3d696b163829e6260be2ce", "fusion_lat": 0.0, "name": "d7daddd69e3d696b163829e6260be2ce", "is_reserved": 0, "rental_uris": {"android": "https://dc.lft.to/lastmile_qr_scan", "ios": "https://dc.lft.to/lastmile_qr_scan"}, "fusion_lon": 0.0}, {"lat": 38.911366666666666, "is_disabled": 0, "type": "electric_scooter", "lon": -77.027002, "bike_id": "fb83becca651eef7e782fba00841a76f", "fusion_lat": 0.0, "name": "fb83becca651eef7e782fba00841a76f", "is_reserved": 0, "rental_uris": {"android": "https://dc.lft.to/lastmile_qr_scan", "ios": "https://dc.lft.to/lastmile_qr_scan"}, "fusion_lon": 0.0}, {"lat": 38.90524833333333, "is_disabled": 0, "type": "electric_scooter", "lon": -77.03145733333334, "bike_id": "907a46d580246508835b1289b1daf67d", "fusion_lat": 0.0, "name": "907a46d580246508835b1289b1daf67d", "is_reserved": 0, "rental_uris": {"android": "https://dc.lft.to/lastmile_qr_scan", "ios": "https://dc.lft.to/lastmile_qr_scan"}, "fusion_lon": 0.0}, {"lat": 38.917600666666665, "is_disabled": 0, "type": "electric_scooter", "lon": -77.02200716666667, "bike_id": "cf0b9f862a936176fdd52bb2a0af2a05", "fusion_lat": 0.0, "name": "cf0b9f862a936176fdd52bb2a0af2a05", "is_reserved": 0, "rental_uris": {"android": "https://dc.lft.to/lastmile_qr_scan", "ios": "https://dc.lft.to/lastmile_qr_scan"}, "fusion_lon": 0.0}, {"lat": 38.91721166666667, "is_disabled": 0, "type": "electric_scooter", "lon": -77.0228195, "bike_id": "03c0f08602bb806fe6beb962bc262f46", "fusion_lat": 0.0, "name": "03c0f08602bb806fe6beb962bc262f46", "is_reserved": 0, "rental_uris": {"android": "https://dc.lft.to/lastmile_qr_scan", "ios": "https://dc.lft.to/lastmile_qr_scan"}, "fusion_lon": 0.0}, {"lat": 38.91601283333333, "is_disabled": 0, "type": "electric_scooter", "lon": -77.03850283333334, "bike_id": "f997a0e998f7e8e2f13c980fed381f52", "fusion_lat": 0.0, "name": "f997a0e998f7e8e2f13c980fed381f52", "is_reserved": 0, "rental_uris": {"android": "https://dc.lft.to/lastmile_qr_scan", "ios": "https://dc.lft.to/lastmile_qr_scan"}, "fusion_lon": 0.0}, {"lat": 38.904171, "is_disabled": 0, "type": "electric_scooter", "lon": -77.0688805, "bike_id": "aae96fe6d34b1dbb7a2dfb501927e730", "fusion_lat": 0.0, "name": "aae96fe6d34b1dbb7a2dfb501927e730", "is_reserved": 0, "rental_uris": {"android": "https://dc.lft.to/lastmile_qr_scan", "ios": "https://dc.lft.to/lastmile_qr_scan"}, "fusion_lon": 0.0}, {"lat": 38.91286083333333, "is_disabled": 0, "type": "electric_scooter", "lon": -77.023856, "bike_id": "1802811e419ad2c849f3904ebbeb5890", "fusion_lat": 0.0, "name": "1802811e419ad2c849f3904ebbeb5890", "is_reserved": 0, "rental_uris": {"android": "https://dc.lft.to/lastmile_qr_scan", "ios": "https://dc.lft.to/lastmile_qr_scan"}, "fusion_lon": 0.0}, {"lat": 38.887376833333335, "is_disabled": 0, "type": "electric_scooter", "lon": -77.015281, "bike_id": "000477012058037f6755ab67475ae5c8", "fusion_lat": 0.0, "name": "000477012058037f6755ab67475ae5c8", "is_reserved": 0, "rental_uris": {"android": "https://dc.lft.to/lastmile_qr_scan", "ios": "https://dc.lft.to/lastmile_qr_scan"}, "fusion_lon": 0.0}, {"lat": 38.915508, "is_disabled": 0, "type": "electric_bike", "lon": -77.03172116666667, "bike_id": "82805d266813d66bac9434a829d06ac7", "fusion_lat": 0.0, "name": "82805d266813d66bac9434a829d06ac7", "is_reserved": 0, "rental_uris": {"android": "https://dc.lft.to/lastmile_qr_scan", "ios": "https://dc.lft.to/lastmile_qr_scan"}, "fusion_lon": 0.0}, {"lat": 38.916858833333336, "is_disabled": 0, "type": "electric_scooter", "lon": -77.02404716666666, "bike_id": "72d424b4ed496dda0962233c93a1166a", "fusion_lat": 0.0, "name": "72d424b4ed496dda0962233c93a1166a", "is_reserved": 0, "rental_uris": {"android": "https://dc.lft.to/lastmile_qr_scan", "ios": "https://dc.lft.to/lastmile_qr_scan"}, "fusion_lon": 0.0}, {"lat": 38.915666333333334, "is_disabled": 0, "type": "electric_scooter", "lon": -77.0317175, "bike_id": "656ea7066f789cc0398927c190b23949", "fusion_lat": 0.0, "name": "656ea7066f789cc0398927c190b23949", "is_reserved": 0, "rental_uris": {"android": "https://dc.lft.to/lastmile_qr_scan", "ios": "https://dc.lft.to/lastmile_qr_scan"}, "fusion_lon": 0.0}, {"lat": 38.922427166666665, "is_disabled": 0, "type": "electric_scooter", "lon": -77.04251966666666, "bike_id": "48804641711094bb487f56f5cd3cb685", "fusion_lat": 0.0, "name": "48804641711094bb487f56f5cd3cb685", "is_reserved": 0, "rental_uris": {"android": "https://dc.lft.to/lastmile_qr_scan", "ios": "https://dc.lft.to/lastmile_qr_scan"}, "fusion_lon": 0.0}, {"lat": 38.91713166666667, "is_disabled": 0, "type": "electric_scooter", "lon": -77.02857566666667, "bike_id": "eaea7f04376ddfe7825167af1d2b3b79", "fusion_lat": 0.0, "name": "eaea7f04376ddfe7825167af1d2b3b79", "is_reserved": 0, "rental_uris": {"android": "https://dc.lft.to/lastmile_qr_scan", "ios": "https://dc.lft.to/lastmile_qr_scan"}, "fusion_lon": 0.0}, {"lat": 38.90006483333333, "is_disabled": 0, "type": "electric_scooter", "lon": -76.9222995, "bike_id": "2602fc5e67b2b5cc91f9a7f8e2ec4934", "fusion_lat": 0.0, "name": "2602fc5e67b2b5cc91f9a7f8e2ec4934", "is_reserved": 0, "rental_uris": {"android": "https://dc.lft.to/lastmile_qr_scan", "ios": "https://dc.lft.to/lastmile_qr_scan"}, "fusion_lon": 0.0}, {"lat": 38.9041375, "is_disabled": 0, "type": "electric_scooter", "lon": -77.020298, "bike_id": "3e4e3dbcd018f0435c35abff37e1980f", "fusion_lat": 0.0, "name": "3e4e3dbcd018f0435c35abff37e1980f", "is_reserved": 0, "rental_uris": {"android": "https://dc.lft.to/lastmile_qr_scan", "ios": "https://dc.lft.to/lastmile_qr_scan"}, "fusion_lon": 0.0}, {"lat": 38.914474, "is_disabled": 0, "type": "electric_scooter", "lon": -77.02971016666666, "bike_id": "fc22d7d009b145452be947c86bb54ed1", "fusion_lat": 0.0, "name": "fc22d7d009b145452be947c86bb54ed1", "is_reserved": 0, "rental_uris": {"android": "https://dc.lft.to/lastmile_qr_scan", "ios": "https://dc.lft.to/lastmile_qr_scan"}, "fusion_lon": 0.0}, {"lat": 38.93335416666667, "is_disabled": 0, "type": "electric_scooter", "lon": -76.99306066666666, "bike_id": "24e1094d6eb62261c05707f7501a1017", "fusion_lat": 0.0, "name": "24e1094d6eb62261c05707f7501a1017", "is_reserved": 0, "rental_uris": {"android": "https://dc.lft.to/lastmile_qr_scan", "ios": "https://dc.lft.to/lastmile_qr_scan"}, "fusion_lon": 0.0}, {"lat": 38.931424166666666, "is_disabled": 0, "type": "electric_scooter", "lon": -77.021523, "bike_id": "9abeda693d723ece27e0ea92f3654b01", "fusion_lat": 0.0, "name": "9abeda693d723ece27e0ea92f3654b01", "is_reserved": 0, "rental_uris": {"android": "https://dc.lft.to/lastmile_qr_scan", "ios": "https://dc.lft.to/lastmile_qr_scan"}, "fusion_lon": 0.0}, {"lat": 38.899472333333335, "is_disabled": 0, "type": "electric_scooter", "lon": -77.00346266666666, "bike_id": "be89b1db198defaa03cac8ffed999b80", "fusion_lat": 0.0, "name": "be89b1db198defaa03cac8ffed999b80", "is_reserved": 0, "rental_uris": {"android": "https://dc.lft.to/lastmile_qr_scan", "ios": "https://dc.lft.to/lastmile_qr_scan"}, "fusion_lon": 0.0}, {"lat": 38.9095775, "is_disabled": 0, "type": "electric_scooter", "lon": -77.021599, "bike_id": "b9b2c416bb545e7b9d620410f23a448f", "fusion_lat": 0.0, "name": "b9b2c416bb545e7b9d620410f23a448f", "is_reserved": 0, "rental_uris": {"android": "https://dc.lft.to/lastmile_qr_scan", "ios": "https://dc.lft.to/lastmile_qr_scan"}, "fusion_lon": 0.0}, {"lat": 38.954106833333334, "is_disabled": 0, "type": "electric_bike", "lon": -76.98053616666667, "bike_id": "997f4fd26cfbbd36ed85773539ecd585", "fusion_lat": 0.0, "name": "997f4fd26cfbbd36ed85773539ecd585", "is_reserved": 0, "rental_uris": {"android": "https://dc.lft.to/lastmile_qr_scan", "ios": "https://dc.lft.to/lastmile_qr_scan"}, "fusion_lon": 0.0}, {"lat": 38.901040333333334, "is_disabled": 0, "type": "electric_scooter", "lon": -77.03308533333333, "bike_id": "73dd177ba565dfb01b10bb03d3dcdbc8", "fusion_lat": 0.0, "name": "73dd177ba565dfb01b10bb03d3dcdbc8", "is_reserved": 0, "rental_uris": {"android": "https://dc.lft.to/lastmile_qr_scan", "ios": "https://dc.lft.to/lastmile_qr_scan"}, "fusion_lon": 0.0}, {"lat": 38.87349483333333, "is_disabled": 0, "type": "electric_scooter", "lon": -76.99171566666666, "bike_id": "2d79f8834fd582bf73f41798641a56b1", "fusion_lat": 0.0, "name": "2d79f8834fd582bf73f41798641a56b1", "is_reserved": 0, "rental_uris": {"android": "https://dc.lft.to/lastmile_qr_scan", "ios": "https://dc.lft.to/lastmile_qr_scan"}, "fusion_lon": 0.0}, {"lat": 38.9072115, "is_disabled": 0, "type": "electric_scooter", "lon": -77.02751266666667, "bike_id": "586af073096d18a27a090ecf7c8384bf", "fusion_lat": 0.0, "name": "586af073096d18a27a090ecf7c8384bf", "is_reserved": 0, "rental_uris": {"android": "https://dc.lft.to/lastmile_qr_scan", "ios": "https://dc.lft.to/lastmile_qr_scan"}, "fusion_lon": 0.0}, {"lat": 38.87628683333333, "is_disabled": 0, "type": "electric_scooter", "lon": -76.96523916666666, "bike_id": "4f44d12629d1ee3147971c82521a1ae9", "fusion_lat": 0.0, "name": "4f44d12629d1ee3147971c82521a1ae9", "is_reserved": 0, "rental_uris": {"android": "https://dc.lft.to/lastmile_qr_scan", "ios": "https://dc.lft.to/lastmile_qr_scan"}, "fusion_lon": 0.0}, {"lat": 38.91908683333333, "is_disabled": 0, "type": "electric_scooter", "lon": -77.02447016666666, "bike_id": "0a9d5cb9a74d66da0bc6fb0370a0fc44", "fusion_lat": 0.0, "name": "0a9d5cb9a74d66da0bc6fb0370a0fc44", "is_reserved": 0, "rental_uris": {"android": "https://dc.lft.to/lastmile_qr_scan", "ios": "https://dc.lft.to/lastmile_qr_scan"}, "fusion_lon": 0.0}, {"lat": 38.906246833333334, "is_disabled": 0, "type": "electric_scooter", "lon": -77.02180883333334, "bike_id": "14ae82d013138f6b46d84fcae42ed01f", "fusion_lat": 0.0, "name": "14ae82d013138f6b46d84fcae42ed01f", "is_reserved": 0, "rental_uris": {"android": "https://dc.lft.to/lastmile_qr_scan", "ios": "https://dc.lft.to/lastmile_qr_scan"}, "fusion_lon": 0.0}, {"lat": 38.900632, "is_disabled": 0, "type": "electric_scooter", "lon": -77.04403216666667, "bike_id": "4da09ffb32c087043666e084fa74663d", "fusion_lat": 0.0, "name": "4da09ffb32c087043666e084fa74663d", "is_reserved": 0, "rental_uris": {"android": "https://dc.lft.to/lastmile_qr_scan", "ios": "https://dc.lft.to/lastmile_qr_scan"}, "fusion_lon": 0.0}, {"lat": 38.915631166666664, "is_disabled": 0, "type": "electric_scooter", "lon": -77.02005116666666, "bike_id": "65e5a5242c03de6e373eec5f48dd2619", "fusion_lat": 0.0, "name": "65e5a5242c03de6e373eec5f48dd2619", "is_reserved": 0, "rental_uris": {"android": "https://dc.lft.to/lastmile_qr_scan", "ios": "https://dc.lft.to/lastmile_qr_scan"}, "fusion_lon": 0.0}, {"lat": 38.917553166666664, "is_disabled": 0, "type": "electric_scooter", "lon": -77.03193633333333, "bike_id": "218a7ea92d6fd2b9f3b81f7d85b7b956", "fusion_lat": 0.0, "name": "218a7ea92d6fd2b9f3b81f7d85b7b956", "is_reserved": 0, "rental_uris": {"android": "https://dc.lft.to/lastmile_qr_scan", "ios": "https://dc.lft.to/lastmile_qr_scan"}, "fusion_lon": 0.0}, {"lat": 38.902193, "is_disabled": 0, "type": "electric_scooter", "lon": -76.94587616666666, "bike_id": "60255e70be659a3984f710cd15346e57", "fusion_lat": 0.0, "name": "60255e70be659a3984f710cd15346e57", "is_reserved": 0, "rental_uris": {"android": "https://dc.lft.to/lastmile_qr_scan", "ios": "https://dc.lft.to/lastmile_qr_scan"}, "fusion_lon": 0.0}, {"lat": 38.901100166666666, "is_disabled": 0, "type": "electric_scooter", "lon": -77.03982716666667, "bike_id": "d222de1b8db8d4184d52511853a19f03", "fusion_lat": 0.0, "name": "d222de1b8db8d4184d52511853a19f03", "is_reserved": 0, "rental_uris": {"android": "https://dc.lft.to/lastmile_qr_scan", "ios": "https://dc.lft.to/lastmile_qr_scan"}, "fusion_lon": 0.0}, {"lat": 38.94715566666667, "is_disabled": 0, "type": "electric_scooter", "lon": -77.0225715, "bike_id": "fac1ee71fdf01097ef181874dc8e3077", "fusion_lat": 0.0, "name": "fac1ee71fdf01097ef181874dc8e3077", "is_reserved": 0, "rental_uris": {"android": "https://dc.lft.to/lastmile_qr_scan", "ios": "https://dc.lft.to/lastmile_qr_scan"}, "fusion_lon": 0.0}, {"lat": 38.92367183333333, "is_disabled": 0, "type": "electric_scooter", "lon": -77.0517655, "bike_id": "1ed43ad6e681624214ddc2f1da432e78", "fusion_lat": 0.0, "name": "1ed43ad6e681624214ddc2f1da432e78", "is_reserved": 0, "rental_uris": {"android": "https://dc.lft.to/lastmile_qr_scan", "ios": "https://dc.lft.to/lastmile_qr_scan"}, "fusion_lon": 0.0}, {"lat": 38.912125, "is_disabled": 0, "type": "electric_scooter", "lon": -77.02758683333333, "bike_id": "a7c3abc406eb5df1fbe2a81c55ca8be5", "fusion_lat": 0.0, "name": "a7c3abc406eb5df1fbe2a81c55ca8be5", "is_reserved": 0, "rental_uris": {"android": "https://dc.lft.to/lastmile_qr_scan", "ios": "https://dc.lft.to/lastmile_qr_scan"}, "fusion_lon": 0.0}, {"lat": 38.9195805, "is_disabled": 0, "type": "electric_bike", "lon": -76.97269716666666, "bike_id": "d877a047cd2614acbaa62abbfedfbd85", "fusion_lat": 0.0, "name": "d877a047cd2614acbaa62abbfedfbd85", "is_reserved": 0, "rental_uris": {"android": "https://dc.lft.to/lastmile_qr_scan", "ios": "https://dc.lft.to/lastmile_qr_scan"}, "fusion_lon": 0.0}, {"lat": 38.93014766666667, "is_disabled": 0, "type": "electric_bike", "lon": -77.2164565, "bike_id": "3bd2a22356d93ae61fe93eccb0c9eee3", "fusion_lat": 0.0, "name": "3bd2a22356d93ae61fe93eccb0c9eee3", "is_reserved": 0, "rental_uris": {"android": "https://dc.lft.to/lastmile_qr_scan", "ios": "https://dc.lft.to/lastmile_qr_scan"}, "fusion_lon": 0.0}, {"lat": 38.91418516666667, "is_disabled": 0, "type": "electric_scooter", "lon": -77.00505416666667, "bike_id": "c135e7ba65d90aefba9a030a51cf86d5", "fusion_lat": 0.0, "name": "c135e7ba65d90aefba9a030a51cf86d5", "is_reserved": 0, "rental_uris": {"android": "https://dc.lft.to/lastmile_qr_scan", "ios": "https://dc.lft.to/lastmile_qr_scan"}, "fusion_lon": 0.0}, {"lat": 38.8683145, "is_disabled": 0, "type": "electric_scooter", "lon": -76.9773915, "bike_id": "f0b3c2115a09256d345e5f7842aa1511", "fusion_lat": 0.0, "name": "f0b3c2115a09256d345e5f7842aa1511", "is_reserved": 0, "rental_uris": {"android": "https://dc.lft.to/lastmile_qr_scan", "ios": "https://dc.lft.to/lastmile_qr_scan"}, "fusion_lon": 0.0}, {"lat": 38.92700333333333, "is_disabled": 0, "type": "electric_scooter", "lon": -77.0209355, "bike_id": "0c4e50d2cb4ef73d4acbd90942ded395", "fusion_lat": 0.0, "name": "0c4e50d2cb4ef73d4acbd90942ded395", "is_reserved": 0, "rental_uris": {"android": "https://dc.lft.to/lastmile_qr_scan", "ios": "https://dc.lft.to/lastmile_qr_scan"}, "fusion_lon": 0.0}, {"lat": 38.91624366666667, "is_disabled": 0, "type": "electric_scooter", "lon": -77.04865616666666, "bike_id": "b26470dec65932e92ed7df4708c25d54", "fusion_lat": 0.0, "name": "b26470dec65932e92ed7df4708c25d54", "is_reserved": 0, "rental_uris": {"android": "https://dc.lft.to/lastmile_qr_scan", "ios": "https://dc.lft.to/lastmile_qr_scan"}, "fusion_lon": 0.0}, {"lat": 38.91421483333333, "is_disabled": 0, "type": "electric_scooter", "lon": -77.04637983333333, "bike_id": "a29b173b0ea41385ee4d97c05bc5c0c2", "fusion_lat": 0.0, "name": "a29b173b0ea41385ee4d97c05bc5c0c2", "is_reserved": 0, "rental_uris": {"android": "https://dc.lft.to/lastmile_qr_scan", "ios": "https://dc.lft.to/lastmile_qr_scan"}, "fusion_lon": 0.0}, {"lat": 38.906345333333334, "is_disabled": 0, "type": "electric_scooter", "lon": -77.02495066666667, "bike_id": "2d64d77ac4a6e66dd280213d1581a3dc", "fusion_lat": 0.0, "name": "2d64d77ac4a6e66dd280213d1581a3dc", "is_reserved": 0, "rental_uris": {"android": "https://dc.lft.to/lastmile_qr_scan", "ios": "https://dc.lft.to/lastmile_qr_scan"}, "fusion_lon": 0.0}, {"lat": 38.900998, "is_disabled": 0, "type": "electric_scooter", "lon": -77.050586, "bike_id": "a3c0f3680d92b20be487f6717cebdc73", "fusion_lat": 0.0, "name": "a3c0f3680d92b20be487f6717cebdc73", "is_reserved": 0, "rental_uris": {"android": "https://dc.lft.to/lastmile_qr_scan", "ios": "https://dc.lft.to/lastmile_qr_scan"}, "fusion_lon": 0.0}, {"lat": 38.871448666666666, "is_disabled": 0, "type": "electric_bike", "lon": -76.93702683333333, "bike_id": "a4e956d345c11bf303a4b15a740eefac", "fusion_lat": 0.0, "name": "a4e956d345c11bf303a4b15a740eefac", "is_reserved": 0, "rental_uris": {"android": "https://dc.lft.to/lastmile_qr_scan", "ios": "https://dc.lft.to/lastmile_qr_scan"}, "fusion_lon": 0.0}, {"lat": 38.836946833333336, "is_disabled": 0, "type": "electric_scooter", "lon": -77.10302033333333, "bike_id": "b4e51daf0fe10c46bca9bf86f4e9eb77", "fusion_lat": 0.0, "name": "b4e51daf0fe10c46bca9bf86f4e9eb77", "is_reserved": 0, "rental_uris": {"android": "https://dc.lft.to/lastmile_qr_scan", "ios": "https://dc.lft.to/lastmile_qr_scan"}, "fusion_lon": 0.0}, {"lat": 38.91627583333333, "is_disabled": 0, "type": "electric_scooter", "lon": -77.032734, "bike_id": "be7704e9251b084c714aaa8e201c88a4", "fusion_lat": 0.0, "name": "be7704e9251b084c714aaa8e201c88a4", "is_reserved": 0, "rental_uris": {"android": "https://dc.lft.to/lastmile_qr_scan", "ios": "https://dc.lft.to/lastmile_qr_scan"}, "fusion_lon": 0.0}, {"lat": 38.88112683333333, "is_disabled": 0, "type": "electric_scooter", "lon": -76.983332, "bike_id": "f83f99e671342e565c30f1689cd6468f", "fusion_lat": 0.0, "name": "f83f99e671342e565c30f1689cd6468f", "is_reserved": 0, "rental_uris": {"android": "https://dc.lft.to/lastmile_qr_scan", "ios": "https://dc.lft.to/lastmile_qr_scan"}, "fusion_lon": 0.0}, {"lat": 38.9247935, "is_disabled": 0, "type": "electric_scooter", "lon": -77.034788, "bike_id": "0e36ea14a45ba74cdebdc899a70137a2", "fusion_lat": 0.0, "name": "0e36ea14a45ba74cdebdc899a70137a2", "is_reserved": 0, "rental_uris": {"android": "https://dc.lft.to/lastmile_qr_scan", "ios": "https://dc.lft.to/lastmile_qr_scan"}, "fusion_lon": 0.0}, {"lat": 38.98218933333333, "is_disabled": 0, "type": "electric_scooter", "lon": -77.02641183333333, "bike_id": "bf6b407122623e0cee4a2437d35eb005", "fusion_lat": 0.0, "name": "bf6b407122623e0cee4a2437d35eb005", "is_reserved": 0, "rental_uris": {"android": "https://dc.lft.to/lastmile_qr_scan", "ios": "https://dc.lft.to/lastmile_qr_scan"}, "fusion_lon": 0.0}, {"lat": 38.8861985, "is_disabled": 0, "type": "electric_scooter", "lon": -76.95515866666666, "bike_id": "189a216268ecaba59dd10b680e2afc56", "fusion_lat": 0.0, "name": "189a216268ecaba59dd10b680e2afc56", "is_reserved": 0, "rental_uris": {"android": "https://dc.lft.to/lastmile_qr_scan", "ios": "https://dc.lft.to/lastmile_qr_scan"}, "fusion_lon": 0.0}, {"lat": 38.90278816666667, "is_disabled": 0, "type": "electric_scooter", "lon": -77.036417, "bike_id": "ecba56a50213471ec6aee7af25516d9f", "fusion_lat": 0.0, "name": "ecba56a50213471ec6aee7af25516d9f", "is_reserved": 0, "rental_uris": {"android": "https://dc.lft.to/lastmile_qr_scan", "ios": "https://dc.lft.to/lastmile_qr_scan"}, "fusion_lon": 0.0}, {"lat": 38.91492816666667, "is_disabled": 0, "type": "electric_scooter", "lon": -77.02197933333333, "bike_id": "2f5294e3d5c91960aa9b96cc1c368f6e", "fusion_lat": 0.0, "name": "2f5294e3d5c91960aa9b96cc1c368f6e", "is_reserved": 0, "rental_uris": {"android": "https://dc.lft.to/lastmile_qr_scan", "ios": "https://dc.lft.to/lastmile_qr_scan"}, "fusion_lon": 0.0}, {"lat": 38.89220566666667, "is_disabled": 0, "type": "electric_scooter", "lon": -77.04861183333334, "bike_id": "23218edbcd70b2b94ca5abfa802df418", "fusion_lat": 0.0, "name": "23218edbcd70b2b94ca5abfa802df418", "is_reserved": 0, "rental_uris": {"android": "https://dc.lft.to/lastmile_qr_scan", "ios": "https://dc.lft.to/lastmile_qr_scan"}, "fusion_lon": 0.0}, {"lat": 38.894834833333334, "is_disabled": 0, "type": "electric_scooter", "lon": -77.00225833333333, "bike_id": "e57f540f260ce70c819df41caa0ab878", "fusion_lat": 0.0, "name": "e57f540f260ce70c819df41caa0ab878", "is_reserved": 0, "rental_uris": {"android": "https://dc.lft.to/lastmile_qr_scan", "ios": "https://dc.lft.to/lastmile_qr_scan"}, "fusion_lon": 0.0}, {"lat": 38.92161633333333, "is_disabled": 0, "type": "electric_scooter", "lon": -77.0401845, "bike_id": "766b598d481ce76a674366154c0675da", "fusion_lat": 0.0, "name": "766b598d481ce76a674366154c0675da", "is_reserved": 0, "rental_uris": {"android": "https://dc.lft.to/lastmile_qr_scan", "ios": "https://dc.lft.to/lastmile_qr_scan"}, "fusion_lon": 0.0}, {"lat": 38.920903833333334, "is_disabled": 0, "type": "electric_scooter", "lon": -77.04182933333334, "bike_id": "980ce3d2863118f58b7130f361c34715", "fusion_lat": 0.0, "name": "980ce3d2863118f58b7130f361c34715", "is_reserved": 0, "rental_uris": {"android": "https://dc.lft.to/lastmile_qr_scan", "ios": "https://dc.lft.to/lastmile_qr_scan"}, "fusion_lon": 0.0}, {"lat": 38.92691666666666, "is_disabled": 0, "type": "electric_scooter", "lon": -77.01501183333333, "bike_id": "a620baa926359a8ba012bed34189c841", "fusion_lat": 0.0, "name": "a620baa926359a8ba012bed34189c841", "is_reserved": 0, "rental_uris": {"android": "https://dc.lft.to/lastmile_qr_scan", "ios": "https://dc.lft.to/lastmile_qr_scan"}, "fusion_lon": 0.0}, {"lat": 38.90484083333333, "is_disabled": 0, "type": "electric_scooter", "lon": -76.9732495, "bike_id": "a18d0b4fc122fde49510887c702cbe84", "fusion_lat": 0.0, "name": "a18d0b4fc122fde49510887c702cbe84", "is_reserved": 0, "rental_uris": {"android": "https://dc.lft.to/lastmile_qr_scan", "ios": "https://dc.lft.to/lastmile_qr_scan"}, "fusion_lon": 0.0}, {"lat": 38.94303033333333, "is_disabled": 0, "type": "electric_scooter", "lon": -77.061341, "bike_id": "ab9d675020234394550c16a2d05cd079", "fusion_lat": 0.0, "name": "ab9d675020234394550c16a2d05cd079", "is_reserved": 0, "rental_uris": {"android": "https://dc.lft.to/lastmile_qr_scan", "ios": "https://dc.lft.to/lastmile_qr_scan"}, "fusion_lon": 0.0}, {"lat": 38.9156525, "is_disabled": 0, "type": "electric_scooter", "lon": -77.05017766666667, "bike_id": "3b3570de31108923d325fbe8add453e3", "fusion_lat": 0.0, "name": "3b3570de31108923d325fbe8add453e3", "is_reserved": 0, "rental_uris": {"android": "https://dc.lft.to/lastmile_qr_scan", "ios": "https://dc.lft.to/lastmile_qr_scan"}, "fusion_lon": 0.0}, {"lat": 38.9301155, "is_disabled": 0, "type": "electric_scooter", "lon": -77.023383, "bike_id": "4e8af967bb015b60e5f18e4560848fab", "fusion_lat": 0.0, "name": "4e8af967bb015b60e5f18e4560848fab", "is_reserved": 0, "rental_uris": {"android": "https://dc.lft.to/lastmile_qr_scan", "ios": "https://dc.lft.to/lastmile_qr_scan"}, "fusion_lon": 0.0}, {"lat": 38.884912166666666, "is_disabled": 0, "type": "electric_scooter", "lon": -77.00707516666667, "bike_id": "6fcebd9e129d0777f6663eec480bd02d", "fusion_lat": 0.0, "name": "6fcebd9e129d0777f6663eec480bd02d", "is_reserved": 0, "rental_uris": {"android": "https://dc.lft.to/lastmile_qr_scan", "ios": "https://dc.lft.to/lastmile_qr_scan"}, "fusion_lon": 0.0}, {"lat": 38.87965833333333, "is_disabled": 0, "type": "electric_scooter", "lon": -76.987441, "bike_id": "3f33bbedd3b515ab461d999575a69c99", "fusion_lat": 0.0, "name": "3f33bbedd3b515ab461d999575a69c99", "is_reserved": 0, "rental_uris": {"android": "https://dc.lft.to/lastmile_qr_scan", "ios": "https://dc.lft.to/lastmile_qr_scan"}, "fusion_lon": 0.0},