{"data": {"bikes": [{"fusion_lat": 0.0, "name": "b4fbd75e8eca79d59f634e11cbf868bb", "is_disabled": 0, "rental_uris": {"android": "https://dc.lft.to/lastmile_qr_scan", "ios": "https://dc.lft.to/lastmile_qr_scan"}, "fusion_lon": 0.0, "lat": 38.9170755, "bike_id": "b4fbd75e8eca79d59f634e11cbf868bb", "type": "electric_scooter", "is_reserved": 0, "lon": -77.02420316666667}, {"fusion_lat": 0.0, "name": "4376b08036a50ebab45e6ab7ec7710c1", "is_disabled": 0, "rental_uris": {"android": "https://dc.lft.to/lastmile_qr_scan", "ios": "https://dc.lft.to/lastmile_qr_scan"}, "fusion_lon": 0.0, "lat": 38.8957345, "bike_id": "4376b08036a50ebab45e6ab7ec7710c1", "type": "electric_scooter", "is_reserved": 0, "lon": -76.98325966666667}, {"fusion_lat": 0.0, "name": "193595eedb386d4cce9ad4245edb4341", "is_disabled": 0, "rental_uris": {"android": "https://dc.lft.to/lastmile_qr_scan", "ios": "https://dc.lft.to/lastmile_qr_scan"}, "fusion_lon": 0.0, "lat": 38.887617666666664, "bike_id": "193595eedb386d4cce9ad4245edb4341", "type": "electric_scooter", "is_reserved": 0, "lon": -76.955818}, {"fusion_lat": 0.0, "name": "43e75389f6b22769f9ee3285d6250e5e", "is_disabled": 0, "rental_uris": {"android": "https://dc.lft.to/lastmile_qr_scan", "ios": "https://dc.lft.to/lastmile_qr_scan"}, "fusion_lon": 0.0, "lat": 38.92065016666667, "bike_id": "43e75389f6b22769f9ee3285d6250e5e", "type": "electric_scooter", "is_reserved": 0, "lon": -77.02430416666667}, {"fusion_lat": 0.0, "name": "26ffb5ebdfc04666978efd3eb676d0d0", "is_disabled": 0, "rental_uris": {"android": "https://dc.lft.to/lastmile_qr_scan", "ios": "https://dc.lft.to/lastmile_qr_scan"}, "fusion_lon": 0.0, "lat": 38.93356766666667, "bike_id": "26ffb5ebdfc04666978efd3eb676d0d0", "type": "electric_scooter", "is_reserved": 0, "lon": -77.073181}, {"fusion_lat": 0.0, "name": "721188823cf1d309b2bb01948b2ed1ba", "is_disabled": 0, "rental_uris": {"android": "https://dc.lft.to/lastmile_qr_scan", "ios": "https://dc.lft.to/lastmile_qr_scan"}, "fusion_lon": 0.0, "lat": 38.91931366666667, "bike_id": "721188823cf1d309b2bb01948b2ed1ba", "type": "electric_scooter", "is_reserved": 0, "lon": -77.04159166666666}, {"fusion_lat": 0.0, "name": "3bca2b3193e77c6a8fdbe71e57ad230a", "is_disabled": 0, "rental_uris": {"android": "https://dc.lft.to/lastmile_qr_scan", "ios": "https://dc.lft.to/lastmile_qr_scan"}, "fusion_lon": 0.0, "lat": 38.912456, "bike_id": "3bca2b3193e77c6a8fdbe71e57ad230a", "type": "electric_scooter", "is_reserved": 0, "lon": -77.044875}, {"fusion_lat": 0.0, "name": "d50f205d00f79673b4d74b1a4639545c", "is_disabled": 0, "rental_uris": {"android": "https://dc.lft.to/lastmile_qr_scan", "ios": "https://dc.lft.to/lastmile_qr_scan"}, "fusion_lon": 0.0, "lat": 38.963881666666666, "bike_id": "d50f205d00f79673b4d74b1a4639545c", "type": "electric_bike", "is_reserved": 0, "lon": -76.9504195}, {"fusion_lat": 0.0, "name": "0c2ee2e90a0a08fb02eb61385131500f", "is_disabled": 0, "rental_uris": {"android": "https://dc.lft.to/lastmile_qr_scan", "ios": "https://dc.lft.to/lastmile_qr_scan"}, "fusion_lon": 0.0, "lat": 38.91834133333333, "bike_id": "0c2ee2e90a0a08fb02eb61385131500f", "type": "electric_scooter", "is_reserved": 0, "lon": -77.03524616666667}, {"fusion_lat": 0.0, "name": "87ea397f53f5e3da34f388f7924de2be", "is_disabled": 0, "rental_uris": {"android": "https://dc.lft.to/lastmile_qr_scan", "ios": "https://dc.lft.to/lastmile_qr_scan"}, "fusion_lon": 0.0, "lat": 38.8921735, "bike_id": "87ea397f53f5e3da34f388f7924de2be", "type": "electric_scooter", "is_reserved": 0, "lon": -76.9575015}, {"fusion_lat": 0.0, "name": "f701c0252e169296c88ad6965645e563", "is_disabled": 0, "rental_uris": {"android": "https://dc.lft.to/lastmile_qr_scan", "ios": "https://dc.lft.to/lastmile_qr_scan"}, "fusion_lon": 0.0, "lat": 38.924763166666665, "bike_id": "f701c0252e169296c88ad6965645e563", "type": "electric_scooter", "is_reserved": 0, "lon": -77.03561216666667}, {"fusion_lat": 0.0, "name": "01c0a23eb66b80bfd88d7fee0ee4ee23", "is_disabled": 0, "rental_uris": {"android": "https://dc.lft.to/lastmile_qr_scan", "ios": "https://dc.lft.to/lastmile_qr_scan"}, "fusion_lon": 0.0, "lat": 38.933503333333334, "bike_id": "01c0a23eb66b80bfd88d7fee0ee4ee23", "type": "electric_scooter", "is_reserved": 0, "lon": -77.061997}, {"fusion_lat": 0.0, "name": "cf9c40daf78a98a063a2aef12af033aa", "is_disabled": 0, "rental_uris": {"android": "https://dc.lft.to/lastmile_qr_scan", "ios": "https://dc.lft.to/lastmile_qr_scan"}, "fusion_lon": 0.0, "lat": 38.9054905, "bike_id": "cf9c40daf78a98a063a2aef12af033aa", "type": "electric_scooter", "is_reserved": 0, "lon": -77.0021295}, {"fusion_lat": 0.0, "name": "3c83d99d3bd6ae5f48609bd4479b40da", "is_disabled": 0, "rental_uris": {"android": "https://dc.lft.to/lastmile_qr_scan", "ios": "https://dc.lft.to/lastmile_qr_scan"}, "fusion_lon": 0.0, "lat": 38.87462633333333, "bike_id": "3c83d99d3bd6ae5f48609bd4479b40da", "type": "electric_scooter", "is_reserved": 0, "lon": -77.00484316666666}, {"fusion_lat": 0.0, "name": "514511c672135262e0503871095b8d64", "is_disabled": 0, "rental_uris": {"android": "https://dc.lft.to/lastmile_qr_scan", "ios": "https://dc.lft.to/lastmile_qr_scan"}, "fusion_lon": 0.0, "lat": 38.892232166666666, "bike_id": "514511c672135262e0503871095b8d64", "type": "electric_scooter", "is_reserved": 0, "lon": -77.026451}, {"fusion_lat": 0.0, "name": "1004b345a895146b1105d836c0801d3c", "is_disabled": 0, "rental_uris": {"android": "https://dc.lft.to/lastmile_qr_scan", "ios": "https://dc.lft.to/lastmile_qr_scan"}, "fusion_lon": 0.0, "lat": 38.969854166666664, "bike_id": "1004b345a895146b1105d836c0801d3c", "type": "electric_scooter", "is_reserved": 0, "lon": -77.01165683333333}, {"fusion_lat": 0.0, "name": "71781572426dd2d7a292cff374551a1b", "is_disabled": 0, "rental_uris": {"android": "https://dc.lft.to/lastmile_qr_scan", "ios": "https://dc.lft.to/lastmile_qr_scan"}, "fusion_lon": 0.0, "lat": 38.90719716666667, "bike_id": "71781572426dd2d7a292cff374551a1b", "type": "electric_scooter", "is_reserved": 0, "lon": -77.02508833333333}, {"fusion_lat": 0.0, "name": "0a9cfb79bb367e4cd4a15c29b364a55f", "is_disabled": 0, "rental_uris": {"android": "https://dc.lft.to/lastmile_qr_scan", "ios": "https://dc.lft.to/lastmile_qr_scan"}, "fusion_lon": 0.0, "lat": 38.87435283333333, "bike_id": "0a9cfb79bb367e4cd4a15c29b364a55f", "type": "electric_scooter", "is_reserved": 0, "lon": -77.018681}, {"fusion_lat": 0.0, "name": "f970912f411c8b6296883dd2544f3749", "is_disabled": 0, "rental_uris": {"android": "https://dc.lft.to/lastmile_qr_scan", "ios": "https://dc.lft.to/lastmile_qr_scan"}, "fusion_lon": 0.0, "lat": 38.94093483333333, "bike_id": "f970912f411c8b6296883dd2544f3749", "type": "electric_scooter", "is_reserved": 0, "lon": -77.023203}, {"fusion_lat": 0.0, "name": "ad522be67004e6fa27c661ea34264e6d", "is_disabled": 0, "rental_uris": {"android": "https://dc.lft.to/lastmile_qr_scan", "ios": "https://dc.lft.to/lastmile_qr_scan"}, "fusion_lon": 0.0, "lat": 38.92591066666667, "bike_id": "ad522be67004e6fa27c661ea34264e6d", "type": "electric_scooter", "is_reserved": 0, "lon": -77.03729616666666}, {"fusion_lat": 0.0, "name": "d8bcf718b9c590d5db1910c78fb1af53", "is_disabled": 0, "rental_uris": {"android": "https://dc.lft.to/lastmile_qr_scan", "ios": "https://dc.lft.to/lastmile_qr_scan"}, "fusion_lon": 0.0, "lat": 38.89677533333333, "bike_id": "d8bcf718b9c590d5db1910c78fb1af53", "type": "electric_scooter", "is_reserved": 0, "lon": -77.05050233333333}, {"fusion_lat": 0.0, "name": "3570afc718e59f50233b8c374e82ba5c", "is_disabled": 0, "rental_uris": {"android": "https://dc.lft.to/lastmile_qr_scan", "ios": "https://dc.lft.to/lastmile_qr_scan"}, "fusion_lon": 0.0, "lat": 38.8872815, "bike_id": "3570afc718e59f50233b8c374e82ba5c", "type": "electric_scooter", "is_reserved": 0, "lon": -77.01339833333333}, {"fusion_lat": 0.0, "name": "d0e23e71ebb3b3dda8aa508beae696fb", "is_disabled": 0, "rental_uris": {"android": "https://dc.lft.to/lastmile_qr_scan", "ios": "https://dc.lft.to/lastmile_qr_scan"}, "fusion_lon": 0.0, "lat": 38.90064983333333, "bike_id": "d0e23e71ebb3b3dda8aa508beae696fb", "type": "electric_scooter", "is_reserved": 0, "lon": -77.0220185}, {"fusion_lat": 0.0, "name": "0c634d7a42d7d5634e1396f71f7e4371", "is_disabled": 0, "rental_uris": {"android": "https://dc.lft.to/lastmile_qr_scan", "ios": "https://dc.lft.to/lastmile_qr_scan"}, "fusion_lon": 0.0, "lat": 38.92054866666667, "bike_id": "0c634d7a42d7d5634e1396f71f7e4371", "type": "electric_scooter", "is_reserved": 0, "lon": -77.04352333333334}, {"fusion_lat": 0.0, "name": "4b328adbec4c791dd5ee2aedc83fe3f0", "is_disabled": 0, "rental_uris": {"android": "https://dc.lft.to/lastmile_qr_scan", "ios": "https://dc.lft.to/lastmile_qr_scan"}, "fusion_lon": 0.0, "lat": 38.884313666666664, "bike_id": "4b328adbec4c791dd5ee2aedc83fe3f0", "type": "electric_scooter", "is_reserved": 0, "lon": -77.02902916666666}, {"fusion_lat": 0.0, "name": "cd9a7e7fd6c83cd82f188d81f1b56223", "is_disabled": 0, "rental_uris": {"android": "https://dc.lft.to/lastmile_qr_scan", "ios": "https://dc.lft.to/lastmile_qr_scan"}, "fusion_lon": 0.0, "lat": 38.8958555, "bike_id": "cd9a7e7fd6c83cd82f188d81f1b56223", "type": "electric_scooter", "is_reserved": 0, "lon": -77.02194966666667}, {"fusion_lat": 0.0, "name": "d0bdf3b6d72dd578153125cbf530087d", "is_disabled": 0, "rental_uris": {"android": "https://dc.lft.to/lastmile_qr_scan", "ios": "https://dc.lft.to/lastmile_qr_scan"}, "fusion_lon": 0.0, "lat": 38.906220166666664, "bike_id": "d0bdf3b6d72dd578153125cbf530087d", "type": "electric_scooter", "is_reserved": 0, "lon": -77.04996783333333}, {"fusion_lat": 0.0, "name": "adfdd64d2fd0750b4d23c99f3710b042", "is_disabled": 0, "rental_uris": {"android": "https://dc.lft.to/lastmile_qr_scan", "ios": "https://dc.lft.to/lastmile_qr_scan"}, "fusion_lon": 0.0, "lat": 38.87752566666666, "bike_id": "adfdd64d2fd0750b4d23c99f3710b042", "type": "electric_scooter", "is_reserved": 0, "lon": -77.00266233333333}, {"fusion_lat": 0.0, "name": "6efb1babb04582a838eab5b13df0f51a", "is_disabled": 0, "rental_uris": {"android": "https://dc.lft.to/lastmile_qr_scan", "ios": "https://dc.lft.to/lastmile_qr_scan"}, "fusion_lon": 0.0, "lat": 38.892222, "bike_id": "6efb1babb04582a838eab5b13df0f51a", "type": "electric_scooter", "is_reserved": 0, "lon": -77.03343633333333}, {"fusion_lat": 0.0, "name": "47d5308e672bf66f2c712928e0e03d1b", "is_disabled": 0, "rental_uris": {"android": "https://dc.lft.to/lastmile_qr_scan", "ios": "https://dc.lft.to/lastmile_qr_scan"}, "fusion_lon": 0.0, "lat": 38.897317, "bike_id": "47d5308e672bf66f2c712928e0e03d1b", "type": "electric_scooter", "is_reserved": 0, "lon": -76.9472135}, {"fusion_lat": 0.0, "name": "60e83fba162476491ee37e597605020a", "is_disabled": 0, "rental_uris": {"android": "https://dc.lft.to/lastmile_qr_scan", "ios": "https://dc.lft.to/lastmile_qr_scan"}, "fusion_lon": 0.0, "lat": 38.87853883333333, "bike_id": "60e83fba162476491ee37e597605020a", "type": "electric_scooter", "is_reserved": 0, "lon": -77.00110233333334}, {"fusion_lat": 0.0, "name": "bc6f8cfb40d425080a03ce4ed5a1255c", "is_disabled": 0, "rental_uris": {"android": "https://dc.lft.to/lastmile_qr_scan", "ios": "https://dc.lft.to/lastmile_qr_scan"}, "fusion_lon": 0.0, "lat": 38.92724783333333, "bike_id": "bc6f8cfb40d425080a03ce4ed5a1255c", "type": "electric_scooter", "is_reserved": 0, "lon": -77.02309483333333}, {"fusion_lat": 0.0, "name": "68582e6c4ff1876b7f3d97cb70351424", "is_disabled": 0, "rental_uris": {"android": "https://dc.lft.to/lastmile_qr_scan", "ios": "https://dc.lft.to/lastmile_qr_scan"}, "fusion_lon": 0.0, "lat": 38.874605333333335, "bike_id": "68582e6c4ff1876b7f3d97cb70351424", "type": "electric_scooter", "is_reserved": 0, "lon": -77.00479633333333}, {"fusion_lat": 0.0, "name": "ec8aaf96572f38da682995c414cbad19", "is_disabled": 0, "rental_uris": {"android": "https://dc.lft.to/lastmile_qr_scan", "ios": "https://dc.lft.to/lastmile_qr_scan"}, "fusion_lon": 0.0, "lat": 38.920829166666664, "bike_id": "ec8aaf96572f38da682995c414cbad19", "type": "electric_scooter", "is_reserved": 0, "lon": -77.02411883333333}, {"fusion_lat": 0.0, "name": "26eda89785ea7476ea74ff238dc13463", "is_disabled": 0, "rental_uris": {"android": "https://dc.lft.to/lastmile_qr_scan", "ios": "https://dc.lft.to/lastmile_qr_scan"}, "fusion_lon": 0.0, "lat": 38.907107833333335, "bike_id": "26eda89785ea7476ea74ff238dc13463", "type": "electric_scooter", "is_reserved": 0, "lon": -77.0497315}, {"fusion_lat": 0.0, "name": "d9d110d18f3c5842446853cd4cdbc8f8", "is_disabled": 0, "rental_uris": {"android": "https://dc.lft.to/lastmile_qr_scan", "ios": "https://dc.lft.to/lastmile_qr_scan"}, "fusion_lon": 0.0, "lat": 38.91130033333334, "bike_id": "d9d110d18f3c5842446853cd4cdbc8f8", "type": "electric_scooter", "is_reserved": 0, "lon": -77.03200883333334}, {"fusion_lat": 0.0, "name": "b9a6f023bff1511554d0ddcfeab6778a", "is_disabled": 0, "rental_uris": {"android": "https://dc.lft.to/lastmile_qr_scan", "ios": "https://dc.lft.to/lastmile_qr_scan"}, "fusion_lon": 0.0, "lat": 38.90715, "bike_id": "b9a6f023bff1511554d0ddcfeab6778a", "type": "electric_scooter", "is_reserved": 0, "lon": -77.0050795}, {"fusion_lat": 0.0, "name": "1119134bc22175dcaa20ef6eb713e95f", "is_disabled": 0, "rental_uris": {"android": "https://dc.lft.to/lastmile_qr_scan", "ios": "https://dc.lft.to/lastmile_qr_scan"}, "fusion_lon": 0.0, "lat": 38.92123616666667, "bike_id": "1119134bc22175dcaa20ef6eb713e95f", "type": "electric_scooter", "is_reserved": 0, "lon": -77.0255475}, {"fusion_lat": 0.0, "name": "e1883758bdafabfac28d77dcc83a83ff", "is_disabled": 0, "rental_uris": {"android": "https://dc.lft.to/lastmile_qr_scan", "ios": "https://dc.lft.to/lastmile_qr_scan"}, "fusion_lon": 0.0, "lat": 38.87106933333333, "bike_id": "e1883758bdafabfac28d77dcc83a83ff", "type": "electric_scooter", "is_reserved": 0, "lon": -76.96578016666666}, {"fusion_lat": 0.0, "name": "3608d4799c3947b17ef6a6ff9839bbf6", "is_disabled": 0, "rental_uris": {"android": "https://dc.lft.to/lastmile_qr_scan", "ios": "https://dc.lft.to/lastmile_qr_scan"}, "fusion_lon": 0.0, "lat": 38.91578066666667, "bike_id": "3608d4799c3947b17ef6a6ff9839bbf6", "type": "electric_scooter", "is_reserved": 0, "lon": -77.03185716666667}, {"fusion_lat": 0.0, "name": "e3bb286f655d19a5b3331bb4c031e078", "is_disabled": 0, "rental_uris": {"android": "https://dc.lft.to/lastmile_qr_scan", "ios": "https://dc.lft.to/lastmile_qr_scan"}, "fusion_lon": 0.0, "lat": 38.90681, "bike_id": "e3bb286f655d19a5b3331bb4c031e078", "type": "electric_scooter", "is_reserved": 0, "lon": -77.02699166666666}, {"fusion_lat": 0.0, "name": "2d3d663df287bff38272719ebf3aa048", "is_disabled": 0, "rental_uris": {"android": "https://dc.lft.to/lastmile_qr_scan", "ios": "https://dc.lft.to/lastmile_qr_scan"}, "fusion_lon": 0.0, "lat": 38.903617, "bike_id": "2d3d663df287bff38272719ebf3aa048", "type": "electric_scooter", "is_reserved": 0, "lon": -77.00730366666667}, {"fusion_lat": 0.0, "name": "29712475a97b8b4de0776741fe03de62", "is_disabled": 0, "rental_uris": {"android": "https://dc.lft.to/lastmile_qr_scan", "ios": "https://dc.lft.to/lastmile_qr_scan"}, "fusion_lon": 0.0, "lat": 38.9287045, "bike_id": "29712475a97b8b4de0776741fe03de62", "type": "electric_scooter", "is_reserved": 0, "lon": -77.01358916666666}, {"fusion_lat": 0.0, "name": "689108ef27a19857c01bcb5d3d00a3b9", "is_disabled": 0, "rental_uris": {"android": "https://dc.lft.to/lastmile_qr_scan", "ios": "https://dc.lft.to/lastmile_qr_scan"}, "fusion_lon": 0.0, "lat": 38.91161183333333, "bike_id": "689108ef27a19857c01bcb5d3d00a3b9", "type": "electric_scooter", "is_reserved": 0, "lon": -77.011129}, {"fusion_lat": 0.0, "name": "8ab172bfd536207bfd1d9467ff1222e3", "is_disabled": 0, "rental_uris": {"android": "https://dc.lft.to/lastmile_qr_scan", "ios": "https://dc.lft.to/lastmile_qr_scan"}, "fusion_lon": 0.0, "lat": 38.91009916666667, "bike_id": "8ab172bfd536207bfd1d9467ff1222e3", "type": "electric_scooter", "is_reserved": 0, "lon": -77.03857216666667}, {"fusion_lat": 0.0, "name": "ecf6aaa55d2489eabbd27305bcc2cef0", "is_disabled": 0, "rental_uris": {"android": "https://dc.lft.to/lastmile_qr_scan", "ios": "https://dc.lft.to/lastmile_qr_scan"}, "fusion_lon": 0.0, "lat": 38.917058, "bike_id": "ecf6aaa55d2489eabbd27305bcc2cef0", "type": "electric_scooter", "is_reserved": 0, "lon": -77.02411983333333}, {"fusion_lat": 0.0, "name": "533d3b0e252c5c2b41e01e012c0a93d3", "is_disabled": 0, "rental_uris": {"android": "https://dc.lft.to/lastmile_qr_scan", "ios": "https://dc.lft.to/lastmile_qr_scan"}, "fusion_lon": 0.0, "lat": 38.90496266666667, "bike_id": "533d3b0e252c5c2b41e01e012c0a93d3", "type": "electric_scooter", "is_reserved": 0, "lon": -77.06023966666666}, {"fusion_lat": 0.0, "name": "e6d37c68c3b2943ab607a330b5c77a98", "is_disabled": 0, "rental_uris": {"android": "https://dc.lft.to/lastmile_qr_scan", "ios": "https://dc.lft.to/lastmile_qr_scan"}, "fusion_lon": 0.0, "lat": 38.91568316666667, "bike_id": "e6d37c68c3b2943ab607a330b5c77a98", "type": "electric_scooter", "is_reserved": 0, "lon": -77.0314595}, {"fusion_lat": 0.0, "name": "eb558a35867436704e4679cdbbca68a8", "is_disabled": 0, "rental_uris": {"android": "https://dc.lft.to/lastmile_qr_scan", "ios": "https://dc.lft.to/lastmile_qr_scan"}, "fusion_lon": 0.0, "lat": 38.91565033333333, "bike_id": "eb558a35867436704e4679cdbbca68a8", "type": "electric_scooter", "is_reserved": 0, "lon": -77.01052033333333}, {"fusion_lat": 0.0, "name": "a8992ebe18819cb3c1ce779a6493334c", "is_disabled": 0, "rental_uris": {"android": "https://dc.lft.to/lastmile_qr_scan", "ios": "https://dc.lft.to/lastmile_qr_scan"}, "fusion_lon": 0.0, "lat": 38.89221966666667, "bike_id": "a8992ebe18819cb3c1ce779a6493334c", "type": "electric_scooter", "is_reserved": 0, "lon": -77.02053683333334}, {"fusion_lat": 0.0, "name": "f8e6614e1abb8692a3e82714e0665762", "is_disabled": 0, "rental_uris": {"android": "https://dc.lft.to/lastmile_qr_scan", "ios": "https://dc.lft.to/lastmile_qr_scan"}, "fusion_lon": 0.0, "lat": 38.886232, "bike_id": "f8e6614e1abb8692a3e82714e0665762", "type": "electric_scooter", "is_reserved": 0, "lon": -77.02833716666666}, {"fusion_lat": 0.0, "name": "09d1a61026d645b74f7ae631a00fd766", "is_disabled": 0, "rental_uris": {"android": "https://dc.lft.to/lastmile_qr_scan", "ios": "https://dc.lft.to/lastmile_qr_scan"}, "fusion_lon": 0.0, "lat": 38.9229135, "bike_id": "09d1a61026d645b74f7ae631a00fd766", "type": "electric_scooter", "is_reserved": 0, "lon": -76.955991}, {"fusion_lat": 0.0, "name": "a3a5018d1693646efd0f3ba671a4299b", "is_disabled": 0, "rental_uris": {"android": "https://dc.lft.to/lastmile_qr_scan", "ios": "https://dc.lft.to/lastmile_qr_scan"}, "fusion_lon": 0.0, "lat": 38.91749766666667, "bike_id": "a3a5018d1693646efd0f3ba671a4299b", "type": "electric_scooter", "is_reserved": 0, "lon": -77.06942016666666}, {"fusion_lat": 0.0, "name": "94439e67f9c698d6423455c17d7380f7", "is_disabled": 0, "rental_uris": {"android": "https://dc.lft.to/lastmile_qr_scan", "ios": "https://dc.lft.to/lastmile_qr_scan"}, "fusion_lon": 0.0, "lat": 38.9112025, "bike_id": "94439e67f9c698d6423455c17d7380f7", "type": "electric_scooter", "is_reserved": 0, "lon": -77.01885933333334}, {"fusion_lat": 0.0, "name": "fa1276187f8fd21dc349014755113c4a", "is_disabled": 0, "rental_uris": {"android": "https://dc.lft.to/lastmile_qr_scan", "ios": "https://dc.lft.to/lastmile_qr_scan"}, "fusion_lon": 0.0, "lat": 38.90627933333333, "bike_id": "fa1276187f8fd21dc349014755113c4a", "type": "electric_scooter", "is_reserved": 0, "lon": -77.026095}, {"fusion_lat": 0.0, "name": "e3596e8f85e78037c4356244122ed8dd", "is_disabled": 0, "rental_uris": {"android": "https://dc.lft.to/lastmile_qr_scan", "ios": "https://dc.lft.to/lastmile_qr_scan"}, "fusion_lon": 0.0, "lat": 38.90648483333333, "bike_id": "e3596e8f85e78037c4356244122ed8dd", "type": "electric_scooter", "is_reserved": 0, "lon": -77.01623783333334}, {"fusion_lat": 0.0, "name": "3abb8e09db413908c5a6607c07e9811a", "is_disabled": 0, "rental_uris": {"android": "https://dc.lft.to/lastmile_qr_scan", "ios": "https://dc.lft.to/lastmile_qr_scan"}, "fusion_lon": 0.0, "lat": 38.916335833333335, "bike_id": "3abb8e09db413908c5a6607c07e9811a", "type": "electric_scooter", "is_reserved": 0, "lon": -77.02968066666666}, {"fusion_lat": 0.0, "name": "b1875f5e09d159a351b2093b04095a63", "is_disabled": 0, "rental_uris": {"android": "https://dc.lft.to/lastmile_qr_scan", "ios": "https://dc.lft.to/lastmile_qr_scan"}, "fusion_lon": 0.0, "lat": 38.8801735, "bike_id": "b1875f5e09d159a351b2093b04095a63", "type": "electric_scooter", "is_reserved": 0, "lon": -76.98072216666667}, {"fusion_lat": 0.0, "name": "4d194b8e6549fb7c8a96290fa6984361", "is_disabled": 0, "rental_uris": {"android": "https://dc.lft.to/lastmile_qr_scan", "ios": "https://dc.lft.to/lastmile_qr_scan"}, "fusion_lon": 0.0, "lat": 38.902407833333335, "bike_id": "4d194b8e6549fb7c8a96290fa6984361", "type": "electric_scooter", "is_reserved": 0, "lon": -77.00209}, {"fusion_lat": 0.0, "name": "53bd64f4002b9e3f7607818986c04f50", "is_disabled": 0, "rental_uris": {"android": "https://dc.lft.to/lastmile_qr_scan", "ios": "https://dc.lft.to/lastmile_qr_scan"}, "fusion_lon": 0.0, "lat": 38.913056833333336, "bike_id": "53bd64f4002b9e3f7607818986c04f50", "type": "electric_scooter", "is_reserved": 0, "lon": -77.036537}, {"fusion_lat": 0.0, "name": "87e18f8bf01b5f3bdd6387ced6ef4679", "is_disabled": 0, "rental_uris": {"android": "https://dc.lft.to/lastmile_qr_scan", "ios": "https://dc.lft.to/lastmile_qr_scan"}, "fusion_lon": 0.0, "lat": 38.916863166666666, "bike_id": "87e18f8bf01b5f3bdd6387ced6ef4679", "type": "electric_scooter", "is_reserved": 0, "lon": -77.037521}, {"fusion_lat": 0.0, "name": "ccaaafd9b0d726df9a2505a6a6bce6e5", "is_disabled": 0, "rental_uris": {"android": "https://dc.lft.to/lastmile_qr_scan", "ios": "https://dc.lft.to/lastmile_qr_scan"}, "fusion_lon": 0.0, "lat": 38.893353166666664, "bike_id": "ccaaafd9b0d726df9a2505a6a6bce6e5", "type": "electric_scooter", "is_reserved": 0, "lon": -76.94377966666667}, {"fusion_lat": 0.0, "name": "472ad4b3a9fbd8d075cba9a78c679adc", "is_disabled": 0, "rental_uris": {"android": "https://dc.lft.to/lastmile_qr_scan", "ios": "https://dc.lft.to/lastmile_qr_scan"}, "fusion_lon": 0.0, "lat": 38.926683833333335, "bike_id": "472ad4b3a9fbd8d075cba9a78c679adc", "type": "electric_scooter", "is_reserved": 0, "lon": -77.01507416666666}, {"fusion_lat": 0.0, "name": "1b814f0cad65d1a54d77891c61d49f33", "is_disabled": 0, "rental_uris": {"android": "https://dc.lft.to/lastmile_qr_scan", "ios": "https://dc.lft.to/lastmile_qr_scan"}, "fusion_lon": 0.0, "lat": 38.931116, "bike_id": "1b814f0cad65d1a54d77891c61d49f33", "type": "electric_scooter", "is_reserved": 0, "lon": -77.02972016666666}, {"fusion_lat": 0.0, "name": "6a1162ed509c5ee285ee74813361e9f8", "is_disabled": 0, "rental_uris": {"android": "https://dc.lft.to/lastmile_qr_scan", "ios": "https://dc.lft.to/lastmile_qr_scan"}, "fusion_lon": 0.0, "lat": 38.917419833333334, "bike_id": "6a1162ed509c5ee285ee74813361e9f8", "type": "electric_scooter", "is_reserved": 0, "lon": -77.03188616666667}, {"fusion_lat": 0.0, "name": "28e7537845aec636de65bfc81d4a17c5", "is_disabled": 0, "rental_uris": {"android": "https://dc.lft.to/lastmile_qr_scan", "ios": "https://dc.lft.to/lastmile_qr_scan"}, "fusion_lon": 0.0, "lat": 38.91709633333333, "bike_id": "28e7537845aec636de65bfc81d4a17c5", "type": "electric_scooter", "is_reserved": 0, "lon": -77.02772066666667}, {"fusion_lat": 0.0, "name": "9120af7d673ec66b3c1bd3802a00eb21", "is_disabled": 0, "rental_uris": {"android": "https://dc.lft.to/lastmile_qr_scan", "ios": "https://dc.lft.to/lastmile_qr_scan"}, "fusion_lon": 0.0, "lat": 38.902479166666666, "bike_id": "9120af7d673ec66b3c1bd3802a00eb21", "type": "electric_scooter", "is_reserved": 0, "lon": -77.05338466666667}, {"fusion_lat": 0.0, "name": "56639ae28883e955f80ec09e3840197c", "is_disabled": 0, "rental_uris": {"android": "https://dc.lft.to/lastmile_qr_scan", "ios": "https://dc.lft.to/lastmile_qr_scan"}, "fusion_lon": 0.0, "lat": 38.93360366666667, "bike_id": "56639ae28883e955f80ec09e3840197c", "type": "electric_scooter", "is_reserved": 0, "lon": -77.057414}, {"fusion_lat": 0.0, "name": "71e0f5999a6daf91c9672eb45a18a5ff", "is_disabled": 0, "rental_uris": {"android": "https://dc.lft.to/lastmile_qr_scan", "ios": "https://dc.lft.to/lastmile_qr_scan"}, "fusion_lon": 0.0, "lat": 38.928581666666666, "bike_id": "71e0f5999a6daf91c9672eb45a18a5ff", "type": "electric_scooter", "is_reserved": 0, "lon": -77.0305425}, {"fusion_lat": 0.0, "name": "8e54cdec4af7b1ecb00fbd12b1d491ee", "is_disabled": 0, "rental_uris": {"android": "https://dc.lft.to/lastmile_qr_scan", "ios": "https://dc.lft.to/lastmile_qr_scan"}, "fusion_lon": 0.0, "lat": 38.90855783333333, "bike_id": "8e54cdec4af7b1ecb00fbd12b1d491ee", "type": "electric_scooter", "is_reserved": 0, "lon": -77.03233466666667}, {"fusion_lat": 0.0, "name": "177514abb013a356236ab30d99dc9bee", "is_disabled": 0, "rental_uris": {"android": "https://dc.lft.to/lastmile_qr_scan", "ios": "https://dc.lft.to/lastmile_qr_scan"}, "fusion_lon": 0.0, "lat": 38.903057833333335, "bike_id": "177514abb013a356236ab30d99dc9bee", "type": "electric_scooter", "is_reserved": 0, "lon": -76.97655533333334}, {"fusion_lat": 0.0, "name": "ca8e9aac16a1ae1eb7ccc062428c4ac4", "is_disabled": 0, "rental_uris": {"android": "https://dc.lft.to/lastmile_qr_scan", "ios": "https://dc.lft.to/lastmile_qr_scan"}, "fusion_lon": 0.0, "lat": 38.924852333333334, "bike_id": "ca8e9aac16a1ae1eb7ccc062428c4ac4", "type": "electric_scooter", "is_reserved": 0, "lon": -77.02552716666666}, {"fusion_lat": 0.0, "name": "3c8900dddec8a95e143eb95c36afce2e", "is_disabled": 0, "rental_uris": {"android": "https://dc.lft.to/lastmile_qr_scan", "ios": "https://dc.lft.to/lastmile_qr_scan"}, "fusion_lon": 0.0, "lat": 38.994405, "bike_id": "3c8900dddec8a95e143eb95c36afce2e", "type": "electric_bike", "is_reserved": 0, "lon": -76.99594633333334}, {"fusion_lat": 0.0, "name": "7d78c2ad3f12d071ff02a6a7567674da", "is_disabled": 0, "rental_uris": {"android": "https://dc.lft.to/lastmile_qr_scan", "ios": "https://dc.lft.to/lastmile_qr_scan"}, "fusion_lon": 0.0, "lat": 38.887359833333335, "bike_id": "7d78c2ad3f12d071ff02a6a7567674da", "type": "electric_scooter", "is_reserved": 0, "lon": -77.02136716666666}, {"fusion_lat": 0.0, "name": "9e6b62c8b9a5b8ae04ea597cb9f9d5dd", "is_disabled": 0, "rental_uris": {"android": "https://dc.lft.to/lastmile_qr_scan", "ios": "https://dc.lft.to/lastmile_qr_scan"}, "fusion_lon": 0.0, "lat": 38.9027995, "bike_id": "9e6b62c8b9a5b8ae04ea597cb9f9d5dd", "type": "electric_scooter", "is_reserved": 0, "lon": -77.03663183333333}, {"fusion_lat": 0.0, "name": "309f2a0c463968607a3df04c485767a4", "is_disabled": 0, "rental_uris": {"android": "https://dc.lft.to/lastmile_qr_scan", "ios": "https://dc.lft.to/lastmile_qr_scan"}, "fusion_lon": 0.0, "lat": 38.896778166666664, "bike_id": "309f2a0c463968607a3df04c485767a4", "type": "electric_scooter", "is_reserved": 0, "lon": -77.02450983333334}, {"fusion_lat": 0.0, "name": "5ce17c6e4367f5cdc82b894f998c58e7", "is_disabled": 0, "rental_uris": {"android": "https://dc.lft.to/lastmile_qr_scan", "ios": "https://dc.lft.to/lastmile_qr_scan"}, "fusion_lon": 0.0, "lat": 38.917126833333334, "bike_id": "5ce17c6e4367f5cdc82b894f998c58e7", "type": "electric_scooter", "is_reserved": 0, "lon": -77.03861533333334}, {"fusion_lat": 0.0, "name": "cbb715fdf00fab40669801f249110dc0", "is_disabled": 0, "rental_uris": {"android": "https://dc.lft.to/lastmile_qr_scan", "ios": "https://dc.lft.to/lastmile_qr_scan"}, "fusion_lon": 0.0, "lat": 38.917824, "bike_id": "cbb715fdf00fab40669801f249110dc0", "type": "electric_scooter", "is_reserved": 0, "lon": -77.03585983333333}, {"fusion_lat": 0.0, "name": "1f1ed7de2e8fec095b8fc0c48df7deab", "is_disabled": 0, "rental_uris": {"android": "https://dc.lft.to/lastmile_qr_scan", "ios": "https://dc.lft.to/lastmile_qr_scan"}, "fusion_lon": 0.0, "lat": 38.8994815, "bike_id": "1f1ed7de2e8fec095b8fc0c48df7deab", "type": "electric_scooter", "is_reserved": 0, "lon": -77.05712416666667}, {"fusion_lat": 0.0, "name": "fc9546f996399d7a72cdd6fa1cbdefa2", "is_disabled": 0, "rental_uris": {"android": "https://dc.lft.to/lastmile_qr_scan", "ios": "https://dc.lft.to/lastmile_qr_scan"}, "fusion_lon": 0.0, "lat": 38.917481, "bike_id": "fc9546f996399d7a72cdd6fa1cbdefa2", "type": "electric_scooter", "is_reserved": 0, "lon": -77.069318}, {"fusion_lat": 0.0, "name": "fdb2700807f8ae42083f656631522a7e", "is_disabled": 0, "rental_uris": {"android": "https://dc.lft.to/lastmile_qr_scan", "ios": "https://dc.lft.to/lastmile_qr_scan"}, "fusion_lon": 0.0, "lat": 38.905566, "bike_id": "fdb2700807f8ae42083f656631522a7e", "type": "electric_scooter", "is_reserved": 0, "lon": -77.0430325}, {"fusion_lat": 0.0, "name": "118aafb652d0476ad49b1fbf8b86a59f", "is_disabled": 0, "rental_uris": {"android": "https://dc.lft.to/lastmile_qr_scan", "ios": "https://dc.lft.to/lastmile_qr_scan"}, "fusion_lon": 0.0, "lat": 38.9214805, "bike_id": "118aafb652d0476ad49b1fbf8b86a59f", "type": "electric_scooter", "is_reserved": 0, "lon": -77.043508}, {"fusion_lat": 0.0, "name": "173bdf7a2f612ebac4987b9170124da5", "is_disabled": 0, "rental_uris": {"android": "https://dc.lft.to/lastmile_qr_scan", "ios": "https://dc.lft.to/lastmile_qr_scan"}, "fusion_lon": 0.0, "lat": 38.90644133333333, "bike_id": "173bdf7a2f612ebac4987b9170124da5", "type": "electric_scooter", "is_reserved": 0, "lon": -77.062903}, {"fusion_lat": 0.0, "name": "a803918a462e027a8551b8aaba32a611", "is_disabled": 0, "rental_uris": {"android": "https://dc.lft.to/lastmile_qr_scan", "ios": "https://dc.lft.to/lastmile_qr_scan"}, "fusion_lon": 0.0, "lat": 38.905645166666666, "bike_id": "a803918a462e027a8551b8aaba32a611", "type": "electric_scooter", "is_reserved": 0, "lon": -77.00569816666666}, {"fusion_lat": 0.0, "name": "6b667ad253b3ccb42b762bff702f9568", "is_disabled": 0, "rental_uris": {"android": "https://dc.lft.to/lastmile_qr_scan", "ios": "https://dc.lft.to/lastmile_qr_scan"}, "fusion_lon": 0.0, "lat": 38.924212, "bike_id": "6b667ad253b3ccb42b762bff702f9568", "type": "electric_scooter", "is_reserved": 0, "lon": -77.044611}, {"fusion_lat": 0.0, "name": "50b157269ae8de897143533b70ebe305", "is_disabled": 0, "rental_uris": {"android": "https://dc.lft.to/lastmile_qr_scan", "ios": "https://dc.lft.to/lastmile_qr_scan"}, "fusion_lon": 0.0, "lat": 38.870914166666665, "bike_id": "50b157269ae8de897143533b70ebe305", "type": "electric_scooter", "is_reserved": 0, "lon": -77.01216066666667}, {"fusion_lat": 0.0, "name": "9c71f06b2a077fe9db47254f06fc6aaf", "is_disabled": 0, "rental_uris": {"android": "https://dc.lft.to/lastmile_qr_scan", "ios": "https://dc.lft.to/lastmile_qr_scan"}, "fusion_lon": 0.0, "lat": 38.918361, "bike_id": "9c71f06b2a077fe9db47254f06fc6aaf", "type": "electric_scooter", "is_reserved": 0, "lon": -77.02438216666667}, {"fusion_lat": 0.0, "name": "e321fc5e807ca903a7adeb0be1c8497f", "is_disabled": 0, "rental_uris": {"android": "https://dc.lft.to/lastmile_qr_scan", "ios": "https://dc.lft.to/lastmile_qr_scan"}, "fusion_lon": 0.0, "lat": 38.9177945, "bike_id": "e321fc5e807ca903a7adeb0be1c8497f", "type": "electric_scooter", "is_reserved": 0, "lon": -77.02310033333333}, {"fusion_lat": 0.0, "name": "00cfd5dc678cee944dab2a08a34291ed", "is_disabled": 0, "rental_uris": {"android": "https://dc.lft.to/lastmile_qr_scan", "ios": "https://dc.lft.to/lastmile_qr_scan"}, "fusion_lon": 0.0, "lat": 38.901794333333335, "bike_id": "00cfd5dc678cee944dab2a08a34291ed", "type": "electric_scooter", "is_reserved": 0, "lon": -77.05052733333333}, {"fusion_lat": 0.0, "name": "23bbc0282b302bf6aa0d85a2f5ef1f9a", "is_disabled": 0, "rental_uris": {"android": "https://dc.lft.to/lastmile_qr_scan", "ios": "https://dc.lft.to/lastmile_qr_scan"}, "fusion_lon": 0.0, "lat": 38.92132266666667, "bike_id": "23bbc0282b302bf6aa0d85a2f5ef1f9a", "type": "electric_scooter", "is_reserved": 0, "lon": -77.00409766666667}, {"fusion_lat": 0.0, "name": "a30673043983249263912d61b37b0bfe", "is_disabled": 0, "rental_uris": {"android": "https://dc.lft.to/lastmile_qr_scan", "ios": "https://dc.lft.to/lastmile_qr_scan"}, "fusion_lon": 0.0, "lat": 38.978803, "bike_id": "a30673043983249263912d61b37b0bfe", "type": "electric_bike", "is_reserved": 0, "lon": -77.060282}, {"fusion_lat": 0.0, "name": "1a531241394775739b83d5ff5c2fd4fa", "is_disabled": 0, "rental_uris": {"android": "https://dc.lft.to/lastmile_qr_scan", "ios": "https://dc.lft.to/lastmile_qr_scan"}, "fusion_lon": 0.0, "lat": 38.90555833333333, "bike_id": "1a531241394775739b83d5ff5c2fd4fa", "type": "electric_scooter", "is_reserved": 0, "lon": -77.05823883333333}, {"fusion_lat": 0.0, "name": "8172ebcdaa589bedbabde3811f3509cc", "is_disabled": 0, "rental_uris": {"android": "https://dc.lft.to/lastmile_qr_scan", "ios": "https://dc.lft.to/lastmile_qr_scan"}, "fusion_lon": 0.0, "lat": 38.92886883333333, "bike_id": "8172ebcdaa589bedbabde3811f3509cc", "type": "electric_scooter", "is_reserved": 0, "lon": -77.03334133333334}, {"fusion_lat": 0.0, "name": "ac10a262089bd22692ac4889edc1b3bd", "is_disabled": 0, "rental_uris": {"android": "https://dc.lft.to/lastmile_qr_scan", "ios": "https://dc.lft.to/lastmile_qr_scan"}, "fusion_lon": 0.0, "lat": 38.93303066666667, "bike_id": "ac10a262089bd22692ac4889edc1b3bd", "type": "electric_scooter", "is_reserved": 0, "lon": -77.03103283333333}, {"fusion_lat": 0.0, "name": "bc23d64f807ce21439fd0f515227d264", "is_disabled": 0, "rental_uris": {"android": "https://dc.lft.to/lastmile_qr_scan", "ios": "https://dc.lft.to/lastmile_qr_scan"}, "fusion_lon": 0.0, "lat": 38.874826166666665, "bike_id": "bc23d64f807ce21439fd0f515227d264", "type": "electric_scooter", "is_reserved": 0, "lon": -77.0061195}, {"fusion_lat": 0.0, "name": "2c06c865ef74ce3bd1fe821cfc0af6fc", "is_disabled": 0, "rental_uris": {"android": "https://dc.lft.to/lastmile_qr_scan", "ios": "https://dc.lft.to/lastmile_qr_scan"}, "fusion_lon": 0.0, "lat": 38.91548216666666, "bike_id": "2c06c865ef74ce3bd1fe821cfc0af6fc", "type": "electric_scooter", "is_reserved": 0, "lon": -77.02149083333333}, {"fusion_lat": 0.0, "name": "96f580a075d588d89a593af0dd61a197", "is_disabled": 0, "rental_uris": {"android": "https://dc.lft.to/lastmile_qr_scan", "ios": "https://dc.lft.to/lastmile_qr_scan"}, "fusion_lon": 0.0, "lat": 38.920201, "bike_id": "96f580a075d588d89a593af0dd61a197", "type": "electric_scooter", "is_reserved": 0, "lon": -77.02209916666666}, {"fusion_lat": 0.0, "name": "b6aadcb6e32e3b977d3e2384783358df", "is_disabled": 0, "rental_uris": {"android": "https://dc.lft.to/lastmile_qr_scan", "ios": "https://dc.lft.to/lastmile_qr_scan"}, "fusion_lon": 0.0, "lat": 38.89244766666667, "bike_id": "b6aadcb6e32e3b977d3e2384783358df", "type": "electric_scooter", "is_reserved": 0, "lon": -77.0395785}, {"fusion_lat": 0.0, "name": "8b365ff3a04be361fcfc76e08084309b", "is_disabled": 0, "rental_uris": {"android": "https://dc.lft.to/lastmile_qr_scan", "ios": "https://dc.lft.to/lastmile_qr_scan"}, "fusion_lon": 0.0, "lat": 38.924388, "bike_id": "8b365ff3a04be361fcfc76e08084309b", "type": "electric_scooter", "is_reserved": 0, "lon": -77.0523095}, {"fusion_lat": 0.0, "name": "7a731f2d30b396b77e35be83be3f90ca", "is_disabled": 0, "rental_uris": {"android": "https://dc.lft.to/lastmile_qr_scan", "ios": "https://dc.lft.to/lastmile_qr_scan"}, "fusion_lon": 0.0, "lat": 38.95798883333333, "bike_id": "7a731f2d30b396b77e35be83be3f90ca", "type": "electric_bike", "is_reserved": 0, "lon": -76.960484}, {"fusion_lat": 0.0, "name": "fc9b3404aefe08da1cbfa8bdcde62e80", "is_disabled": 0, "rental_uris": {"android": "https://dc.lft.to/lastmile_qr_scan", "ios": "https://dc.lft.to/lastmile_qr_scan"}, "fusion_lon": 0.0, "lat": 38.924972833333335, "bike_id": "fc9b3404aefe08da1cbfa8bdcde62e80", "type": "electric_scooter", "is_reserved": 0, "lon": -77.0522355}, {"fusion_lat": 0.0, "name": "afb49ffa89b9724ff92cfaed76cd1ddd", "is_disabled": 0, "rental_uris": {"android": "https://dc.lft.to/lastmile_qr_scan", "ios": "https://dc.lft.to/lastmile_qr_scan"}, "fusion_lon": 0.0, "lat": 38.92194966666667, "bike_id": "afb49ffa89b9724ff92cfaed76cd1ddd", "type": "electric_scooter", "is_reserved": 0, "lon": -77.08082783333333}, {"fusion_lat": 0.0, "name": "0d2f61085392eb350013af4b82f6cf1a", "is_disabled": 0, "rental_uris": {"android": "https://dc.lft.to/lastmile_qr_scan", "ios": "https://dc.lft.to/lastmile_qr_scan"}, "fusion_lon": 0.0, "lat": 38.90846466666667, "bike_id": "0d2f61085392eb350013af4b82f6cf1a", "type": "electric_scooter", "is_reserved": 0, "lon": -77.04680166666667}, {"fusion_lat": 0.0, "name": "26769b60b2d99586bd2ca01469f3bf40", "is_disabled": 0, "rental_uris": {"android": "https://dc.lft.to/lastmile_qr_scan", "ios": "https://dc.lft.to/lastmile_qr_scan"}, "fusion_lon": 0.0, "lat": 38.918167833333335, "bike_id": "26769b60b2d99586bd2ca01469f3bf40", "type": "electric_bike", "is_reserved": 0, "lon": -77.0262535}, {"fusion_lat": 0.0, "name": "df2333213ca4e12397d6c67da1477a82", "is_disabled": 0, "rental_uris": {"android": "https://dc.lft.to/lastmile_qr_scan", "ios": "https://dc.lft.to/lastmile_qr_scan"}, "fusion_lon": 0.0, "lat": 38.914434, "bike_id": "df2333213ca4e12397d6c67da1477a82", "type": "electric_scooter", "is_reserved": 0, "lon": -77.04477216666666}, {"fusion_lat": 0.0, "name": "0c0db9fc1fa51e61ecf588a5f457cf7e", "is_disabled": 0, "rental_uris": {"android": "https://dc.lft.to/lastmile_qr_scan", "ios": "https://dc.lft.to/lastmile_qr_scan"}, "fusion_lon": 0.0, "lat": 38.90035683333333, "bike_id": "0c0db9fc1fa51e61ecf588a5f457cf7e", "type": "electric_scooter", "is_reserved": 0, "lon": -76.9856045}, {"fusion_lat": 0.0, "name": "1d672587faecf73b565cfcc892951640", "is_disabled": 0, "rental_uris": {"android": "https://dc.lft.to/lastmile_qr_scan", "ios": "https://dc.lft.to/lastmile_qr_scan"}, "fusion_lon": 0.0, "lat": 38.889878333333336, "bike_id": "1d672587faecf73b565cfcc892951640", "type": "electric_scooter", "is_reserved": 0, "lon": -76.91419433333333}, {"fusion_lat": 0.0, "name": "2e761ee4ced765b36919c3a13bde7839", "is_disabled": 0, "rental_uris": {"android": "https://dc.lft.to/lastmile_qr_scan", "ios": "https://dc.lft.to/lastmile_qr_scan"}, "fusion_lon": 0.0, "lat": 38.90553966666667, "bike_id": "2e761ee4ced765b36919c3a13bde7839", "type": "electric_scooter", "is_reserved": 0, "lon": -77.04677266666667}, {"fusion_lat": 0.0, "name": "b390b0a321679a41ac3d00b04d39efca", "is_disabled": 0, "rental_uris": {"android": "https://dc.lft.to/lastmile_qr_scan", "ios": "https://dc.lft.to/lastmile_qr_scan"}, "fusion_lon": 0.0, "lat": 38.910814, "bike_id": "b390b0a321679a41ac3d00b04d39efca", "type": "electric_scooter", "is_reserved": 0, "lon": -77.02180766666666}, {"fusion_lat": 0.0, "name": "3b01f85395bb13c0af00e863f0e32b98", "is_disabled": 0, "rental_uris": {"android": "https://dc.lft.to/lastmile_qr_scan", "ios": "https://dc.lft.to/lastmile_qr_scan"}, "fusion_lon": 0.0, "lat": 38.90617866666667, "bike_id": "3b01f85395bb13c0af00e863f0e32b98", "type": "electric_scooter", "is_reserved": 0, "lon": -77.00582916666667}, {"fusion_lat": 0.0, "name": "346f5d1e485a86786c31501cb307e791", "is_disabled": 0, "rental_uris": {"android": "https://dc.lft.to/lastmile_qr_scan", "ios": "https://dc.lft.to/lastmile_qr_scan"}, "fusion_lon": 0.0, "lat": 38.92498333333333, "bike_id": "346f5d1e485a86786c31501cb307e791", "type": "electric_scooter", "is_reserved": 0, "lon": -76.98544033333333}, {"fusion_lat": 0.0, "name": "a0fe38fe75d7d54fc2d1e71904c61abe", "is_disabled": 0, "rental_uris": {"android": "https://dc.lft.to/lastmile_qr_scan", "ios": "https://dc.lft.to/lastmile_qr_scan"}, "fusion_lon": 0.0, "lat": 38.90085766666667, "bike_id": "a0fe38fe75d7d54fc2d1e71904c61abe", "type": "electric_scooter", "is_reserved": 0, "lon": -77.050044}, {"fusion_lat": 0.0, "name": "c9e2b384807240d0c433534fb36a11aa", "is_disabled": 0, "rental_uris": {"android": "https://dc.lft.to/lastmile_qr_scan", "ios": "https://dc.lft.to/lastmile_qr_scan"}, "fusion_lon": 0.0, "lat": 38.91778883333333, "bike_id": "c9e2b384807240d0c433534fb36a11aa", "type": "electric_scooter", "is_reserved": 0, "lon": -77.0358615}, {"fusion_lat": 0.0, "name": "d8aebdf41c57748d8b14df82349b3816", "is_disabled": 0, "rental_uris": {"android": "https://dc.lft.to/lastmile_qr_scan", "ios": "https://dc.lft.to/lastmile_qr_scan"}, "fusion_lon": 0.0, "lat": 38.940814833333334, "bike_id": "d8aebdf41c57748d8b14df82349b3816", "type": "electric_scooter", "is_reserved": 0, "lon": -77.026413}, {"fusion_lat": 0.0, "name": "3dfadcb1d338a1941eb0aec6dd1dd1bf", "is_disabled": 0, "rental_uris": {"android": "https://dc.lft.to/lastmile_qr_scan", "ios": "https://dc.lft.to/lastmile_qr_scan"}, "fusion_lon": 0.0, "lat": 38.878334833333334, "bike_id": "3dfadcb1d338a1941eb0aec6dd1dd1bf", "type": "electric_scooter", "is_reserved": 0, "lon": -76.9632555}, {"fusion_lat": 0.0, "name": "4d87c3b51bbcae02aadf4ffe8e8d24fc", "is_disabled": 0, "rental_uris": {"android": "https://dc.lft.to/lastmile_qr_scan", "ios": "https://dc.lft.to/lastmile_qr_scan"}, "fusion_lon": 0.0, "lat": 38.907297166666666, "bike_id": "4d87c3b51bbcae02aadf4ffe8e8d24fc", "type": "electric_scooter", "is_reserved": 0, "lon": -77.0418}, {"fusion_lat": 0.0, "name": "ce23f39e8a3ff74babf5cb55cabe7d44", "is_disabled": 0, "rental_uris": {"android": "https://dc.lft.to/lastmile_qr_scan", "ios": "https://dc.lft.to/lastmile_qr_scan"}, "fusion_lon": 0.0, "lat": 38.920975, "bike_id": "ce23f39e8a3ff74babf5cb55cabe7d44", "type": "electric_scooter", "is_reserved": 0, "lon": -77.046923}, {"fusion_lat": 0.0, "name": "a07ea565ef969248fcdaa06ecd7f74e7", "is_disabled": 0, "rental_uris": {"android": "https://dc.lft.to/lastmile_qr_scan", "ios": "https://dc.lft.to/lastmile_qr_scan"}, "fusion_lon": 0.0, "lat": 38.89587733333333, "bike_id": "a07ea565ef969248fcdaa06ecd7f74e7", "type": "electric_scooter", "is_reserved": 0, "lon": -77.02191466666666}, {"fusion_lat": 0.0, "name": "aa3796e6eb080cd4025243a470a8401d", "is_disabled": 0, "rental_uris": {"android": "https://dc.lft.to/lastmile_qr_scan", "ios": "https://dc.lft.to/lastmile_qr_scan"}, "fusion_lon": 0.0, "lat": 38.91258216666667, "bike_id": "aa3796e6eb080cd4025243a470a8401d", "type": "electric_scooter", "is_reserved": 0, "lon": -77.010359}, {"fusion_lat": 0.0, "name": "e68006cdc6fa1fc43b0ef4bbfc3f6a30", "is_disabled": 0, "rental_uris": {"android": "https://dc.lft.to/lastmile_qr_scan", "ios": "https://dc.lft.to/lastmile_qr_scan"}, "fusion_lon": 0.0, "lat": 38.91573366666667, "bike_id": "e68006cdc6fa1fc43b0ef4bbfc3f6a30", "type": "electric_scooter", "is_reserved": 0, "lon": -77.03204316666667}, {"fusion_lat": 0.0, "name": "1e20b7aafc49a25f4ebfae446f9a7bca", "is_disabled": 0, "rental_uris": {"android": "https://dc.lft.to/lastmile_qr_scan", "ios": "https://dc.lft.to/lastmile_qr_scan"}, "fusion_lon": 0.0, "lat": 38.920510166666666, "bike_id": "1e20b7aafc49a25f4ebfae446f9a7bca", "type": "electric_scooter", "is_reserved": 0, "lon": -77.03400816666667}, {"fusion_lat": 0.0, "name": "05d947942c557ace41350aa8786fd93d", "is_disabled": 0, "rental_uris": {"android": "https://dc.lft.to/lastmile_qr_scan", "ios": "https://dc.lft.to/lastmile_qr_scan"}, "fusion_lon": 0.0, "lat": 38.80490483333333, "bike_id": "05d947942c557ace41350aa8786fd93d", "type": "electric_bike", "is_reserved": 0, "lon": -77.101654}, {"fusion_lat": 0.0, "name": "7508c87382a1d5fa48fa70087fc2da44", "is_disabled": 0, "rental_uris": {"android": "https://dc.lft.to/lastmile_qr_scan", "ios": "https://dc.lft.to/lastmile_qr_scan"}, "fusion_lon": 0.0, "lat": 38.87376833333333, "bike_id": "7508c87382a1d5fa48fa70087fc2da44", "type": "electric_scooter", "is_reserved": 0, "lon": -77.00036583333333}, {"fusion_lat": 0.0, "name": "b20b10e8c30356149b752e8b7189dd5a", "is_disabled": 0, "rental_uris": {"android": "https://dc.lft.to/lastmile_qr_scan", "ios": "https://dc.lft.to/lastmile_qr_scan"}, "fusion_lon": 0.0, "lat": 38.912553833333334, "bike_id": "b20b10e8c30356149b752e8b7189dd5a", "type": "electric_scooter", "is_reserved": 0, "lon": -77.0363805}, {"fusion_lat": 0.0, "name": "315ac4e4048b9d662f648aa12a3ad65d", "is_disabled": 0, "rental_uris": {"android": "https://dc.lft.to/lastmile_qr_scan", "ios": "https://dc.lft.to/lastmile_qr_scan"}, "fusion_lon": 0.0, "lat": 38.93469183333333, "bike_id": "315ac4e4048b9d662f648aa12a3ad65d", "type": "electric_scooter", "is_reserved": 0, "lon": -77.08660816666666}, {"fusion_lat": 0.0, "name": "8d5f0cbb5b93ab54c713e54bde03f3da", "is_disabled": 0, "rental_uris": {"android": "https://dc.lft.to/lastmile_qr_scan", "ios": "https://dc.lft.to/lastmile_qr_scan"}, "fusion_lon": 0.0, "lat": 38.903384833333334, "bike_id": "8d5f0cbb5b93ab54c713e54bde03f3da", "type": "electric_scooter", "is_reserved": 0, "lon": -77.0449365}, {"fusion_lat": 0.0, "name": "58c9cb1589609bb87c2a14549b4286fa", "is_disabled": 0, "rental_uris": {"android": "https://dc.lft.to/lastmile_qr_scan", "ios": "https://dc.lft.to/lastmile_qr_scan"}, "fusion_lon": 0.0, "lat": 38.91107916666667, "bike_id": "58c9cb1589609bb87c2a14549b4286fa", "type": "electric_scooter", "is_reserved": 0, "lon": -77.0100145}, {"fusion_lat": 0.0, "name": "e87c7c82bfd4902e7827e85108b5c15a", "is_disabled": 0, "rental_uris": {"android": "https://dc.lft.to/lastmile_qr_scan", "ios": "https://dc.lft.to/lastmile_qr_scan"}, "fusion_lon": 0.0, "lat": 38.9170605, "bike_id": "e87c7c82bfd4902e7827e85108b5c15a", "type": "electric_scooter", "is_reserved": 0, "lon": -77.034718}, {"fusion_lat": 0.0, "name": "e3c021fe3e238e95c6188ca045135ffe", "is_disabled": 0, "rental_uris": {"android": "https://dc.lft.to/lastmile_qr_scan", "ios": "https://dc.lft.to/lastmile_qr_scan"}, "fusion_lon": 0.0, "lat": 38.923441833333335, "bike_id": "e3c021fe3e238e95c6188ca045135ffe", "type": "electric_scooter", "is_reserved": 0, "lon": -77.05183733333334}, {"fusion_lat": 0.0, "name": "3ce25fa13380aae6031381c157a283f9", "is_disabled": 0, "rental_uris": {"android": "https://dc.lft.to/lastmile_qr_scan", "ios": "https://dc.lft.to/lastmile_qr_scan"}, "fusion_lon": 0.0, "lat": 38.89973233333333, "bike_id": "3ce25fa13380aae6031381c157a283f9", "type": "electric_scooter", "is_reserved": 0, "lon": -77.05275033333334}, {"fusion_lat": 0.0, "name": "2d56ffdd601609a1059912190bb116e7", "is_disabled": 0, "rental_uris": {"android": "https://dc.lft.to/lastmile_qr_scan", "ios": "https://dc.lft.to/lastmile_qr_scan"}, "fusion_lon": 0.0, "lat": 38.905389, "bike_id": "2d56ffdd601609a1059912190bb116e7", "type": "electric_scooter", "is_reserved": 0, "lon": -77.05916566666667}, {"fusion_lat": 0.0, "name": "9e0176dbf587d50b1d18056901b66e1a", "is_disabled": 0, "rental_uris": {"android": "https://dc.lft.to/lastmile_qr_scan", "ios": "https://dc.lft.to/lastmile_qr_scan"}, "fusion_lon": 0.0, "lat": 38.9432985, "bike_id": "9e0176dbf587d50b1d18056901b66e1a", "type": "electric_scooter", "is_reserved": 0, "lon": -77.01554966666667}, {"fusion_lat": 0.0, "name": "aa2077f073fff527358009df7a93e69e", "is_disabled": 0, "rental_uris": {"android": "https://dc.lft.to/lastmile_qr_scan", "ios": "https://dc.lft.to/lastmile_qr_scan"}, "fusion_lon": 0.0, "lat": 38.89012183333333, "bike_id": "aa2077f073fff527358009df7a93e69e", "type": "electric_scooter", "is_reserved": 0, "lon": -76.937354}, {"fusion_lat": 0.0, "name": "cc008dff6c46a3daca17a9d37ddeda46", "is_disabled": 0, "rental_uris": {"android": "https://dc.lft.to/lastmile_qr_scan", "ios": "https://dc.lft.to/lastmile_qr_scan"}, "fusion_lon": 0.0, "lat": 38.89787183333333, "bike_id": "cc008dff6c46a3daca17a9d37ddeda46", "type": "electric_scooter", "is_reserved": 0, "lon": -77.02408116666666}, {"fusion_lat": 0.0, "name": "2f2480c442d2afbed9a2ebb9ca29794c", "is_disabled": 0, "rental_uris": {"android": "https://dc.lft.to/lastmile_qr_scan", "ios": "https://dc.lft.to/lastmile_qr_scan"}, "fusion_lon": 0.0, "lat": 38.8960495, "bike_id": "2f2480c442d2afbed9a2ebb9ca29794c", "type": "electric_scooter", "is_reserved": 0, "lon": -76.98111066666667}, {"fusion_lat": 0.0, "name": "601f990aae212e65dda7e628696e39d2", "is_disabled": 0, "rental_uris": {"android": "https://dc.lft.to/lastmile_qr_scan", "ios": "https://dc.lft.to/lastmile_qr_scan"}, "fusion_lon": 0.0, "lat": 38.90251033333333, "bike_id": "601f990aae212e65dda7e628696e39d2", "type": "electric_scooter", "is_reserved": 0, "lon": -77.0344795}, {"fusion_lat": 0.0, "name": "4d583c3a2121c31daf017202bb5f597c", "is_disabled": 0, "rental_uris": {"android": "https://dc.lft.to/lastmile_qr_scan", "ios": "https://dc.lft.to/lastmile_qr_scan"}, "fusion_lon": 0.0, "lat": 38.914998, "bike_id": "4d583c3a2121c31daf017202bb5f597c", "type": "electric_scooter", "is_reserved": 0, "lon": -77.02002033333333}, {"fusion_lat": 0.0, "name": "3115eb6f45b10b0bfb43feb6be58da25", "is_disabled": 0, "rental_uris": {"android": "https://dc.lft.to/lastmile_qr_scan", "ios": "https://dc.lft.to/lastmile_qr_scan"}, "fusion_lon": 0.0, "lat": 38.8852745, "bike_id": "3115eb6f45b10b0bfb43feb6be58da25", "type": "electric_scooter", "is_reserved": 0, "lon": -76.9292255}, {"fusion_lat": 0.0, "name": "ccc2a662b38d2c7e10e1f163578a029c", "is_disabled": 0, "rental_uris": {"android": "https://dc.lft.to/lastmile_qr_scan", "ios": "https://dc.lft.to/lastmile_qr_scan"}, "fusion_lon": 0.0, "lat": 38.920972, "bike_id": "ccc2a662b38d2c7e10e1f163578a029c", "type": "electric_scooter", "is_reserved": 0, "lon": -77.02520833333334}, {"fusion_lat": 0.0, "name": "4febd98ca8a686adf7ac276269705954", "is_disabled": 0, "rental_uris": {"android": "https://dc.lft.to/lastmile_qr_scan", "ios": "https://dc.lft.to/lastmile_qr_scan"}, "fusion_lon": 0.0, "lat": 38.899102, "bike_id": "4febd98ca8a686adf7ac276269705954", "type": "electric_scooter", "is_reserved": 0, "lon": -76.9335775}, {"fusion_lat": 0.0, "name": "34f99de8e262ff50bf3a255769c04cf7", "is_disabled": 0, "rental_uris": {"android": "https://dc.lft.to/lastmile_qr_scan", "ios": "https://dc.lft.to/lastmile_qr_scan"}, "fusion_lon": 0.0, "lat": 38.935388, "bike_id": "34f99de8e262ff50bf3a255769c04cf7", "type": "electric_scooter", "is_reserved": 0, "lon": -77.05754016666667}, {"fusion_lat": 0.0, "name": "98a04b61f54882894d31b54cc802f5f0", "is_disabled": 0, "rental_uris": {"android": "https://dc.lft.to/lastmile_qr_scan", "ios": "https://dc.lft.to/lastmile_qr_scan"}, "fusion_lon": 0.0, "lat": 38.87577316666667, "bike_id": "98a04b61f54882894d31b54cc802f5f0", "type": "electric_bike", "is_reserved": 0, "lon": -77.234117}, {"fusion_lat": 0.0, "name": "16a22aeafd5d346588fc2a46e7574210", "is_disabled": 0, "rental_uris": {"android": "https://dc.lft.to/lastmile_qr_scan", "ios": "https://dc.lft.to/lastmile_qr_scan"}, "fusion_lon": 0.0, "lat": 38.899771, "bike_id": "16a22aeafd5d346588fc2a46e7574210", "type": "electric_scooter", "is_reserved": 0, "lon": -77.02722966666667}, {"fusion_lat": 0.0, "name": "94654600d5f8e4f6b5c27b1e64ae2d4a", "is_disabled": 0, "rental_uris": {"android": "https://dc.lft.to/lastmile_qr_scan", "ios": "https://dc.lft.to/lastmile_qr_scan"}, "fusion_lon": 0.0, "lat": 38.90250416666667, "bike_id": "94654600d5f8e4f6b5c27b1e64ae2d4a", "type": "electric_scooter", "is_reserved": 0, "lon": -77.018029}, {"fusion_lat": 0.0, "name": "962417ed3d80b11a68a4530fbff5d4f2", "is_disabled": 0, "rental_uris": {"android": "https://dc.lft.to/lastmile_qr_scan", "ios": "https://dc.lft.to/lastmile_qr_scan"}, "fusion_lon": 0.0, "lat": 38.909158166666664, "bike_id": "962417ed3d80b11a68a4530fbff5d4f2", "type": "electric_scooter", "is_reserved": 0, "lon": -77.03208616666667}, {"fusion_lat": 0.0, "name": "c65d490828e088ac3f0423c24deef88c", "is_disabled": 0, "rental_uris": {"android": "https://dc.lft.to/lastmile_qr_scan", "ios": "https://dc.lft.to/lastmile_qr_scan"}, "fusion_lon": 0.0, "lat": 38.9072875, "bike_id": "c65d490828e088ac3f0423c24deef88c", "type": "electric_scooter", "is_reserved": 0, "lon": -77.02811216666667}, {"fusion_lat": 0.0, "name": "8f06280ca16a92619182ac8319bf5f57", "is_disabled": 0, "rental_uris": {"android": "https://dc.lft.to/lastmile_qr_scan", "ios": "https://dc.lft.to/lastmile_qr_scan"}, "fusion_lon": 0.0, "lat": 38.9283745, "bike_id": "8f06280ca16a92619182ac8319bf5f57", "type": "electric_scooter", "is_reserved": 0, "lon": -77.01588383333333}, {"fusion_lat": 0.0, "name": "7b3c6888804876206b1b3fba3ef70daf", "is_disabled": 0, "rental_uris": {"android": "https://dc.lft.to/lastmile_qr_scan", "ios": "https://dc.lft.to/lastmile_qr_scan"}, "fusion_lon": 0.0, "lat": 38.916016666666664, "bike_id": "7b3c6888804876206b1b3fba3ef70daf", "type": "electric_scooter", "is_reserved": 0, "lon": -77.03176183333333}, {"fusion_lat": 0.0, "name": "5e44fc3c69b3ef0fbf4d0569eb21ba1b", "is_disabled": 0, "rental_uris": {"android": "https://dc.lft.to/lastmile_qr_scan", "ios": "https://dc.lft.to/lastmile_qr_scan"}, "fusion_lon": 0.0, "lat": 38.899097166666664, "bike_id": "5e44fc3c69b3ef0fbf4d0569eb21ba1b", "type": "electric_scooter", "is_reserved": 0, "lon": -76.94593183333333}, {"fusion_lat": 0.0, "name": "722a0da2a268037658ef7e1acb91077d", "is_disabled": 0, "rental_uris": {"android": "https://dc.lft.to/lastmile_qr_scan", "ios": "https://dc.lft.to/lastmile_qr_scan"}, "fusion_lon": 0.0, "lat": 38.89200366666667, "bike_id": "722a0da2a268037658ef7e1acb91077d", "type": "electric_scooter", "is_reserved": 0, "lon": -77.0155755}, {"fusion_lat": 0.0, "name": "4634a61e4b6397916828c4977df6172e", "is_disabled": 0, "rental_uris": {"android": "https://dc.lft.to/lastmile_qr_scan", "ios": "https://dc.lft.to/lastmile_qr_scan"}, "fusion_lon": 0.0, "lat": 38.90840583333333, "bike_id": "4634a61e4b6397916828c4977df6172e", "type": "electric_scooter", "is_reserved": 0, "lon": -77.03302816666667}, {"fusion_lat": 0.0, "name": "38812349965207394616f3ce2c09ab23", "is_disabled": 0, "rental_uris": {"android": "https://dc.lft.to/lastmile_qr_scan", "ios": "https://dc.lft.to/lastmile_qr_scan"}, "fusion_lon": 0.0, "lat": 38.90776533333333, "bike_id": "38812349965207394616f3ce2c09ab23", "type": "electric_scooter", "is_reserved": 0, "lon": -77.042693}, {"fusion_lat": 0.0, "name": "7678b0d937e744565773c1f366fcadb8", "is_disabled": 0, "rental_uris": {"android": "https://dc.lft.to/lastmile_qr_scan", "ios": "https://dc.lft.to/lastmile_qr_scan"}, "fusion_lon": 0.0, "lat": 38.90622966666667, "bike_id": "7678b0d937e744565773c1f366fcadb8", "type": "electric_scooter", "is_reserved": 0, "lon": -77.026141}, {"fusion_lat": 0.0, "name": "847c7cfecad5d7fe71562947973d47e3", "is_disabled": 0, "rental_uris": {"android": "https://dc.lft.to/lastmile_qr_scan", "ios": "https://dc.lft.to/lastmile_qr_scan"}, "fusion_lon": 0.0, "lat": 38.905097833333336, "bike_id": "847c7cfecad5d7fe71562947973d47e3", "type": "electric_scooter", "is_reserved": 0, "lon": -77.04825666666666}, {"fusion_lat": 0.0, "name": "cd3daf681739295f6eadaf34766b693e", "is_disabled": 0, "rental_uris": {"android": "https://dc.lft.to/lastmile_qr_scan", "ios": "https://dc.lft.to/lastmile_qr_scan"}, "fusion_lon": 0.0, "lat": 38.907104833333335, "bike_id": "cd3daf681739295f6eadaf34766b693e", "type": "electric_scooter", "is_reserved": 0, "lon": -77.04349583333334}, {"fusion_lat": 0.0, "name": "52e17ceb672a0c445d0801d52247e166", "is_disabled": 0, "rental_uris": {"android": "https://dc.lft.to/lastmile_qr_scan", "ios": "https://dc.lft.to/lastmile_qr_scan"}, "fusion_lon": 0.0, "lat": 38.92374216666666, "bike_id": "52e17ceb672a0c445d0801d52247e166", "type": "electric_scooter", "is_reserved": 0, "lon": -77.05268733333334}, {"fusion_lat": 0.0, "name": "8137a7ac9a02e593706451f40478bde3", "is_disabled": 0, "rental_uris": {"android": "https://dc.lft.to/lastmile_qr_scan", "ios": "https://dc.lft.to/lastmile_qr_scan"}, "fusion_lon": 0.0, "lat": 38.95363483333333, "bike_id": "8137a7ac9a02e593706451f40478bde3", "type": "electric_scooter", "is_reserved": 0, "lon": -76.99846066666667}, {"fusion_lat": 0.0, "name": "3d985842db73f49d7c2d3693d1b8e4f5", "is_disabled": 0, "rental_uris": {"android": "https://dc.lft.to/lastmile_qr_scan", "ios": "https://dc.lft.to/lastmile_qr_scan"}, "fusion_lon": 0.0, "lat": 38.831444833333336, "bike_id": "3d985842db73f49d7c2d3693d1b8e4f5", "type": "electric_bike", "is_reserved": 0, "lon": -77.05341216666666}, {"fusion_lat": 0.0, "name": "d991cd3929db714276198b240a4237c3", "is_disabled": 0, "rental_uris": {"android": "https://dc.lft.to/lastmile_qr_scan", "ios": "https://dc.lft.to/lastmile_qr_scan"}, "fusion_lon": 0.0, "lat": 38.91988833333333, "bike_id": "d991cd3929db714276198b240a4237c3", "type": "electric_scooter", "is_reserved": 0, "lon": -77.02191433333333}, {"fusion_lat": 0.0, "name": "2e1519dcb5ceba3321de0dde1c9593ee", "is_disabled": 0, "rental_uris": {"android": "https://dc.lft.to/lastmile_qr_scan", "ios": "https://dc.lft.to/lastmile_qr_scan"}, "fusion_lon": 0.0, "lat": 38.900635333333334, "bike_id": "2e1519dcb5ceba3321de0dde1c9593ee", "type": "electric_scooter", "is_reserved": 0, "lon": -76.9338945}, {"fusion_lat": 0.0, "name": "4fbe19c0aff7a80625bb54eadd635cb5", "is_disabled": 0, "rental_uris": {"android": "https://dc.lft.to/lastmile_qr_scan", "ios": "https://dc.lft.to/lastmile_qr_scan"}, "fusion_lon": 0.0, "lat": 38.90075183333333, "bike_id": "4fbe19c0aff7a80625bb54eadd635cb5", "type": "electric_scooter", "is_reserved": 0, "lon": -77.046566}, {"fusion_lat": 0.0, "name": "44eb593d4225474eccb3f3531f2ce4da", "is_disabled": 0, "rental_uris": {"android": "https://dc.lft.to/lastmile_qr_scan", "ios": "https://dc.lft.to/lastmile_qr_scan"}, "fusion_lon": 0.0, "lat": 38.8983145, "bike_id": "44eb593d4225474eccb3f3531f2ce4da", "type": "electric_scooter", "is_reserved": 0, "lon": -76.9463795}, {"fusion_lat": 0.0, "name": "02a3d321c2d083ece37372a1aad714c6", "is_disabled": 0, "rental_uris": {"android": "https://dc.lft.to/lastmile_qr_scan", "ios": "https://dc.lft.to/lastmile_qr_scan"}, "fusion_lon": 0.0, "lat": 38.90498566666667, "bike_id": "02a3d321c2d083ece37372a1aad714c6", "type": "electric_scooter", "is_reserved": 0, "lon": -77.04783816666666}, {"fusion_lat": 0.0, "name": "2b5f8061e3720ba3beb50d150cb24176", "is_disabled": 0, "rental_uris": {"android": "https://dc.lft.to/lastmile_qr_scan", "ios": "https://dc.lft.to/lastmile_qr_scan"}, "fusion_lon": 0.0, "lat": 38.912035333333336, "bike_id": "2b5f8061e3720ba3beb50d150cb24176", "type": "electric_scooter", "is_reserved": 0, "lon": -77.0320655}, {"fusion_lat": 0.0, "name": "38c77d64f9f0cb3e0670290dffdeb36a", "is_disabled": 0, "rental_uris": {"android": "https://dc.lft.to/lastmile_qr_scan", "ios": "https://dc.lft.to/lastmile_qr_scan"}, "fusion_lon": 0.0, "lat": 38.92321883333334, "bike_id": "38c77d64f9f0cb3e0670290dffdeb36a", "type": "electric_scooter", "is_reserved": 0, "lon": -77.03582}, {"fusion_lat": 0.0, "name": "9a0781bb9373b972e598690759cc3e44", "is_disabled": 0, "rental_uris": {"android": "https://dc.lft.to/lastmile_qr_scan", "ios": "https://dc.lft.to/lastmile_qr_scan"}, "fusion_lon": 0.0, "lat": 38.876560833333336, "bike_id": "9a0781bb9373b972e598690759cc3e44", "type": "electric_scooter", "is_reserved": 0, "lon": -77.001307}, {"fusion_lat": 0.0, "name": "15bd3f942cf08854f721d81f876e8584", "is_disabled": 0, "rental_uris": {"android": "https://dc.lft.to/lastmile_qr_scan", "ios": "https://dc.lft.to/lastmile_qr_scan"}, "fusion_lon": 0.0, "lat": 38.9231645, "bike_id": "15bd3f942cf08854f721d81f876e8584", "type": "electric_scooter", "is_reserved": 0, "lon": -77.04145766666667}, {"fusion_lat": 0.0, "name": "d8602545ae13d0538df990703aa9cd14", "is_disabled": 0, "rental_uris": {"android": "https://dc.lft.to/lastmile_qr_scan", "ios": "https://dc.lft.to/lastmile_qr_scan"}, "fusion_lon": 0.0, "lat": 38.9191565, "bike_id": "d8602545ae13d0538df990703aa9cd14", "type": "electric_scooter", "is_reserved": 0, "lon": -77.02425583333333}, {"fusion_lat": 0.0, "name": "6da9447be2988f48a81e6f30f9d4bd51", "is_disabled": 0, "rental_uris": {"android": "https://dc.lft.to/lastmile_qr_scan", "ios": "https://dc.lft.to/lastmile_qr_scan"}, "fusion_lon": 0.0, "lat": 38.909556, "bike_id": "6da9447be2988f48a81e6f30f9d4bd51", "type": "electric_scooter", "is_reserved": 0, "lon": -77.04615266666667}, {"fusion_lat": 0.0, "name": "a5493f3e92c012c9b2b6da415e32eb37", "is_disabled": 0, "rental_uris": {"android": "https://dc.lft.to/lastmile_qr_scan", "ios": "https://dc.lft.to/lastmile_qr_scan"}, "fusion_lon": 0.0, "lat": 38.905332666666666, "bike_id": "a5493f3e92c012c9b2b6da415e32eb37", "type": "electric_scooter", "is_reserved": 0, "lon": -77.05916616666667}, {"fusion_lat": 0.0, "name": "d89b8edde3e4495e30c188b39db4097b", "is_disabled": 0, "rental_uris": {"android": "https://dc.lft.to/lastmile_qr_scan", "ios": "https://dc.lft.to/lastmile_qr_scan"}, "fusion_lon": 0.0, "lat": 38.9111775, "bike_id": "d89b8edde3e4495e30c188b39db4097b", "type": "electric_scooter", "is_reserved": 0, "lon": -77.0117045}, {"fusion_lat": 0.0, "name": "4232769b0091f124cf56fa6f528cd8fd", "is_disabled": 0, "rental_uris": {"android": "https://dc.lft.to/lastmile_qr_scan", "ios": "https://dc.lft.to/lastmile_qr_scan"}, "fusion_lon": 0.0, "lat": 38.90421583333333, "bike_id": "4232769b0091f124cf56fa6f528cd8fd", "type": "electric_scooter", "is_reserved": 0, "lon": -77.02597333333334}, {"fusion_lat": 0.0, "name": "94b9d35a905d99094311330956aaf632", "is_disabled": 0, "rental_uris": {"android": "https://dc.lft.to/lastmile_qr_scan", "ios": "https://dc.lft.to/lastmile_qr_scan"}, "fusion_lon": 0.0, "lat": 38.91744416666667, "bike_id": "94b9d35a905d99094311330956aaf632", "type": "electric_scooter", "is_reserved": 0, "lon": -77.03184233333333}, {"fusion_lat": 0.0, "name": "36666082575eeb745ec38e70550afc6b", "is_disabled": 0, "rental_uris": {"android": "https://dc.lft.to/lastmile_qr_scan", "ios": "https://dc.lft.to/lastmile_qr_scan"}, "fusion_lon": 0.0, "lat": 38.93097433333333, "bike_id": "36666082575eeb745ec38e70550afc6b", "type": "electric_scooter", "is_reserved": 0, "lon": -77.0238645}, {"fusion_lat": 0.0, "name": "f626b02ae2767f6119417a140998be2d", "is_disabled": 0, "rental_uris": {"android": "https://dc.lft.to/lastmile_qr_scan", "ios": "https://dc.lft.to/lastmile_qr_scan"}, "fusion_lon": 0.0, "lat": 38.892244833333336, "bike_id": "f626b02ae2767f6119417a140998be2d", "type": "electric_scooter", "is_reserved": 0, "lon": -77.03339716666666}, {"fusion_lat": 0.0, "name": "b96b6dd98751e4f7c0cc4262ba102fa0", "is_disabled": 0, "rental_uris": {"android": "https://dc.lft.to/lastmile_qr_scan", "ios": "https://dc.lft.to/lastmile_qr_scan"}, "fusion_lon": 0.0, "lat": 38.927706, "bike_id": "b96b6dd98751e4f7c0cc4262ba102fa0", "type": "electric_scooter", "is_reserved": 0, "lon": -77.02295866666667}, {"fusion_lat": 0.0, "name": "1238874d29464a443c18d38f611c810e", "is_disabled": 0, "rental_uris": {"android": "https://dc.lft.to/lastmile_qr_scan", "ios": "https://dc.lft.to/lastmile_qr_scan"}, "fusion_lon": 0.0, "lat": 38.90173133333333, "bike_id": "1238874d29464a443c18d38f611c810e", "type": "electric_scooter", "is_reserved": 0, "lon": -76.99264983333333}, {"fusion_lat": 0.0, "name": "d6ff3208360005717f7c38cf4e9c2928", "is_disabled": 0, "rental_uris": {"android": "https://dc.lft.to/lastmile_qr_scan", "ios": "https://dc.lft.to/lastmile_qr_scan"}, "fusion_lon": 0.0, "lat": 38.930484666666665, "bike_id": "d6ff3208360005717f7c38cf4e9c2928", "type": "electric_scooter", "is_reserved": 0, "lon": -77.0318895}, {"fusion_lat": 0.0, "name": "99d88545cf3d2527c15456d0554f63ce", "is_disabled": 0, "rental_uris": {"android": "https://dc.lft.to/lastmile_qr_scan", "ios": "https://dc.lft.to/lastmile_qr_scan"}, "fusion_lon": 0.0, "lat": 38.9207795, "bike_id": "99d88545cf3d2527c15456d0554f63ce", "type": "electric_scooter", "is_reserved": 0, "lon": -77.02380233333334}, {"fusion_lat": 0.0, "name": "bb117ab9825aa51e3bf629b6031d2bc3", "is_disabled": 0, "rental_uris": {"android": "https://dc.lft.to/lastmile_qr_scan", "ios": "https://dc.lft.to/lastmile_qr_scan"}, "fusion_lon": 0.0, "lat": 38.900557, "bike_id": "bb117ab9825aa51e3bf629b6031d2bc3", "type": "electric_scooter", "is_reserved": 0, "lon": -77.05673383333334}, {"fusion_lat": 0.0, "name": "9bf7d5a3972cf71130203c577364718d", "is_disabled": 0, "rental_uris": {"android": "https://dc.lft.to/lastmile_qr_scan", "ios": "https://dc.lft.to/lastmile_qr_scan"}, "fusion_lon": 0.0, "lat": 38.905715, "bike_id": "9bf7d5a3972cf71130203c577364718d", "type": "electric_scooter", "is_reserved": 0, "lon": -77.007608}, {"fusion_lat": 0.0, "name": "ba72ac34ef8789c85a28ec3391412628", "is_disabled": 0, "rental_uris": {"android": "https://dc.lft.to/lastmile_qr_scan", "ios": "https://dc.lft.to/lastmile_qr_scan"}, "fusion_lon": 0.0, "lat": 38.9106325, "bike_id": "ba72ac34ef8789c85a28ec3391412628", "type": "electric_scooter", "is_reserved": 0, "lon": -77.03839366666666}, {"fusion_lat": 0.0, "name": "15d4538f29ad6879417dc66b43928b04", "is_disabled": 0, "rental_uris": {"android": "https://dc.lft.to/lastmile_qr_scan", "ios": "https://dc.lft.to/lastmile_qr_scan"}, "fusion_lon": 0.0, "lat": 38.923126, "bike_id": "15d4538f29ad6879417dc66b43928b04", "type": "electric_scooter", "is_reserved": 0, "lon": -77.03978966666666}, {"fusion_lat": 0.0, "name": "b92d8a01bc54c1e886d7595ea416b009", "is_disabled": 0, "rental_uris": {"android": "https://dc.lft.to/lastmile_qr_scan", "ios": "https://dc.lft.to/lastmile_qr_scan"}, "fusion_lon": 0.0, "lat": 38.911949666666665, "bike_id": "b92d8a01bc54c1e886d7595ea416b009", "type": "electric_scooter", "is_reserved": 0, "lon": -77.04344683333333}, {"fusion_lat": 0.0, "name": "e1059438de7f38bece3f024be69c92cd", "is_disabled": 0, "rental_uris": {"android": "https://dc.lft.to/lastmile_qr_scan", "ios": "https://dc.lft.to/lastmile_qr_scan"}, "fusion_lon": 0.0, "lat": 38.90548366666667, "bike_id": "e1059438de7f38bece3f024be69c92cd", "type": "electric_scooter", "is_reserved": 0, "lon": -77.0466225}, {"fusion_lat": 0.0, "name": "469b13d6e702a458c3bc614c4ca8e736", "is_disabled": 0, "rental_uris": {"android": "https://dc.lft.to/lastmile_qr_scan", "ios": "https://dc.lft.to/lastmile_qr_scan"}, "fusion_lon": 0.0, "lat": 38.90433766666666, "bike_id": "469b13d6e702a458c3bc614c4ca8e736", "type": "electric_scooter", "is_reserved": 0, "lon": -77.0582895}, {"fusion_lat": 0.0, "name": "d71cf5edb38e0d1c6fe655119cd437c5", "is_disabled": 0, "rental_uris": {"android": "https://dc.lft.to/lastmile_qr_scan", "ios": "https://dc.lft.to/lastmile_qr_scan"}, "fusion_lon": 0.0, "lat": 38.88345, "bike_id": "d71cf5edb38e0d1c6fe655119cd437c5", "type": "electric_scooter", "is_reserved": 0, "lon": -77.0318205}, {"fusion_lat": 0.0, "name": "355091e99e8dd0a53eb9ba0e174a9fcf", "is_disabled": 0, "rental_uris": {"android": "https://dc.lft.to/lastmile_qr_scan", "ios": "https://dc.lft.to/lastmile_qr_scan"}, "fusion_lon": 0.0, "lat": 38.906832, "bike_id": "355091e99e8dd0a53eb9ba0e174a9fcf", "type": "electric_scooter", "is_reserved": 0, "lon": -77.02697766666667}, {"fusion_lat": 0.0, "name": "60c00391822c8c376593fda2d0e743f3", "is_disabled": 0, "rental_uris": {"android": "https://dc.lft.to/lastmile_qr_scan", "ios": "https://dc.lft.to/lastmile_qr_scan"}, "fusion_lon": 0.0, "lat": 38.847562833333335, "bike_id": "60c00391822c8c376593fda2d0e743f3", "type": "electric_scooter", "is_reserved": 0, "lon": -76.99501666666667}, {"fusion_lat": 0.0, "name": "ecae7e5d45155393a869aa1d574cbed7", "is_disabled": 0, "rental_uris": {"android": "https://dc.lft.to/lastmile_qr_scan", "ios": "https://dc.lft.to/lastmile_qr_scan"}, "fusion_lon": 0.0, "lat": 38.923464333333335, "bike_id": "ecae7e5d45155393a869aa1d574cbed7", "type": "electric_scooter", "is_reserved": 0, "lon": -77.03539233333333}, {"fusion_lat": 0.0, "name": "f021ed74300cc9520fbddf4c88588e4b", "is_disabled": 0, "rental_uris": {"android": "https://dc.lft.to/lastmile_qr_scan", "ios": "https://dc.lft.to/lastmile_qr_scan"}, "fusion_lon": 0.0, "lat": 38.96664666666667, "bike_id": "f021ed74300cc9520fbddf4c88588e4b", "type": "electric_scooter", "is_reserved": 0, "lon": -77.02555883333333}, {"fusion_lat": 0.0, "name": "80998a535c0ca8cec8711c79a961c870", "is_disabled": 0, "rental_uris": {"android": "https://dc.lft.to/lastmile_qr_scan", "ios": "https://dc.lft.to/lastmile_qr_scan"}, "fusion_lon": 0.0, "lat": 38.887301, "bike_id": "80998a535c0ca8cec8711c79a961c870", "type": "electric_scooter", "is_reserved": 0, "lon": -77.02219433333333}, {"fusion_lat": 0.0, "name": "cd0c0841f7b2c7175586eff0b39edb6d", "is_disabled": 0, "rental_uris": {"android": "https://dc.lft.to/lastmile_qr_scan", "ios": "https://dc.lft.to/lastmile_qr_scan"}, "fusion_lon": 0.0, "lat": 38.90543366666667, "bike_id": "cd0c0841f7b2c7175586eff0b39edb6d", "type": "electric_scooter", "is_reserved": 0, "lon": -77.0501065}, {"fusion_lat": 0.0, "name": "43d0ef12c6130f463ae3d4b6d2a8448e", "is_disabled": 0, "rental_uris": {"android": "https://dc.lft.to/lastmile_qr_scan", "ios": "https://dc.lft.to/lastmile_qr_scan"}, "fusion_lon": 0.0, "lat": 38.934098666666664, "bike_id": "43d0ef12c6130f463ae3d4b6d2a8448e", "type": "electric_bike", "is_reserved": 0, "lon": -77.04308316666666}, {"fusion_lat": 0.0, "name": "1f737884307749b3187b2b3f4656bcc1", "is_disabled": 0, "rental_uris": {"android": "https://dc.lft.to/lastmile_qr_scan", "ios": "https://dc.lft.to/lastmile_qr_scan"}, "fusion_lon": 0.0, "lat": 38.91563766666667, "bike_id": "1f737884307749b3187b2b3f4656bcc1", "type": "electric_scooter", "is_reserved": 0, "lon": -77.03114916666667}, {"fusion_lat": 0.0, "name": "1ecfde604448ba4abecb435be68f32e0", "is_disabled": 0, "rental_uris": {"android": "https://dc.lft.to/lastmile_qr_scan", "ios": "https://dc.lft.to/lastmile_qr_scan"}, "fusion_lon": 0.0, "lat": 38.8934075, "bike_id": "1ecfde604448ba4abecb435be68f32e0", "type": "electric_scooter", "is_reserved": 0, "lon": -77.02174}, {"fusion_lat": 0.0, "name": "3c2bada60a8d9f907c2b0eb34b80f199", "is_disabled": 0, "rental_uris": {"android": "https://dc.lft.to/lastmile_qr_scan", "ios": "https://dc.lft.to/lastmile_qr_scan"}, "fusion_lon": 0.0, "lat": 38.90353866666667, "bike_id": "3c2bada60a8d9f907c2b0eb34b80f199", "type": "electric_scooter", "is_reserved": 0, "lon": -76.97482783333334}, {"fusion_lat": 0.0, "name": "1aefa0492e80c8ac3a8328de064c699b", "is_disabled": 0, "rental_uris": {"android": "https://dc.lft.to/lastmile_qr_scan", "ios": "https://dc.lft.to/lastmile_qr_scan"}, "fusion_lon": 0.0, "lat": 38.9072085, "bike_id": "1aefa0492e80c8ac3a8328de064c699b", "type": "electric_scooter", "is_reserved": 0, "lon": -77.04238033333333}, {"fusion_lat": 0.0, "name": "1de1c5a7fc4a615bc31eeee1340fb6ad", "is_disabled": 0, "rental_uris": {"android": "https://dc.lft.to/lastmile_qr_scan", "ios": "https://dc.lft.to/lastmile_qr_scan"}, "fusion_lon": 0.0, "lat": 38.91064383333333, "bike_id": "1de1c5a7fc4a615bc31eeee1340fb6ad", "type": "electric_scooter", "is_reserved": 0, "lon": -77.044056}, {"fusion_lat": 0.0, "name": "0628afa5ad5e664926564704d7831bbe", "is_disabled": 0, "rental_uris": {"android": "https://dc.lft.to/lastmile_qr_scan", "ios": "https://dc.lft.to/lastmile_qr_scan"}, "fusion_lon": 0.0, "lat": 38.97363583333333, "bike_id": "0628afa5ad5e664926564704d7831bbe", "type": "electric_scooter", "is_reserved": 0, "lon": -77.01297016666666}, {"fusion_lat": 0.0, "name": "12f4187729dc51c523b0d6888566e886", "is_disabled": 0, "rental_uris": {"android": "https://dc.lft.to/lastmile_qr_scan", "ios": "https://dc.lft.to/lastmile_qr_scan"}, "fusion_lon": 0.0, "lat": 38.912187333333335, "bike_id": "12f4187729dc51c523b0d6888566e886", "type": "electric_scooter", "is_reserved": 0, "lon": -77.03177716666667}, {"fusion_lat": 0.0, "name": "fa2c57a207def04b4081e3c95b34c466", "is_disabled": 0, "rental_uris": {"android": "https://dc.lft.to/lastmile_qr_scan", "ios": "https://dc.lft.to/lastmile_qr_scan"}, "fusion_lon": 0.0, "lat": 38.9030755, "bike_id": "fa2c57a207def04b4081e3c95b34c466", "type": "electric_scooter", "is_reserved": 0, "lon": -76.978125}, {"fusion_lat": 0.0, "name": "2ffdab8dd7e0bc9f22ef54c5429bef40", "is_disabled": 0, "rental_uris": {"android": "https://dc.lft.to/lastmile_qr_scan", "ios": "https://dc.lft.to/lastmile_qr_scan"}, "fusion_lon": 0.0, "lat": 38.923456, "bike_id": "2ffdab8dd7e0bc9f22ef54c5429bef40", "type": "electric_scooter", "is_reserved": 0, "lon": -77.0518275}, {"fusion_lat": 0.0, "name": "f492cf405f63de892320600d723a6843", "is_disabled": 0, "rental_uris": {"android": "https://dc.lft.to/lastmile_qr_scan", "ios": "https://dc.lft.to/lastmile_qr_scan"}, "fusion_lon": 0.0, "lat": 38.88400983333333, "bike_id": "f492cf405f63de892320600d723a6843", "type": "electric_scooter", "is_reserved": 0, "lon": -77.00824916666667}, {"fusion_lat": 0.0, "name": "fa7b0b4e07c6a426f4b4af86289fd1f9", "is_disabled": 0, "rental_uris": {"android": "https://dc.lft.to/lastmile_qr_scan", "ios": "https://dc.lft.to/lastmile_qr_scan"}, "fusion_lon": 0.0, "lat": 38.903957, "bike_id": "fa7b0b4e07c6a426f4b4af86289fd1f9", "type": "electric_scooter", "is_reserved": 0, "lon": -77.06299916666667}, {"fusion_lat": 0.0, "name": "8f78296bfc6c779455df9c0b36cc536c", "is_disabled": 0, "rental_uris": {"android": "https://dc.lft.to/lastmile_qr_scan", "ios": "https://dc.lft.to/lastmile_qr_scan"}, "fusion_lon": 0.0, "lat": 38.92264333333333, "bike_id": "8f78296bfc6c779455df9c0b36cc536c", "type": "electric_scooter", "is_reserved": 0, "lon": -77.02972933333334}, {"fusion_lat": 0.0, "name": "e312ea5c1fdd8fd444c216af4b92bfe2", "is_disabled": 0, "rental_uris": {"android": "https://dc.lft.to/lastmile_qr_scan", "ios": "https://dc.lft.to/lastmile_qr_scan"}, "fusion_lon": 0.0, "lat": 38.90454416666667, "bike_id": "e312ea5c1fdd8fd444c216af4b92bfe2", "type": "electric_scooter", "is_reserved": 0, "lon": -77.04869283333333}, {"fusion_lat": 0.0, "name": "73c141bacce54aaaeb0ff163fec00fb7", "is_disabled": 0, "rental_uris": {"android": "https://dc.lft.to/lastmile_qr_scan", "ios": "https://dc.lft.to/lastmile_qr_scan"}, "fusion_lon": 0.0, "lat": 38.907688666666665, "bike_id": "73c141bacce54aaaeb0ff163fec00fb7", "type": "electric_scooter", "is_reserved": 0, "lon": -77.05598783333333}, {"fusion_lat": 0.0, "name": "3e100608590f4d7bdbef4297ed2cab80", "is_disabled": 0, "rental_uris": {"android": "https://dc.lft.to/lastmile_qr_scan", "ios": "https://dc.lft.to/lastmile_qr_scan"}, "fusion_lon": 0.0, "lat": 38.91924516666667, "bike_id": "3e100608590f4d7bdbef4297ed2cab80", "type": "electric_scooter", "is_reserved": 0, "lon": -77.0122685}, {"fusion_lat": 0.0, "name": "8f12f5a9b82e86876f0321e3680ac9a5", "is_disabled": 0, "rental_uris": {"android": "https://dc.lft.to/lastmile_qr_scan", "ios": "https://dc.lft.to/lastmile_qr_scan"}, "fusion_lon": 0.0, "lat": 38.9157595, "bike_id": "8f12f5a9b82e86876f0321e3680ac9a5", "type": "electric_scooter", "is_reserved": 0, "lon": -77.03204433333333}, {"fusion_lat": 0.0, "name": "50c86eee3d33937118ca2a9fdbbd826c", "is_disabled": 0, "rental_uris": {"android": "https://dc.lft.to/lastmile_qr_scan", "ios": "https://dc.lft.to/lastmile_qr_scan"}, "fusion_lon": 0.0, "lat": 38.945307666666665, "bike_id": "50c86eee3d33937118ca2a9fdbbd826c", "type": "electric_scooter", "is_reserved": 0, "lon": -77.02097716666667}, {"fusion_lat": 0.0, "name": "f3d14dfd411ccbdfef1404d3307c2fa0", "is_disabled": 0, "rental_uris": {"android": "https://dc.lft.to/lastmile_qr_scan", "ios": "https://dc.lft.to/lastmile_qr_scan"}, "fusion_lon": 0.0, "lat": 38.91907066666667, "bike_id": "f3d14dfd411ccbdfef1404d3307c2fa0", "type": "electric_scooter", "is_reserved": 0, "lon": -77.0241255}, {"fusion_lat": 0.0, "name": "e6ac260a07f9e7d053cb77984e7b0154", "is_disabled": 0, "rental_uris": {"android": "https://dc.lft.to/lastmile_qr_scan", "ios": "https://dc.lft.to/lastmile_qr_scan"}, "fusion_lon": 0.0, "lat": 38.87431933333333, "bike_id": "e6ac260a07f9e7d053cb77984e7b0154", "type": "electric_scooter", "is_reserved": 0, "lon": -77.00051333333333}, {"fusion_lat": 0.0, "name": "aafd6372c9b8207e65ed9b0fbf45e2da", "is_disabled": 0, "rental_uris": {"android": "https://dc.lft.to/lastmile_qr_scan", "ios": "https://dc.lft.to/lastmile_qr_scan"}, "fusion_lon": 0.0, "lat": 38.901451333333334, "bike_id": "aafd6372c9b8207e65ed9b0fbf45e2da", "type": "electric_scooter", "is_reserved": 0, "lon": -77.02291683333333}, {"fusion_lat": 0.0, "name": "f43b2766e20d1ac0831c3c653040a496", "is_disabled": 0, "rental_uris": {"android": "https://dc.lft.to/lastmile_qr_scan", "ios": "https://dc.lft.to/lastmile_qr_scan"}, "fusion_lon": 0.0, "lat": 38.919587166666666, "bike_id": "f43b2766e20d1ac0831c3c653040a496", "type": "electric_scooter", "is_reserved": 0, "lon": -77.0239745}, {"fusion_lat": 0.0, "name": "f5c01633b402cc211f17d01691fe0097", "is_disabled": 0, "rental_uris": {"android": "https://dc.lft.to/lastmile_qr_scan", "ios": "https://dc.lft.to/lastmile_qr_scan"}, "fusion_lon": 0.0, "lat": 38.878946, "bike_id": "f5c01633b402cc211f17d01691fe0097", "type": "electric_scooter", "is_reserved": 0, "lon": -77.0057715}, {"fusion_lat": 0.0, "name": "a0d1888dbeea4537dabb8a782f6525ac", "is_disabled": 0, "rental_uris": {"android": "https://dc.lft.to/lastmile_qr_scan", "ios": "https://dc.lft.to/lastmile_qr_scan"}, "fusion_lon": 0.0, "lat": 38.89217716666667, "bike_id": "a0d1888dbeea4537dabb8a782f6525ac", "type": "electric_scooter", "is_reserved": 0, "lon": -77.0231315}, {"fusion_lat": 0.0, "name": "9fe776f77947e97fd6dcd11d3976f961", "is_disabled": 0, "rental_uris": {"android": "https://dc.lft.to/lastmile_qr_scan", "ios": "https://dc.lft.to/lastmile_qr_scan"}, "fusion_lon": 0.0, "lat": 38.9211825, "bike_id": "9fe776f77947e97fd6dcd11d3976f961", "type": "electric_scooter", "is_reserved": 0, "lon": -77.0121045}, {"fusion_lat": 0.0, "name": "16977620619381e69b2d9e9d27ee21a0", "is_disabled": 0, "rental_uris": {"android": "https://dc.lft.to/lastmile_qr_scan", "ios": "https://dc.lft.to/lastmile_qr_scan"}, "fusion_lon": 0.0, "lat": 39.01074933333334, "bike_id": "16977620619381e69b2d9e9d27ee21a0", "type": "electric_bike", "is_reserved": 0, "lon": -76.9106665}, {"fusion_lat": 0.0, "name": "b88b76402a6d42f748fdc4f984bd688e", "is_disabled": 0, "rental_uris": {"android": "https://dc.lft.to/lastmile_qr_scan", "ios": "https://dc.lft.to/lastmile_qr_scan"}, "fusion_lon": 0.0, "lat": 38.8997245, "bike_id": "b88b76402a6d42f748fdc4f984bd688e", "type": "electric_scooter", "is_reserved": 0, "lon": -77.02220433333333}, {"fusion_lat": 0.0, "name": "2567d25cf8808cb8e8a6cf2ef799dcc1", "is_disabled": 0, "rental_uris": {"android": "https://dc.lft.to/lastmile_qr_scan", "ios": "https://dc.lft.to/lastmile_qr_scan"}, "fusion_lon": 0.0, "lat": 38.937021666666666, "bike_id": "2567d25cf8808cb8e8a6cf2ef799dcc1", "type": "electric_scooter", "is_reserved": 0, "lon": -77.06108283333333}, {"fusion_lat": 0.0, "name": "4451aeb7a71a02fd4821bf31cde0bd2e", "is_disabled": 0, "rental_uris": {"android": "https://dc.lft.to/lastmile_qr_scan", "ios": "https://dc.lft.to/lastmile_qr_scan"}, "fusion_lon": 0.0, "lat": 38.922378, "bike_id": "4451aeb7a71a02fd4821bf31cde0bd2e", "type": "electric_scooter", "is_reserved": 0, "lon": -77.02910133333333}, {"fusion_lat": 0.0, "name": "a1cef06f1f498b358dff411f21951661", "is_disabled": 0, "rental_uris": {"android": "https://dc.lft.to/lastmile_qr_scan", "ios": "https://dc.lft.to/lastmile_qr_scan"}, "fusion_lon": 0.0, "lat": 38.892305, "bike_id": "a1cef06f1f498b358dff411f21951661", "type": "electric_scooter", "is_reserved": 0, "lon": -76.98818633333333}, {"fusion_lat": 0.0, "name": "8cfb8b8e6e0932a2642fe786254780c5", "is_disabled": 0, "rental_uris": {"android": "https://dc.lft.to/lastmile_qr_scan", "ios": "https://dc.lft.to/lastmile_qr_scan"}, "fusion_lon": 0.0, "lat": 38.80675933333333, "bike_id": "8cfb8b8e6e0932a2642fe786254780c5", "type": "electric_bike", "is_reserved": 0, "lon": -77.0691625}, {"fusion_lat": 0.0, "name": "1b8e315af01c2c43d9d25c1fb8879cdd", "is_disabled": 0, "rental_uris": {"android": "https://dc.lft.to/lastmile_qr_scan", "ios": "https://dc.lft.to/lastmile_qr_scan"}, "fusion_lon": 0.0, "lat": 38.913075166666665, "bike_id": "1b8e315af01c2c43d9d25c1fb8879cdd", "type": "electric_scooter", "is_reserved": 0, "lon": -77.0190695}, {"fusion_lat": 0.0, "name": "eee1f1d5ea269a8f6d57d2d9263008bb", "is_disabled": 0, "rental_uris": {"android": "https://dc.lft.to/lastmile_qr_scan", "ios": "https://dc.lft.to/lastmile_qr_scan"}, "fusion_lon": 0.0, "lat": 38.907091, "bike_id": "eee1f1d5ea269a8f6d57d2d9263008bb", "type": "electric_scooter", "is_reserved": 0, "lon": -77.05052516666667}, {"fusion_lat": 0.0, "name": "014c209258e99829f1d3ed6b37095eb8", "is_disabled": 0, "rental_uris": {"android": "https://dc.lft.to/lastmile_qr_scan", "ios": "https://dc.lft.to/lastmile_qr_scan"}, "fusion_lon": 0.0, "lat": 38.87113183333334, "bike_id": "014c209258e99829f1d3ed6b37095eb8", "type": "electric_scooter", "is_reserved": 0, "lon": -77.00581616666666}, {"fusion_lat": 0.0, "name": "488f5a74ac5662079cc8de53f03fdb7c", "is_disabled": 0, "rental_uris": {"android": "https://dc.lft.to/lastmile_qr_scan", "ios": "https://dc.lft.to/lastmile_qr_scan"}, "fusion_lon": 0.0, "lat": 38.90167783333333, "bike_id": "488f5a74ac5662079cc8de53f03fdb7c", "type": "electric_scooter", "is_reserved": 0, "lon": -76.9926765}, {"fusion_lat": 0.0, "name": "0d751de9904049b9f71adf9689a2a4af", "is_disabled": 0, "rental_uris": {"android": "https://dc.lft.to/lastmile_qr_scan", "ios": "https://dc.lft.to/lastmile_qr_scan"}, "fusion_lon": 0.0, "lat": 38.90542883333333, "bike_id": "0d751de9904049b9f71adf9689a2a4af", "type": "electric_scooter", "is_reserved": 0, "lon": -77.04569783333334}, {"fusion_lat": 0.0, "name": "71b7418f054a7178c3be4c4e2d203934", "is_disabled": 0, "rental_uris": {"android": "https://dc.lft.to/lastmile_qr_scan", "ios": "https://dc.lft.to/lastmile_qr_scan"}, "fusion_lon": 0.0, "lat": 38.901173166666666, "bike_id": "71b7418f054a7178c3be4c4e2d203934", "type": "electric_scooter", "is_reserved": 0, "lon": -77.03174033333333}, {"fusion_lat": 0.0, "name": "a345a9008c6c945da7e1cff1385783f8", "is_disabled": 0, "rental_uris": {"android": "https://dc.lft.to/lastmile_qr_scan", "ios": "https://dc.lft.to/lastmile_qr_scan"}, "fusion_lon": 0.0, "lat": 38.905053833333334, "bike_id": "a345a9008c6c945da7e1cff1385783f8", "type": "electric_scooter", "is_reserved": 0, "lon": -77.00908316666667}, {"fusion_lat": 0.0, "name": "1759b57a26bcb810af534ac24c796272", "is_disabled": 0, "rental_uris": {"android": "https://dc.lft.to/lastmile_qr_scan", "ios": "https://dc.lft.to/lastmile_qr_scan"}, "fusion_lon": 0.0, "lat": 38.887351833333334, "bike_id": "1759b57a26bcb810af534ac24c796272", "type": "electric_scooter", "is_reserved": 0, "lon": -77.015225}, {"fusion_lat": 0.0, "name": "8deafe2db3828ca768ca538d4db4dd83", "is_disabled": 0, "rental_uris": {"android": "https://dc.lft.to/lastmile_qr_scan", "ios": "https://dc.lft.to/lastmile_qr_scan"}, "fusion_lon": 0.0, "lat": 38.9284925, "bike_id": "8deafe2db3828ca768ca538d4db4dd83", "type": "electric_scooter", "is_reserved": 0, "lon": -77.01393266666666}, {"fusion_lat": 0.0, "name": "e3001619f4904e5a0f16059c7682d938", "is_disabled": 0, "rental_uris": {"android": "https://dc.lft.to/lastmile_qr_scan", "ios": "https://dc.lft.to/lastmile_qr_scan"}, "fusion_lon": 0.0, "lat": 38.921761833333335, "bike_id": "e3001619f4904e5a0f16059c7682d938", "type": "electric_scooter", "is_reserved": 0, "lon": -77.04025333333334}, {"fusion_lat": 0.0, "name": "0c729ab3bb22b09d7327d80a79243971", "is_disabled": 0, "rental_uris": {"android": "https://dc.lft.to/lastmile_qr_scan", "ios": "https://dc.lft.to/lastmile_qr_scan"}, "fusion_lon": 0.0, "lat": 38.835177333333334, "bike_id": "0c729ab3bb22b09d7327d80a79243971", "type": "electric_bike", "is_reserved": 0, "lon": -76.9868}, {"fusion_lat": 0.0, "name": "1cac6a86f27bae3ac2a8cf3b29c5a73e", "is_disabled": 0, "rental_uris": {"android": "https://dc.lft.to/lastmile_qr_scan", "ios": "https://dc.lft.to/lastmile_qr_scan"}, "fusion_lon": 0.0, "lat": 38.946926833333336, "bike_id": "1cac6a86f27bae3ac2a8cf3b29c5a73e", "type": "electric_scooter", "is_reserved": 0, "lon": -77.0792865}, {"fusion_lat": 0.0, "name": "6bed87de9fe626b01f07aec84b00dafe", "is_disabled": 0, "rental_uris": {"android": "https://dc.lft.to/lastmile_qr_scan", "ios": "https://dc.lft.to/lastmile_qr_scan"}, "fusion_lon": 0.0, "lat": 38.906886166666666, "bike_id": "6bed87de9fe626b01f07aec84b00dafe", "type": "electric_scooter", "is_reserved": 0, "lon": -77.068952}, {"fusion_lat": 0.0, "name": "fe904c821186a3bb0eb7208d9c3871cf", "is_disabled": 0, "rental_uris": {"android": "https://dc.lft.to/lastmile_qr_scan", "ios": "https://dc.lft.to/lastmile_qr_scan"}, "fusion_lon": 0.0, "lat": 38.942696, "bike_id": "fe904c821186a3bb0eb7208d9c3871cf", "type": "electric_scooter", "is_reserved": 0, "lon": -77.03260733333333}, {"fusion_lat": 0.0, "name": "dcb716b8e5c0695f1fd0a536c4e52478", "is_disabled": 0, "rental_uris": {"android": "https://dc.lft.to/lastmile_qr_scan", "ios": "https://dc.lft.to/lastmile_qr_scan"}, "fusion_lon": 0.0, "lat": 38.906767, "bike_id": "dcb716b8e5c0695f1fd0a536c4e52478", "type": "electric_scooter", "is_reserved": 0, "lon": -77.07215316666667}, {"fusion_lat": 0.0, "name": "3099b234a34138948b93144ec0e45ba1", "is_disabled": 0, "rental_uris": {"android": "https://dc.lft.to/lastmile_qr_scan", "ios": "https://dc.lft.to/lastmile_qr_scan"}, "fusion_lon": 0.0, "lat": 38.897216, "bike_id": "3099b234a34138948b93144ec0e45ba1", "type": "electric_scooter", "is_reserved": 0, "lon": -77.01916716666666}, {"fusion_lat": 0.0, "name": "2d2d5c2be2f912bf234be39827f41414", "is_disabled": 0, "rental_uris": {"android": "https://dc.lft.to/lastmile_qr_scan", "ios": "https://dc.lft.to/lastmile_qr_scan"}, "fusion_lon": 0.0, "lat": 38.90903316666667, "bike_id": "2d2d5c2be2f912bf234be39827f41414", "type": "electric_scooter", "is_reserved": 0, "lon": -77.027113}, {"fusion_lat": 0.0, "name": "50c05e17666198dc1dc0d04224f89208", "is_disabled": 0, "rental_uris": {"android": "https://dc.lft.to/lastmile_qr_scan", "ios": "https://dc.lft.to/lastmile_qr_scan"}, "fusion_lon": 0.0, "lat": 38.90034966666666, "bike_id": "50c05e17666198dc1dc0d04224f89208", "type": "electric_scooter", "is_reserved": 0, "lon": -76.99161066666667}, {"fusion_lat": 0.0, "name": "8c7a2e0b5c282eff7c716f2c3a0e84e2", "is_disabled": 0, "rental_uris": {"android": "https://dc.lft.to/lastmile_qr_scan", "ios": "https://dc.lft.to/lastmile_qr_scan"}, "fusion_lon": 0.0, "lat": 38.90238633333333, "bike_id": "8c7a2e0b5c282eff7c716f2c3a0e84e2", "type": "electric_scooter", "is_reserved": 0, "lon": -77.043474}, {"fusion_lat": 0.0, "name": "3a2b4b8ec789a8000a1f6edaea87a910", "is_disabled": 0, "rental_uris": {"android": "https://dc.lft.to/lastmile_qr_scan", "ios": "https://dc.lft.to/lastmile_qr_scan"}, "fusion_lon": 0.0, "lat": 38.9152265, "bike_id": "3a2b4b8ec789a8000a1f6edaea87a910", "type": "electric_scooter", "is_reserved": 0, "lon": -77.01986483333333}, {"fusion_lat": 0.0, "name": "3146a1cd5e96e8dd2529cf1c98e80852", "is_disabled": 0, "rental_uris": {"android": "https://dc.lft.to/lastmile_qr_scan", "ios": "https://dc.lft.to/lastmile_qr_scan"}, "fusion_lon": 0.0, "lat": 38.900605166666665, "bike_id": "3146a1cd5e96e8dd2529cf1c98e80852", "type": "electric_scooter", "is_reserved": 0, "lon": -76.93391116666666}, {"fusion_lat": 0.0, "name": "e14091182cace6a75d566d6cc93de83e", "is_disabled": 0, "rental_uris": {"android": "https://dc.lft.to/lastmile_qr_scan", "ios": "https://dc.lft.to/lastmile_qr_scan"}, "fusion_lon": 0.0, "lat": 38.892229, "bike_id": "e14091182cace6a75d566d6cc93de83e", "type": "electric_scooter", "is_reserved": 0, "lon": -77.04330016666667}, {"fusion_lat": 0.0, "name": "35e76c03ddf5e2de5146f948c0e7877a", "is_disabled": 0, "rental_uris": {"android": "https://dc.lft.to/lastmile_qr_scan", "ios": "https://dc.lft.to/lastmile_qr_scan"}, "fusion_lon": 0.0, "lat": 38.95273233333333, "bike_id": "35e76c03ddf5e2de5146f948c0e7877a", "type": "electric_scooter", "is_reserved": 0, "lon": -77.06879883333333}, {"fusion_lat": 0.0, "name": "57eadce1722d342315e0ca9278e2b968", "is_disabled": 0, "rental_uris": {"android": "https://dc.lft.to/lastmile_qr_scan", "ios": "https://dc.lft.to/lastmile_qr_scan"}, "fusion_lon": 0.0, "lat": 38.898071333333334, "bike_id": "57eadce1722d342315e0ca9278e2b968", "type": "electric_scooter", "is_reserved": 0, "lon": -77.03362283333334}, {"fusion_lat": 0.0, "name": "362258ba2d39c5adae404dbefc2b60d7", "is_disabled": 0, "rental_uris": {"android": "https://dc.lft.to/lastmile_qr_scan", "ios": "https://dc.lft.to/lastmile_qr_scan"}, "fusion_lon": 0.0, "lat": 38.916062333333336, "bike_id": "362258ba2d39c5adae404dbefc2b60d7", "type": "electric_scooter", "is_reserved": 0, "lon": -77.02304683333334}, {"fusion_lat": 0.0, "name": "9c839f4476e65d6292ea75dc25e05fca", "is_disabled": 0, "rental_uris": {"android": "https://dc.lft.to/lastmile_qr_scan", "ios": "https://dc.lft.to/lastmile_qr_scan"}, "fusion_lon": 0.0, "lat": 38.90684016666667, "bike_id": "9c839f4476e65d6292ea75dc25e05fca", "type": "electric_scooter", "is_reserved": 0, "lon": -77.035913}, {"fusion_lat": 0.0, "name": "b91346f39bbb154a058a2fa61b15c56e", "is_disabled": 0, "rental_uris": {"android": "https://dc.lft.to/lastmile_qr_scan", "ios": "https://dc.lft.to/lastmile_qr_scan"}, "fusion_lon": 0.0, "lat": 38.905984333333336, "bike_id": "b91346f39bbb154a058a2fa61b15c56e", "type": "electric_scooter", "is_reserved": 0, "lon": -77.06282533333334}, {"fusion_lat": 0.0, "name": "c2476ff13263cbe2522514e4752d6427", "is_disabled": 0, "rental_uris": {"android": "https://dc.lft.to/lastmile_qr_scan", "ios": "https://dc.lft.to/lastmile_qr_scan"}, "fusion_lon": 0.0, "lat": 38.88497266666667, "bike_id": "c2476ff13263cbe2522514e4752d6427", "type": "electric_scooter", "is_reserved": 0, "lon": -77.01478383333334}, {"fusion_lat": 0.0, "name": "1f331da41d6aa85601f83c57d7d0391d", "is_disabled": 0, "rental_uris": {"android": "https://dc.lft.to/lastmile_qr_scan", "ios": "https://dc.lft.to/lastmile_qr_scan"}, "fusion_lon": 0.0, "lat": 38.95084166666667, "bike_id": "1f331da41d6aa85601f83c57d7d0391d", "type": "electric_scooter", "is_reserved": 0, "lon": -77.027163}, {"fusion_lat": 0.0, "name": "97309c8ed5652cfe27bbfc306402b35c", "is_disabled": 0, "rental_uris": {"android": "https://dc.lft.to/lastmile_qr_scan", "ios": "https://dc.lft.to/lastmile_qr_scan"}, "fusion_lon": 0.0, "lat": 38.90022866666666, "bike_id": "97309c8ed5652cfe27bbfc306402b35c", "type": "electric_scooter", "is_reserved": 0, "lon": -77.0164055}, {"fusion_lat": 0.0, "name": "ebeb3048c5f309e8ffdf1ef6bb784e07", "is_disabled": 0, "rental_uris": {"android": "https://dc.lft.to/lastmile_qr_scan", "ios": "https://dc.lft.to/lastmile_qr_scan"}, "fusion_lon": 0.0, "lat": 38.921643, "bike_id": "ebeb3048c5f309e8ffdf1ef6bb784e07", "type": "electric_scooter", "is_reserved": 0, "lon": -77.03845816666667}, {"fusion_lat": 0.0, "name": "edac78f0b20f4ba89b64d0ae0381c848", "is_disabled": 0, "rental_uris": {"android": "https://dc.lft.to/lastmile_qr_scan", "ios": "https://dc.lft.to/lastmile_qr_scan"}, "fusion_lon": 0.0, "lat": 38.92375583333333, "bike_id": "edac78f0b20f4ba89b64d0ae0381c848", "type": "electric_scooter", "is_reserved": 0, "lon": -77.05153316666667}, {"fusion_lat": 0.0, "name": "d22a55fe8c4c4628bd1d83cd0aecdfed", "is_disabled": 0, "rental_uris": {"android": "https://dc.lft.to/lastmile_qr_scan", "ios": "https://dc.lft.to/lastmile_qr_scan"}, "fusion_lon": 0.0, "lat": 38.928823333333334, "bike_id": "d22a55fe8c4c4628bd1d83cd0aecdfed", "type": "electric_scooter", "is_reserved": 0, "lon": -77.03258233333334}, {"fusion_lat": 0.0, "name": "9f8135dbe5e2424a026b2f8096b9372d", "is_disabled": 0, "rental_uris": {"android": "https://dc.lft.to/lastmile_qr_scan", "ios": "https://dc.lft.to/lastmile_qr_scan"}, "fusion_lon": 0.0, "lat": 38.919309166666665, "bike_id": "9f8135dbe5e2424a026b2f8096b9372d", "type": "electric_scooter", "is_reserved": 0, "lon": -77.04901633333333}, {"fusion_lat": 0.0, "name": "fd821c94ddf271ef7e5487be092666b5", "is_disabled": 0, "rental_uris": {"android": "https://dc.lft.to/lastmile_qr_scan", "ios": "https://dc.lft.to/lastmile_qr_scan"}, "fusion_lon": 0.0, "lat": 38.95547783333333, "bike_id": "fd821c94ddf271ef7e5487be092666b5", "type": "electric_bike", "is_reserved": 0, "lon": -77.06941466666666}, {"fusion_lat": 0.0, "name": "0abb7293c403d86346d76e1f8711776b", "is_disabled": 0, "rental_uris": {"android": "https://dc.lft.to/lastmile_qr_scan", "ios": "https://dc.lft.to/lastmile_qr_scan"}, "fusion_lon": 0.0, "lat": 38.90026483333333, "bike_id": "0abb7293c403d86346d76e1f8711776b", "type": "electric_scooter", "is_reserved": 0, "lon": -76.99625966666666}, {"fusion_lat": 0.0, "name": "2493d16b780ae60de497e89908023674", "is_disabled": 0, "rental_uris": {"android": "https://dc.lft.to/lastmile_qr_scan", "ios": "https://dc.lft.to/lastmile_qr_scan"}, "fusion_lon": 0.0, "lat": 38.8770235, "bike_id": "2493d16b780ae60de497e89908023674", "type": "electric_scooter", "is_reserved": 0, "lon": -77.018515}, {"fusion_lat": 0.0, "name": "da6d8e333703d8d6adc780d2733b0788", "is_disabled": 0, "rental_uris": {"android": "https://dc.lft.to/lastmile_qr_scan", "ios": "https://dc.lft.to/lastmile_qr_scan"}, "fusion_lon": 0.0, "lat": 38.89559833333333, "bike_id": "da6d8e333703d8d6adc780d2733b0788", "type": "electric_scooter", "is_reserved": 0, "lon": -77.02163133333333}, {"fusion_lat": 0.0, "name": "66f28aa320d6278cd7d2e7e5999559c8", "is_disabled": 0, "rental_uris": {"android": "https://dc.lft.to/lastmile_qr_scan", "ios": "https://dc.lft.to/lastmile_qr_scan"}, "fusion_lon": 0.0, "lat": 38.91643583333333, "bike_id": "66f28aa320d6278cd7d2e7e5999559c8", "type": "electric_scooter", "is_reserved": 0, "lon": -77.04779483333333}, {"fusion_lat": 0.0, "name": "49e3400a1c9edd2e377e0bda903659a8", "is_disabled": 0, "rental_uris": {"android": "https://dc.lft.to/lastmile_qr_scan", "ios": "https://dc.lft.to/lastmile_qr_scan"}, "fusion_lon": 0.0, "lat": 38.9449705, "bike_id": "49e3400a1c9edd2e377e0bda903659a8", "type": "electric_bike", "is_reserved": 0, "lon": -77.00660833333333}, {"fusion_lat": 0.0, "name": "7fd660c65ee13d494ccddab03448c03a", "is_disabled": 0, "rental_uris": {"android": "https://dc.lft.to/lastmile_qr_scan", "ios": "https://dc.lft.to/lastmile_qr_scan"}, "fusion_lon": 0.0, "lat": 38.895616, "bike_id": "7fd660c65ee13d494ccddab03448c03a", "type": "electric_scooter", "is_reserved": 0, "lon": -76.948938}, {"fusion_lat": 0.0, "name": "027833ef0814a61039dc191a1fef5bb1", "is_disabled": 0, "rental_uris": {"android": "https://dc.lft.to/lastmile_qr_scan", "ios": "https://dc.lft.to/lastmile_qr_scan"}, "fusion_lon": 0.0, "lat": 38.9305515, "bike_id": "027833ef0814a61039dc191a1fef5bb1", "type": "electric_scooter", "is_reserved": 0, "lon": -77.03812933333333}, {"fusion_lat": 0.0, "name": "d7a48a60123211452d388c0191d75f02", "is_disabled": 0, "rental_uris": {"android": "https://dc.lft.to/lastmile_qr_scan", "ios": "https://dc.lft.to/lastmile_qr_scan"}, "fusion_lon": 0.0, "lat": 38.8972335, "bike_id": "d7a48a60123211452d388c0191d75f02", "type": "electric_scooter", "is_reserved": 0, "lon": -77.01917666666667}, {"fusion_lat": 0.0, "name": "29a355a91f7c470356e9951b22c936ba", "is_disabled": 0, "rental_uris": {"android": "https://dc.lft.to/lastmile_qr_scan", "ios": "https://dc.lft.to/lastmile_qr_scan"}, "fusion_lon": 0.0, "lat": 38.9033815, "bike_id": "29a355a91f7c470356e9951b22c936ba", "type": "electric_scooter", "is_reserved": 0, "lon": -77.0448805}, {"fusion_lat": 0.0, "name": "05a395c92f1c78d0cfd25dc70412b41f", "is_disabled": 0, "rental_uris": {"android": "https://dc.lft.to/lastmile_qr_scan", "ios": "https://dc.lft.to/lastmile_qr_scan"}, "fusion_lon": 0.0, "lat": 38.922467, "bike_id": "05a395c92f1c78d0cfd25dc70412b41f", "type": "electric_scooter", "is_reserved": 0, "lon": -77.03095683333333}, {"fusion_lat": 0.0, "name": "a8ff317e33d8c39f300671b457d07d61", "is_disabled": 0, "rental_uris": {"android": "https://dc.lft.to/lastmile_qr_scan", "ios": "https://dc.lft.to/lastmile_qr_scan"}, "fusion_lon": 0.0, "lat": 38.8776115, "bike_id": "a8ff317e33d8c39f300671b457d07d61", "type": "electric_scooter", "is_reserved": 0, "lon": -77.0034845}, {"fusion_lat": 0.0, "name": "50d24bf4aae0d195bbee3a01474c9ec2", "is_disabled": 0, "rental_uris": {"android": "https://dc.lft.to/lastmile_qr_scan", "ios": "https://dc.lft.to/lastmile_qr_scan"}, "fusion_lon": 0.0, "lat": 38.905286333333336, "bike_id": "50d24bf4aae0d195bbee3a01474c9ec2", "type": "electric_bike", "is_reserved": 0, "lon": -76.998051}, {"fusion_lat": 0.0, "name": "a0db3efb593203149ce60458c75a6d99", "is_disabled": 0, "rental_uris": {"android": "https://dc.lft.to/lastmile_qr_scan", "ios": "https://dc.lft.to/lastmile_qr_scan"}, "fusion_lon": 0.0, "lat": 38.9088645, "bike_id": "a0db3efb593203149ce60458c75a6d99", "type": "electric_scooter", "is_reserved": 0, "lon": -77.04322033333334}, {"fusion_lat": 0.0, "name": "d2ddd29eb5ede377d3f29075bcb0ee49", "is_disabled": 0, "rental_uris": {"android": "https://dc.lft.to/lastmile_qr_scan", "ios": "https://dc.lft.to/lastmile_qr_scan"}, "fusion_lon": 0.0, "lat": 38.9152975, "bike_id": "d2ddd29eb5ede377d3f29075bcb0ee49", "type": "electric_scooter", "is_reserved": 0, "lon": -77.0122845}, {"fusion_lat": 0.0, "name": "110916d2eb24a96e0fd2860bb321074e", "is_disabled": 0, "rental_uris": {"android": "https://dc.lft.to/lastmile_qr_scan", "ios": "https://dc.lft.to/lastmile_qr_scan"}, "fusion_lon": 0.0, "lat": 38.91649, "bike_id": "110916d2eb24a96e0fd2860bb321074e", "type": "electric_scooter", "is_reserved": 0, "lon": -77.009562}, {"fusion_lat": 0.0, "name": "d831cd1451477508116caa49048d1792", "is_disabled": 0, "rental_uris": {"android": "https://dc.lft.to/lastmile_qr_scan", "ios": "https://dc.lft.to/lastmile_qr_scan"}, "fusion_lon": 0.0, "lat": 38.922412666666666, "bike_id": "d831cd1451477508116caa49048d1792", "type": "electric_scooter", "is_reserved": 0, "lon": -77.0224225}, {"fusion_lat": 0.0, "name": "2f72f6d6620763f91f255b9e97267fe8", "is_disabled": 0, "rental_uris": {"android": "https://dc.lft.to/lastmile_qr_scan", "ios": "https://dc.lft.to/lastmile_qr_scan"}, "fusion_lon": 0.0, "lat": 38.903851833333334, "bike_id": "2f72f6d6620763f91f255b9e97267fe8", "type": "electric_scooter", "is_reserved": 0, "lon": -77.01774866666666}, {"fusion_lat": 0.0, "name": "8eb85aa48cf32758b344ecaca0e2a8c1", "is_disabled": 0, "rental_uris": {"android": "https://dc.lft.to/lastmile_qr_scan", "ios": "https://dc.lft.to/lastmile_qr_scan"}, "fusion_lon": 0.0, "lat": 38.90146416666666, "bike_id": "8eb85aa48cf32758b344ecaca0e2a8c1", "type": "electric_scooter", "is_reserved": 0, "lon": -77.02295016666666}, {"fusion_lat": 0.0, "name": "a271774e8eb6e029068f7235c048ffe3", "is_disabled": 0, "rental_uris": {"android": "https://dc.lft.to/lastmile_qr_scan", "ios": "https://dc.lft.to/lastmile_qr_scan"}, "fusion_lon": 0.0, "lat": 38.91407433333333, "bike_id": "a271774e8eb6e029068f7235c048ffe3", "type": "electric_scooter", "is_reserved": 0, "lon": -77.0425685}, {"fusion_lat": 0.0, "name": "478c73ac471f35d598eacc70186184b4", "is_disabled": 0, "rental_uris": {"android": "https://dc.lft.to/lastmile_qr_scan", "ios": "https://dc.lft.to/lastmile_qr_scan"}, "fusion_lon": 0.0, "lat": 38.887314833333335, "bike_id": "478c73ac471f35d598eacc70186184b4", "type": "electric_scooter", "is_reserved": 0, "lon": -77.01511966666666}, {"fusion_lat": 0.0, "name": "3f5e04b4112afd525bf7a70721d87a5b", "is_disabled": 0, "rental_uris": {"android": "https://dc.lft.to/lastmile_qr_scan", "ios": "https://dc.lft.to/lastmile_qr_scan"}, "fusion_lon": 0.0, "lat": 38.92345133333333, "bike_id": "3f5e04b4112afd525bf7a70721d87a5b", "type": "electric_scooter", "is_reserved": 0, "lon": -77.051819}, {"fusion_lat": 0.0, "name": "25e1deb32a8040438ea5811b5328067b", "is_disabled": 0, "rental_uris": {"android": "https://dc.lft.to/lastmile_qr_scan", "ios": "https://dc.lft.to/lastmile_qr_scan"}, "fusion_lon": 0.0, "lat": 38.91089566666667, "bike_id": "25e1deb32a8040438ea5811b5328067b", "type": "electric_scooter", "is_reserved": 0, "lon": -77.01687933333334}, {"fusion_lat": 0.0, "name": "c4c797f5e581ff981ec2f328045db0a8", "is_disabled": 0, "rental_uris": {"android": "https://dc.lft.to/lastmile_qr_scan", "ios": "https://dc.lft.to/lastmile_qr_scan"}, "fusion_lon": 0.0, "lat": 38.8651245, "bike_id": "c4c797f5e581ff981ec2f328045db0a8", "type": "electric_bike", "is_reserved": 0, "lon": -77.1294505}, {"fusion_lat": 0.0, "name": "ea2fd8a9c84600c6e83ecf4cc7a9729b", "is_disabled": 0, "rental_uris": {"android": "https://dc.lft.to/lastmile_qr_scan", "ios": "https://dc.lft.to/lastmile_qr_scan"},