{"data": {"bikes": [{"rental_uris": {"ios": "https://dc.lft.to/lastmile_qr_scan", "android": "https://dc.lft.to/lastmile_qr_scan"}, "type": "electric_scooter", "name": "d6c923517a936a08bcca12c4bd882146", "is_reserved": 0, "lon": -77.02210766666667, "is_disabled": 0, "fusion_lat": 0.0, "lat": 38.905467333333334, "bike_id": "d6c923517a936a08bcca12c4bd882146", "fusion_lon": 0.0}, {"rental_uris": {"ios": "https://dc.lft.to/lastmile_qr_scan", "android": "https://dc.lft.to/lastmile_qr_scan"}, "type": "electric_scooter", "name": "daba336399562a01642b4514ff1f906d", "is_reserved": 0, "lon": -77.031396, "is_disabled": 0, "fusion_lat": 0.0, "lat": 38.912611166666665, "bike_id": "daba336399562a01642b4514ff1f906d", "fusion_lon": 0.0}, {"rental_uris": {"ios": "https://dc.lft.to/lastmile_qr_scan", "android": "https://dc.lft.to/lastmile_qr_scan"}, "type": "electric_bike", "name": "534264b596edc8729797cb925ef3e3eb", "is_reserved": 0, "lon": -76.9991465, "is_disabled": 0, "fusion_lat": 0.0, "lat": 38.864457333333334, "bike_id": "534264b596edc8729797cb925ef3e3eb", "fusion_lon": 0.0}, {"rental_uris": {"ios": "https://dc.lft.to/lastmile_qr_scan", "android": "https://dc.lft.to/lastmile_qr_scan"}, "type": "electric_scooter", "name": "e878adf870dc74dac8378a1389e23c57", "is_reserved": 0, "lon": -77.015953, "is_disabled": 0, "fusion_lat": 0.0, "lat": 38.91648933333333, "bike_id": "e878adf870dc74dac8378a1389e23c57", "fusion_lon": 0.0}, {"rental_uris": {"ios": "https://dc.lft.to/lastmile_qr_scan", "android": "https://dc.lft.to/lastmile_qr_scan"}, "type": "electric_scooter", "name": "befb9deef016d5ad9d4899e278920d44", "is_reserved": 0, "lon": -77.034723, "is_disabled": 0, "fusion_lat": 0.0, "lat": 38.90724983333333, "bike_id": "befb9deef016d5ad9d4899e278920d44", "fusion_lon": 0.0}, {"rental_uris": {"ios": "https://dc.lft.to/lastmile_qr_scan", "android": "https://dc.lft.to/lastmile_qr_scan"}, "type": "electric_bike", "name": "9e1221f54d37834dcccdbaa8e206fefe", "is_reserved": 0, "lon": -77.02590216666667, "is_disabled": 0, "fusion_lat": 0.0, "lat": 38.9787355, "bike_id": "9e1221f54d37834dcccdbaa8e206fefe", "fusion_lon": 0.0}, {"rental_uris": {"ios": "https://dc.lft.to/lastmile_qr_scan", "android": "https://dc.lft.to/lastmile_qr_scan"}, "type": "electric_scooter", "name": "23559570ed582ed86aa762384ae3f866", "is_reserved": 0, "lon": -77.01105333333334, "is_disabled": 0, "fusion_lat": 0.0, "lat": 38.89785116666667, "bike_id": "23559570ed582ed86aa762384ae3f866", "fusion_lon": 0.0}, {"rental_uris": {"ios": "https://dc.lft.to/lastmile_qr_scan", "android": "https://dc.lft.to/lastmile_qr_scan"}, "type": "electric_scooter", "name": "78c2fbc6290b52ec36b3cbd826cc1683", "is_reserved": 0, "lon": -77.00400066666667, "is_disabled": 0, "fusion_lat": 0.0, "lat": 38.87697283333333, "bike_id": "78c2fbc6290b52ec36b3cbd826cc1683", "fusion_lon": 0.0}, {"rental_uris": {"ios": "https://dc.lft.to/lastmile_qr_scan", "android": "https://dc.lft.to/lastmile_qr_scan"}, "type": "electric_scooter", "name": "d3b0d26b123dc46f22ccb44936521398", "is_reserved": 0, "lon": -77.04077816666667, "is_disabled": 0, "fusion_lat": 0.0, "lat": 38.947684, "bike_id": "d3b0d26b123dc46f22ccb44936521398", "fusion_lon": 0.0}, {"rental_uris": {"ios": "https://dc.lft.to/lastmile_qr_scan", "android": "https://dc.lft.to/lastmile_qr_scan"}, "type": "electric_scooter", "name": "d904fc8ebabbcf807ef5f6bff29ac920", "is_reserved": 0, "lon": -76.99506883333333, "is_disabled": 0, "fusion_lat": 0.0, "lat": 38.862460166666665, "bike_id": "d904fc8ebabbcf807ef5f6bff29ac920", "fusion_lon": 0.0}, {"rental_uris": {"ios": "https://dc.lft.to/lastmile_qr_scan", "android": "https://dc.lft.to/lastmile_qr_scan"}, "type": "electric_scooter", "name": "0e11b0a00f2902a7c131671829204525", "is_reserved": 0, "lon": -77.03956933333333, "is_disabled": 0, "fusion_lat": 0.0, "lat": 38.89249133333333, "bike_id": "0e11b0a00f2902a7c131671829204525", "fusion_lon": 0.0}, {"rental_uris": {"ios": "https://dc.lft.to/lastmile_qr_scan", "android": "https://dc.lft.to/lastmile_qr_scan"}, "type": "electric_scooter", "name": "6c483e53a7a308274d0757e5908769f2", "is_reserved": 0, "lon": -77.02203233333333, "is_disabled": 0, "fusion_lat": 0.0, "lat": 38.89408233333333, "bike_id": "6c483e53a7a308274d0757e5908769f2", "fusion_lon": 0.0}, {"rental_uris": {"ios": "https://dc.lft.to/lastmile_qr_scan", "android": "https://dc.lft.to/lastmile_qr_scan"}, "type": "electric_scooter", "name": "486db5423e429e92158b26e7cb66f063", "is_reserved": 0, "lon": -77.03792416666667, "is_disabled": 0, "fusion_lat": 0.0, "lat": 38.925879, "bike_id": "486db5423e429e92158b26e7cb66f063", "fusion_lon": 0.0}, {"rental_uris": {"ios": "https://dc.lft.to/lastmile_qr_scan", "android": "https://dc.lft.to/lastmile_qr_scan"}, "type": "electric_scooter", "name": "54c11c8fd07271882238360718c2eb48", "is_reserved": 0, "lon": -77.011539, "is_disabled": 0, "fusion_lat": 0.0, "lat": 38.956842333333334, "bike_id": "54c11c8fd07271882238360718c2eb48", "fusion_lon": 0.0}, {"rental_uris": {"ios": "https://dc.lft.to/lastmile_qr_scan", "android": "https://dc.lft.to/lastmile_qr_scan"}, "type": "electric_scooter", "name": "80fbf81c6520bb6782076d326c7b0b6d", "is_reserved": 0, "lon": -77.02338133333333, "is_disabled": 0, "fusion_lat": 0.0, "lat": 38.929686333333336, "bike_id": "80fbf81c6520bb6782076d326c7b0b6d", "fusion_lon": 0.0}, {"rental_uris": {"ios": "https://dc.lft.to/lastmile_qr_scan", "android": "https://dc.lft.to/lastmile_qr_scan"}, "type": "electric_scooter", "name": "1ce07db064cf04e8ede00a6ce6502804", "is_reserved": 0, "lon": -76.94198233333333, "is_disabled": 0, "fusion_lat": 0.0, "lat": 38.90229566666667, "bike_id": "1ce07db064cf04e8ede00a6ce6502804", "fusion_lon": 0.0}, {"rental_uris": {"ios": "https://dc.lft.to/lastmile_qr_scan", "android": "https://dc.lft.to/lastmile_qr_scan"}, "type": "electric_scooter", "name": "0354d3ea8ec21fd8b2efe841be6697d4", "is_reserved": 0, "lon": -77.032786, "is_disabled": 0, "fusion_lat": 0.0, "lat": 38.905544166666665, "bike_id": "0354d3ea8ec21fd8b2efe841be6697d4", "fusion_lon": 0.0}, {"rental_uris": {"ios": "https://dc.lft.to/lastmile_qr_scan", "android": "https://dc.lft.to/lastmile_qr_scan"}, "type": "electric_scooter", "name": "904371c39a58dff701bd39d28629821b", "is_reserved": 0, "lon": -77.07555733333334, "is_disabled": 0, "fusion_lat": 0.0, "lat": 38.92083933333333, "bike_id": "904371c39a58dff701bd39d28629821b", "fusion_lon": 0.0}, {"rental_uris": {"ios": "https://dc.lft.to/lastmile_qr_scan", "android": "https://dc.lft.to/lastmile_qr_scan"}, "type": "electric_scooter", "name": "7c846a600d5c3e75cebc6bbbbc45dfb8", "is_reserved": 0, "lon": -77.02129666666667, "is_disabled": 0, "fusion_lat": 0.0, "lat": 38.924080833333335, "bike_id": "7c846a600d5c3e75cebc6bbbbc45dfb8", "fusion_lon": 0.0}, {"rental_uris": {"ios": "https://dc.lft.to/lastmile_qr_scan", "android": "https://dc.lft.to/lastmile_qr_scan"}, "type": "electric_scooter", "name": "302f96638d7c7011e6599eaf6f89b063", "is_reserved": 0, "lon": -77.00198966666666, "is_disabled": 0, "fusion_lat": 0.0, "lat": 38.902361166666665, "bike_id": "302f96638d7c7011e6599eaf6f89b063", "fusion_lon": 0.0}, {"rental_uris": {"ios": "https://dc.lft.to/lastmile_qr_scan", "android": "https://dc.lft.to/lastmile_qr_scan"}, "type": "electric_scooter", "name": "b2f787560e6b747000f1e5b101c1da52", "is_reserved": 0, "lon": -76.99474616666667, "is_disabled": 0, "fusion_lat": 0.0, "lat": 38.90549583333333, "bike_id": "b2f787560e6b747000f1e5b101c1da52", "fusion_lon": 0.0}, {"rental_uris": {"ios": "https://dc.lft.to/lastmile_qr_scan", "android": "https://dc.lft.to/lastmile_qr_scan"}, "type": "electric_scooter", "name": "3949082834fc00572c9e32c1b8e189cc", "is_reserved": 0, "lon": -77.02283983333334, "is_disabled": 0, "fusion_lat": 0.0, "lat": 38.87856166666667, "bike_id": "3949082834fc00572c9e32c1b8e189cc", "fusion_lon": 0.0}, {"rental_uris": {"ios": "https://dc.lft.to/lastmile_qr_scan", "android": "https://dc.lft.to/lastmile_qr_scan"}, "type": "electric_scooter", "name": "b30d1d2c9e5170ca90f24f02799b6381", "is_reserved": 0, "lon": -77.010819, "is_disabled": 0, "fusion_lat": 0.0, "lat": 38.894787666666666, "bike_id": "b30d1d2c9e5170ca90f24f02799b6381", "fusion_lon": 0.0}, {"rental_uris": {"ios": "https://dc.lft.to/lastmile_qr_scan", "android": "https://dc.lft.to/lastmile_qr_scan"}, "type": "electric_bike", "name": "b0c8a79224516884462deb241801ae39", "is_reserved": 0, "lon": -77.09963783333333, "is_disabled": 0, "fusion_lat": 0.0, "lat": 38.85791066666667, "bike_id": "b0c8a79224516884462deb241801ae39", "fusion_lon": 0.0}, {"rental_uris": {"ios": "https://dc.lft.to/lastmile_qr_scan", "android": "https://dc.lft.to/lastmile_qr_scan"}, "type": "electric_scooter", "name": "c5b646bf519d0936e91e5ca88151f4c4", "is_reserved": 0, "lon": -76.9917345, "is_disabled": 0, "fusion_lat": 0.0, "lat": 38.88928833333333, "bike_id": "c5b646bf519d0936e91e5ca88151f4c4", "fusion_lon": 0.0}, {"rental_uris": {"ios": "https://dc.lft.to/lastmile_qr_scan", "android": "https://dc.lft.to/lastmile_qr_scan"}, "type": "electric_scooter", "name": "2580b6070c554aacec6eafa68de6cab9", "is_reserved": 0, "lon": -77.01373916666667, "is_disabled": 0, "fusion_lat": 0.0, "lat": 38.86949966666667, "bike_id": "2580b6070c554aacec6eafa68de6cab9", "fusion_lon": 0.0}, {"rental_uris": {"ios": "https://dc.lft.to/lastmile_qr_scan", "android": "https://dc.lft.to/lastmile_qr_scan"}, "type": "electric_scooter", "name": "ffeacbcb621e7d58e75add20ac37b75d", "is_reserved": 0, "lon": -77.03384966666667, "is_disabled": 0, "fusion_lat": 0.0, "lat": 38.90267766666667, "bike_id": "ffeacbcb621e7d58e75add20ac37b75d", "fusion_lon": 0.0}, {"rental_uris": {"ios": "https://dc.lft.to/lastmile_qr_scan", "android": "https://dc.lft.to/lastmile_qr_scan"}, "type": "electric_scooter", "name": "711d5e48badcce86f61f2af6f974e555", "is_reserved": 0, "lon": -77.00332733333333, "is_disabled": 0, "fusion_lat": 0.0, "lat": 38.897262166666664, "bike_id": "711d5e48badcce86f61f2af6f974e555", "fusion_lon": 0.0}, {"rental_uris": {"ios": "https://dc.lft.to/lastmile_qr_scan", "android": "https://dc.lft.to/lastmile_qr_scan"}, "type": "electric_scooter", "name": "36289fa02bb4321a69214445cd9d4071", "is_reserved": 0, "lon": -77.025347, "is_disabled": 0, "fusion_lat": 0.0, "lat": 38.920776333333336, "bike_id": "36289fa02bb4321a69214445cd9d4071", "fusion_lon": 0.0}, {"rental_uris": {"ios": "https://dc.lft.to/lastmile_qr_scan", "android": "https://dc.lft.to/lastmile_qr_scan"}, "type": "electric_scooter", "name": "ba8415a408ea965acf16e7d6e4f036e1", "is_reserved": 0, "lon": -77.05491483333333, "is_disabled": 0, "fusion_lat": 0.0, "lat": 38.90845383333333, "bike_id": "ba8415a408ea965acf16e7d6e4f036e1", "fusion_lon": 0.0}, {"rental_uris": {"ios": "https://dc.lft.to/lastmile_qr_scan", "android": "https://dc.lft.to/lastmile_qr_scan"}, "type": "electric_scooter", "name": "b3ee77659b5b7b7422c936d8ed93bcd4", "is_reserved": 0, "lon": -76.9794005, "is_disabled": 0, "fusion_lat": 0.0, "lat": 38.916027666666665, "bike_id": "b3ee77659b5b7b7422c936d8ed93bcd4", "fusion_lon": 0.0}, {"rental_uris": {"ios": "https://dc.lft.to/lastmile_qr_scan", "android": "https://dc.lft.to/lastmile_qr_scan"}, "type": "electric_scooter", "name": "1171f91b8af6bcfa0a764330f89a3f49", "is_reserved": 0, "lon": -77.0057355, "is_disabled": 0, "fusion_lat": 0.0, "lat": 38.874536666666664, "bike_id": "1171f91b8af6bcfa0a764330f89a3f49", "fusion_lon": 0.0}, {"rental_uris": {"ios": "https://dc.lft.to/lastmile_qr_scan", "android": "https://dc.lft.to/lastmile_qr_scan"}, "type": "electric_scooter", "name": "d6b3987d1fe554915a640b647a0a1155", "is_reserved": 0, "lon": -77.01581283333333, "is_disabled": 0, "fusion_lat": 0.0, "lat": 38.916760833333335, "bike_id": "d6b3987d1fe554915a640b647a0a1155", "fusion_lon": 0.0}, {"rental_uris": {"ios": "https://dc.lft.to/lastmile_qr_scan", "android": "https://dc.lft.to/lastmile_qr_scan"}, "type": "electric_scooter", "name": "9fd1ed5852ee166c30305cd1284ac0e2", "is_reserved": 0, "lon": -77.04131166666667, "is_disabled": 0, "fusion_lat": 0.0, "lat": 38.9140355, "bike_id": "9fd1ed5852ee166c30305cd1284ac0e2", "fusion_lon": 0.0}, {"rental_uris": {"ios": "https://dc.lft.to/lastmile_qr_scan", "android": "https://dc.lft.to/lastmile_qr_scan"}, "type": "electric_scooter", "name": "c7fe62a7f021ec0f1ddff0b9f74c11e3", "is_reserved": 0, "lon": -77.012293, "is_disabled": 0, "fusion_lat": 0.0, "lat": 38.9146715, "bike_id": "c7fe62a7f021ec0f1ddff0b9f74c11e3", "fusion_lon": 0.0}, {"rental_uris": {"ios": "https://dc.lft.to/lastmile_qr_scan", "android": "https://dc.lft.to/lastmile_qr_scan"}, "type": "electric_scooter", "name": "248516d140e425b34bfda5cd24738c92", "is_reserved": 0, "lon": -76.97722933333333, "is_disabled": 0, "fusion_lat": 0.0, "lat": 38.888183166666664, "bike_id": "248516d140e425b34bfda5cd24738c92", "fusion_lon": 0.0}, {"rental_uris": {"ios": "https://dc.lft.to/lastmile_qr_scan", "android": "https://dc.lft.to/lastmile_qr_scan"}, "type": "electric_scooter", "name": "fad59848200534d270ad68153ab853d3", "is_reserved": 0, "lon": -76.98652, "is_disabled": 0, "fusion_lat": 0.0, "lat": 38.905395, "bike_id": "fad59848200534d270ad68153ab853d3", "fusion_lon": 0.0}, {"rental_uris": {"ios": "https://dc.lft.to/lastmile_qr_scan", "android": "https://dc.lft.to/lastmile_qr_scan"}, "type": "electric_scooter", "name": "e4f43b6af3d1306a60ae1693c4cea694", "is_reserved": 0, "lon": -77.02136983333334, "is_disabled": 0, "fusion_lat": 0.0, "lat": 38.9240925, "bike_id": "e4f43b6af3d1306a60ae1693c4cea694", "fusion_lon": 0.0}, {"rental_uris": {"ios": "https://dc.lft.to/lastmile_qr_scan", "android": "https://dc.lft.to/lastmile_qr_scan"}, "type": "electric_scooter", "name": "4c94e791f9a038ed02b96ddb6d599f5f", "is_reserved": 0, "lon": -77.00414566666667, "is_disabled": 0, "fusion_lat": 0.0, "lat": 38.8792535, "bike_id": "4c94e791f9a038ed02b96ddb6d599f5f", "fusion_lon": 0.0}, {"rental_uris": {"ios": "https://dc.lft.to/lastmile_qr_scan", "android": "https://dc.lft.to/lastmile_qr_scan"}, "type": "electric_scooter", "name": "00c3d00fa661c45bfd0a181baa2750b6", "is_reserved": 0, "lon": -77.01501933333333, "is_disabled": 0, "fusion_lat": 0.0, "lat": 38.92665733333333, "bike_id": "00c3d00fa661c45bfd0a181baa2750b6", "fusion_lon": 0.0}, {"rental_uris": {"ios": "https://dc.lft.to/lastmile_qr_scan", "android": "https://dc.lft.to/lastmile_qr_scan"}, "type": "electric_bike", "name": "96f68e748a9c08f06b14aaf5207221d4", "is_reserved": 0, "lon": -77.1062735, "is_disabled": 0, "fusion_lat": 0.0, "lat": 38.873259833333336, "bike_id": "96f68e748a9c08f06b14aaf5207221d4", "fusion_lon": 0.0}, {"rental_uris": {"ios": "https://dc.lft.to/lastmile_qr_scan", "android": "https://dc.lft.to/lastmile_qr_scan"}, "type": "electric_scooter", "name": "94e109143f19fd21370405dc2f24034b", "is_reserved": 0, "lon": -77.04799316666667, "is_disabled": 0, "fusion_lat": 0.0, "lat": 38.89748916666667, "bike_id": "94e109143f19fd21370405dc2f24034b", "fusion_lon": 0.0}, {"rental_uris": {"ios": "https://dc.lft.to/lastmile_qr_scan", "android": "https://dc.lft.to/lastmile_qr_scan"}, "type": "electric_scooter", "name": "4a0e6f9f487a194f1a7aa576f10b9348", "is_reserved": 0, "lon": -77.0357545, "is_disabled": 0, "fusion_lat": 0.0, "lat": 38.881816, "bike_id": "4a0e6f9f487a194f1a7aa576f10b9348", "fusion_lon": 0.0}, {"rental_uris": {"ios": "https://dc.lft.to/lastmile_qr_scan", "android": "https://dc.lft.to/lastmile_qr_scan"}, "type": "electric_scooter", "name": "0823794e8f8a6806f2dace984a2dcbaf", "is_reserved": 0, "lon": -77.02195416666666, "is_disabled": 0, "fusion_lat": 0.0, "lat": 38.91132133333333, "bike_id": "0823794e8f8a6806f2dace984a2dcbaf", "fusion_lon": 0.0}, {"rental_uris": {"ios": "https://dc.lft.to/lastmile_qr_scan", "android": "https://dc.lft.to/lastmile_qr_scan"}, "type": "electric_scooter", "name": "1c27d8822b3753aebedf1afd168dcd3d", "is_reserved": 0, "lon": -76.9230765, "is_disabled": 0, "fusion_lat": 0.0, "lat": 38.8939065, "bike_id": "1c27d8822b3753aebedf1afd168dcd3d", "fusion_lon": 0.0}, {"rental_uris": {"ios": "https://dc.lft.to/lastmile_qr_scan", "android": "https://dc.lft.to/lastmile_qr_scan"}, "type": "electric_scooter", "name": "3d09a20ab2782a8541d36ee87e4abdd9", "is_reserved": 0, "lon": -77.031775, "is_disabled": 0, "fusion_lat": 0.0, "lat": 38.914212666666664, "bike_id": "3d09a20ab2782a8541d36ee87e4abdd9", "fusion_lon": 0.0}, {"rental_uris": {"ios": "https://dc.lft.to/lastmile_qr_scan", "android": "https://dc.lft.to/lastmile_qr_scan"}, "type": "electric_scooter", "name": "6e061d8e4c5c8075a39065b7cceb7299", "is_reserved": 0, "lon": -77.0741245, "is_disabled": 0, "fusion_lat": 0.0, "lat": 38.89717733333333, "bike_id": "6e061d8e4c5c8075a39065b7cceb7299", "fusion_lon": 0.0}, {"rental_uris": {"ios": "https://dc.lft.to/lastmile_qr_scan", "android": "https://dc.lft.to/lastmile_qr_scan"}, "type": "electric_bike", "name": "c791cbb05f710a46d6ca1f6c0b2cfa70", "is_reserved": 0, "lon": -77.01654266666667, "is_disabled": 0, "fusion_lat": 0.0, "lat": 38.881246, "bike_id": "c791cbb05f710a46d6ca1f6c0b2cfa70", "fusion_lon": 0.0}, {"rental_uris": {"ios": "https://dc.lft.to/lastmile_qr_scan", "android": "https://dc.lft.to/lastmile_qr_scan"}, "type": "electric_scooter", "name": "5ae6ec102c32c6f174e2660057f04c8c", "is_reserved": 0, "lon": -76.988665, "is_disabled": 0, "fusion_lat": 0.0, "lat": 38.900302, "bike_id": "5ae6ec102c32c6f174e2660057f04c8c", "fusion_lon": 0.0}, {"rental_uris": {"ios": "https://dc.lft.to/lastmile_qr_scan", "android": "https://dc.lft.to/lastmile_qr_scan"}, "type": "electric_scooter", "name": "10cf948865a9e5103371d8198142e01f", "is_reserved": 0, "lon": -76.99680966666666, "is_disabled": 0, "fusion_lat": 0.0, "lat": 38.92194833333333, "bike_id": "10cf948865a9e5103371d8198142e01f", "fusion_lon": 0.0}, {"rental_uris": {"ios": "https://dc.lft.to/lastmile_qr_scan", "android": "https://dc.lft.to/lastmile_qr_scan"}, "type": "electric_scooter", "name": "e9d4bd525c95a57c7a84cb0fe44cbcee", "is_reserved": 0, "lon": -77.0136575, "is_disabled": 0, "fusion_lat": 0.0, "lat": 38.9192705, "bike_id": "e9d4bd525c95a57c7a84cb0fe44cbcee", "fusion_lon": 0.0}, {"rental_uris": {"ios": "https://dc.lft.to/lastmile_qr_scan", "android": "https://dc.lft.to/lastmile_qr_scan"}, "type": "electric_scooter", "name": "ac6683020f2ef7477e6f87851b2425e8", "is_reserved": 0, "lon": -77.040637, "is_disabled": 0, "fusion_lat": 0.0, "lat": 38.90431133333333, "bike_id": "ac6683020f2ef7477e6f87851b2425e8", "fusion_lon": 0.0}, {"rental_uris": {"ios": "https://dc.lft.to/lastmile_qr_scan", "android": "https://dc.lft.to/lastmile_qr_scan"}, "type": "electric_scooter", "name": "3c3f63e5c8191e9a7191d6549badbd4e", "is_reserved": 0, "lon": -77.03236633333333, "is_disabled": 0, "fusion_lat": 0.0, "lat": 38.928964, "bike_id": "3c3f63e5c8191e9a7191d6549badbd4e", "fusion_lon": 0.0}, {"rental_uris": {"ios": "https://dc.lft.to/lastmile_qr_scan", "android": "https://dc.lft.to/lastmile_qr_scan"}, "type": "electric_scooter", "name": "567161263ec81f0e9a7ef6394584bf84", "is_reserved": 0, "lon": -77.03186216666667, "is_disabled": 0, "fusion_lat": 0.0, "lat": 38.90112666666667, "bike_id": "567161263ec81f0e9a7ef6394584bf84", "fusion_lon": 0.0}, {"rental_uris": {"ios": "https://dc.lft.to/lastmile_qr_scan", "android": "https://dc.lft.to/lastmile_qr_scan"}, "type": "electric_scooter", "name": "5cd3c2beed69006c6ae11a85a7b5395e", "is_reserved": 0, "lon": -77.067512, "is_disabled": 0, "fusion_lat": 0.0, "lat": 38.905176, "bike_id": "5cd3c2beed69006c6ae11a85a7b5395e", "fusion_lon": 0.0}, {"rental_uris": {"ios": "https://dc.lft.to/lastmile_qr_scan", "android": "https://dc.lft.to/lastmile_qr_scan"}, "type": "electric_scooter", "name": "02749521791b6a6f7c17304b122f6c94", "is_reserved": 0, "lon": -77.03857866666667, "is_disabled": 0, "fusion_lat": 0.0, "lat": 38.915467166666666, "bike_id": "02749521791b6a6f7c17304b122f6c94", "fusion_lon": 0.0}, {"rental_uris": {"ios": "https://dc.lft.to/lastmile_qr_scan", "android": "https://dc.lft.to/lastmile_qr_scan"}, "type": "electric_scooter", "name": "81465c471fecd6d6849e003136be294d", "is_reserved": 0, "lon": -77.0263965, "is_disabled": 0, "fusion_lat": 0.0, "lat": 38.896377666666666, "bike_id": "81465c471fecd6d6849e003136be294d", "fusion_lon": 0.0}, {"rental_uris": {"ios": "https://dc.lft.to/lastmile_qr_scan", "android": "https://dc.lft.to/lastmile_qr_scan"}, "type": "electric_scooter", "name": "0c1e6061fe83674111475d8af7ebbf08", "is_reserved": 0, "lon": -77.03447166666666, "is_disabled": 0, "fusion_lat": 0.0, "lat": 38.90998166666667, "bike_id": "0c1e6061fe83674111475d8af7ebbf08", "fusion_lon": 0.0}, {"rental_uris": {"ios": "https://dc.lft.to/lastmile_qr_scan", "android": "https://dc.lft.to/lastmile_qr_scan"}, "type": "electric_scooter", "name": "31a41b6877eb3b0c8b100d86c6a8d023", "is_reserved": 0, "lon": -77.02341333333334, "is_disabled": 0, "fusion_lat": 0.0, "lat": 38.9230055, "bike_id": "31a41b6877eb3b0c8b100d86c6a8d023", "fusion_lon": 0.0}, {"rental_uris": {"ios": "https://dc.lft.to/lastmile_qr_scan", "android": "https://dc.lft.to/lastmile_qr_scan"}, "type": "electric_scooter", "name": "b544ef4f6c3cc361b49122f218909261", "is_reserved": 0, "lon": -77.02448916666667, "is_disabled": 0, "fusion_lat": 0.0, "lat": 38.92053633333333, "bike_id": "b544ef4f6c3cc361b49122f218909261", "fusion_lon": 0.0}, {"rental_uris": {"ios": "https://dc.lft.to/lastmile_qr_scan", "android": "https://dc.lft.to/lastmile_qr_scan"}, "type": "electric_scooter", "name": "ca771527c7c69d2b45bb316a086cae6a", "is_reserved": 0, "lon": -77.01503816666667, "is_disabled": 0, "fusion_lat": 0.0, "lat": 38.899614, "bike_id": "ca771527c7c69d2b45bb316a086cae6a", "fusion_lon": 0.0}, {"rental_uris": {"ios": "https://dc.lft.to/lastmile_qr_scan", "android": "https://dc.lft.to/lastmile_qr_scan"}, "type": "electric_scooter", "name": "e5db45b6c6f46a3d7bbab27312b2e975", "is_reserved": 0, "lon": -77.0245795, "is_disabled": 0, "fusion_lat": 0.0, "lat": 38.91850766666667, "bike_id": "e5db45b6c6f46a3d7bbab27312b2e975", "fusion_lon": 0.0}, {"rental_uris": {"ios": "https://dc.lft.to/lastmile_qr_scan", "android": "https://dc.lft.to/lastmile_qr_scan"}, "type": "electric_scooter", "name": "a00e4ca0e0fd0825aa7e4a2db4ce5730", "is_reserved": 0, "lon": -77.0245685, "is_disabled": 0, "fusion_lat": 0.0, "lat": 38.89992133333333, "bike_id": "a00e4ca0e0fd0825aa7e4a2db4ce5730", "fusion_lon": 0.0}, {"rental_uris": {"ios": "https://dc.lft.to/lastmile_qr_scan", "android": "https://dc.lft.to/lastmile_qr_scan"}, "type": "electric_bike", "name": "06f4f650d0cf0bec36c147840b32bb15", "is_reserved": 0, "lon": -76.988378, "is_disabled": 0, "fusion_lat": 0.0, "lat": 38.8427735, "bike_id": "06f4f650d0cf0bec36c147840b32bb15", "fusion_lon": 0.0}, {"rental_uris": {"ios": "https://dc.lft.to/lastmile_qr_scan", "android": "https://dc.lft.to/lastmile_qr_scan"}, "type": "electric_scooter", "name": "560a114aaf941bd22d109e88600d2c20", "is_reserved": 0, "lon": -77.02386133333333, "is_disabled": 0, "fusion_lat": 0.0, "lat": 38.919614333333335, "bike_id": "560a114aaf941bd22d109e88600d2c20", "fusion_lon": 0.0}, {"rental_uris": {"ios": "https://dc.lft.to/lastmile_qr_scan", "android": "https://dc.lft.to/lastmile_qr_scan"}, "type": "electric_scooter", "name": "65f25dbb1dab44d044e50a49537b999a", "is_reserved": 0, "lon": -77.04108733333334, "is_disabled": 0, "fusion_lat": 0.0, "lat": 38.90057433333333, "bike_id": "65f25dbb1dab44d044e50a49537b999a", "fusion_lon": 0.0}, {"rental_uris": {"ios": "https://dc.lft.to/lastmile_qr_scan", "android": "https://dc.lft.to/lastmile_qr_scan"}, "type": "electric_bike", "name": "a9274642860374b6625a2e81525bb868", "is_reserved": 0, "lon": -77.062703, "is_disabled": 0, "fusion_lat": 0.0, "lat": 38.9037995, "bike_id": "a9274642860374b6625a2e81525bb868", "fusion_lon": 0.0}, {"rental_uris": {"ios": "https://dc.lft.to/lastmile_qr_scan", "android": "https://dc.lft.to/lastmile_qr_scan"}, "type": "electric_scooter", "name": "2bdd694c8d5a801ceb612a4cff64cb5f", "is_reserved": 0, "lon": -77.03236466666667, "is_disabled": 0, "fusion_lat": 0.0, "lat": 38.907047166666665, "bike_id": "2bdd694c8d5a801ceb612a4cff64cb5f", "fusion_lon": 0.0}, {"rental_uris": {"ios": "https://dc.lft.to/lastmile_qr_scan", "android": "https://dc.lft.to/lastmile_qr_scan"}, "type": "electric_scooter", "name": "de247f778f1af268aa9576f4e81a3a60", "is_reserved": 0, "lon": -77.04011183333333, "is_disabled": 0, "fusion_lat": 0.0, "lat": 38.9118875, "bike_id": "de247f778f1af268aa9576f4e81a3a60", "fusion_lon": 0.0}, {"rental_uris": {"ios": "https://dc.lft.to/lastmile_qr_scan", "android": "https://dc.lft.to/lastmile_qr_scan"}, "type": "electric_scooter", "name": "cbf4cc3b8ff52a9c410c8aa5125daa52", "is_reserved": 0, "lon": -77.03183583333333, "is_disabled": 0, "fusion_lat": 0.0, "lat": 38.91844316666667, "bike_id": "cbf4cc3b8ff52a9c410c8aa5125daa52", "fusion_lon": 0.0}, {"rental_uris": {"ios": "https://dc.lft.to/lastmile_qr_scan", "android": "https://dc.lft.to/lastmile_qr_scan"}, "type": "electric_scooter", "name": "d040a83d27a2993ae8d0c75fa3d59e9b", "is_reserved": 0, "lon": -77.00338566666667, "is_disabled": 0, "fusion_lat": 0.0, "lat": 38.896062666666666, "bike_id": "d040a83d27a2993ae8d0c75fa3d59e9b", "fusion_lon": 0.0}, {"rental_uris": {"ios": "https://dc.lft.to/lastmile_qr_scan", "android": "https://dc.lft.to/lastmile_qr_scan"}, "type": "electric_scooter", "name": "96dab734bf97ce5a21b228a0476b9e2d", "is_reserved": 0, "lon": -77.02961483333333, "is_disabled": 0, "fusion_lat": 0.0, "lat": 38.928899, "bike_id": "96dab734bf97ce5a21b228a0476b9e2d", "fusion_lon": 0.0}, {"rental_uris": {"ios": "https://dc.lft.to/lastmile_qr_scan", "android": "https://dc.lft.to/lastmile_qr_scan"}, "type": "electric_scooter", "name": "1d60fb13842d538a27190cd10e5ff9df", "is_reserved": 0, "lon": -77.07054133333334, "is_disabled": 0, "fusion_lat": 0.0, "lat": 38.899063, "bike_id": "1d60fb13842d538a27190cd10e5ff9df", "fusion_lon": 0.0}, {"rental_uris": {"ios": "https://dc.lft.to/lastmile_qr_scan", "android": "https://dc.lft.to/lastmile_qr_scan"}, "type": "electric_scooter", "name": "6d2f0d1c5856d8b8938d8f9ea6424a13", "is_reserved": 0, "lon": -77.00684433333333, "is_disabled": 0, "fusion_lat": 0.0, "lat": 38.88424633333333, "bike_id": "6d2f0d1c5856d8b8938d8f9ea6424a13", "fusion_lon": 0.0}, {"rental_uris": {"ios": "https://dc.lft.to/lastmile_qr_scan", "android": "https://dc.lft.to/lastmile_qr_scan"}, "type": "electric_scooter", "name": "ce16a627e06344bf36be305a5568fee3", "is_reserved": 0, "lon": -77.02804133333333, "is_disabled": 0, "fusion_lat": 0.0, "lat": 38.923116, "bike_id": "ce16a627e06344bf36be305a5568fee3", "fusion_lon": 0.0}, {"rental_uris": {"ios": "https://dc.lft.to/lastmile_qr_scan", "android": "https://dc.lft.to/lastmile_qr_scan"}, "type": "electric_scooter", "name": "a2fc4b857901586a40e066274d4ed30f", "is_reserved": 0, "lon": -77.038627, "is_disabled": 0, "fusion_lat": 0.0, "lat": 38.9121945, "bike_id": "a2fc4b857901586a40e066274d4ed30f", "fusion_lon": 0.0}, {"rental_uris": {"ios": "https://dc.lft.to/lastmile_qr_scan", "android": "https://dc.lft.to/lastmile_qr_scan"}, "type": "electric_scooter", "name": "942993c757033d8ae7692f543512ab33", "is_reserved": 0, "lon": -77.038011, "is_disabled": 0, "fusion_lat": 0.0, "lat": 38.915422166666666, "bike_id": "942993c757033d8ae7692f543512ab33", "fusion_lon": 0.0}, {"rental_uris": {"ios": "https://dc.lft.to/lastmile_qr_scan", "android": "https://dc.lft.to/lastmile_qr_scan"}, "type": "electric_scooter", "name": "aab6084f58db058f2ead28c3623c119c", "is_reserved": 0, "lon": -77.03323666666667, "is_disabled": 0, "fusion_lat": 0.0, "lat": 38.900484166666665, "bike_id": "aab6084f58db058f2ead28c3623c119c", "fusion_lon": 0.0}, {"rental_uris": {"ios": "https://dc.lft.to/lastmile_qr_scan", "android": "https://dc.lft.to/lastmile_qr_scan"}, "type": "electric_scooter", "name": "85ac8344be1a97e1f8c305928b193a40", "is_reserved": 0, "lon": -76.9953225, "is_disabled": 0, "fusion_lat": 0.0, "lat": 38.8626755, "bike_id": "85ac8344be1a97e1f8c305928b193a40", "fusion_lon": 0.0}, {"rental_uris": {"ios": "https://dc.lft.to/lastmile_qr_scan", "android": "https://dc.lft.to/lastmile_qr_scan"}, "type": "electric_scooter", "name": "03fbd61ed72050f6b8f35085a3791ede", "is_reserved": 0, "lon": -77.02484566666666, "is_disabled": 0, "fusion_lat": 0.0, "lat": 38.880193, "bike_id": "03fbd61ed72050f6b8f35085a3791ede", "fusion_lon": 0.0}, {"rental_uris": {"ios": "https://dc.lft.to/lastmile_qr_scan", "android": "https://dc.lft.to/lastmile_qr_scan"}, "type": "electric_scooter", "name": "854b312950ab6447682539c09be61f5f", "is_reserved": 0, "lon": -77.07523183333333, "is_disabled": 0, "fusion_lat": 0.0, "lat": 38.93949583333333, "bike_id": "854b312950ab6447682539c09be61f5f", "fusion_lon": 0.0}, {"rental_uris": {"ios": "https://dc.lft.to/lastmile_qr_scan", "android": "https://dc.lft.to/lastmile_qr_scan"}, "type": "electric_scooter", "name": "fd3bd4ed6fd13e7d06433f567a5d8482", "is_reserved": 0, "lon": -77.00377783333333, "is_disabled": 0, "fusion_lat": 0.0, "lat": 38.8762865, "bike_id": "fd3bd4ed6fd13e7d06433f567a5d8482", "fusion_lon": 0.0}, {"rental_uris": {"ios": "https://dc.lft.to/lastmile_qr_scan", "android": "https://dc.lft.to/lastmile_qr_scan"}, "type": "electric_scooter", "name": "5b45776b773fac5517f467d68f1cc104", "is_reserved": 0, "lon": -77.03234416666666, "is_disabled": 0, "fusion_lat": 0.0, "lat": 38.93142533333334, "bike_id": "5b45776b773fac5517f467d68f1cc104", "fusion_lon": 0.0}, {"rental_uris": {"ios": "https://dc.lft.to/lastmile_qr_scan", "android": "https://dc.lft.to/lastmile_qr_scan"}, "type": "electric_scooter", "name": "58701f09b1173ec9bc5b8649efba20cf", "is_reserved": 0, "lon": -77.03820183333333, "is_disabled": 0, "fusion_lat": 0.0, "lat": 38.90383216666667, "bike_id": "58701f09b1173ec9bc5b8649efba20cf", "fusion_lon": 0.0}, {"rental_uris": {"ios": "https://dc.lft.to/lastmile_qr_scan", "android": "https://dc.lft.to/lastmile_qr_scan"}, "type": "electric_scooter", "name": "562aaef9348f2e311c99825c2c5b6810", "is_reserved": 0, "lon": -76.97328666666667, "is_disabled": 0, "fusion_lat": 0.0, "lat": 38.904112833333336, "bike_id": "562aaef9348f2e311c99825c2c5b6810", "fusion_lon": 0.0}, {"rental_uris": {"ios": "https://dc.lft.to/lastmile_qr_scan", "android": "https://dc.lft.to/lastmile_qr_scan"}, "type": "electric_scooter", "name": "6e7688736aa466b3e72c9aa3727c554d", "is_reserved": 0, "lon": -77.02364183333333, "is_disabled": 0, "fusion_lat": 0.0, "lat": 38.90226416666667, "bike_id": "6e7688736aa466b3e72c9aa3727c554d", "fusion_lon": 0.0}, {"rental_uris": {"ios": "https://dc.lft.to/lastmile_qr_scan", "android": "https://dc.lft.to/lastmile_qr_scan"}, "type": "electric_scooter", "name": "4c7beecc7cfa96484ee1b5071325877a", "is_reserved": 0, "lon": -77.06110416666667, "is_disabled": 0, "fusion_lat": 0.0, "lat": 38.90476683333333, "bike_id": "4c7beecc7cfa96484ee1b5071325877a", "fusion_lon": 0.0}, {"rental_uris": {"ios": "https://dc.lft.to/lastmile_qr_scan", "android": "https://dc.lft.to/lastmile_qr_scan"}, "type": "electric_scooter", "name": "5d52bae7e3e46078309c745bb24d9296", "is_reserved": 0, "lon": -76.99589583333334, "is_disabled": 0, "fusion_lat": 0.0, "lat": 38.90941133333333, "bike_id": "5d52bae7e3e46078309c745bb24d9296", "fusion_lon": 0.0}, {"rental_uris": {"ios": "https://dc.lft.to/lastmile_qr_scan", "android": "https://dc.lft.to/lastmile_qr_scan"}, "type": "electric_scooter", "name": "dc4bf5f4d48a7d25ef4753e1c1d6a1fd", "is_reserved": 0, "lon": -77.0482445, "is_disabled": 0, "fusion_lat": 0.0, "lat": 38.9149215, "bike_id": "dc4bf5f4d48a7d25ef4753e1c1d6a1fd", "fusion_lon": 0.0}, {"rental_uris": {"ios": "https://dc.lft.to/lastmile_qr_scan", "android": "https://dc.lft.to/lastmile_qr_scan"}, "type": "electric_scooter", "name": "3f66b43229115a4367af6f80dd8784fb", "is_reserved": 0, "lon": -77.03978266666667, "is_disabled": 0, "fusion_lat": 0.0, "lat": 38.93149, "bike_id": "3f66b43229115a4367af6f80dd8784fb", "fusion_lon": 0.0}, {"rental_uris": {"ios": "https://dc.lft.to/lastmile_qr_scan", "android": "https://dc.lft.to/lastmile_qr_scan"}, "type": "electric_bike", "name": "faa05a9aeb7c5b490b846d97a8238dc0", "is_reserved": 0, "lon": -77.06947783333334, "is_disabled": 0, "fusion_lat": 0.0, "lat": 38.83629033333333, "bike_id": "faa05a9aeb7c5b490b846d97a8238dc0", "fusion_lon": 0.0}, {"rental_uris": {"ios": "https://dc.lft.to/lastmile_qr_scan", "android": "https://dc.lft.to/lastmile_qr_scan"}, "type": "electric_scooter", "name": "272499de0bb2d9ecd93422010cafce3f", "is_reserved": 0, "lon": -77.0243975, "is_disabled": 0, "fusion_lat": 0.0, "lat": 38.9169535, "bike_id": "272499de0bb2d9ecd93422010cafce3f", "fusion_lon": 0.0}, {"rental_uris": {"ios": "https://dc.lft.to/lastmile_qr_scan", "android": "https://dc.lft.to/lastmile_qr_scan"}, "type": "electric_scooter", "name": "2d03b1d9a21f43ae4a66707effa73775", "is_reserved": 0, "lon": -76.99716366666667, "is_disabled": 0, "fusion_lat": 0.0, "lat": 38.908175, "bike_id": "2d03b1d9a21f43ae4a66707effa73775", "fusion_lon": 0.0}, {"rental_uris": {"ios": "https://dc.lft.to/lastmile_qr_scan", "android": "https://dc.lft.to/lastmile_qr_scan"}, "type": "electric_scooter", "name": "d85987ddfba2b1ff500bbef76f21a75a", "is_reserved": 0, "lon": -77.03787083333333, "is_disabled": 0, "fusion_lat": 0.0, "lat": 38.9128, "bike_id": "d85987ddfba2b1ff500bbef76f21a75a", "fusion_lon": 0.0}, {"rental_uris": {"ios": "https://dc.lft.to/lastmile_qr_scan", "android": "https://dc.lft.to/lastmile_qr_scan"}, "type": "electric_scooter", "name": "b0ee1f4651b8ccf932a1799a05bc3b01", "is_reserved": 0, "lon": -77.03436783333333, "is_disabled": 0, "fusion_lat": 0.0, "lat": 38.90670883333333, "bike_id": "b0ee1f4651b8ccf932a1799a05bc3b01", "fusion_lon": 0.0}, {"rental_uris": {"ios": "https://dc.lft.to/lastmile_qr_scan", "android": "https://dc.lft.to/lastmile_qr_scan"}, "type": "electric_scooter", "name": "de19c939a4f1b7c6f22831eb671d455e", "is_reserved": 0, "lon": -77.05928466666667, "is_disabled": 0, "fusion_lat": 0.0, "lat": 38.90163616666667, "bike_id": "de19c939a4f1b7c6f22831eb671d455e", "fusion_lon": 0.0}, {"rental_uris": {"ios": "https://dc.lft.to/lastmile_qr_scan", "android": "https://dc.lft.to/lastmile_qr_scan"}, "type": "electric_scooter", "name": "ea22e19d6bc5afcb5024074918e831c4", "is_reserved": 0, "lon": -77.02213, "is_disabled": 0, "fusion_lat": 0.0, "lat": 38.88738566666667, "bike_id": "ea22e19d6bc5afcb5024074918e831c4", "fusion_lon": 0.0}, {"rental_uris": {"ios": "https://dc.lft.to/lastmile_qr_scan", "android": "https://dc.lft.to/lastmile_qr_scan"}, "type": "electric_scooter", "name": "e5e41eeb3a5c0c157ba78d1e3216ee19", "is_reserved": 0, "lon": -77.0250135, "is_disabled": 0, "fusion_lat": 0.0, "lat": 38.9417435, "bike_id": "e5e41eeb3a5c0c157ba78d1e3216ee19", "fusion_lon": 0.0}, {"rental_uris": {"ios": "https://dc.lft.to/lastmile_qr_scan", "android": "https://dc.lft.to/lastmile_qr_scan"}, "type": "electric_scooter", "name": "8303a28eb34c9e245426b9acaaf1f8a9", "is_reserved": 0, "lon": -77.01361033333333, "is_disabled": 0, "fusion_lat": 0.0, "lat": 38.91408833333333, "bike_id": "8303a28eb34c9e245426b9acaaf1f8a9", "fusion_lon": 0.0}, {"rental_uris": {"ios": "https://dc.lft.to/lastmile_qr_scan", "android": "https://dc.lft.to/lastmile_qr_scan"}, "type": "electric_bike", "name": "5e6eefe0ac47875f7ddbac82e1f75a85", "is_reserved": 0, "lon": -77.081389, "is_disabled": 0, "fusion_lat": 0.0, "lat": 38.8229555, "bike_id": "5e6eefe0ac47875f7ddbac82e1f75a85", "fusion_lon": 0.0}, {"rental_uris": {"ios": "https://dc.lft.to/lastmile_qr_scan", "android": "https://dc.lft.to/lastmile_qr_scan"}, "type": "electric_scooter", "name": "837d69ace5f5e4801f4460c51063141d", "is_reserved": 0, "lon": -77.02965383333333, "is_disabled": 0, "fusion_lat": 0.0, "lat": 38.928459833333335, "bike_id": "837d69ace5f5e4801f4460c51063141d", "fusion_lon": 0.0}, {"rental_uris": {"ios": "https://dc.lft.to/lastmile_qr_scan", "android": "https://dc.lft.to/lastmile_qr_scan"}, "type": "electric_scooter", "name": "bec9b89a3e84860f1de34f13f74d8eb7", "is_reserved": 0, "lon": -77.02726683333333, "is_disabled": 0, "fusion_lat": 0.0, "lat": 38.9339495, "bike_id": "bec9b89a3e84860f1de34f13f74d8eb7", "fusion_lon": 0.0}, {"rental_uris": {"ios": "https://dc.lft.to/lastmile_qr_scan", "android": "https://dc.lft.to/lastmile_qr_scan"}, "type": "electric_bike", "name": "5c2af80f55007126eea1ccbf06dbed5b", "is_reserved": 0, "lon": -76.96320883333334, "is_disabled": 0, "fusion_lat": 0.0, "lat": 38.938901333333334, "bike_id": "5c2af80f55007126eea1ccbf06dbed5b", "fusion_lon": 0.0}, {"rental_uris": {"ios": "https://dc.lft.to/lastmile_qr_scan", "android": "https://dc.lft.to/lastmile_qr_scan"}, "type": "electric_scooter", "name": "201a1e4485fc501e68b877d215aa9beb", "is_reserved": 0, "lon": -77.07852866666667, "is_disabled": 0, "fusion_lat": 0.0, "lat": 38.9313355, "bike_id": "201a1e4485fc501e68b877d215aa9beb", "fusion_lon": 0.0}, {"rental_uris": {"ios": "https://dc.lft.to/lastmile_qr_scan", "android": "https://dc.lft.to/lastmile_qr_scan"}, "type": "electric_scooter", "name": "15ae25dfc13fc4fc04d795cb029571ec", "is_reserved": 0, "lon": -77.01087866666667, "is_disabled": 0, "fusion_lat": 0.0, "lat": 38.903271, "bike_id": "15ae25dfc13fc4fc04d795cb029571ec", "fusion_lon": 0.0}, {"rental_uris": {"ios": "https://dc.lft.to/lastmile_qr_scan", "android": "https://dc.lft.to/lastmile_qr_scan"}, "type": "electric_scooter", "name": "9df76b98a97df5438e076058bfed6a41", "is_reserved": 0, "lon": -77.05599766666667, "is_disabled": 0, "fusion_lat": 0.0, "lat": 38.9369485, "bike_id": "9df76b98a97df5438e076058bfed6a41", "fusion_lon": 0.0}, {"rental_uris": {"ios": "https://dc.lft.to/lastmile_qr_scan", "android": "https://dc.lft.to/lastmile_qr_scan"}, "type": "electric_scooter", "name": "90add39f83172b26a427b823ee54d4e6", "is_reserved": 0, "lon": -76.99408733333334, "is_disabled": 0, "fusion_lat": 0.0, "lat": 38.921019333333334, "bike_id": "90add39f83172b26a427b823ee54d4e6", "fusion_lon": 0.0}, {"rental_uris": {"ios": "https://dc.lft.to/lastmile_qr_scan", "android": "https://dc.lft.to/lastmile_qr_scan"}, "type": "electric_bike", "name": "cda6f1ab43e6d5132c9c5da108ea2708", "is_reserved": 0, "lon": -76.99846433333333, "is_disabled": 0, "fusion_lat": 0.0, "lat": 38.90000783333333, "bike_id": "cda6f1ab43e6d5132c9c5da108ea2708", "fusion_lon": 0.0}, {"rental_uris": {"ios": "https://dc.lft.to/lastmile_qr_scan", "android": "https://dc.lft.to/lastmile_qr_scan"}, "type": "electric_scooter", "name": "02038d623323eaaeeb43086f864e1c12", "is_reserved": 0, "lon": -77.0318125, "is_disabled": 0, "fusion_lat": 0.0, "lat": 38.89222633333333, "bike_id": "02038d623323eaaeeb43086f864e1c12", "fusion_lon": 0.0}, {"rental_uris": {"ios": "https://dc.lft.to/lastmile_qr_scan", "android": "https://dc.lft.to/lastmile_qr_scan"}, "type": "electric_scooter", "name": "db28ca2f41fe5149ba261686fa88badc", "is_reserved": 0, "lon": -77.04035916666666, "is_disabled": 0, "fusion_lat": 0.0, "lat": 38.918248, "bike_id": "db28ca2f41fe5149ba261686fa88badc", "fusion_lon": 0.0}, {"rental_uris": {"ios": "https://dc.lft.to/lastmile_qr_scan", "android": "https://dc.lft.to/lastmile_qr_scan"}, "type": "electric_scooter", "name": "48f3424a9d98e8ae68662b3451494244", "is_reserved": 0, "lon": -77.03832283333334, "is_disabled": 0, "fusion_lat": 0.0, "lat": 38.9107445, "bike_id": "48f3424a9d98e8ae68662b3451494244", "fusion_lon": 0.0}, {"rental_uris": {"ios": "https://dc.lft.to/lastmile_qr_scan", "android": "https://dc.lft.to/lastmile_qr_scan"}, "type": "electric_scooter", "name": "7f7b75c3f8e86adf18509de518c889f7", "is_reserved": 0, "lon": -77.00728766666667, "is_disabled": 0, "fusion_lat": 0.0, "lat": 38.8763765, "bike_id": "7f7b75c3f8e86adf18509de518c889f7", "fusion_lon": 0.0}, {"rental_uris": {"ios": "https://dc.lft.to/lastmile_qr_scan", "android": "https://dc.lft.to/lastmile_qr_scan"}, "type": "electric_scooter", "name": "cdefd572b9dbecd18bb67be8baaca98e", "is_reserved": 0, "lon": -77.05024283333333, "is_disabled": 0, "fusion_lat": 0.0, "lat": 38.9235975, "bike_id": "cdefd572b9dbecd18bb67be8baaca98e", "fusion_lon": 0.0}, {"rental_uris": {"ios": "https://dc.lft.to/lastmile_qr_scan", "android": "https://dc.lft.to/lastmile_qr_scan"}, "type": "electric_scooter", "name": "635e96db2834dd05b25dd60d4e96feb8", "is_reserved": 0, "lon": -77.02415216666667, "is_disabled": 0, "fusion_lat": 0.0, "lat": 38.90960916666667, "bike_id": "635e96db2834dd05b25dd60d4e96feb8", "fusion_lon": 0.0}, {"rental_uris": {"ios": "https://dc.lft.to/lastmile_qr_scan", "android": "https://dc.lft.to/lastmile_qr_scan"}, "type": "electric_scooter", "name": "fa8aea32ec423af3f7963b0c54474d3c", "is_reserved": 0, "lon": -77.035435, "is_disabled": 0, "fusion_lat": 0.0, "lat": 38.90478133333333, "bike_id": "fa8aea32ec423af3f7963b0c54474d3c", "fusion_lon": 0.0}, {"rental_uris": {"ios": "https://dc.lft.to/lastmile_qr_scan", "android": "https://dc.lft.to/lastmile_qr_scan"}, "type": "electric_scooter", "name": "13abffaa6b31a71ac7d9ab5648257383", "is_reserved": 0, "lon": -77.04493533333333, "is_disabled": 0, "fusion_lat": 0.0, "lat": 38.8934035, "bike_id": "13abffaa6b31a71ac7d9ab5648257383", "fusion_lon": 0.0}, {"rental_uris": {"ios": "https://dc.lft.to/lastmile_qr_scan", "android": "https://dc.lft.to/lastmile_qr_scan"}, "type": "electric_scooter", "name": "7e27ecbfb898d7b20256a15d5fa9acc6", "is_reserved": 0, "lon": -77.00952916666667, "is_disabled": 0, "fusion_lat": 0.0, "lat": 38.876337, "bike_id": "7e27ecbfb898d7b20256a15d5fa9acc6", "fusion_lon": 0.0}, {"rental_uris": {"ios": "https://dc.lft.to/lastmile_qr_scan", "android": "https://dc.lft.to/lastmile_qr_scan"}, "type": "electric_scooter", "name": "2ee4a7362a8fa31faa900a0f6699421c", "is_reserved": 0, "lon": -77.02163533333334, "is_disabled": 0, "fusion_lat": 0.0, "lat": 38.894990666666665, "bike_id": "2ee4a7362a8fa31faa900a0f6699421c", "fusion_lon": 0.0}, {"rental_uris": {"ios": "https://dc.lft.to/lastmile_qr_scan", "android": "https://dc.lft.to/lastmile_qr_scan"}, "type": "electric_scooter", "name": "b59c8925ab1e9e7a9c5f4939a3e1d7ea", "is_reserved": 0, "lon": -77.04820016666666, "is_disabled": 0, "fusion_lat": 0.0, "lat": 38.89732516666667, "bike_id": "b59c8925ab1e9e7a9c5f4939a3e1d7ea", "fusion_lon": 0.0}, {"rental_uris": {"ios": "https://dc.lft.to/lastmile_qr_scan", "android": "https://dc.lft.to/lastmile_qr_scan"}, "type": "electric_scooter", "name": "93f79a5b67863359f156b1cadf5b4fc5", "is_reserved": 0, "lon": -76.94915333333333, "is_disabled": 0, "fusion_lat": 0.0, "lat": 38.89541083333334, "bike_id": "93f79a5b67863359f156b1cadf5b4fc5", "fusion_lon": 0.0}, {"rental_uris": {"ios": "https://dc.lft.to/lastmile_qr_scan", "android": "https://dc.lft.to/lastmile_qr_scan"}, "type": "electric_scooter", "name": "be70be5026248a12219e7a9faab7490c", "is_reserved": 0, "lon": -76.99617583333334, "is_disabled": 0, "fusion_lat": 0.0, "lat": 38.88755583333333, "bike_id": "be70be5026248a12219e7a9faab7490c", "fusion_lon": 0.0}, {"rental_uris": {"ios": "https://dc.lft.to/lastmile_qr_scan", "android": "https://dc.lft.to/lastmile_qr_scan"}, "type": "electric_scooter", "name": "be76264b14ee850374099495d59f0c18", "is_reserved": 0, "lon": -77.0335235, "is_disabled": 0, "fusion_lat": 0.0, "lat": 38.9140845, "bike_id": "be76264b14ee850374099495d59f0c18", "fusion_lon": 0.0}, {"rental_uris": {"ios": "https://dc.lft.to/lastmile_qr_scan", "android": "https://dc.lft.to/lastmile_qr_scan"}, "type": "electric_scooter", "name": "521aeb3f3a58bbd68434cbe154886fb9", "is_reserved": 0, "lon": -77.0428735, "is_disabled": 0, "fusion_lat": 0.0, "lat": 38.9179265, "bike_id": "521aeb3f3a58bbd68434cbe154886fb9", "fusion_lon": 0.0}, {"rental_uris": {"ios": "https://dc.lft.to/lastmile_qr_scan", "android": "https://dc.lft.to/lastmile_qr_scan"}, "type": "electric_scooter", "name": "616b5c465793fcb462823aa5dca2dda1", "is_reserved": 0, "lon": -77.0120715, "is_disabled": 0, "fusion_lat": 0.0, "lat": 38.91681333333333, "bike_id": "616b5c465793fcb462823aa5dca2dda1", "fusion_lon": 0.0}, {"rental_uris": {"ios": "https://dc.lft.to/lastmile_qr_scan", "android": "https://dc.lft.to/lastmile_qr_scan"}, "type": "electric_bike", "name": "a6bbccebf86035e9ecd1012c8fe8c21a", "is_reserved": 0, "lon": -77.01084216666666, "is_disabled": 0, "fusion_lat": 0.0, "lat": 38.87169266666667, "bike_id": "a6bbccebf86035e9ecd1012c8fe8c21a", "fusion_lon": 0.0}, {"rental_uris": {"ios": "https://dc.lft.to/lastmile_qr_scan", "android": "https://dc.lft.to/lastmile_qr_scan"}, "type": "electric_scooter", "name": "280699a629190452d1a0767940b1356e", "is_reserved": 0, "lon": -77.04418866666667, "is_disabled": 0, "fusion_lat": 0.0, "lat": 38.901492166666664, "bike_id": "280699a629190452d1a0767940b1356e", "fusion_lon": 0.0}, {"rental_uris": {"ios": "https://dc.lft.to/lastmile_qr_scan", "android": "https://dc.lft.to/lastmile_qr_scan"}, "type": "electric_scooter", "name": "5e784766f5eb7da10f240bfd82c1f858", "is_reserved": 0, "lon": -77.03352166666667, "is_disabled": 0, "fusion_lat": 0.0, "lat": 38.954737333333334, "bike_id": "5e784766f5eb7da10f240bfd82c1f858", "fusion_lon": 0.0}, {"rental_uris": {"ios": "https://dc.lft.to/lastmile_qr_scan", "android": "https://dc.lft.to/lastmile_qr_scan"}, "type": "electric_scooter", "name": "b623f5610346bc76dde98303206f77b1", "is_reserved": 0, "lon": -77.044671, "is_disabled": 0, "fusion_lat": 0.0, "lat": 38.91268733333333, "bike_id": "b623f5610346bc76dde98303206f77b1", "fusion_lon": 0.0}, {"rental_uris": {"ios": "https://dc.lft.to/lastmile_qr_scan", "android": "https://dc.lft.to/lastmile_qr_scan"}, "type": "electric_scooter", "name": "a3d8b26bf00be769b232665767b85177", "is_reserved": 0, "lon": -77.02107716666667, "is_disabled": 0, "fusion_lat": 0.0, "lat": 38.96677533333333, "bike_id": "a3d8b26bf00be769b232665767b85177", "fusion_lon": 0.0}, {"rental_uris": {"ios": "https://dc.lft.to/lastmile_qr_scan", "android": "https://dc.lft.to/lastmile_qr_scan"}, "type": "electric_scooter", "name": "29c1d32b6c5adf9b28e75c0e7da109a7", "is_reserved": 0, "lon": -77.02996016666667, "is_disabled": 0, "fusion_lat": 0.0, "lat": 38.9170065, "bike_id": "29c1d32b6c5adf9b28e75c0e7da109a7", "fusion_lon": 0.0}, {"rental_uris": {"ios": "https://dc.lft.to/lastmile_qr_scan", "android": "https://dc.lft.to/lastmile_qr_scan"}, "type": "electric_scooter", "name": "8a82c72394d522f435b632765a239609", "is_reserved": 0, "lon": -76.9902695, "is_disabled": 0, "fusion_lat": 0.0, "lat": 38.8887555, "bike_id": "8a82c72394d522f435b632765a239609", "fusion_lon": 0.0}, {"rental_uris": {"ios": "https://dc.lft.to/lastmile_qr_scan", "android": "https://dc.lft.to/lastmile_qr_scan"}, "type": "electric_bike", "name": "906481251ef868b769d3b38c5124a12d", "is_reserved": 0, "lon": -77.020754, "is_disabled": 0, "fusion_lat": 0.0, "lat": 38.96440183333333, "bike_id": "906481251ef868b769d3b38c5124a12d", "fusion_lon": 0.0}, {"rental_uris": {"ios": "https://dc.lft.to/lastmile_qr_scan", "android": "https://dc.lft.to/lastmile_qr_scan"}, "type": "electric_scooter", "name": "cc5bfec45f1c7a602b183f83dd5bd740", "is_reserved": 0, "lon": -77.041694, "is_disabled": 0, "fusion_lat": 0.0, "lat": 38.9184155, "bike_id": "cc5bfec45f1c7a602b183f83dd5bd740", "fusion_lon": 0.0}, {"rental_uris": {"ios": "https://dc.lft.to/lastmile_qr_scan", "android": "https://dc.lft.to/lastmile_qr_scan"}, "type": "electric_scooter", "name": "c1c5d382d11bf2459ee47bcbca613f63", "is_reserved": 0, "lon": -77.0386775, "is_disabled": 0, "fusion_lat": 0.0, "lat": 38.91119066666667, "bike_id": "c1c5d382d11bf2459ee47bcbca613f63", "fusion_lon": 0.0}, {"rental_uris": {"ios": "https://dc.lft.to/lastmile_qr_scan", "android": "https://dc.lft.to/lastmile_qr_scan"}, "type": "electric_scooter", "name": "83d2744fdb16ce946f6557b7fd8fb88a", "is_reserved": 0, "lon": -76.98807, "is_disabled": 0, "fusion_lat": 0.0, "lat": 38.900291, "bike_id": "83d2744fdb16ce946f6557b7fd8fb88a", "fusion_lon": 0.0}, {"rental_uris": {"ios": "https://dc.lft.to/lastmile_qr_scan", "android": "https://dc.lft.to/lastmile_qr_scan"}, "type": "electric_scooter", "name": "bfe9d4a05c94d3e0020f39ae69c2ef20", "is_reserved": 0, "lon": -76.98536833333333, "is_disabled": 0, "fusion_lat": 0.0, "lat": 38.91454866666667, "bike_id": "bfe9d4a05c94d3e0020f39ae69c2ef20", "fusion_lon": 0.0}, {"rental_uris": {"ios": "https://dc.lft.to/lastmile_qr_scan", "android": "https://dc.lft.to/lastmile_qr_scan"}, "type": "electric_scooter", "name": "ea0bd1556a3f16fbff14152b7abbe286", "is_reserved": 0, "lon": -77.00750283333333, "is_disabled": 0, "fusion_lat": 0.0, "lat": 38.9112135, "bike_id": "ea0bd1556a3f16fbff14152b7abbe286", "fusion_lon": 0.0}, {"rental_uris": {"ios": "https://dc.lft.to/lastmile_qr_scan", "android": "https://dc.lft.to/lastmile_qr_scan"}, "type": "electric_bike", "name": "2456dd03c5d6dfe26ec04cf54105d323", "is_reserved": 0, "lon": -76.9936585, "is_disabled": 0, "fusion_lat": 0.0, "lat": 38.92724366666667, "bike_id": "2456dd03c5d6dfe26ec04cf54105d323", "fusion_lon": 0.0}, {"rental_uris": {"ios": "https://dc.lft.to/lastmile_qr_scan", "android": "https://dc.lft.to/lastmile_qr_scan"}, "type": "electric_scooter", "name": "071693b6d90e743c9a09d77761453225", "is_reserved": 0, "lon": -77.02351683333333, "is_disabled": 0, "fusion_lat": 0.0, "lat": 38.9178255, "bike_id": "071693b6d90e743c9a09d77761453225", "fusion_lon": 0.0}, {"rental_uris": {"ios": "https://dc.lft.to/lastmile_qr_scan", "android": "https://dc.lft.to/lastmile_qr_scan"}, "type": "electric_bike", "name": "4b46db6c07fbee81bbc20abff57e4e30", "is_reserved": 0, "lon": -77.01915533333333, "is_disabled": 0, "fusion_lat": 0.0, "lat": 38.9766125, "bike_id": "4b46db6c07fbee81bbc20abff57e4e30", "fusion_lon": 0.0}, {"rental_uris": {"ios": "https://dc.lft.to/lastmile_qr_scan", "android": "https://dc.lft.to/lastmile_qr_scan"}, "type": "electric_scooter", "name": "5ab9092394e367fbd05d15e6c000c3dd", "is_reserved": 0, "lon": -77.02638783333333, "is_disabled": 0, "fusion_lat": 0.0, "lat": 38.89641533333333, "bike_id": "5ab9092394e367fbd05d15e6c000c3dd", "fusion_lon": 0.0}, {"rental_uris": {"ios": "https://dc.lft.to/lastmile_qr_scan", "android": "https://dc.lft.to/lastmile_qr_scan"}, "type": "electric_scooter", "name": "2961d256f612956632eced64061396c0", "is_reserved": 0, "lon": -77.03623183333333, "is_disabled": 0, "fusion_lat": 0.0, "lat": 38.942904, "bike_id": "2961d256f612956632eced64061396c0", "fusion_lon": 0.0}, {"rental_uris": {"ios": "https://dc.lft.to/lastmile_qr_scan", "android": "https://dc.lft.to/lastmile_qr_scan"}, "type": "electric_scooter", "name": "b83fa2366be4823d2a820d4df60b7b3c", "is_reserved": 0, "lon": -77.02411616666667, "is_disabled": 0, "fusion_lat": 0.0, "lat": 38.905617166666666, "bike_id": "b83fa2366be4823d2a820d4df60b7b3c", "fusion_lon": 0.0}, {"rental_uris": {"ios": "https://dc.lft.to/lastmile_qr_scan", "android": "https://dc.lft.to/lastmile_qr_scan"}, "type": "electric_scooter", "name": "382c093ea7ba3adbfbd3337ad233d30d", "is_reserved": 0, "lon": -76.99165733333334, "is_disabled": 0, "fusion_lat": 0.0, "lat": 38.90038633333333, "bike_id": "382c093ea7ba3adbfbd3337ad233d30d", "fusion_lon": 0.0}, {"rental_uris": {"ios": "https://dc.lft.to/lastmile_qr_scan", "android": "https://dc.lft.to/lastmile_qr_scan"}, "type": "electric_scooter", "name": "04027f0aaf9a479fb7c4d92eee578b7b", "is_reserved": 0, "lon": -77.0308965, "is_disabled": 0, "fusion_lat": 0.0, "lat": 38.913399166666665, "bike_id": "04027f0aaf9a479fb7c4d92eee578b7b", "fusion_lon": 0.0}, {"rental_uris": {"ios": "https://dc.lft.to/lastmile_qr_scan", "android": "https://dc.lft.to/lastmile_qr_scan"}, "type": "electric_scooter", "name": "7348dc517a8d3e19093a19953f2d581a", "is_reserved": 0, "lon": -77.03173583333333, "is_disabled": 0, "fusion_lat": 0.0, "lat": 38.92979183333333, "bike_id": "7348dc517a8d3e19093a19953f2d581a", "fusion_lon": 0.0}, {"rental_uris": {"ios": "https://dc.lft.to/lastmile_qr_scan", "android": "https://dc.lft.to/lastmile_qr_scan"}, "type": "electric_bike", "name": "5b1ef066212c5e4c61b9dce0ac4d8c44", "is_reserved": 0, "lon": -76.99552466666667, "is_disabled": 0, "fusion_lat": 0.0, "lat": 38.9082125, "bike_id": "5b1ef066212c5e4c61b9dce0ac4d8c44", "fusion_lon": 0.0}, {"rental_uris": {"ios": "https://dc.lft.to/lastmile_qr_scan", "android": "https://dc.lft.to/lastmile_qr_scan"}, "type": "electric_scooter", "name": "02b6edcdc83c9d0904d2ff6cdf96f8b8", "is_reserved": 0, "lon": -77.042849, "is_disabled": 0, "fusion_lat": 0.0, "lat": 38.9226785, "bike_id": "02b6edcdc83c9d0904d2ff6cdf96f8b8", "fusion_lon": 0.0}, {"rental_uris": {"ios": "https://dc.lft.to/lastmile_qr_scan", "android": "https://dc.lft.to/lastmile_qr_scan"}, "type": "electric_bike", "name": "17f918e6a290e7afe1798d5f5b286624", "is_reserved": 0, "lon": -76.997001, "is_disabled": 0, "fusion_lat": 0.0, "lat": 38.8385985, "bike_id": "17f918e6a290e7afe1798d5f5b286624", "fusion_lon": 0.0}, {"rental_uris": {"ios": "https://dc.lft.to/lastmile_qr_scan", "android": "https://dc.lft.to/lastmile_qr_scan"}, "type": "electric_scooter", "name": "050eb727980916adf0399e1b89103054", "is_reserved": 0, "lon": -77.0522245, "is_disabled": 0, "fusion_lat": 0.0, "lat": 38.92488916666667, "bike_id": "050eb727980916adf0399e1b89103054", "fusion_lon": 0.0}, {"rental_uris": {"ios": "https://dc.lft.to/lastmile_qr_scan", "android": "https://dc.lft.to/lastmile_qr_scan"}, "type": "electric_scooter", "name": "1398fcf9c7a1c31578608b4d91546e2d", "is_reserved": 0, "lon": -77.03822616666666, "is_disabled": 0, "fusion_lat": 0.0, "lat": 38.90382866666667, "bike_id": "1398fcf9c7a1c31578608b4d91546e2d", "fusion_lon": 0.0}, {"rental_uris": {"ios": "https://dc.lft.to/lastmile_qr_scan", "android": "https://dc.lft.to/lastmile_qr_scan"}, "type": "electric_scooter", "name": "444327c33ca8eb3e8fa4352b92a3f444", "is_reserved": 0, "lon": -77.02396933333333, "is_disabled": 0, "fusion_lat": 0.0, "lat": 38.938106166666664, "bike_id": "444327c33ca8eb3e8fa4352b92a3f444", "fusion_lon": 0.0}, {"rental_uris": {"ios": "https://dc.lft.to/lastmile_qr_scan", "android": "https://dc.lft.to/lastmile_qr_scan"}, "type": "electric_scooter", "name": "c0a65b0f35f8da3c2a98affa0415cd01", "is_reserved": 0, "lon": -77.01561066666666, "is_disabled": 0, "fusion_lat": 0.0, "lat": 38.902056333333334, "bike_id": "c0a65b0f35f8da3c2a98affa0415cd01", "fusion_lon": 0.0}, {"rental_uris": {"ios": "https://dc.lft.to/lastmile_qr_scan", "android": "https://dc.lft.to/lastmile_qr_scan"}, "type": "electric_scooter", "name": "2498c709219b4452b4e1f6e397a360e1", "is_reserved": 0, "lon": -77.0480635, "is_disabled": 0, "fusion_lat": 0.0, "lat": 38.919423333333334, "bike_id": "2498c709219b4452b4e1f6e397a360e1", "fusion_lon": 0.0}, {"rental_uris": {"ios": "https://dc.lft.to/lastmile_qr_scan", "android": "https://dc.lft.to/lastmile_qr_scan"}, "type": "electric_scooter", "name": "67e02802b0c8d2df88e55223443fbdc0", "is_reserved": 0, "lon": -77.03185233333333, "is_disabled": 0, "fusion_lat": 0.0, "lat": 38.9192105, "bike_id": "67e02802b0c8d2df88e55223443fbdc0", "fusion_lon": 0.0}, {"rental_uris": {"ios": "https://dc.lft.to/lastmile_qr_scan", "android": "https://dc.lft.to/lastmile_qr_scan"}, "type": "electric_bike", "name": "cdde3d3f8b3339325a1b0fa109b9ea74", "is_reserved": 0, "lon": -76.992805, "is_disabled": 0, "fusion_lat": 0.0, "lat": 38.972591, "bike_id": "cdde3d3f8b3339325a1b0fa109b9ea74", "fusion_lon": 0.0}, {"rental_uris": {"ios": "https://dc.lft.to/lastmile_qr_scan", "android": "https://dc.lft.to/lastmile_qr_scan"}, "type": "electric_scooter", "name": "9f7ede5a41e3e9095f9a382ac2c47c00", "is_reserved": 0, "lon": -77.01852333333333, "is_disabled": 0, "fusion_lat": 0.0, "lat": 38.900945166666666, "bike_id": "9f7ede5a41e3e9095f9a382ac2c47c00", "fusion_lon": 0.0}, {"rental_uris": {"ios": "https://dc.lft.to/lastmile_qr_scan", "android": "https://dc.lft.to/lastmile_qr_scan"}, "type": "electric_scooter", "name": "3111d73fd597f91b4802d53306276c96", "is_reserved": 0, "lon": -77.01455166666666, "is_disabled": 0, "fusion_lat": 0.0, "lat": 38.92659533333333, "bike_id": "3111d73fd597f91b4802d53306276c96", "fusion_lon": 0.0}, {"rental_uris": {"ios": "https://dc.lft.to/lastmile_qr_scan", "android": "https://dc.lft.to/lastmile_qr_scan"}, "type": "electric_scooter", "name": "f4a6acad2ee82c2f9814ce70388babea", "is_reserved": 0, "lon": -77.0251405, "is_disabled": 0, "fusion_lat": 0.0, "lat": 38.92079483333333, "bike_id": "f4a6acad2ee82c2f9814ce70388babea", "fusion_lon": 0.0}, {"rental_uris": {"ios": "https://dc.lft.to/lastmile_qr_scan", "android": "https://dc.lft.to/lastmile_qr_scan"}, "type": "electric_scooter", "name": "f0872e93cb1ffe4108ae505daf479c02", "is_reserved": 0, "lon": -77.062612, "is_disabled": 0, "fusion_lat": 0.0, "lat": 38.90509483333334, "bike_id": "f0872e93cb1ffe4108ae505daf479c02", "fusion_lon": 0.0}, {"rental_uris": {"ios": "https://dc.lft.to/lastmile_qr_scan", "android": "https://dc.lft.to/lastmile_qr_scan"}, "type": "electric_scooter", "name": "f778321929da315ed4f05c00c921b038", "is_reserved": 0, "lon": -77.05849133333334, "is_disabled": 0, "fusion_lat": 0.0, "lat": 38.90445783333333, "bike_id": "f778321929da315ed4f05c00c921b038", "fusion_lon": 0.0}, {"rental_uris": {"ios": "https://dc.lft.to/lastmile_qr_scan", "android": "https://dc.lft.to/lastmile_qr_scan"}, "type": "electric_scooter", "name": "988db218028f75b6fcf992ee0954c4d5", "is_reserved": 0, "lon": -77.061007, "is_disabled": 0, "fusion_lat": 0.0, "lat": 38.9024425, "bike_id": "988db218028f75b6fcf992ee0954c4d5", "fusion_lon": 0.0}, {"rental_uris": {"ios": "https://dc.lft.to/lastmile_qr_scan", "android": "https://dc.lft.to/lastmile_qr_scan"}, "type": "electric_scooter", "name": "736e18ab55696dad4b6b0cbaccbfd11c", "is_reserved": 0, "lon": -77.04349583333334, "is_disabled": 0, "fusion_lat": 0.0, "lat": 38.910442333333336, "bike_id": "736e18ab55696dad4b6b0cbaccbfd11c", "fusion_lon": 0.0}, {"rental_uris": {"ios": "https://dc.lft.to/lastmile_qr_scan", "android": "https://dc.lft.to/lastmile_qr_scan"}, "type": "electric_scooter", "name": "adfbd8a01a9b4ff9799115c1150b305d", "is_reserved": 0, "lon": -77.05026633333334, "is_disabled": 0, "fusion_lat": 0.0, "lat": 38.923542833333336, "bike_id": "adfbd8a01a9b4ff9799115c1150b305d", "fusion_lon": 0.0}, {"rental_uris": {"ios": "https://dc.lft.to/lastmile_qr_scan", "android": "https://dc.lft.to/lastmile_qr_scan"}, "type": "electric_scooter", "name": "4bc42ba5bd9b7353eb2dc3cc844f9a34", "is_reserved": 0, "lon": -77.00933666666667, "is_disabled": 0, "fusion_lat": 0.0, "lat": 38.896063, "bike_id": "4bc42ba5bd9b7353eb2dc3cc844f9a34", "fusion_lon": 0.0}, {"rental_uris": {"ios": "https://dc.lft.to/lastmile_qr_scan", "android": "https://dc.lft.to/lastmile_qr_scan"}, "type": "electric_scooter", "name": "eb97dec1446d912975e28c6d3966e743", "is_reserved": 0, "lon": -77.01122066666667, "is_disabled": 0, "fusion_lat": 0.0, "lat": 38.916132833333336, "bike_id": "eb97dec1446d912975e28c6d3966e743", "fusion_lon": 0.0}, {"rental_uris": {"ios": "https://dc.lft.to/lastmile_qr_scan", "android": "https://dc.lft.to/lastmile_qr_scan"}, "type": "electric_scooter", "name": "7aac2623cca29dc6359d638d1b190434", "is_reserved": 0, "lon": -77.02710783333333, "is_disabled": 0, "fusion_lat": 0.0, "lat": 38.905677833333336, "bike_id": "7aac2623cca29dc6359d638d1b190434", "fusion_lon": 0.0}, {"rental_uris": {"ios": "https://dc.lft.to/lastmile_qr_scan", "android": "https://dc.lft.to/lastmile_qr_scan"}, "type": "electric_scooter", "name": "f55c73c9a45e306b73f23bb9fabf092e", "is_reserved": 0, "lon": -77.02941916666667, "is_disabled": 0, "fusion_lat": 0.0, "lat": 38.915494833333334, "bike_id": "f55c73c9a45e306b73f23bb9fabf092e", "fusion_lon": 0.0}, {"rental_uris": {"ios": "https://dc.lft.to/lastmile_qr_scan", "android": "https://dc.lft.to/lastmile_qr_scan"}, "type": "electric_scooter", "name": "5f0816f6972be66e9f165073de39bd1a", "is_reserved": 0, "lon": -77.0229665, "is_disabled": 0, "fusion_lat": 0.0, "lat": 38.901468666666666, "bike_id": "5f0816f6972be66e9f165073de39bd1a", "fusion_lon": 0.0}, {"rental_uris": {"ios": "https://dc.lft.to/lastmile_qr_scan", "android": "https://dc.lft.to/lastmile_qr_scan"}, "type": "electric_scooter", "name": "2faa67fde27dff8d0a1e244a8a187099", "is_reserved": 0, "lon": -77.02758483333334, "is_disabled": 0, "fusion_lat": 0.0, "lat": 38.929652833333336, "bike_id": "2faa67fde27dff8d0a1e244a8a187099", "fusion_lon": 0.0}, {"rental_uris": {"ios": "https://dc.lft.to/lastmile_qr_scan", "android": "https://dc.lft.to/lastmile_qr_scan"}, "type": "electric_scooter", "name": "a6d930f3f096b0f2a31c8342a32cbce9", "is_reserved": 0, "lon": -77.02760066666667, "is_disabled": 0, "fusion_lat": 0.0, "lat": 38.91343, "bike_id": "a6d930f3f096b0f2a31c8342a32cbce9", "fusion_lon": 0.0}, {"rental_uris": {"ios": "https://dc.lft.to/lastmile_qr_scan", "android": "https://dc.lft.to/lastmile_qr_scan"}, "type": "electric_scooter", "name": "efb365af02d7b60cb8a6a2d8b370ca5f", "is_reserved": 0, "lon": -77.019512, "is_disabled": 0, "fusion_lat": 0.0, "lat": 38.9224385, "bike_id": "efb365af02d7b60cb8a6a2d8b370ca5f", "fusion_lon": 0.0}, {"rental_uris": {"ios": "https://dc.lft.to/lastmile_qr_scan", "android": "https://dc.lft.to/lastmile_qr_scan"}, "type": "electric_scooter", "name": "6d882742f8b6b7a6b085b2274736cd5a", "is_reserved": 0, "lon": -77.03204366666667, "is_disabled": 0, "fusion_lat": 0.0, "lat": 38.892382833333336, "bike_id": "6d882742f8b6b7a6b085b2274736cd5a", "fusion_lon": 0.0}, {"rental_uris": {"ios": "https://dc.lft.to/lastmile_qr_scan", "android": "https://dc.lft.to/lastmile_qr_scan"}, "type": "electric_scooter", "name": "e3724f767d0a043ef41902dc4b2476ef", "is_reserved": 0, "lon": -77.041943, "is_disabled": 0, "fusion_lat": 0.0, "lat": 38.9204615, "bike_id": "e3724f767d0a043ef41902dc4b2476ef", "fusion_lon": 0.0}, {"rental_uris": {"ios": "https://dc.lft.to/lastmile_qr_scan", "android": "https://dc.lft.to/lastmile_qr_scan"}, "type": "electric_scooter", "name": "ddd33e66a0969b6c1eb7d8cd0531d002", "is_reserved": 0, "lon": -77.02049216666667, "is_disabled": 0, "fusion_lat": 0.0, "lat": 38.91554283333333, "bike_id": "ddd33e66a0969b6c1eb7d8cd0531d002", "fusion_lon": 0.0}, {"rental_uris": {"ios": "https://dc.lft.to/lastmile_qr_scan", "android": "https://dc.lft.to/lastmile_qr_scan"}, "type": "electric_scooter", "name": "5cd86c8ef5fe9089b1edcf8aa94290da", "is_reserved": 0, "lon": -77.03837966666667, "is_disabled": 0, "fusion_lat": 0.0, "lat": 38.910463, "bike_id": "5cd86c8ef5fe9089b1edcf8aa94290da", "fusion_lon": 0.0}, {"rental_uris": {"ios": "https://dc.lft.to/lastmile_qr_scan", "android": "https://dc.lft.to/lastmile_qr_scan"}, "type": "electric_scooter", "name": "07cec5a7dd5ed0f4147505b7cfeb6b13", "is_reserved": 0, "lon": -76.99595083333334, "is_disabled": 0, "fusion_lat": 0.0, "lat": 38.900287666666664, "bike_id": "07cec5a7dd5ed0f4147505b7cfeb6b13", "fusion_lon": 0.0}, {"rental_uris": {"ios": "https://dc.lft.to/lastmile_qr_scan", "android": "https://dc.lft.to/lastmile_qr_scan"}, "type": "electric_scooter", "name": "c20dd3dabe899c6932f26bd5718e9833", "is_reserved": 0, "lon": -77.02944033333333, "is_disabled": 0, "fusion_lat": 0.0, "lat": 38.91712316666667, "bike_id": "c20dd3dabe899c6932f26bd5718e9833", "fusion_lon": 0.0}, {"rental_uris": {"ios": "https://dc.lft.to/lastmile_qr_scan", "android": "https://dc.lft.to/lastmile_qr_scan"}, "type": "electric_scooter", "name": "c420d8223d4ac3e34058e7d6f387478c", "is_reserved": 0, "lon": -77.0451055, "is_disabled": 0, "fusion_lat": 0.0, "lat": 38.90972333333333, "bike_id": "c420d8223d4ac3e34058e7d6f387478c", "fusion_lon": 0.0}, {"rental_uris": {"ios": "https://dc.lft.to/lastmile_qr_scan", "android": "https://dc.lft.to/lastmile_qr_scan"}, "type": "electric_scooter", "name": "26fb82050b9e660591a3ed62628769e3", "is_reserved": 0, "lon": -77.04163816666667, "is_disabled": 0, "fusion_lat": 0.0, "lat": 38.9014665, "bike_id": "26fb82050b9e660591a3ed62628769e3", "fusion_lon": 0.0}, {"rental_uris": {"ios": "https://dc.lft.to/lastmile_qr_scan", "android": "https://dc.lft.to/lastmile_qr_scan"}, "type": "electric_scooter", "name": "d92f4e7d3d5ed99c7303fab2cbedd8eb", "is_reserved": 0, "lon": -77.0194995, "is_disabled": 0, "fusion_lat": 0.0, "lat": 38.924240166666664, "bike_id": "d92f4e7d3d5ed99c7303fab2cbedd8eb", "fusion_lon": 0.0}, {"rental_uris": {"ios": "https://dc.lft.to/lastmile_qr_scan", "android": "https://dc.lft.to/lastmile_qr_scan"}, "type": "electric_scooter", "name": "ffd68441d56fb7432cf1e80dda66c579", "is_reserved": 0, "lon": -77.048709, "is_disabled": 0, "fusion_lat": 0.0, "lat": 38.892232666666665, "bike_id": "ffd68441d56fb7432cf1e80dda66c579", "fusion_lon": 0.0}, {"rental_uris": {"ios": "https://dc.lft.to/lastmile_qr_scan", "android": "https://dc.lft.to/lastmile_qr_scan"}, "type": "electric_scooter", "name": "1743e68efc294b76276fcbf2795ff390", "is_reserved": 0, "lon": -77.04492216666667, "is_disabled": 0, "fusion_lat": 0.0, "lat": 38.905043, "bike_id": "1743e68efc294b76276fcbf2795ff390", "fusion_lon": 0.0}, {"rental_uris": {"ios": "https://dc.lft.to/lastmile_qr_scan", "android": "https://dc.lft.to/lastmile_qr_scan"}, "type": "electric_scooter", "name": "6f46f45b923b3d9c3742ee13d1398b0f", "is_reserved": 0, "lon": -77.09026716666666, "is_disabled": 0, "fusion_lat": 0.0, "lat": 38.955975333333335, "bike_id": "6f46f45b923b3d9c3742ee13d1398b0f", "fusion_lon": 0.0}, {"rental_uris": {"ios": "https://dc.lft.to/lastmile_qr_scan", "android": "https://dc.lft.to/lastmile_qr_scan"}, "type": "electric_scooter", "name": "667721434a2d496487d37fea69abbe58", "is_reserved": 0, "lon": -77.03416533333333, "is_disabled": 0, "fusion_lat": 0.0, "lat": 38.92202966666667, "bike_id": "667721434a2d496487d37fea69abbe58", "fusion_lon": 0.0}, {"rental_uris": {"ios": "https://dc.lft.to/lastmile_qr_scan", "android": "https://dc.lft.to/lastmile_qr_scan"}, "type": "electric_scooter", "name": "12cea95300a61a42e070331052c6ff1a", "is_reserved": 0, "lon": -76.969775, "is_disabled": 0, "fusion_lat": 0.0, "lat": 38.861443666666666, "bike_id": "12cea95300a61a42e070331052c6ff1a", "fusion_lon": 0.0}, {"rental_uris": {"ios": "https://dc.lft.to/lastmile_qr_scan", "android": "https://dc.lft.to/lastmile_qr_scan"}, "type": "electric_scooter", "name": "78601d2a619cb772c6c73a99ec1004ad", "is_reserved": 0, "lon": -77.03792883333334, "is_disabled": 0, "fusion_lat": 0.0, "lat": 38.925666, "bike_id": "78601d2a619cb772c6c73a99ec1004ad", "fusion_lon": 0.0}, {"rental_uris": {"ios": "https://dc.lft.to/lastmile_qr_scan", "android": "https://dc.lft.to/lastmile_qr_scan"}, "type": "electric_scooter", "name": "8d4199637999656944f87a907138cfee", "is_reserved": 0, "lon": -77.0371595, "is_disabled": 0, "fusion_lat": 0.0, "lat": 38.9265225, "bike_id": "8d4199637999656944f87a907138cfee", "fusion_lon": 0.0}, {"rental_uris": {"ios": "https://dc.lft.to/lastmile_qr_scan", "android": "https://dc.lft.to/lastmile_qr_scan"}, "type": "electric_bike", "name": "9ca5d2a02900eed102a7aeac35fcea58", "is_reserved": 0, "lon": -77.12655083333334, "is_disabled": 0, "fusion_lat": 0.0, "lat": 38.8190785, "bike_id": "9ca5d2a02900eed102a7aeac35fcea58", "fusion_lon": 0.0}, {"rental_uris": {"ios": "https://dc.lft.to/lastmile_qr_scan", "android": "https://dc.lft.to/lastmile_qr_scan"}, "type": "electric_bike", "name": "539aff2dd637f174d5b05ec3bcecc449", "is_reserved": 0, "lon": -77.08531883333333, "is_disabled": 0, "fusion_lat": 0.0, "lat": 38.856451166666666, "bike_id": "539aff2dd637f174d5b05ec3bcecc449", "fusion_lon": 0.0}, {"rental_uris": {"ios": "https://dc.lft.to/lastmile_qr_scan", "android": "https://dc.lft.to/lastmile_qr_scan"}, "type": "electric_scooter", "name": "85baa32413da4609df2565d4ebfa3175", "is_reserved": 0, "lon": -77.06777966666667, "is_disabled": 0, "fusion_lat": 0.0, "lat": 38.908835, "bike_id": "85baa32413da4609df2565d4ebfa3175", "fusion_lon": 0.0}, {"rental_uris": {"ios": "https://dc.lft.to/lastmile_qr_scan", "android": "https://dc.lft.to/lastmile_qr_scan"}, "type": "electric_scooter", "name": "fa7524c52377f15f036a9e29011eb1d4", "is_reserved": 0, "lon": -77.0278745, "is_disabled": 0, "fusion_lat": 0.0, "lat": 38.927707166666664, "bike_id": "fa7524c52377f15f036a9e29011eb1d4", "fusion_lon": 0.0}, {"rental_uris": {"ios": "https://dc.lft.to/lastmile_qr_scan", "android": "https://dc.lft.to/lastmile_qr_scan"}, "type": "electric_bike", "name": "25a4e7c0540f402943a300c475594672", "is_reserved": 0, "lon": -76.95753466666666, "is_disabled": 0, "fusion_lat": 0.0, "lat": 38.8885755, "bike_id": "25a4e7c0540f402943a300c475594672", "fusion_lon": 0.0}, {"rental_uris": {"ios": "https://dc.lft.to/lastmile_qr_scan", "android": "https://dc.lft.to/lastmile_qr_scan"}, "type": "electric_scooter", "name": "4253f892d338130f1fa61ac5c071e9cb", "is_reserved": 0, "lon": -76.94721333333334, "is_disabled": 0, "fusion_lat": 0.0, "lat": 38.890815333333336, "bike_id": "4253f892d338130f1fa61ac5c071e9cb", "fusion_lon": 0.0}, {"rental_uris": {"ios": "https://dc.lft.to/lastmile_qr_scan", "android": "https://dc.lft.to/lastmile_qr_scan"}, "type": "electric_scooter", "name": "15abe1f57cda7d86e2a4dfb3a89b39df", "is_reserved": 0, "lon": -77.0268265, "is_disabled": 0, "fusion_lat": 0.0, "lat": 38.89635333333333, "bike_id": "15abe1f57cda7d86e2a4dfb3a89b39df", "fusion_lon": 0.0}, {"rental_uris": {"ios": "https://dc.lft.to/lastmile_qr_scan", "android": "https://dc.lft.to/lastmile_qr_scan"}, "type": "electric_scooter", "name": "991ad09a72329a74dfc4b4411d50ac59", "is_reserved": 0, "lon": -77.0406705, "is_disabled": 0, "fusion_lat": 0.0, "lat": 38.905296666666665, "bike_id": "991ad09a72329a74dfc4b4411d50ac59", "fusion_lon": 0.0}, {"rental_uris": {"ios": "https://dc.lft.to/lastmile_qr_scan", "android": "https://dc.lft.to/lastmile_qr_scan"}, "type": "electric_scooter", "name": "5a7796416a8d95a85d8ffdc34bb3bcb8", "is_reserved": 0, "lon": -77.02279433333334, "is_disabled": 0, "fusion_lat": 0.0, "lat": 38.902831666666664, "bike_id": "5a7796416a8d95a85d8ffdc34bb3bcb8", "fusion_lon": 0.0}, {"rental_uris": {"ios": "https://dc.lft.to/lastmile_qr_scan", "android": "https://dc.lft.to/lastmile_qr_scan"}, "type": "electric_scooter", "name": "1fad7143fd456ba51ed9443cd9961fbb", "is_reserved": 0, "lon": -77.023076, "is_disabled": 0, "fusion_lat": 0.0, "lat": 38.917368833333335, "bike_id": "1fad7143fd456ba51ed9443cd9961fbb", "fusion_lon": 0.0}, {"rental_uris": {"ios": "https://dc.lft.to/lastmile_qr_scan", "android": "https://dc.lft.to/lastmile_qr_scan"}, "type": "electric_scooter", "name": "efc4f34031de5acf1d8bc26985e7636b", "is_reserved": 0, "lon": -77.0375475, "is_disabled": 0, "fusion_lat": 0.0, "lat": 38.93205, "bike_id": "efc4f34031de5acf1d8bc26985e7636b", "fusion_lon": 0.0}, {"rental_uris": {"ios": "https://dc.lft.to/lastmile_qr_scan", "android": "https://dc.lft.to/lastmile_qr_scan"}, "type": "electric_scooter", "name": "0d23f6d27b22f312822afebe60f780b0", "is_reserved": 0, "lon": -77.0642635, "is_disabled": 0, "fusion_lat": 0.0, "lat": 38.90914133333333, "bike_id": "0d23f6d27b22f312822afebe60f780b0", "fusion_lon": 0.0}, {"rental_uris": {"ios": "https://dc.lft.to/lastmile_qr_scan", "android": "https://dc.lft.to/lastmile_qr_scan"}, "type": "electric_scooter", "name": "ba0df79cfa73934aee8b294e4abd96aa", "is_reserved": 0, "lon": -77.02546616666666, "is_disabled": 0, "fusion_lat": 0.0, "lat": 38.95168183333333, "bike_id": "ba0df79cfa73934aee8b294e4abd96aa", "fusion_lon": 0.0}, {"rental_uris": {"ios": "https://dc.lft.to/lastmile_qr_scan", "android": "https://dc.lft.to/lastmile_qr_scan"}, "type": "electric_scooter", "name": "310e0d07e4fedb377a3525586489604a", "is_reserved": 0, "lon": -77.00465466666667, "is_disabled": 0, "fusion_lat": 0.0, "lat": 38.885138833333336, "bike_id": "310e0d07e4fedb377a3525586489604a", "fusion_lon": 0.0}, {"rental_uris": {"ios": "https://dc.lft.to/lastmile_qr_scan", "android": "https://dc.lft.to/lastmile_qr_scan"}, "type": "electric_scooter", "name": "47a5857f2073382c5fa0ba7543d8948b", "is_reserved": 0, "lon": -77.034582, "is_disabled": 0, "fusion_lat": 0.0, "lat": 38.90229933333333, "bike_id": "47a5857f2073382c5fa0ba7543d8948b", "fusion_lon": 0.0}, {"rental_uris": {"ios": "https://dc.lft.to/lastmile_qr_scan", "android": "https://dc.lft.to/lastmile_qr_scan"}, "type": "electric_scooter", "name": "e6b456e6a5121a8ce27fa1f459022bb7", "is_reserved": 0, "lon": -76.940667, "is_disabled": 0, "fusion_lat": 0.0, "lat": 38.885893333333335, "bike_id": "e6b456e6a5121a8ce27fa1f459022bb7", "fusion_lon": 0.0}, {"rental_uris": {"ios": "https://dc.lft.to/lastmile_qr_scan", "android": "https://dc.lft.to/lastmile_qr_scan"}, "type": "electric_scooter", "name": "bab5b68f7f25d13f5b559f39f89dc404", "is_reserved": 0, "lon": -77.03251566666667, "is_disabled": 0, "fusion_lat": 0.0, "lat": 38.91988216666667, "bike_id": "bab5b68f7f25d13f5b559f39f89dc404", "fusion_lon": 0.0}, {"rental_uris": {"ios": "https://dc.lft.to/lastmile_qr_scan", "android": "https://dc.lft.to/lastmile_qr_scan"}, "type": "electric_scooter", "name": "44f9b1491d63bab92d042f550ad6d8af", "is_reserved": 0, "lon": -77.01945133333334, "is_disabled": 0, "fusion_lat": 0.0, "lat": 38.92416816666667, "bike_id": "44f9b1491d63bab92d042f550ad6d8af", "fusion_lon": 0.0}, {"rental_uris": {"ios": "https://dc.lft.to/lastmile_qr_scan", "android": "https://dc.lft.to/lastmile_qr_scan"}, "type": "electric_scooter", "name": "f6196dbcfe644d60c410eefc2ca06d5e", "is_reserved": 0, "lon": -76.99511066666666, "is_disabled": 0, "fusion_lat": 0.0, "lat": 38.909760166666665, "bike_id": "f6196dbcfe644d60c410eefc2ca06d5e", "fusion_lon": 0.0}, {"rental_uris": {"ios": "https://dc.lft.to/lastmile_qr_scan", "android": "https://dc.lft.to/lastmile_qr_scan"}, "type": "electric_scooter", "name": "7d7b79131e17b3cd457a97ef7b4b554d", "is_reserved": 0, "lon": -76.9528855, "is_disabled": 0, "fusion_lat": 0.0, "lat": 38.885192333333336, "bike_id": "7d7b79131e17b3cd457a97ef7b4b554d", "fusion_lon": 0.0}, {"rental_uris": {"ios": "https://dc.lft.to/lastmile_qr_scan", "android": "https://dc.lft.to/lastmile_qr_scan"}, "type": "electric_bike", "name": "3ab18d4ec3d3e13b41dd1bd85ea999fc", "is_reserved": 0, "lon": -76.93666066666667, "is_disabled": 0, "fusion_lat": 0.0, "lat": 38.894548, "bike_id": "3ab18d4ec3d3e13b41dd1bd85ea999fc", "fusion_lon": 0.0}, {"rental_uris": {"ios": "https://dc.lft.to/lastmile_qr_scan", "android": "https://dc.lft.to/lastmile_qr_scan"}, "type": "electric_bike", "name": "35bbece4cd659f2d8728d6d07cf621a6", "is_reserved": 0, "lon": -76.98690883333333, "is_disabled": 0, "fusion_lat": 0.0, "lat": 38.94475633333333, "bike_id": "35bbece4cd659f2d8728d6d07cf621a6", "fusion_lon": 0.0}, {"rental_uris": {"ios": "https://dc.lft.to/lastmile_qr_scan", "android": "https://dc.lft.to/lastmile_qr_scan"}, "type": "electric_scooter", "name": "b57c49f1be2017c122fd0ba4a0fe981d", "is_reserved": 0, "lon": -76.99624766666666, "is_disabled": 0, "fusion_lat": 0.0, "lat": 38.889648, "bike_id": "b57c49f1be2017c122fd0ba4a0fe981d", "fusion_lon": 0.0}, {"rental_uris": {"ios": "https://dc.lft.to/lastmile_qr_scan", "android": "https://dc.lft.to/lastmile_qr_scan"}, "type": "electric_scooter", "name": "da27bdcabd4c2ac9d14bf7fe99f9e755", "is_reserved": 0, "lon": -77.03209533333333, "is_disabled": 0, "fusion_lat": 0.0, "lat": 38.91426533333333, "bike_id": "da27bdcabd4c2ac9d14bf7fe99f9e755", "fusion_lon": 0.0}, {"rental_uris": {"ios": "https://dc.lft.to/lastmile_qr_scan", "android": "https://dc.lft.to/lastmile_qr_scan"}, "type": "electric_scooter", "name": "56517921e5b486725b955291da09050d", "is_reserved": 0, "lon": -77.04485466666667, "is_disabled": 0, "fusion_lat": 0.0, "lat": 38.919292, "bike_id": "56517921e5b486725b955291da09050d", "fusion_lon": 0.0}, {"rental_uris": {"ios": "https://dc.lft.to/lastmile_qr_scan", "android": "https://dc.lft.to/lastmile_qr_scan"}, "type": "electric_scooter", "name": "2ee32e9249d12a51c5e4db3f9a87c14b", "is_reserved": 0, "lon": -76.98510133333333, "is_disabled": 0, "fusion_lat": 0.0, "lat": 38.87982866666667, "bike_id": "2ee32e9249d12a51c5e4db3f9a87c14b", "fusion_lon": 0.0}, {"rental_uris": {"ios": "https://dc.lft.to/lastmile_qr_scan", "android": "https://dc.lft.to/lastmile_qr_scan"}, "type": "electric_scooter", "name": "1476f9d8d3c0bfdce7126e29f862992d", "is_reserved": 0, "lon": -77.02763216666666, "is_disabled": 0, "fusion_lat": 0.0, "lat": 38.956087833333335, "bike_id": "1476f9d8d3c0bfdce7126e29f862992d", "fusion_lon": 0.0}, {"rental_uris": {"ios": "https://dc.lft.to/lastmile_qr_scan", "android": "https://dc.lft.to/lastmile_qr_scan"}, "type": "electric_scooter", "name": "b65992c01c78746016060568333783c2", "is_reserved": 0, "lon": -77.01211216666667, "is_disabled": 0, "fusion_lat": 0.0, "lat": 38.921169, "bike_id": "b65992c01c78746016060568333783c2", "fusion_lon": 0.0}, {"rental_uris": {"ios": "https://dc.lft.to/lastmile_qr_scan", "android": "https://dc.lft.to/lastmile_qr_scan"}, "type": "electric_scooter", "name": "a6da4651a98373abbcea82e3a3fc0531", "is_reserved": 0, "lon": -77.0467525, "is_disabled": 0, "fusion_lat": 0.0, "lat": 38.892308166666666, "bike_id": "a6da4651a98373abbcea82e3a3fc0531", "fusion_lon": 0.0}, {"rental_uris": {"ios": "https://dc.lft.to/lastmile_qr_scan", "android": "https://dc.lft.to/lastmile_qr_scan"}, "type": "electric_scooter", "name": "b5ef8b1629e88dc5a6a7e49856892bca", "is_reserved": 0, "lon": -77.01209383333334, "is_disabled": 0, "fusion_lat": 0.0, "lat": 38.91198033333333, "bike_id": "b5ef8b1629e88dc5a6a7e49856892bca", "fusion_lon": 0.0}, {"rental_uris": {"ios": "https://dc.lft.to/lastmile_qr_scan", "android": "https://dc.lft.to/lastmile_qr_scan"}, "type": "electric_scooter", "name": "d52b1331e1155c2279c9aae04e64b24d", "is_reserved": 0, "lon": -77.02524166666667, "is_disabled": 0, "fusion_lat": 0.0, "lat": 38.91957133333333, "bike_id": "d52b1331e1155c2279c9aae04e64b24d", "fusion_lon": 0.0}, {"rental_uris": {"ios": "https://dc.lft.to/lastmile_qr_scan", "android": "https://dc.lft.to/lastmile_qr_scan"}, "type": "electric_bike", "name": "5812fa4b1fc2a1752b705fd8f071c874", "is_reserved": 0, "lon": -76.96275116666666, "is_disabled": 0, "fusion_lat": 0.0, "lat": 38.967864166666665, "bike_id": "5812fa4b1fc2a1752b705fd8f071c874", "fusion_lon": 0.0}, {"rental_uris": {"ios": "https://dc.lft.to/lastmile_qr_scan", "android": "https://dc.lft.to/lastmile_qr_scan"}, "type": "electric_scooter", "name": "36c90950eca36f00445b515570d8ff1a", "is_reserved": 0, "lon": -77.0010345, "is_disabled": 0, "fusion_lat": 0.0, "lat": 38.88123083333333, "bike_id": "36c90950eca36f00445b515570d8ff1a", "fusion_lon": 0.0}, {"rental_uris": {"ios": "https://dc.lft.to/lastmile_qr_scan", "android": "https://dc.lft.to/lastmile_qr_scan"}, "type": "electric_scooter", "name": "4f94c6311d3626377aff3330dee3a1bf", "is_reserved": 0, "lon": -77.0421505, "is_disabled": 0, "fusion_lat": 0.0, "lat": 38.921287666666665, "bike_id": "4f94c6311d3626377aff3330dee3a1bf", "fusion_lon": 0.0}, {"rental_uris": {"ios": "https://dc.lft.to/lastmile_qr_scan", "android": "https://dc.lft.to/lastmile_qr_scan"}, "type": "electric_bike", "name": "98b241945b7a49ec34112e2a1540a4f2", "is_reserved": 0, "lon": -77.07956266666666, "is_disabled": 0, "fusion_lat": 0.0, "lat": 38.848959666666666, "bike_id": "98b241945b7a49ec34112e2a1540a4f2", "fusion_lon": 0.0}, {"rental_uris": {"ios": "https://dc.lft.to/lastmile_qr_scan", "android": "https://dc.lft.to/lastmile_qr_scan"}, "type": "electric_scooter", "name": "63797bc3905a8272dcd285266d9f8b71", "is_reserved": 0, "lon": -77.02614883333334, "is_disabled": 0, "fusion_lat": 0.0, "lat": 38.897555833333335, "bike_id": "63797bc3905a8272dcd285266d9f8b71", "fusion_lon": 0.0}, {"rental_uris": {"ios": "https://dc.lft.to/lastmile_qr_scan", "android": "https://dc.lft.to/lastmile_qr_scan"}, "type": "electric_scooter", "name": "14d94032d55bbf1cfd052854af1385af", "is_reserved": 0, "lon": -77.0191955, "is_disabled": 0, "fusion_lat": 0.0, "lat": 38.897278, "bike_id": "14d94032d55bbf1cfd052854af1385af", "fusion_lon": 0.0}, {"rental_uris": {"ios": "https://dc.lft.to/lastmile_qr_scan", "android": "https://dc.lft.to/lastmile_qr_scan"}, "type": "electric_scooter", "name": "95b7b06536864c178789d44d6709b067", "is_reserved": 0, "lon": -77.01858316666667, "is_disabled": 0, "fusion_lat": 0.0, "lat": 38.948977666666664, "bike_id": "95b7b06536864c178789d44d6709b067", "fusion_lon": 0.0}, {"rental_uris": {"ios": "https://dc.lft.to/lastmile_qr_scan", "android": "https://dc.lft.to/lastmile_qr_scan"}, "type": "electric_scooter", "name": "c15ff07d279877b4b2e4223f2994f5e9", "is_reserved": 0, "lon": -76.9826625, "is_disabled": 0, "fusion_lat": 0.0, "lat": 38.86631283333333, "bike_id": "c15ff07d279877b4b2e4223f2994f5e9", "fusion_lon": 0.0}, {"rental_uris": {"ios": "https://dc.lft.to/lastmile_qr_scan", "android": "https://dc.lft.to/lastmile_qr_scan"}, "type": "electric_scooter", "name": "d9b8260152f679f0842991c0239cb1ff", "is_reserved": 0, "lon": -77.04374716666666, "is_disabled": 0, "fusion_lat": 0.0, "lat": 38.92072533333333, "bike_id": "d9b8260152f679f0842991c0239cb1ff", "fusion_lon": 0.0}, {"rental_uris": {"ios": "https://dc.lft.to/lastmile_qr_scan", "android": "https://dc.lft.to/lastmile_qr_scan"}, "type": "electric_scooter", "name": "4a54587613615ff156d5eb0c34075863", "is_reserved": 0, "lon": -77.02332583333333, "is_disabled": 0, "fusion_lat": 0.0, "lat": 38.923060166666666, "bike_id": "4a54587613615ff156d5eb0c34075863", "fusion_lon": 0.0}, {"rental_uris": {"ios": "https://dc.lft.to/lastmile_qr_scan", "android": "https://dc.lft.to/lastmile_qr_scan"}, "type": "electric_scooter", "name": "8acc28cb03efac8f2800d56c2adc4889", "is_reserved": 0, "lon": -77.02352383333333, "is_disabled": 0, "fusion_lat": 0.0, "lat": 38.935288666666665, "bike_id": "8acc28cb03efac8f2800d56c2adc4889", "fusion_lon": 0.0}, {"rental_uris": {"ios": "https://dc.lft.to/lastmile_qr_scan", "android": "https://dc.lft.to/lastmile_qr_scan"}, "type": "electric_scooter", "name": "11acf5d697781fe2fbc57ca5d80e40b9", "is_reserved": 0, "lon": -76.98357766666666, "is_disabled": 0, "fusion_lat": 0.0, "lat": 38.887378166666664, "bike_id": "11acf5d697781fe2fbc57ca5d80e40b9", "fusion_lon": 0.0}, {"rental_uris": {"ios": "https://dc.lft.to/lastmile_qr_scan", "android": "https://dc.lft.to/lastmile_qr_scan"}, "type": "electric_bike", "name": "b3182006edcac82536b78dd60a413ba8", "is_reserved": 0, "lon": -77.02008866666667, "is_disabled": 0, "fusion_lat": 0.0, "lat": 38.964386, "bike_id": "b3182006edcac82536b78dd60a413ba8", "fusion_lon": 0.0}, {"rental_uris": {"ios": "https://dc.lft.to/lastmile_qr_scan", "android": "https://dc.lft.to/lastmile_qr_scan"}, "type": "electric_scooter", "name": "4d13970a754c1c5bd8d17473a151e9d5", "is_reserved": 0, "lon": -77.01982583333333, "is_disabled": 0, "fusion_lat": 0.0, "lat": 38.899296166666666, "bike_id": "4d13970a754c1c5bd8d17473a151e9d5", "fusion_lon": 0.0}, {"rental_uris": {"ios": "https://dc.lft.to/lastmile_qr_scan", "android": "https://dc.lft.to/lastmile_qr_scan"}, "type": "electric_scooter", "name": "38714b019aa70028720677e90b9e15d2", "is_reserved": 0, "lon": -77.03423983333333, "is_disabled": 0, "fusion_lat": 0.0, "lat": 38.90957683333333, "bike_id": "38714b019aa70028720677e90b9e15d2", "fusion_lon": 0.0}, {"rental_uris": {"ios": "https://dc.lft.to/lastmile_qr_scan", "android": "https://dc.lft.to/lastmile_qr_scan"}, "type": "electric_scooter", "name": "823a1e4de1658e181a07a99008044b39", "is_reserved": 0, "lon": -77.02303933333333, "is_disabled": 0, "fusion_lat": 0.0, "lat": 38.913966333333335, "bike_id": "823a1e4de1658e181a07a99008044b39", "fusion_lon": 0.0}, {"rental_uris": {"ios": "https://dc.lft.to/lastmile_qr_scan", "android": "https://dc.lft.to/lastmile_qr_scan"}, "type": "electric_scooter", "name": "d3deec00e5874f63e86e9594b1e648f1", "is_reserved": 0, "lon": -77.049229, "is_disabled": 0, "fusion_lat": 0.0, "lat": 38.91042383333333, "bike_id": "d3deec00e5874f63e86e9594b1e648f1", "fusion_lon": 0.0}, {"rental_uris": {"ios": "https://dc.lft.to/lastmile_qr_scan", "android": "https://dc.lft.to/lastmile_qr_scan"}, "type": "electric_scooter", "name": "cb41547206d6917224306023e43528f3", "is_reserved": 0, "lon": -77.0319185, "is_disabled": 0, "fusion_lat": 0.0, "lat": 38.909365, "bike_id": "cb41547206d6917224306023e43528f3", "fusion_lon": 0.0}, {"rental_uris": {"ios": "https://dc.lft.to/lastmile_qr_scan", "android": "https://dc.lft.to/lastmile_qr_scan"}, "type": "electric_scooter", "name": "402fa849a1538525c7a564cf4a99f7d6", "is_reserved": 0, "lon": -77.01876366666667, "is_disabled": 0, "fusion_lat": 0.0, "lat": 38.90287283333333, "bike_id": "402fa849a1538525c7a564cf4a99f7d6", "fusion_lon": 0.0}, {"rental_uris": {"ios": "https://dc.lft.to/lastmile_qr_scan", "android": "https://dc.lft.to/lastmile_qr_scan"}, "type": "electric_scooter", "name": "5c63bf11024bfad01e90ea8b6d55128a", "is_reserved": 0, "lon": -77.0180925, "is_disabled": 0, "fusion_lat": 0.0, "lat": 38.919742666666664, "bike_id": "5c63bf11024bfad01e90ea8b6d55128a", "fusion_lon": 0.0}, {"rental_uris": {"ios": "https://dc.lft.to/lastmile_qr_scan", "android": "https://dc.lft.to/lastmile_qr_scan"}, "type": "electric_scooter", "name": "e4e2f35b343cc37de8e483278d69035a", "is_reserved": 0, "lon": -76.994952, "is_disabled": 0, "fusion_lat": 0.0, "lat": 38.86220633333333, "bike_id": "e4e2f35b343cc37de8e483278d69035a", "fusion_lon": 0.0}, {"rental_uris": {"ios": "https://dc.lft.to/lastmile_qr_scan", "android": "https://dc.lft.to/lastmile_qr_scan"}, "type": "electric_scooter", "name": "52a8d0c5325390d4afac7d1f2bfd14e9", "is_reserved": 0, "lon": -77.0104555, "is_disabled": 0, "fusion_lat": 0.0, "lat": 38.91098916666667, "bike_id": "52a8d0c5325390d4afac7d1f2bfd14e9", "fusion_lon": 0.0}, {"rental_uris": {"ios": "https://dc.lft.to/lastmile_qr_scan", "android": "https://dc.lft.to/lastmile_qr_scan"}, "type": "electric_scooter", "name": "e2904bb95576acc081f2f45dddcdde81", "is_reserved": 0, "lon": -77.04174983333333, "is_disabled": 0, "fusion_lat": 0.0, "lat": 38.918431, "bike_id": "e2904bb95576acc081f2f45dddcdde81", "fusion_lon": 0.0}, {"rental_uris": {"ios": "https://dc.lft.to/lastmile_qr_scan", "android": "https://dc.lft.to/lastmile_qr_scan"}, "type": "electric_scooter", "name": "4d2e03cc98b56724f4235053b54cea99", "is_reserved": 0, "lon": -77.0312825, "is_disabled": 0, "fusion_lat": 0.0, "lat": 38.9168625, "bike_id": "4d2e03cc98b56724f4235053b54cea99", "fusion_lon": 0.0}, {"rental_uris": {"ios": "https://dc.lft.to/lastmile_qr_scan", "android": "https://dc.lft.to/lastmile_qr_scan"}, "type": "electric_scooter", "name": "c87e33d678d3c6a98b3869f385170457", "is_reserved": 0, "lon": -77.03464766666667, "is_disabled": 0, "fusion_lat": 0.0, "lat": 38.90566066666667, "bike_id": "c87e33d678d3c6a98b3869f385170457", "fusion_lon": 0.0}, {"rental_uris": {"ios": "https://dc.lft.to/lastmile_qr_scan", "android": "https://dc.lft.to/lastmile_qr_scan"}, "type": "electric_scooter", "name": "eb2fcb7b737f502487a11df670cf96c2", "is_reserved": 0, "lon": -77.00209466666666, "is_disabled": 0, "fusion_lat": 0.0, "lat": 38.892917, "bike_id": "eb2fcb7b737f502487a11df670cf96c2", "fusion_lon": 0.0}, {"rental_uris": {"ios": "https://dc.lft.to/lastmile_qr_scan", "android": "https://dc.lft.to/lastmile_qr_scan"}, "type": "electric_scooter", "name": "0c80698fff796c77adb8d47638b9721a", "is_reserved": 0, "lon": -77.042427, "is_disabled": 0, "fusion_lat": 0.0, "lat": 38.90586316666667, "bike_id": "0c80698fff796c77adb8d47638b9721a", "fusion_lon": 0.0}, {"rental_uris": {"ios": "https://dc.lft.to/lastmile_qr_scan", "android": "https://dc.lft.to/lastmile_qr_scan"}, "type": "electric_scooter", "name": "616e0e8b5e2b524ac232a7651e62f325", "is_reserved": 0, "lon": -77.01850716666667, "is_disabled": 0, "fusion_lat": 0.0, "lat": 38.95428066666667, "bike_id": "616e0e8b5e2b524ac232a7651e62f325", "fusion_lon": 0.0}, {"rental_uris": {"ios": "https://dc.lft.to/lastmile_qr_scan", "android": "https://dc.lft.to/lastmile_qr_scan"}, "type": "electric_scooter", "name": "d66724ad4c26a59e75150d86ef158005", "is_reserved": 0, "lon": -77.02495183333333, "is_disabled": 0, "fusion_lat": 0.0, "lat": 38.92071, "bike_id": "d66724ad4c26a59e75150d86ef158005", "fusion_lon": 0.0}, {"rental_uris": {"ios": "https://dc.lft.to/lastmile_qr_scan", "android": "https://dc.lft.to/lastmile_qr_scan"}, "type": "electric_scooter", "name": "413c8bec9346416eddbefb58eda088a8", "is_reserved": 0, "lon": -77.01859516666667, "is_disabled": 0, "fusion_lat": 0.0, "lat": 38.89458883333333, "bike_id": "413c8bec9346416eddbefb58eda088a8", "fusion_lon": 0.0}, {"rental_uris": {"ios": "https://dc.lft.to/lastmile_qr_scan", "android": "https://dc.lft.to/lastmile_qr_scan"}, "type": "electric_scooter", "name": "3ee5bd7e1e6cab9384bfa415ac961ae4", "is_reserved": 0, "lon": -76.989824, "is_disabled": 0, "fusion_lat": 0.0, "lat": 38.91754533333334, "bike_id": "3ee5bd7e1e6cab9384bfa415ac961ae4", "fusion_lon": 0.0}, {"rental_uris": {"ios": "https://dc.lft.to/lastmile_qr_scan", "android": "https://dc.lft.to/lastmile_qr_scan"}, "type": "electric_scooter", "name": "e2f6b69a6038b23dde1c24a703dee902", "is_reserved": 0, "lon": -76.9991075, "is_disabled": 0, "fusion_lat": 0.0, "lat": 38.92457066666667, "bike_id": "e2f6b69a6038b23dde1c24a703dee902", "fusion_lon": 0.0}, {"rental_uris": {"ios": "https://dc.lft.to/lastmile_qr_scan", "android": "https://dc.lft.to/lastmile_qr_scan"}, "type": "electric_scooter", "name": "4f02784cc1d3c2b1f31981afa2912918", "is_reserved": 0, "lon": -77.05117366666667, "is_disabled": 0, "fusion_lat": 0.0, "lat": 38.903996666666664, "bike_id": "4f02784cc1d3c2b1f31981afa2912918", "fusion_lon": 0.0}, {"rental_uris": {"ios": "https://dc.lft.to/lastmile_qr_scan", "android": "https://dc.lft.to/lastmile_qr_scan"}, "type": "electric_scooter", "name": "2efeec5f57cf5a8d2264c54dd030ab5d", "is_reserved": 0, "lon": -77.03336783333333, "is_disabled": 0, "fusion_lat": 0.0, "lat": 38.88766566666666, "bike_id": "2efeec5f57cf5a8d2264c54dd030ab5d", "fusion_lon": 0.0}, {"rental_uris": {"ios": "https://dc.lft.to/lastmile_qr_scan", "android": "https://dc.lft.to/lastmile_qr_scan"}, "type": "electric_scooter", "name": "a9ce4bcbccf050ec2f8fc8e667c97462", "is_reserved": 0, "lon": -77.028984, "is_disabled": 0, "fusion_lat": 0.0, "lat": 38.91711766666667, "bike_id": "a9ce4bcbccf050ec2f8fc8e667c97462", "fusion_lon": 0.0}, {"rental_uris": {"ios": "https://dc.lft.to/lastmile_qr_scan", "android": "https://dc.lft.to/lastmile_qr_scan"}, "type": "electric_scooter", "name": "fdac414b9636e391b2a63f5c73a31d79", "is_reserved": 0, "lon": -76.9266385, "is_disabled": 0, "fusion_lat": 0.0, "lat": 38.88234, "bike_id": "fdac414b9636e391b2a63f5c73a31d79", "fusion_lon": 0.0}, {"rental_uris": {"ios": "https://dc.lft.to/lastmile_qr_scan", "android": "https://dc.lft.to/lastmile_qr_scan"}, "type": "electric_scooter", "name": "c81c79b62f1e5684beccb175a2a4adb8", "is_reserved": 0, "lon": -77.03386666666667, "is_disabled": 0, "fusion_lat": 0.0, "lat": 38.9026745, "bike_id": "c81c79b62f1e5684beccb175a2a4adb8", "fusion_lon": 0.0}, {"rental_uris": {"ios": "https://dc.lft.to/lastmile_qr_scan", "android": "https://dc.lft.to/lastmile_qr_scan"}, "type": "electric_scooter", "name": "501f2b81de7539bc27702bec57a4a5f1", "is_reserved": 0, "lon": -77.044727, "is_disabled": 0, "fusion_lat": 0.0, "lat": 38.9144325, "bike_id": "501f2b81de7539bc27702bec57a4a5f1", "fusion_lon": 0.0}, {"rental_uris": {"ios": "https://dc.lft.to/lastmile_qr_scan", "android": "https://dc.lft.to/lastmile_qr_scan"}, "type": "electric_scooter", "name": "05b4844e408d16a74324de69506f042e", "is_reserved": 0, "lon": -77.03843633333334, "is_disabled": 0, "fusion_lat": 0.0, "lat": 38.910848333333334, "bike_id": "05b4844e408d16a74324de69506f042e", "fusion_lon": 0.0}, {"rental_uris": {"ios": "https://dc.lft.to/lastmile_qr_scan", "android": "https://dc.lft.to/lastmile_qr_scan"}, "type": "electric_scooter", "name": "8e8fe4c9c35be645a0ece0e7374d3ab5", "is_reserved": 0, "lon": -77.024308, "is_disabled": 0, "fusion_lat": 0.0, "lat": 38.89719216666667, "bike_id": "8e8fe4c9c35be645a0ece0e7374d3ab5", "fusion_lon": 0.0}, {"rental_uris": {"ios": "https://dc.lft.to/lastmile_qr_scan", "android": "https://dc.lft.to/lastmile_qr_scan"}, "type": "electric_scooter", "name": "9aeb04535019025aa691b732c0022f3c", "is_reserved": 0, "lon": -77.03479566666667, "is_disabled": 0, "fusion_lat": 0.0, "lat": 38.908264833333334, "bike_id": "9aeb04535019025aa691b732c0022f3c", "fusion_lon": 0.0}, {"rental_uris": {"ios": "https://dc.lft.to/lastmile_qr_scan", "android": "https://dc.lft.to/lastmile_qr_scan"}, "type": "electric_scooter", "name": "362a76bed78a23bc1eab3366f66b1059", "is_reserved": 0, "lon": -77.01772433333333, "is_disabled": 0, "fusion_lat": 0.0, "lat": 38.887262, "bike_id": "362a76bed78a23bc1eab3366f66b1059", "fusion_lon": 0.0}, {"rental_uris": {"ios": "https://dc.lft.to/lastmile_qr_scan", "android": "https://dc.lft.to/lastmile_qr_scan"}, "type": "electric_scooter", "name": "b039ea4ed8a4f2277537a703b0c62264", "is_reserved": 0, "lon": -77.04467083333333, "is_disabled": 0, "fusion_lat": 0.0, "lat": 38.900602, "bike_id": "b039ea4ed8a4f2277537a703b0c62264", "fusion_lon": 0.0}, {"rental_uris": {"ios": "https://dc.lft.to/lastmile_qr_scan", "android": "https://dc.lft.to/lastmile_qr_scan"}, "type": "electric_scooter", "name": "3e6f5639d117e2d1dc8f67ad6dc20f4a", "is_reserved": 0, "lon": -77.03220516666667, "is_disabled": 0, "fusion_lat": 0.0, "lat": 38.898408333333336, "bike_id": "3e6f5639d117e2d1dc8f67ad6dc20f4a", "fusion_lon": 0.0}, {"rental_uris": {"ios": "https://dc.lft.to/lastmile_qr_scan", "android": "https://dc.lft.to/lastmile_qr_scan"}, "type": "electric_scooter", "name": "03c8b2ef5bd6f36af02c3f9a57fa4370", "is_reserved": 0, "lon": -77.038966, "is_disabled": 0, "fusion_lat": 0.0, "lat": 38.90172833333333, "bike_id": "03c8b2ef5bd6f36af02c3f9a57fa4370", "fusion_lon": 0.0}, {"rental_uris": {"ios": "https://dc.lft.to/lastmile_qr_scan", "android": "https://dc.lft.to/lastmile_qr_scan"}, "type": "electric_scooter", "name": "a2bbb598110ca1b253ed7d0c40046187", "is_reserved": 0, "lon": -77.06782316666667, "is_disabled": 0, "fusion_lat": 0.0, "lat": 38.90390766666667, "bike_id": "a2bbb598110ca1b253ed7d0c40046187", "fusion_lon": 0.0}, {"rental_uris": {"ios": "https://dc.lft.to/lastmile_qr_scan", "android": "https://dc.lft.to/lastmile_qr_scan"}, "type": "electric_bike", "name": "ca55daf49b4ba1fb250cb08908a7a789", "is_reserved": 0, "lon": -77.16237233333334, "is_disabled": 0, "fusion_lat": 0.0, "lat": 38.886747666666665, "bike_id": "ca55daf49b4ba1fb250cb08908a7a789", "fusion_lon": 0.0}, {"rental_uris": {"ios": "https://dc.lft.to/lastmile_qr_scan", "android": "https://dc.lft.to/lastmile_qr_scan"}, "type": "electric_scooter", "name": "971f188a5f72f320e6359ca5f4cea43f", "is_reserved": 0, "lon": -77.03340683333333, "is_disabled": 0, "fusion_lat": 0.0, "lat": 38.892205833333335, "bike_id": "971f188a5f72f320e6359ca5f4cea43f", "fusion_lon": 0.0}, {"rental_uris": {"ios": "https://dc.lft.to/lastmile_qr_scan", "android": "https://dc.lft.to/lastmile_qr_scan"}, "type": "electric_scooter", "name": "0624e4cde95888168f6c4ed3e4012f62", "is_reserved": 0, "lon": -76.99630016666667, "is_disabled": 0, "fusion_lat": 0.0, "lat": 38.891816666666664, "bike_id": "0624e4cde95888168f6c4ed3e4012f62", "fusion_lon": 0.0}, {"rental_uris": {"ios": "https://dc.lft.to/lastmile_qr_scan", "android": "https://dc.lft.to/lastmile_qr_scan"}, "type": "electric_scooter", "name": "2d4ae927ef0ac6c5cd9bde76e32b837d", "is_reserved": 0, "lon": -77.03713583333334, "is_disabled": 0, "fusion_lat": 0.0, "lat": 38.92650533333333, "bike_id": "2d4ae927ef0ac6c5cd9bde76e32b837d", "fusion_lon": 0.0}, {"rental_uris": {"ios": "https://dc.lft.to/lastmile_qr_scan", "android": "https://dc.lft.to/lastmile_qr_scan"}, "type": "electric_bike", "name": "52f0a7c7a87ad6da7b81708e68f12733", "is_reserved": 0, "lon": -77.038864, "is_disabled": 0, "fusion_lat": 0.0, "lat": 39.026346, "bike_id": "52f0a7c7a87ad6da7b81708e68f12733", "fusion_lon": 0.0}, {"rental_uris": {"ios": "https://dc.lft.to/lastmile_qr_scan", "android": "https://dc.lft.to/lastmile_qr_scan"}, "type": "electric_scooter", "name": "cab9d352bfab22968a48037e13f627b2", "is_reserved": 0, "lon": -77.05317383333333, "is_disabled": 0, "fusion_lat": 0.0, "lat": 38.902723333333334, "bike_id": "cab9d352bfab22968a48037e13f627b2", "fusion_lon": 0.0}, {"rental_uris": {"ios": "https://dc.lft.to/lastmile_qr_scan", "android": "https://dc.lft.to/lastmile_qr_scan"}, "type": "electric_bike", "name": "4994cafd3b8446a48d389c557a744577", "is_reserved": 0, "lon": -77.09625983333333, "is_disabled": 0, "fusion_lat": 0.0, "lat": 38.95242666666667, "bike_id": "4994cafd3b8446a48d389c557a744577", "fusion_lon": 0.0}, {"rental_uris": {"ios": "https://dc.lft.to/lastmile_qr_scan", "android": "https://dc.lft.to/lastmile_qr_scan"}, "type": "electric_bike", "name": "a7a13231795a351806e71dae08f7242c", "is_reserved": 0, "lon": -77.00461283333334, "is_disabled": 0, "fusion_lat": 0.0, "lat": 38.911803166666665, "bike_id": "a7a13231795a351806e71dae08f7242c", "fusion_lon": 0.0}, {"rental_uris": {"ios": "https://dc.lft.to/lastmile_qr_scan", "android": "https://dc.lft.to/lastmile_qr_scan"}, "type": "electric_scooter", "name": "946e1b0f064bcf70f0d746e87079aa70", "is_reserved": 0, "lon": -76.99516366666667, "is_disabled": 0, "fusion_lat": 0.0, "lat": 38.920663166666664, "bike_id": "946e1b0f064bcf70f0d746e87079aa70", "fusion_lon": 0.0}, {"rental_uris": {"ios": "https://dc.lft.to/lastmile_qr_scan", "android": "https://dc.lft.to/lastmile_qr_scan"}, "type": "electric_scooter", "name": "b2caf3b2f9c94d9d1c29e4daa597e7d0", "is_reserved": 0, "lon": -77.06089533333333, "is_disabled": 0, "fusion_lat": 0.0, "lat": 38.902245666666666, "bike_id": "b2caf3b2f9c94d9d1c29e4daa597e7d0", "fusion_lon": 0.0}, {"rental_uris": {"ios": "https://dc.lft.to/lastmile_qr_scan", "android": "https://dc.lft.to/lastmile_qr_scan"}, "type": "electric_scooter", "name": "39df213f63c2498fb977274b534bf17b", "is_reserved": 0, "lon": -77.01851366666666, "is_disabled": 0, "fusion_lat": 0.0, "lat": 38.905489, "bike_id": "39df213f63c2498fb977274b534bf17b", "fusion_lon": 0.0}, {"rental_uris": {"ios": "https://dc.lft.to/lastmile_qr_scan", "android": "https://dc.lft.to/lastmile_qr_scan"}, "type": "electric_scooter", "name": "636a9aeea369595c4897f78c280b717c", "is_reserved": 0, "lon": -77.02599, "is_disabled": 0, "fusion_lat": 0.0, "lat": 38.926479666666665, "bike_id": "636a9aeea369595c4897f78c280b717c", "fusion_lon": 0.0}, {"rental_uris": {"ios": "https://dc.lft.to/lastmile_qr_scan", "android": "https://dc.lft.to/lastmile_qr_scan"}, "type": "electric_scooter", "name": "31fbbdd5e301c30b9aa086ecd7e9b1f9", "is_reserved": 0, "lon": -76.99420616666667, "is_disabled": 0, "fusion_lat": 0.0, "lat": 38.9168655, "bike_id": "31fbbdd5e301c30b9aa086ecd7e9b1f9", "fusion_lon": 0.0}, {"rental_uris": {"ios": "https://dc.lft.to/lastmile_qr_scan", "android": "https://dc.lft.to/lastmile_qr_scan"}, "type": "electric_scooter", "name": "051bc45506315adea99a2b25d80cef01", "is_reserved": 0, "lon": -77.04740216666667, "is_disabled": 0, "fusion_lat": 0.0, "lat": 38.89552966666667, "bike_id": "051bc45506315adea99a2b25d80cef01", "fusion_lon": 0.0}, {"rental_uris": {"ios": "https://dc.lft.to/lastmile_qr_scan", "android": "https://dc.lft.to/lastmile_qr_scan"}, "type": "electric_scooter", "name": "be558e0d81b1e4dbb31d4d8c748f0d98", "is_reserved": 0, "lon": -77.0453195, "is_disabled": 0, "fusion_lat": 0.0, "lat": 38.918164166666664, "bike_id": "be558e0d81b1e4dbb31d4d8c748f0d98", "fusion_lon": 0.0}, {"rental_uris": {"ios": "https://dc.lft.to/lastmile_qr_scan", "android": "https://dc.lft.to/lastmile_qr_scan"}, "type": "electric_scooter", "name": "35729c725db51baceae650bca5689b6d", "is_reserved": 0, "lon": -77.02485633333333, "is_disabled": 0, "fusion_lat": 0.0, "lat": 38.91811933333334, "bike_id": "35729c725db51baceae650bca5689b6d", "fusion_lon": 0.0}, {"rental_uris": {"ios": "https://dc.lft.to/lastmile_qr_scan", "android": "https://dc.lft.to/lastmile_qr_scan"}, "type": "electric_scooter", "name": "9b92fc29bd8e8a564fe35182cb4b055b", "is_reserved": 0, "lon": -77.032194, "is_disabled": 0, "fusion_lat": 0.0, "lat": 38.90972283333333, "bike_id": "9b92fc29bd8e8a564fe35182cb4b055b", "fusion_lon": 0.0}, {"rental_uris": {"ios": "https://dc.lft.to/lastmile_qr_scan", "android": "https://dc.lft.to/lastmile_qr_scan"},