{"data": {"bikes": [{"bike_id": "b484337b40a2646d85c1ac5e9b22d6c3", "type": "electric_bike", "is_disabled": 0, "lat": 38.89100533333333, "rental_uris": {"ios": "https://dc.lft.to/lastmile_qr_scan", "android": "https://dc.lft.to/lastmile_qr_scan"}, "is_reserved": 0, "fusion_lon": 0.0, "fusion_lat": 0.0, "lon": -76.93487066666667, "name": "b484337b40a2646d85c1ac5e9b22d6c3"}, {"bike_id": "017f128e6a50ed809987557f8b361f26", "type": "electric_scooter", "is_disabled": 0, "lat": 38.88048083333334, "rental_uris": {"ios": "https://dc.lft.to/lastmile_qr_scan", "android": "https://dc.lft.to/lastmile_qr_scan"}, "is_reserved": 0, "fusion_lon": 0.0, "fusion_lat": 0.0, "lon": -76.93210816666667, "name": "017f128e6a50ed809987557f8b361f26"}, {"bike_id": "ed2f81cc7cead1529848e7efa6fd71d1", "type": "electric_scooter", "is_disabled": 0, "lat": 38.914032, "rental_uris": {"ios": "https://dc.lft.to/lastmile_qr_scan", "android": "https://dc.lft.to/lastmile_qr_scan"}, "is_reserved": 0, "fusion_lon": 0.0, "fusion_lat": 0.0, "lon": -77.03261466666666, "name": "ed2f81cc7cead1529848e7efa6fd71d1"}, {"bike_id": "117fb41bf595ef16ed2d7a58bff84768", "type": "electric_scooter", "is_disabled": 0, "lat": 38.91898533333333, "rental_uris": {"ios": "https://dc.lft.to/lastmile_qr_scan", "android": "https://dc.lft.to/lastmile_qr_scan"}, "is_reserved": 0, "fusion_lon": 0.0, "fusion_lat": 0.0, "lon": -77.070806, "name": "117fb41bf595ef16ed2d7a58bff84768"}, {"bike_id": "e50b97a6f234dcb6222caeb8c3be62e6", "type": "electric_scooter", "is_disabled": 0, "lat": 38.91648283333333, "rental_uris": {"ios": "https://dc.lft.to/lastmile_qr_scan", "android": "https://dc.lft.to/lastmile_qr_scan"}, "is_reserved": 0, "fusion_lon": 0.0, "fusion_lat": 0.0, "lon": -77.0288725, "name": "e50b97a6f234dcb6222caeb8c3be62e6"}, {"bike_id": "0a6f89a6502854c6f5938457490b6b40", "type": "electric_scooter", "is_disabled": 0, "lat": 38.888520166666666, "rental_uris": {"ios": "https://dc.lft.to/lastmile_qr_scan", "android": "https://dc.lft.to/lastmile_qr_scan"}, "is_reserved": 0, "fusion_lon": 0.0, "fusion_lat": 0.0, "lon": -77.00051083333334, "name": "0a6f89a6502854c6f5938457490b6b40"}, {"bike_id": "f592a21cb80fd3b84dc6e51c5dd24e71", "type": "electric_scooter", "is_disabled": 0, "lat": 38.887440833333336, "rental_uris": {"ios": "https://dc.lft.to/lastmile_qr_scan", "android": "https://dc.lft.to/lastmile_qr_scan"}, "is_reserved": 0, "fusion_lon": 0.0, "fusion_lat": 0.0, "lon": -76.99626333333333, "name": "f592a21cb80fd3b84dc6e51c5dd24e71"}, {"bike_id": "7d348f6aa9f236af4284aea9a7b62bdc", "type": "electric_scooter", "is_disabled": 0, "lat": 38.923964833333336, "rental_uris": {"ios": "https://dc.lft.to/lastmile_qr_scan", "android": "https://dc.lft.to/lastmile_qr_scan"}, "is_reserved": 0, "fusion_lon": 0.0, "fusion_lat": 0.0, "lon": -77.042994, "name": "7d348f6aa9f236af4284aea9a7b62bdc"}, {"bike_id": "3f6cc31672da79a2fe474e11448be668", "type": "electric_scooter", "is_disabled": 0, "lat": 38.922700166666665, "rental_uris": {"ios": "https://dc.lft.to/lastmile_qr_scan", "android": "https://dc.lft.to/lastmile_qr_scan"}, "is_reserved": 0, "fusion_lon": 0.0, "fusion_lat": 0.0, "lon": -77.04190333333334, "name": "3f6cc31672da79a2fe474e11448be668"}, {"bike_id": "c5d4dd50dbf1a98245551a71f5d064f1", "type": "electric_scooter", "is_disabled": 0, "lat": 38.924778, "rental_uris": {"ios": "https://dc.lft.to/lastmile_qr_scan", "android": "https://dc.lft.to/lastmile_qr_scan"}, "is_reserved": 0, "fusion_lon": 0.0, "fusion_lat": 0.0, "lon": -77.05211116666666, "name": "c5d4dd50dbf1a98245551a71f5d064f1"}, {"bike_id": "33aecb74e40ec9f6ebfe95fb5e250b95", "type": "electric_scooter", "is_disabled": 0, "lat": 38.9151155, "rental_uris": {"ios": "https://dc.lft.to/lastmile_qr_scan", "android": "https://dc.lft.to/lastmile_qr_scan"}, "is_reserved": 0, "fusion_lon": 0.0, "fusion_lat": 0.0, "lon": -77.02188833333334, "name": "33aecb74e40ec9f6ebfe95fb5e250b95"}, {"bike_id": "3f70b954ec96dbe713f4f9e0442cc488", "type": "electric_scooter", "is_disabled": 0, "lat": 38.86373616666667, "rental_uris": {"ios": "https://dc.lft.to/lastmile_qr_scan", "android": "https://dc.lft.to/lastmile_qr_scan"}, "is_reserved": 0, "fusion_lon": 0.0, "fusion_lat": 0.0, "lon": -76.99060483333334, "name": "3f70b954ec96dbe713f4f9e0442cc488"}, {"bike_id": "bc5bf841fb9372210565b10aad0f14c9", "type": "electric_scooter", "is_disabled": 0, "lat": 38.88416266666667, "rental_uris": {"ios": "https://dc.lft.to/lastmile_qr_scan", "android": "https://dc.lft.to/lastmile_qr_scan"}, "is_reserved": 0, "fusion_lon": 0.0, "fusion_lat": 0.0, "lon": -77.0074395, "name": "bc5bf841fb9372210565b10aad0f14c9"}, {"bike_id": "014cc83526de4dec337392d688d8d5e6", "type": "electric_scooter", "is_disabled": 0, "lat": 38.8927415, "rental_uris": {"ios": "https://dc.lft.to/lastmile_qr_scan", "android": "https://dc.lft.to/lastmile_qr_scan"}, "is_reserved": 0, "fusion_lon": 0.0, "fusion_lat": 0.0, "lon": -77.044859, "name": "014cc83526de4dec337392d688d8d5e6"}, {"bike_id": "6954ab409efb262cad3b10c583b45c20", "type": "electric_bike", "is_disabled": 0, "lat": 38.95644133333333, "rental_uris": {"ios": "https://dc.lft.to/lastmile_qr_scan", "android": "https://dc.lft.to/lastmile_qr_scan"}, "is_reserved": 0, "fusion_lon": 0.0, "fusion_lat": 0.0, "lon": -76.9387305, "name": "6954ab409efb262cad3b10c583b45c20"}, {"bike_id": "24a0b74c85bddd0b6aa00e7c73e85a61", "type": "electric_scooter", "is_disabled": 0, "lat": 38.917607, "rental_uris": {"ios": "https://dc.lft.to/lastmile_qr_scan", "android": "https://dc.lft.to/lastmile_qr_scan"}, "is_reserved": 0, "fusion_lon": 0.0, "fusion_lat": 0.0, "lon": -77.0477055, "name": "24a0b74c85bddd0b6aa00e7c73e85a61"}, {"bike_id": "7f1ec3b5b9af5b084fa65bec5a6ee1b2", "type": "electric_scooter", "is_disabled": 0, "lat": 38.927962666666666, "rental_uris": {"ios": "https://dc.lft.to/lastmile_qr_scan", "android": "https://dc.lft.to/lastmile_qr_scan"}, "is_reserved": 0, "fusion_lon": 0.0, "fusion_lat": 0.0, "lon": -77.02598366666666, "name": "7f1ec3b5b9af5b084fa65bec5a6ee1b2"}, {"bike_id": "967c187437b5bffccb58c2b09442151e", "type": "electric_scooter", "is_disabled": 0, "lat": 38.902868833333336, "rental_uris": {"ios": "https://dc.lft.to/lastmile_qr_scan", "android": "https://dc.lft.to/lastmile_qr_scan"}, "is_reserved": 0, "fusion_lon": 0.0, "fusion_lat": 0.0, "lon": -77.04481466666667, "name": "967c187437b5bffccb58c2b09442151e"}, {"bike_id": "a8584ada073041f1636fd91a049cd8de", "type": "electric_bike", "is_disabled": 0, "lat": 38.9401965, "rental_uris": {"ios": "https://dc.lft.to/lastmile_qr_scan", "android": "https://dc.lft.to/lastmile_qr_scan"}, "is_reserved": 0, "fusion_lon": 0.0, "fusion_lat": 0.0, "lon": -76.97622183333333, "name": "a8584ada073041f1636fd91a049cd8de"}, {"bike_id": "98f22a96a04406007062243ec2e46297", "type": "electric_scooter", "is_disabled": 0, "lat": 38.9842615, "rental_uris": {"ios": "https://dc.lft.to/lastmile_qr_scan", "android": "https://dc.lft.to/lastmile_qr_scan"}, "is_reserved": 0, "fusion_lon": 0.0, "fusion_lat": 0.0, "lon": -77.0267105, "name": "98f22a96a04406007062243ec2e46297"}, {"bike_id": "c706c0693067fb53fb038b621dcca959", "type": "electric_scooter", "is_disabled": 0, "lat": 38.8706005, "rental_uris": {"ios": "https://dc.lft.to/lastmile_qr_scan", "android": "https://dc.lft.to/lastmile_qr_scan"}, "is_reserved": 0, "fusion_lon": 0.0, "fusion_lat": 0.0, "lon": -77.00745, "name": "c706c0693067fb53fb038b621dcca959"}, {"bike_id": "776879e3c72c8ceee2004cefeba5c46c", "type": "electric_scooter", "is_disabled": 0, "lat": 38.902431166666666, "rental_uris": {"ios": "https://dc.lft.to/lastmile_qr_scan", "android": "https://dc.lft.to/lastmile_qr_scan"}, "is_reserved": 0, "fusion_lon": 0.0, "fusion_lat": 0.0, "lon": -77.0008105, "name": "776879e3c72c8ceee2004cefeba5c46c"}, {"bike_id": "a506dcd9ef78f3c12198566414d30f46", "type": "electric_scooter", "is_disabled": 0, "lat": 38.931774, "rental_uris": {"ios": "https://dc.lft.to/lastmile_qr_scan", "android": "https://dc.lft.to/lastmile_qr_scan"}, "is_reserved": 0, "fusion_lon": 0.0, "fusion_lat": 0.0, "lon": -77.02353233333334, "name": "a506dcd9ef78f3c12198566414d30f46"}, {"bike_id": "dc66bdab49bb7c7f7297b6bd5d260f76", "type": "electric_scooter", "is_disabled": 0, "lat": 38.921343666666665, "rental_uris": {"ios": "https://dc.lft.to/lastmile_qr_scan", "android": "https://dc.lft.to/lastmile_qr_scan"}, "is_reserved": 0, "fusion_lon": 0.0, "fusion_lat": 0.0, "lon": -77.0181445, "name": "dc66bdab49bb7c7f7297b6bd5d260f76"}, {"bike_id": "3ea83b0443770ae3cef0e76a61390263", "type": "electric_scooter", "is_disabled": 0, "lat": 38.928375333333335, "rental_uris": {"ios": "https://dc.lft.to/lastmile_qr_scan", "android": "https://dc.lft.to/lastmile_qr_scan"}, "is_reserved": 0, "fusion_lon": 0.0, "fusion_lat": 0.0, "lon": -77.055188, "name": "3ea83b0443770ae3cef0e76a61390263"}, {"bike_id": "e9dc1b78e6054b440b847095d0bed214", "type": "electric_scooter", "is_disabled": 0, "lat": 38.876518833333336, "rental_uris": {"ios": "https://dc.lft.to/lastmile_qr_scan", "android": "https://dc.lft.to/lastmile_qr_scan"}, "is_reserved": 0, "fusion_lon": 0.0, "fusion_lat": 0.0, "lon": -76.96507233333334, "name": "e9dc1b78e6054b440b847095d0bed214"}, {"bike_id": "6659cb316f48fcfc7681d71b13e2ca82", "type": "electric_scooter", "is_disabled": 0, "lat": 38.899084, "rental_uris": {"ios": "https://dc.lft.to/lastmile_qr_scan", "android": "https://dc.lft.to/lastmile_qr_scan"}, "is_reserved": 0, "fusion_lon": 0.0, "fusion_lat": 0.0, "lon": -77.02707016666666, "name": "6659cb316f48fcfc7681d71b13e2ca82"}, {"bike_id": "0032c906f962c67570f3df6ad092806e", "type": "electric_scooter", "is_disabled": 0, "lat": 38.9247885, "rental_uris": {"ios": "https://dc.lft.to/lastmile_qr_scan", "android": "https://dc.lft.to/lastmile_qr_scan"}, "is_reserved": 0, "fusion_lon": 0.0, "fusion_lat": 0.0, "lon": -77.02723266666666, "name": "0032c906f962c67570f3df6ad092806e"}, {"bike_id": "13f7b16ca89425d4ce368b6cdbe93137", "type": "electric_scooter", "is_disabled": 0, "lat": 38.921380666666664, "rental_uris": {"ios": "https://dc.lft.to/lastmile_qr_scan", "android": "https://dc.lft.to/lastmile_qr_scan"}, "is_reserved": 0, "fusion_lon": 0.0, "fusion_lat": 0.0, "lon": -77.04138916666666, "name": "13f7b16ca89425d4ce368b6cdbe93137"}, {"bike_id": "33f5480d3bee5b438d4c677106064bd9", "type": "electric_scooter", "is_disabled": 0, "lat": 38.934758333333335, "rental_uris": {"ios": "https://dc.lft.to/lastmile_qr_scan", "android": "https://dc.lft.to/lastmile_qr_scan"}, "is_reserved": 0, "fusion_lon": 0.0, "fusion_lat": 0.0, "lon": -77.07280466666667, "name": "33f5480d3bee5b438d4c677106064bd9"}, {"bike_id": "2099db2cac92ebde5a16c9581fc7f63e", "type": "electric_bike", "is_disabled": 0, "lat": 38.90863266666667, "rental_uris": {"ios": "https://dc.lft.to/lastmile_qr_scan", "android": "https://dc.lft.to/lastmile_qr_scan"}, "is_reserved": 0, "fusion_lon": 0.0, "fusion_lat": 0.0, "lon": -76.991425, "name": "2099db2cac92ebde5a16c9581fc7f63e"}, {"bike_id": "fa4dbc81f9daeaabd1a5c9b56423a7d7", "type": "electric_scooter", "is_disabled": 0, "lat": 38.92500533333333, "rental_uris": {"ios": "https://dc.lft.to/lastmile_qr_scan", "android": "https://dc.lft.to/lastmile_qr_scan"}, "is_reserved": 0, "fusion_lon": 0.0, "fusion_lat": 0.0, "lon": -77.03796766666666, "name": "fa4dbc81f9daeaabd1a5c9b56423a7d7"}, {"bike_id": "850e35dfcc1ef684201de5af5f8e3ef7", "type": "electric_scooter", "is_disabled": 0, "lat": 38.89842316666667, "rental_uris": {"ios": "https://dc.lft.to/lastmile_qr_scan", "android": "https://dc.lft.to/lastmile_qr_scan"}, "is_reserved": 0, "fusion_lon": 0.0, "fusion_lat": 0.0, "lon": -77.02207633333333, "name": "850e35dfcc1ef684201de5af5f8e3ef7"}, {"bike_id": "84f36b7fd7bf20f4c596eaa7f618767d", "type": "electric_scooter", "is_disabled": 0, "lat": 38.911087333333334, "rental_uris": {"ios": "https://dc.lft.to/lastmile_qr_scan", "android": "https://dc.lft.to/lastmile_qr_scan"}, "is_reserved": 0, "fusion_lon": 0.0, "fusion_lat": 0.0, "lon": -77.03837083333333, "name": "84f36b7fd7bf20f4c596eaa7f618767d"}, {"bike_id": "1f85b2850c1afd32cf87b6eaeba035f9", "type": "electric_scooter", "is_disabled": 0, "lat": 38.922427666666664, "rental_uris": {"ios": "https://dc.lft.to/lastmile_qr_scan", "android": "https://dc.lft.to/lastmile_qr_scan"}, "is_reserved": 0, "fusion_lon": 0.0, "fusion_lat": 0.0, "lon": -77.073159, "name": "1f85b2850c1afd32cf87b6eaeba035f9"}, {"bike_id": "5e6f0f9afe030f3a8f60c7437a928fb9", "type": "electric_scooter", "is_disabled": 0, "lat": 38.91104166666667, "rental_uris": {"ios": "https://dc.lft.to/lastmile_qr_scan", "android": "https://dc.lft.to/lastmile_qr_scan"}, "is_reserved": 0, "fusion_lon": 0.0, "fusion_lat": 0.0, "lon": -77.002213, "name": "5e6f0f9afe030f3a8f60c7437a928fb9"}, {"bike_id": "3266b24c90f9ed36f52f1e09bfbe1447", "type": "electric_scooter", "is_disabled": 0, "lat": 38.8443315, "rental_uris": {"ios": "https://dc.lft.to/lastmile_qr_scan", "android": "https://dc.lft.to/lastmile_qr_scan"}, "is_reserved": 0, "fusion_lon": 0.0, "fusion_lat": 0.0, "lon": -76.99871016666667, "name": "3266b24c90f9ed36f52f1e09bfbe1447"}, {"bike_id": "140232d168aa3a2ea0c0461311097e58", "type": "electric_scooter", "is_disabled": 0, "lat": 38.9049735, "rental_uris": {"ios": "https://dc.lft.to/lastmile_qr_scan", "android": "https://dc.lft.to/lastmile_qr_scan"}, "is_reserved": 0, "fusion_lon": 0.0, "fusion_lat": 0.0, "lon": -77.02707433333333, "name": "140232d168aa3a2ea0c0461311097e58"}, {"bike_id": "4c14aa75785b8dbfac78746bba34a89d", "type": "electric_scooter", "is_disabled": 0, "lat": 38.91372716666667, "rental_uris": {"ios": "https://dc.lft.to/lastmile_qr_scan", "android": "https://dc.lft.to/lastmile_qr_scan"}, "is_reserved": 0, "fusion_lon": 0.0, "fusion_lat": 0.0, "lon": -77.0301605, "name": "4c14aa75785b8dbfac78746bba34a89d"}, {"bike_id": "991f02bc59353fa1921c54c47f88eefa", "type": "electric_scooter", "is_disabled": 0, "lat": 38.900292, "rental_uris": {"ios": "https://dc.lft.to/lastmile_qr_scan", "android": "https://dc.lft.to/lastmile_qr_scan"}, "is_reserved": 0, "fusion_lon": 0.0, "fusion_lat": 0.0, "lon": -77.00687233333333, "name": "991f02bc59353fa1921c54c47f88eefa"}, {"bike_id": "8d314ad4fc14dd70845567dfc94b56f0", "type": "electric_scooter", "is_disabled": 0, "lat": 38.9126525, "rental_uris": {"ios": "https://dc.lft.to/lastmile_qr_scan", "android": "https://dc.lft.to/lastmile_qr_scan"}, "is_reserved": 0, "fusion_lon": 0.0, "fusion_lat": 0.0, "lon": -77.0302645, "name": "8d314ad4fc14dd70845567dfc94b56f0"}, {"bike_id": "85b703ae60867db40ecf18282e067913", "type": "electric_scooter", "is_disabled": 0, "lat": 38.914729, "rental_uris": {"ios": "https://dc.lft.to/lastmile_qr_scan", "android": "https://dc.lft.to/lastmile_qr_scan"}, "is_reserved": 0, "fusion_lon": 0.0, "fusion_lat": 0.0, "lon": -77.0321015, "name": "85b703ae60867db40ecf18282e067913"}, {"bike_id": "068dbf993441e4cf67b72b2833cc07b9", "type": "electric_scooter", "is_disabled": 0, "lat": 38.92803033333333, "rental_uris": {"ios": "https://dc.lft.to/lastmile_qr_scan", "android": "https://dc.lft.to/lastmile_qr_scan"}, "is_reserved": 0, "fusion_lon": 0.0, "fusion_lat": 0.0, "lon": -77.02703666666666, "name": "068dbf993441e4cf67b72b2833cc07b9"}, {"bike_id": "f2c4df2f6d86d398d267bb9fa6be593b", "type": "electric_scooter", "is_disabled": 0, "lat": 38.914165833333335, "rental_uris": {"ios": "https://dc.lft.to/lastmile_qr_scan", "android": "https://dc.lft.to/lastmile_qr_scan"}, "is_reserved": 0, "fusion_lon": 0.0, "fusion_lat": 0.0, "lon": -77.02252066666667, "name": "f2c4df2f6d86d398d267bb9fa6be593b"}, {"bike_id": "be6ac8000b3db72f7a61b77246dc675f", "type": "electric_scooter", "is_disabled": 0, "lat": 38.942902333333336, "rental_uris": {"ios": "https://dc.lft.to/lastmile_qr_scan", "android": "https://dc.lft.to/lastmile_qr_scan"}, "is_reserved": 0, "fusion_lon": 0.0, "fusion_lat": 0.0, "lon": -77.02179166666667, "name": "be6ac8000b3db72f7a61b77246dc675f"}, {"bike_id": "b4e209b56971994445dabe6d4f4c8c13", "type": "electric_scooter", "is_disabled": 0, "lat": 38.9278555, "rental_uris": {"ios": "https://dc.lft.to/lastmile_qr_scan", "android": "https://dc.lft.to/lastmile_qr_scan"}, "is_reserved": 0, "fusion_lon": 0.0, "fusion_lat": 0.0, "lon": -77.02620566666667, "name": "b4e209b56971994445dabe6d4f4c8c13"}, {"bike_id": "b4ab7f2b076ffec9b71047daaab68072", "type": "electric_scooter", "is_disabled": 0, "lat": 38.925952333333335, "rental_uris": {"ios": "https://dc.lft.to/lastmile_qr_scan", "android": "https://dc.lft.to/lastmile_qr_scan"}, "is_reserved": 0, "fusion_lon": 0.0, "fusion_lat": 0.0, "lon": -77.03741633333334, "name": "b4ab7f2b076ffec9b71047daaab68072"}, {"bike_id": "b93d7d76341b40f8b236b974d316122f", "type": "electric_scooter", "is_disabled": 0, "lat": 38.910534, "rental_uris": {"ios": "https://dc.lft.to/lastmile_qr_scan", "android": "https://dc.lft.to/lastmile_qr_scan"}, "is_reserved": 0, "fusion_lon": 0.0, "fusion_lat": 0.0, "lon": -77.05464216666667, "name": "b93d7d76341b40f8b236b974d316122f"}, {"bike_id": "c268af3981a7f7d1bb42724c5b985204", "type": "electric_scooter", "is_disabled": 0, "lat": 38.914079, "rental_uris": {"ios": "https://dc.lft.to/lastmile_qr_scan", "android": "https://dc.lft.to/lastmile_qr_scan"}, "is_reserved": 0, "fusion_lon": 0.0, "fusion_lat": 0.0, "lon": -77.03261466666666, "name": "c268af3981a7f7d1bb42724c5b985204"}, {"bike_id": "006a0ae054c6226bb48eeebcbc7ffdb5", "type": "electric_scooter", "is_disabled": 0, "lat": 38.92318433333333, "rental_uris": {"ios": "https://dc.lft.to/lastmile_qr_scan", "android": "https://dc.lft.to/lastmile_qr_scan"}, "is_reserved": 0, "fusion_lon": 0.0, "fusion_lat": 0.0, "lon": -77.02152283333334, "name": "006a0ae054c6226bb48eeebcbc7ffdb5"}, {"bike_id": "46e2f30baff44bcccd8e5809eab2f0ae", "type": "electric_bike", "is_disabled": 0, "lat": 38.84523166666666, "rental_uris": {"ios": "https://dc.lft.to/lastmile_qr_scan", "android": "https://dc.lft.to/lastmile_qr_scan"}, "is_reserved": 0, "fusion_lon": 0.0, "fusion_lat": 0.0, "lon": -76.97401283333333, "name": "46e2f30baff44bcccd8e5809eab2f0ae"}, {"bike_id": "1580dbf45250141c1dca511b46f56424", "type": "electric_scooter", "is_disabled": 0, "lat": 38.92941166666667, "rental_uris": {"ios": "https://dc.lft.to/lastmile_qr_scan", "android": "https://dc.lft.to/lastmile_qr_scan"}, "is_reserved": 0, "fusion_lon": 0.0, "fusion_lat": 0.0, "lon": -77.03277566666667, "name": "1580dbf45250141c1dca511b46f56424"}, {"bike_id": "dcc096f9aa149a0f39092f90fd005399", "type": "electric_scooter", "is_disabled": 0, "lat": 38.93207483333333, "rental_uris": {"ios": "https://dc.lft.to/lastmile_qr_scan", "android": "https://dc.lft.to/lastmile_qr_scan"}, "is_reserved": 0, "fusion_lon": 0.0, "fusion_lat": 0.0, "lon": -77.03518566666666, "name": "dcc096f9aa149a0f39092f90fd005399"}, {"bike_id": "60013fddcf7deb81a055a25fd3e1e0e4", "type": "electric_scooter", "is_disabled": 0, "lat": 38.911468166666666, "rental_uris": {"ios": "https://dc.lft.to/lastmile_qr_scan", "android": "https://dc.lft.to/lastmile_qr_scan"}, "is_reserved": 0, "fusion_lon": 0.0, "fusion_lat": 0.0, "lon": -77.03847533333334, "name": "60013fddcf7deb81a055a25fd3e1e0e4"}, {"bike_id": "d8f62f7d982c87b411ab7d9015305a14", "type": "electric_scooter", "is_disabled": 0, "lat": 38.936749166666665, "rental_uris": {"ios": "https://dc.lft.to/lastmile_qr_scan", "android": "https://dc.lft.to/lastmile_qr_scan"}, "is_reserved": 0, "fusion_lon": 0.0, "fusion_lat": 0.0, "lon": -77.02461666666666, "name": "d8f62f7d982c87b411ab7d9015305a14"}, {"bike_id": "5f247edb2a10e0810d62cc95affd96fe", "type": "electric_scooter", "is_disabled": 0, "lat": 38.898582833333336, "rental_uris": {"ios": "https://dc.lft.to/lastmile_qr_scan", "android": "https://dc.lft.to/lastmile_qr_scan"}, "is_reserved": 0, "fusion_lon": 0.0, "fusion_lat": 0.0, "lon": -77.04081183333334, "name": "5f247edb2a10e0810d62cc95affd96fe"}, {"bike_id": "71da2ff7ff4e7a90d9aa7abc581863e5", "type": "electric_scooter", "is_disabled": 0, "lat": 38.9139115, "rental_uris": {"ios": "https://dc.lft.to/lastmile_qr_scan", "android": "https://dc.lft.to/lastmile_qr_scan"}, "is_reserved": 0, "fusion_lon": 0.0, "fusion_lat": 0.0, "lon": -77.03212783333333, "name": "71da2ff7ff4e7a90d9aa7abc581863e5"}, {"bike_id": "5c5901e258d130b7ea691dcb13f3a3c0", "type": "electric_scooter", "is_disabled": 0, "lat": 38.871785, "rental_uris": {"ios": "https://dc.lft.to/lastmile_qr_scan", "android": "https://dc.lft.to/lastmile_qr_scan"}, "is_reserved": 0, "fusion_lon": 0.0, "fusion_lat": 0.0, "lon": -77.006175, "name": "5c5901e258d130b7ea691dcb13f3a3c0"}, {"bike_id": "dcd56ac22c8cf7e0642090fd07c484e5", "type": "electric_scooter", "is_disabled": 0, "lat": 38.94998866666667, "rental_uris": {"ios": "https://dc.lft.to/lastmile_qr_scan", "android": "https://dc.lft.to/lastmile_qr_scan"}, "is_reserved": 0, "fusion_lon": 0.0, "fusion_lat": 0.0, "lon": -77.01561833333334, "name": "dcd56ac22c8cf7e0642090fd07c484e5"}, {"bike_id": "f4fc44598a2d4fb128caea0a3764e4fd", "type": "electric_bike", "is_disabled": 0, "lat": 38.993029166666666, "rental_uris": {"ios": "https://dc.lft.to/lastmile_qr_scan", "android": "https://dc.lft.to/lastmile_qr_scan"}, "is_reserved": 0, "fusion_lon": 0.0, "fusion_lat": 0.0, "lon": -77.02514966666666, "name": "f4fc44598a2d4fb128caea0a3764e4fd"}, {"bike_id": "111696ab40c87e454aa3b1cdadc51f9b", "type": "electric_scooter", "is_disabled": 0, "lat": 38.89010116666667, "rental_uris": {"ios": "https://dc.lft.to/lastmile_qr_scan", "android": "https://dc.lft.to/lastmile_qr_scan"}, "is_reserved": 0, "fusion_lon": 0.0, "fusion_lat": 0.0, "lon": -76.93746566666667, "name": "111696ab40c87e454aa3b1cdadc51f9b"}, {"bike_id": "0922137202e41c5f7635dfe3ae3cc672", "type": "electric_scooter", "is_disabled": 0, "lat": 38.91554933333333, "rental_uris": {"ios": "https://dc.lft.to/lastmile_qr_scan", "android": "https://dc.lft.to/lastmile_qr_scan"}, "is_reserved": 0, "fusion_lon": 0.0, "fusion_lat": 0.0, "lon": -77.03174916666667, "name": "0922137202e41c5f7635dfe3ae3cc672"}, {"bike_id": "a290c03400536b5ccbce685f5362f7c0", "type": "electric_scooter", "is_disabled": 0, "lat": 38.895004166666666, "rental_uris": {"ios": "https://dc.lft.to/lastmile_qr_scan", "android": "https://dc.lft.to/lastmile_qr_scan"}, "is_reserved": 0, "fusion_lon": 0.0, "fusion_lat": 0.0, "lon": -77.01084766666666, "name": "a290c03400536b5ccbce685f5362f7c0"}, {"bike_id": "06091859781683699cc704fae90ade21", "type": "electric_scooter", "is_disabled": 0, "lat": 38.862452833333336, "rental_uris": {"ios": "https://dc.lft.to/lastmile_qr_scan", "android": "https://dc.lft.to/lastmile_qr_scan"}, "is_reserved": 0, "fusion_lon": 0.0, "fusion_lat": 0.0, "lon": -76.9949975, "name": "06091859781683699cc704fae90ade21"}, {"bike_id": "1c0f9d25f72396be7dc2ce5ba1dc2c2d", "type": "electric_scooter", "is_disabled": 0, "lat": 38.9231765, "rental_uris": {"ios": "https://dc.lft.to/lastmile_qr_scan", "android": "https://dc.lft.to/lastmile_qr_scan"}, "is_reserved": 0, "fusion_lon": 0.0, "fusion_lat": 0.0, "lon": -77.03906666666667, "name": "1c0f9d25f72396be7dc2ce5ba1dc2c2d"}, {"bike_id": "753018b442f8932bd43a8a027a5b009d", "type": "electric_scooter", "is_disabled": 0, "lat": 38.87663416666667, "rental_uris": {"ios": "https://dc.lft.to/lastmile_qr_scan", "android": "https://dc.lft.to/lastmile_qr_scan"}, "is_reserved": 0, "fusion_lon": 0.0, "fusion_lat": 0.0, "lon": -77.00730916666667, "name": "753018b442f8932bd43a8a027a5b009d"}, {"bike_id": "816a89a1e4e66c401abe46f72534749e", "type": "electric_scooter", "is_disabled": 0, "lat": 38.902050833333334, "rental_uris": {"ios": "https://dc.lft.to/lastmile_qr_scan", "android": "https://dc.lft.to/lastmile_qr_scan"}, "is_reserved": 0, "fusion_lon": 0.0, "fusion_lat": 0.0, "lon": -77.04114666666666, "name": "816a89a1e4e66c401abe46f72534749e"}, {"bike_id": "4f940ef5d20ef709de667617aff17086", "type": "electric_scooter", "is_disabled": 0, "lat": 38.9039435, "rental_uris": {"ios": "https://dc.lft.to/lastmile_qr_scan", "android": "https://dc.lft.to/lastmile_qr_scan"}, "is_reserved": 0, "fusion_lon": 0.0, "fusion_lat": 0.0, "lon": -77.01783533333334, "name": "4f940ef5d20ef709de667617aff17086"}, {"bike_id": "773557063bc7dc3af432d9cc5d804a6c", "type": "electric_scooter", "is_disabled": 0, "lat": 38.87475466666667, "rental_uris": {"ios": "https://dc.lft.to/lastmile_qr_scan", "android": "https://dc.lft.to/lastmile_qr_scan"}, "is_reserved": 0, "fusion_lon": 0.0, "fusion_lat": 0.0, "lon": -77.01072566666667, "name": "773557063bc7dc3af432d9cc5d804a6c"}, {"bike_id": "301154625186a41894aadabd9f5edf5a", "type": "electric_scooter", "is_disabled": 0, "lat": 38.887359833333335, "rental_uris": {"ios": "https://dc.lft.to/lastmile_qr_scan", "android": "https://dc.lft.to/lastmile_qr_scan"}, "is_reserved": 0, "fusion_lon": 0.0, "fusion_lat": 0.0, "lon": -77.0154045, "name": "301154625186a41894aadabd9f5edf5a"}, {"bike_id": "98ba0736cfd790867f622ea1a8c3a3c6", "type": "electric_scooter", "is_disabled": 0, "lat": 38.928616166666664, "rental_uris": {"ios": "https://dc.lft.to/lastmile_qr_scan", "android": "https://dc.lft.to/lastmile_qr_scan"}, "is_reserved": 0, "fusion_lon": 0.0, "fusion_lat": 0.0, "lon": -77.02306416666667, "name": "98ba0736cfd790867f622ea1a8c3a3c6"}, {"bike_id": "31ecf20fca3884af48971141f4674b92", "type": "electric_scooter", "is_disabled": 0, "lat": 38.93651783333333, "rental_uris": {"ios": "https://dc.lft.to/lastmile_qr_scan", "android": "https://dc.lft.to/lastmile_qr_scan"}, "is_reserved": 0, "fusion_lon": 0.0, "fusion_lat": 0.0, "lon": -77.02640833333334, "name": "31ecf20fca3884af48971141f4674b92"}, {"bike_id": "2358618310870ebc91f5821c9b820d42", "type": "electric_scooter", "is_disabled": 0, "lat": 38.890191333333334, "rental_uris": {"ios": "https://dc.lft.to/lastmile_qr_scan", "android": "https://dc.lft.to/lastmile_qr_scan"}, "is_reserved": 0, "fusion_lon": 0.0, "fusion_lat": 0.0, "lon": -76.93702, "name": "2358618310870ebc91f5821c9b820d42"}, {"bike_id": "9759001a914f7794c57a20228e670b7c", "type": "electric_bike", "is_disabled": 0, "lat": 38.83854016666667, "rental_uris": {"ios": "https://dc.lft.to/lastmile_qr_scan", "android": "https://dc.lft.to/lastmile_qr_scan"}, "is_reserved": 0, "fusion_lon": 0.0, "fusion_lat": 0.0, "lon": -77.05043183333333, "name": "9759001a914f7794c57a20228e670b7c"}, {"bike_id": "8e1272caeace4f007c1db57c382e8438", "type": "electric_scooter", "is_disabled": 0, "lat": 38.903787333333334, "rental_uris": {"ios": "https://dc.lft.to/lastmile_qr_scan", "android": "https://dc.lft.to/lastmile_qr_scan"}, "is_reserved": 0, "fusion_lon": 0.0, "fusion_lat": 0.0, "lon": -76.98208066666666, "name": "8e1272caeace4f007c1db57c382e8438"}, {"bike_id": "fabdf4eed8317926eb8ab266978aafb3", "type": "electric_scooter", "is_disabled": 0, "lat": 38.918217166666665, "rental_uris": {"ios": "https://dc.lft.to/lastmile_qr_scan", "android": "https://dc.lft.to/lastmile_qr_scan"}, "is_reserved": 0, "fusion_lon": 0.0, "fusion_lat": 0.0, "lon": -77.024259, "name": "fabdf4eed8317926eb8ab266978aafb3"}, {"bike_id": "73cd309c6ddbebcbee66e590f310086d", "type": "electric_scooter", "is_disabled": 0, "lat": 38.909772333333336, "rental_uris": {"ios": "https://dc.lft.to/lastmile_qr_scan", "android": "https://dc.lft.to/lastmile_qr_scan"}, "is_reserved": 0, "fusion_lon": 0.0, "fusion_lat": 0.0, "lon": -77.02806533333333, "name": "73cd309c6ddbebcbee66e590f310086d"}, {"bike_id": "83b62f9ba382d8387c4bbc0202ef4ba1", "type": "electric_scooter", "is_disabled": 0, "lat": 38.884319166666664, "rental_uris": {"ios": "https://dc.lft.to/lastmile_qr_scan", "android": "https://dc.lft.to/lastmile_qr_scan"}, "is_reserved": 0, "fusion_lon": 0.0, "fusion_lat": 0.0, "lon": -76.9575015, "name": "83b62f9ba382d8387c4bbc0202ef4ba1"}, {"bike_id": "34e224ffd8659785b374eef8fa8e6eab", "type": "electric_scooter", "is_disabled": 0, "lat": 38.912399666666666, "rental_uris": {"ios": "https://dc.lft.to/lastmile_qr_scan", "android": "https://dc.lft.to/lastmile_qr_scan"}, "is_reserved": 0, "fusion_lon": 0.0, "fusion_lat": 0.0, "lon": -77.00923983333334, "name": "34e224ffd8659785b374eef8fa8e6eab"}, {"bike_id": "e68983c0727a67648f3373ae6818ed66", "type": "electric_scooter", "is_disabled": 0, "lat": 38.9297125, "rental_uris": {"ios": "https://dc.lft.to/lastmile_qr_scan", "android": "https://dc.lft.to/lastmile_qr_scan"}, "is_reserved": 0, "fusion_lon": 0.0, "fusion_lat": 0.0, "lon": -77.03188133333333, "name": "e68983c0727a67648f3373ae6818ed66"}, {"bike_id": "fce6e9a0956c48f6394744e0331baa10", "type": "electric_scooter", "is_disabled": 0, "lat": 38.918226, "rental_uris": {"ios": "https://dc.lft.to/lastmile_qr_scan", "android": "https://dc.lft.to/lastmile_qr_scan"}, "is_reserved": 0, "fusion_lon": 0.0, "fusion_lat": 0.0, "lon": -77.02422766666666, "name": "fce6e9a0956c48f6394744e0331baa10"}, {"bike_id": "27270bae79e85706808670ac6504ca35", "type": "electric_scooter", "is_disabled": 0, "lat": 38.957328833333335, "rental_uris": {"ios": "https://dc.lft.to/lastmile_qr_scan", "android": "https://dc.lft.to/lastmile_qr_scan"}, "is_reserved": 0, "fusion_lon": 0.0, "fusion_lat": 0.0, "lon": -77.02422716666666, "name": "27270bae79e85706808670ac6504ca35"}, {"bike_id": "2f72e3bed1ac2bd4d8a06ac180880e6a", "type": "electric_scooter", "is_disabled": 0, "lat": 38.91957766666667, "rental_uris": {"ios": "https://dc.lft.to/lastmile_qr_scan", "android": "https://dc.lft.to/lastmile_qr_scan"}, "is_reserved": 0, "fusion_lon": 0.0, "fusion_lat": 0.0, "lon": -77.04505083333333, "name": "2f72e3bed1ac2bd4d8a06ac180880e6a"}, {"bike_id": "b0cb1ba56a24e310275d7a064cc12792", "type": "electric_scooter", "is_disabled": 0, "lat": 38.89884816666667, "rental_uris": {"ios": "https://dc.lft.to/lastmile_qr_scan", "android": "https://dc.lft.to/lastmile_qr_scan"}, "is_reserved": 0, "fusion_lon": 0.0, "fusion_lat": 0.0, "lon": -76.9317805, "name": "b0cb1ba56a24e310275d7a064cc12792"}, {"bike_id": "65c5b4bc1dd46fd6b577c16b4c9a234f", "type": "electric_bike", "is_disabled": 0, "lat": 38.90586583333334, "rental_uris": {"ios": "https://dc.lft.to/lastmile_qr_scan", "android": "https://dc.lft.to/lastmile_qr_scan"}, "is_reserved": 0, "fusion_lon": 0.0, "fusion_lat": 0.0, "lon": -77.06526366666667, "name": "65c5b4bc1dd46fd6b577c16b4c9a234f"}, {"bike_id": "84814e11f7b6995aae6de98f39f53f6a", "type": "electric_scooter", "is_disabled": 0, "lat": 38.9203985, "rental_uris": {"ios": "https://dc.lft.to/lastmile_qr_scan", "android": "https://dc.lft.to/lastmile_qr_scan"}, "is_reserved": 0, "fusion_lon": 0.0, "fusion_lat": 0.0, "lon": -77.02191833333333, "name": "84814e11f7b6995aae6de98f39f53f6a"}, {"bike_id": "750f1aa3ee88a459f37ebc52f6355501", "type": "electric_scooter", "is_disabled": 0, "lat": 38.944162, "rental_uris": {"ios": "https://dc.lft.to/lastmile_qr_scan", "android": "https://dc.lft.to/lastmile_qr_scan"}, "is_reserved": 0, "fusion_lon": 0.0, "fusion_lat": 0.0, "lon": -77.06324716666667, "name": "750f1aa3ee88a459f37ebc52f6355501"}, {"bike_id": "a6fed27f4c356cb81b8aeab9dcfd6e1c", "type": "electric_scooter", "is_disabled": 0, "lat": 38.905207, "rental_uris": {"ios": "https://dc.lft.to/lastmile_qr_scan", "android": "https://dc.lft.to/lastmile_qr_scan"}, "is_reserved": 0, "fusion_lon": 0.0, "fusion_lat": 0.0, "lon": -77.0638765, "name": "a6fed27f4c356cb81b8aeab9dcfd6e1c"}, {"bike_id": "5abcfb1add46ff574438eb4cecb301bb", "type": "electric_scooter", "is_disabled": 0, "lat": 38.912511333333335, "rental_uris": {"ios": "https://dc.lft.to/lastmile_qr_scan", "android": "https://dc.lft.to/lastmile_qr_scan"}, "is_reserved": 0, "fusion_lon": 0.0, "fusion_lat": 0.0, "lon": -77.001221, "name": "5abcfb1add46ff574438eb4cecb301bb"}, {"bike_id": "8dc0bbf168f59d76cecf4189bf25bb44", "type": "electric_scooter", "is_disabled": 0, "lat": 38.90556316666667, "rental_uris": {"ios": "https://dc.lft.to/lastmile_qr_scan", "android": "https://dc.lft.to/lastmile_qr_scan"}, "is_reserved": 0, "fusion_lon": 0.0, "fusion_lat": 0.0, "lon": -77.04550333333333, "name": "8dc0bbf168f59d76cecf4189bf25bb44"}, {"bike_id": "16a6da8de111cb2deef8c0a97db879b1", "type": "electric_scooter", "is_disabled": 0, "lat": 38.92915, "rental_uris": {"ios": "https://dc.lft.to/lastmile_qr_scan", "android": "https://dc.lft.to/lastmile_qr_scan"}, "is_reserved": 0, "fusion_lon": 0.0, "fusion_lat": 0.0, "lon": -77.020935, "name": "16a6da8de111cb2deef8c0a97db879b1"}, {"bike_id": "ca856b666b0ac86b2fa1c36f8635de02", "type": "electric_scooter", "is_disabled": 0, "lat": 38.92384633333333, "rental_uris": {"ios": "https://dc.lft.to/lastmile_qr_scan", "android": "https://dc.lft.to/lastmile_qr_scan"}, "is_reserved": 0, "fusion_lon": 0.0, "fusion_lat": 0.0, "lon": -77.04473233333333, "name": "ca856b666b0ac86b2fa1c36f8635de02"}, {"bike_id": "fda6ecfc757d2c3b7c8f36726153135e", "type": "electric_scooter", "is_disabled": 0, "lat": 38.907317166666665, "rental_uris": {"ios": "https://dc.lft.to/lastmile_qr_scan", "android": "https://dc.lft.to/lastmile_qr_scan"}, "is_reserved": 0, "fusion_lon": 0.0, "fusion_lat": 0.0, "lon": -77.0416215, "name": "fda6ecfc757d2c3b7c8f36726153135e"}, {"bike_id": "c3e6b25bc7eae2c6c7dd8e2e9a7ed108", "type": "electric_scooter", "is_disabled": 0, "lat": 38.8802165, "rental_uris": {"ios": "https://dc.lft.to/lastmile_qr_scan", "android": "https://dc.lft.to/lastmile_qr_scan"}, "is_reserved": 0, "fusion_lon": 0.0, "fusion_lat": 0.0, "lon": -77.0058335, "name": "c3e6b25bc7eae2c6c7dd8e2e9a7ed108"}, {"bike_id": "a87e781e4eecc28f0d34d247e3dae416", "type": "electric_scooter", "is_disabled": 0, "lat": 38.865048, "rental_uris": {"ios": "https://dc.lft.to/lastmile_qr_scan", "android": "https://dc.lft.to/lastmile_qr_scan"}, "is_reserved": 0, "fusion_lon": 0.0, "fusion_lat": 0.0, "lon": -76.99002716666666, "name": "a87e781e4eecc28f0d34d247e3dae416"}, {"bike_id": "9a5d25c255f7d82cdc5e893ecf66ed68", "type": "electric_scooter", "is_disabled": 0, "lat": 38.903248, "rental_uris": {"ios": "https://dc.lft.to/lastmile_qr_scan", "android": "https://dc.lft.to/lastmile_qr_scan"}, "is_reserved": 0, "fusion_lon": 0.0, "fusion_lat": 0.0, "lon": -76.98296833333333, "name": "9a5d25c255f7d82cdc5e893ecf66ed68"}, {"bike_id": "9c20b0640b9e98145d254b5f137e0d97", "type": "electric_scooter", "is_disabled": 0, "lat": 38.92333, "rental_uris": {"ios": "https://dc.lft.to/lastmile_qr_scan", "android": "https://dc.lft.to/lastmile_qr_scan"}, "is_reserved": 0, "fusion_lon": 0.0, "fusion_lat": 0.0, "lon": -77.03537583333333, "name": "9c20b0640b9e98145d254b5f137e0d97"}, {"bike_id": "05b2f6a8a6040c96848c82f837cfd33b", "type": "electric_scooter", "is_disabled": 0, "lat": 38.9055965, "rental_uris": {"ios": "https://dc.lft.to/lastmile_qr_scan", "android": "https://dc.lft.to/lastmile_qr_scan"}, "is_reserved": 0, "fusion_lon": 0.0, "fusion_lat": 0.0, "lon": -77.01471883333333, "name": "05b2f6a8a6040c96848c82f837cfd33b"}, {"bike_id": "8b3cdd052ee8331fe0597f336f8a4454", "type": "electric_scooter", "is_disabled": 0, "lat": 38.916080666666666, "rental_uris": {"ios": "https://dc.lft.to/lastmile_qr_scan", "android": "https://dc.lft.to/lastmile_qr_scan"}, "is_reserved": 0, "fusion_lon": 0.0, "fusion_lat": 0.0, "lon": -77.03389216666666, "name": "8b3cdd052ee8331fe0597f336f8a4454"}, {"bike_id": "479348d7d01841fd30278cdaab67ba7f", "type": "electric_scooter", "is_disabled": 0, "lat": 38.93291166666667, "rental_uris": {"ios": "https://dc.lft.to/lastmile_qr_scan", "android": "https://dc.lft.to/lastmile_qr_scan"}, "is_reserved": 0, "fusion_lon": 0.0, "fusion_lat": 0.0, "lon": -77.03540483333333, "name": "479348d7d01841fd30278cdaab67ba7f"}, {"bike_id": "7480b2f694fee589e4e536db13811b5f", "type": "electric_scooter", "is_disabled": 0, "lat": 38.92271483333333, "rental_uris": {"ios": "https://dc.lft.to/lastmile_qr_scan", "android": "https://dc.lft.to/lastmile_qr_scan"}, "is_reserved": 0, "fusion_lon": 0.0, "fusion_lat": 0.0, "lon": -77.04242766666667, "name": "7480b2f694fee589e4e536db13811b5f"}, {"bike_id": "fd2ad19fe344bc52b714304f84122a63", "type": "electric_scooter", "is_disabled": 0, "lat": 38.8747745, "rental_uris": {"ios": "https://dc.lft.to/lastmile_qr_scan", "android": "https://dc.lft.to/lastmile_qr_scan"}, "is_reserved": 0, "fusion_lon": 0.0, "fusion_lat": 0.0, "lon": -77.0088775, "name": "fd2ad19fe344bc52b714304f84122a63"}, {"bike_id": "1fa2fdf867018272b653fd62ced218d4", "type": "electric_scooter", "is_disabled": 0, "lat": 38.8935685, "rental_uris": {"ios": "https://dc.lft.to/lastmile_qr_scan", "android": "https://dc.lft.to/lastmile_qr_scan"}, "is_reserved": 0, "fusion_lon": 0.0, "fusion_lat": 0.0, "lon": -76.94935283333334, "name": "1fa2fdf867018272b653fd62ced218d4"}, {"bike_id": "2ce2bf320fe40ee6219f272d1eb113dd", "type": "electric_scooter", "is_disabled": 0, "lat": 38.915749166666664, "rental_uris": {"ios": "https://dc.lft.to/lastmile_qr_scan", "android": "https://dc.lft.to/lastmile_qr_scan"}, "is_reserved": 0, "fusion_lon": 0.0, "fusion_lat": 0.0, "lon": -77.05011783333333, "name": "2ce2bf320fe40ee6219f272d1eb113dd"}, {"bike_id": "a89a7ece591ba0470d6a5fb44d05b555", "type": "electric_scooter", "is_disabled": 0, "lat": 38.903689, "rental_uris": {"ios": "https://dc.lft.to/lastmile_qr_scan", "android": "https://dc.lft.to/lastmile_qr_scan"}, "is_reserved": 0, "fusion_lon": 0.0, "fusion_lat": 0.0, "lon": -76.999523, "name": "a89a7ece591ba0470d6a5fb44d05b555"}, {"bike_id": "56c442137d6667cf4bba7dccf9bbc622", "type": "electric_bike", "is_disabled": 0, "lat": 39.04314566666667, "rental_uris": {"ios": "https://dc.lft.to/lastmile_qr_scan", "android": "https://dc.lft.to/lastmile_qr_scan"}, "is_reserved": 0, "fusion_lon": 0.0, "fusion_lat": 0.0, "lon": -77.05165033333333, "name": "56c442137d6667cf4bba7dccf9bbc622"}, {"bike_id": "e892338af7f41787a3a76fb7f8931506", "type": "electric_scooter", "is_disabled": 0, "lat": 38.92810766666667, "rental_uris": {"ios": "https://dc.lft.to/lastmile_qr_scan", "android": "https://dc.lft.to/lastmile_qr_scan"}, "is_reserved": 0, "fusion_lon": 0.0, "fusion_lat": 0.0, "lon": -77.03224166666666, "name": "e892338af7f41787a3a76fb7f8931506"}, {"bike_id": "6cff297d432f6013537514cb2cfe019e", "type": "electric_scooter", "is_disabled": 0, "lat": 38.918103333333335, "rental_uris": {"ios": "https://dc.lft.to/lastmile_qr_scan", "android": "https://dc.lft.to/lastmile_qr_scan"}, "is_reserved": 0, "fusion_lon": 0.0, "fusion_lat": 0.0, "lon": -77.02488283333334, "name": "6cff297d432f6013537514cb2cfe019e"}, {"bike_id": "d39d2c88add6b1b2ac1719c980794145", "type": "electric_scooter", "is_disabled": 0, "lat": 38.8715785, "rental_uris": {"ios": "https://dc.lft.to/lastmile_qr_scan", "android": "https://dc.lft.to/lastmile_qr_scan"}, "is_reserved": 0, "fusion_lon": 0.0, "fusion_lat": 0.0, "lon": -77.013533, "name": "d39d2c88add6b1b2ac1719c980794145"}, {"bike_id": "e45172ac52cfeb6a577ce4a26a7c6fb1", "type": "electric_bike", "is_disabled": 0, "lat": 38.823762333333335, "rental_uris": {"ios": "https://dc.lft.to/lastmile_qr_scan", "android": "https://dc.lft.to/lastmile_qr_scan"}, "is_reserved": 0, "fusion_lon": 0.0, "fusion_lat": 0.0, "lon": -77.00227783333334, "name": "e45172ac52cfeb6a577ce4a26a7c6fb1"}, {"bike_id": "183630f11452f955d370da1a368e5cff", "type": "electric_scooter", "is_disabled": 0, "lat": 38.889300166666665, "rental_uris": {"ios": "https://dc.lft.to/lastmile_qr_scan", "android": "https://dc.lft.to/lastmile_qr_scan"}, "is_reserved": 0, "fusion_lon": 0.0, "fusion_lat": 0.0, "lon": -76.93580416666667, "name": "183630f11452f955d370da1a368e5cff"}, {"bike_id": "d1eae94c391880ea4d8725dc24440b9d", "type": "electric_scooter", "is_disabled": 0, "lat": 38.88855233333334, "rental_uris": {"ios": "https://dc.lft.to/lastmile_qr_scan", "android": "https://dc.lft.to/lastmile_qr_scan"}, "is_reserved": 0, "fusion_lon": 0.0, "fusion_lat": 0.0, "lon": -77.00056683333334, "name": "d1eae94c391880ea4d8725dc24440b9d"}, {"bike_id": "6e10d9340fa4ef2daecab8938975d7ac", "type": "electric_scooter", "is_disabled": 0, "lat": 38.90209816666667, "rental_uris": {"ios": "https://dc.lft.to/lastmile_qr_scan", "android": "https://dc.lft.to/lastmile_qr_scan"}, "is_reserved": 0, "fusion_lon": 0.0, "fusion_lat": 0.0, "lon": -77.06135616666667, "name": "6e10d9340fa4ef2daecab8938975d7ac"}, {"bike_id": "88225399f7c1298abb95ed574f69808e", "type": "electric_scooter", "is_disabled": 0, "lat": 38.915105, "rental_uris": {"ios": "https://dc.lft.to/lastmile_qr_scan", "android": "https://dc.lft.to/lastmile_qr_scan"}, "is_reserved": 0, "fusion_lon": 0.0, "fusion_lat": 0.0, "lon": -77.021822, "name": "88225399f7c1298abb95ed574f69808e"}, {"bike_id": "89d402d7ac77f7e733a037bd94aae651", "type": "electric_scooter", "is_disabled": 0, "lat": 38.908662166666666, "rental_uris": {"ios": "https://dc.lft.to/lastmile_qr_scan", "android": "https://dc.lft.to/lastmile_qr_scan"}, "is_reserved": 0, "fusion_lon": 0.0, "fusion_lat": 0.0, "lon": -77.032277, "name": "89d402d7ac77f7e733a037bd94aae651"}, {"bike_id": "1c359534e816e8f12dc42d6ecdf93160", "type": "electric_scooter", "is_disabled": 0, "lat": 38.90975866666667, "rental_uris": {"ios": "https://dc.lft.to/lastmile_qr_scan", "android": "https://dc.lft.to/lastmile_qr_scan"}, "is_reserved": 0, "fusion_lon": 0.0, "fusion_lat": 0.0, "lon": -77.04875533333333, "name": "1c359534e816e8f12dc42d6ecdf93160"}, {"bike_id": "0ed4953780afef0caa9506faf1764d96", "type": "electric_scooter", "is_disabled": 0, "lat": 38.90353283333334, "rental_uris": {"ios": "https://dc.lft.to/lastmile_qr_scan", "android": "https://dc.lft.to/lastmile_qr_scan"}, "is_reserved": 0, "fusion_lon": 0.0, "fusion_lat": 0.0, "lon": -77.04299866666666, "name": "0ed4953780afef0caa9506faf1764d96"}, {"bike_id": "62e6dc28d3e50daf5f6fa634b83fc4d4", "type": "electric_scooter", "is_disabled": 0, "lat": 38.8463605, "rental_uris": {"ios": "https://dc.lft.to/lastmile_qr_scan", "android": "https://dc.lft.to/lastmile_qr_scan"}, "is_reserved": 0, "fusion_lon": 0.0, "fusion_lat": 0.0, "lon": -76.99136766666666, "name": "62e6dc28d3e50daf5f6fa634b83fc4d4"}, {"bike_id": "bb17ca861424c1502d5590ac7928e58e", "type": "electric_scooter", "is_disabled": 0, "lat": 38.914050833333334, "rental_uris": {"ios": "https://dc.lft.to/lastmile_qr_scan", "android": "https://dc.lft.to/lastmile_qr_scan"}, "is_reserved": 0, "fusion_lon": 0.0, "fusion_lat": 0.0, "lon": -77.03175816666666, "name": "bb17ca861424c1502d5590ac7928e58e"}, {"bike_id": "aaff44a2d59d4f6d236b770ba35922ab", "type": "electric_scooter", "is_disabled": 0, "lat": 38.9247145, "rental_uris": {"ios": "https://dc.lft.to/lastmile_qr_scan", "android": "https://dc.lft.to/lastmile_qr_scan"}, "is_reserved": 0, "fusion_lon": 0.0, "fusion_lat": 0.0, "lon": -77.02254, "name": "aaff44a2d59d4f6d236b770ba35922ab"}, {"bike_id": "32328325218f8962a24b4abb87fb194b", "type": "electric_scooter", "is_disabled": 0, "lat": 38.935409, "rental_uris": {"ios": "https://dc.lft.to/lastmile_qr_scan", "android": "https://dc.lft.to/lastmile_qr_scan"}, "is_reserved": 0, "fusion_lon": 0.0, "fusion_lat": 0.0, "lon": -77.05863583333333, "name": "32328325218f8962a24b4abb87fb194b"}, {"bike_id": "dba8e4fb4b5f3f3adcdfed43f3f1f930", "type": "electric_scooter", "is_disabled": 0, "lat": 38.9215125, "rental_uris": {"ios": "https://dc.lft.to/lastmile_qr_scan", "android": "https://dc.lft.to/lastmile_qr_scan"}, "is_reserved": 0, "fusion_lon": 0.0, "fusion_lat": 0.0, "lon": -77.04243216666667, "name": "dba8e4fb4b5f3f3adcdfed43f3f1f930"}, {"bike_id": "8a1d036c6f61b7bbf82e49d1c64c5aee", "type": "electric_scooter", "is_disabled": 0, "lat": 38.907032666666666, "rental_uris": {"ios": "https://dc.lft.to/lastmile_qr_scan", "android": "https://dc.lft.to/lastmile_qr_scan"}, "is_reserved": 0, "fusion_lon": 0.0, "fusion_lat": 0.0, "lon": -76.98698783333333, "name": "8a1d036c6f61b7bbf82e49d1c64c5aee"}, {"bike_id": "6c3dc10ff0cf8da4d933b946036978be", "type": "electric_scooter", "is_disabled": 0, "lat": 38.882986, "rental_uris": {"ios": "https://dc.lft.to/lastmile_qr_scan", "android": "https://dc.lft.to/lastmile_qr_scan"}, "is_reserved": 0, "fusion_lon": 0.0, "fusion_lat": 0.0, "lon": -76.9485365, "name": "6c3dc10ff0cf8da4d933b946036978be"}, {"bike_id": "54f81b843aa6f033aaccc0e56a2124ce", "type": "electric_scooter", "is_disabled": 0, "lat": 38.924658, "rental_uris": {"ios": "https://dc.lft.to/lastmile_qr_scan", "android": "https://dc.lft.to/lastmile_qr_scan"}, "is_reserved": 0, "fusion_lon": 0.0, "fusion_lat": 0.0, "lon": -77.02835916666666, "name": "54f81b843aa6f033aaccc0e56a2124ce"}, {"bike_id": "607daf9f8148fe952547c2d534e2d55b", "type": "electric_bike", "is_disabled": 0, "lat": 38.96956983333333, "rental_uris": {"ios": "https://dc.lft.to/lastmile_qr_scan", "android": "https://dc.lft.to/lastmile_qr_scan"}, "is_reserved": 0, "fusion_lon": 0.0, "fusion_lat": 0.0, "lon": -76.95752133333333, "name": "607daf9f8148fe952547c2d534e2d55b"}, {"bike_id": "edd88f4eef5b8e8fad26ff8f735cf663", "type": "electric_scooter", "is_disabled": 0, "lat": 38.9232105, "rental_uris": {"ios": "https://dc.lft.to/lastmile_qr_scan", "android": "https://dc.lft.to/lastmile_qr_scan"}, "is_reserved": 0, "fusion_lon": 0.0, "fusion_lat": 0.0, "lon": -77.056203, "name": "edd88f4eef5b8e8fad26ff8f735cf663"}, {"bike_id": "92426caa2745deaaea07f618bf456253", "type": "electric_scooter", "is_disabled": 0, "lat": 38.905821833333334, "rental_uris": {"ios": "https://dc.lft.to/lastmile_qr_scan", "android": "https://dc.lft.to/lastmile_qr_scan"}, "is_reserved": 0, "fusion_lon": 0.0, "fusion_lat": 0.0, "lon": -77.03001183333333, "name": "92426caa2745deaaea07f618bf456253"}, {"bike_id": "93dcde169f50472914e233c305861590", "type": "electric_scooter", "is_disabled": 0, "lat": 38.894041333333334, "rental_uris": {"ios": "https://dc.lft.to/lastmile_qr_scan", "android": "https://dc.lft.to/lastmile_qr_scan"}, "is_reserved": 0, "fusion_lon": 0.0, "fusion_lat": 0.0, "lon": -77.02126966666667, "name": "93dcde169f50472914e233c305861590"}, {"bike_id": "8205ceec9e83ae5a3e31e9249d051c1d", "type": "electric_scooter", "is_disabled": 0, "lat": 38.908317, "rental_uris": {"ios": "https://dc.lft.to/lastmile_qr_scan", "android": "https://dc.lft.to/lastmile_qr_scan"}, "is_reserved": 0, "fusion_lon": 0.0, "fusion_lat": 0.0, "lon": -77.04168216666666, "name": "8205ceec9e83ae5a3e31e9249d051c1d"}, {"bike_id": "e2705ec7f1f33039043092e6e908f2a7", "type": "electric_scooter", "is_disabled": 0, "lat": 38.900309166666666, "rental_uris": {"ios": "https://dc.lft.to/lastmile_qr_scan", "android": "https://dc.lft.to/lastmile_qr_scan"}, "is_reserved": 0, "fusion_lon": 0.0, "fusion_lat": 0.0, "lon": -77.0351885, "name": "e2705ec7f1f33039043092e6e908f2a7"}, {"bike_id": "770659299e47f658cdd453d64241bc0e", "type": "electric_scooter", "is_disabled": 0, "lat": 38.88147583333333, "rental_uris": {"ios": "https://dc.lft.to/lastmile_qr_scan", "android": "https://dc.lft.to/lastmile_qr_scan"}, "is_reserved": 0, "fusion_lon": 0.0, "fusion_lat": 0.0, "lon": -77.02754516666667, "name": "770659299e47f658cdd453d64241bc0e"}, {"bike_id": "fbacb8cd93d13f04a5b55ec4a8a05313", "type": "electric_scooter", "is_disabled": 0, "lat": 38.92264183333333, "rental_uris": {"ios": "https://dc.lft.to/lastmile_qr_scan", "android": "https://dc.lft.to/lastmile_qr_scan"}, "is_reserved": 0, "fusion_lon": 0.0, "fusion_lat": 0.0, "lon": -77.03397866666667, "name": "fbacb8cd93d13f04a5b55ec4a8a05313"}, {"bike_id": "e652c2c8766ed1948a46996b93a4fce7", "type": "electric_scooter", "is_disabled": 0, "lat": 38.90258883333333, "rental_uris": {"ios": "https://dc.lft.to/lastmile_qr_scan", "android": "https://dc.lft.to/lastmile_qr_scan"}, "is_reserved": 0, "fusion_lon": 0.0, "fusion_lat": 0.0, "lon": -77.038492, "name": "e652c2c8766ed1948a46996b93a4fce7"}, {"bike_id": "71a6b8633064b8f60b39cac2eaeba8f8", "type": "electric_scooter", "is_disabled": 0, "lat": 38.90121, "rental_uris": {"ios": "https://dc.lft.to/lastmile_qr_scan", "android": "https://dc.lft.to/lastmile_qr_scan"}, "is_reserved": 0, "fusion_lon": 0.0, "fusion_lat": 0.0, "lon": -77.04057966666667, "name": "71a6b8633064b8f60b39cac2eaeba8f8"}, {"bike_id": "ad8f10b91e828a2f3deb5fbecd446b8e", "type": "electric_bike", "is_disabled": 0, "lat": 38.904350666666666, "rental_uris": {"ios": "https://dc.lft.to/lastmile_qr_scan", "android": "https://dc.lft.to/lastmile_qr_scan"}, "is_reserved": 0, "fusion_lon": 0.0, "fusion_lat": 0.0, "lon": -77.06138216666666, "name": "ad8f10b91e828a2f3deb5fbecd446b8e"}, {"bike_id": "3c56e9cb5f82c51d583e827fd77b8697", "type": "electric_scooter", "is_disabled": 0, "lat": 38.911094, "rental_uris": {"ios": "https://dc.lft.to/lastmile_qr_scan", "android": "https://dc.lft.to/lastmile_qr_scan"}, "is_reserved": 0, "fusion_lon": 0.0, "fusion_lat": 0.0, "lon": -77.04905383333333, "name": "3c56e9cb5f82c51d583e827fd77b8697"}, {"bike_id": "834bdfbac89db6d896b27b8064661b69", "type": "electric_scooter", "is_disabled": 0, "lat": 38.90502333333333, "rental_uris": {"ios": "https://dc.lft.to/lastmile_qr_scan", "android": "https://dc.lft.to/lastmile_qr_scan"}, "is_reserved": 0, "fusion_lon": 0.0, "fusion_lat": 0.0, "lon": -77.06016316666667, "name": "834bdfbac89db6d896b27b8064661b69"}, {"bike_id": "d48e129de093b221dc289eec137fc4f3", "type": "electric_scooter", "is_disabled": 0, "lat": 38.91185016666667, "rental_uris": {"ios": "https://dc.lft.to/lastmile_qr_scan", "android": "https://dc.lft.to/lastmile_qr_scan"}, "is_reserved": 0, "fusion_lon": 0.0, "fusion_lat": 0.0, "lon": -77.02297383333334, "name": "d48e129de093b221dc289eec137fc4f3"}, {"bike_id": "1c20c037cfcd4a575bb74dc544a8af0d", "type": "electric_scooter", "is_disabled": 0, "lat": 38.84534333333333, "rental_uris": {"ios": "https://dc.lft.to/lastmile_qr_scan", "android": "https://dc.lft.to/lastmile_qr_scan"}, "is_reserved": 0, "fusion_lon": 0.0, "fusion_lat": 0.0, "lon": -76.98552633333334, "name": "1c20c037cfcd4a575bb74dc544a8af0d"}, {"bike_id": "c70517d50c8f594f3e3f2c8d373aeefd", "type": "electric_scooter", "is_disabled": 0, "lat": 38.90067, "rental_uris": {"ios": "https://dc.lft.to/lastmile_qr_scan", "android": "https://dc.lft.to/lastmile_qr_scan"}, "is_reserved": 0, "fusion_lon": 0.0, "fusion_lat": 0.0, "lon": -77.01787416666667, "name": "c70517d50c8f594f3e3f2c8d373aeefd"}, {"bike_id": "f984188e3a1aec3ca45e01b3305f661d", "type": "electric_scooter", "is_disabled": 0, "lat": 38.934699, "rental_uris": {"ios": "https://dc.lft.to/lastmile_qr_scan", "android": "https://dc.lft.to/lastmile_qr_scan"}, "is_reserved": 0, "fusion_lon": 0.0, "fusion_lat": 0.0, "lon": -77.072862, "name": "f984188e3a1aec3ca45e01b3305f661d"}, {"bike_id": "8c630fe54e3394dd57a26901072da159", "type": "electric_scooter", "is_disabled": 0, "lat": 38.902305, "rental_uris": {"ios": "https://dc.lft.to/lastmile_qr_scan", "android": "https://dc.lft.to/lastmile_qr_scan"}, "is_reserved": 0, "fusion_lon": 0.0, "fusion_lat": 0.0, "lon": -77.04680683333333, "name": "8c630fe54e3394dd57a26901072da159"}, {"bike_id": "09f8332040a30067aa55c32f8031a103", "type": "electric_bike", "is_disabled": 0, "lat": 38.8650825, "rental_uris": {"ios": "https://dc.lft.to/lastmile_qr_scan", "android": "https://dc.lft.to/lastmile_qr_scan"}, "is_reserved": 0, "fusion_lon": 0.0, "fusion_lat": 0.0, "lon": -76.973447, "name": "09f8332040a30067aa55c32f8031a103"}, {"bike_id": "cfbf81caef7053d5f043be25f2ae68c0", "type": "electric_scooter", "is_disabled": 0, "lat": 38.92221683333333, "rental_uris": {"ios": "https://dc.lft.to/lastmile_qr_scan", "android": "https://dc.lft.to/lastmile_qr_scan"}, "is_reserved": 0, "fusion_lon": 0.0, "fusion_lat": 0.0, "lon": -77.02376083333333, "name": "cfbf81caef7053d5f043be25f2ae68c0"}, {"bike_id": "b8a76532dc5b6a08aae96e2828ad047d", "type": "electric_scooter", "is_disabled": 0, "lat": 38.9026705, "rental_uris": {"ios": "https://dc.lft.to/lastmile_qr_scan", "android": "https://dc.lft.to/lastmile_qr_scan"}, "is_reserved": 0, "fusion_lon": 0.0, "fusion_lat": 0.0, "lon": -77.00344066666666, "name": "b8a76532dc5b6a08aae96e2828ad047d"}, {"bike_id": "554cb4e515b952510c1dd252a42ddf2a", "type": "electric_bike", "is_disabled": 0, "lat": 38.99089083333333, "rental_uris": {"ios": "https://dc.lft.to/lastmile_qr_scan", "android": "https://dc.lft.to/lastmile_qr_scan"}, "is_reserved": 0, "fusion_lon": 0.0, "fusion_lat": 0.0, "lon": -76.87498283333333, "name": "554cb4e515b952510c1dd252a42ddf2a"}, {"bike_id": "111382df208418b25611430736199879", "type": "electric_scooter", "is_disabled": 0, "lat": 38.843120666666664, "rental_uris": {"ios": "https://dc.lft.to/lastmile_qr_scan", "android": "https://dc.lft.to/lastmile_qr_scan"}, "is_reserved": 0, "fusion_lon": 0.0, "fusion_lat": 0.0, "lon": -76.9992845, "name": "111382df208418b25611430736199879"}, {"bike_id": "329e717ca9ee155c057dafd6bd8368e9", "type": "electric_scooter", "is_disabled": 0, "lat": 38.89997066666667, "rental_uris": {"ios": "https://dc.lft.to/lastmile_qr_scan", "android": "https://dc.lft.to/lastmile_qr_scan"}, "is_reserved": 0, "fusion_lon": 0.0, "fusion_lat": 0.0, "lon": -76.98158366666667, "name": "329e717ca9ee155c057dafd6bd8368e9"}, {"bike_id": "f88fa49c9b5fe9afb31ee9ced9d85b82", "type": "electric_scooter", "is_disabled": 0, "lat": 38.928989666666666, "rental_uris": {"ios": "https://dc.lft.to/lastmile_qr_scan", "android": "https://dc.lft.to/lastmile_qr_scan"}, "is_reserved": 0, "fusion_lon": 0.0, "fusion_lat": 0.0, "lon": -77.03263266666667, "name": "f88fa49c9b5fe9afb31ee9ced9d85b82"}, {"bike_id": "a48252af5a48ad0a80f27159c25bb50d", "type": "electric_bike", "is_disabled": 0, "lat": 38.93969283333333, "rental_uris": {"ios": "https://dc.lft.to/lastmile_qr_scan", "android": "https://dc.lft.to/lastmile_qr_scan"}, "is_reserved": 0, "fusion_lon": 0.0, "fusion_lat": 0.0, "lon": -77.05265433333334, "name": "a48252af5a48ad0a80f27159c25bb50d"}, {"bike_id": "5795599bb06008db6fe8f4b7e459b576", "type": "electric_scooter", "is_disabled": 0, "lat": 38.93773633333333, "rental_uris": {"ios": "https://dc.lft.to/lastmile_qr_scan", "android": "https://dc.lft.to/lastmile_qr_scan"}, "is_reserved": 0, "fusion_lon": 0.0, "fusion_lat": 0.0, "lon": -77.032877, "name": "5795599bb06008db6fe8f4b7e459b576"}, {"bike_id": "c28fe7f66514e408a141aec88a2c7f6e", "type": "electric_scooter", "is_disabled": 0, "lat": 38.92264, "rental_uris": {"ios": "https://dc.lft.to/lastmile_qr_scan", "android": "https://dc.lft.to/lastmile_qr_scan"}, "is_reserved": 0, "fusion_lon": 0.0, "fusion_lat": 0.0, "lon": -77.00045716666666, "name": "c28fe7f66514e408a141aec88a2c7f6e"}, {"bike_id": "480286049b891fdf0f4e199da16ff231", "type": "electric_scooter", "is_disabled": 0, "lat": 38.9247295, "rental_uris": {"ios": "https://dc.lft.to/lastmile_qr_scan", "android": "https://dc.lft.to/lastmile_qr_scan"}, "is_reserved": 0, "fusion_lon": 0.0, "fusion_lat": 0.0, "lon": -77.028383, "name": "480286049b891fdf0f4e199da16ff231"}, {"bike_id": "5ea7d95f42d5e1a95d40b693af9d85b4", "type": "electric_scooter", "is_disabled": 0, "lat": 38.94189766666667, "rental_uris": {"ios": "https://dc.lft.to/lastmile_qr_scan", "android": "https://dc.lft.to/lastmile_qr_scan"}, "is_reserved": 0, "fusion_lon": 0.0, "fusion_lat": 0.0, "lon": -77.02889933333333, "name": "5ea7d95f42d5e1a95d40b693af9d85b4"}, {"bike_id": "5183f4807dc4bcc4ed628eb604c2dcd6", "type": "electric_scooter", "is_disabled": 0, "lat": 38.9050115, "rental_uris": {"ios": "https://dc.lft.to/lastmile_qr_scan", "android": "https://dc.lft.to/lastmile_qr_scan"}, "is_reserved": 0, "fusion_lon": 0.0, "fusion_lat": 0.0, "lon": -77.02950483333333, "name": "5183f4807dc4bcc4ed628eb604c2dcd6"}, {"bike_id": "6b3fb10bbc44d10332d2bd3d142ab623", "type": "electric_scooter", "is_disabled": 0, "lat": 38.91116233333333, "rental_uris": {"ios": "https://dc.lft.to/lastmile_qr_scan", "android": "https://dc.lft.to/lastmile_qr_scan"}, "is_reserved": 0, "fusion_lon": 0.0, "fusion_lat": 0.0, "lon": -77.03734383333334, "name": "6b3fb10bbc44d10332d2bd3d142ab623"}, {"bike_id": "16fbcec634994aa4c53db0d6dd278d6d", "type": "electric_bike", "is_disabled": 0, "lat": 38.86194416666667, "rental_uris": {"ios": "https://dc.lft.to/lastmile_qr_scan", "android": "https://dc.lft.to/lastmile_qr_scan"}, "is_reserved": 0, "fusion_lon": 0.0, "fusion_lat": 0.0, "lon": -76.94810066666666, "name": "16fbcec634994aa4c53db0d6dd278d6d"}, {"bike_id": "40bd799038e568c5d8d3783055028a2f", "type": "electric_scooter", "is_disabled": 0, "lat": 38.882074, "rental_uris": {"ios": "https://dc.lft.to/lastmile_qr_scan", "android": "https://dc.lft.to/lastmile_qr_scan"}, "is_reserved": 0, "fusion_lon": 0.0, "fusion_lat": 0.0, "lon": -76.9892365, "name": "40bd799038e568c5d8d3783055028a2f"}, {"bike_id": "684095abb58cfd583c861340d67ec03d", "type": "electric_scooter", "is_disabled": 0, "lat": 38.923715666666666, "rental_uris": {"ios": "https://dc.lft.to/lastmile_qr_scan", "android": "https://dc.lft.to/lastmile_qr_scan"}, "is_reserved": 0, "fusion_lon": 0.0, "fusion_lat": 0.0, "lon": -77.02990883333334, "name": "684095abb58cfd583c861340d67ec03d"}, {"bike_id": "4c3e3e156c32c61b99318981583d8b36", "type": "electric_scooter", "is_disabled": 0, "lat": 38.938475, "rental_uris": {"ios": "https://dc.lft.to/lastmile_qr_scan", "android": "https://dc.lft.to/lastmile_qr_scan"}, "is_reserved": 0, "fusion_lon": 0.0, "fusion_lat": 0.0, "lon": -77.0327435, "name": "4c3e3e156c32c61b99318981583d8b36"}, {"bike_id": "092314a6afbf35e68f6a2eb078c2e86c", "type": "electric_scooter", "is_disabled": 0, "lat": 38.91334583333333, "rental_uris": {"ios": "https://dc.lft.to/lastmile_qr_scan", "android": "https://dc.lft.to/lastmile_qr_scan"}, "is_reserved": 0, "fusion_lon": 0.0, "fusion_lat": 0.0, "lon": -77.0423275, "name": "092314a6afbf35e68f6a2eb078c2e86c"}, {"bike_id": "d5b9a7d612acd79c8f7beb925e4383d3", "type": "electric_scooter", "is_disabled": 0, "lat": 38.898746, "rental_uris": {"ios": "https://dc.lft.to/lastmile_qr_scan", "android": "https://dc.lft.to/lastmile_qr_scan"}, "is_reserved": 0, "fusion_lon": 0.0, "fusion_lat": 0.0, "lon": -76.931883, "name": "d5b9a7d612acd79c8f7beb925e4383d3"}, {"bike_id": "08d11ec695469d2b44989f28742e5153", "type": "electric_scooter", "is_disabled": 0, "lat": 38.876576166666666, "rental_uris": {"ios": "https://dc.lft.to/lastmile_qr_scan", "android": "https://dc.lft.to/lastmile_qr_scan"}, "is_reserved": 0, "fusion_lon": 0.0, "fusion_lat": 0.0, "lon": -76.99642433333334, "name": "08d11ec695469d2b44989f28742e5153"}, {"bike_id": "7d363a9daa7feeab77ef9f45e8f10c48", "type": "electric_bike", "is_disabled": 0, "lat": 39.051055, "rental_uris": {"ios": "https://dc.lft.to/lastmile_qr_scan", "android": "https://dc.lft.to/lastmile_qr_scan"}, "is_reserved": 0, "fusion_lon": 0.0, "fusion_lat": 0.0, "lon": -77.117507, "name": "7d363a9daa7feeab77ef9f45e8f10c48"}, {"bike_id": "7d82b2ccdecb4a512df2844105d18d4f", "type": "electric_scooter", "is_disabled": 0, "lat": 38.920952, "rental_uris": {"ios": "https://dc.lft.to/lastmile_qr_scan", "android": "https://dc.lft.to/lastmile_qr_scan"}, "is_reserved": 0, "fusion_lon": 0.0, "fusion_lat": 0.0, "lon": -77.01704433333333, "name": "7d82b2ccdecb4a512df2844105d18d4f"}, {"bike_id": "0fc999a8ab3d64dca7fb2889f6cc2e24", "type": "electric_scooter", "is_disabled": 0, "lat": 38.88247116666667, "rental_uris": {"ios": "https://dc.lft.to/lastmile_qr_scan", "android": "https://dc.lft.to/lastmile_qr_scan"}, "is_reserved": 0, "fusion_lon": 0.0, "fusion_lat": 0.0, "lon": -76.99507033333333, "name": "0fc999a8ab3d64dca7fb2889f6cc2e24"}, {"bike_id": "59700bf04211d71bb8b942d09fa6fdbc", "type": "electric_scooter", "is_disabled": 0, "lat": 38.933178166666664, "rental_uris": {"ios": "https://dc.lft.to/lastmile_qr_scan", "android": "https://dc.lft.to/lastmile_qr_scan"}, "is_reserved": 0, "fusion_lon": 0.0, "fusion_lat": 0.0, "lon": -77.02750316666666, "name": "59700bf04211d71bb8b942d09fa6fdbc"}, {"bike_id": "2f2be779d73d8fe56b9cd03a933959e0", "type": "electric_scooter", "is_disabled": 0, "lat": 38.919642833333334, "rental_uris": {"ios": "https://dc.lft.to/lastmile_qr_scan", "android": "https://dc.lft.to/lastmile_qr_scan"}, "is_reserved": 0, "fusion_lon": 0.0, "fusion_lat": 0.0, "lon": -77.04237016666667, "name": "2f2be779d73d8fe56b9cd03a933959e0"}, {"bike_id": "8595653972b2ff32369fead8e39b09e5", "type": "electric_scooter", "is_disabled": 0, "lat": 38.922304833333335, "rental_uris": {"ios": "https://dc.lft.to/lastmile_qr_scan", "android": "https://dc.lft.to/lastmile_qr_scan"}, "is_reserved": 0, "fusion_lon": 0.0, "fusion_lat": 0.0, "lon": -76.97534583333334, "name": "8595653972b2ff32369fead8e39b09e5"}, {"bike_id": "3b418ac5351f8c2e16dad490734555a5", "type": "electric_scooter", "is_disabled": 0, "lat": 38.9090105, "rental_uris": {"ios": "https://dc.lft.to/lastmile_qr_scan", "android": "https://dc.lft.to/lastmile_qr_scan"}, "is_reserved": 0, "fusion_lon": 0.0, "fusion_lat": 0.0, "lon": -77.03189683333333, "name": "3b418ac5351f8c2e16dad490734555a5"}, {"bike_id": "10a65489d4843108d6bdb749d5d4a60e", "type": "electric_scooter", "is_disabled": 0, "lat": 38.9167715, "rental_uris": {"ios": "https://dc.lft.to/lastmile_qr_scan", "android": "https://dc.lft.to/lastmile_qr_scan"}, "is_reserved": 0, "fusion_lon": 0.0, "fusion_lat": 0.0, "lon": -77.029799, "name": "10a65489d4843108d6bdb749d5d4a60e"}, {"bike_id": "64690a994a2041e8e5adb0a282e4c428", "type": "electric_scooter", "is_disabled": 0, "lat": 38.898835, "rental_uris": {"ios": "https://dc.lft.to/lastmile_qr_scan", "android": "https://dc.lft.to/lastmile_qr_scan"}, "is_reserved": 0, "fusion_lon": 0.0, "fusion_lat": 0.0, "lon": -76.931771, "name": "64690a994a2041e8e5adb0a282e4c428"}, {"bike_id": "0fa7953315425ca624de979a9ad44b86", "type": "electric_scooter", "is_disabled": 0, "lat": 38.9027735, "rental_uris": {"ios": "https://dc.lft.to/lastmile_qr_scan", "android": "https://dc.lft.to/lastmile_qr_scan"}, "is_reserved": 0, "fusion_lon": 0.0, "fusion_lat": 0.0, "lon": -77.00358833333334, "name": "0fa7953315425ca624de979a9ad44b86"}, {"bike_id": "37f33be41ab1d88c9057db09553d3932", "type": "electric_scooter", "is_disabled": 0, "lat": 38.9080645, "rental_uris": {"ios": "https://dc.lft.to/lastmile_qr_scan", "android": "https://dc.lft.to/lastmile_qr_scan"}, "is_reserved": 0, "fusion_lon": 0.0, "fusion_lat": 0.0, "lon": -77.06383216666667, "name": "37f33be41ab1d88c9057db09553d3932"}, {"bike_id": "bbd7e2bf85dad6b64ea9afbf70a01ef2", "type": "electric_scooter", "is_disabled": 0, "lat": 38.933752, "rental_uris": {"ios": "https://dc.lft.to/lastmile_qr_scan", "android": "https://dc.lft.to/lastmile_qr_scan"}, "is_reserved": 0, "fusion_lon": 0.0, "fusion_lat": 0.0, "lon": -77.05741683333333, "name": "bbd7e2bf85dad6b64ea9afbf70a01ef2"}, {"bike_id": "1ffe7ae0bbbbd42606a7eedab0f6c02f", "type": "electric_scooter", "is_disabled": 0, "lat": 38.9257935, "rental_uris": {"ios": "https://dc.lft.to/lastmile_qr_scan", "android": "https://dc.lft.to/lastmile_qr_scan"}, "is_reserved": 0, "fusion_lon": 0.0, "fusion_lat": 0.0, "lon": -77.03059033333334, "name": "1ffe7ae0bbbbd42606a7eedab0f6c02f"}, {"bike_id": "0b1f0216951ad595e5ba8547642ca86c", "type": "electric_scooter", "is_disabled": 0, "lat": 38.906871833333334, "rental_uris": {"ios": "https://dc.lft.to/lastmile_qr_scan", "android": "https://dc.lft.to/lastmile_qr_scan"}, "is_reserved": 0, "fusion_lon": 0.0, "fusion_lat": 0.0, "lon": -77.0532825, "name": "0b1f0216951ad595e5ba8547642ca86c"}, {"bike_id": "f9d42710a00cc2619a4f73101564501f", "type": "electric_bike", "is_disabled": 0, "lat": 38.809030166666666, "rental_uris": {"ios": "https://dc.lft.to/lastmile_qr_scan", "android": "https://dc.lft.to/lastmile_qr_scan"}, "is_reserved": 0, "fusion_lon": 0.0, "fusion_lat": 0.0, "lon": -77.08660283333333, "name": "f9d42710a00cc2619a4f73101564501f"}, {"bike_id": "15740549dcc3ab70948e3b532b402786", "type": "electric_scooter", "is_disabled": 0, "lat": 38.9208635, "rental_uris": {"ios": "https://dc.lft.to/lastmile_qr_scan", "android": "https://dc.lft.to/lastmile_qr_scan"}, "is_reserved": 0, "fusion_lon": 0.0, "fusion_lat": 0.0, "lon": -77.02544433333334, "name": "15740549dcc3ab70948e3b532b402786"}, {"bike_id": "8f8691bca1232411f366de3a37d52cb1", "type": "electric_scooter", "is_disabled": 0, "lat": 38.90499466666667, "rental_uris": {"ios": "https://dc.lft.to/lastmile_qr_scan", "android": "https://dc.lft.to/lastmile_qr_scan"}, "is_reserved": 0, "fusion_lon": 0.0, "fusion_lat": 0.0, "lon": -77.02815016666666, "name": "8f8691bca1232411f366de3a37d52cb1"}, {"bike_id": "0ff47bc8f0eaa3d0f690f3f2814f82dc", "type": "electric_scooter", "is_disabled": 0, "lat": 38.92422233333333, "rental_uris": {"ios": "https://dc.lft.to/lastmile_qr_scan", "android": "https://dc.lft.to/lastmile_qr_scan"}, "is_reserved": 0, "fusion_lon": 0.0, "fusion_lat": 0.0, "lon": -77.02980933333333, "name": "0ff47bc8f0eaa3d0f690f3f2814f82dc"}, {"bike_id": "a4c11b13c3b9cc0ad761299782c9ae53", "type": "electric_scooter", "is_disabled": 0, "lat": 38.9106635, "rental_uris": {"ios": "https://dc.lft.to/lastmile_qr_scan", "android": "https://dc.lft.to/lastmile_qr_scan"}, "is_reserved": 0, "fusion_lon": 0.0, "fusion_lat": 0.0, "lon": -77.03733, "name": "a4c11b13c3b9cc0ad761299782c9ae53"}, {"bike_id": "c7dea59623d869934a1cc95f2901912b", "type": "electric_scooter", "is_disabled": 0, "lat": 38.884021, "rental_uris": {"ios": "https://dc.lft.to/lastmile_qr_scan", "android": "https://dc.lft.to/lastmile_qr_scan"}, "is_reserved": 0, "fusion_lon": 0.0, "fusion_lat": 0.0, "lon": -76.95400116666667, "name": "c7dea59623d869934a1cc95f2901912b"}, {"bike_id": "ed2e27e42f1afc0cac287cf0344854ff", "type": "electric_scooter", "is_disabled": 0, "lat": 38.87090533333333, "rental_uris": {"ios": "https://dc.lft.to/lastmile_qr_scan", "android": "https://dc.lft.to/lastmile_qr_scan"}, "is_reserved": 0, "fusion_lon": 0.0, "fusion_lat": 0.0, "lon": -77.012087, "name": "ed2e27e42f1afc0cac287cf0344854ff"}, {"bike_id": "6dd34385d34a7f3c864379b3b3e2829d", "type": "electric_scooter", "is_disabled": 0, "lat": 38.90885033333333, "rental_uris": {"ios": "https://dc.lft.to/lastmile_qr_scan", "android": "https://dc.lft.to/lastmile_qr_scan"}, "is_reserved": 0, "fusion_lon": 0.0, "fusion_lat": 0.0, "lon": -77.04330366666667, "name": "6dd34385d34a7f3c864379b3b3e2829d"}, {"bike_id": "94cd15fa97e09e9a23feb0bc215e85ac", "type": "electric_scooter", "is_disabled": 0, "lat": 38.905679666666664, "rental_uris": {"ios": "https://dc.lft.to/lastmile_qr_scan", "android": "https://dc.lft.to/lastmile_qr_scan"}, "is_reserved": 0, "fusion_lon": 0.0, "fusion_lat": 0.0, "lon": -76.976293, "name": "94cd15fa97e09e9a23feb0bc215e85ac"}, {"bike_id": "f410a067421f41d49980405e0d274184", "type": "electric_scooter", "is_disabled": 0, "lat": 38.9152235, "rental_uris": {"ios": "https://dc.lft.to/lastmile_qr_scan", "android": "https://dc.lft.to/lastmile_qr_scan"}, "is_reserved": 0, "fusion_lon": 0.0, "fusion_lat": 0.0, "lon": -77.0486165, "name": "f410a067421f41d49980405e0d274184"}, {"bike_id": "bcddb2216094bf06dff380a1f934b102", "type": "electric_bike", "is_disabled": 0, "lat": 38.90845316666667, "rental_uris": {"ios": "https://dc.lft.to/lastmile_qr_scan", "android": "https://dc.lft.to/lastmile_qr_scan"}, "is_reserved": 0, "fusion_lon": 0.0, "fusion_lat": 0.0, "lon": -76.93448, "name": "bcddb2216094bf06dff380a1f934b102"}, {"bike_id": "f5922ed5a06de0d9ddf153c31234825f", "type": "electric_scooter", "is_disabled": 0, "lat": 38.9091125, "rental_uris": {"ios": "https://dc.lft.to/lastmile_qr_scan", "android": "https://dc.lft.to/lastmile_qr_scan"}, "is_reserved": 0, "fusion_lon": 0.0, "fusion_lat": 0.0, "lon": -77.04499866666667, "name": "f5922ed5a06de0d9ddf153c31234825f"}, {"bike_id": "a267864ca5fd880b76919056bf8d4be5", "type": "electric_scooter", "is_disabled": 0, "lat": 38.89477766666667, "rental_uris": {"ios": "https://dc.lft.to/lastmile_qr_scan", "android": "https://dc.lft.to/lastmile_qr_scan"}, "is_reserved": 0, "fusion_lon": 0.0, "fusion_lat": 0.0, "lon": -76.94864233333334, "name": "a267864ca5fd880b76919056bf8d4be5"}, {"bike_id": "5ea16a8c016f1841c0028b196a63c639", "type": "electric_scooter", "is_disabled": 0, "lat": 38.9435945, "rental_uris": {"ios": "https://dc.lft.to/lastmile_qr_scan", "android": "https://dc.lft.to/lastmile_qr_scan"}, "is_reserved": 0, "fusion_lon": 0.0, "fusion_lat": 0.0, "lon": -77.03232566666667, "name": "5ea16a8c016f1841c0028b196a63c639"}, {"bike_id": "28f170ac8bbb476007ba0b6f52869011", "type": "electric_scooter", "is_disabled": 0, "lat": 38.905079666666666, "rental_uris": {"ios": "https://dc.lft.to/lastmile_qr_scan", "android": "https://dc.lft.to/lastmile_qr_scan"}, "is_reserved": 0, "fusion_lon": 0.0, "fusion_lat": 0.0, "lon": -77.05021783333333, "name": "28f170ac8bbb476007ba0b6f52869011"}, {"bike_id": "e0390d90cc5266133f2933a472f653b9", "type": "electric_scooter", "is_disabled": 0, "lat": 38.90971566666666, "rental_uris": {"ios": "https://dc.lft.to/lastmile_qr_scan", "android": "https://dc.lft.to/lastmile_qr_scan"}, "is_reserved": 0, "fusion_lon": 0.0, "fusion_lat": 0.0, "lon": -77.04517833333334, "name": "e0390d90cc5266133f2933a472f653b9"}, {"bike_id": "fcff780ed3d966b09898cff569be879e", "type": "electric_scooter", "is_disabled": 0, "lat": 38.919154166666665, "rental_uris": {"ios": "https://dc.lft.to/lastmile_qr_scan", "android": "https://dc.lft.to/lastmile_qr_scan"}, "is_reserved": 0, "fusion_lon": 0.0, "fusion_lat": 0.0, "lon": -77.02451833333333, "name": "fcff780ed3d966b09898cff569be879e"}, {"bike_id": "70197024b0b36d4a1c36e27401ec1a2c", "type": "electric_scooter", "is_disabled": 0, "lat": 38.900331, "rental_uris": {"ios": "https://dc.lft.to/lastmile_qr_scan", "android": "https://dc.lft.to/lastmile_qr_scan"}, "is_reserved": 0, "fusion_lon": 0.0, "fusion_lat": 0.0, "lon": -77.0241645, "name": "70197024b0b36d4a1c36e27401ec1a2c"}, {"bike_id": "8ac5295a968801f590ec25281519a06a", "type": "electric_scooter", "is_disabled": 0, "lat": 38.9212575, "rental_uris": {"ios": "https://dc.lft.to/lastmile_qr_scan", "android": "https://dc.lft.to/lastmile_qr_scan"}, "is_reserved": 0, "fusion_lon": 0.0, "fusion_lat": 0.0, "lon": -77.0421385, "name": "8ac5295a968801f590ec25281519a06a"}, {"bike_id": "0a6c295d981f80e8da4ff8104f8aa46c", "type": "electric_scooter", "is_disabled": 0, "lat": 38.90562966666667, "rental_uris": {"ios": "https://dc.lft.to/lastmile_qr_scan", "android": "https://dc.lft.to/lastmile_qr_scan"}, "is_reserved": 0, "fusion_lon": 0.0, "fusion_lat": 0.0, "lon": -77.05149333333334, "name": "0a6c295d981f80e8da4ff8104f8aa46c"}, {"bike_id": "b639fc778a3b8f615f6b9c53e8ec10f6", "type": "electric_scooter", "is_disabled": 0, "lat": 38.905541666666664, "rental_uris": {"ios": "https://dc.lft.to/lastmile_qr_scan", "android": "https://dc.lft.to/lastmile_qr_scan"}, "is_reserved": 0, "fusion_lon": 0.0, "fusion_lat": 0.0, "lon": -77.0570375, "name": "b639fc778a3b8f615f6b9c53e8ec10f6"}, {"bike_id": "7b4cb24b60dbece9eea0c39453999c6e", "type": "electric_scooter", "is_disabled": 0, "lat": 38.9142335, "rental_uris": {"ios": "https://dc.lft.to/lastmile_qr_scan", "android": "https://dc.lft.to/lastmile_qr_scan"}, "is_reserved": 0, "fusion_lon": 0.0, "fusion_lat": 0.0, "lon": -77.0326215, "name": "7b4cb24b60dbece9eea0c39453999c6e"}, {"bike_id": "c038a602c62e6b81617034c7ca527438", "type": "electric_scooter", "is_disabled": 0, "lat": 38.922202, "rental_uris": {"ios": "https://dc.lft.to/lastmile_qr_scan", "android": "https://dc.lft.to/lastmile_qr_scan"}, "is_reserved": 0, "fusion_lon": 0.0, "fusion_lat": 0.0, "lon": -77.02671083333334, "name": "c038a602c62e6b81617034c7ca527438"}, {"bike_id": "a4eb792bda1083f1ee19b5ce9a3c225e", "type": "electric_scooter", "is_disabled": 0, "lat": 38.923639333333334, "rental_uris": {"ios": "https://dc.lft.to/lastmile_qr_scan", "android": "https://dc.lft.to/lastmile_qr_scan"}, "is_reserved": 0, "fusion_lon": 0.0, "fusion_lat": 0.0, "lon": -77.051345, "name": "a4eb792bda1083f1ee19b5ce9a3c225e"}, {"bike_id": "c4d3161caa71f137e01b13feb4173ed9", "type": "electric_scooter", "is_disabled": 0, "lat": 38.89170983333333, "rental_uris": {"ios": "https://dc.lft.to/lastmile_qr_scan", "android": "https://dc.lft.to/lastmile_qr_scan"}, "is_reserved": 0, "fusion_lon": 0.0, "fusion_lat": 0.0, "lon": -77.01540883333334, "name": "c4d3161caa71f137e01b13feb4173ed9"}, {"bike_id": "f093a086c8939e2a40d6dcd9fdce6c3f", "type": "electric_scooter", "is_disabled": 0, "lat": 38.928494666666666, "rental_uris": {"ios": "https://dc.lft.to/lastmile_qr_scan", "android": "https://dc.lft.to/lastmile_qr_scan"}, "is_reserved": 0, "fusion_lon": 0.0, "fusion_lat": 0.0, "lon": -77.03290583333333, "name": "f093a086c8939e2a40d6dcd9fdce6c3f"}, {"bike_id": "db4b4ba30d47a8245f163ad2f1d55c40", "type": "electric_scooter", "is_disabled": 0, "lat": 38.916930666666666, "rental_uris": {"ios": "https://dc.lft.to/lastmile_qr_scan", "android": "https://dc.lft.to/lastmile_qr_scan"}, "is_reserved": 0, "fusion_lon": 0.0, "fusion_lat": 0.0, "lon": -77.010576, "name": "db4b4ba30d47a8245f163ad2f1d55c40"}, {"bike_id": "7a055578c821a4e3e101b642db517dd3", "type": "electric_scooter", "is_disabled": 0, "lat": 38.90740316666667, "rental_uris": {"ios": "https://dc.lft.to/lastmile_qr_scan", "android": "https://dc.lft.to/lastmile_qr_scan"}, "is_reserved": 0, "fusion_lon": 0.0, "fusion_lat": 0.0, "lon": -77.00063316666666, "name": "7a055578c821a4e3e101b642db517dd3"}, {"bike_id": "d30e905f802f29c45d2c21f771000a78", "type": "electric_scooter", "is_disabled": 0, "lat": 38.86681933333333, "rental_uris": {"ios": "https://dc.lft.to/lastmile_qr_scan", "android": "https://dc.lft.to/lastmile_qr_scan"}, "is_reserved": 0, "fusion_lon": 0.0, "fusion_lat": 0.0, "lon": -76.98579616666666, "name": "d30e905f802f29c45d2c21f771000a78"}, {"bike_id": "9df4ace972923ee2f7b8787560db74bc", "type": "electric_scooter", "is_disabled": 0, "lat": 38.91073933333333, "rental_uris": {"ios": "https://dc.lft.to/lastmile_qr_scan", "android": "https://dc.lft.to/lastmile_qr_scan"}, "is_reserved": 0, "fusion_lon": 0.0, "fusion_lat": 0.0, "lon": -77.03857116666667, "name": "9df4ace972923ee2f7b8787560db74bc"}, {"bike_id": "5711f130f0ff7eb0257648c7d34f9e5f", "type": "electric_scooter", "is_disabled": 0, "lat": 38.917002833333335, "rental_uris": {"ios": "https://dc.lft.to/lastmile_qr_scan", "android": "https://dc.lft.to/lastmile_qr_scan"}, "is_reserved": 0, "fusion_lon": 0.0, "fusion_lat": 0.0, "lon": -77.03156733333333, "name": "5711f130f0ff7eb0257648c7d34f9e5f"}, {"bike_id": "04e4413ccdb007f76870b56cfc2ccb60", "type": "electric_scooter", "is_disabled": 0, "lat": 38.924772833333336, "rental_uris": {"ios": "https://dc.lft.to/lastmile_qr_scan", "android": "https://dc.lft.to/lastmile_qr_scan"}, "is_reserved": 0, "fusion_lon": 0.0, "fusion_lat": 0.0, "lon": -77.052187, "name": "04e4413ccdb007f76870b56cfc2ccb60"}, {"bike_id": "db762e24b9c51e85196c381fefbf45b4", "type": "electric_scooter", "is_disabled": 0, "lat": 38.873822, "rental_uris": {"ios": "https://dc.lft.to/lastmile_qr_scan", "android": "https://dc.lft.to/lastmile_qr_scan"}, "is_reserved": 0, "fusion_lon": 0.0, "fusion_lat": 0.0, "lon": -77.04343483333334, "name": "db762e24b9c51e85196c381fefbf45b4"}, {"bike_id": "5071b7a8947f8b7cc08fc4be7e13bb00", "type": "electric_scooter", "is_disabled": 0, "lat": 38.900383166666664, "rental_uris": {"ios": "https://dc.lft.to/lastmile_qr_scan", "android": "https://dc.lft.to/lastmile_qr_scan"}, "is_reserved": 0, "fusion_lon": 0.0, "fusion_lat": 0.0, "lon": -77.03665033333333, "name": "5071b7a8947f8b7cc08fc4be7e13bb00"}, {"bike_id": "59fc5247bfa63cf09282bbd80392eb74", "type": "electric_scooter", "is_disabled": 0, "lat": 38.9087685, "rental_uris": {"ios": "https://dc.lft.to/lastmile_qr_scan", "android": "https://dc.lft.to/lastmile_qr_scan"}, "is_reserved": 0, "fusion_lon": 0.0, "fusion_lat": 0.0, "lon": -77.03470016666667, "name": "59fc5247bfa63cf09282bbd80392eb74"}, {"bike_id": "ec48878ed0120e81012ab6f771490ab9", "type": "electric_scooter", "is_disabled": 0, "lat": 38.9132115, "rental_uris": {"ios": "https://dc.lft.to/lastmile_qr_scan", "android": "https://dc.lft.to/lastmile_qr_scan"}, "is_reserved": 0, "fusion_lon": 0.0, "fusion_lat": 0.0, "lon": -77.0197615, "name": "ec48878ed0120e81012ab6f771490ab9"}, {"bike_id": "1e93e809bf36c84715dc5ff6b4fa7344", "type": "electric_scooter", "is_disabled": 0, "lat": 38.91701783333333, "rental_uris": {"ios": "https://dc.lft.to/lastmile_qr_scan", "android": "https://dc.lft.to/lastmile_qr_scan"}, "is_reserved": 0, "fusion_lon": 0.0, "fusion_lat": 0.0, "lon": -77.02992366666666, "name": "1e93e809bf36c84715dc5ff6b4fa7344"}, {"bike_id": "2495c224908816ff9bdda82b836d6f1a", "type": "electric_scooter", "is_disabled": 0, "lat": 38.93193816666667, "rental_uris": {"ios": "https://dc.lft.to/lastmile_qr_scan", "android": "https://dc.lft.to/lastmile_qr_scan"}, "is_reserved": 0, "fusion_lon": 0.0, "fusion_lat": 0.0, "lon": -77.0196175, "name": "2495c224908816ff9bdda82b836d6f1a"}, {"bike_id": "52cc791d4fd077c40473a93c18aa131b", "type": "electric_scooter", "is_disabled": 0, "lat": 38.898116, "rental_uris": {"ios": "https://dc.lft.to/lastmile_qr_scan", "android": "https://dc.lft.to/lastmile_qr_scan"}, "is_reserved": 0, "fusion_lon": 0.0, "fusion_lat": 0.0, "lon": -77.02929416666667, "name": "52cc791d4fd077c40473a93c18aa131b"}, {"bike_id": "0338308e2721455f33a03f823266adbb", "type": "electric_scooter", "is_disabled": 0, "lat": 38.87084983333333, "rental_uris": {"ios": "https://dc.lft.to/lastmile_qr_scan", "android": "https://dc.lft.to/lastmile_qr_scan"}, "is_reserved": 0, "fusion_lon": 0.0, "fusion_lat": 0.0, "lon": -77.01199566666666, "name": "0338308e2721455f33a03f823266adbb"}, {"bike_id": "6440d355588ddce4cff54c9a68e06965", "type": "electric_scooter", "is_disabled": 0, "lat": 38.94102133333333, "rental_uris": {"ios": "https://dc.lft.to/lastmile_qr_scan", "android": "https://dc.lft.to/lastmile_qr_scan"}, "is_reserved": 0, "fusion_lon": 0.0, "fusion_lat": 0.0, "lon": -77.02546283333334, "name": "6440d355588ddce4cff54c9a68e06965"}, {"bike_id": "a2d3c92d050c2bbf1bf933c2c2d5a2e4", "type": "electric_scooter", "is_disabled": 0, "lat": 38.91235966666667, "rental_uris": {"ios": "https://dc.lft.to/lastmile_qr_scan", "android": "https://dc.lft.to/lastmile_qr_scan"}, "is_reserved": 0, "fusion_lon": 0.0, "fusion_lat": 0.0, "lon": -77.0012975, "name": "a2d3c92d050c2bbf1bf933c2c2d5a2e4"}, {"bike_id": "e7e95d370c433c09d306dd4b606f5890", "type": "electric_scooter", "is_disabled": 0, "lat": 38.876271833333334, "rental_uris": {"ios": "https://dc.lft.to/lastmile_qr_scan", "android": "https://dc.lft.to/lastmile_qr_scan"}, "is_reserved": 0, "fusion_lon": 0.0, "fusion_lat": 0.0, "lon": -76.96533, "name": "e7e95d370c433c09d306dd4b606f5890"}, {"bike_id": "34b81dff8971e2f31fd72edc5d497130", "type": "electric_scooter", "is_disabled": 0, "lat": 38.91104283333333, "rental_uris": {"ios": "https://dc.lft.to/lastmile_qr_scan", "android": "https://dc.lft.to/lastmile_qr_scan"}, "is_reserved": 0, "fusion_lon": 0.0, "fusion_lat": 0.0, "lon": -77.04990683333334, "name": "34b81dff8971e2f31fd72edc5d497130"}, {"bike_id": "4cb1db72a27a35b10175b9a2f912ae07", "type": "electric_scooter", "is_disabled": 0, "lat": 38.9164025, "rental_uris": {"ios": "https://dc.lft.to/lastmile_qr_scan", "android": "https://dc.lft.to/lastmile_qr_scan"}, "is_reserved": 0, "fusion_lon": 0.0, "fusion_lat": 0.0, "lon": -77.0321045, "name": "4cb1db72a27a35b10175b9a2f912ae07"}, {"bike_id": "623ed01aa57b52cfb9b3f169f088bd41", "type": "electric_scooter", "is_disabled": 0, "lat": 38.90487233333333, "rental_uris": {"ios": "https://dc.lft.to/lastmile_qr_scan", "android": "https://dc.lft.to/lastmile_qr_scan"}, "is_reserved": 0, "fusion_lon": 0.0, "fusion_lat": 0.0, "lon": -76.98693933333334, "name": "623ed01aa57b52cfb9b3f169f088bd41"}, {"bike_id": "f5efcdbe6d1c0d5c4417788827ac918d", "type": "electric_bike", "is_disabled": 0, "lat": 39.03989383333333, "rental_uris": {"ios": "https://dc.lft.to/lastmile_qr_scan", "android": "https://dc.lft.to/lastmile_qr_scan"}, "is_reserved": 0, "fusion_lon": 0.0, "fusion_lat": 0.0, "lon": -76.9993275, "name": "f5efcdbe6d1c0d5c4417788827ac918d"}, {"bike_id": "9cccab5c182f3c3c52ec78cc0232a203", "type": "electric_scooter", "is_disabled": 0, "lat": 38.90036633333333, "rental_uris": {"ios": "https://dc.lft.to/lastmile_qr_scan", "android": "https://dc.lft.to/lastmile_qr_scan"}, "is_reserved": 0, "fusion_lon": 0.0, "fusion_lat": 0.0, "lon": -77.02409783333333, "name": "9cccab5c182f3c3c52ec78cc0232a203"}, {"bike_id": "717b902b587040a53cd811b70ae46c02", "type": "electric_scooter", "is_disabled": 0, "lat": 38.961391, "rental_uris": {"ios": "https://dc.lft.to/lastmile_qr_scan", "android": "https://dc.lft.to/lastmile_qr_scan"}, "is_reserved": 0, "fusion_lon": 0.0, "fusion_lat": 0.0, "lon": -77.02992716666667, "name": "717b902b587040a53cd811b70ae46c02"}, {"bike_id": "65f6fb50aaf16f31c586659f07219a71", "type": "electric_scooter", "is_disabled": 0, "lat": 38.91645416666667, "rental_uris": {"ios": "https://dc.lft.to/lastmile_qr_scan", "android": "https://dc.lft.to/lastmile_qr_scan"}, "is_reserved": 0, "fusion_lon": 0.0, "fusion_lat": 0.0, "lon": -77.04633033333333, "name": "65f6fb50aaf16f31c586659f07219a71"}, {"bike_id": "d0862b6c45181c5b2d6149a43eebcfa9", "type": "electric_scooter", "is_disabled": 0, "lat": 38.892322666666665, "rental_uris": {"ios": "https://dc.lft.to/lastmile_qr_scan", "android": "https://dc.lft.to/lastmile_qr_scan"}, "is_reserved": 0, "fusion_lon": 0.0, "fusion_lat": 0.0, "lon": -77.0500265, "name": "d0862b6c45181c5b2d6149a43eebcfa9"}, {"bike_id": "7dc4ff80e3f499382791561dc55f0a83", "type": "electric_scooter", "is_disabled": 0, "lat": 38.900558333333336, "rental_uris": {"ios": "https://dc.lft.to/lastmile_qr_scan", "android": "https://dc.lft.to/lastmile_qr_scan"}, "is_reserved": 0, "fusion_lon": 0.0, "fusion_lat": 0.0, "lon": -77.0365315, "name": "7dc4ff80e3f499382791561dc55f0a83"}, {"bike_id": "67e31387576273aec0a216f7317efdba", "type": "electric_scooter", "is_disabled": 0, "lat": 38.922105, "rental_uris": {"ios": "https://dc.lft.to/lastmile_qr_scan", "android": "https://dc.lft.to/lastmile_qr_scan"}, "is_reserved": 0, "fusion_lon": 0.0, "fusion_lat": 0.0, "lon": -77.034745, "name": "67e31387576273aec0a216f7317efdba"}, {"bike_id": "c63996f4331b7108c5f4213d8e598a01", "type": "electric_scooter", "is_disabled": 0, "lat": 38.902561166666665, "rental_uris": {"ios": "https://dc.lft.to/lastmile_qr_scan", "android": "https://dc.lft.to/lastmile_qr_scan"}, "is_reserved": 0, "fusion_lon": 0.0, "fusion_lat": 0.0, "lon": -76.9755105, "name": "c63996f4331b7108c5f4213d8e598a01"}, {"bike_id": "6360ece441b343442d12dc5731b43833", "type": "electric_bike", "is_disabled": 0, "lat": 38.929001666666665, "rental_uris": {"ios": "https://dc.lft.to/lastmile_qr_scan", "android": "https://dc.lft.to/lastmile_qr_scan"}, "is_reserved": 0, "fusion_lon": 0.0, "fusion_lat": 0.0, "lon": -77.03273066666667, "name": "6360ece441b343442d12dc5731b43833"}, {"bike_id": "ec53db4109a221a12345938b9d063c43", "type": "electric_scooter", "is_disabled": 0, "lat": 38.918724166666664, "rental_uris": {"ios": "https://dc.lft.to/lastmile_qr_scan", "android": "https://dc.lft.to/lastmile_qr_scan"}, "is_reserved": 0, "fusion_lon": 0.0, "fusion_lat": 0.0, "lon": -77.04146583333333, "name": "ec53db4109a221a12345938b9d063c43"}, {"bike_id": "8d5b97830c346c02b6c4792f58bad1db", "type": "electric_scooter", "is_disabled": 0, "lat": 38.91418316666667, "rental_uris": {"ios": "https://dc.lft.to/lastmile_qr_scan", "android": "https://dc.lft.to/lastmile_qr_scan"}, "is_reserved": 0, "fusion_lon": 0.0, "fusion_lat": 0.0, "lon": -77.02291883333334, "name": "8d5b97830c346c02b6c4792f58bad1db"}, {"bike_id": "c5c149acbfe8933284c3cc64310c84d6", "type": "electric_scooter", "is_disabled": 0, "lat": 38.906409833333335, "rental_uris": {"ios": "https://dc.lft.to/lastmile_qr_scan", "android": "https://dc.lft.to/lastmile_qr_scan"}, "is_reserved": 0, "fusion_lon": 0.0, "fusion_lat": 0.0, "lon": -77.01412983333333, "name": "c5c149acbfe8933284c3cc64310c84d6"}, {"bike_id": "7db1f8d7be2e50276c772e6b60d8b23e", "type": "electric_scooter", "is_disabled": 0, "lat": 38.920444, "rental_uris": {"ios": "https://dc.lft.to/lastmile_qr_scan", "android": "https://dc.lft.to/lastmile_qr_scan"}, "is_reserved": 0, "fusion_lon": 0.0, "fusion_lat": 0.0, "lon": -77.07183733333333, "name": "7db1f8d7be2e50276c772e6b60d8b23e"}, {"bike_id": "2e9133f4badd244d170d121619396c04", "type": "electric_scooter", "is_disabled": 0, "lat": 38.911007833333336, "rental_uris": {"ios": "https://dc.lft.to/lastmile_qr_scan", "android": "https://dc.lft.to/lastmile_qr_scan"}, "is_reserved": 0, "fusion_lon": 0.0, "fusion_lat": 0.0, "lon": -77.02804716666667, "name": "2e9133f4badd244d170d121619396c04"}, {"bike_id": "33f1deb0f6ee3b507f2117e6f0d9c5ea", "type": "electric_scooter", "is_disabled": 0, "lat": 38.917705, "rental_uris": {"ios": "https://dc.lft.to/lastmile_qr_scan", "android": "https://dc.lft.to/lastmile_qr_scan"}, "is_reserved": 0, "fusion_lon": 0.0, "fusion_lat": 0.0, "lon": -77.02377783333333, "name": "33f1deb0f6ee3b507f2117e6f0d9c5ea"}, {"bike_id": "558cf4ed0088e1494af1cd31e7407b95", "type": "electric_scooter", "is_disabled": 0, "lat": 38.90409916666667, "rental_uris": {"ios": "https://dc.lft.to/lastmile_qr_scan", "android": "https://dc.lft.to/lastmile_qr_scan"}, "is_reserved": 0, "fusion_lon": 0.0, "fusion_lat": 0.0, "lon": -77.06765983333334, "name": "558cf4ed0088e1494af1cd31e7407b95"}, {"bike_id": "15ffd6cbe0baa1f0268850ce9dab99ce", "type": "electric_scooter", "is_disabled": 0, "lat": 38.900771, "rental_uris": {"ios": "https://dc.lft.to/lastmile_qr_scan", "android": "https://dc.lft.to/lastmile_qr_scan"}, "is_reserved": 0, "fusion_lon": 0.0, "fusion_lat": 0.0, "lon": -76.9273975, "name": "15ffd6cbe0baa1f0268850ce9dab99ce"}, {"bike_id": "d6bfa485d9016220e53b74e568bc5f1a", "type": "electric_scooter", "is_disabled": 0, "lat": 38.91832433333333, "rental_uris": {"ios": "https://dc.lft.to/lastmile_qr_scan", "android": "https://dc.lft.to/lastmile_qr_scan"}, "is_reserved": 0, "fusion_lon": 0.0, "fusion_lat": 0.0, "lon": -77.02317616666667, "name": "d6bfa485d9016220e53b74e568bc5f1a"}, {"bike_id": "c3d3e67462a7eade9be8076a47408384", "type": "electric_scooter", "is_disabled": 0, "lat": 38.91898416666667, "rental_uris": {"ios": "https://dc.lft.to/lastmile_qr_scan", "android": "https://dc.lft.to/lastmile_qr_scan"}, "is_reserved": 0, "fusion_lon": 0.0, "fusion_lat": 0.0, "lon": -77.03181766666667, "name": "c3d3e67462a7eade9be8076a47408384"}, {"bike_id": "e3fe8f4320d4be4c684bbd1d29b25845", "type": "electric_scooter", "is_disabled": 0, "lat": 38.85445683333333, "rental_uris": {"ios": "https://dc.lft.to/lastmile_qr_scan", "android": "https://dc.lft.to/lastmile_qr_scan"}, "is_reserved": 0, "fusion_lon": 0.0, "fusion_lat": 0.0, "lon": -76.98609033333334, "name": "e3fe8f4320d4be4c684bbd1d29b25845"}, {"bike_id": "c0e2d840ecc541ae28526db88a99215e", "type": "electric_scooter", "is_disabled": 0, "lat": 38.90421883333333, "rental_uris": {"ios": "https://dc.lft.to/lastmile_qr_scan", "android": "https://dc.lft.to/lastmile_qr_scan"}, "is_reserved": 0, "fusion_lon": 0.0, "fusion_lat": 0.0, "lon": -76.97379283333333, "name": "c0e2d840ecc541ae28526db88a99215e"}, {"bike_id": "29057e4eebfb1a87ed2747af6af71407", "type": "electric_scooter", "is_disabled": 0, "lat": 38.88743066666667, "rental_uris": {"ios": "https://dc.lft.to/lastmile_qr_scan", "android": "https://dc.lft.to/lastmile_qr_scan"}, "is_reserved": 0, "fusion_lon": 0.0, "fusion_lat": 0.0, "lon": -76.99629333333333, "name": "29057e4eebfb1a87ed2747af6af71407"}, {"bike_id": "ee947022c3f189486b61e6462f0d48ae", "type": "electric_scooter", "is_disabled": 0, "lat": 38.90509683333333, "rental_uris": {"ios": "https://dc.lft.to/lastmile_qr_scan", "android": "https://dc.lft.to/lastmile_qr_scan"}, "is_reserved": 0, "fusion_lon": 0.0, "fusion_lat": 0.0, "lon": -77.06740816666667, "name": "ee947022c3f189486b61e6462f0d48ae"}, {"bike_id": "c060c56a65fdd742e83c13880e909816", "type": "electric_scooter", "is_disabled": 0, "lat": 38.884929166666666, "rental_uris": {"ios": "https://dc.lft.to/lastmile_qr_scan", "android": "https://dc.lft.to/lastmile_qr_scan"}, "is_reserved": 0, "fusion_lon": 0.0, "fusion_lat": 0.0, "lon": -77.0071355, "name": "c060c56a65fdd742e83c13880e909816"}, {"bike_id": "053578e9ca440a2d8b923f388dd3ccef", "type": "electric_scooter", "is_disabled": 0, "lat": 38.90245266666667, "rental_uris": {"ios": "https://dc.lft.to/lastmile_qr_scan", "android": "https://dc.lft.to/lastmile_qr_scan"}, "is_reserved": 0, "fusion_lon": 0.0, "fusion_lat": 0.0, "lon": -77.00101766666667, "name": "053578e9ca440a2d8b923f388dd3ccef"}, {"bike_id": "0164360015cc611e9541808922826682", "type": "electric_scooter", "is_disabled": 0, "lat": 38.90173983333333, "rental_uris": {"ios": "https://dc.lft.to/lastmile_qr_scan", "android": "https://dc.lft.to/lastmile_qr_scan"}, "is_reserved": 0, "fusion_lon": 0.0, "fusion_lat": 0.0, "lon": -76.984546, "name": "0164360015cc611e9541808922826682"}, {"bike_id": "1db7cffe203b6b1b4ad6d6e34eec058a", "type": "electric_scooter", "is_disabled": 0, "lat": 38.92760916666667, "rental_uris": {"ios": "https://dc.lft.to/lastmile_qr_scan", "android": "https://dc.lft.to/lastmile_qr_scan"}, "is_reserved": 0, "fusion_lon": 0.0, "fusion_lat": 0.0, "lon": -77.0296155, "name": "1db7cffe203b6b1b4ad6d6e34eec058a"}, {"bike_id": "29f913ea5537e63e85cf98c674976b92", "type": "electric_scooter", "is_disabled": 0, "lat": 38.924521, "rental_uris": {"ios": "https://dc.lft.to/lastmile_qr_scan", "android": "https://dc.lft.to/lastmile_qr_scan"}, "is_reserved": 0, "fusion_lon": 0.0, "fusion_lat": 0.0, "lon": -77.02415333333333, "name": "29f913ea5537e63e85cf98c674976b92"}, {"bike_id": "27cf63352a95ff7768632827346026d4", "type": "electric_scooter", "is_disabled": 0, "lat": 38.94286433333333, "rental_uris": {"ios": "https://dc.lft.to/lastmile_qr_scan", "android": "https://dc.lft.to/lastmile_qr_scan"}, "is_reserved": 0, "fusion_lon": 0.0, "fusion_lat": 0.0, "lon": -77.0218265, "name": "27cf63352a95ff7768632827346026d4"}, {"bike_id": "11ad48198b591f82bab047d035b899cf", "type": "electric_bike", "is_disabled": 0, "lat": 38.85417266666666, "rental_uris": {"ios": "https://dc.lft.to/lastmile_qr_scan", "android": "https://dc.lft.to/lastmile_qr_scan"}, "is_reserved": 0, "fusion_lon": 0.0, "fusion_lat": 0.0, "lon": -77.12079133333333, "name": "11ad48198b591f82bab047d035b899cf"}, {"bike_id": "56ab1bff361c44e1b7f57b53b4b0c661", "type": "electric_scooter", "is_disabled": 0, "lat": 38.915625166666665, "rental_uris": {"ios": "https://dc.lft.to/lastmile_qr_scan", "android": "https://dc.lft.to/lastmile_qr_scan"}, "is_reserved": 0, "fusion_lon": 0.0, "fusion_lat": 0.0, "lon": -77.0333955, "name": "56ab1bff361c44e1b7f57b53b4b0c661"}, {"bike_id": "10fee41d14d37bcd9c437b5b23a85548", "type": "electric_scooter", "is_disabled": 0, "lat": 38.934293, "rental_uris": {"ios": "https://dc.lft.to/lastmile_qr_scan", "android": "https://dc.lft.to/lastmile_qr_scan"}, "is_reserved": 0, "fusion_lon": 0.0, "fusion_lat": 0.0, "lon": -77.03914366666666, "name": "10fee41d14d37bcd9c437b5b23a85548"}, {"bike_id": "50fb161fd60063da57048b37648c641f", "type": "electric_scooter", "is_disabled": 0, "lat": 38.94840416666667, "rental_uris": {"ios": "https://dc.lft.to/lastmile_qr_scan", "android": "https://dc.lft.to/lastmile_qr_scan"}, "is_reserved": 0, "fusion_lon": 0.0, "fusion_lat": 0.0, "lon": -77.02542183333334, "name": "50fb161fd60063da57048b37648c641f"}, {"bike_id": "45178a9d6d106427aba3df9453216714", "type": "electric_scooter", "is_disabled": 0, "lat": 38.91552516666667, "rental_uris": {"ios": "https://dc.lft.to/lastmile_qr_scan", "android": "https://dc.lft.to/lastmile_qr_scan"}, "is_reserved": 0, "fusion_lon": 0.0, "fusion_lat": 0.0, "lon": -77.0418005, "name": "45178a9d6d106427aba3df9453216714"}, {"bike_id": "2e6c07292f99fdc570ea6171a61abe45", "type": "electric_scooter", "is_disabled": 0, "lat": 38.93316266666667, "rental_uris": {"ios": "https://dc.lft.to/lastmile_qr_scan", "android": "https://dc.lft.to/lastmile_qr_scan"}, "is_reserved": 0, "fusion_lon": 0.0, "fusion_lat": 0.0, "lon": -77.02932016666666, "name": "2e6c07292f99fdc570ea6171a61abe45"}, {"bike_id": "908837f8e357d985465166afed17be59", "type": "electric_scooter", "is_disabled": 0, "lat": 38.89541883333333, "rental_uris": {"ios": "https://dc.lft.to/lastmile_qr_scan", "android": "https://dc.lft.to/lastmile_qr_scan"}, "is_reserved": 0, "fusion_lon": 0.0, "fusion_lat": 0.0, "lon": -76.949329, "name": "908837f8e357d985465166afed17be59"}, {"bike_id": "b12beb8ce8062cb39059f0f2e9a2eba3", "type": "electric_bike", "is_disabled": 0, "lat": 38.9435955, "rental_uris": {"ios": "https://dc.lft.to/lastmile_qr_scan", "android": "https://dc.lft.to/lastmile_qr_scan"}, "is_reserved": 0, "fusion_lon": 0.0, "fusion_lat": 0.0, "lon": -76.96787633333334, "name": "b12beb8ce8062cb39059f0f2e9a2eba3"}, {"bike_id": "0036fe612d82e01ece30daed4554f805", "type": "electric_scooter", "is_disabled": 0, "lat": 38.924521666666664, "rental_uris": {"ios": "https://dc.lft.to/lastmile_qr_scan", "android": "https://dc.lft.to/lastmile_qr_scan"}, "is_reserved": 0, "fusion_lon": 0.0, "fusion_lat": 0.0, "lon": -77.032706, "name": "0036fe612d82e01ece30daed4554f805"}, {"bike_id": "6344fc835504f73ee2824b1b4fe02d58", "type": "electric_scooter", "is_disabled": 0, "lat": 38.92317666666667, "rental_uris": {"ios": "https://dc.lft.to/lastmile_qr_scan", "android": "https://dc.lft.to/lastmile_qr_scan"}, "is_reserved": 0, "fusion_lon": 0.0, "fusion_lat": 0.0, "lon": -77.042121, "name": "6344fc835504f73ee2824b1b4fe02d58"}, {"bike_id": "832ad9511746dc17b894f0d6595e427b", "type": "electric_scooter", "is_disabled": 0, "lat": 38.906692666666665, "rental_uris": {"ios": "https://dc.lft.to/lastmile_qr_scan", "android": "https://dc.lft.to/lastmile_qr_scan"}, "is_reserved": 0, "fusion_lon": 0.0, "fusion_lat": 0.0, "lon": -77.038187, "name": "832ad9511746dc17b894f0d6595e427b"}, {"bike_id": "7059b4588ed042b00f5c2d68d6bb79ab", "type": "electric_scooter", "is_disabled": 0, "lat": 38.938381, "rental_uris": {"ios": "https://dc.lft.to/lastmile_qr_scan", "android": "https://dc.lft.to/lastmile_qr_scan"}, "is_reserved": 0, "fusion_lon": 0.0, "fusion_lat": 0.0, "lon": -77.0340565, "name": "7059b4588ed042b00f5c2d68d6bb79ab"}, {"bike_id": "cdecc7bf84f0478055e20daa66535a8a", "type": "electric_scooter", "is_disabled": 0, "lat": 38.906106666666666, "rental_uris": {"ios": "https://dc.lft.to/lastmile_qr_scan", "android": "https://dc.lft.to/lastmile_qr_scan"}, "is_reserved": 0, "fusion_lon": 0.0, "fusion_lat": 0.0, "lon": -77.00587766666666, "name": "cdecc7bf84f0478055e20daa66535a8a"}, {"bike_id": "b51c979dac27c1fac92ddab9832b46bf", "type": "electric_scooter", "is_disabled": 0, "lat": 38.92435966666667, "rental_uris": {"ios": "https://dc.lft.to/lastmile_qr_scan", "android": "https://dc.lft.to/lastmile_qr_scan"}, "is_reserved": 0, "fusion_lon": 0.0, "fusion_lat": 0.0, "lon": -77.04074016666667, "name": "b51c979dac27c1fac92ddab9832b46bf"}, {"bike_id": "5a435f8f39babd30c6c90e14d17e785a", "type": "electric_scooter", "is_disabled": 0, "lat": 38.86211466666666, "rental_uris": {"ios": "https://dc.lft.to/lastmile_qr_scan", "android": "https://dc.lft.to/lastmile_qr_scan"}, "is_reserved": 0, "fusion_lon": 0.0, "fusion_lat": 0.0, "lon": -76.9947215, "name": "5a435f8f39babd30c6c90e14d17e785a"}, {"bike_id": "772d040e088212f910b50cc30822ecfd", "type": "electric_scooter", "is_disabled": 0, "lat": 38.86211183333333, "rental_uris": {"ios": "https://dc.lft.to/lastmile_qr_scan", "android": "https://dc.lft.to/lastmile_qr_scan"}, "is_reserved": 0, "fusion_lon": 0.0, "fusion_lat": 0.0, "lon": -76.9947145, "name": "772d040e088212f910b50cc30822ecfd"}, {"bike_id": "b6c6dc11883946a2b9884079eaa3f7f0", "type": "electric_scooter", "is_disabled": 0, "lat": 38.93458566666666, "rental_uris": {"ios": "https://dc.lft.to/lastmile_qr_scan", "android": "https://dc.lft.to/lastmile_qr_scan"}, "is_reserved": 0, "fusion_lon": 0.0, "fusion_lat": 0.0, "lon": -77.0279215, "name": "b6c6dc11883946a2b9884079eaa3f7f0"}, {"bike_id": "9ca1de3539ab1a0ac3fe684530dcf41f", "type": "electric_scooter", "is_disabled": 0, "lat": 38.94758233333334, "rental_uris": {"ios": "https://dc.lft.to/lastmile_qr_scan", "android": "https://dc.lft.to/lastmile_qr_scan"}, "is_reserved": 0, "fusion_lon": 0.0, "fusion_lat": 0.0, "lon": -77.06572566666667, "name": "9ca1de3539ab1a0ac3fe684530dcf41f"}, {"bike_id": "5ded97729192e747f334d034ac5febb3", "type": "electric_bike", "is_disabled": 0, "lat": 38.93227, "rental_uris": {"ios": "https://dc.lft.to/lastmile_qr_scan", "android": "https://dc.lft.to/lastmile_qr_scan"}, "is_reserved": 0, "fusion_lon": 0.0, "fusion_lat": 0.0, "lon": -77.181217, "name": "5ded97729192e747f334d034ac5febb3"}, {"bike_id": "19e1d195fad13f6949a2178335808984", "type": "electric_scooter", "is_disabled": 0, "lat": 38.90485266666666, "rental_uris": {"ios": "https://dc.lft.to/lastmile_qr_scan", "android": "https://dc.lft.to/lastmile_qr_scan"}, "is_reserved": 0, "fusion_lon": 0.0, "fusion_lat": 0.0, "lon": -77.05660733333333, "name": "19e1d195fad13f6949a2178335808984"}, {"bike_id": "f5cb448d22ec61d0f600ac5eac1afe7d", "type": "electric_scooter", "is_disabled": 0, "lat": 38.871768333333335, "rental_uris": {"ios": "https://dc.lft.to/lastmile_qr_scan", "android": "https://dc.lft.to/lastmile_qr_scan"}, "is_reserved": 0, "fusion_lon": 0.0, "fusion_lat": 0.0, "lon": -77.00623716666666, "name": "f5cb448d22ec61d0f600ac5eac1afe7d"}, {"bike_id": "24c193f481c215c153ee2d820a7ea78c", "type": "electric_scooter", "is_disabled": 0, "lat": 38.914263166666665, "rental_uris": {"ios": "https://dc.lft.to/lastmile_qr_scan", "android": "https://dc.lft.to/lastmile_qr_scan"}, "is_reserved": 0, "fusion_lon": 0.0, "fusion_lat": 0.0, "lon": -77.03217366666667, "name": "24c193f481c215c153ee2d820a7ea78c"}, {"bike_id": "496a765578971483d2cac97e854f4846", "type": "electric_scooter", "is_disabled": 0, "lat": 38.913059, "rental_uris": {"ios": "https://dc.lft.to/lastmile_qr_scan", "android": "https://dc.lft.to/lastmile_qr_scan"}, "is_reserved": 0, "fusion_lon": 0.0, "fusion_lat": 0.0, "lon": -77.01694083333334, "name": "496a765578971483d2cac97e854f4846"}, {"bike_id": "ad9bdfd3219e26ae37c6d01ba59bb92e", "type": "electric_scooter", "is_disabled": 0, "lat": 38.916423333333334, "rental_uris": {"ios": "https://dc.lft.to/lastmile_qr_scan", "android": "https://dc.lft.to/lastmile_qr_scan"}, "is_reserved": 0, "fusion_lon": 0.0, "fusion_lat": 0.0, "lon": -77.02277933333333, "name": "ad9bdfd3219e26ae37c6d01ba59bb92e"}, {"bike_id": "982ea9213573d6ae4da111054fa200ec", "type": "electric_bike", "is_disabled": 0, "lat": 38.88243683333334, "rental_uris": {"ios": "https://dc.lft.to/lastmile_qr_scan", "android": "https://dc.lft.to/lastmile_qr_scan"}, "is_reserved": 0, "fusion_lon": 0.0, "fusion_lat": 0.0, "lon": -76.96267366666666, "name": "982ea9213573d6ae4da111054fa200ec"}, {"bike_id": "fee5219f2ec95c672acb43242647197c", "type": "electric_scooter", "is_disabled": 0, "lat": 38.92950616666667, "rental_uris": {"ios": "https://dc.lft.to/lastmile_qr_scan", "android": "https://dc.lft.to/lastmile_qr_scan"}, "is_reserved": 0, "fusion_lon": 0.0, "fusion_lat": 0.0, "lon": -77.04407666666667, "name": "fee5219f2ec95c672acb43242647197c"}, {"bike_id": "bd04d2073457be757cd2fb1acf65a13b", "type": "electric_scooter", "is_disabled": 0, "lat": 38.9046425, "rental_uris": {"ios": "https://dc.lft.to/lastmile_qr_scan", "android": "https://dc.lft.to/lastmile_qr_scan"}, "is_reserved": 0, "fusion_lon": 0.0, "fusion_lat": 0.0, "lon": -76.97611483333333, "name": "bd04d2073457be757cd2fb1acf65a13b"}, {"bike_id": "83542468b4c806a0f7e6a0b533a6f38f", "type": "electric_scooter", "is_disabled": 0, "lat": 38.93419816666667, "rental_uris": {"ios": "https://dc.lft.to/lastmile_qr_scan", "android": "https://dc.lft.to/lastmile_qr_scan"}, "is_reserved": 0, "fusion_lon": 0.0, "fusion_lat": 0.0, "lon": -77.04150866666667, "name": "83542468b4c806a0f7e6a0b533a6f38f"}, {"bike_id": "050818a3dc52c149bcbc29924444d55b", "type": "electric_scooter", "is_disabled": 0, "lat": 38.921141166666665, "rental_uris": {"ios": "https://dc.lft.to/lastmile_qr_scan", "android": "https://dc.lft.to/lastmile_qr_scan"}, "is_reserved": 0, "fusion_lon": 0.0, "fusion_lat": 0.0, "lon": -77.03184366666666, "name": "050818a3dc52c149bcbc29924444d55b"},