{"data": {"bikes": [{"type": "electric_scooter", "name": "30d9eb6412cdfb88c59c8d3107bb6f51", "rental_uris": {"ios": "https://dc.lft.to/lastmile_qr_scan", "android": "https://dc.lft.to/lastmile_qr_scan"}, "fusion_lon": 0.0, "lat": 38.894646333333334, "is_disabled": 0, "bike_id": "30d9eb6412cdfb88c59c8d3107bb6f51", "fusion_lat": 0.0, "is_reserved": 0, "lon": -77.02199216666666}, {"type": "electric_scooter", "name": "9e5d923cd0fd3520f4450e06e8a0ba59", "rental_uris": {"ios": "https://dc.lft.to/lastmile_qr_scan", "android": "https://dc.lft.to/lastmile_qr_scan"}, "fusion_lon": 0.0, "lat": 38.887139, "is_disabled": 0, "bike_id": "9e5d923cd0fd3520f4450e06e8a0ba59", "fusion_lat": 0.0, "is_reserved": 0, "lon": -77.02199133333333}, {"type": "electric_scooter", "name": "d7f48cf2746761a63733fad86aa517ec", "rental_uris": {"ios": "https://dc.lft.to/lastmile_qr_scan", "android": "https://dc.lft.to/lastmile_qr_scan"}, "fusion_lon": 0.0, "lat": 38.956879, "is_disabled": 0, "bike_id": "d7f48cf2746761a63733fad86aa517ec", "fusion_lat": 0.0, "is_reserved": 0, "lon": -77.019258}, {"type": "electric_scooter", "name": "7f34927e91dd17b3bd0db2efda1112b7", "rental_uris": {"ios": "https://dc.lft.to/lastmile_qr_scan", "android": "https://dc.lft.to/lastmile_qr_scan"}, "fusion_lon": 0.0, "lat": 38.897359333333334, "is_disabled": 0, "bike_id": "7f34927e91dd17b3bd0db2efda1112b7", "fusion_lat": 0.0, "is_reserved": 0, "lon": -77.00375116666666}, {"type": "electric_scooter", "name": "b2de8ecce611479427143a90de2b3f9c", "rental_uris": {"ios": "https://dc.lft.to/lastmile_qr_scan", "android": "https://dc.lft.to/lastmile_qr_scan"}, "fusion_lon": 0.0, "lat": 38.89906966666667, "is_disabled": 0, "bike_id": "b2de8ecce611479427143a90de2b3f9c", "fusion_lat": 0.0, "is_reserved": 0, "lon": -76.933652}, {"type": "electric_scooter", "name": "5e8b811916f7d36d11ba8fea847e705c", "rental_uris": {"ios": "https://dc.lft.to/lastmile_qr_scan", "android": "https://dc.lft.to/lastmile_qr_scan"}, "fusion_lon": 0.0, "lat": 38.92453883333334, "is_disabled": 0, "bike_id": "5e8b811916f7d36d11ba8fea847e705c", "fusion_lat": 0.0, "is_reserved": 0, "lon": -77.03323083333333}, {"type": "electric_scooter", "name": "6abfc4d941e8b32d914d17c59d843308", "rental_uris": {"ios": "https://dc.lft.to/lastmile_qr_scan", "android": "https://dc.lft.to/lastmile_qr_scan"}, "fusion_lon": 0.0, "lat": 38.901174, "is_disabled": 0, "bike_id": "6abfc4d941e8b32d914d17c59d843308", "fusion_lat": 0.0, "is_reserved": 0, "lon": -77.04483183333333}, {"type": "electric_scooter", "name": "b96b19a4eb088f0c38bb14818ad174d7", "rental_uris": {"ios": "https://dc.lft.to/lastmile_qr_scan", "android": "https://dc.lft.to/lastmile_qr_scan"}, "fusion_lon": 0.0, "lat": 38.9082785, "is_disabled": 0, "bike_id": "b96b19a4eb088f0c38bb14818ad174d7", "fusion_lat": 0.0, "is_reserved": 0, "lon": -77.03177683333334}, {"type": "electric_scooter", "name": "aa69ac03bc2da9717704f0328577e357", "rental_uris": {"ios": "https://dc.lft.to/lastmile_qr_scan", "android": "https://dc.lft.to/lastmile_qr_scan"}, "fusion_lon": 0.0, "lat": 38.931208166666664, "is_disabled": 0, "bike_id": "aa69ac03bc2da9717704f0328577e357", "fusion_lat": 0.0, "is_reserved": 0, "lon": -77.03877433333334}, {"type": "electric_bike", "name": "9723905309d94cae79648a1d813a8d47", "rental_uris": {"ios": "https://dc.lft.to/lastmile_qr_scan", "android": "https://dc.lft.to/lastmile_qr_scan"}, "fusion_lon": 0.0, "lat": 38.897338166666664, "is_disabled": 0, "bike_id": "9723905309d94cae79648a1d813a8d47", "fusion_lat": 0.0, "is_reserved": 0, "lon": -76.92044233333333}, {"type": "electric_scooter", "name": "b185813259a163b29af44abe74389ea8", "rental_uris": {"ios": "https://dc.lft.to/lastmile_qr_scan", "android": "https://dc.lft.to/lastmile_qr_scan"}, "fusion_lon": 0.0, "lat": 38.917694166666664, "is_disabled": 0, "bike_id": "b185813259a163b29af44abe74389ea8", "fusion_lat": 0.0, "is_reserved": 0, "lon": -77.02306233333333}, {"type": "electric_scooter", "name": "6744c57fb484bd0b4ba50ed330cbeaac", "rental_uris": {"ios": "https://dc.lft.to/lastmile_qr_scan", "android": "https://dc.lft.to/lastmile_qr_scan"}, "fusion_lon": 0.0, "lat": 38.91704883333333, "is_disabled": 0, "bike_id": "6744c57fb484bd0b4ba50ed330cbeaac", "fusion_lat": 0.0, "is_reserved": 0, "lon": -77.0417345}, {"type": "electric_bike", "name": "5393b1a53a4cd544f4090148256505ef", "rental_uris": {"ios": "https://dc.lft.to/lastmile_qr_scan", "android": "https://dc.lft.to/lastmile_qr_scan"}, "fusion_lon": 0.0, "lat": 38.9385655, "is_disabled": 0, "bike_id": "5393b1a53a4cd544f4090148256505ef", "fusion_lat": 0.0, "is_reserved": 0, "lon": -77.02477066666667}, {"type": "electric_scooter", "name": "9230db44b826ce4e70c91ca8011a6c88", "rental_uris": {"ios": "https://dc.lft.to/lastmile_qr_scan", "android": "https://dc.lft.to/lastmile_qr_scan"}, "fusion_lon": 0.0, "lat": 38.956460666666665, "is_disabled": 0, "bike_id": "9230db44b826ce4e70c91ca8011a6c88", "fusion_lat": 0.0, "is_reserved": 0, "lon": -76.99793566666666}, {"type": "electric_scooter", "name": "2b043fba7619eaba7d33049b5d9cfd3b", "rental_uris": {"ios": "https://dc.lft.to/lastmile_qr_scan", "android": "https://dc.lft.to/lastmile_qr_scan"}, "fusion_lon": 0.0, "lat": 38.903588666666664, "is_disabled": 0, "bike_id": "2b043fba7619eaba7d33049b5d9cfd3b", "fusion_lat": 0.0, "is_reserved": 0, "lon": -77.00734733333333}, {"type": "electric_scooter", "name": "3012c121b1c8f34659acdd4a111e6f57", "rental_uris": {"ios": "https://dc.lft.to/lastmile_qr_scan", "android": "https://dc.lft.to/lastmile_qr_scan"}, "fusion_lon": 0.0, "lat": 38.856498, "is_disabled": 0, "bike_id": "3012c121b1c8f34659acdd4a111e6f57", "fusion_lat": 0.0, "is_reserved": 0, "lon": -76.99668716666666}, {"type": "electric_scooter", "name": "3828875a79bef5c9af8875b3b112a7ce", "rental_uris": {"ios": "https://dc.lft.to/lastmile_qr_scan", "android": "https://dc.lft.to/lastmile_qr_scan"}, "fusion_lon": 0.0, "lat": 38.92872833333333, "is_disabled": 0, "bike_id": "3828875a79bef5c9af8875b3b112a7ce", "fusion_lat": 0.0, "is_reserved": 0, "lon": -77.01361333333334}, {"type": "electric_scooter", "name": "d9b01422ef17539f3be3d2155479b151", "rental_uris": {"ios": "https://dc.lft.to/lastmile_qr_scan", "android": "https://dc.lft.to/lastmile_qr_scan"}, "fusion_lon": 0.0, "lat": 38.8872945, "is_disabled": 0, "bike_id": "d9b01422ef17539f3be3d2155479b151", "fusion_lat": 0.0, "is_reserved": 0, "lon": -77.02580283333333}, {"type": "electric_scooter", "name": "ff49832b05b16ab283ce776bd9b2a4ee", "rental_uris": {"ios": "https://dc.lft.to/lastmile_qr_scan", "android": "https://dc.lft.to/lastmile_qr_scan"}, "fusion_lon": 0.0, "lat": 38.9352525, "is_disabled": 0, "bike_id": "ff49832b05b16ab283ce776bd9b2a4ee", "fusion_lat": 0.0, "is_reserved": 0, "lon": -77.0765605}, {"type": "electric_scooter", "name": "88137194423e76b9197ac5f723e11f41", "rental_uris": {"ios": "https://dc.lft.to/lastmile_qr_scan", "android": "https://dc.lft.to/lastmile_qr_scan"}, "fusion_lon": 0.0, "lat": 38.9247015, "is_disabled": 0, "bike_id": "88137194423e76b9197ac5f723e11f41", "fusion_lat": 0.0, "is_reserved": 0, "lon": -77.02216666666666}, {"type": "electric_scooter", "name": "305817f33345c7e332af382b23994e49", "rental_uris": {"ios": "https://dc.lft.to/lastmile_qr_scan", "android": "https://dc.lft.to/lastmile_qr_scan"}, "fusion_lon": 0.0, "lat": 38.89866833333333, "is_disabled": 0, "bike_id": "305817f33345c7e332af382b23994e49", "fusion_lat": 0.0, "is_reserved": 0, "lon": -76.946475}, {"type": "electric_bike", "name": "eb22312f75b7adf95e7f6fcf3ee5ff7e", "rental_uris": {"ios": "https://dc.lft.to/lastmile_qr_scan", "android": "https://dc.lft.to/lastmile_qr_scan"}, "fusion_lon": 0.0, "lat": 38.89182666666667, "is_disabled": 0, "bike_id": "eb22312f75b7adf95e7f6fcf3ee5ff7e", "fusion_lat": 0.0, "is_reserved": 0, "lon": -76.92816216666667}, {"type": "electric_scooter", "name": "4611d72f977630c4a9b747759ad86769", "rental_uris": {"ios": "https://dc.lft.to/lastmile_qr_scan", "android": "https://dc.lft.to/lastmile_qr_scan"}, "fusion_lon": 0.0, "lat": 38.895079333333335, "is_disabled": 0, "bike_id": "4611d72f977630c4a9b747759ad86769", "fusion_lat": 0.0, "is_reserved": 0, "lon": -76.93476466666667}, {"type": "electric_scooter", "name": "6e3484ce4054cd030d6a3259503d7315", "rental_uris": {"ios": "https://dc.lft.to/lastmile_qr_scan", "android": "https://dc.lft.to/lastmile_qr_scan"}, "fusion_lon": 0.0, "lat": 38.923017, "is_disabled": 0, "bike_id": "6e3484ce4054cd030d6a3259503d7315", "fusion_lat": 0.0, "is_reserved": 0, "lon": -77.042712}, {"type": "electric_scooter", "name": "8b38927d39765934d480575b337490b7", "rental_uris": {"ios": "https://dc.lft.to/lastmile_qr_scan", "android": "https://dc.lft.to/lastmile_qr_scan"}, "fusion_lon": 0.0, "lat": 38.93288, "is_disabled": 0, "bike_id": "8b38927d39765934d480575b337490b7", "fusion_lat": 0.0, "is_reserved": 0, "lon": -77.04088}, {"type": "electric_scooter", "name": "d2405a3b179c8b4096e2ecae0a5642f3", "rental_uris": {"ios": "https://dc.lft.to/lastmile_qr_scan", "android": "https://dc.lft.to/lastmile_qr_scan"}, "fusion_lon": 0.0, "lat": 38.9097525, "is_disabled": 0, "bike_id": "d2405a3b179c8b4096e2ecae0a5642f3", "fusion_lat": 0.0, "is_reserved": 0, "lon": -77.032144}, {"type": "electric_scooter", "name": "d976afd2fc48d56c425e81246c6124f2", "rental_uris": {"ios": "https://dc.lft.to/lastmile_qr_scan", "android": "https://dc.lft.to/lastmile_qr_scan"}, "fusion_lon": 0.0, "lat": 38.911927, "is_disabled": 0, "bike_id": "d976afd2fc48d56c425e81246c6124f2", "fusion_lat": 0.0, "is_reserved": 0, "lon": -77.00388216666667}, {"type": "electric_scooter", "name": "10e928e7abae23a7bfedcf928d432e8e", "rental_uris": {"ios": "https://dc.lft.to/lastmile_qr_scan", "android": "https://dc.lft.to/lastmile_qr_scan"}, "fusion_lon": 0.0, "lat": 38.912667666666664, "is_disabled": 0, "bike_id": "10e928e7abae23a7bfedcf928d432e8e", "fusion_lat": 0.0, "is_reserved": 0, "lon": -77.0129605}, {"type": "electric_scooter", "name": "1d036c36671b4cd8a1a20d537ca4f6f4", "rental_uris": {"ios": "https://dc.lft.to/lastmile_qr_scan", "android": "https://dc.lft.to/lastmile_qr_scan"}, "fusion_lon": 0.0, "lat": 38.918572166666664, "is_disabled": 0, "bike_id": "1d036c36671b4cd8a1a20d537ca4f6f4", "fusion_lat": 0.0, "is_reserved": 0, "lon": -77.00208166666667}, {"type": "electric_scooter", "name": "1281b9fe6495e19551932eb651913917", "rental_uris": {"ios": "https://dc.lft.to/lastmile_qr_scan", "android": "https://dc.lft.to/lastmile_qr_scan"}, "fusion_lon": 0.0, "lat": 38.920961, "is_disabled": 0, "bike_id": "1281b9fe6495e19551932eb651913917", "fusion_lat": 0.0, "is_reserved": 0, "lon": -77.02526216666666}, {"type": "electric_scooter", "name": "fad2ba5e4132ea2984640395438f4a94", "rental_uris": {"ios": "https://dc.lft.to/lastmile_qr_scan", "android": "https://dc.lft.to/lastmile_qr_scan"}, "fusion_lon": 0.0, "lat": 38.8861565, "is_disabled": 0, "bike_id": "fad2ba5e4132ea2984640395438f4a94", "fusion_lat": 0.0, "is_reserved": 0, "lon": -77.01249133333333}, {"type": "electric_scooter", "name": "cc5194d8461bc4f37bdc361b48265c90", "rental_uris": {"ios": "https://dc.lft.to/lastmile_qr_scan", "android": "https://dc.lft.to/lastmile_qr_scan"}, "fusion_lon": 0.0, "lat": 38.8831435, "is_disabled": 0, "bike_id": "cc5194d8461bc4f37bdc361b48265c90", "fusion_lat": 0.0, "is_reserved": 0, "lon": -77.01754733333334}, {"type": "electric_bike", "name": "17253e868b03d94ef6acbaa323d2156e", "rental_uris": {"ios": "https://dc.lft.to/lastmile_qr_scan", "android": "https://dc.lft.to/lastmile_qr_scan"}, "fusion_lon": 0.0, "lat": 38.884960166666666, "is_disabled": 0, "bike_id": "17253e868b03d94ef6acbaa323d2156e", "fusion_lat": 0.0, "is_reserved": 0, "lon": -76.95666766666666}, {"type": "electric_scooter", "name": "e951a98416237e149f9e46309654c558", "rental_uris": {"ios": "https://dc.lft.to/lastmile_qr_scan", "android": "https://dc.lft.to/lastmile_qr_scan"}, "fusion_lon": 0.0, "lat": 38.907119333333334, "is_disabled": 0, "bike_id": "e951a98416237e149f9e46309654c558", "fusion_lat": 0.0, "is_reserved": 0, "lon": -77.00761}, {"type": "electric_scooter", "name": "005766968a853d44a655a7c70e3d2ee6", "rental_uris": {"ios": "https://dc.lft.to/lastmile_qr_scan", "android": "https://dc.lft.to/lastmile_qr_scan"}, "fusion_lon": 0.0, "lat": 38.905683833333335, "is_disabled": 0, "bike_id": "005766968a853d44a655a7c70e3d2ee6", "fusion_lat": 0.0, "is_reserved": 0, "lon": -77.0265285}, {"type": "electric_scooter", "name": "c768c32825228c399e9d0ac0139e0a38", "rental_uris": {"ios": "https://dc.lft.to/lastmile_qr_scan", "android": "https://dc.lft.to/lastmile_qr_scan"}, "fusion_lon": 0.0, "lat": 38.90566466666667, "is_disabled": 0, "bike_id": "c768c32825228c399e9d0ac0139e0a38", "fusion_lat": 0.0, "is_reserved": 0, "lon": -77.04352016666667}, {"type": "electric_scooter", "name": "647e28c081404c5fa7e037765ac8bb4a", "rental_uris": {"ios": "https://dc.lft.to/lastmile_qr_scan", "android": "https://dc.lft.to/lastmile_qr_scan"}, "fusion_lon": 0.0, "lat": 38.92313933333333, "is_disabled": 0, "bike_id": "647e28c081404c5fa7e037765ac8bb4a", "fusion_lat": 0.0, "is_reserved": 0, "lon": -77.028946}, {"type": "electric_scooter", "name": "d23d93289a52579088da55e93a840576", "rental_uris": {"ios": "https://dc.lft.to/lastmile_qr_scan", "android": "https://dc.lft.to/lastmile_qr_scan"}, "fusion_lon": 0.0, "lat": 38.89464316666667, "is_disabled": 0, "bike_id": "d23d93289a52579088da55e93a840576", "fusion_lat": 0.0, "is_reserved": 0, "lon": -77.01657533333334}, {"type": "electric_scooter", "name": "5a4bba993c5664e5da667eb602c77d67", "rental_uris": {"ios": "https://dc.lft.to/lastmile_qr_scan", "android": "https://dc.lft.to/lastmile_qr_scan"}, "fusion_lon": 0.0, "lat": 38.90775466666667, "is_disabled": 0, "bike_id": "5a4bba993c5664e5da667eb602c77d67", "fusion_lat": 0.0, "is_reserved": 0, "lon": -77.071653}, {"type": "electric_scooter", "name": "c65314ee509ded89f868abff4e3029ff", "rental_uris": {"ios": "https://dc.lft.to/lastmile_qr_scan", "android": "https://dc.lft.to/lastmile_qr_scan"}, "fusion_lon": 0.0, "lat": 38.8874745, "is_disabled": 0, "bike_id": "c65314ee509ded89f868abff4e3029ff", "fusion_lat": 0.0, "is_reserved": 0, "lon": -76.973154}, {"type": "electric_scooter", "name": "9f90572ea96f22fa61f66e6c8a71a41b", "rental_uris": {"ios": "https://dc.lft.to/lastmile_qr_scan", "android": "https://dc.lft.to/lastmile_qr_scan"}, "fusion_lon": 0.0, "lat": 38.900627666666665, "is_disabled": 0, "bike_id": "9f90572ea96f22fa61f66e6c8a71a41b", "fusion_lat": 0.0, "is_reserved": 0, "lon": -77.05423583333334}, {"type": "electric_scooter", "name": "6bdad355386075b5366ad82161c85561", "rental_uris": {"ios": "https://dc.lft.to/lastmile_qr_scan", "android": "https://dc.lft.to/lastmile_qr_scan"}, "fusion_lon": 0.0, "lat": 38.90229033333333, "is_disabled": 0, "bike_id": "6bdad355386075b5366ad82161c85561", "fusion_lat": 0.0, "is_reserved": 0, "lon": -77.0376505}, {"type": "electric_scooter", "name": "5d87462be67fc66332a4452f63723754", "rental_uris": {"ios": "https://dc.lft.to/lastmile_qr_scan", "android": "https://dc.lft.to/lastmile_qr_scan"}, "fusion_lon": 0.0, "lat": 38.8814445, "is_disabled": 0, "bike_id": "5d87462be67fc66332a4452f63723754", "fusion_lat": 0.0, "is_reserved": 0, "lon": -77.02738683333334}, {"type": "electric_scooter", "name": "497f18bfcfee9871ff7ef7c1e0b48339", "rental_uris": {"ios": "https://dc.lft.to/lastmile_qr_scan", "android": "https://dc.lft.to/lastmile_qr_scan"}, "fusion_lon": 0.0, "lat": 38.906051, "is_disabled": 0, "bike_id": "497f18bfcfee9871ff7ef7c1e0b48339", "fusion_lat": 0.0, "is_reserved": 0, "lon": -77.00333}, {"type": "electric_scooter", "name": "feacd61f2a504eb21ea84510e237f8d4", "rental_uris": {"ios": "https://dc.lft.to/lastmile_qr_scan", "android": "https://dc.lft.to/lastmile_qr_scan"}, "fusion_lon": 0.0, "lat": 38.910359666666665, "is_disabled": 0, "bike_id": "feacd61f2a504eb21ea84510e237f8d4", "fusion_lat": 0.0, "is_reserved": 0, "lon": -77.07572966666666}, {"type": "electric_scooter", "name": "a218625bed6d07efec15a591b43c398e", "rental_uris": {"ios": "https://dc.lft.to/lastmile_qr_scan", "android": "https://dc.lft.to/lastmile_qr_scan"}, "fusion_lon": 0.0, "lat": 38.89959266666666, "is_disabled": 0, "bike_id": "a218625bed6d07efec15a591b43c398e", "fusion_lat": 0.0, "is_reserved": 0, "lon": -76.98149666666667}, {"type": "electric_scooter", "name": "5b9648b090559e397672b7d913fd92c1", "rental_uris": {"ios": "https://dc.lft.to/lastmile_qr_scan", "android": "https://dc.lft.to/lastmile_qr_scan"}, "fusion_lon": 0.0, "lat": 38.887224, "is_disabled": 0, "bike_id": "5b9648b090559e397672b7d913fd92c1", "fusion_lat": 0.0, "is_reserved": 0, "lon": -76.99681783333334}, {"type": "electric_scooter", "name": "453e8a733d674d1b5a0a2086aeb8f633", "rental_uris": {"ios": "https://dc.lft.to/lastmile_qr_scan", "android": "https://dc.lft.to/lastmile_qr_scan"}, "fusion_lon": 0.0, "lat": 38.884139, "is_disabled": 0, "bike_id": "453e8a733d674d1b5a0a2086aeb8f633", "fusion_lat": 0.0, "is_reserved": 0, "lon": -76.95758816666667}, {"type": "electric_scooter", "name": "e76a935c3cdbd7973e06b85cec5e14a8", "rental_uris": {"ios": "https://dc.lft.to/lastmile_qr_scan", "android": "https://dc.lft.to/lastmile_qr_scan"}, "fusion_lon": 0.0, "lat": 38.926102666666665, "is_disabled": 0, "bike_id": "e76a935c3cdbd7973e06b85cec5e14a8", "fusion_lat": 0.0, "is_reserved": 0, "lon": -77.02162316666667}, {"type": "electric_scooter", "name": "7b35ee3ae6abf71f9c6147381e91e1ad", "rental_uris": {"ios": "https://dc.lft.to/lastmile_qr_scan", "android": "https://dc.lft.to/lastmile_qr_scan"}, "fusion_lon": 0.0, "lat": 38.91102333333333, "is_disabled": 0, "bike_id": "7b35ee3ae6abf71f9c6147381e91e1ad", "fusion_lat": 0.0, "is_reserved": 0, "lon": -77.0279745}, {"type": "electric_scooter", "name": "cd932c51b5b5cfec5e9584030e080f4d", "rental_uris": {"ios": "https://dc.lft.to/lastmile_qr_scan", "android": "https://dc.lft.to/lastmile_qr_scan"}, "fusion_lon": 0.0, "lat": 38.865552, "is_disabled": 0, "bike_id": "cd932c51b5b5cfec5e9584030e080f4d", "fusion_lat": 0.0, "is_reserved": 0, "lon": -76.97858616666667}, {"type": "electric_scooter", "name": "30e4b0276c9dca2e6d825bd834dd6386", "rental_uris": {"ios": "https://dc.lft.to/lastmile_qr_scan", "android": "https://dc.lft.to/lastmile_qr_scan"}, "fusion_lon": 0.0, "lat": 38.93054383333333, "is_disabled": 0, "bike_id": "30e4b0276c9dca2e6d825bd834dd6386", "fusion_lat": 0.0, "is_reserved": 0, "lon": -77.01864166666667}, {"type": "electric_scooter", "name": "df1b507dbf07c6c6de2a0c6d84c6f073", "rental_uris": {"ios": "https://dc.lft.to/lastmile_qr_scan", "android": "https://dc.lft.to/lastmile_qr_scan"}, "fusion_lon": 0.0, "lat": 38.92460166666667, "is_disabled": 0, "bike_id": "df1b507dbf07c6c6de2a0c6d84c6f073", "fusion_lat": 0.0, "is_reserved": 0, "lon": -77.05227433333333}, {"type": "electric_scooter", "name": "4605e1bb71460c24b4187a39d4a36710", "rental_uris": {"ios": "https://dc.lft.to/lastmile_qr_scan", "android": "https://dc.lft.to/lastmile_qr_scan"}, "fusion_lon": 0.0, "lat": 38.903707833333335, "is_disabled": 0, "bike_id": "4605e1bb71460c24b4187a39d4a36710", "fusion_lat": 0.0, "is_reserved": 0, "lon": -77.01635833333333}, {"type": "electric_scooter", "name": "3c9cc15d7b5e2642036cee734013370e", "rental_uris": {"ios": "https://dc.lft.to/lastmile_qr_scan", "android": "https://dc.lft.to/lastmile_qr_scan"}, "fusion_lon": 0.0, "lat": 38.88400633333333, "is_disabled": 0, "bike_id": "3c9cc15d7b5e2642036cee734013370e", "fusion_lat": 0.0, "is_reserved": 0, "lon": -76.98612616666666}, {"type": "electric_scooter", "name": "1fe04c75ba9c3cbbadabd968989861af", "rental_uris": {"ios": "https://dc.lft.to/lastmile_qr_scan", "android": "https://dc.lft.to/lastmile_qr_scan"}, "fusion_lon": 0.0, "lat": 38.918575833333335, "is_disabled": 0, "bike_id": "1fe04c75ba9c3cbbadabd968989861af", "fusion_lat": 0.0, "is_reserved": 0, "lon": -77.02602783333333}, {"type": "electric_bike", "name": "e1290a08404f751d7af7643a49af9fae", "rental_uris": {"ios": "https://dc.lft.to/lastmile_qr_scan", "android": "https://dc.lft.to/lastmile_qr_scan"}, "fusion_lon": 0.0, "lat": 38.79698533333333, "is_disabled": 0, "bike_id": "e1290a08404f751d7af7643a49af9fae", "fusion_lat": 0.0, "is_reserved": 0, "lon": -77.00371033333333}, {"type": "electric_scooter", "name": "db9b7daaac53e5c9e007ad0befdaa928", "rental_uris": {"ios": "https://dc.lft.to/lastmile_qr_scan", "android": "https://dc.lft.to/lastmile_qr_scan"}, "fusion_lon": 0.0, "lat": 38.92438716666667, "is_disabled": 0, "bike_id": "db9b7daaac53e5c9e007ad0befdaa928", "fusion_lat": 0.0, "is_reserved": 0, "lon": -77.03406466666667}, {"type": "electric_scooter", "name": "903b1714cbbae0b5868cd29e89e724fa", "rental_uris": {"ios": "https://dc.lft.to/lastmile_qr_scan", "android": "https://dc.lft.to/lastmile_qr_scan"}, "fusion_lon": 0.0, "lat": 38.92192883333333, "is_disabled": 0, "bike_id": "903b1714cbbae0b5868cd29e89e724fa", "fusion_lat": 0.0, "is_reserved": 0, "lon": -77.018325}, {"type": "electric_scooter", "name": "28cab02a28cb6d6361fe7279be7a0be8", "rental_uris": {"ios": "https://dc.lft.to/lastmile_qr_scan", "android": "https://dc.lft.to/lastmile_qr_scan"}, "fusion_lon": 0.0, "lat": 38.9222985, "is_disabled": 0, "bike_id": "28cab02a28cb6d6361fe7279be7a0be8", "fusion_lat": 0.0, "is_reserved": 0, "lon": -77.0297705}, {"type": "electric_scooter", "name": "fb8c1bd0194004a491252accbf793a97", "rental_uris": {"ios": "https://dc.lft.to/lastmile_qr_scan", "android": "https://dc.lft.to/lastmile_qr_scan"}, "fusion_lon": 0.0, "lat": 38.900103666666666, "is_disabled": 0, "bike_id": "fb8c1bd0194004a491252accbf793a97", "fusion_lat": 0.0, "is_reserved": 0, "lon": -77.0713875}, {"type": "electric_scooter", "name": "2a8dba206c7e713fb3b32a57b75ef94b", "rental_uris": {"ios": "https://dc.lft.to/lastmile_qr_scan", "android": "https://dc.lft.to/lastmile_qr_scan"}, "fusion_lon": 0.0, "lat": 38.90030616666667, "is_disabled": 0, "bike_id": "2a8dba206c7e713fb3b32a57b75ef94b", "fusion_lat": 0.0, "is_reserved": 0, "lon": -77.02410616666667}, {"type": "electric_scooter", "name": "b6e3e89618dc484829ee7065d0c1edb0", "rental_uris": {"ios": "https://dc.lft.to/lastmile_qr_scan", "android": "https://dc.lft.to/lastmile_qr_scan"}, "fusion_lon": 0.0, "lat": 38.896348333333336, "is_disabled": 0, "bike_id": "b6e3e89618dc484829ee7065d0c1edb0", "fusion_lat": 0.0, "is_reserved": 0, "lon": -77.03323383333333}, {"type": "electric_scooter", "name": "10e8dd1f4d6567d5b0d4c0885601923d", "rental_uris": {"ios": "https://dc.lft.to/lastmile_qr_scan", "android": "https://dc.lft.to/lastmile_qr_scan"}, "fusion_lon": 0.0, "lat": 38.93875366666666, "is_disabled": 0, "bike_id": "10e8dd1f4d6567d5b0d4c0885601923d", "fusion_lat": 0.0, "is_reserved": 0, "lon": -77.03085683333333}, {"type": "electric_scooter", "name": "1d0e880ae9b6e8a72d8d2fed40b4f68b", "rental_uris": {"ios": "https://dc.lft.to/lastmile_qr_scan", "android": "https://dc.lft.to/lastmile_qr_scan"}, "fusion_lon": 0.0, "lat": 38.94331916666667, "is_disabled": 0, "bike_id": "1d0e880ae9b6e8a72d8d2fed40b4f68b", "fusion_lat": 0.0, "is_reserved": 0, "lon": -77.02686983333334}, {"type": "electric_scooter", "name": "874c80b519fe995c14b382df2b1c3933", "rental_uris": {"ios": "https://dc.lft.to/lastmile_qr_scan", "android": "https://dc.lft.to/lastmile_qr_scan"}, "fusion_lon": 0.0, "lat": 38.8863325, "is_disabled": 0, "bike_id": "874c80b519fe995c14b382df2b1c3933", "fusion_lat": 0.0, "is_reserved": 0, "lon": -76.92584316666667}, {"type": "electric_bike", "name": "9cdefd6c596289b7ca071cbf776205fd", "rental_uris": {"ios": "https://dc.lft.to/lastmile_qr_scan", "android": "https://dc.lft.to/lastmile_qr_scan"}, "fusion_lon": 0.0, "lat": 38.8551135, "is_disabled": 0, "bike_id": "9cdefd6c596289b7ca071cbf776205fd", "fusion_lat": 0.0, "is_reserved": 0, "lon": -77.10538783333334}, {"type": "electric_scooter", "name": "407cc6df84beafbe4b1ce408bd0340f0", "rental_uris": {"ios": "https://dc.lft.to/lastmile_qr_scan", "android": "https://dc.lft.to/lastmile_qr_scan"}, "fusion_lon": 0.0, "lat": 38.9282555, "is_disabled": 0, "bike_id": "407cc6df84beafbe4b1ce408bd0340f0", "fusion_lat": 0.0, "is_reserved": 0, "lon": -77.05435783333333}, {"type": "electric_scooter", "name": "07f8f4d9d1d59bce6cfe24c36690fbe2", "rental_uris": {"ios": "https://dc.lft.to/lastmile_qr_scan", "android": "https://dc.lft.to/lastmile_qr_scan"}, "fusion_lon": 0.0, "lat": 38.917048666666666, "is_disabled": 0, "bike_id": "07f8f4d9d1d59bce6cfe24c36690fbe2", "fusion_lat": 0.0, "is_reserved": 0, "lon": -77.03154933333333}, {"type": "electric_scooter", "name": "9334302cb53015e3880b0ca2285a013b", "rental_uris": {"ios": "https://dc.lft.to/lastmile_qr_scan", "android": "https://dc.lft.to/lastmile_qr_scan"}, "fusion_lon": 0.0, "lat": 38.902393000000004, "is_disabled": 0, "bike_id": "9334302cb53015e3880b0ca2285a013b", "fusion_lat": 0.0, "is_reserved": 0, "lon": -77.00200816666667}, {"type": "electric_scooter", "name": "be784a5afcacc4ff0ea401a16ce7566e", "rental_uris": {"ios": "https://dc.lft.to/lastmile_qr_scan", "android": "https://dc.lft.to/lastmile_qr_scan"}, "fusion_lon": 0.0, "lat": 38.92753883333334, "is_disabled": 0, "bike_id": "be784a5afcacc4ff0ea401a16ce7566e", "fusion_lat": 0.0, "is_reserved": 0, "lon": -77.03270483333333}, {"type": "electric_scooter", "name": "b894f49d1a053de151f63eba80d2f4f9", "rental_uris": {"ios": "https://dc.lft.to/lastmile_qr_scan", "android": "https://dc.lft.to/lastmile_qr_scan"}, "fusion_lon": 0.0, "lat": 38.8922145, "is_disabled": 0, "bike_id": "b894f49d1a053de151f63eba80d2f4f9", "fusion_lat": 0.0, "is_reserved": 0, "lon": -77.0480645}, {"type": "electric_scooter", "name": "f36742e0b5759bfc0e76a96516cf9565", "rental_uris": {"ios": "https://dc.lft.to/lastmile_qr_scan", "android": "https://dc.lft.to/lastmile_qr_scan"}, "fusion_lon": 0.0, "lat": 38.874976333333336, "is_disabled": 0, "bike_id": "f36742e0b5759bfc0e76a96516cf9565", "fusion_lat": 0.0, "is_reserved": 0, "lon": -77.000766}, {"type": "electric_scooter", "name": "c71ff9e6740441249b5fbca83e8ee6be", "rental_uris": {"ios": "https://dc.lft.to/lastmile_qr_scan", "android": "https://dc.lft.to/lastmile_qr_scan"}, "fusion_lon": 0.0, "lat": 38.907199, "is_disabled": 0, "bike_id": "c71ff9e6740441249b5fbca83e8ee6be", "fusion_lat": 0.0, "is_reserved": 0, "lon": -77.02542033333333}, {"type": "electric_scooter", "name": "21a27fe02343f4f9a9909261b2cf82c2", "rental_uris": {"ios": "https://dc.lft.to/lastmile_qr_scan", "android": "https://dc.lft.to/lastmile_qr_scan"}, "fusion_lon": 0.0, "lat": 38.920486333333336, "is_disabled": 0, "bike_id": "21a27fe02343f4f9a9909261b2cf82c2", "fusion_lat": 0.0, "is_reserved": 0, "lon": -77.00207683333333}, {"type": "electric_scooter", "name": "f9c503ce59d23612c4a06a2241a599ed", "rental_uris": {"ios": "https://dc.lft.to/lastmile_qr_scan", "android": "https://dc.lft.to/lastmile_qr_scan"}, "fusion_lon": 0.0, "lat": 38.89221766666667, "is_disabled": 0, "bike_id": "f9c503ce59d23612c4a06a2241a599ed", "fusion_lat": 0.0, "is_reserved": 0, "lon": -77.022277}, {"type": "electric_scooter", "name": "97e8812250e14d50f74ee3136028e75f", "rental_uris": {"ios": "https://dc.lft.to/lastmile_qr_scan", "android": "https://dc.lft.to/lastmile_qr_scan"}, "fusion_lon": 0.0, "lat": 38.87608016666667, "is_disabled": 0, "bike_id": "97e8812250e14d50f74ee3136028e75f", "fusion_lat": 0.0, "is_reserved": 0, "lon": -76.96561866666667}, {"type": "electric_scooter", "name": "a71a8b49492aa0eb13db87e2c015c879", "rental_uris": {"ios": "https://dc.lft.to/lastmile_qr_scan", "android": "https://dc.lft.to/lastmile_qr_scan"}, "fusion_lon": 0.0, "lat": 38.901881, "is_disabled": 0, "bike_id": "a71a8b49492aa0eb13db87e2c015c879", "fusion_lat": 0.0, "is_reserved": 0, "lon": -76.928985}, {"type": "electric_scooter", "name": "3cd96877068b13a91cda57468fc1c45f", "rental_uris": {"ios": "https://dc.lft.to/lastmile_qr_scan", "android": "https://dc.lft.to/lastmile_qr_scan"}, "fusion_lon": 0.0, "lat": 38.88744033333333, "is_disabled": 0, "bike_id": "3cd96877068b13a91cda57468fc1c45f", "fusion_lat": 0.0, "is_reserved": 0, "lon": -77.02843183333333}, {"type": "electric_scooter", "name": "86892809941f529c75597ce5722588d2", "rental_uris": {"ios": "https://dc.lft.to/lastmile_qr_scan", "android": "https://dc.lft.to/lastmile_qr_scan"}, "fusion_lon": 0.0, "lat": 38.94161716666667, "is_disabled": 0, "bike_id": "86892809941f529c75597ce5722588d2", "fusion_lat": 0.0, "is_reserved": 0, "lon": -77.09268933333334}, {"type": "electric_scooter", "name": "c408eba1a8de5079b8bc6b67ef492284", "rental_uris": {"ios": "https://dc.lft.to/lastmile_qr_scan", "android": "https://dc.lft.to/lastmile_qr_scan"}, "fusion_lon": 0.0, "lat": 38.909712166666665, "is_disabled": 0, "bike_id": "c408eba1a8de5079b8bc6b67ef492284", "fusion_lat": 0.0, "is_reserved": 0, "lon": -77.03187033333333}, {"type": "electric_scooter", "name": "1e3dce39f5459dc8e69e18ee0efc65bd", "rental_uris": {"ios": "https://dc.lft.to/lastmile_qr_scan", "android": "https://dc.lft.to/lastmile_qr_scan"}, "fusion_lon": 0.0, "lat": 38.92048466666667, "is_disabled": 0, "bike_id": "1e3dce39f5459dc8e69e18ee0efc65bd", "fusion_lat": 0.0, "is_reserved": 0, "lon": -77.04193216666667}, {"type": "electric_scooter", "name": "40578e2ceaf7954256e43fa0414bc4c9", "rental_uris": {"ios": "https://dc.lft.to/lastmile_qr_scan", "android": "https://dc.lft.to/lastmile_qr_scan"}, "fusion_lon": 0.0, "lat": 38.90636633333333, "is_disabled": 0, "bike_id": "40578e2ceaf7954256e43fa0414bc4c9", "fusion_lat": 0.0, "is_reserved": 0, "lon": -77.01019366666667}, {"type": "electric_scooter", "name": "2d36b37c4ef117638e100415d8da9878", "rental_uris": {"ios": "https://dc.lft.to/lastmile_qr_scan", "android": "https://dc.lft.to/lastmile_qr_scan"}, "fusion_lon": 0.0, "lat": 38.9162155, "is_disabled": 0, "bike_id": "2d36b37c4ef117638e100415d8da9878", "fusion_lat": 0.0, "is_reserved": 0, "lon": -77.03146866666667}, {"type": "electric_scooter", "name": "74c2c0fec4618ce2a83bc1623a891dd2", "rental_uris": {"ios": "https://dc.lft.to/lastmile_qr_scan", "android": "https://dc.lft.to/lastmile_qr_scan"}, "fusion_lon": 0.0, "lat": 38.9285735, "is_disabled": 0, "bike_id": "74c2c0fec4618ce2a83bc1623a891dd2", "fusion_lat": 0.0, "is_reserved": 0, "lon": -77.02900783333334}, {"type": "electric_scooter", "name": "57054ee5986a6211bbaf7a9481e3283e", "rental_uris": {"ios": "https://dc.lft.to/lastmile_qr_scan", "android": "https://dc.lft.to/lastmile_qr_scan"}, "fusion_lon": 0.0, "lat": 38.934314, "is_disabled": 0, "bike_id": "57054ee5986a6211bbaf7a9481e3283e", "fusion_lat": 0.0, "is_reserved": 0, "lon": -77.05585083333334}, {"type": "electric_scooter", "name": "83c4c62bcfb0a34a518dd6d4f3b08dfd", "rental_uris": {"ios": "https://dc.lft.to/lastmile_qr_scan", "android": "https://dc.lft.to/lastmile_qr_scan"}, "fusion_lon": 0.0, "lat": 38.87724583333333, "is_disabled": 0, "bike_id": "83c4c62bcfb0a34a518dd6d4f3b08dfd", "fusion_lat": 0.0, "is_reserved": 0, "lon": -77.004491}, {"type": "electric_bike", "name": "8b3dc417a451be5bd08c59686b9626cd", "rental_uris": {"ios": "https://dc.lft.to/lastmile_qr_scan", "android": "https://dc.lft.to/lastmile_qr_scan"}, "fusion_lon": 0.0, "lat": 38.864493, "is_disabled": 0, "bike_id": "8b3dc417a451be5bd08c59686b9626cd", "fusion_lat": 0.0, "is_reserved": 0, "lon": -77.10683}, {"type": "electric_scooter", "name": "2809265c3803a179cd8c985164107847", "rental_uris": {"ios": "https://dc.lft.to/lastmile_qr_scan", "android": "https://dc.lft.to/lastmile_qr_scan"}, "fusion_lon": 0.0, "lat": 38.89534866666666, "is_disabled": 0, "bike_id": "2809265c3803a179cd8c985164107847", "fusion_lat": 0.0, "is_reserved": 0, "lon": -77.04838333333333}, {"type": "electric_scooter", "name": "e07b2064c1f1bf127b82e125813dcf1a", "rental_uris": {"ios": "https://dc.lft.to/lastmile_qr_scan", "android": "https://dc.lft.to/lastmile_qr_scan"}, "fusion_lon": 0.0, "lat": 38.908742333333336, "is_disabled": 0, "bike_id": "e07b2064c1f1bf127b82e125813dcf1a", "fusion_lat": 0.0, "is_reserved": 0, "lon": -77.02694216666667}, {"type": "electric_scooter", "name": "a19264d357944c9e3e1936fc4f2eb486", "rental_uris": {"ios": "https://dc.lft.to/lastmile_qr_scan", "android": "https://dc.lft.to/lastmile_qr_scan"}, "fusion_lon": 0.0, "lat": 38.909836166666665, "is_disabled": 0, "bike_id": "a19264d357944c9e3e1936fc4f2eb486", "fusion_lat": 0.0, "is_reserved": 0, "lon": -77.032736}, {"type": "electric_scooter", "name": "5977b3ad3fbcc240016d709e76b4e650", "rental_uris": {"ios": "https://dc.lft.to/lastmile_qr_scan", "android": "https://dc.lft.to/lastmile_qr_scan"}, "fusion_lon": 0.0, "lat": 38.876635666666665, "is_disabled": 0, "bike_id": "5977b3ad3fbcc240016d709e76b4e650", "fusion_lat": 0.0, "is_reserved": 0, "lon": -77.01605516666666}, {"type": "electric_scooter", "name": "f47d9f49b6db6d5670be2142c80fb7ed", "rental_uris": {"ios": "https://dc.lft.to/lastmile_qr_scan", "android": "https://dc.lft.to/lastmile_qr_scan"}, "fusion_lon": 0.0, "lat": 38.877211333333335, "is_disabled": 0, "bike_id": "f47d9f49b6db6d5670be2142c80fb7ed", "fusion_lat": 0.0, "is_reserved": 0, "lon": -77.004448}, {"type": "electric_scooter", "name": "49281c86c2a319714e8089441924009e", "rental_uris": {"ios": "https://dc.lft.to/lastmile_qr_scan", "android": "https://dc.lft.to/lastmile_qr_scan"}, "fusion_lon": 0.0, "lat": 38.91926183333333, "is_disabled": 0, "bike_id": "49281c86c2a319714e8089441924009e", "fusion_lat": 0.0, "is_reserved": 0, "lon": -77.00982266666666}, {"type": "electric_scooter", "name": "f17f861e5e54725e6918c212e87fca6c", "rental_uris": {"ios": "https://dc.lft.to/lastmile_qr_scan", "android": "https://dc.lft.to/lastmile_qr_scan"}, "fusion_lon": 0.0, "lat": 38.90265683333333, "is_disabled": 0, "bike_id": "f17f861e5e54725e6918c212e87fca6c", "fusion_lat": 0.0, "is_reserved": 0, "lon": -77.033373}, {"type": "electric_scooter", "name": "85412f60a849b9175f27278965c66d22", "rental_uris": {"ios": "https://dc.lft.to/lastmile_qr_scan", "android": "https://dc.lft.to/lastmile_qr_scan"}, "fusion_lon": 0.0, "lat": 38.877156166666666, "is_disabled": 0, "bike_id": "85412f60a849b9175f27278965c66d22", "fusion_lat": 0.0, "is_reserved": 0, "lon": -77.01764916666667}, {"type": "electric_scooter", "name": "e9d5a6b5f6c595fed5ed7028606a519d", "rental_uris": {"ios": "https://dc.lft.to/lastmile_qr_scan", "android": "https://dc.lft.to/lastmile_qr_scan"}, "fusion_lon": 0.0, "lat": 38.89582516666667, "is_disabled": 0, "bike_id": "e9d5a6b5f6c595fed5ed7028606a519d", "fusion_lat": 0.0, "is_reserved": 0, "lon": -77.02319383333334}, {"type": "electric_scooter", "name": "1a90277c33457f1fa0b265ca3f791481", "rental_uris": {"ios": "https://dc.lft.to/lastmile_qr_scan", "android": "https://dc.lft.to/lastmile_qr_scan"}, "fusion_lon": 0.0, "lat": 38.89901666666667, "is_disabled": 0, "bike_id": "1a90277c33457f1fa0b265ca3f791481", "fusion_lat": 0.0, "is_reserved": 0, "lon": -77.002244}, {"type": "electric_scooter", "name": "f105230e49b2cccb95cf52a261445c9e", "rental_uris": {"ios": "https://dc.lft.to/lastmile_qr_scan", "android": "https://dc.lft.to/lastmile_qr_scan"}, "fusion_lon": 0.0, "lat": 38.917858, "is_disabled": 0, "bike_id": "f105230e49b2cccb95cf52a261445c9e", "fusion_lat": 0.0, "is_reserved": 0, "lon": -77.02220316666667}, {"type": "electric_scooter", "name": "3a398423451139612f70733cf7aedc4c", "rental_uris": {"ios": "https://dc.lft.to/lastmile_qr_scan", "android": "https://dc.lft.to/lastmile_qr_scan"}, "fusion_lon": 0.0, "lat": 38.92413166666667, "is_disabled": 0, "bike_id": "3a398423451139612f70733cf7aedc4c", "fusion_lat": 0.0, "is_reserved": 0, "lon": -77.02036133333333}, {"type": "electric_scooter", "name": "76e56acc0b00587341a90c7ee556bcd2", "rental_uris": {"ios": "https://dc.lft.to/lastmile_qr_scan", "android": "https://dc.lft.to/lastmile_qr_scan"}, "fusion_lon": 0.0, "lat": 38.87646216666667, "is_disabled": 0, "bike_id": "76e56acc0b00587341a90c7ee556bcd2", "fusion_lat": 0.0, "is_reserved": 0, "lon": -77.00915766666667}, {"type": "electric_scooter", "name": "a8e0e9af8f58980d3c0b98c03ffe83ff", "rental_uris": {"ios": "https://dc.lft.to/lastmile_qr_scan", "android": "https://dc.lft.to/lastmile_qr_scan"}, "fusion_lon": 0.0, "lat": 38.902697333333336, "is_disabled": 0, "bike_id": "a8e0e9af8f58980d3c0b98c03ffe83ff", "fusion_lat": 0.0, "is_reserved": 0, "lon": -77.0531885}, {"type": "electric_scooter", "name": "37c9fc443165e015007ed9c986679f69", "rental_uris": {"ios": "https://dc.lft.to/lastmile_qr_scan", "android": "https://dc.lft.to/lastmile_qr_scan"}, "fusion_lon": 0.0, "lat": 38.94172533333333, "is_disabled": 0, "bike_id": "37c9fc443165e015007ed9c986679f69", "fusion_lat": 0.0, "is_reserved": 0, "lon": -77.031464}, {"type": "electric_scooter", "name": "eb76764b2e3309cea58287b33368ab4d", "rental_uris": {"ios": "https://dc.lft.to/lastmile_qr_scan", "android": "https://dc.lft.to/lastmile_qr_scan"}, "fusion_lon": 0.0, "lat": 38.877266666666664, "is_disabled": 0, "bike_id": "eb76764b2e3309cea58287b33368ab4d", "fusion_lat": 0.0, "is_reserved": 0, "lon": -77.00444483333334}, {"type": "electric_scooter", "name": "ad7825249233732e9e502f7451ab6b03", "rental_uris": {"ios": "https://dc.lft.to/lastmile_qr_scan", "android": "https://dc.lft.to/lastmile_qr_scan"}, "fusion_lon": 0.0, "lat": 38.903940166666665, "is_disabled": 0, "bike_id": "ad7825249233732e9e502f7451ab6b03", "fusion_lat": 0.0, "is_reserved": 0, "lon": -77.04017466666667}, {"type": "electric_scooter", "name": "e94ca1e556f7d1147a6df97138c66605", "rental_uris": {"ios": "https://dc.lft.to/lastmile_qr_scan", "android": "https://dc.lft.to/lastmile_qr_scan"}, "fusion_lon": 0.0, "lat": 38.905007499999996, "is_disabled": 0, "bike_id": "e94ca1e556f7d1147a6df97138c66605", "fusion_lat": 0.0, "is_reserved": 0, "lon": -77.06118416666666}, {"type": "electric_scooter", "name": "1046ccffb02eaa7e36047b5ef2114d41", "rental_uris": {"ios": "https://dc.lft.to/lastmile_qr_scan", "android": "https://dc.lft.to/lastmile_qr_scan"}, "fusion_lon": 0.0, "lat": 38.89592783333333, "is_disabled": 0, "bike_id": "1046ccffb02eaa7e36047b5ef2114d41", "fusion_lat": 0.0, "is_reserved": 0, "lon": -77.02827066666667}, {"type": "electric_scooter", "name": "69092276d5ff4c03deb5d4ad8c60f9cb", "rental_uris": {"ios": "https://dc.lft.to/lastmile_qr_scan", "android": "https://dc.lft.to/lastmile_qr_scan"}, "fusion_lon": 0.0, "lat": 38.904781166666666, "is_disabled": 0, "bike_id": "69092276d5ff4c03deb5d4ad8c60f9cb", "fusion_lat": 0.0, "is_reserved": 0, "lon": -77.0348}, {"type": "electric_scooter", "name": "84f621899ab07bbb7948540cc1bad8d6", "rental_uris": {"ios": "https://dc.lft.to/lastmile_qr_scan", "android": "https://dc.lft.to/lastmile_qr_scan"}, "fusion_lon": 0.0, "lat": 38.919305666666666, "is_disabled": 0, "bike_id": "84f621899ab07bbb7948540cc1bad8d6", "fusion_lat": 0.0, "is_reserved": 0, "lon": -77.031737}, {"type": "electric_scooter", "name": "9013e114d76898a9a2f455867864a86c", "rental_uris": {"ios": "https://dc.lft.to/lastmile_qr_scan", "android": "https://dc.lft.to/lastmile_qr_scan"}, "fusion_lon": 0.0, "lat": 38.9011995, "is_disabled": 0, "bike_id": "9013e114d76898a9a2f455867864a86c", "fusion_lat": 0.0, "is_reserved": 0, "lon": -77.03238766666666}, {"type": "electric_bike", "name": "e87be18e2f2acc0fd6a27b07dd2c8897", "rental_uris": {"ios": "https://dc.lft.to/lastmile_qr_scan", "android": "https://dc.lft.to/lastmile_qr_scan"}, "fusion_lon": 0.0, "lat": 38.93582, "is_disabled": 0, "bike_id": "e87be18e2f2acc0fd6a27b07dd2c8897", "fusion_lat": 0.0, "is_reserved": 0, "lon": -77.0365335}, {"type": "electric_scooter", "name": "b95c87e241d54b7830ac24052ecbb54a", "rental_uris": {"ios": "https://dc.lft.to/lastmile_qr_scan", "android": "https://dc.lft.to/lastmile_qr_scan"}, "fusion_lon": 0.0, "lat": 38.8871285, "is_disabled": 0, "bike_id": "b95c87e241d54b7830ac24052ecbb54a", "fusion_lat": 0.0, "is_reserved": 0, "lon": -77.02203933333334}, {"type": "electric_scooter", "name": "04f25a22a08beb211bd0fcf4ed8b32c6", "rental_uris": {"ios": "https://dc.lft.to/lastmile_qr_scan", "android": "https://dc.lft.to/lastmile_qr_scan"}, "fusion_lon": 0.0, "lat": 38.91715933333333, "is_disabled": 0, "bike_id": "04f25a22a08beb211bd0fcf4ed8b32c6", "fusion_lat": 0.0, "is_reserved": 0, "lon": -77.0322625}, {"type": "electric_scooter", "name": "0ac553cd3eab2b79b7a8e9fbdedd08b1", "rental_uris": {"ios": "https://dc.lft.to/lastmile_qr_scan", "android": "https://dc.lft.to/lastmile_qr_scan"}, "fusion_lon": 0.0, "lat": 38.8977945, "is_disabled": 0, "bike_id": "0ac553cd3eab2b79b7a8e9fbdedd08b1", "fusion_lat": 0.0, "is_reserved": 0, "lon": -77.02727383333334}, {"type": "electric_scooter", "name": "c4350601ea7672d293ae7bbeea48b64b", "rental_uris": {"ios": "https://dc.lft.to/lastmile_qr_scan", "android": "https://dc.lft.to/lastmile_qr_scan"}, "fusion_lon": 0.0, "lat": 38.90741533333333, "is_disabled": 0, "bike_id": "c4350601ea7672d293ae7bbeea48b64b", "fusion_lat": 0.0, "is_reserved": 0, "lon": -77.0017845}, {"type": "electric_scooter", "name": "11bdb93e6ab39c58032e3bf88f9db554", "rental_uris": {"ios": "https://dc.lft.to/lastmile_qr_scan", "android": "https://dc.lft.to/lastmile_qr_scan"}, "fusion_lon": 0.0, "lat": 38.904388833333336, "is_disabled": 0, "bike_id": "11bdb93e6ab39c58032e3bf88f9db554", "fusion_lat": 0.0, "is_reserved": 0, "lon": -77.04344433333333}, {"type": "electric_scooter", "name": "a5b4c6483ab4a49024ffc6571cd907ea", "rental_uris": {"ios": "https://dc.lft.to/lastmile_qr_scan", "android": "https://dc.lft.to/lastmile_qr_scan"}, "fusion_lon": 0.0, "lat": 38.919891, "is_disabled": 0, "bike_id": "a5b4c6483ab4a49024ffc6571cd907ea", "fusion_lat": 0.0, "is_reserved": 0, "lon": -76.973061}, {"type": "electric_scooter", "name": "627149d710aab7988dbfdd5d99c93d58", "rental_uris": {"ios": "https://dc.lft.to/lastmile_qr_scan", "android": "https://dc.lft.to/lastmile_qr_scan"}, "fusion_lon": 0.0, "lat": 38.881794666666664, "is_disabled": 0, "bike_id": "627149d710aab7988dbfdd5d99c93d58", "fusion_lat": 0.0, "is_reserved": 0, "lon": -76.9590075}, {"type": "electric_scooter", "name": "8ee0a2d720458116d7dc9ceb8ed11217", "rental_uris": {"ios": "https://dc.lft.to/lastmile_qr_scan", "android": "https://dc.lft.to/lastmile_qr_scan"}, "fusion_lon": 0.0, "lat": 38.931910333333335, "is_disabled": 0, "bike_id": "8ee0a2d720458116d7dc9ceb8ed11217", "fusion_lat": 0.0, "is_reserved": 0, "lon": -77.04302216666666}, {"type": "electric_scooter", "name": "37e531410777635dd351229f522d24e9", "rental_uris": {"ios": "https://dc.lft.to/lastmile_qr_scan", "android": "https://dc.lft.to/lastmile_qr_scan"}, "fusion_lon": 0.0, "lat": 38.936082166666665, "is_disabled": 0, "bike_id": "37e531410777635dd351229f522d24e9", "fusion_lat": 0.0, "is_reserved": 0, "lon": -77.0380105}, {"type": "electric_scooter", "name": "24c3dd4487338878a5a65837c6a2a6d7", "rental_uris": {"ios": "https://dc.lft.to/lastmile_qr_scan", "android": "https://dc.lft.to/lastmile_qr_scan"}, "fusion_lon": 0.0, "lat": 38.916885, "is_disabled": 0, "bike_id": "24c3dd4487338878a5a65837c6a2a6d7", "fusion_lat": 0.0, "is_reserved": 0, "lon": -77.02952066666667}, {"type": "electric_scooter", "name": "ff07d8c21e20f6128334f4fb3b4fa7bf", "rental_uris": {"ios": "https://dc.lft.to/lastmile_qr_scan", "android": "https://dc.lft.to/lastmile_qr_scan"}, "fusion_lon": 0.0, "lat": 38.9111825, "is_disabled": 0, "bike_id": "ff07d8c21e20f6128334f4fb3b4fa7bf", "fusion_lat": 0.0, "is_reserved": 0, "lon": -77.022057}, {"type": "electric_scooter", "name": "462b43d2b7a6577172adae1e2c088d9a", "rental_uris": {"ios": "https://dc.lft.to/lastmile_qr_scan", "android": "https://dc.lft.to/lastmile_qr_scan"}, "fusion_lon": 0.0, "lat": 38.9039325, "is_disabled": 0, "bike_id": "462b43d2b7a6577172adae1e2c088d9a", "fusion_lat": 0.0, "is_reserved": 0, "lon": -76.984617}, {"type": "electric_scooter", "name": "ab20ec375178f51d41d6faaad73f627d", "rental_uris": {"ios": "https://dc.lft.to/lastmile_qr_scan", "android": "https://dc.lft.to/lastmile_qr_scan"}, "fusion_lon": 0.0, "lat": 38.924313833333336, "is_disabled": 0, "bike_id": "ab20ec375178f51d41d6faaad73f627d", "fusion_lat": 0.0, "is_reserved": 0, "lon": -77.04250716666667}, {"type": "electric_bike", "name": "ed9cdfe45523165eed156e2e3722a935", "rental_uris": {"ios": "https://dc.lft.to/lastmile_qr_scan", "android": "https://dc.lft.to/lastmile_qr_scan"}, "fusion_lon": 0.0, "lat": 38.99418816666667, "is_disabled": 0, "bike_id": "ed9cdfe45523165eed156e2e3722a935", "fusion_lat": 0.0, "is_reserved": 0, "lon": -77.07697733333333}, {"type": "electric_bike", "name": "470a51c8f241c2342c81ba01e2698776", "rental_uris": {"ios": "https://dc.lft.to/lastmile_qr_scan", "android": "https://dc.lft.to/lastmile_qr_scan"}, "fusion_lon": 0.0, "lat": 39.03605366666667, "is_disabled": 0, "bike_id": "470a51c8f241c2342c81ba01e2698776", "fusion_lat": 0.0, "is_reserved": 0, "lon": -77.055495}, {"type": "electric_scooter", "name": "9c2ff229d8c1ba8c5d8d2fee2b6b9ece", "rental_uris": {"ios": "https://dc.lft.to/lastmile_qr_scan", "android": "https://dc.lft.to/lastmile_qr_scan"}, "fusion_lon": 0.0, "lat": 38.9167035, "is_disabled": 0, "bike_id": "9c2ff229d8c1ba8c5d8d2fee2b6b9ece", "fusion_lat": 0.0, "is_reserved": 0, "lon": -77.0345925}, {"type": "electric_bike", "name": "3cec68eccffbe7d39cc67528e634b4ec", "rental_uris": {"ios": "https://dc.lft.to/lastmile_qr_scan", "android": "https://dc.lft.to/lastmile_qr_scan"}, "fusion_lon": 0.0, "lat": 38.95170683333333, "is_disabled": 0, "bike_id": "3cec68eccffbe7d39cc67528e634b4ec", "fusion_lat": 0.0, "is_reserved": 0, "lon": -77.0316375}, {"type": "electric_scooter", "name": "6a5af0fe94abdc7cd22a0f9c7b0487af", "rental_uris": {"ios": "https://dc.lft.to/lastmile_qr_scan", "android": "https://dc.lft.to/lastmile_qr_scan"}, "fusion_lon": 0.0, "lat": 38.9243955, "is_disabled": 0, "bike_id": "6a5af0fe94abdc7cd22a0f9c7b0487af", "fusion_lat": 0.0, "is_reserved": 0, "lon": -77.033721}, {"type": "electric_scooter", "name": "d25bf25a755a4d9c61652393cd8d6030", "rental_uris": {"ios": "https://dc.lft.to/lastmile_qr_scan", "android": "https://dc.lft.to/lastmile_qr_scan"}, "fusion_lon": 0.0, "lat": 38.91911433333333, "is_disabled": 0, "bike_id": "d25bf25a755a4d9c61652393cd8d6030", "fusion_lat": 0.0, "is_reserved": 0, "lon": -77.031823}, {"type": "electric_scooter", "name": "a55140fb6658981e60d6b5468245e1ee", "rental_uris": {"ios": "https://dc.lft.to/lastmile_qr_scan", "android": "https://dc.lft.to/lastmile_qr_scan"}, "fusion_lon": 0.0, "lat": 38.899913, "is_disabled": 0, "bike_id": "a55140fb6658981e60d6b5468245e1ee", "fusion_lat": 0.0, "is_reserved": 0, "lon": -76.98436033333333}, {"type": "electric_scooter", "name": "5575c5a317db999ec45770605d2d0e24", "rental_uris": {"ios": "https://dc.lft.to/lastmile_qr_scan", "android": "https://dc.lft.to/lastmile_qr_scan"}, "fusion_lon": 0.0, "lat": 38.92825916666666, "is_disabled": 0, "bike_id": "5575c5a317db999ec45770605d2d0e24", "fusion_lat": 0.0, "is_reserved": 0, "lon": -77.05966583333333}, {"type": "electric_scooter", "name": "34fdcf204eac5184bcc0dfabd14950ea", "rental_uris": {"ios": "https://dc.lft.to/lastmile_qr_scan", "android": "https://dc.lft.to/lastmile_qr_scan"}, "fusion_lon": 0.0, "lat": 38.92371083333333, "is_disabled": 0, "bike_id": "34fdcf204eac5184bcc0dfabd14950ea", "fusion_lat": 0.0, "is_reserved": 0, "lon": -77.03130316666666}, {"type": "electric_scooter", "name": "5c33d90ee58356471898960dcaff0a45", "rental_uris": {"ios": "https://dc.lft.to/lastmile_qr_scan", "android": "https://dc.lft.to/lastmile_qr_scan"}, "fusion_lon": 0.0, "lat": 38.90200633333333, "is_disabled": 0, "bike_id": "5c33d90ee58356471898960dcaff0a45", "fusion_lat": 0.0, "is_reserved": 0, "lon": -77.0272855}, {"type": "electric_scooter", "name": "d74572ab1267d89f9b23daa06e5809e9", "rental_uris": {"ios": "https://dc.lft.to/lastmile_qr_scan", "android": "https://dc.lft.to/lastmile_qr_scan"}, "fusion_lon": 0.0, "lat": 38.906666, "is_disabled": 0, "bike_id": "d74572ab1267d89f9b23daa06e5809e9", "fusion_lat": 0.0, "is_reserved": 0, "lon": -77.02703483333333}, {"type": "electric_scooter", "name": "a5edc0c12493c96b46c86f1cbd2f3f5f", "rental_uris": {"ios": "https://dc.lft.to/lastmile_qr_scan", "android": "https://dc.lft.to/lastmile_qr_scan"}, "fusion_lon": 0.0, "lat": 38.8981345, "is_disabled": 0, "bike_id": "a5edc0c12493c96b46c86f1cbd2f3f5f", "fusion_lat": 0.0, "is_reserved": 0, "lon": -77.03147216666666}, {"type": "electric_scooter", "name": "6c16e431281a8cbf4dde5d5312f42644", "rental_uris": {"ios": "https://dc.lft.to/lastmile_qr_scan", "android": "https://dc.lft.to/lastmile_qr_scan"}, "fusion_lon": 0.0, "lat": 38.91120133333333, "is_disabled": 0, "bike_id": "6c16e431281a8cbf4dde5d5312f42644", "fusion_lat": 0.0, "is_reserved": 0, "lon": -77.04458116666666}, {"type": "electric_scooter", "name": "d1d0ca9d05c4ffdf01e9acb134d24d4f", "rental_uris": {"ios": "https://dc.lft.to/lastmile_qr_scan", "android": "https://dc.lft.to/lastmile_qr_scan"}, "fusion_lon": 0.0, "lat": 38.92291983333333, "is_disabled": 0, "bike_id": "d1d0ca9d05c4ffdf01e9acb134d24d4f", "fusion_lat": 0.0, "is_reserved": 0, "lon": -77.032007}, {"type": "electric_scooter", "name": "cd37c9cf6815da5fa0399d58e573c590", "rental_uris": {"ios": "https://dc.lft.to/lastmile_qr_scan", "android": "https://dc.lft.to/lastmile_qr_scan"}, "fusion_lon": 0.0, "lat": 38.918106, "is_disabled": 0, "bike_id": "cd37c9cf6815da5fa0399d58e573c590", "fusion_lat": 0.0, "is_reserved": 0, "lon": -77.02815733333334}, {"type": "electric_scooter", "name": "7e8b63a5048523e5af4b4ecc49e668ad", "rental_uris": {"ios": "https://dc.lft.to/lastmile_qr_scan", "android": "https://dc.lft.to/lastmile_qr_scan"}, "fusion_lon": 0.0, "lat": 38.9177835, "is_disabled": 0, "bike_id": "7e8b63a5048523e5af4b4ecc49e668ad", "fusion_lat": 0.0, "is_reserved": 0, "lon": -77.0410365}, {"type": "electric_bike", "name": "6d3048d7b67854200e87bb73ea35bcd9", "rental_uris": {"ios": "https://dc.lft.to/lastmile_qr_scan", "android": "https://dc.lft.to/lastmile_qr_scan"}, "fusion_lon": 0.0, "lat": 38.92459783333334, "is_disabled": 0, "bike_id": "6d3048d7b67854200e87bb73ea35bcd9", "fusion_lat": 0.0, "is_reserved": 0, "lon": -77.067375}, {"type": "electric_scooter", "name": "b84b8ce2704e4858a0848ca453f99258", "rental_uris": {"ios": "https://dc.lft.to/lastmile_qr_scan", "android": "https://dc.lft.to/lastmile_qr_scan"}, "fusion_lon": 0.0, "lat": 38.90533466666667, "is_disabled": 0, "bike_id": "b84b8ce2704e4858a0848ca453f99258", "fusion_lat": 0.0, "is_reserved": 0, "lon": -77.04959666666667}, {"type": "electric_scooter", "name": "c2fd20f12c7f9e9635dfe13d89a058ad", "rental_uris": {"ios": "https://dc.lft.to/lastmile_qr_scan", "android": "https://dc.lft.to/lastmile_qr_scan"}, "fusion_lon": 0.0, "lat": 38.88733216666667, "is_disabled": 0, "bike_id": "c2fd20f12c7f9e9635dfe13d89a058ad", "fusion_lat": 0.0, "is_reserved": 0, "lon": -77.02578916666667}, {"type": "electric_scooter", "name": "5c3908c180725519a92a90377095cc08", "rental_uris": {"ios": "https://dc.lft.to/lastmile_qr_scan", "android": "https://dc.lft.to/lastmile_qr_scan"}, "fusion_lon": 0.0, "lat": 38.87884183333333, "is_disabled": 0, "bike_id": "5c3908c180725519a92a90377095cc08", "fusion_lat": 0.0, "is_reserved": 0, "lon": -77.02309433333333}, {"type": "electric_scooter", "name": "dced3ed3e542c1324dc526b90b6ba167", "rental_uris": {"ios": "https://dc.lft.to/lastmile_qr_scan", "android": "https://dc.lft.to/lastmile_qr_scan"}, "fusion_lon": 0.0, "lat": 38.9025655, "is_disabled": 0, "bike_id": "dced3ed3e542c1324dc526b90b6ba167", "fusion_lat": 0.0, "is_reserved": 0, "lon": -77.03424066666666}, {"type": "electric_scooter", "name": "6064df99e89f21b191f4b9cf9858f18d", "rental_uris": {"ios": "https://dc.lft.to/lastmile_qr_scan", "android": "https://dc.lft.to/lastmile_qr_scan"}, "fusion_lon": 0.0, "lat": 38.88334033333334, "is_disabled": 0, "bike_id": "6064df99e89f21b191f4b9cf9858f18d", "fusion_lat": 0.0, "is_reserved": 0, "lon": -77.01778516666667}, {"type": "electric_scooter", "name": "87578992fdd1880f39efbef7dccc3ee4", "rental_uris": {"ios": "https://dc.lft.to/lastmile_qr_scan", "android": "https://dc.lft.to/lastmile_qr_scan"}, "fusion_lon": 0.0, "lat": 38.95637, "is_disabled": 0, "bike_id": "87578992fdd1880f39efbef7dccc3ee4", "fusion_lat": 0.0, "is_reserved": 0, "lon": -77.0330285}, {"type": "electric_scooter", "name": "74d52180d24651054d9076c9161f0b67", "rental_uris": {"ios": "https://dc.lft.to/lastmile_qr_scan", "android": "https://dc.lft.to/lastmile_qr_scan"}, "fusion_lon": 0.0, "lat": 38.9147845, "is_disabled": 0, "bike_id": "74d52180d24651054d9076c9161f0b67", "fusion_lat": 0.0, "is_reserved": 0, "lon": -77.00875766666667}, {"type": "electric_scooter", "name": "06d8f17546109cc95e70e0901f38c287", "rental_uris": {"ios": "https://dc.lft.to/lastmile_qr_scan", "android": "https://dc.lft.to/lastmile_qr_scan"}, "fusion_lon": 0.0, "lat": 38.88728416666667, "is_disabled": 0, "bike_id": "06d8f17546109cc95e70e0901f38c287", "fusion_lat": 0.0, "is_reserved": 0, "lon": -76.9948685}, {"type": "electric_scooter", "name": "ab23cfbf59ef54ff66bf38185ee97f4e", "rental_uris": {"ios": "https://dc.lft.to/lastmile_qr_scan", "android": "https://dc.lft.to/lastmile_qr_scan"}, "fusion_lon": 0.0, "lat": 38.919153333333334, "is_disabled": 0, "bike_id": "ab23cfbf59ef54ff66bf38185ee97f4e", "fusion_lat": 0.0, "is_reserved": 0, "lon": -77.02143066666666}, {"type": "electric_scooter", "name": "5c3bd3d0da3f1fa40bccaac42d2bbc6b", "rental_uris": {"ios": "https://dc.lft.to/lastmile_qr_scan", "android": "https://dc.lft.to/lastmile_qr_scan"}, "fusion_lon": 0.0, "lat": 38.9297525, "is_disabled": 0, "bike_id": "5c3bd3d0da3f1fa40bccaac42d2bbc6b", "fusion_lat": 0.0, "is_reserved": 0, "lon": -77.03177983333333}, {"type": "electric_scooter", "name": "b9b3b52bb1aaf00c73cf8676af627534", "rental_uris": {"ios": "https://dc.lft.to/lastmile_qr_scan", "android": "https://dc.lft.to/lastmile_qr_scan"}, "fusion_lon": 0.0, "lat": 38.8924325, "is_disabled": 0, "bike_id": "b9b3b52bb1aaf00c73cf8676af627534", "fusion_lat": 0.0, "is_reserved": 0, "lon": -77.03967016666667}, {"type": "electric_bike", "name": "79e7d5b2f808c3737d4afd4d2a51e943", "rental_uris": {"ios": "https://dc.lft.to/lastmile_qr_scan", "android": "https://dc.lft.to/lastmile_qr_scan"}, "fusion_lon": 0.0, "lat": 38.962968833333335, "is_disabled": 0, "bike_id": "79e7d5b2f808c3737d4afd4d2a51e943", "fusion_lat": 0.0, "is_reserved": 0, "lon": -77.0106195}, {"type": "electric_scooter", "name": "9ff457a842547e48107a461d69d747f9", "rental_uris": {"ios": "https://dc.lft.to/lastmile_qr_scan", "android": "https://dc.lft.to/lastmile_qr_scan"}, "fusion_lon": 0.0, "lat": 38.898763333333335, "is_disabled": 0, "bike_id": "9ff457a842547e48107a461d69d747f9", "fusion_lat": 0.0, "is_reserved": 0, "lon": -76.9318345}, {"type": "electric_scooter", "name": "b04d39d0e95e8136fb108c0c69efcb73", "rental_uris": {"ios": "https://dc.lft.to/lastmile_qr_scan", "android": "https://dc.lft.to/lastmile_qr_scan"}, "fusion_lon": 0.0, "lat": 38.831374333333336, "is_disabled": 0, "bike_id": "b04d39d0e95e8136fb108c0c69efcb73", "fusion_lat": 0.0, "is_reserved": 0, "lon": -77.00839833333333}, {"type": "electric_scooter", "name": "c5e3e5024988db4c153c346afaba8119", "rental_uris": {"ios": "https://dc.lft.to/lastmile_qr_scan", "android": "https://dc.lft.to/lastmile_qr_scan"}, "fusion_lon": 0.0, "lat": 38.922709833333336, "is_disabled": 0, "bike_id": "c5e3e5024988db4c153c346afaba8119", "fusion_lat": 0.0, "is_reserved": 0, "lon": -77.0422445}, {"type": "electric_scooter", "name": "e4d0ac373a68ea057b694b2ebb295a02", "rental_uris": {"ios": "https://dc.lft.to/lastmile_qr_scan", "android": "https://dc.lft.to/lastmile_qr_scan"}, "fusion_lon": 0.0, "lat": 38.900094833333334, "is_disabled": 0, "bike_id": "e4d0ac373a68ea057b694b2ebb295a02", "fusion_lat": 0.0, "is_reserved": 0, "lon": -76.987891}, {"type": "electric_scooter", "name": "2eee6ba9723c37615b42e9acfefbe8ab", "rental_uris": {"ios": "https://dc.lft.to/lastmile_qr_scan", "android": "https://dc.lft.to/lastmile_qr_scan"}, "fusion_lon": 0.0, "lat": 38.9072055, "is_disabled": 0, "bike_id": "2eee6ba9723c37615b42e9acfefbe8ab", "fusion_lat": 0.0, "is_reserved": 0, "lon": -77.03437566666666}, {"type": "electric_scooter", "name": "ae6258d72441c24f9ed159808ed15433", "rental_uris": {"ios": "https://dc.lft.to/lastmile_qr_scan", "android": "https://dc.lft.to/lastmile_qr_scan"}, "fusion_lon": 0.0, "lat": 38.919423333333334, "is_disabled": 0, "bike_id": "ae6258d72441c24f9ed159808ed15433", "fusion_lat": 0.0, "is_reserved": 0, "lon": -77.0250025}, {"type": "electric_scooter", "name": "4f99e57e7a250959bb432301fc3e8a43", "rental_uris": {"ios": "https://dc.lft.to/lastmile_qr_scan", "android": "https://dc.lft.to/lastmile_qr_scan"}, "fusion_lon": 0.0, "lat": 38.89399383333333, "is_disabled": 0, "bike_id": "4f99e57e7a250959bb432301fc3e8a43", "fusion_lat": 0.0, "is_reserved": 0, "lon": -76.99157333333333}, {"type": "electric_scooter", "name": "d85fb60f9f900c3dd5d33618bf9b029b", "rental_uris": {"ios": "https://dc.lft.to/lastmile_qr_scan", "android": "https://dc.lft.to/lastmile_qr_scan"}, "fusion_lon": 0.0, "lat": 38.926741666666665, "is_disabled": 0, "bike_id": "d85fb60f9f900c3dd5d33618bf9b029b", "fusion_lat": 0.0, "is_reserved": 0, "lon": -77.04291616666667}, {"type": "electric_bike", "name": "eb2efa5ff5c034eef84fce78ce81e624", "rental_uris": {"ios": "https://dc.lft.to/lastmile_qr_scan", "android": "https://dc.lft.to/lastmile_qr_scan"}, "fusion_lon": 0.0, "lat": 39.084484333333336, "is_disabled": 0, "bike_id": "eb2efa5ff5c034eef84fce78ce81e624", "fusion_lat": 0.0, "is_reserved": 0, "lon": -76.951865}, {"type": "electric_scooter", "name": "fbf4d7324b5dac09305195dd95e83fd2", "rental_uris": {"ios": "https://dc.lft.to/lastmile_qr_scan", "android": "https://dc.lft.to/lastmile_qr_scan"}, "fusion_lon": 0.0, "lat": 38.908108166666665, "is_disabled": 0, "bike_id": "fbf4d7324b5dac09305195dd95e83fd2", "fusion_lat": 0.0, "is_reserved": 0, "lon": -77.039443}, {"type": "electric_scooter", "name": "efcb5e34fe79431bdca15706305bba29", "rental_uris": {"ios": "https://dc.lft.to/lastmile_qr_scan", "android": "https://dc.lft.to/lastmile_qr_scan"}, "fusion_lon": 0.0, "lat": 38.93490216666667, "is_disabled": 0, "bike_id": "efcb5e34fe79431bdca15706305bba29", "fusion_lat": 0.0, "is_reserved": 0, "lon": -77.0454065}, {"type": "electric_scooter", "name": "69a4c77acc451b0d6c960946020d9d46", "rental_uris": {"ios": "https://dc.lft.to/lastmile_qr_scan", "android": "https://dc.lft.to/lastmile_qr_scan"}, "fusion_lon": 0.0, "lat": 38.90692583333333, "is_disabled": 0, "bike_id": "69a4c77acc451b0d6c960946020d9d46", "fusion_lat": 0.0, "is_reserved": 0, "lon": -77.05720666666667}, {"type": "electric_scooter", "name": "e7737c4fe2bfb250c15c5dffef053db3", "rental_uris": {"ios": "https://dc.lft.to/lastmile_qr_scan", "android": "https://dc.lft.to/lastmile_qr_scan"}, "fusion_lon": 0.0, "lat": 38.87679466666667, "is_disabled": 0, "bike_id": "e7737c4fe2bfb250c15c5dffef053db3", "fusion_lat": 0.0, "is_reserved": 0, "lon": -77.00729166666666}, {"type": "electric_bike", "name": "046e1d4ed8bf1dfb52effc36cc53817b", "rental_uris": {"ios": "https://dc.lft.to/lastmile_qr_scan", "android": "https://dc.lft.to/lastmile_qr_scan"}, "fusion_lon": 0.0, "lat": 39.0107845, "is_disabled": 0, "bike_id": "046e1d4ed8bf1dfb52effc36cc53817b", "fusion_lat": 0.0, "is_reserved": 0, "lon": -76.91063266666667}, {"type": "electric_scooter", "name": "9ba91c5848e31e12c061c9e5d3149ffb", "rental_uris": {"ios": "https://dc.lft.to/lastmile_qr_scan", "android": "https://dc.lft.to/lastmile_qr_scan"}, "fusion_lon": 0.0, "lat": 38.8985025, "is_disabled": 0, "bike_id": "9ba91c5848e31e12c061c9e5d3149ffb", "fusion_lat": 0.0, "is_reserved": 0, "lon": -77.01889966666667}, {"type": "electric_scooter", "name": "44d3f9e4d0fd6901e61c3c0f139cf4da", "rental_uris": {"ios": "https://dc.lft.to/lastmile_qr_scan", "android": "https://dc.lft.to/lastmile_qr_scan"}, "fusion_lon": 0.0, "lat": 38.911196333333336, "is_disabled": 0, "bike_id": "44d3f9e4d0fd6901e61c3c0f139cf4da", "fusion_lat": 0.0, "is_reserved": 0, "lon": -77.03307933333333}, {"type": "electric_scooter", "name": "159ab70c86ed2a817c38d7e05d0644a2", "rental_uris": {"ios": "https://dc.lft.to/lastmile_qr_scan", "android": "https://dc.lft.to/lastmile_qr_scan"}, "fusion_lon": 0.0, "lat": 38.93508633333333, "is_disabled": 0, "bike_id": "159ab70c86ed2a817c38d7e05d0644a2", "fusion_lat": 0.0, "is_reserved": 0, "lon": -77.05832733333334}, {"type": "electric_scooter", "name": "aaa72d4bf4cbc8d8a939e9b461726629", "rental_uris": {"ios": "https://dc.lft.to/lastmile_qr_scan", "android": "https://dc.lft.to/lastmile_qr_scan"}, "fusion_lon": 0.0, "lat": 38.93324583333333, "is_disabled": 0, "bike_id": "aaa72d4bf4cbc8d8a939e9b461726629", "fusion_lat": 0.0, "is_reserved": 0, "lon": -77.0343645}, {"type": "electric_scooter", "name": "e07b6aee779951974865b3319088d8e7", "rental_uris": {"ios": "https://dc.lft.to/lastmile_qr_scan", "android": "https://dc.lft.to/lastmile_qr_scan"}, "fusion_lon": 0.0, "lat": 38.89838733333333, "is_disabled": 0, "bike_id": "e07b6aee779951974865b3319088d8e7", "fusion_lat": 0.0, "is_reserved": 0, "lon": -77.01264383333333}, {"type": "electric_scooter", "name": "62e135a92f5aa7415e63e9239b64645c", "rental_uris": {"ios": "https://dc.lft.to/lastmile_qr_scan", "android": "https://dc.lft.to/lastmile_qr_scan"}, "fusion_lon": 0.0, "lat": 38.94472616666667, "is_disabled": 0, "bike_id": "62e135a92f5aa7415e63e9239b64645c", "fusion_lat": 0.0, "is_reserved": 0, "lon": -77.023544}, {"type": "electric_scooter", "name": "ba1f656b60c6c06d00231795fe6830cb", "rental_uris": {"ios": "https://dc.lft.to/lastmile_qr_scan", "android": "https://dc.lft.to/lastmile_qr_scan"}, "fusion_lon": 0.0, "lat": 38.9322815, "is_disabled": 0, "bike_id": "ba1f656b60c6c06d00231795fe6830cb", "fusion_lat": 0.0, "is_reserved": 0, "lon": -76.99578716666667}, {"type": "electric_scooter", "name": "61bdea57c5186a47d2a959dfc3ee9289", "rental_uris": {"ios": "https://dc.lft.to/lastmile_qr_scan", "android": "https://dc.lft.to/lastmile_qr_scan"}, "fusion_lon": 0.0, "lat": 38.916956, "is_disabled": 0, "bike_id": "61bdea57c5186a47d2a959dfc3ee9289", "fusion_lat": 0.0, "is_reserved": 0, "lon": -77.025959}, {"type": "electric_bike", "name": "c66ed66aab291440361eba370fc28af8", "rental_uris": {"ios": "https://dc.lft.to/lastmile_qr_scan", "android": "https://dc.lft.to/lastmile_qr_scan"}, "fusion_lon": 0.0, "lat": 38.948200166666666, "is_disabled": 0, "bike_id": "c66ed66aab291440361eba370fc28af8", "fusion_lat": 0.0, "is_reserved": 0, "lon": -77.0294485}, {"type": "electric_scooter", "name": "f2e11e4c248b18cacedd41e69fadf4c2", "rental_uris": {"ios": "https://dc.lft.to/lastmile_qr_scan", "android": "https://dc.lft.to/lastmile_qr_scan"}, "fusion_lon": 0.0, "lat": 38.89220383333333, "is_disabled": 0, "bike_id": "f2e11e4c248b18cacedd41e69fadf4c2", "fusion_lat": 0.0, "is_reserved": 0, "lon": -77.02221266666666}, {"type": "electric_scooter", "name": "8e21144fea56809f0d6dfff1b6de6694", "rental_uris": {"ios": "https://dc.lft.to/lastmile_qr_scan", "android": "https://dc.lft.to/lastmile_qr_scan"}, "fusion_lon": 0.0, "lat": 38.9287755, "is_disabled": 0, "bike_id": "8e21144fea56809f0d6dfff1b6de6694", "fusion_lat": 0.0, "is_reserved": 0, "lon": -77.03282166666666}, {"type": "electric_scooter", "name": "750fd56ffa266fe514fa83f89ae6a7e1", "rental_uris": {"ios": "https://dc.lft.to/lastmile_qr_scan", "android": "https://dc.lft.to/lastmile_qr_scan"}, "fusion_lon": 0.0, "lat": 38.965107333333336, "is_disabled": 0, "bike_id": "750fd56ffa266fe514fa83f89ae6a7e1", "fusion_lat": 0.0, "is_reserved": 0, "lon": -77.02591933333333}, {"type": "electric_scooter", "name": "bbbb0991e2555245a29fd53f801a3191", "rental_uris": {"ios": "https://dc.lft.to/lastmile_qr_scan", "android": "https://dc.lft.to/lastmile_qr_scan"}, "fusion_lon": 0.0, "lat": 38.867667833333336, "is_disabled": 0, "bike_id": "bbbb0991e2555245a29fd53f801a3191", "fusion_lat": 0.0, "is_reserved": 0, "lon": -76.98274416666666}, {"type": "electric_scooter", "name": "6b414fa00453c49b3923c85670522da3", "rental_uris": {"ios": "https://dc.lft.to/lastmile_qr_scan", "android": "https://dc.lft.to/lastmile_qr_scan"}, "fusion_lon": 0.0, "lat": 38.88490083333333, "is_disabled": 0, "bike_id": "6b414fa00453c49b3923c85670522da3", "fusion_lat": 0.0, "is_reserved": 0, "lon": -77.007109}, {"type": "electric_scooter", "name": "6d1309e59fda650ed0d9da4e0d018f69", "rental_uris": {"ios": "https://dc.lft.to/lastmile_qr_scan", "android": "https://dc.lft.to/lastmile_qr_scan"}, "fusion_lon": 0.0, "lat": 38.903322, "is_disabled": 0, "bike_id": "6d1309e59fda650ed0d9da4e0d018f69", "fusion_lat": 0.0, "is_reserved": 0, "lon": -77.04336816666667}, {"type": "electric_scooter", "name": "c4874b0144966b215d7d685401168f00", "rental_uris": {"ios": "https://dc.lft.to/lastmile_qr_scan", "android": "https://dc.lft.to/lastmile_qr_scan"}, "fusion_lon": 0.0, "lat": 38.89436116666667, "is_disabled": 0, "bike_id": "c4874b0144966b215d7d685401168f00", "fusion_lat": 0.0, "is_reserved": 0, "lon": -76.9772265}, {"type": "electric_scooter", "name": "cbbcd35e2885dfb97919bb6fe622fee1", "rental_uris": {"ios": "https://dc.lft.to/lastmile_qr_scan", "android": "https://dc.lft.to/lastmile_qr_scan"}, "fusion_lon": 0.0, "lat": 38.903821, "is_disabled": 0, "bike_id": "cbbcd35e2885dfb97919bb6fe622fee1", "fusion_lat": 0.0, "is_reserved": 0, "lon": -77.03435766666666}, {"type": "electric_scooter", "name": "5d4ee7a0bf7ca1237f842639f1452a04", "rental_uris": {"ios": "https://dc.lft.to/lastmile_qr_scan", "android": "https://dc.lft.to/lastmile_qr_scan"}, "fusion_lon": 0.0, "lat": 38.90113733333333, "is_disabled": 0, "bike_id": "5d4ee7a0bf7ca1237f842639f1452a04", "fusion_lat": 0.0, "is_reserved": 0, "lon": -77.03816166666667}, {"type": "electric_scooter", "name": "4c412f2b351588ba2cc274fe91890583", "rental_uris": {"ios": "https://dc.lft.to/lastmile_qr_scan", "android": "https://dc.lft.to/lastmile_qr_scan"}, "fusion_lon": 0.0, "lat": 38.916762166666665, "is_disabled": 0, "bike_id": "4c412f2b351588ba2cc274fe91890583", "fusion_lat": 0.0, "is_reserved": 0, "lon": -77.0034475}, {"type": "electric_scooter", "name": "740b9d5af40214485c818dbfc0dfe303", "rental_uris": {"ios": "https://dc.lft.to/lastmile_qr_scan", "android": "https://dc.lft.to/lastmile_qr_scan"}, "fusion_lon": 0.0, "lat": 38.918719833333334, "is_disabled": 0, "bike_id": "740b9d5af40214485c818dbfc0dfe303", "fusion_lat": 0.0, "is_reserved": 0, "lon": -76.96559966666666}, {"type": "electric_scooter", "name": "845149b687855c0e8fb9296d70f1f11a", "rental_uris": {"ios": "https://dc.lft.to/lastmile_qr_scan", "android": "https://dc.lft.to/lastmile_qr_scan"}, "fusion_lon": 0.0, "lat": 38.898757, "is_disabled": 0, "bike_id": "845149b687855c0e8fb9296d70f1f11a", "fusion_lat": 0.0, "is_reserved": 0, "lon": -76.9318445}, {"type": "electric_scooter", "name": "192fa4b93950eda50f0b0c7c4bf43666", "rental_uris": {"ios": "https://dc.lft.to/lastmile_qr_scan", "android": "https://dc.lft.to/lastmile_qr_scan"}, "fusion_lon": 0.0, "lat": 38.9097745, "is_disabled": 0, "bike_id": "192fa4b93950eda50f0b0c7c4bf43666", "fusion_lat": 0.0, "is_reserved": 0, "lon": -77.06504583333333}, {"type": "electric_scooter", "name": "d17003a21ee6216d628742300ab8a218", "rental_uris": {"ios": "https://dc.lft.to/lastmile_qr_scan", "android": "https://dc.lft.to/lastmile_qr_scan"}, "fusion_lon": 0.0, "lat": 38.900136833333335, "is_disabled": 0, "bike_id": "d17003a21ee6216d628742300ab8a218", "fusion_lat": 0.0, "is_reserved": 0, "lon": -76.98847883333333}, {"type": "electric_scooter", "name": "8b042c6c5771c1f94ae36000e5d035a7", "rental_uris": {"ios": "https://dc.lft.to/lastmile_qr_scan", "android": "https://dc.lft.to/lastmile_qr_scan"}, "fusion_lon": 0.0, "lat": 38.87371566666667, "is_disabled": 0, "bike_id": "8b042c6c5771c1f94ae36000e5d035a7", "fusion_lat": 0.0, "is_reserved": 0, "lon": -76.97001383333334}, {"type": "electric_scooter", "name": "cce4e66ebff29c56c134ea54f2252fa0", "rental_uris": {"ios": "https://dc.lft.to/lastmile_qr_scan", "android": "https://dc.lft.to/lastmile_qr_scan"}, "fusion_lon": 0.0, "lat": 38.88321116666667, "is_disabled": 0, "bike_id": "cce4e66ebff29c56c134ea54f2252fa0", "fusion_lat": 0.0, "is_reserved": 0, "lon": -77.017498}, {"type": "electric_scooter", "name": "7a3cdd2ff16465f0e14e5a28f36f8b86", "rental_uris": {"ios": "https://dc.lft.to/lastmile_qr_scan", "android": "https://dc.lft.to/lastmile_qr_scan"}, "fusion_lon": 0.0, "lat": 38.93915916666667, "is_disabled": 0, "bike_id": "7a3cdd2ff16465f0e14e5a28f36f8b86", "fusion_lat": 0.0, "is_reserved": 0, "lon": -77.03625633333333}, {"type": "electric_scooter", "name": "50669da3ca3d58e2ffbd074242d15626", "rental_uris": {"ios": "https://dc.lft.to/lastmile_qr_scan", "android": "https://dc.lft.to/lastmile_qr_scan"}, "fusion_lon": 0.0, "lat": 38.896218, "is_disabled": 0, "bike_id": "50669da3ca3d58e2ffbd074242d15626", "fusion_lat": 0.0, "is_reserved": 0, "lon": -77.0092}, {"type": "electric_scooter", "name": "104ad2f9a880bdfc935124407932b80f", "rental_uris": {"ios": "https://dc.lft.to/lastmile_qr_scan", "android": "https://dc.lft.to/lastmile_qr_scan"}, "fusion_lon": 0.0, "lat": 38.905035, "is_disabled": 0, "bike_id": "104ad2f9a880bdfc935124407932b80f", "fusion_lat": 0.0, "is_reserved": 0, "lon": -77.02943966666666}, {"type": "electric_scooter", "name": "55ca95a82e9089c837e541e371f02cee", "rental_uris": {"ios": "https://dc.lft.to/lastmile_qr_scan", "android": "https://dc.lft.to/lastmile_qr_scan"}, "fusion_lon": 0.0, "lat": 38.919101833333336, "is_disabled": 0, "bike_id": "55ca95a82e9089c837e541e371f02cee", "fusion_lat": 0.0, "is_reserved": 0, "lon": -77.04103216666667}, {"type": "electric_scooter", "name": "964c7a5d8c6f9acdb4f456dc4d22e2a6", "rental_uris": {"ios": "https://dc.lft.to/lastmile_qr_scan", "android": "https://dc.lft.to/lastmile_qr_scan"}, "fusion_lon": 0.0, "lat": 38.883283166666665, "is_disabled": 0, "bike_id": "964c7a5d8c6f9acdb4f456dc4d22e2a6", "fusion_lat": 0.0, "is_reserved": 0, "lon": -77.01762783333334}, {"type": "electric_scooter", "name": "bcadf231a8239d4f55cf5f455547fee6", "rental_uris": {"ios": "https://dc.lft.to/lastmile_qr_scan", "android": "https://dc.lft.to/lastmile_qr_scan"}, "fusion_lon": 0.0, "lat": 38.874052166666665, "is_disabled": 0, "bike_id": "bcadf231a8239d4f55cf5f455547fee6", "fusion_lat": 0.0, "is_reserved": 0, "lon": -77.00203966666666}, {"type": "electric_scooter", "name": "8d7e266326785e618b2ff3555890bea4", "rental_uris": {"ios": "https://dc.lft.to/lastmile_qr_scan", "android": "https://dc.lft.to/lastmile_qr_scan"}, "fusion_lon": 0.0, "lat": 38.892221, "is_disabled": 0, "bike_id": "8d7e266326785e618b2ff3555890bea4", "fusion_lat": 0.0, "is_reserved": 0, "lon": -77.02221516666667}, {"type": "electric_bike", "name": "3b1fdd53d83b2c100f463e5b7ec2db1d", "rental_uris": {"ios": "https://dc.lft.to/lastmile_qr_scan", "android": "https://dc.lft.to/lastmile_qr_scan"}, "fusion_lon": 0.0, "lat": 39.05252983333333, "is_disabled": 0, "bike_id": "3b1fdd53d83b2c100f463e5b7ec2db1d", "fusion_lat": 0.0, "is_reserved": 0, "lon": -77.08064116666667}, {"type": "electric_scooter", "name": "fd8dd58497e7d78111633d86d35a8683", "rental_uris": {"ios": "https://dc.lft.to/lastmile_qr_scan", "android": "https://dc.lft.to/lastmile_qr_scan"}, "fusion_lon": 0.0, "lat": 38.92312966666667, "is_disabled": 0, "bike_id": "fd8dd58497e7d78111633d86d35a8683", "fusion_lat": 0.0, "is_reserved": 0, "lon": -77.01947933333334}, {"type": "electric_scooter", "name": "07e1785c54f7850fde825effd6843c30", "rental_uris": {"ios": "https://dc.lft.to/lastmile_qr_scan", "android": "https://dc.lft.to/lastmile_qr_scan"}, "fusion_lon": 0.0, "lat": 38.90478683333333, "is_disabled": 0, "bike_id": "07e1785c54f7850fde825effd6843c30", "fusion_lat": 0.0, "is_reserved": 0, "lon": -77.0347385}, {"type": "electric_scooter", "name": "ff006af2d3bcfa92ec2b26a9812fd06d", "rental_uris": {"ios": "https://dc.lft.to/lastmile_qr_scan", "android": "https://dc.lft.to/lastmile_qr_scan"}, "fusion_lon": 0.0, "lat": 38.88743733333333, "is_disabled": 0, "bike_id": "ff006af2d3bcfa92ec2b26a9812fd06d", "fusion_lat": 0.0, "is_reserved": 0, "lon": -76.98359266666667}, {"type": "electric_scooter", "name": "8af04cd589f38629cdc09728ac06263c", "rental_uris": {"ios": "https://dc.lft.to/lastmile_qr_scan", "android": "https://dc.lft.to/lastmile_qr_scan"}, "fusion_lon": 0.0, "lat": 38.931787166666666, "is_disabled": 0, "bike_id": "8af04cd589f38629cdc09728ac06263c", "fusion_lat": 0.0, "is_reserved": 0, "lon": -77.043004}, {"type": "electric_scooter", "name": "efbb63b6dceba4fa2221972063644d89", "rental_uris": {"ios": "https://dc.lft.to/lastmile_qr_scan", "android": "https://dc.lft.to/lastmile_qr_scan"}, "fusion_lon": 0.0, "lat": 38.921975833333335, "is_disabled": 0, "bike_id": "efbb63b6dceba4fa2221972063644d89", "fusion_lat": 0.0, "is_reserved": 0, "lon": -77.02210583333333}, {"type": "electric_scooter", "name": "b903e8f50c4090d2e35c2f7854fbfd7a", "rental_uris": {"ios": "https://dc.lft.to/lastmile_qr_scan", "android": "https://dc.lft.to/lastmile_qr_scan"}, "fusion_lon": 0.0, "lat": 38.897967, "is_disabled": 0, "bike_id": "b903e8f50c4090d2e35c2f7854fbfd7a", "fusion_lat": 0.0, "is_reserved": 0, "lon": -77.02413933333334}, {"type": "electric_scooter", "name": "d458fd178250449f6361bf6784d75dcd", "rental_uris": {"ios": "https://dc.lft.to/lastmile_qr_scan", "android": "https://dc.lft.to/lastmile_qr_scan"}, "fusion_lon": 0.0, "lat": 38.90407616666667, "is_disabled": 0, "bike_id": "d458fd178250449f6361bf6784d75dcd", "fusion_lat": 0.0, "is_reserved": 0, "lon": -76.97332333333334}, {"type": "electric_scooter", "name": "ae51cb9ac93d3c5431045d28f57444f0", "rental_uris": {"ios": "https://dc.lft.to/lastmile_qr_scan", "android": "https://dc.lft.to/lastmile_qr_scan"}, "fusion_lon": 0.0, "lat": 38.89224433333333, "is_disabled": 0, "bike_id": "ae51cb9ac93d3c5431045d28f57444f0", "fusion_lat": 0.0, "is_reserved": 0, "lon": -77.04514666666667}, {"type": "electric_scooter", "name": "924e23cc7a9248af0c92d0c339a83cf7", "rental_uris": {"ios": "https://dc.lft.to/lastmile_qr_scan", "android": "https://dc.lft.to/lastmile_qr_scan"}, "fusion_lon": 0.0, "lat": 38.945268666666664, "is_disabled": 0, "bike_id": "924e23cc7a9248af0c92d0c339a83cf7", "fusion_lat": 0.0, "is_reserved": 0, "lon": -77.06406516666667}, {"type": "electric_scooter", "name": "4d24d86b98229eb06b1421ec4687d701", "rental_uris": {"ios": "https://dc.lft.to/lastmile_qr_scan", "android": "https://dc.lft.to/lastmile_qr_scan"}, "fusion_lon": 0.0, "lat": 38.901442333333335, "is_disabled": 0, "bike_id": "4d24d86b98229eb06b1421ec4687d701", "fusion_lat": 0.0, "is_reserved": 0, "lon": -77.03558816666667}, {"type": "electric_scooter", "name": "6500f5ad20ce897d05803e5288faf36c", "rental_uris": {"ios": "https://dc.lft.to/lastmile_qr_scan", "android": "https://dc.lft.to/lastmile_qr_scan"}, "fusion_lon": 0.0, "lat": 38.892253833333335, "is_disabled": 0, "bike_id": "6500f5ad20ce897d05803e5288faf36c", "fusion_lat": 0.0, "is_reserved": 0, "lon": -77.039922}, {"type": "electric_scooter", "name": "2840e4883d650319df30ca764cd201d9", "rental_uris": {"ios": "https://dc.lft.to/lastmile_qr_scan", "android": "https://dc.lft.to/lastmile_qr_scan"}, "fusion_lon": 0.0, "lat": 38.90785133333333, "is_disabled": 0, "bike_id": "2840e4883d650319df30ca764cd201d9", "fusion_lat": 0.0, "is_reserved": 0, "lon": -77.032836}, {"type": "electric_scooter", "name": "f8e47b805d05fe1094bad90bb2e62b17", "rental_uris": {"ios": "https://dc.lft.to/lastmile_qr_scan", "android": "https://dc.lft.to/lastmile_qr_scan"}, "fusion_lon": 0.0, "lat": 38.91660683333333, "is_disabled": 0, "bike_id": "f8e47b805d05fe1094bad90bb2e62b17", "fusion_lat": 0.0, "is_reserved": 0, "lon": -77.03168316666667}, {"type": "electric_scooter", "name": "f91160edcf9feb4f3e8be3975c47520c", "rental_uris": {"ios": "https://dc.lft.to/lastmile_qr_scan", "android": "https://dc.lft.to/lastmile_qr_scan"}, "fusion_lon": 0.0, "lat": 38.901142, "is_disabled": 0, "bike_id": "f91160edcf9feb4f3e8be3975c47520c", "fusion_lat": 0.0, "is_reserved": 0, "lon": -77.05004566666666}, {"type": "electric_scooter", "name": "126e05b3b2ab32512e71dd85d6dbda66", "rental_uris": {"ios": "https://dc.lft.to/lastmile_qr_scan", "android": "https://dc.lft.to/lastmile_qr_scan"}, "fusion_lon": 0.0, "lat": 38.89731233333333, "is_disabled": 0, "bike_id": "126e05b3b2ab32512e71dd85d6dbda66", "fusion_lat": 0.0, "is_reserved": 0, "lon": -77.0021475}, {"type": "electric_scooter", "name": "47c7b242461bc16474b54ee3fc218781", "rental_uris": {"ios": "https://dc.lft.to/lastmile_qr_scan", "android": "https://dc.lft.to/lastmile_qr_scan"}, "fusion_lon": 0.0, "lat": 38.887326333333334, "is_disabled": 0, "bike_id": "47c7b242461bc16474b54ee3fc218781", "fusion_lat": 0.0, "is_reserved": 0, "lon": -77.02580233333333}, {"type": "electric_scooter", "name": "5e985098cbee88744b6fd57dbdfe78a6", "rental_uris": {"ios": "https://dc.lft.to/lastmile_qr_scan", "android": "https://dc.lft.to/lastmile_qr_scan"}, "fusion_lon": 0.0, "lat": 38.866841, "is_disabled": 0, "bike_id": "5e985098cbee88744b6fd57dbdfe78a6", "fusion_lat": 0.0, "is_reserved": 0, "lon": -76.98571866666667}, {"type": "electric_scooter", "name": "b64a157b17a5b8a5620d31e3f55ac23d", "rental_uris": {"ios": "https://dc.lft.to/lastmile_qr_scan", "android": "https://dc.lft.to/lastmile_qr_scan"}, "fusion_lon": 0.0, "lat": 38.91118133333333, "is_disabled": 0, "bike_id": "b64a157b17a5b8a5620d31e3f55ac23d", "fusion_lat": 0.0, "is_reserved": 0, "lon": -77.0355625}, {"type": "electric_scooter", "name": "846552ba13c35b10dfa5f54b5af47572", "rental_uris": {"ios": "https://dc.lft.to/lastmile_qr_scan", "android": "https://dc.lft.to/lastmile_qr_scan"}, "fusion_lon": 0.0, "lat": 38.90372033333333, "is_disabled": 0, "bike_id": "846552ba13c35b10dfa5f54b5af47572", "fusion_lat": 0.0, "is_reserved": 0, "lon": -77.016355}, {"type": "electric_scooter", "name": "7108f797f6e3be1559601b22c5589d39", "rental_uris": {"ios": "https://dc.lft.to/lastmile_qr_scan", "android": "https://dc.lft.to/lastmile_qr_scan"}, "fusion_lon": 0.0, "lat": 38.900855666666665, "is_disabled": 0, "bike_id": "7108f797f6e3be1559601b22c5589d39", "fusion_lat": 0.0, "is_reserved": 0, "lon": -77.047704}, {"type": "electric_scooter", "name": "b5b071a1fe1fcd16954f430f29f53755", "rental_uris": {"ios": "https://dc.lft.to/lastmile_qr_scan", "android": "https://dc.lft.to/lastmile_qr_scan"}, "fusion_lon": 0.0, "lat": 38.92414183333333, "is_disabled": 0, "bike_id": "b5b071a1fe1fcd16954f430f29f53755", "fusion_lat": 0.0, "is_reserved": 0, "lon": -77.02031116666667}, {"type": "electric_scooter", "name": "a06f349c3bafa59b128d059f5f1469a5", "rental_uris": {"ios": "https://dc.lft.to/lastmile_qr_scan", "android": "https://dc.lft.to/lastmile_qr_scan"}, "fusion_lon": 0.0, "lat": 38.8923095, "is_disabled": 0, "bike_id": "a06f349c3bafa59b128d059f5f1469a5", "fusion_lat": 0.0, "is_reserved": 0, "lon": -77.0414405}, {"type": "electric_scooter", "name": "a8abdfe534642ce860f9ec756cb362c0", "rental_uris": {"ios": "https://dc.lft.to/lastmile_qr_scan", "android": "https://dc.lft.to/lastmile_qr_scan"}, "fusion_lon": 0.0, "lat": 38.8914695, "is_disabled": 0, "bike_id": "a8abdfe534642ce860f9ec756cb362c0", "fusion_lat": 0.0, "is_reserved": 0, "lon": -76.9926705}, {"type": "electric_scooter", "name": "1ed4d85ce3df0fe65ff6d19064530788", "rental_uris": {"ios": "https://dc.lft.to/lastmile_qr_scan", "android": "https://dc.lft.to/lastmile_qr_scan"}, "fusion_lon": 0.0, "lat": 38.883007166666665, "is_disabled": 0, "bike_id": "1ed4d85ce3df0fe65ff6d19064530788", "fusion_lat": 0.0, "is_reserved": 0, "lon": -76.94854166666667}, {"type": "electric_scooter", "name": "c255579697d50fb67457b4a54877719f", "rental_uris": {"ios": "https://dc.lft.to/lastmile_qr_scan", "android": "https://dc.lft.to/lastmile_qr_scan"}, "fusion_lon": 0.0, "lat": 38.9147405, "is_disabled": 0, "bike_id": "c255579697d50fb67457b4a54877719f", "fusion_lat": 0.0, "is_reserved": 0, "lon": -77.03885116666666}, {"type": "electric_scooter", "name": "596f2ac51ccc198a4cddeeca4dfd4854", "rental_uris": {"ios": "https://dc.lft.to/lastmile_qr_scan", "android": "https://dc.lft.to/lastmile_qr_scan"}, "fusion_lon": 0.0, "lat": 38.917798833333336, "is_disabled": 0, "bike_id": "596f2ac51ccc198a4cddeeca4dfd4854", "fusion_lat": 0.0, "is_reserved": 0, "lon": -77.02281616666667}, {"type": "electric_scooter", "name": "659230e6521935d2dd650287b3e00069", "rental_uris": {"ios": "https://dc.lft.to/lastmile_qr_scan", "android": "https://dc.lft.to/lastmile_qr_scan"}, "fusion_lon": 0.0, "lat": 38.899997, "is_disabled": 0, "bike_id": "659230e6521935d2dd650287b3e00069", "fusion_lat": 0.0, "is_reserved": 0, "lon": -77.03142933333334}, {"type": "electric_scooter", "name": "6e2ca270497b3b87f9bc6d4e2b4cce0b", "rental_uris": {"ios": "https://dc.lft.to/lastmile_qr_scan", "android": "https://dc.lft.to/lastmile_qr_scan"}, "fusion_lon": 0.0, "lat": 38.9193935, "is_disabled": 0, "bike_id": "6e2ca270497b3b87f9bc6d4e2b4cce0b", "fusion_lat": 0.0, "is_reserved": 0, "lon": -77.0135735}, {"type": "electric_scooter", "name": "4cd8b1f4cf329b97f6f8729b664f79bb", "rental_uris": {"ios": "https://dc.lft.to/lastmile_qr_scan", "android": "https://dc.lft.to/lastmile_qr_scan"}, "fusion_lon": 0.0, "lat": 38.86420833333333, "is_disabled": 0, "bike_id": "4cd8b1f4cf329b97f6f8729b664f79bb", "fusion_lat": 0.0, "is_reserved": 0, "lon": -76.99002133333333}, {"type": "electric_scooter", "name": "01346638a9d2a1ba91c934b2d0adaf50", "rental_uris": {"ios": "https://dc.lft.to/lastmile_qr_scan", "android": "https://dc.lft.to/lastmile_qr_scan"}, "fusion_lon": 0.0, "lat": 38.890431666666665, "is_disabled": 0, "bike_id": "01346638a9d2a1ba91c934b2d0adaf50", "fusion_lat": 0.0, "is_reserved": 0, "lon": -76.95244766666667}, {"type": "electric_scooter", "name": "ae8a3a93449417c6f37d55eb6470ce13", "rental_uris": {"ios": "https://dc.lft.to/lastmile_qr_scan", "android": "https://dc.lft.to/lastmile_qr_scan"}, "fusion_lon": 0.0, "lat": 38.91106966666667, "is_disabled": 0, "bike_id": "ae8a3a93449417c6f37d55eb6470ce13", "fusion_lat": 0.0, "is_reserved": 0, "lon": -77.0241875}, {"type": "electric_scooter", "name": "bfd52a36d10d6557066997944bcdc34e", "rental_uris": {"ios": "https://dc.lft.to/lastmile_qr_scan", "android": "https://dc.lft.to/lastmile_qr_scan"}, "fusion_lon": 0.0, "lat": 38.91131716666666, "is_disabled": 0, "bike_id": "bfd52a36d10d6557066997944bcdc34e", "fusion_lat": 0.0, "is_reserved": 0, "lon": -77.0436115}, {"type": "electric_bike", "name": "5670b1e82c94dbc6253b0e3950b3b693", "rental_uris": {"ios": "https://dc.lft.to/lastmile_qr_scan", "android": "https://dc.lft.to/lastmile_qr_scan"}, "fusion_lon": 0.0, "lat": 38.835805666666666, "is_disabled": 0, "bike_id": "5670b1e82c94dbc6253b0e3950b3b693", "fusion_lat": 0.0, "is_reserved": 0, "lon": -77.001245}, {"type": "electric_scooter", "name": "ed10bfb1d29cf8d9c908cfabd2605cce", "rental_uris": {"ios": "https://dc.lft.to/lastmile_qr_scan", "android": "https://dc.lft.to/lastmile_qr_scan"}, "fusion_lon": 0.0, "lat": 38.931692166666664, "is_disabled": 0, "bike_id": "ed10bfb1d29cf8d9c908cfabd2605cce", "fusion_lat": 0.0, "is_reserved": 0, "lon": -77.0367065}, {"type": "electric_scooter", "name": "71e004359b9f8bf93ce195174a227b76", "rental_uris": {"ios": "https://dc.lft.to/lastmile_qr_scan", "android": "https://dc.lft.to/lastmile_qr_scan"}, "fusion_lon": 0.0, "lat": 38.896263166666664, "is_disabled": 0, "bike_id": "71e004359b9f8bf93ce195174a227b76", "fusion_lat": 0.0, "is_reserved": 0, "lon": -77.04802366666667}, {"type": "electric_scooter", "name": "3d1a8b48c97c9c676511ea25984108c9", "rental_uris": {"ios": "https://dc.lft.to/lastmile_qr_scan", "android": "https://dc.lft.to/lastmile_qr_scan"}, "fusion_lon": 0.0, "lat": 38.90724016666667, "is_disabled": 0, "bike_id": "3d1a8b48c97c9c676511ea25984108c9", "fusion_lat": 0.0, "is_reserved": 0, "lon": -77.06891066666667}, {"type": "electric_scooter", "name": "044b1f81d0d4e76a0d030e6bfbe84101", "rental_uris": {"ios": "https://dc.lft.to/lastmile_qr_scan", "android": "https://dc.lft.to/lastmile_qr_scan"}, "fusion_lon": 0.0, "lat": 38.93905866666667, "is_disabled": 0, "bike_id": "044b1f81d0d4e76a0d030e6bfbe84101", "fusion_lat": 0.0, "is_reserved": 0, "lon": -77.03330066666666}, {"type": "electric_scooter", "name": "d0d49c658bdff44f971c584acc99805d", "rental_uris": {"ios": "https://dc.lft.to/lastmile_qr_scan", "android": "https://dc.lft.to/lastmile_qr_scan"}, "fusion_lon": 0.0, "lat": 38.92658433333333, "is_disabled": 0, "bike_id": "d0d49c658bdff44f971c584acc99805d", "fusion_lat": 0.0, "is_reserved": 0, "lon": -77.03708716666667}, {"type": "electric_scooter", "name": "175d660636cd55d988f6f17ec6178389", "rental_uris": {"ios": "https://dc.lft.to/lastmile_qr_scan", "android": "https://dc.lft.to/lastmile_qr_scan"}, "fusion_lon": 0.0, "lat": 38.9806215, "is_disabled": 0, "bike_id": "175d660636cd55d988f6f17ec6178389", "fusion_lat": 0.0, "is_reserved": 0, "lon": -77.026388}, {"type": "electric_scooter", "name": "50fe4b22dd2b254a2297e7165c0dec27", "rental_uris": {"ios": "https://dc.lft.to/lastmile_qr_scan", "android": "https://dc.lft.to/lastmile_qr_scan"}, "fusion_lon": 0.0, "lat": 38.94271166666667, "is_disabled": 0, "bike_id": "50fe4b22dd2b254a2297e7165c0dec27", "fusion_lat": 0.0, "is_reserved": 0, "lon": -77.012551}, {"type": "electric_scooter", "name": "c04864b1958ab01fc67549e4cb52f597", "rental_uris": {"ios": "https://dc.lft.to/lastmile_qr_scan", "android": "https://dc.lft.to/lastmile_qr_scan"}, "fusion_lon": 0.0, "lat": 38.90954133333334, "is_disabled": 0, "bike_id": "c04864b1958ab01fc67549e4cb52f597", "fusion_lat": 0.0, "is_reserved": 0, "lon": -76.99885783333333}, {"type": "electric_scooter", "name": "37181882dfe2e55c1d670e1cbce5829b", "rental_uris": {"ios": "https://dc.lft.to/lastmile_qr_scan", "android": "https://dc.lft.to/lastmile_qr_scan"}, "fusion_lon": 0.0, "lat": 38.89539533333333, "is_disabled": 0, "bike_id": "37181882dfe2e55c1d670e1cbce5829b", "fusion_lat": 0.0, "is_reserved": 0, "lon": -77.02819016666666}, {"type": "electric_scooter", "name": "c354ccecc32e098657a1f44780af8314", "rental_uris": {"ios": "https://dc.lft.to/lastmile_qr_scan", "android": "https://dc.lft.to/lastmile_qr_scan"}, "fusion_lon": 0.0, "lat": 38.907947666666665, "is_disabled": 0, "bike_id": "c354ccecc32e098657a1f44780af8314", "fusion_lat": 0.0, "is_reserved": 0, "lon": -77.0433745}, {"type": "electric_scooter", "name": "afc3ba2384aa8df6d0e7d6f507051ee2", "rental_uris": {"ios": "https://dc.lft.to/lastmile_qr_scan", "android": "https://dc.lft.to/lastmile_qr_scan"}, "fusion_lon": 0.0, "lat": 38.909552833333336, "is_disabled": 0, "bike_id": "afc3ba2384aa8df6d0e7d6f507051ee2", "fusion_lat": 0.0, "is_reserved": 0, "lon": -77.02273366666667}, {"type": "electric_scooter", "name": "3feb0b4ade7b3593b079b0fa2645c257", "rental_uris": {"ios": "https://dc.lft.to/lastmile_qr_scan", "android": "https://dc.lft.to/lastmile_qr_scan"}, "fusion_lon": 0.0, "lat": 38.89556366666667, "is_disabled": 0, "bike_id": "3feb0b4ade7b3593b079b0fa2645c257", "fusion_lat": 0.0, "is_reserved": 0, "lon": -77.039476}, {"type": "electric_scooter", "name": "92c6f89cb6f48f889a27d4eaab16fe08", "rental_uris": {"ios": "https://dc.lft.to/lastmile_qr_scan", "android": "https://dc.lft.to/lastmile_qr_scan"}, "fusion_lon": 0.0, "lat": 38.894285333333336, "is_disabled": 0, "bike_id": "92c6f89cb6f48f889a27d4eaab16fe08", "fusion_lat": 0.0, "is_reserved": 0, "lon": -77.00096283333333}, {"type": "electric_scooter", "name": "5c1dd525e52f18a33b87690d80986913", "rental_uris": {"ios": "https://dc.lft.to/lastmile_qr_scan", "android": "https://dc.lft.to/lastmile_qr_scan"}, "fusion_lon": 0.0, "lat": 38.92324033333333, "is_disabled": 0, "bike_id": "5c1dd525e52f18a33b87690d80986913", "fusion_lat": 0.0, "is_reserved": 0, "lon": -77.029782}, {"type": "electric_bike", "name": "565c460f43dd6af52363624c43b8bf9d", "rental_uris": {"ios": "https://dc.lft.to/lastmile_qr_scan", "android": "https://dc.lft.to/lastmile_qr_scan"}, "fusion_lon": 0.0, "lat": 38.903083, "is_disabled": 0, "bike_id": "565c460f43dd6af52363624c43b8bf9d", "fusion_lat": 0.0, "is_reserved": 0, "lon": -76.97651533333334}, {"type": "electric_scooter", "name": "587b84e9345a249a31c24d600a541bdc", "rental_uris": {"ios": "https://dc.lft.to/lastmile_qr_scan", "android": "https://dc.lft.to/lastmile_qr_scan"}, "fusion_lon": 0.0, "lat": 38.945250333333334, "is_disabled": 0, "bike_id": "587b84e9345a249a31c24d600a541bdc", "fusion_lat": 0.0, "is_reserved": 0, "lon": -77.022719}, {"type": "electric_scooter", "name": "59eeb4492f05621f0bbb807ca87bdfd7", "rental_uris": {"ios": "https://dc.lft.to/lastmile_qr_scan", "android": "https://dc.lft.to/lastmile_qr_scan"}, "fusion_lon": 0.0, "lat": 38.9219505, "is_disabled": 0, "bike_id": "59eeb4492f05621f0bbb807ca87bdfd7", "fusion_lat": 0.0, "is_reserved": 0, "lon": -77.0183635}, {"type": "electric_scooter", "name": "d4bcc9785beb0c66e6923b0df5d6a283", "rental_uris": {"ios": "https://dc.lft.to/lastmile_qr_scan", "android": "https://dc.lft.to/lastmile_qr_scan"}, "fusion_lon": 0.0, "lat": 38.90025683333333, "is_disabled": 0, "bike_id": "d4bcc9785beb0c66e6923b0df5d6a283", "fusion_lat": 0.0, "is_reserved": 0, "lon": -76.97397733333334}, {"type": "electric_scooter", "name": "781561c1aa188ff1c546d1e7f5ac9ead", "rental_uris": {"ios": "https://dc.lft.to/lastmile_qr_scan", "android": "https://dc.lft.to/lastmile_qr_scan"}, "fusion_lon": 0.0, "lat": 38.903697, "is_disabled": 0, "bike_id": "781561c1aa188ff1c546d1e7f5ac9ead", "fusion_lat": 0.0, "is_reserved": 0, "lon": -77.05038266666666}, {"type": "electric_bike", "name": "0b79c70be642f9f240e9b0a2390ce271", "rental_uris": {"ios": "https://dc.lft.to/lastmile_qr_scan", "android": "https://dc.lft.to/lastmile_qr_scan"}, "fusion_lon": 0.0, "lat": 38.900198833333334, "is_disabled": 0, "bike_id": "0b79c70be642f9f240e9b0a2390ce271", "fusion_lat": 0.0, "is_reserved": 0, "lon": -76.98678766666667}, {"type": "electric_scooter", "name": "95d7289afe62ff64797b2eea441ad595", "rental_uris": {"ios": "https://dc.lft.to/lastmile_qr_scan", "android": "https://dc.lft.to/lastmile_qr_scan"}, "fusion_lon": 0.0, "lat": 38.912203166666664, "is_disabled": 0, "bike_id": "95d7289afe62ff64797b2eea441ad595", "fusion_lat": 0.0, "is_reserved": 0, "lon": -77.036451}, {"type": "electric_scooter", "name": "384caef53ab72660233fc3226d08800b", "rental_uris": {"ios": "https://dc.lft.to/lastmile_qr_scan", "android": "https://dc.lft.to/lastmile_qr_scan"}, "fusion_lon": 0.0, "lat": 38.9345995, "is_disabled": 0, "bike_id": "384caef53ab72660233fc3226d08800b", "fusion_lat": 0.0, "is_reserved": 0, "lon": -77.03072516666667}, {"type": "electric_scooter", "name": "8f795b3246a8fa5e9299b9f4261ebcd4", "rental_uris": {"ios": "https://dc.lft.to/lastmile_qr_scan", "android": "https://dc.lft.to/lastmile_qr_scan"}, "fusion_lon": 0.0, "lat": 38.913327, "is_disabled": 0, "bike_id": "8f795b3246a8fa5e9299b9f4261ebcd4", "fusion_lat": 0.0, "is_reserved": 0, "lon": -77.0486315}, {"type": "electric_scooter", "name": "aa67345e910744575060cf336ef5a95e", "rental_uris": {"ios": "https://dc.lft.to/lastmile_qr_scan", "android": "https://dc.lft.to/lastmile_qr_scan"}, "fusion_lon": 0.0, "lat": 38.897045, "is_disabled": 0, "bike_id": "aa67345e910744575060cf336ef5a95e", "fusion_lat": 0.0, "is_reserved": 0, "lon": -77.02659966666667}, {"type": "electric_scooter", "name": "a26da8d0f4630fcb40c9509dcfb94dfb", "rental_uris": {"ios": "https://dc.lft.to/lastmile_qr_scan", "android": "https://dc.lft.to/lastmile_qr_scan"}, "fusion_lon": 0.0, "lat": 38.90498783333334, "is_disabled": 0, "bike_id": "a26da8d0f4630fcb40c9509dcfb94dfb", "fusion_lat": 0.0, "is_reserved": 0, "lon": -76.9813035}, {"type": "electric_scooter", "name": "40c69bc1d16e1e632ea7ee92ba0b5de6", "rental_uris": {"ios": "https://dc.lft.to/lastmile_qr_scan", "android": "https://dc.lft.to/lastmile_qr_scan"}, "fusion_lon": 0.0, "lat": 38.89224083333333, "is_disabled": 0, "bike_id": "40c69bc1d16e1e632ea7ee92ba0b5de6", "fusion_lat": 0.0, "is_reserved": 0, "lon": -77.0477205}, {"type": "electric_scooter", "name": "2ce1a4edddd3d7c06947b6aa914784ba", "rental_uris": {"ios": "https://dc.lft.to/lastmile_qr_scan", "android": "https://dc.lft.to/lastmile_qr_scan"}, "fusion_lon": 0.0, "lat": 38.920333, "is_disabled": 0, "bike_id": "2ce1a4edddd3d7c06947b6aa914784ba", "fusion_lat": 0.0, "is_reserved": 0, "lon": -77.01286583333334}, {"type": "electric_scooter", "name": "aee9546d7fafe6abc9e5b4c735d7646e", "rental_uris": {"ios": "https://dc.lft.to/lastmile_qr_scan", "android": "https://dc.lft.to/lastmile_qr_scan"}, "fusion_lon": 0.0, "lat": 38.8994745, "is_disabled": 0, "bike_id": "aee9546d7fafe6abc9e5b4c735d7646e", "fusion_lat": 0.0, "is_reserved": 0, "lon": -77.04176933333333}, {"type": "electric_scooter", "name": "e33111467163866c6ca4eb46b67eab09", "rental_uris": {"ios": "https://dc.lft.to/lastmile_qr_scan", "android": "https://dc.lft.to/lastmile_qr_scan"}, "fusion_lon": 0.0, "lat": 38.92317383333334, "is_disabled": 0, "bike_id": "e33111467163866c6ca4eb46b67eab09", "fusion_lat": 0.0, "is_reserved": 0, "lon": -77.04182033333333}, {"type": "electric_scooter", "name": "f2a716c218f97690713b9031fb535f51", "rental_uris": {"ios": "https://dc.lft.to/lastmile_qr_scan", "android": "https://dc.lft.to/lastmile_qr_scan"}, "fusion_lon": 0.0, "lat": 38.88259583333333, "is_disabled": 0, "bike_id": "f2a716c218f97690713b9031fb535f51", "fusion_lat": 0.0, "is_reserved": 0, "lon": -76.99493}, {"type": "electric_scooter", "name": "e312e7850df0df4ea65425903901e3ba", "rental_uris": {"ios": "https://dc.lft.to/lastmile_qr_scan", "android": "https://dc.lft.to/lastmile_qr_scan"}, "fusion_lon": 0.0, "lat": 38.89224166666666, "is_disabled": 0, "bike_id": "e312e7850df0df4ea65425903901e3ba", "fusion_lat": 0.0, "is_reserved": 0, "lon": -77.04512683333333}, {"type": "electric_scooter", "name": "758842a703713195e7480ec39623feaf", "rental_uris": {"ios": "https://dc.lft.to/lastmile_qr_scan", "android": "https://dc.lft.to/lastmile_qr_scan"}, "fusion_lon": 0.0, "lat": 38.865559, "is_disabled": 0, "bike_id": "758842a703713195e7480ec39623feaf", "fusion_lat": 0.0, "is_reserved": 0, "lon": -76.98350683333334}, {"type": "electric_scooter", "name": "38dde2470226f296776ce0badddf5eb0", "rental_uris": {"ios": "https://dc.lft.to/lastmile_qr_scan", "android": "https://dc.lft.to/lastmile_qr_scan"}, "fusion_lon": 0.0, "lat": 38.9074105, "is_disabled": 0, "bike_id": "38dde2470226f296776ce0badddf5eb0", "fusion_lat": 0.0, "is_reserved": 0, "lon": -77.043442}, {"type": "electric_bike", "name": "90e8064dea183eeb8b70ccf87a392b37", "rental_uris": {"ios": "https://dc.lft.to/lastmile_qr_scan", "android": "https://dc.lft.to/lastmile_qr_scan"}, "fusion_lon": 0.0, "lat": 38.818957, "is_disabled": 0, "bike_id": "90e8064dea183eeb8b70ccf87a392b37", "fusion_lat": 0.0, "is_reserved": 0, "lon": -77.12874516666666}, {"type": "electric_scooter", "name": "ff317f7081f16f10759e5fe8fb7c310a", "rental_uris": {"ios": "https://dc.lft.to/lastmile_qr_scan", "android": "https://dc.lft.to/lastmile_qr_scan"}, "fusion_lon": 0.0, "lat": 38.91231533333333, "is_disabled": 0, "bike_id": "ff317f7081f16f10759e5fe8fb7c310a", "fusion_lat": 0.0, "is_reserved": 0, "lon": -77.04527366666667}, {"type": "electric_scooter", "name": "96714296adc56e118f496537e10b5dee", "rental_uris": {"ios": "https://dc.lft.to/lastmile_qr_scan", "android": "https://dc.lft.to/lastmile_qr_scan"}, "fusion_lon": 0.0, "lat": 38.877457, "is_disabled": 0, "bike_id": "96714296adc56e118f496537e10b5dee", "fusion_lat": 0.0, "is_reserved": 0, "lon": -77.00693633333333}, {"type": "electric_scooter", "name": "afa7b59532967682df799cb2500b820a", "rental_uris": {"ios": "https://dc.lft.to/lastmile_qr_scan", "android": "https://dc.lft.to/lastmile_qr_scan"}, "fusion_lon": 0.0, "lat": 38.91109466666666, "is_disabled": 0, "bike_id": "afa7b59532967682df799cb2500b820a", "fusion_lat": 0.0, "is_reserved": 0, "lon": -77.04230033333333}, {"type": "electric_bike", "name": "c677bb9b6f19e81b8efb75c44e2947f8", "rental_uris": {"ios": "https://dc.lft.to/lastmile_qr_scan", "android": "https://dc.lft.to/lastmile_qr_scan"}, "fusion_lon": 0.0, "lat": 38.87137366666666, "is_disabled": 0, "bike_id": "c677bb9b6f19e81b8efb75c44e2947f8", "fusion_lat": 0.0, "is_reserved": 0, "lon": -77.10029983333334}, {"type": "electric_scooter", "name": "2f68c4b432505b56a3224ffc2c163f2e", "rental_uris": {"ios": "https://dc.lft.to/lastmile_qr_scan", "android": "https://dc.lft.to/lastmile_qr_scan"}, "fusion_lon": 0.0, "lat": 38.897046333333336, "is_disabled": 0, "bike_id": "2f68c4b432505b56a3224ffc2c163f2e", "fusion_lat": 0.0, "is_reserved": 0, "lon": -77.01613333333333}, {"type": "electric_scooter", "name": "15e191b0f11f427ad06e689d7970216b", "rental_uris": {"ios": "https://dc.lft.to/lastmile_qr_scan", "android": "https://dc.lft.to/lastmile_qr_scan"}, "fusion_lon": 0.0, "lat": 38.9053495, "is_disabled": 0, "bike_id": "15e191b0f11f427ad06e689d7970216b", "fusion_lat": 0.0, "is_reserved": 0, "lon": -77.02707283333334}, {"type": "electric_scooter", "name": "a8e641d7c8a2e4bf6dffe0ef34aebadb", "rental_uris": {"ios": "https://dc.lft.to/lastmile_qr_scan", "android": "https://dc.lft.to/lastmile_qr_scan"}, "fusion_lon": 0.0, "lat": 38.888103, "is_disabled": 0, "bike_id": "a8e641d7c8a2e4bf6dffe0ef34aebadb", "fusion_lat": 0.0, "is_reserved": 0, "lon": -76.983543}, {"type": "electric_scooter", "name": "9e40be033cfa71475473c38afedaad23", "rental_uris": {"ios": "https://dc.lft.to/lastmile_qr_scan", "android": "https://dc.lft.to/lastmile_qr_scan"}, "fusion_lon": 0.0, "lat": 38.897076166666665, "is_disabled": 0, "bike_id": "9e40be033cfa71475473c38afedaad23", "fusion_lat": 0.0, "is_reserved": 0, "lon": -77.027561}, {"type": "electric_scooter", "name": "f1176e6a24db0814e470cc101f6ab7b5", "rental_uris": {"ios": "https://dc.lft.to/lastmile_qr_scan", "android": "https://dc.lft.to/lastmile_qr_scan"}, "fusion_lon": 0.0, "lat": 38.92044666666666, "is_disabled": 0, "bike_id": "f1176e6a24db0814e470cc101f6ab7b5", "fusion_lat": 0.0, "is_reserved": 0, "lon": -77.01673966666667}, {"type": "electric_bike", "name": "aac82d848cda91466af5775e361683a8", "rental_uris": {"ios": "https://dc.lft.to/lastmile_qr_scan", "android": "https://dc.lft.to/lastmile_qr_scan"}, "fusion_lon": 0.0, "lat": 38.856494166666664, "is_disabled": 0, "bike_id": "aac82d848cda91466af5775e361683a8", "fusion_lat": 0.0, "is_reserved": 0, "lon": -77.08527833333333}, {"type": "electric_scooter", "name": "7ab0c767356dc79a13c7eba247ea6131", "rental_uris": {"ios": "https://dc.lft.to/lastmile_qr_scan", "android": "https://dc.lft.to/lastmile_qr_scan"}, "fusion_lon": 0.0, "lat": 38.8754655, "is_disabled": 0, "bike_id": "7ab0c767356dc79a13c7eba247ea6131", "fusion_lat": 0.0, "is_reserved": 0, "lon": -77.00534616666667}, {"type": "electric_scooter", "name": "3800228d71b99641ef473291a02be790", "rental_uris": {"ios": "https://dc.lft.to/lastmile_qr_scan", "android": "https://dc.lft.to/lastmile_qr_scan"}, "fusion_lon": 0.0, "lat": 38.907133, "is_disabled": 0, "bike_id": "3800228d71b99641ef473291a02be790", "fusion_lat": 0.0, "is_reserved": 0, "lon": -77.00583066666667}, {"type": "electric_scooter", "name": "5e886d5edcd5946c4ea34c38bcda423f", "rental_uris": {"ios": "https://dc.lft.to/lastmile_qr_scan", "android": "https://dc.lft.to/lastmile_qr_scan"}, "fusion_lon": 0.0, "lat": 38.88259816666667, "is_disabled": 0, "bike_id": "5e886d5edcd5946c4ea34c38bcda423f", "fusion_lat": 0.0, "is_reserved": 0, "lon": -76.92666683333333}, {"type": "electric_scooter", "name": "ea411d030b7a207095728d518eae7cdf", "rental_uris": {"ios": "https://dc.lft.to/lastmile_qr_scan", "android": "https://dc.lft.to/lastmile_qr_scan"}, "fusion_lon": 0.0, "lat": 38.91532566666667, "is_disabled": 0, "bike_id": "ea411d030b7a207095728d518eae7cdf", "fusion_lat": 0.0, "is_reserved": 0, "lon": -77.012241}, {"type": "electric_scooter", "name": "77cf1ea6a1495dc352d90671a0f00b19", "rental_uris": {"ios": "https://dc.lft.to/lastmile_qr_scan", "android": "https://dc.lft.to/lastmile_qr_scan"}, "fusion_lon": 0.0, "lat": 38.8987285, "is_disabled": 0, "bike_id": "77cf1ea6a1495dc352d90671a0f00b19", "fusion_lat": 0.0, "is_reserved": 0, "lon": -77.027245}, {"type": "electric_scooter", "name": "bbb0b04633931fd6e6bfa7007c7020b3", "rental_uris": {"ios": "https://dc.lft.to/lastmile_qr_scan", "android": "https://dc.lft.to/lastmile_qr_scan"},