{"data": {"bikes": [{"rental_uris": {"android": "https://dc.lft.to/lastmile_qr_scan", "ios": "https://dc.lft.to/lastmile_qr_scan"}, "type": "electric_scooter", "lon": -76.99740383333334, "name": "e20861b57dce5cae585b1250981508ca", "bike_id": "e20861b57dce5cae585b1250981508ca", "fusion_lat": 0.0, "is_reserved": 0, "lat": 38.932499666666665, "fusion_lon": 0.0, "is_disabled": 0}, {"rental_uris": {"android": "https://dc.lft.to/lastmile_qr_scan", "ios": "https://dc.lft.to/lastmile_qr_scan"}, "type": "electric_bike", "lon": -76.91123633333333, "name": "bc1d6c0a5ac848d65be6a3e0c0116046", "bike_id": "bc1d6c0a5ac848d65be6a3e0c0116046", "fusion_lat": 0.0, "is_reserved": 0, "lat": 39.01039983333333, "fusion_lon": 0.0, "is_disabled": 0}, {"rental_uris": {"android": "https://dc.lft.to/lastmile_qr_scan", "ios": "https://dc.lft.to/lastmile_qr_scan"}, "type": "electric_scooter", "lon": -77.04336266666667, "name": "2cc20c3ea1e3c40c3a8fc0a7f3474508", "bike_id": "2cc20c3ea1e3c40c3a8fc0a7f3474508", "fusion_lat": 0.0, "is_reserved": 0, "lat": 38.91367866666667, "fusion_lon": 0.0, "is_disabled": 0}, {"rental_uris": {"android": "https://dc.lft.to/lastmile_qr_scan", "ios": "https://dc.lft.to/lastmile_qr_scan"}, "type": "electric_scooter", "lon": -77.0320995, "name": "94d8db934149c3afd0d8c551c0e25cb5", "bike_id": "94d8db934149c3afd0d8c551c0e25cb5", "fusion_lat": 0.0, "is_reserved": 0, "lat": 38.91189983333334, "fusion_lon": 0.0, "is_disabled": 0}, {"rental_uris": {"android": "https://dc.lft.to/lastmile_qr_scan", "ios": "https://dc.lft.to/lastmile_qr_scan"}, "type": "electric_scooter", "lon": -77.0526485, "name": "9906ddf2d63adc084eeff92921791042", "bike_id": "9906ddf2d63adc084eeff92921791042", "fusion_lat": 0.0, "is_reserved": 0, "lat": 38.92761983333333, "fusion_lon": 0.0, "is_disabled": 0}, {"rental_uris": {"android": "https://dc.lft.to/lastmile_qr_scan", "ios": "https://dc.lft.to/lastmile_qr_scan"}, "type": "electric_scooter", "lon": -77.01042716666667, "name": "78b473c11e32a83504f338f75e094019", "bike_id": "78b473c11e32a83504f338f75e094019", "fusion_lat": 0.0, "is_reserved": 0, "lat": 38.88448116666667, "fusion_lon": 0.0, "is_disabled": 0}, {"rental_uris": {"android": "https://dc.lft.to/lastmile_qr_scan", "ios": "https://dc.lft.to/lastmile_qr_scan"}, "type": "electric_scooter", "lon": -76.9414345, "name": "7b5fec6398d1570965fe976375950660", "bike_id": "7b5fec6398d1570965fe976375950660", "fusion_lat": 0.0, "is_reserved": 0, "lat": 38.89116333333333, "fusion_lon": 0.0, "is_disabled": 0}, {"rental_uris": {"android": "https://dc.lft.to/lastmile_qr_scan", "ios": "https://dc.lft.to/lastmile_qr_scan"}, "type": "electric_scooter", "lon": -76.9839195, "name": "42ba8e229947f30f1796df48b1a36720", "bike_id": "42ba8e229947f30f1796df48b1a36720", "fusion_lat": 0.0, "is_reserved": 0, "lat": 38.909741333333336, "fusion_lon": 0.0, "is_disabled": 0}, {"rental_uris": {"android": "https://dc.lft.to/lastmile_qr_scan", "ios": "https://dc.lft.to/lastmile_qr_scan"}, "type": "electric_scooter", "lon": -77.01352816666666, "name": "62b90479d6f367d80755a450c3af4919", "bike_id": "62b90479d6f367d80755a450c3af4919", "fusion_lat": 0.0, "is_reserved": 0, "lat": 38.90387283333333, "fusion_lon": 0.0, "is_disabled": 0}, {"rental_uris": {"android": "https://dc.lft.to/lastmile_qr_scan", "ios": "https://dc.lft.to/lastmile_qr_scan"}, "type": "electric_scooter", "lon": -76.985918, "name": "914daaa08b00475e77b0469165b36065", "bike_id": "914daaa08b00475e77b0469165b36065", "fusion_lat": 0.0, "is_reserved": 0, "lat": 38.8897065, "fusion_lon": 0.0, "is_disabled": 0}, {"rental_uris": {"android": "https://dc.lft.to/lastmile_qr_scan", "ios": "https://dc.lft.to/lastmile_qr_scan"}, "type": "electric_scooter", "lon": -76.99393033333334, "name": "f59eca807ed6e28d93132c249fed75a5", "bike_id": "f59eca807ed6e28d93132c249fed75a5", "fusion_lat": 0.0, "is_reserved": 0, "lat": 38.9102025, "fusion_lon": 0.0, "is_disabled": 0}, {"rental_uris": {"android": "https://dc.lft.to/lastmile_qr_scan", "ios": "https://dc.lft.to/lastmile_qr_scan"}, "type": "electric_scooter", "lon": -77.03349416666667, "name": "5450baa1da8b162d38dad5e94a067e26", "bike_id": "5450baa1da8b162d38dad5e94a067e26", "fusion_lat": 0.0, "is_reserved": 0, "lat": 38.92244, "fusion_lon": 0.0, "is_disabled": 0}, {"rental_uris": {"android": "https://dc.lft.to/lastmile_qr_scan", "ios": "https://dc.lft.to/lastmile_qr_scan"}, "type": "electric_scooter", "lon": -77.00585316666667, "name": "1e0adc7d38339280bd6428770433e649", "bike_id": "1e0adc7d38339280bd6428770433e649", "fusion_lat": 0.0, "is_reserved": 0, "lat": 38.8763865, "fusion_lon": 0.0, "is_disabled": 0}, {"rental_uris": {"android": "https://dc.lft.to/lastmile_qr_scan", "ios": "https://dc.lft.to/lastmile_qr_scan"}, "type": "electric_bike", "lon": -77.1262295, "name": "55bffcd3366f4a09af9725aa472c6805", "bike_id": "55bffcd3366f4a09af9725aa472c6805", "fusion_lat": 0.0, "is_reserved": 0, "lat": 39.0580535, "fusion_lon": 0.0, "is_disabled": 0}, {"rental_uris": {"android": "https://dc.lft.to/lastmile_qr_scan", "ios": "https://dc.lft.to/lastmile_qr_scan"}, "type": "electric_scooter", "lon": -77.02966, "name": "70d255d7f2304bbf17d0c7a3c9c6126e", "bike_id": "70d255d7f2304bbf17d0c7a3c9c6126e", "fusion_lat": 0.0, "is_reserved": 0, "lat": 38.892235666666664, "fusion_lon": 0.0, "is_disabled": 0}, {"rental_uris": {"android": "https://dc.lft.to/lastmile_qr_scan", "ios": "https://dc.lft.to/lastmile_qr_scan"}, "type": "electric_bike", "lon": -77.158655, "name": "4b04f03785799c249da97b408a3e7898", "bike_id": "4b04f03785799c249da97b408a3e7898", "fusion_lat": 0.0, "is_reserved": 0, "lat": 39.090270833333335, "fusion_lon": 0.0, "is_disabled": 0}, {"rental_uris": {"android": "https://dc.lft.to/lastmile_qr_scan", "ios": "https://dc.lft.to/lastmile_qr_scan"}, "type": "electric_scooter", "lon": -77.047964, "name": "5f81a3af5b7d8a9dca0500bbff283ddf", "bike_id": "5f81a3af5b7d8a9dca0500bbff283ddf", "fusion_lat": 0.0, "is_reserved": 0, "lat": 38.91917133333333, "fusion_lon": 0.0, "is_disabled": 0}, {"rental_uris": {"android": "https://dc.lft.to/lastmile_qr_scan", "ios": "https://dc.lft.to/lastmile_qr_scan"}, "type": "electric_bike", "lon": -76.98742183333333, "name": "651df0ef596c73018880a495e8510f47", "bike_id": "651df0ef596c73018880a495e8510f47", "fusion_lat": 0.0, "is_reserved": 0, "lat": 38.857898, "fusion_lon": 0.0, "is_disabled": 0}, {"rental_uris": {"android": "https://dc.lft.to/lastmile_qr_scan", "ios": "https://dc.lft.to/lastmile_qr_scan"}, "type": "electric_scooter", "lon": -77.05331366666667, "name": "6355d28b05fa499427a09a5c9187860e", "bike_id": "6355d28b05fa499427a09a5c9187860e", "fusion_lat": 0.0, "is_reserved": 0, "lat": 38.902302, "fusion_lon": 0.0, "is_disabled": 0}, {"rental_uris": {"android": "https://dc.lft.to/lastmile_qr_scan", "ios": "https://dc.lft.to/lastmile_qr_scan"}, "type": "electric_scooter", "lon": -77.017312, "name": "8369ebce404c18455b86830817afd91b", "bike_id": "8369ebce404c18455b86830817afd91b", "fusion_lat": 0.0, "is_reserved": 0, "lat": 38.9420955, "fusion_lon": 0.0, "is_disabled": 0}, {"rental_uris": {"android": "https://dc.lft.to/lastmile_qr_scan", "ios": "https://dc.lft.to/lastmile_qr_scan"}, "type": "electric_scooter", "lon": -76.99816216666666, "name": "61d27340e35e04e2a6b337d7326e350c", "bike_id": "61d27340e35e04e2a6b337d7326e350c", "fusion_lat": 0.0, "is_reserved": 0, "lat": 38.844312, "fusion_lon": 0.0, "is_disabled": 0}, {"rental_uris": {"android": "https://dc.lft.to/lastmile_qr_scan", "ios": "https://dc.lft.to/lastmile_qr_scan"}, "type": "electric_scooter", "lon": -77.00762566666667, "name": "a92e7e56963779c5ad1696aa5442f6ec", "bike_id": "a92e7e56963779c5ad1696aa5442f6ec", "fusion_lat": 0.0, "is_reserved": 0, "lat": 38.915500333333334, "fusion_lon": 0.0, "is_disabled": 0}, {"rental_uris": {"android": "https://dc.lft.to/lastmile_qr_scan", "ios": "https://dc.lft.to/lastmile_qr_scan"}, "type": "electric_scooter", "lon": -77.02219166666667, "name": "861c0d1ff398e7d84900a4fed9a41112", "bike_id": "861c0d1ff398e7d84900a4fed9a41112", "fusion_lat": 0.0, "is_reserved": 0, "lat": 38.915574, "fusion_lon": 0.0, "is_disabled": 0}, {"rental_uris": {"android": "https://dc.lft.to/lastmile_qr_scan", "ios": "https://dc.lft.to/lastmile_qr_scan"}, "type": "electric_scooter", "lon": -77.02615083333333, "name": "37662c9a1337bc159adaf7b4e8437d8c", "bike_id": "37662c9a1337bc159adaf7b4e8437d8c", "fusion_lat": 0.0, "is_reserved": 0, "lat": 38.8859575, "fusion_lon": 0.0, "is_disabled": 0}, {"rental_uris": {"android": "https://dc.lft.to/lastmile_qr_scan", "ios": "https://dc.lft.to/lastmile_qr_scan"}, "type": "electric_scooter", "lon": -77.02192566666666, "name": "df8c722b10c2077e79a8f70b7ade7b7b", "bike_id": "df8c722b10c2077e79a8f70b7ade7b7b", "fusion_lat": 0.0, "is_reserved": 0, "lat": 38.910611, "fusion_lon": 0.0, "is_disabled": 0}, {"rental_uris": {"android": "https://dc.lft.to/lastmile_qr_scan", "ios": "https://dc.lft.to/lastmile_qr_scan"}, "type": "electric_bike", "lon": -77.12404066666667, "name": "99a2333a4c4867b8f5c0e4a9d0fc4ec6", "bike_id": "99a2333a4c4867b8f5c0e4a9d0fc4ec6", "fusion_lat": 0.0, "is_reserved": 0, "lat": 38.893237166666665, "fusion_lon": 0.0, "is_disabled": 0}, {"rental_uris": {"android": "https://dc.lft.to/lastmile_qr_scan", "ios": "https://dc.lft.to/lastmile_qr_scan"}, "type": "electric_scooter", "lon": -77.03071833333334, "name": "d226b451293aaa0db9e1f9f82965947e", "bike_id": "d226b451293aaa0db9e1f9f82965947e", "fusion_lat": 0.0, "is_reserved": 0, "lat": 38.907517666666664, "fusion_lon": 0.0, "is_disabled": 0}, {"rental_uris": {"android": "https://dc.lft.to/lastmile_qr_scan", "ios": "https://dc.lft.to/lastmile_qr_scan"}, "type": "electric_scooter", "lon": -77.05025333333333, "name": "da73a955b044c759fa0bef7df1d68b52", "bike_id": "da73a955b044c759fa0bef7df1d68b52", "fusion_lat": 0.0, "is_reserved": 0, "lat": 38.8955405, "fusion_lon": 0.0, "is_disabled": 0}, {"rental_uris": {"android": "https://dc.lft.to/lastmile_qr_scan", "ios": "https://dc.lft.to/lastmile_qr_scan"}, "type": "electric_scooter", "lon": -76.99632233333334, "name": "184aab367a9d4cee23340414a40d8a35", "bike_id": "184aab367a9d4cee23340414a40d8a35", "fusion_lat": 0.0, "is_reserved": 0, "lat": 38.8462265, "fusion_lon": 0.0, "is_disabled": 0}, {"rental_uris": {"android": "https://dc.lft.to/lastmile_qr_scan", "ios": "https://dc.lft.to/lastmile_qr_scan"}, "type": "electric_scooter", "lon": -77.02489633333333, "name": "61516f3a4be745bfae41488e34814bd0", "bike_id": "61516f3a4be745bfae41488e34814bd0", "fusion_lat": 0.0, "is_reserved": 0, "lat": 38.89956816666667, "fusion_lon": 0.0, "is_disabled": 0}, {"rental_uris": {"android": "https://dc.lft.to/lastmile_qr_scan", "ios": "https://dc.lft.to/lastmile_qr_scan"}, "type": "electric_scooter", "lon": -76.936745, "name": "bbf9eb27dde1ab398d30b72f592503f6", "bike_id": "bbf9eb27dde1ab398d30b72f592503f6", "fusion_lat": 0.0, "is_reserved": 0, "lat": 38.88752616666667, "fusion_lon": 0.0, "is_disabled": 0}, {"rental_uris": {"android": "https://dc.lft.to/lastmile_qr_scan", "ios": "https://dc.lft.to/lastmile_qr_scan"}, "type": "electric_scooter", "lon": -77.03109533333334, "name": "06c679d102312edd45aa4ceb1e01971e", "bike_id": "06c679d102312edd45aa4ceb1e01971e", "fusion_lat": 0.0, "is_reserved": 0, "lat": 38.89222016666667, "fusion_lon": 0.0, "is_disabled": 0}, {"rental_uris": {"android": "https://dc.lft.to/lastmile_qr_scan", "ios": "https://dc.lft.to/lastmile_qr_scan"}, "type": "electric_scooter", "lon": -76.9650715, "name": "9cea3a3392cba26b353ae6d26ffdf3ff", "bike_id": "9cea3a3392cba26b353ae6d26ffdf3ff", "fusion_lat": 0.0, "is_reserved": 0, "lat": 38.8764915, "fusion_lon": 0.0, "is_disabled": 0}, {"rental_uris": {"android": "https://dc.lft.to/lastmile_qr_scan", "ios": "https://dc.lft.to/lastmile_qr_scan"}, "type": "electric_scooter", "lon": -77.04985016666667, "name": "0568e60c0ed6ec8f875f5c959d980132", "bike_id": "0568e60c0ed6ec8f875f5c959d980132", "fusion_lat": 0.0, "is_reserved": 0, "lat": 38.905145, "fusion_lon": 0.0, "is_disabled": 0}, {"rental_uris": {"android": "https://dc.lft.to/lastmile_qr_scan", "ios": "https://dc.lft.to/lastmile_qr_scan"}, "type": "electric_scooter", "lon": -77.02402033333334, "name": "869ec09e3739ff470a523bac9d084b80", "bike_id": "869ec09e3739ff470a523bac9d084b80", "fusion_lat": 0.0, "is_reserved": 0, "lat": 38.91603283333333, "fusion_lon": 0.0, "is_disabled": 0}, {"rental_uris": {"android": "https://dc.lft.to/lastmile_qr_scan", "ios": "https://dc.lft.to/lastmile_qr_scan"}, "type": "electric_scooter", "lon": -77.027103, "name": "99d8d6f91dca573fb7532b44d17ce0e0", "bike_id": "99d8d6f91dca573fb7532b44d17ce0e0", "fusion_lat": 0.0, "is_reserved": 0, "lat": 38.89924466666667, "fusion_lon": 0.0, "is_disabled": 0}, {"rental_uris": {"android": "https://dc.lft.to/lastmile_qr_scan", "ios": "https://dc.lft.to/lastmile_qr_scan"}, "type": "electric_scooter", "lon": -76.9908465, "name": "bb0b81b1125bb43cbd9b12903905f953", "bike_id": "bb0b81b1125bb43cbd9b12903905f953", "fusion_lat": 0.0, "is_reserved": 0, "lat": 38.862382333333336, "fusion_lon": 0.0, "is_disabled": 0}, {"rental_uris": {"android": "https://dc.lft.to/lastmile_qr_scan", "ios": "https://dc.lft.to/lastmile_qr_scan"}, "type": "electric_scooter", "lon": -77.03908666666666, "name": "7c306f0aa2b010e8c8b8d5448ff3158d", "bike_id": "7c306f0aa2b010e8c8b8d5448ff3158d", "fusion_lat": 0.0, "is_reserved": 0, "lat": 38.922420833333334, "fusion_lon": 0.0, "is_disabled": 0}, {"rental_uris": {"android": "https://dc.lft.to/lastmile_qr_scan", "ios": "https://dc.lft.to/lastmile_qr_scan"}, "type": "electric_scooter", "lon": -76.98731216666667, "name": "a2ff4bfa16c7dfe78cac378df417fca4", "bike_id": "a2ff4bfa16c7dfe78cac378df417fca4", "fusion_lat": 0.0, "is_reserved": 0, "lat": 38.867095666666664, "fusion_lon": 0.0, "is_disabled": 0}, {"rental_uris": {"android": "https://dc.lft.to/lastmile_qr_scan", "ios": "https://dc.lft.to/lastmile_qr_scan"}, "type": "electric_scooter", "lon": -77.02491033333334, "name": "6c69ad434522af361245e2c26714563d", "bike_id": "6c69ad434522af361245e2c26714563d", "fusion_lat": 0.0, "is_reserved": 0, "lat": 38.932768333333335, "fusion_lon": 0.0, "is_disabled": 0}, {"rental_uris": {"android": "https://dc.lft.to/lastmile_qr_scan", "ios": "https://dc.lft.to/lastmile_qr_scan"}, "type": "electric_scooter", "lon": -77.02812916666667, "name": "ffc178486544940027ec927bfa6531a2", "bike_id": "ffc178486544940027ec927bfa6531a2", "fusion_lat": 0.0, "is_reserved": 0, "lat": 38.91414416666667, "fusion_lon": 0.0, "is_disabled": 0}, {"rental_uris": {"android": "https://dc.lft.to/lastmile_qr_scan", "ios": "https://dc.lft.to/lastmile_qr_scan"}, "type": "electric_scooter", "lon": -76.9803075, "name": "6c3f29f2392e9499aacf858f7275337f", "bike_id": "6c3f29f2392e9499aacf858f7275337f", "fusion_lat": 0.0, "is_reserved": 0, "lat": 38.8573095, "fusion_lon": 0.0, "is_disabled": 0}, {"rental_uris": {"android": "https://dc.lft.to/lastmile_qr_scan", "ios": "https://dc.lft.to/lastmile_qr_scan"}, "type": "electric_scooter", "lon": -77.04990766666667, "name": "147e8b7201dc6bff144cf89193414789", "bike_id": "147e8b7201dc6bff144cf89193414789", "fusion_lat": 0.0, "is_reserved": 0, "lat": 38.90521833333333, "fusion_lon": 0.0, "is_disabled": 0}, {"rental_uris": {"android": "https://dc.lft.to/lastmile_qr_scan", "ios": "https://dc.lft.to/lastmile_qr_scan"}, "type": "electric_scooter", "lon": -76.99609383333333, "name": "b3c6ba95a0cdc3ca11823461cb4313ce", "bike_id": "b3c6ba95a0cdc3ca11823461cb4313ce", "fusion_lat": 0.0, "is_reserved": 0, "lat": 38.90332733333334, "fusion_lon": 0.0, "is_disabled": 0}, {"rental_uris": {"android": "https://dc.lft.to/lastmile_qr_scan", "ios": "https://dc.lft.to/lastmile_qr_scan"}, "type": "electric_scooter", "lon": -77.02979983333333, "name": "5117005bf33e4ef10959b97d5bd392e6", "bike_id": "5117005bf33e4ef10959b97d5bd392e6", "fusion_lat": 0.0, "is_reserved": 0, "lat": 38.925356666666666, "fusion_lon": 0.0, "is_disabled": 0}, {"rental_uris": {"android": "https://dc.lft.to/lastmile_qr_scan", "ios": "https://dc.lft.to/lastmile_qr_scan"}, "type": "electric_scooter", "lon": -76.94987916666666, "name": "e2778fbbd5f6afb477ff39a575c9f88c", "bike_id": "e2778fbbd5f6afb477ff39a575c9f88c", "fusion_lat": 0.0, "is_reserved": 0, "lat": 38.89436416666667, "fusion_lon": 0.0, "is_disabled": 0}, {"rental_uris": {"android": "https://dc.lft.to/lastmile_qr_scan", "ios": "https://dc.lft.to/lastmile_qr_scan"}, "type": "electric_scooter", "lon": -77.02304983333333, "name": "fc252b82c9dca342c668cbfcd50ba53a", "bike_id": "fc252b82c9dca342c668cbfcd50ba53a", "fusion_lat": 0.0, "is_reserved": 0, "lat": 38.90886166666667, "fusion_lon": 0.0, "is_disabled": 0}, {"rental_uris": {"android": "https://dc.lft.to/lastmile_qr_scan", "ios": "https://dc.lft.to/lastmile_qr_scan"}, "type": "electric_scooter", "lon": -77.04674883333334, "name": "79829e3d89aff33cdae8e48d0737b74d", "bike_id": "79829e3d89aff33cdae8e48d0737b74d", "fusion_lat": 0.0, "is_reserved": 0, "lat": 38.915797, "fusion_lon": 0.0, "is_disabled": 0}, {"rental_uris": {"android": "https://dc.lft.to/lastmile_qr_scan", "ios": "https://dc.lft.to/lastmile_qr_scan"}, "type": "electric_bike", "lon": -76.96698133333334, "name": "408ed9ce5491185b7a6027238785988d", "bike_id": "408ed9ce5491185b7a6027238785988d", "fusion_lat": 0.0, "is_reserved": 0, "lat": 38.86838516666667, "fusion_lon": 0.0, "is_disabled": 0}, {"rental_uris": {"android": "https://dc.lft.to/lastmile_qr_scan", "ios": "https://dc.lft.to/lastmile_qr_scan"}, "type": "electric_bike", "lon": -77.19546883333334, "name": "62258881aadcf38bda2d03460a35d0dc", "bike_id": "62258881aadcf38bda2d03460a35d0dc", "fusion_lat": 0.0, "is_reserved": 0, "lat": 39.114991333333336, "fusion_lon": 0.0, "is_disabled": 0}, {"rental_uris": {"android": "https://dc.lft.to/lastmile_qr_scan", "ios": "https://dc.lft.to/lastmile_qr_scan"}, "type": "electric_scooter", "lon": -77.009239, "name": "9104c751a5409566d31583a0a845c330", "bike_id": "9104c751a5409566d31583a0a845c330", "fusion_lat": 0.0, "is_reserved": 0, "lat": 38.87627416666667, "fusion_lon": 0.0, "is_disabled": 0}, {"rental_uris": {"android": "https://dc.lft.to/lastmile_qr_scan", "ios": "https://dc.lft.to/lastmile_qr_scan"}, "type": "electric_scooter", "lon": -77.07251366666667, "name": "d24e6a02cf0ebda6f4f38a68ac11bfda", "bike_id": "d24e6a02cf0ebda6f4f38a68ac11bfda", "fusion_lat": 0.0, "is_reserved": 0, "lat": 38.934375833333334, "fusion_lon": 0.0, "is_disabled": 0}, {"rental_uris": {"android": "https://dc.lft.to/lastmile_qr_scan", "ios": "https://dc.lft.to/lastmile_qr_scan"}, "type": "electric_bike", "lon": -77.0498305, "name": "84b60e2a84407761f1a3350fc0893a2a", "bike_id": "84b60e2a84407761f1a3350fc0893a2a", "fusion_lat": 0.0, "is_reserved": 0, "lat": 38.992444166666665, "fusion_lon": 0.0, "is_disabled": 0}, {"rental_uris": {"android": "https://dc.lft.to/lastmile_qr_scan", "ios": "https://dc.lft.to/lastmile_qr_scan"}, "type": "electric_scooter", "lon": -76.9837395, "name": "b0609c342e846fbd7910cb8ee575a9df", "bike_id": "b0609c342e846fbd7910cb8ee575a9df", "fusion_lat": 0.0, "is_reserved": 0, "lat": 38.906417833333336, "fusion_lon": 0.0, "is_disabled": 0}, {"rental_uris": {"android": "https://dc.lft.to/lastmile_qr_scan", "ios": "https://dc.lft.to/lastmile_qr_scan"}, "type": "electric_bike", "lon": -77.02330183333333, "name": "535cdaa419bbcee1ff6b648bba127ca8", "bike_id": "535cdaa419bbcee1ff6b648bba127ca8", "fusion_lat": 0.0, "is_reserved": 0, "lat": 38.944406666666666, "fusion_lon": 0.0, "is_disabled": 0}, {"rental_uris": {"android": "https://dc.lft.to/lastmile_qr_scan", "ios": "https://dc.lft.to/lastmile_qr_scan"}, "type": "electric_bike", "lon": -76.98116333333333, "name": "68f31a5c2a2f2eb929740bb2a00c5c31", "bike_id": "68f31a5c2a2f2eb929740bb2a00c5c31", "fusion_lat": 0.0, "is_reserved": 0, "lat": 38.896684, "fusion_lon": 0.0, "is_disabled": 0}, {"rental_uris": {"android": "https://dc.lft.to/lastmile_qr_scan", "ios": "https://dc.lft.to/lastmile_qr_scan"}, "type": "electric_bike", "lon": -77.1018975, "name": "a39e662d12b42dcd218952f3eef327da", "bike_id": "a39e662d12b42dcd218952f3eef327da", "fusion_lat": 0.0, "is_reserved": 0, "lat": 38.91809816666667, "fusion_lon": 0.0, "is_disabled": 0}, {"rental_uris": {"android": "https://dc.lft.to/lastmile_qr_scan", "ios": "https://dc.lft.to/lastmile_qr_scan"}, "type": "electric_scooter", "lon": -76.99621266666666, "name": "6cd04618cd5282998a4a4de2b1be7f1c", "bike_id": "6cd04618cd5282998a4a4de2b1be7f1c", "fusion_lat": 0.0, "is_reserved": 0, "lat": 38.88604083333333, "fusion_lon": 0.0, "is_disabled": 0}, {"rental_uris": {"android": "https://dc.lft.to/lastmile_qr_scan", "ios": "https://dc.lft.to/lastmile_qr_scan"}, "type": "electric_scooter", "lon": -77.04657466666667, "name": "790fa9aeeca87bd391c4c5cf6a0d167e", "bike_id": "790fa9aeeca87bd391c4c5cf6a0d167e", "fusion_lat": 0.0, "is_reserved": 0, "lat": 38.91295133333333, "fusion_lon": 0.0, "is_disabled": 0}, {"rental_uris": {"android": "https://dc.lft.to/lastmile_qr_scan", "ios": "https://dc.lft.to/lastmile_qr_scan"}, "type": "electric_scooter", "lon": -77.02795416666666, "name": "f40705744b51bcc2106dc5d9130207db", "bike_id": "f40705744b51bcc2106dc5d9130207db", "fusion_lat": 0.0, "is_reserved": 0, "lat": 38.93080333333333, "fusion_lon": 0.0, "is_disabled": 0}, {"rental_uris": {"android": "https://dc.lft.to/lastmile_qr_scan", "ios": "https://dc.lft.to/lastmile_qr_scan"}, "type": "electric_scooter", "lon": -77.02209533333334, "name": "7251dfc4ee4cd24e94fb9d6fd7ad1e22", "bike_id": "7251dfc4ee4cd24e94fb9d6fd7ad1e22", "fusion_lat": 0.0, "is_reserved": 0, "lat": 38.887190333333336, "fusion_lon": 0.0, "is_disabled": 0}, {"rental_uris": {"android": "https://dc.lft.to/lastmile_qr_scan", "ios": "https://dc.lft.to/lastmile_qr_scan"}, "type": "electric_bike", "lon": -76.98334016666666, "name": "dbc07b7dfa8fa2e86ae1cccfda24ca1c", "bike_id": "dbc07b7dfa8fa2e86ae1cccfda24ca1c", "fusion_lat": 0.0, "is_reserved": 0, "lat": 38.96597966666667, "fusion_lon": 0.0, "is_disabled": 0}, {"rental_uris": {"android": "https://dc.lft.to/lastmile_qr_scan", "ios": "https://dc.lft.to/lastmile_qr_scan"}, "type": "electric_scooter", "lon": -77.03838266666666, "name": "984c1e7936d1f3705d47ca0c8447da33", "bike_id": "984c1e7936d1f3705d47ca0c8447da33", "fusion_lat": 0.0, "is_reserved": 0, "lat": 38.93148, "fusion_lon": 0.0, "is_disabled": 0}, {"rental_uris": {"android": "https://dc.lft.to/lastmile_qr_scan", "ios": "https://dc.lft.to/lastmile_qr_scan"}, "type": "electric_scooter", "lon": -77.02153216666666, "name": "25f837d970db149918b77cd42031af23", "bike_id": "25f837d970db149918b77cd42031af23", "fusion_lat": 0.0, "is_reserved": 0, "lat": 38.92597883333333, "fusion_lon": 0.0, "is_disabled": 0}, {"rental_uris": {"android": "https://dc.lft.to/lastmile_qr_scan", "ios": "https://dc.lft.to/lastmile_qr_scan"}, "type": "electric_scooter", "lon": -76.9826775, "name": "575ed48082418262753346d5e7e1ad5c", "bike_id": "575ed48082418262753346d5e7e1ad5c", "fusion_lat": 0.0, "is_reserved": 0, "lat": 38.915608666666664, "fusion_lon": 0.0, "is_disabled": 0}, {"rental_uris": {"android": "https://dc.lft.to/lastmile_qr_scan", "ios": "https://dc.lft.to/lastmile_qr_scan"}, "type": "electric_scooter", "lon": -77.02589383333333, "name": "902150c11a35b655e0b60a8fa77359a7", "bike_id": "902150c11a35b655e0b60a8fa77359a7", "fusion_lat": 0.0, "is_reserved": 0, "lat": 38.912707166666664, "fusion_lon": 0.0, "is_disabled": 0}, {"rental_uris": {"android": "https://dc.lft.to/lastmile_qr_scan", "ios": "https://dc.lft.to/lastmile_qr_scan"}, "type": "electric_scooter", "lon": -77.0247995, "name": "e59135f5f3880b9952dfa9340d7ef96f", "bike_id": "e59135f5f3880b9952dfa9340d7ef96f", "fusion_lat": 0.0, "is_reserved": 0, "lat": 38.9309485, "fusion_lon": 0.0, "is_disabled": 0}, {"rental_uris": {"android": "https://dc.lft.to/lastmile_qr_scan", "ios": "https://dc.lft.to/lastmile_qr_scan"}, "type": "electric_bike", "lon": -77.1123215, "name": "90ababec0319b0ee09d13092908dfd7f", "bike_id": "90ababec0319b0ee09d13092908dfd7f", "fusion_lat": 0.0, "is_reserved": 0, "lat": 38.81224566666667, "fusion_lon": 0.0, "is_disabled": 0}, {"rental_uris": {"android": "https://dc.lft.to/lastmile_qr_scan", "ios": "https://dc.lft.to/lastmile_qr_scan"}, "type": "electric_scooter", "lon": -77.03041716666667, "name": "be65b85bb5b5be85cd7fcec548a6b81c", "bike_id": "be65b85bb5b5be85cd7fcec548a6b81c", "fusion_lat": 0.0, "is_reserved": 0, "lat": 38.91257933333333, "fusion_lon": 0.0, "is_disabled": 0}, {"rental_uris": {"android": "https://dc.lft.to/lastmile_qr_scan", "ios": "https://dc.lft.to/lastmile_qr_scan"}, "type": "electric_scooter", "lon": -77.03263633333333, "name": "4726dbba97212571be61f0988bfdd2bc", "bike_id": "4726dbba97212571be61f0988bfdd2bc", "fusion_lat": 0.0, "is_reserved": 0, "lat": 38.91409816666667, "fusion_lon": 0.0, "is_disabled": 0}, {"rental_uris": {"android": "https://dc.lft.to/lastmile_qr_scan", "ios": "https://dc.lft.to/lastmile_qr_scan"}, "type": "electric_scooter", "lon": -76.93725616666667, "name": "cc8bb35809b7fad2c3a0ab3fd917d78c", "bike_id": "cc8bb35809b7fad2c3a0ab3fd917d78c", "fusion_lat": 0.0, "is_reserved": 0, "lat": 38.890982666666666, "fusion_lon": 0.0, "is_disabled": 0}, {"rental_uris": {"android": "https://dc.lft.to/lastmile_qr_scan", "ios": "https://dc.lft.to/lastmile_qr_scan"}, "type": "electric_scooter", "lon": -77.063893, "name": "865427bcadaca4379f8ccd1234561e8a", "bike_id": "865427bcadaca4379f8ccd1234561e8a", "fusion_lat": 0.0, "is_reserved": 0, "lat": 38.929011333333335, "fusion_lon": 0.0, "is_disabled": 0}, {"rental_uris": {"android": "https://dc.lft.to/lastmile_qr_scan", "ios": "https://dc.lft.to/lastmile_qr_scan"}, "type": "electric_scooter", "lon": -77.04251166666667, "name": "a910c8328c99737ab095a8d749bcb757", "bike_id": "a910c8328c99737ab095a8d749bcb757", "fusion_lat": 0.0, "is_reserved": 0, "lat": 38.94539666666667, "fusion_lon": 0.0, "is_disabled": 0}, {"rental_uris": {"android": "https://dc.lft.to/lastmile_qr_scan", "ios": "https://dc.lft.to/lastmile_qr_scan"}, "type": "electric_scooter", "lon": -77.02284283333333, "name": "6cf054b54871629ec2873c6e2b7410fc", "bike_id": "6cf054b54871629ec2873c6e2b7410fc", "fusion_lat": 0.0, "is_reserved": 0, "lat": 38.9173265, "fusion_lon": 0.0, "is_disabled": 0}, {"rental_uris": {"android": "https://dc.lft.to/lastmile_qr_scan", "ios": "https://dc.lft.to/lastmile_qr_scan"}, "type": "electric_scooter", "lon": -77.03660483333333, "name": "00ee6649866fa368a8ff43134bbfe85d", "bike_id": "00ee6649866fa368a8ff43134bbfe85d", "fusion_lat": 0.0, "is_reserved": 0, "lat": 38.912781, "fusion_lon": 0.0, "is_disabled": 0}, {"rental_uris": {"android": "https://dc.lft.to/lastmile_qr_scan", "ios": "https://dc.lft.to/lastmile_qr_scan"}, "type": "electric_scooter", "lon": -77.06040133333333, "name": "51b9f1922316f4d3b11a620056a6509f", "bike_id": "51b9f1922316f4d3b11a620056a6509f", "fusion_lat": 0.0, "is_reserved": 0, "lat": 38.9390705, "fusion_lon": 0.0, "is_disabled": 0}, {"rental_uris": {"android": "https://dc.lft.to/lastmile_qr_scan", "ios": "https://dc.lft.to/lastmile_qr_scan"}, "type": "electric_scooter", "lon": -76.94123033333334, "name": "d558b7335fbc8f2036fafddc2546098c", "bike_id": "d558b7335fbc8f2036fafddc2546098c", "fusion_lat": 0.0, "is_reserved": 0, "lat": 38.90795966666667, "fusion_lon": 0.0, "is_disabled": 0}, {"rental_uris": {"android": "https://dc.lft.to/lastmile_qr_scan", "ios": "https://dc.lft.to/lastmile_qr_scan"}, "type": "electric_scooter", "lon": -77.0377025, "name": "c72c9b8d5479c51f1beb703927716cb8", "bike_id": "c72c9b8d5479c51f1beb703927716cb8", "fusion_lat": 0.0, "is_reserved": 0, "lat": 38.916927333333334, "fusion_lon": 0.0, "is_disabled": 0}, {"rental_uris": {"android": "https://dc.lft.to/lastmile_qr_scan", "ios": "https://dc.lft.to/lastmile_qr_scan"}, "type": "electric_scooter", "lon": -77.02299266666667, "name": "0b3ac541b940ac4787b820a5ea9315d7", "bike_id": "0b3ac541b940ac4787b820a5ea9315d7", "fusion_lat": 0.0, "is_reserved": 0, "lat": 38.90850116666667, "fusion_lon": 0.0, "is_disabled": 0}, {"rental_uris": {"android": "https://dc.lft.to/lastmile_qr_scan", "ios": "https://dc.lft.to/lastmile_qr_scan"}, "type": "electric_scooter", "lon": -77.0514775, "name": "fa09e6395418db8600d56ae5ee637cc1", "bike_id": "fa09e6395418db8600d56ae5ee637cc1", "fusion_lat": 0.0, "is_reserved": 0, "lat": 38.90430166666667, "fusion_lon": 0.0, "is_disabled": 0}, {"rental_uris": {"android": "https://dc.lft.to/lastmile_qr_scan", "ios": "https://dc.lft.to/lastmile_qr_scan"}, "type": "electric_scooter", "lon": -77.023147, "name": "5e18ad85ad11179ce8457a9c95d6b5b9", "bike_id": "5e18ad85ad11179ce8457a9c95d6b5b9", "fusion_lat": 0.0, "is_reserved": 0, "lat": 38.916074333333334, "fusion_lon": 0.0, "is_disabled": 0}, {"rental_uris": {"android": "https://dc.lft.to/lastmile_qr_scan", "ios": "https://dc.lft.to/lastmile_qr_scan"}, "type": "electric_scooter", "lon": -76.98706583333333, "name": "6bf1ce077e8251dd9f0789464f3dde27", "bike_id": "6bf1ce077e8251dd9f0789464f3dde27", "fusion_lat": 0.0, "is_reserved": 0, "lat": 38.866954166666666, "fusion_lon": 0.0, "is_disabled": 0}, {"rental_uris": {"android": "https://dc.lft.to/lastmile_qr_scan", "ios": "https://dc.lft.to/lastmile_qr_scan"}, "type": "electric_scooter", "lon": -77.01821, "name": "a4e2623272f508e9f151e6370faadf2d", "bike_id": "a4e2623272f508e9f151e6370faadf2d", "fusion_lat": 0.0, "is_reserved": 0, "lat": 38.92161983333333, "fusion_lon": 0.0, "is_disabled": 0}, {"rental_uris": {"android": "https://dc.lft.to/lastmile_qr_scan", "ios": "https://dc.lft.to/lastmile_qr_scan"}, "type": "electric_scooter", "lon": -77.04508583333333, "name": "ff6c64f90eb9dbeb6187e93d9f0ba5e9", "bike_id": "ff6c64f90eb9dbeb6187e93d9f0ba5e9", "fusion_lat": 0.0, "is_reserved": 0, "lat": 38.89223366666667, "fusion_lon": 0.0, "is_disabled": 0}, {"rental_uris": {"android": "https://dc.lft.to/lastmile_qr_scan", "ios": "https://dc.lft.to/lastmile_qr_scan"}, "type": "electric_bike", "lon": -76.9956805, "name": "66078cb32d6de6276b6c32db3e4acedc", "bike_id": "66078cb32d6de6276b6c32db3e4acedc", "fusion_lat": 0.0, "is_reserved": 0, "lat": 39.007893333333335, "fusion_lon": 0.0, "is_disabled": 0}, {"rental_uris": {"android": "https://dc.lft.to/lastmile_qr_scan", "ios": "https://dc.lft.to/lastmile_qr_scan"}, "type": "electric_scooter", "lon": -77.06357616666666, "name": "436913f4853e958cfcf28a2eabd660a7", "bike_id": "436913f4853e958cfcf28a2eabd660a7", "fusion_lat": 0.0, "is_reserved": 0, "lat": 38.9444595, "fusion_lon": 0.0, "is_disabled": 0}, {"rental_uris": {"android": "https://dc.lft.to/lastmile_qr_scan", "ios": "https://dc.lft.to/lastmile_qr_scan"}, "type": "electric_bike", "lon": -77.09565933333333, "name": "869979ad26825d560551405e9332268f", "bike_id": "869979ad26825d560551405e9332268f", "fusion_lat": 0.0, "is_reserved": 0, "lat": 38.91703483333333, "fusion_lon": 0.0, "is_disabled": 0}, {"rental_uris": {"android": "https://dc.lft.to/lastmile_qr_scan", "ios": "https://dc.lft.to/lastmile_qr_scan"}, "type": "electric_scooter", "lon": -77.00212516666667, "name": "ca30515a57ac512a2a53f6b6b2b1f46e", "bike_id": "ca30515a57ac512a2a53f6b6b2b1f46e", "fusion_lat": 0.0, "is_reserved": 0, "lat": 38.90379883333333, "fusion_lon": 0.0, "is_disabled": 0}, {"rental_uris": {"android": "https://dc.lft.to/lastmile_qr_scan", "ios": "https://dc.lft.to/lastmile_qr_scan"}, "type": "electric_scooter", "lon": -77.00896116666667, "name": "af3b105110ee8812bc701b5a2e43db4f", "bike_id": "af3b105110ee8812bc701b5a2e43db4f", "fusion_lat": 0.0, "is_reserved": 0, "lat": 38.87319983333333, "fusion_lon": 0.0, "is_disabled": 0}, {"rental_uris": {"android": "https://dc.lft.to/lastmile_qr_scan", "ios": "https://dc.lft.to/lastmile_qr_scan"}, "type": "electric_scooter", "lon": -77.04043333333334, "name": "3bb14e26fff4b751fcdf6da32a7977af", "bike_id": "3bb14e26fff4b751fcdf6da32a7977af", "fusion_lat": 0.0, "is_reserved": 0, "lat": 38.90005816666667, "fusion_lon": 0.0, "is_disabled": 0}, {"rental_uris": {"android": "https://dc.lft.to/lastmile_qr_scan", "ios": "https://dc.lft.to/lastmile_qr_scan"}, "type": "electric_bike", "lon": -77.12508033333333, "name": "803f1e27d4843b1b3d4a768dd02b76d8", "bike_id": "803f1e27d4843b1b3d4a768dd02b76d8", "fusion_lat": 0.0, "is_reserved": 0, "lat": 39.02424716666667, "fusion_lon": 0.0, "is_disabled": 0}, {"rental_uris": {"android": "https://dc.lft.to/lastmile_qr_scan", "ios": "https://dc.lft.to/lastmile_qr_scan"}, "type": "electric_scooter", "lon": -77.0294815, "name": "9e4e6bac89e25e75323069e4941e2b02", "bike_id": "9e4e6bac89e25e75323069e4941e2b02", "fusion_lat": 0.0, "is_reserved": 0, "lat": 38.89857, "fusion_lon": 0.0, "is_disabled": 0}, {"rental_uris": {"android": "https://dc.lft.to/lastmile_qr_scan", "ios": "https://dc.lft.to/lastmile_qr_scan"}, "type": "electric_scooter", "lon": -77.01019783333334, "name": "1e5ca4e1df18e2465c41133ccf9e3d16", "bike_id": "1e5ca4e1df18e2465c41133ccf9e3d16", "fusion_lat": 0.0, "is_reserved": 0, "lat": 38.9061765, "fusion_lon": 0.0, "is_disabled": 0}, {"rental_uris": {"android": "https://dc.lft.to/lastmile_qr_scan", "ios": "https://dc.lft.to/lastmile_qr_scan"}, "type": "electric_bike", "lon": -76.95204533333333, "name": "2447507d3572171b9b2e65c15c974ff1", "bike_id": "2447507d3572171b9b2e65c15c974ff1", "fusion_lat": 0.0, "is_reserved": 0, "lat": 38.93668483333333, "fusion_lon": 0.0, "is_disabled": 0}, {"rental_uris": {"android": "https://dc.lft.to/lastmile_qr_scan", "ios": "https://dc.lft.to/lastmile_qr_scan"}, "type": "electric_scooter", "lon": -77.023965, "name": "55ec18e66c5eb6617d6de02c97a2126f", "bike_id": "55ec18e66c5eb6617d6de02c97a2126f", "fusion_lat": 0.0, "is_reserved": 0, "lat": 38.9108675, "fusion_lon": 0.0, "is_disabled": 0}, {"rental_uris": {"android": "https://dc.lft.to/lastmile_qr_scan", "ios": "https://dc.lft.to/lastmile_qr_scan"}, "type": "electric_scooter", "lon": -77.0645575, "name": "7766b46f4cb9c51561a140ed963b9599", "bike_id": "7766b46f4cb9c51561a140ed963b9599", "fusion_lat": 0.0, "is_reserved": 0, "lat": 38.9098885, "fusion_lon": 0.0, "is_disabled": 0}, {"rental_uris": {"android": "https://dc.lft.to/lastmile_qr_scan", "ios": "https://dc.lft.to/lastmile_qr_scan"}, "type": "electric_scooter", "lon": -77.01695166666667, "name": "49165e2c7d693dfc15456dbbf6fa4436", "bike_id": "49165e2c7d693dfc15456dbbf6fa4436", "fusion_lat": 0.0, "is_reserved": 0, "lat": 38.9110395, "fusion_lon": 0.0, "is_disabled": 0}, {"rental_uris": {"android": "https://dc.lft.to/lastmile_qr_scan", "ios": "https://dc.lft.to/lastmile_qr_scan"}, "type": "electric_scooter", "lon": -77.02352316666666, "name": "c858abb7010c15cc5c87a5c29899f4b6", "bike_id": "c858abb7010c15cc5c87a5c29899f4b6", "fusion_lat": 0.0, "is_reserved": 0, "lat": 38.922621, "fusion_lon": 0.0, "is_disabled": 0}, {"rental_uris": {"android": "https://dc.lft.to/lastmile_qr_scan", "ios": "https://dc.lft.to/lastmile_qr_scan"}, "type": "electric_scooter", "lon": -77.02498983333334, "name": "8728ab9cebe5b85bfd9098ead9dde3ce", "bike_id": "8728ab9cebe5b85bfd9098ead9dde3ce", "fusion_lat": 0.0, "is_reserved": 0, "lat": 38.92068666666667, "fusion_lon": 0.0, "is_disabled": 0}, {"rental_uris": {"android": "https://dc.lft.to/lastmile_qr_scan", "ios": "https://dc.lft.to/lastmile_qr_scan"}, "type": "electric_scooter", "lon": -77.027273, "name": "1ba74ddc4007a5c187c051914e619a05", "bike_id": "1ba74ddc4007a5c187c051914e619a05", "fusion_lat": 0.0, "is_reserved": 0, "lat": 38.939840833333335, "fusion_lon": 0.0, "is_disabled": 0}, {"rental_uris": {"android": "https://dc.lft.to/lastmile_qr_scan", "ios": "https://dc.lft.to/lastmile_qr_scan"}, "type": "electric_scooter", "lon": -77.03439033333333, "name": "d492b934c8720be69bb77303e6b8720a", "bike_id": "d492b934c8720be69bb77303e6b8720a", "fusion_lat": 0.0, "is_reserved": 0, "lat": 38.921491, "fusion_lon": 0.0, "is_disabled": 0}, {"rental_uris": {"android": "https://dc.lft.to/lastmile_qr_scan", "ios": "https://dc.lft.to/lastmile_qr_scan"}, "type": "electric_scooter", "lon": -76.987315, "name": "58680d5a0e36f0e1542ce4fe408aaacf", "bike_id": "58680d5a0e36f0e1542ce4fe408aaacf", "fusion_lat": 0.0, "is_reserved": 0, "lat": 38.867147833333334, "fusion_lon": 0.0, "is_disabled": 0}, {"rental_uris": {"android": "https://dc.lft.to/lastmile_qr_scan", "ios": "https://dc.lft.to/lastmile_qr_scan"}, "type": "electric_scooter", "lon": -77.03186383333333, "name": "5efac30f8e5b21718c70ad360165bd5b", "bike_id": "5efac30f8e5b21718c70ad360165bd5b", "fusion_lat": 0.0, "is_reserved": 0, "lat": 38.89311166666667, "fusion_lon": 0.0, "is_disabled": 0}, {"rental_uris": {"android": "https://dc.lft.to/lastmile_qr_scan", "ios": "https://dc.lft.to/lastmile_qr_scan"}, "type": "electric_bike", "lon": -77.1071485, "name": "7c713c42d2aa73e7ffae56b366d7e18e", "bike_id": "7c713c42d2aa73e7ffae56b366d7e18e", "fusion_lat": 0.0, "is_reserved": 0, "lat": 38.855623333333334, "fusion_lon": 0.0, "is_disabled": 0}, {"rental_uris": {"android": "https://dc.lft.to/lastmile_qr_scan", "ios": "https://dc.lft.to/lastmile_qr_scan"}, "type": "electric_scooter", "lon": -77.03436016666667, "name": "dcc12df297e1ce7e8e5f57bf29492354", "bike_id": "dcc12df297e1ce7e8e5f57bf29492354", "fusion_lat": 0.0, "is_reserved": 0, "lat": 38.90645283333333, "fusion_lon": 0.0, "is_disabled": 0}, {"rental_uris": {"android": "https://dc.lft.to/lastmile_qr_scan", "ios": "https://dc.lft.to/lastmile_qr_scan"}, "type": "electric_scooter", "lon": -76.99515183333334, "name": "4269584a1a72a1baeee589d227227e79", "bike_id": "4269584a1a72a1baeee589d227227e79", "fusion_lat": 0.0, "is_reserved": 0, "lat": 38.87772566666666, "fusion_lon": 0.0, "is_disabled": 0}, {"rental_uris": {"android": "https://dc.lft.to/lastmile_qr_scan", "ios": "https://dc.lft.to/lastmile_qr_scan"}, "type": "electric_scooter", "lon": -77.01111816666666, "name": "b51f52d0f1784f7e85c339a38db542aa", "bike_id": "b51f52d0f1784f7e85c339a38db542aa", "fusion_lat": 0.0, "is_reserved": 0, "lat": 38.90361466666667, "fusion_lon": 0.0, "is_disabled": 0}, {"rental_uris": {"android": "https://dc.lft.to/lastmile_qr_scan", "ios": "https://dc.lft.to/lastmile_qr_scan"}, "type": "electric_bike", "lon": -76.9495565, "name": "14603cd4fe034a95c2b8dcf71eb4669a", "bike_id": "14603cd4fe034a95c2b8dcf71eb4669a", "fusion_lat": 0.0, "is_reserved": 0, "lat": 38.935021166666665, "fusion_lon": 0.0, "is_disabled": 0}, {"rental_uris": {"android": "https://dc.lft.to/lastmile_qr_scan", "ios": "https://dc.lft.to/lastmile_qr_scan"}, "type": "electric_scooter", "lon": -77.03475133333333, "name": "8d59effb9379b1c7ad50b8bc23bff6fa", "bike_id": "8d59effb9379b1c7ad50b8bc23bff6fa", "fusion_lat": 0.0, "is_reserved": 0, "lat": 38.911135333333334, "fusion_lon": 0.0, "is_disabled": 0}, {"rental_uris": {"android": "https://dc.lft.to/lastmile_qr_scan", "ios": "https://dc.lft.to/lastmile_qr_scan"}, "type": "electric_scooter", "lon": -76.96521366666667, "name": "bfcab3395da60dd642997384c73405cf", "bike_id": "bfcab3395da60dd642997384c73405cf", "fusion_lat": 0.0, "is_reserved": 0, "lat": 38.8747915, "fusion_lon": 0.0, "is_disabled": 0}, {"rental_uris": {"android": "https://dc.lft.to/lastmile_qr_scan", "ios": "https://dc.lft.to/lastmile_qr_scan"}, "type": "electric_scooter", "lon": -77.03107066666666, "name": "58d30a36dcb71f1248c6f253d971d913", "bike_id": "58d30a36dcb71f1248c6f253d971d913", "fusion_lat": 0.0, "is_reserved": 0, "lat": 38.9191365, "fusion_lon": 0.0, "is_disabled": 0}, {"rental_uris": {"android": "https://dc.lft.to/lastmile_qr_scan", "ios": "https://dc.lft.to/lastmile_qr_scan"}, "type": "electric_scooter", "lon": -77.01350333333333, "name": "e249f20e2f362bcd297361781a4fee4c", "bike_id": "e249f20e2f362bcd297361781a4fee4c", "fusion_lat": 0.0, "is_reserved": 0, "lat": 38.912507833333336, "fusion_lon": 0.0, "is_disabled": 0}, {"rental_uris": {"android": "https://dc.lft.to/lastmile_qr_scan", "ios": "https://dc.lft.to/lastmile_qr_scan"}, "type": "electric_scooter", "lon": -77.03838783333333, "name": "c7b74d572078db0333f87785a1804621", "bike_id": "c7b74d572078db0333f87785a1804621", "fusion_lat": 0.0, "is_reserved": 0, "lat": 38.90395, "fusion_lon": 0.0, "is_disabled": 0}, {"rental_uris": {"android": "https://dc.lft.to/lastmile_qr_scan", "ios": "https://dc.lft.to/lastmile_qr_scan"}, "type": "electric_scooter", "lon": -76.9747585, "name": "53d1edb9833691c0e55794b0c18c20ad", "bike_id": "53d1edb9833691c0e55794b0c18c20ad", "fusion_lat": 0.0, "is_reserved": 0, "lat": 38.90342883333334, "fusion_lon": 0.0, "is_disabled": 0}, {"rental_uris": {"android": "https://dc.lft.to/lastmile_qr_scan", "ios": "https://dc.lft.to/lastmile_qr_scan"}, "type": "electric_scooter", "lon": -77.057908, "name": "19d7892fd2462ec0a381ecd7eb43fef8", "bike_id": "19d7892fd2462ec0a381ecd7eb43fef8", "fusion_lat": 0.0, "is_reserved": 0, "lat": 38.934736, "fusion_lon": 0.0, "is_disabled": 0}, {"rental_uris": {"android": "https://dc.lft.to/lastmile_qr_scan", "ios": "https://dc.lft.to/lastmile_qr_scan"}, "type": "electric_scooter", "lon": -77.0321415, "name": "5d0ecf688cab21b033eaa1c517a39acc", "bike_id": "5d0ecf688cab21b033eaa1c517a39acc", "fusion_lat": 0.0, "is_reserved": 0, "lat": 38.91642366666667, "fusion_lon": 0.0, "is_disabled": 0}, {"rental_uris": {"android": "https://dc.lft.to/lastmile_qr_scan", "ios": "https://dc.lft.to/lastmile_qr_scan"}, "type": "electric_bike", "lon": -77.00193683333333, "name": "1d2d5ca9eee1b590de5551cc73b8c0a8", "bike_id": "1d2d5ca9eee1b590de5551cc73b8c0a8", "fusion_lat": 0.0, "is_reserved": 0, "lat": 38.941512333333336, "fusion_lon": 0.0, "is_disabled": 0}, {"rental_uris": {"android": "https://dc.lft.to/lastmile_qr_scan", "ios": "https://dc.lft.to/lastmile_qr_scan"}, "type": "electric_scooter", "lon": -77.02321033333334, "name": "4642b7b057aea017cbfd0510342569bf", "bike_id": "4642b7b057aea017cbfd0510342569bf", "fusion_lat": 0.0, "is_reserved": 0, "lat": 38.916745, "fusion_lon": 0.0, "is_disabled": 0}, {"rental_uris": {"android": "https://dc.lft.to/lastmile_qr_scan", "ios": "https://dc.lft.to/lastmile_qr_scan"}, "type": "electric_scooter", "lon": -77.03398366666667, "name": "e8b4e5b2894190b93b198e59faaf4d54", "bike_id": "e8b4e5b2894190b93b198e59faaf4d54", "fusion_lat": 0.0, "is_reserved": 0, "lat": 38.91915616666667, "fusion_lon": 0.0, "is_disabled": 0}, {"rental_uris": {"android": "https://dc.lft.to/lastmile_qr_scan", "ios": "https://dc.lft.to/lastmile_qr_scan"}, "type": "electric_scooter", "lon": -77.04245316666666, "name": "2212571cd1d77c44a275a326538c108b", "bike_id": "2212571cd1d77c44a275a326538c108b", "fusion_lat": 0.0, "is_reserved": 0, "lat": 38.922244666666664, "fusion_lon": 0.0, "is_disabled": 0}, {"rental_uris": {"android": "https://dc.lft.to/lastmile_qr_scan", "ios": "https://dc.lft.to/lastmile_qr_scan"}, "type": "electric_scooter", "lon": -77.02687966666667, "name": "317d917276da684811a2ddfc3c8b1563", "bike_id": "317d917276da684811a2ddfc3c8b1563", "fusion_lat": 0.0, "is_reserved": 0, "lat": 38.909672666666665, "fusion_lon": 0.0, "is_disabled": 0}, {"rental_uris": {"android": "https://dc.lft.to/lastmile_qr_scan", "ios": "https://dc.lft.to/lastmile_qr_scan"}, "type": "electric_scooter", "lon": -77.03979783333334, "name": "c03893b58091f26b1004cc3fe5da28e8", "bike_id": "c03893b58091f26b1004cc3fe5da28e8", "fusion_lat": 0.0, "is_reserved": 0, "lat": 38.91627033333333, "fusion_lon": 0.0, "is_disabled": 0}, {"rental_uris": {"android": "https://dc.lft.to/lastmile_qr_scan", "ios": "https://dc.lft.to/lastmile_qr_scan"}, "type": "electric_scooter", "lon": -76.995129, "name": "0aec7d16fefecf8ad2e0b4b72bb429d5", "bike_id": "0aec7d16fefecf8ad2e0b4b72bb429d5", "fusion_lat": 0.0, "is_reserved": 0, "lat": 38.877679, "fusion_lon": 0.0, "is_disabled": 0}, {"rental_uris": {"android": "https://dc.lft.to/lastmile_qr_scan", "ios": "https://dc.lft.to/lastmile_qr_scan"}, "type": "electric_scooter", "lon": -77.04370466666667, "name": "39f1e510e231c98c322f3a9d6f6431bf", "bike_id": "39f1e510e231c98c322f3a9d6f6431bf", "fusion_lat": 0.0, "is_reserved": 0, "lat": 38.907252, "fusion_lon": 0.0, "is_disabled": 0}, {"rental_uris": {"android": "https://dc.lft.to/lastmile_qr_scan", "ios": "https://dc.lft.to/lastmile_qr_scan"}, "type": "electric_scooter", "lon": -76.99367233333334, "name": "aef506804813da089c9c467c63eee6c7", "bike_id": "aef506804813da089c9c467c63eee6c7", "fusion_lat": 0.0, "is_reserved": 0, "lat": 38.90046866666667, "fusion_lon": 0.0, "is_disabled": 0}, {"rental_uris": {"android": "https://dc.lft.to/lastmile_qr_scan", "ios": "https://dc.lft.to/lastmile_qr_scan"}, "type": "electric_scooter", "lon": -77.02706416666666, "name": "2c25273d1119dd12fe34bdac315fbc29", "bike_id": "2c25273d1119dd12fe34bdac315fbc29", "fusion_lat": 0.0, "is_reserved": 0, "lat": 38.904552833333334, "fusion_lon": 0.0, "is_disabled": 0}, {"rental_uris": {"android": "https://dc.lft.to/lastmile_qr_scan", "ios": "https://dc.lft.to/lastmile_qr_scan"}, "type": "electric_scooter", "lon": -76.98857683333334, "name": "9ff6618fe7102a317cb49797c805dd58", "bike_id": "9ff6618fe7102a317cb49797c805dd58", "fusion_lat": 0.0, "is_reserved": 0, "lat": 38.903526166666666, "fusion_lon": 0.0, "is_disabled": 0}, {"rental_uris": {"android": "https://dc.lft.to/lastmile_qr_scan", "ios": "https://dc.lft.to/lastmile_qr_scan"}, "type": "electric_bike", "lon": -77.03841233333333, "name": "b18543f8c82eb3480c3f630cbe809bd6", "bike_id": "b18543f8c82eb3480c3f630cbe809bd6", "fusion_lat": 0.0, "is_reserved": 0, "lat": 38.9215865, "fusion_lon": 0.0, "is_disabled": 0}, {"rental_uris": {"android": "https://dc.lft.to/lastmile_qr_scan", "ios": "https://dc.lft.to/lastmile_qr_scan"}, "type": "electric_scooter", "lon": -77.05012583333334, "name": "8a603c5e9cc7d7dd81b8875e945bb50a", "bike_id": "8a603c5e9cc7d7dd81b8875e945bb50a", "fusion_lat": 0.0, "is_reserved": 0, "lat": 38.904282, "fusion_lon": 0.0, "is_disabled": 0}, {"rental_uris": {"android": "https://dc.lft.to/lastmile_qr_scan", "ios": "https://dc.lft.to/lastmile_qr_scan"}, "type": "electric_scooter", "lon": -77.0627365, "name": "b08923fe4f7a5d49cfde740deffa7d38", "bike_id": "b08923fe4f7a5d49cfde740deffa7d38", "fusion_lat": 0.0, "is_reserved": 0, "lat": 38.904092166666665, "fusion_lon": 0.0, "is_disabled": 0}, {"rental_uris": {"android": "https://dc.lft.to/lastmile_qr_scan", "ios": "https://dc.lft.to/lastmile_qr_scan"}, "type": "electric_scooter", "lon": -76.97837566666666, "name": "bd95608f356bf6737471aae8692ca363", "bike_id": "bd95608f356bf6737471aae8692ca363", "fusion_lat": 0.0, "is_reserved": 0, "lat": 38.89606583333333, "fusion_lon": 0.0, "is_disabled": 0}, {"rental_uris": {"android": "https://dc.lft.to/lastmile_qr_scan", "ios": "https://dc.lft.to/lastmile_qr_scan"}, "type": "electric_scooter", "lon": -77.0277775, "name": "540067eeed955236f90b4347baf93dc1", "bike_id": "540067eeed955236f90b4347baf93dc1", "fusion_lat": 0.0, "is_reserved": 0, "lat": 38.89217383333333, "fusion_lon": 0.0, "is_disabled": 0}, {"rental_uris": {"android": "https://dc.lft.to/lastmile_qr_scan", "ios": "https://dc.lft.to/lastmile_qr_scan"}, "type": "electric_scooter", "lon": -77.02499733333333, "name": "1e4dca66b3e65ebe9e82dd7782d6ef3a", "bike_id": "1e4dca66b3e65ebe9e82dd7782d6ef3a", "fusion_lat": 0.0, "is_reserved": 0, "lat": 38.932877833333336, "fusion_lon": 0.0, "is_disabled": 0}, {"rental_uris": {"android": "https://dc.lft.to/lastmile_qr_scan", "ios": "https://dc.lft.to/lastmile_qr_scan"}, "type": "electric_scooter", "lon": -76.94307016666667, "name": "899bef622d2ca7909baa352830acae12", "bike_id": "899bef622d2ca7909baa352830acae12", "fusion_lat": 0.0, "is_reserved": 0, "lat": 38.90166966666666, "fusion_lon": 0.0, "is_disabled": 0}, {"rental_uris": {"android": "https://dc.lft.to/lastmile_qr_scan", "ios": "https://dc.lft.to/lastmile_qr_scan"}, "type": "electric_scooter", "lon": -77.03989983333334, "name": "8d4385e3fa9470773c1510f3b5170e5f", "bike_id": "8d4385e3fa9470773c1510f3b5170e5f", "fusion_lat": 0.0, "is_reserved": 0, "lat": 38.893545333333336, "fusion_lon": 0.0, "is_disabled": 0}, {"rental_uris": {"android": "https://dc.lft.to/lastmile_qr_scan", "ios": "https://dc.lft.to/lastmile_qr_scan"}, "type": "electric_scooter", "lon": -77.04379816666666, "name": "a096dac1b449e4e6726ccd2d575c744d", "bike_id": "a096dac1b449e4e6726ccd2d575c744d", "fusion_lat": 0.0, "is_reserved": 0, "lat": 38.92071833333333, "fusion_lon": 0.0, "is_disabled": 0}, {"rental_uris": {"android": "https://dc.lft.to/lastmile_qr_scan", "ios": "https://dc.lft.to/lastmile_qr_scan"}, "type": "electric_scooter", "lon": -77.048709, "name": "a7060578b68b5155e6aa76ede96844d8", "bike_id": "a7060578b68b5155e6aa76ede96844d8", "fusion_lat": 0.0, "is_reserved": 0, "lat": 38.91197116666667, "fusion_lon": 0.0, "is_disabled": 0}, {"rental_uris": {"android": "https://dc.lft.to/lastmile_qr_scan", "ios": "https://dc.lft.to/lastmile_qr_scan"}, "type": "electric_scooter", "lon": -76.9670685, "name": "0d2f74a2c829bf8b4df7674c06bba76b", "bike_id": "0d2f74a2c829bf8b4df7674c06bba76b", "fusion_lat": 0.0, "is_reserved": 0, "lat": 38.85894966666667, "fusion_lon": 0.0, "is_disabled": 0}, {"rental_uris": {"android": "https://dc.lft.to/lastmile_qr_scan", "ios": "https://dc.lft.to/lastmile_qr_scan"}, "type": "electric_bike", "lon": -77.05031633333333, "name": "bb226dc40506ead6f4e4a31b867cb790", "bike_id": "bb226dc40506ead6f4e4a31b867cb790", "fusion_lat": 0.0, "is_reserved": 0, "lat": 38.91113283333333, "fusion_lon": 0.0, "is_disabled": 0}, {"rental_uris": {"android": "https://dc.lft.to/lastmile_qr_scan", "ios": "https://dc.lft.to/lastmile_qr_scan"}, "type": "electric_scooter", "lon": -77.03352516666666, "name": "3da4cb2404c04646dc86539c1fe77baf", "bike_id": "3da4cb2404c04646dc86539c1fe77baf", "fusion_lat": 0.0, "is_reserved": 0, "lat": 38.922552, "fusion_lon": 0.0, "is_disabled": 0}, {"rental_uris": {"android": "https://dc.lft.to/lastmile_qr_scan", "ios": "https://dc.lft.to/lastmile_qr_scan"}, "type": "electric_scooter", "lon": -77.03673116666667, "name": "eef829c0ff729e768b035f3a59d8c270", "bike_id": "eef829c0ff729e768b035f3a59d8c270", "fusion_lat": 0.0, "is_reserved": 0, "lat": 38.927093166666666, "fusion_lon": 0.0, "is_disabled": 0}, {"rental_uris": {"android": "https://dc.lft.to/lastmile_qr_scan", "ios": "https://dc.lft.to/lastmile_qr_scan"}, "type": "electric_bike", "lon": -77.09161366666666, "name": "69a7f7bbf95b131b74a3a6df57d3b42b", "bike_id": "69a7f7bbf95b131b74a3a6df57d3b42b", "fusion_lat": 0.0, "is_reserved": 0, "lat": 38.9675905, "fusion_lon": 0.0, "is_disabled": 0}, {"rental_uris": {"android": "https://dc.lft.to/lastmile_qr_scan", "ios": "https://dc.lft.to/lastmile_qr_scan"}, "type": "electric_scooter", "lon": -77.03730866666666, "name": "ff754a21f0bbcdd9601d46a883b7467a", "bike_id": "ff754a21f0bbcdd9601d46a883b7467a", "fusion_lat": 0.0, "is_reserved": 0, "lat": 38.918055333333335, "fusion_lon": 0.0, "is_disabled": 0}, {"rental_uris": {"android": "https://dc.lft.to/lastmile_qr_scan", "ios": "https://dc.lft.to/lastmile_qr_scan"}, "type": "electric_scooter", "lon": -77.03120866666667, "name": "1d0858637aae9ff94abff2fb94cf60f8", "bike_id": "1d0858637aae9ff94abff2fb94cf60f8", "fusion_lat": 0.0, "is_reserved": 0, "lat": 38.973721166666664, "fusion_lon": 0.0, "is_disabled": 0}, {"rental_uris": {"android": "https://dc.lft.to/lastmile_qr_scan", "ios": "https://dc.lft.to/lastmile_qr_scan"}, "type": "electric_scooter", "lon": -77.046611, "name": "420c83867654ac815bc03b89bff40b88", "bike_id": "420c83867654ac815bc03b89bff40b88", "fusion_lat": 0.0, "is_reserved": 0, "lat": 38.893059666666666, "fusion_lon": 0.0, "is_disabled": 0}, {"rental_uris": {"android": "https://dc.lft.to/lastmile_qr_scan", "ios": "https://dc.lft.to/lastmile_qr_scan"}, "type": "electric_scooter", "lon": -77.0442375, "name": "35c8fb735d1daf321f4b2ea53b0b1920", "bike_id": "35c8fb735d1daf321f4b2ea53b0b1920", "fusion_lat": 0.0, "is_reserved": 0, "lat": 38.8743405, "fusion_lon": 0.0, "is_disabled": 0}, {"rental_uris": {"android": "https://dc.lft.to/lastmile_qr_scan", "ios": "https://dc.lft.to/lastmile_qr_scan"}, "type": "electric_scooter", "lon": -76.96927166666667, "name": "6c39943ecdf058b174cf6ebc203f1c0c", "bike_id": "6c39943ecdf058b174cf6ebc203f1c0c", "fusion_lat": 0.0, "is_reserved": 0, "lat": 38.9303275, "fusion_lon": 0.0, "is_disabled": 0}, {"rental_uris": {"android": "https://dc.lft.to/lastmile_qr_scan", "ios": "https://dc.lft.to/lastmile_qr_scan"}, "type": "electric_scooter", "lon": -77.027158, "name": "82aa9c902ad3be4526e81edc2007ef7c", "bike_id": "82aa9c902ad3be4526e81edc2007ef7c", "fusion_lat": 0.0, "is_reserved": 0, "lat": 38.906685833333334, "fusion_lon": 0.0, "is_disabled": 0}, {"rental_uris": {"android": "https://dc.lft.to/lastmile_qr_scan", "ios": "https://dc.lft.to/lastmile_qr_scan"}, "type": "electric_bike", "lon": -76.92923216666667, "name": "9af1917d5a8fdaf5ddf78ae825044f7b", "bike_id": "9af1917d5a8fdaf5ddf78ae825044f7b", "fusion_lat": 0.0, "is_reserved": 0, "lat": 38.9802125, "fusion_lon": 0.0, "is_disabled": 0}, {"rental_uris": {"android": "https://dc.lft.to/lastmile_qr_scan", "ios": "https://dc.lft.to/lastmile_qr_scan"}, "type": "electric_scooter", "lon": -77.0194795, "name": "d3279caf5b9d156d256cd1c9e4b01829", "bike_id": "d3279caf5b9d156d256cd1c9e4b01829", "fusion_lat": 0.0, "is_reserved": 0, "lat": 38.922416166666665, "fusion_lon": 0.0, "is_disabled": 0}, {"rental_uris": {"android": "https://dc.lft.to/lastmile_qr_scan", "ios": "https://dc.lft.to/lastmile_qr_scan"}, "type": "electric_scooter", "lon": -77.05757366666667, "name": "415a8470ca3e6dbd66ae80e9837f8800", "bike_id": "415a8470ca3e6dbd66ae80e9837f8800", "fusion_lat": 0.0, "is_reserved": 0, "lat": 38.92499766666667, "fusion_lon": 0.0, "is_disabled": 0}, {"rental_uris": {"android": "https://dc.lft.to/lastmile_qr_scan", "ios": "https://dc.lft.to/lastmile_qr_scan"}, "type": "electric_scooter", "lon": -76.94643033333334, "name": "631c70316422e5bc58ad1724263c81b1", "bike_id": "631c70316422e5bc58ad1724263c81b1", "fusion_lat": 0.0, "is_reserved": 0, "lat": 38.89846166666667, "fusion_lon": 0.0, "is_disabled": 0}, {"rental_uris": {"android": "https://dc.lft.to/lastmile_qr_scan", "ios": "https://dc.lft.to/lastmile_qr_scan"}, "type": "electric_scooter", "lon": -77.04543983333333, "name": "fe0df1a649e3ae1dbc3e7f4db2f12e13", "bike_id": "fe0df1a649e3ae1dbc3e7f4db2f12e13", "fusion_lat": 0.0, "is_reserved": 0, "lat": 38.9073855, "fusion_lon": 0.0, "is_disabled": 0}, {"rental_uris": {"android": "https://dc.lft.to/lastmile_qr_scan", "ios": "https://dc.lft.to/lastmile_qr_scan"}, "type": "electric_scooter", "lon": -77.044806, "name": "d37fc8724fe74967ce528447c40a879a", "bike_id": "d37fc8724fe74967ce528447c40a879a", "fusion_lat": 0.0, "is_reserved": 0, "lat": 38.90939133333333, "fusion_lon": 0.0, "is_disabled": 0}, {"rental_uris": {"android": "https://dc.lft.to/lastmile_qr_scan", "ios": "https://dc.lft.to/lastmile_qr_scan"}, "type": "electric_scooter", "lon": -77.002766, "name": "9b1f85db775129bef6716c1a0c06f518", "bike_id": "9b1f85db775129bef6716c1a0c06f518", "fusion_lat": 0.0, "is_reserved": 0, "lat": 38.908753, "fusion_lon": 0.0, "is_disabled": 0}, {"rental_uris": {"android": "https://dc.lft.to/lastmile_qr_scan", "ios": "https://dc.lft.to/lastmile_qr_scan"}, "type": "electric_scooter", "lon": -77.02640366666667, "name": "a4cad089e903b36ec9ae140267f860e2", "bike_id": "a4cad089e903b36ec9ae140267f860e2", "fusion_lat": 0.0, "is_reserved": 0, "lat": 38.88105183333333, "fusion_lon": 0.0, "is_disabled": 0}, {"rental_uris": {"android": "https://dc.lft.to/lastmile_qr_scan", "ios": "https://dc.lft.to/lastmile_qr_scan"}, "type": "electric_scooter", "lon": -77.04632633333334, "name": "01c6cc4df119ef9932287d52b35f140f", "bike_id": "01c6cc4df119ef9932287d52b35f140f", "fusion_lat": 0.0, "is_reserved": 0, "lat": 38.897245833333336, "fusion_lon": 0.0, "is_disabled": 0}, {"rental_uris": {"android": "https://dc.lft.to/lastmile_qr_scan", "ios": "https://dc.lft.to/lastmile_qr_scan"}, "type": "electric_scooter", "lon": -77.06496033333333, "name": "06b00f11bee5bbc0ec968e792a38bde6", "bike_id": "06b00f11bee5bbc0ec968e792a38bde6", "fusion_lat": 0.0, "is_reserved": 0, "lat": 38.90514316666667, "fusion_lon": 0.0, "is_disabled": 0}, {"rental_uris": {"android": "https://dc.lft.to/lastmile_qr_scan", "ios": "https://dc.lft.to/lastmile_qr_scan"}, "type": "electric_scooter", "lon": -76.927748, "name": "951c39107c09a691965ce9b825d39367", "bike_id": "951c39107c09a691965ce9b825d39367", "fusion_lat": 0.0, "is_reserved": 0, "lat": 38.902758166666665, "fusion_lon": 0.0, "is_disabled": 0}, {"rental_uris": {"android": "https://dc.lft.to/lastmile_qr_scan", "ios": "https://dc.lft.to/lastmile_qr_scan"}, "type": "electric_scooter", "lon": -77.0356875, "name": "3bafcb98ed1712d627d6c5067b4bf313", "bike_id": "3bafcb98ed1712d627d6c5067b4bf313", "fusion_lat": 0.0, "is_reserved": 0, "lat": 38.91690783333333, "fusion_lon": 0.0, "is_disabled": 0}, {"rental_uris": {"android": "https://dc.lft.to/lastmile_qr_scan", "ios": "https://dc.lft.to/lastmile_qr_scan"}, "type": "electric_scooter", "lon": -77.05914566666667, "name": "4414a166b7c73612ba53d2fbf23cf4b6", "bike_id": "4414a166b7c73612ba53d2fbf23cf4b6", "fusion_lat": 0.0, "is_reserved": 0, "lat": 38.90531283333333, "fusion_lon": 0.0, "is_disabled": 0}, {"rental_uris": {"android": "https://dc.lft.to/lastmile_qr_scan", "ios": "https://dc.lft.to/lastmile_qr_scan"}, "type": "electric_scooter", "lon": -77.02607866666666, "name": "13ea4768c65cdf0cfcd7a6574bb99cf3", "bike_id": "13ea4768c65cdf0cfcd7a6574bb99cf3", "fusion_lat": 0.0, "is_reserved": 0, "lat": 38.914268166666666, "fusion_lon": 0.0, "is_disabled": 0}, {"rental_uris": {"android": "https://dc.lft.to/lastmile_qr_scan", "ios": "https://dc.lft.to/lastmile_qr_scan"}, "type": "electric_scooter", "lon": -76.994477, "name": "4bb623ce09bd69b7bf31bafcb0310714", "bike_id": "4bb623ce09bd69b7bf31bafcb0310714", "fusion_lat": 0.0, "is_reserved": 0, "lat": 38.90508583333333, "fusion_lon": 0.0, "is_disabled": 0}, {"rental_uris": {"android": "https://dc.lft.to/lastmile_qr_scan", "ios": "https://dc.lft.to/lastmile_qr_scan"}, "type": "electric_scooter", "lon": -77.00735866666666, "name": "d33a9124dec46a5832a984000a30bc6d", "bike_id": "d33a9124dec46a5832a984000a30bc6d", "fusion_lat": 0.0, "is_reserved": 0, "lat": 38.87638, "fusion_lon": 0.0, "is_disabled": 0}, {"rental_uris": {"android": "https://dc.lft.to/lastmile_qr_scan", "ios": "https://dc.lft.to/lastmile_qr_scan"}, "type": "electric_scooter", "lon": -76.95511916666666, "name": "45720ebc71256b2a91d581e87a1815f9", "bike_id": "45720ebc71256b2a91d581e87a1815f9", "fusion_lat": 0.0, "is_reserved": 0, "lat": 38.89049583333333, "fusion_lon": 0.0, "is_disabled": 0}, {"rental_uris": {"android": "https://dc.lft.to/lastmile_qr_scan", "ios": "https://dc.lft.to/lastmile_qr_scan"}, "type": "electric_scooter", "lon": -77.02206516666666, "name": "0663a0bd25aa70d42888e45c3cce2dd5", "bike_id": "0663a0bd25aa70d42888e45c3cce2dd5", "fusion_lat": 0.0, "is_reserved": 0, "lat": 38.915334333333334, "fusion_lon": 0.0, "is_disabled": 0}, {"rental_uris": {"android": "https://dc.lft.to/lastmile_qr_scan", "ios": "https://dc.lft.to/lastmile_qr_scan"}, "type": "electric_scooter", "lon": -76.96786866666666, "name": "ddd089a1581ac1fb2b518d16c493cb24", "bike_id": "ddd089a1581ac1fb2b518d16c493cb24", "fusion_lat": 0.0, "is_reserved": 0, "lat": 38.873368166666666, "fusion_lon": 0.0, "is_disabled": 0}, {"rental_uris": {"android": "https://dc.lft.to/lastmile_qr_scan", "ios": "https://dc.lft.to/lastmile_qr_scan"}, "type": "electric_scooter", "lon": -77.00542033333333, "name": "dd89e92f1f6f2651bc98d7e64a5394ce", "bike_id": "dd89e92f1f6f2651bc98d7e64a5394ce", "fusion_lat": 0.0, "is_reserved": 0, "lat": 38.87455383333333, "fusion_lon": 0.0, "is_disabled": 0}, {"rental_uris": {"android": "https://dc.lft.to/lastmile_qr_scan", "ios": "https://dc.lft.to/lastmile_qr_scan"}, "type": "electric_bike", "lon": -77.045409, "name": "fd716d252b839c378094eabefb4cf90d", "bike_id": "fd716d252b839c378094eabefb4cf90d", "fusion_lat": 0.0, "is_reserved": 0, "lat": 38.885693, "fusion_lon": 0.0, "is_disabled": 0}, {"rental_uris": {"android": "https://dc.lft.to/lastmile_qr_scan", "ios": "https://dc.lft.to/lastmile_qr_scan"}, "type": "electric_scooter", "lon": -77.04374783333333, "name": "9b9223ae069b2e309aaeddc3c20b2ca9", "bike_id": "9b9223ae069b2e309aaeddc3c20b2ca9", "fusion_lat": 0.0, "is_reserved": 0, "lat": 38.92062216666667, "fusion_lon": 0.0, "is_disabled": 0}, {"rental_uris": {"android": "https://dc.lft.to/lastmile_qr_scan", "ios": "https://dc.lft.to/lastmile_qr_scan"}, "type": "electric_scooter", "lon": -77.02401766666667, "name": "fab165120f3501d586b3fc197509d821", "bike_id": "fab165120f3501d586b3fc197509d821", "fusion_lat": 0.0, "is_reserved": 0, "lat": 38.910904, "fusion_lon": 0.0, "is_disabled": 0}, {"rental_uris": {"android": "https://dc.lft.to/lastmile_qr_scan", "ios": "https://dc.lft.to/lastmile_qr_scan"}, "type": "electric_scooter", "lon": -77.04366, "name": "4441ee1667766650d751b846cd88522e", "bike_id": "4441ee1667766650d751b846cd88522e", "fusion_lat": 0.0, "is_reserved": 0, "lat": 38.89238866666667, "fusion_lon": 0.0, "is_disabled": 0}, {"rental_uris": {"android": "https://dc.lft.to/lastmile_qr_scan", "ios": "https://dc.lft.to/lastmile_qr_scan"}, "type": "electric_scooter", "lon": -77.02811633333333, "name": "ee4b230c27e3c552a4ec59d5a7f7ed09", "bike_id": "ee4b230c27e3c552a4ec59d5a7f7ed09", "fusion_lat": 0.0, "is_reserved": 0, "lat": 38.89244033333333, "fusion_lon": 0.0, "is_disabled": 0}, {"rental_uris": {"android": "https://dc.lft.to/lastmile_qr_scan", "ios": "https://dc.lft.to/lastmile_qr_scan"}, "type": "electric_scooter", "lon": -77.01710233333333, "name": "b34e91eee69767b3844fef6dfac558b7", "bike_id": "b34e91eee69767b3844fef6dfac558b7", "fusion_lat": 0.0, "is_reserved": 0, "lat": 38.904969666666666, "fusion_lon": 0.0, "is_disabled": 0}, {"rental_uris": {"android": "https://dc.lft.to/lastmile_qr_scan", "ios": "https://dc.lft.to/lastmile_qr_scan"}, "type": "electric_scooter", "lon": -76.9997175, "name": "caeaf44e7af8c696b64466153f956f2e", "bike_id": "caeaf44e7af8c696b64466153f956f2e", "fusion_lat": 0.0, "is_reserved": 0, "lat": 38.900328333333334, "fusion_lon": 0.0, "is_disabled": 0}, {"rental_uris": {"android": "https://dc.lft.to/lastmile_qr_scan", "ios": "https://dc.lft.to/lastmile_qr_scan"}, "type": "electric_scooter", "lon": -77.02269066666666, "name": "f97e904adc23255b4e1cfdc3d356fa35", "bike_id": "f97e904adc23255b4e1cfdc3d356fa35", "fusion_lat": 0.0, "is_reserved": 0, "lat": 38.947186333333335, "fusion_lon": 0.0, "is_disabled": 0}, {"rental_uris": {"android": "https://dc.lft.to/lastmile_qr_scan", "ios": "https://dc.lft.to/lastmile_qr_scan"}, "type": "electric_scooter", "lon": -77.06079533333333, "name": "20822af2b09cc085673f25df251285bf", "bike_id": "20822af2b09cc085673f25df251285bf", "fusion_lat": 0.0, "is_reserved": 0, "lat": 38.90523833333334, "fusion_lon": 0.0, "is_disabled": 0}, {"rental_uris": {"android": "https://dc.lft.to/lastmile_qr_scan", "ios": "https://dc.lft.to/lastmile_qr_scan"}, "type": "electric_scooter", "lon": -77.00268133333333, "name": "86074636d973a6bfbf42bec7db24169a", "bike_id": "86074636d973a6bfbf42bec7db24169a", "fusion_lat": 0.0, "is_reserved": 0, "lat": 38.90378033333333, "fusion_lon": 0.0, "is_disabled": 0}, {"rental_uris": {"android": "https://dc.lft.to/lastmile_qr_scan", "ios": "https://dc.lft.to/lastmile_qr_scan"}, "type": "electric_scooter", "lon": -77.021787, "name": "df36f79572394786231efc4f66095b0f", "bike_id": "df36f79572394786231efc4f66095b0f", "fusion_lat": 0.0, "is_reserved": 0, "lat": 38.920147, "fusion_lon": 0.0, "is_disabled": 0}, {"rental_uris": {"android": "https://dc.lft.to/lastmile_qr_scan", "ios": "https://dc.lft.to/lastmile_qr_scan"}, "type": "electric_scooter", "lon": -77.03401933333333, "name": "646cbae24127bc26e24c0e825d8671e1", "bike_id": "646cbae24127bc26e24c0e825d8671e1", "fusion_lat": 0.0, "is_reserved": 0, "lat": 38.91970666666667, "fusion_lon": 0.0, "is_disabled": 0}, {"rental_uris": {"android": "https://dc.lft.to/lastmile_qr_scan", "ios": "https://dc.lft.to/lastmile_qr_scan"}, "type": "electric_scooter", "lon": -77.00916133333334, "name": "02fdd5ab2c16137f3796528638026047", "bike_id": "02fdd5ab2c16137f3796528638026047", "fusion_lat": 0.0, "is_reserved": 0, "lat": 38.879601, "fusion_lon": 0.0, "is_disabled": 0}, {"rental_uris": {"android": "https://dc.lft.to/lastmile_qr_scan", "ios": "https://dc.lft.to/lastmile_qr_scan"}, "type": "electric_bike", "lon": -77.05087783333333, "name": "80270e34b31bbd8ca87d626339121499", "bike_id": "80270e34b31bbd8ca87d626339121499", "fusion_lat": 0.0, "is_reserved": 0, "lat": 38.81323883333334, "fusion_lon": 0.0, "is_disabled": 0}, {"rental_uris": {"android": "https://dc.lft.to/lastmile_qr_scan", "ios": "https://dc.lft.to/lastmile_qr_scan"}, "type": "electric_bike", "lon": -77.10170266666667, "name": "3a231226bdbc3209484d4ed02b52d313", "bike_id": "3a231226bdbc3209484d4ed02b52d313", "fusion_lat": 0.0, "is_reserved": 0, "lat": 38.84954716666667, "fusion_lon": 0.0, "is_disabled": 0}, {"rental_uris": {"android": "https://dc.lft.to/lastmile_qr_scan", "ios": "https://dc.lft.to/lastmile_qr_scan"}, "type": "electric_scooter", "lon": -76.983608, "name": "fbb2c9a6201ddf77c1857be1ce0d7864", "bike_id": "fbb2c9a6201ddf77c1857be1ce0d7864", "fusion_lat": 0.0, "is_reserved": 0, "lat": 38.86104616666667, "fusion_lon": 0.0, "is_disabled": 0}, {"rental_uris": {"android": "https://dc.lft.to/lastmile_qr_scan", "ios": "https://dc.lft.to/lastmile_qr_scan"}, "type": "electric_scooter", "lon": -77.02355483333334, "name": "835738944dc24f19f7f430d00a6e53e9", "bike_id": "835738944dc24f19f7f430d00a6e53e9", "fusion_lat": 0.0, "is_reserved": 0, "lat": 38.89218616666667, "fusion_lon": 0.0, "is_disabled": 0}, {"rental_uris": {"android": "https://dc.lft.to/lastmile_qr_scan", "ios": "https://dc.lft.to/lastmile_qr_scan"}, "type": "electric_scooter", "lon": -77.040336, "name": "7cbbfcca53b4e17cabd8ca7e0e13a147", "bike_id": "7cbbfcca53b4e17cabd8ca7e0e13a147", "fusion_lat": 0.0, "is_reserved": 0, "lat": 38.905946, "fusion_lon": 0.0, "is_disabled": 0}, {"rental_uris": {"android": "https://dc.lft.to/lastmile_qr_scan", "ios": "https://dc.lft.to/lastmile_qr_scan"}, "type": "electric_scooter", "lon": -77.06016, "name": "1fbee20492201204d8345363b62d0c11", "bike_id": "1fbee20492201204d8345363b62d0c11", "fusion_lat": 0.0, "is_reserved": 0, "lat": 38.90506833333333, "fusion_lon": 0.0, "is_disabled": 0}, {"rental_uris": {"android": "https://dc.lft.to/lastmile_qr_scan", "ios": "https://dc.lft.to/lastmile_qr_scan"}, "type": "electric_bike", "lon": -76.94474383333333, "name": "4160ccda3d2ac29f8b48e72b4e2232d3", "bike_id": "4160ccda3d2ac29f8b48e72b4e2232d3", "fusion_lat": 0.0, "is_reserved": 0, "lat": 38.94558766666667, "fusion_lon": 0.0, "is_disabled": 0}, {"rental_uris": {"android": "https://dc.lft.to/lastmile_qr_scan", "ios": "https://dc.lft.to/lastmile_qr_scan"}, "type": "electric_bike", "lon": -77.07896866666667, "name": "3acf7c45fd4398f4b5d94040cbefec68", "bike_id": "3acf7c45fd4398f4b5d94040cbefec68", "fusion_lat": 0.0, "is_reserved": 0, "lat": 38.8392955, "fusion_lon": 0.0, "is_disabled": 0}, {"rental_uris": {"android": "https://dc.lft.to/lastmile_qr_scan", "ios": "https://dc.lft.to/lastmile_qr_scan"}, "type": "electric_scooter", "lon": -77.04163016666666, "name": "3ddaea283c2a26af2a7c865374ced8af", "bike_id": "3ddaea283c2a26af2a7c865374ced8af", "fusion_lat": 0.0, "is_reserved": 0, "lat": 38.909290666666664, "fusion_lon": 0.0, "is_disabled": 0}, {"rental_uris": {"android": "https://dc.lft.to/lastmile_qr_scan", "ios": "https://dc.lft.to/lastmile_qr_scan"}, "type": "electric_scooter", "lon": -77.00890183333334, "name": "91e3e4e2331bffa06968ef6546e06419", "bike_id": "91e3e4e2331bffa06968ef6546e06419", "fusion_lat": 0.0, "is_reserved": 0, "lat": 38.90568966666667, "fusion_lon": 0.0, "is_disabled": 0}, {"rental_uris": {"android": "https://dc.lft.to/lastmile_qr_scan", "ios": "https://dc.lft.to/lastmile_qr_scan"}, "type": "electric_scooter", "lon": -77.01606516666666, "name": "f8a2733512daa45b1ca57ef49b80a496", "bike_id": "f8a2733512daa45b1ca57ef49b80a496", "fusion_lat": 0.0, "is_reserved": 0, "lat": 38.917575666666664, "fusion_lon": 0.0, "is_disabled": 0}, {"rental_uris": {"android": "https://dc.lft.to/lastmile_qr_scan", "ios": "https://dc.lft.to/lastmile_qr_scan"}, "type": "electric_scooter", "lon": -77.03299383333334, "name": "658a30be932d7c72a865b290215f1276", "bike_id": "658a30be932d7c72a865b290215f1276", "fusion_lat": 0.0, "is_reserved": 0, "lat": 38.9306295, "fusion_lon": 0.0, "is_disabled": 0}, {"rental_uris": {"android": "https://dc.lft.to/lastmile_qr_scan", "ios": "https://dc.lft.to/lastmile_qr_scan"}, "type": "electric_scooter", "lon": -76.98760616666667, "name": "71641d229a9740f6357b0514e5fdd9ce", "bike_id": "71641d229a9740f6357b0514e5fdd9ce", "fusion_lat": 0.0, "is_reserved": 0, "lat": 38.90804416666667, "fusion_lon": 0.0, "is_disabled": 0}, {"rental_uris": {"android": "https://dc.lft.to/lastmile_qr_scan", "ios": "https://dc.lft.to/lastmile_qr_scan"}, "type": "electric_scooter", "lon": -76.98335366666667, "name": "8021b8d3bb761b4d95c78ee9507adeaa", "bike_id": "8021b8d3bb761b4d95c78ee9507adeaa", "fusion_lat": 0.0, "is_reserved": 0, "lat": 38.8626095, "fusion_lon": 0.0, "is_disabled": 0}, {"rental_uris": {"android": "https://dc.lft.to/lastmile_qr_scan", "ios": "https://dc.lft.to/lastmile_qr_scan"}, "type": "electric_scooter", "lon": -77.03475533333334, "name": "92d10b0bbea451b15207b337587c95ea", "bike_id": "92d10b0bbea451b15207b337587c95ea", "fusion_lat": 0.0, "is_reserved": 0, "lat": 38.9180875, "fusion_lon": 0.0, "is_disabled": 0}, {"rental_uris": {"android": "https://dc.lft.to/lastmile_qr_scan", "ios": "https://dc.lft.to/lastmile_qr_scan"}, "type": "electric_bike", "lon": -77.07795216666666, "name": "6f49f2e7fe34f9e9feca5ff5bbacbd9c", "bike_id": "6f49f2e7fe34f9e9feca5ff5bbacbd9c", "fusion_lat": 0.0, "is_reserved": 0, "lat": 38.84518166666667, "fusion_lon": 0.0, "is_disabled": 0}, {"rental_uris": {"android": "https://dc.lft.to/lastmile_qr_scan", "ios": "https://dc.lft.to/lastmile_qr_scan"}, "type": "electric_scooter", "lon": -77.09959533333334, "name": "d2a7d20cb039db7e9a7fe54978e0e91a", "bike_id": "d2a7d20cb039db7e9a7fe54978e0e91a", "fusion_lat": 0.0, "is_reserved": 0, "lat": 38.922453833333336, "fusion_lon": 0.0, "is_disabled": 0}, {"rental_uris": {"android": "https://dc.lft.to/lastmile_qr_scan", "ios": "https://dc.lft.to/lastmile_qr_scan"}, "type": "electric_scooter", "lon": -77.02709166666666, "name": "c7b800700ff791f590ad3fb094d04f7f", "bike_id": "c7b800700ff791f590ad3fb094d04f7f", "fusion_lat": 0.0, "is_reserved": 0, "lat": 38.9066425, "fusion_lon": 0.0, "is_disabled": 0}, {"rental_uris": {"android": "https://dc.lft.to/lastmile_qr_scan", "ios": "https://dc.lft.to/lastmile_qr_scan"}, "type": "electric_scooter", "lon": -77.03352383333333, "name": "8030d4b7d5f5e03cc4b14e3118f77018", "bike_id": "8030d4b7d5f5e03cc4b14e3118f77018", "fusion_lat": 0.0, "is_reserved": 0, "lat": 38.924277000000004, "fusion_lon": 0.0, "is_disabled": 0}, {"rental_uris": {"android": "https://dc.lft.to/lastmile_qr_scan", "ios": "https://dc.lft.to/lastmile_qr_scan"}, "type": "electric_scooter", "lon": -77.0388875, "name": "be7aac1be38382504dda5b9f4cd9a90d", "bike_id": "be7aac1be38382504dda5b9f4cd9a90d", "fusion_lat": 0.0, "is_reserved": 0, "lat": 38.9223285, "fusion_lon": 0.0, "is_disabled": 0}, {"rental_uris": {"android": "https://dc.lft.to/lastmile_qr_scan", "ios": "https://dc.lft.to/lastmile_qr_scan"}, "type": "electric_scooter", "lon": -77.02542666666666, "name": "2a092b3d28d74134867c2705561f07b9", "bike_id": "2a092b3d28d74134867c2705561f07b9", "fusion_lat": 0.0, "is_reserved": 0, "lat": 38.92087166666666, "fusion_lon": 0.0, "is_disabled": 0}, {"rental_uris": {"android": "https://dc.lft.to/lastmile_qr_scan", "ios": "https://dc.lft.to/lastmile_qr_scan"}, "type": "electric_bike", "lon": -77.0127915, "name": "dbe7c98295cd716f2d168b6083416714", "bike_id": "dbe7c98295cd716f2d168b6083416714", "fusion_lat": 0.0, "is_reserved": 0, "lat": 38.877774, "fusion_lon": 0.0, "is_disabled": 0}, {"rental_uris": {"android": "https://dc.lft.to/lastmile_qr_scan", "ios": "https://dc.lft.to/lastmile_qr_scan"}, "type": "electric_scooter", "lon": -77.01743166666667, "name": "243506a6392ee2c3ab8e094fbb2de763", "bike_id": "243506a6392ee2c3ab8e094fbb2de763", "fusion_lat": 0.0, "is_reserved": 0, "lat": 38.886370166666666, "fusion_lon": 0.0, "is_disabled": 0}, {"rental_uris": {"android": "https://dc.lft.to/lastmile_qr_scan", "ios": "https://dc.lft.to/lastmile_qr_scan"}, "type": "electric_bike", "lon": -76.961775, "name": "d2d5a211f3d661f6b265ef141d7ff4d8", "bike_id": "d2d5a211f3d661f6b265ef141d7ff4d8", "fusion_lat": 0.0, "is_reserved": 0, "lat": 38.9185675, "fusion_lon": 0.0, "is_disabled": 0}, {"rental_uris": {"android": "https://dc.lft.to/lastmile_qr_scan", "ios": "https://dc.lft.to/lastmile_qr_scan"}, "type": "electric_scooter", "lon": -77.0432235, "name": "3b937903cd84ef7bcade0f22122a1dba", "bike_id": "3b937903cd84ef7bcade0f22122a1dba", "fusion_lat": 0.0, "is_reserved": 0, "lat": 38.90492783333333, "fusion_lon": 0.0, "is_disabled": 0}, {"rental_uris": {"android": "https://dc.lft.to/lastmile_qr_scan", "ios": "https://dc.lft.to/lastmile_qr_scan"}, "type": "electric_scooter", "lon": -77.03106783333334, "name": "779882dbc027148dd5fb6c26b470bdd1", "bike_id": "779882dbc027148dd5fb6c26b470bdd1", "fusion_lat": 0.0, "is_reserved": 0, "lat": 38.91914516666667, "fusion_lon": 0.0, "is_disabled": 0}, {"rental_uris": {"android": "https://dc.lft.to/lastmile_qr_scan", "ios": "https://dc.lft.to/lastmile_qr_scan"}, "type": "electric_scooter", "lon": -77.07840366666667, "name": "822affb26dc53f6fde28175ae055ed94", "bike_id": "822affb26dc53f6fde28175ae055ed94", "fusion_lat": 0.0, "is_reserved": 0, "lat": 38.926609166666665, "fusion_lon": 0.0, "is_disabled": 0}, {"rental_uris": {"android": "https://dc.lft.to/lastmile_qr_scan", "ios": "https://dc.lft.to/lastmile_qr_scan"}, "type": "electric_scooter", "lon": -77.02270066666667, "name": "6f6e0ffaa1f8f16160c9db9226e56ca4", "bike_id": "6f6e0ffaa1f8f16160c9db9226e56ca4", "fusion_lat": 0.0, "is_reserved": 0, "lat": 38.88724883333333, "fusion_lon": 0.0, "is_disabled": 0}, {"rental_uris": {"android": "https://dc.lft.to/lastmile_qr_scan", "ios": "https://dc.lft.to/lastmile_qr_scan"}, "type": "electric_scooter", "lon": -77.02598383333333, "name": "62c028c80753203c9a7b33aea57cff0f", "bike_id": "62c028c80753203c9a7b33aea57cff0f", "fusion_lat": 0.0, "is_reserved": 0, "lat": 38.975827, "fusion_lon": 0.0, "is_disabled": 0}, {"rental_uris": {"android": "https://dc.lft.to/lastmile_qr_scan", "ios": "https://dc.lft.to/lastmile_qr_scan"}, "type": "electric_scooter", "lon": -77.0346865, "name": "c80bb43021001ae9f0aa623e4dc79558", "bike_id": "c80bb43021001ae9f0aa623e4dc79558", "fusion_lat": 0.0, "is_reserved": 0, "lat": 38.935339, "fusion_lon": 0.0, "is_disabled": 0}, {"rental_uris": {"android": "https://dc.lft.to/lastmile_qr_scan", "ios": "https://dc.lft.to/lastmile_qr_scan"}, "type": "electric_scooter", "lon": -77.00338383333333, "name": "0836d440e340c1778a5dda7563c0f589", "bike_id": "0836d440e340c1778a5dda7563c0f589", "fusion_lat": 0.0, "is_reserved": 0, "lat": 38.908061833333335, "fusion_lon": 0.0, "is_disabled": 0}, {"rental_uris": {"android": "https://dc.lft.to/lastmile_qr_scan", "ios": "https://dc.lft.to/lastmile_qr_scan"}, "type": "electric_scooter", "lon": -77.030019, "name": "89ad04294bb7f00d33582a41ba791362", "bike_id": "89ad04294bb7f00d33582a41ba791362", "fusion_lat": 0.0, "is_reserved": 0, "lat": 38.92795816666667, "fusion_lon": 0.0, "is_disabled": 0}, {"rental_uris": {"android": "https://dc.lft.to/lastmile_qr_scan", "ios": "https://dc.lft.to/lastmile_qr_scan"}, "type": "electric_scooter", "lon": -77.06340633333333, "name": "22dd535030dfca2561fb65639e3b834d", "bike_id": "22dd535030dfca2561fb65639e3b834d", "fusion_lat": 0.0, "is_reserved": 0, "lat": 38.913260666666666, "fusion_lon": 0.0, "is_disabled": 0}, {"rental_uris": {"android": "https://dc.lft.to/lastmile_qr_scan", "ios": "https://dc.lft.to/lastmile_qr_scan"}, "type": "electric_scooter", "lon": -77.0338565, "name": "5c33fe0881880966a2c3ffa265e962c9", "bike_id": "5c33fe0881880966a2c3ffa265e962c9", "fusion_lat": 0.0, "is_reserved": 0, "lat": 38.909899333333335, "fusion_lon": 0.0, "is_disabled": 0}, {"rental_uris": {"android": "https://dc.lft.to/lastmile_qr_scan", "ios": "https://dc.lft.to/lastmile_qr_scan"}, "type": "electric_scooter", "lon": -77.02184733333333, "name": "acdfcdc4fcf1d3019439edf1e0b1d827", "bike_id": "acdfcdc4fcf1d3019439edf1e0b1d827", "fusion_lat": 0.0, "is_reserved": 0, "lat": 38.8922445, "fusion_lon": 0.0, "is_disabled": 0}, {"rental_uris": {"android": "https://dc.lft.to/lastmile_qr_scan", "ios": "https://dc.lft.to/lastmile_qr_scan"}, "type": "electric_bike", "lon": -77.35314, "name": "6ef194c79a4b90839e61335dba96d4a6", "bike_id": "6ef194c79a4b90839e61335dba96d4a6", "fusion_lat": 0.0, "is_reserved": 0, "lat": 38.949965, "fusion_lon": 0.0, "is_disabled": 0}, {"rental_uris": {"android": "https://dc.lft.to/lastmile_qr_scan", "ios": "https://dc.lft.to/lastmile_qr_scan"}, "type": "electric_scooter", "lon": -77.03220833333333, "name": "e52ac20843fa2be01a9dcbf11e59b3da", "bike_id": "e52ac20843fa2be01a9dcbf11e59b3da", "fusion_lat": 0.0, "is_reserved": 0, "lat": 38.91195116666667, "fusion_lon": 0.0, "is_disabled": 0}, {"rental_uris": {"android": "https://dc.lft.to/lastmile_qr_scan", "ios": "https://dc.lft.to/lastmile_qr_scan"}, "type": "electric_scooter", "lon": -76.9971635, "name": "4932976e807acace26403a959baa67de", "bike_id": "4932976e807acace26403a959baa67de", "fusion_lat": 0.0, "is_reserved": 0, "lat": 38.91101583333333, "fusion_lon": 0.0, "is_disabled": 0}, {"rental_uris": {"android": "https://dc.lft.to/lastmile_qr_scan", "ios": "https://dc.lft.to/lastmile_qr_scan"}, "type": "electric_scooter", "lon": -76.94655866666666, "name": "de922fc95a4c7f8db9bf6a4021b84f1a", "bike_id": "de922fc95a4c7f8db9bf6a4021b84f1a", "fusion_lat": 0.0, "is_reserved": 0, "lat": 38.8982455, "fusion_lon": 0.0, "is_disabled": 0}, {"rental_uris": {"android": "https://dc.lft.to/lastmile_qr_scan", "ios": "https://dc.lft.to/lastmile_qr_scan"}, "type": "electric_scooter", "lon": -77.03866116666667, "name": "6f1437ad47c82b069213800ec56fe21d", "bike_id": "6f1437ad47c82b069213800ec56fe21d", "fusion_lat": 0.0, "is_reserved": 0, "lat": 38.91115966666667, "fusion_lon": 0.0, "is_disabled": 0}, {"rental_uris": {"android": "https://dc.lft.to/lastmile_qr_scan", "ios": "https://dc.lft.to/lastmile_qr_scan"}, "type": "electric_scooter", "lon": -77.03630533333333, "name": "701434003b5670de572f411f2d99381a", "bike_id": "701434003b5670de572f411f2d99381a", "fusion_lat": 0.0, "is_reserved": 0, "lat": 38.90267883333333, "fusion_lon": 0.0, "is_disabled": 0}, {"rental_uris": {"android": "https://dc.lft.to/lastmile_qr_scan", "ios": "https://dc.lft.to/lastmile_qr_scan"}, "type": "electric_scooter", "lon": -77.02958883333334, "name": "328c6a3d3cd5257e800bcf56f49d97f4", "bike_id": "328c6a3d3cd5257e800bcf56f49d97f4", "fusion_lat": 0.0, "is_reserved": 0, "lat": 38.91701183333333, "fusion_lon": 0.0, "is_disabled": 0}, {"rental_uris": {"android": "https://dc.lft.to/lastmile_qr_scan", "ios": "https://dc.lft.to/lastmile_qr_scan"}, "type": "electric_scooter", "lon": -77.03187433333333, "name": "98db501ad4d5ff056d29af01c2ef5084", "bike_id": "98db501ad4d5ff056d29af01c2ef5084", "fusion_lat": 0.0, "is_reserved": 0, "lat": 38.916303166666665, "fusion_lon": 0.0, "is_disabled": 0}, {"rental_uris": {"android": "https://dc.lft.to/lastmile_qr_scan", "ios": "https://dc.lft.to/lastmile_qr_scan"}, "type": "electric_scooter", "lon": -77.02510433333333, "name": "f8749509ca16443d38ebea90742d0e21", "bike_id": "f8749509ca16443d38ebea90742d0e21", "fusion_lat": 0.0, "is_reserved": 0, "lat": 38.924017166666665, "fusion_lon": 0.0, "is_disabled": 0}, {"rental_uris": {"android": "https://dc.lft.to/lastmile_qr_scan", "ios": "https://dc.lft.to/lastmile_qr_scan"}, "type": "electric_scooter", "lon": -76.99079383333333, "name": "0a9a210633ac4714be359c605d511ec7", "bike_id": "0a9a210633ac4714be359c605d511ec7", "fusion_lat": 0.0, "is_reserved": 0, "lat": 38.84288266666667, "fusion_lon": 0.0, "is_disabled": 0}, {"rental_uris": {"android": "https://dc.lft.to/lastmile_qr_scan", "ios": "https://dc.lft.to/lastmile_qr_scan"}, "type": "electric_scooter", "lon": -77.019013, "name": "9d457621c787811d004ba42b38461b35", "bike_id": "9d457621c787811d004ba42b38461b35", "fusion_lat": 0.0, "is_reserved": 0, "lat": 38.939186, "fusion_lon": 0.0, "is_disabled": 0}, {"rental_uris": {"android": "https://dc.lft.to/lastmile_qr_scan", "ios": "https://dc.lft.to/lastmile_qr_scan"}, "type": "electric_scooter", "lon": -77.02042133333333, "name": "2e9f8c7f53f25be320c75145d644837e", "bike_id": "2e9f8c7f53f25be320c75145d644837e", "fusion_lat": 0.0, "is_reserved": 0, "lat": 38.892693666666666, "fusion_lon": 0.0, "is_disabled": 0}, {"rental_uris": {"android": "https://dc.lft.to/lastmile_qr_scan", "ios": "https://dc.lft.to/lastmile_qr_scan"}, "type": "electric_scooter", "lon": -77.02155566666667, "name": "d4c7df7fa7de3d3bd94f9336ecfffb87", "bike_id": "d4c7df7fa7de3d3bd94f9336ecfffb87", "fusion_lat": 0.0, "is_reserved": 0, "lat": 38.8791705, "fusion_lon": 0.0, "is_disabled": 0}, {"rental_uris": {"android": "https://dc.lft.to/lastmile_qr_scan", "ios": "https://dc.lft.to/lastmile_qr_scan"}, "type": "electric_bike", "lon": -76.94800866666667, "name": "a0c6e0736417675b8e4e15ff3b0d38b2", "bike_id": "a0c6e0736417675b8e4e15ff3b0d38b2", "fusion_lat": 0.0, "is_reserved": 0, "lat": 38.89650983333333, "fusion_lon": 0.0, "is_disabled": 0}, {"rental_uris": {"android": "https://dc.lft.to/lastmile_qr_scan", "ios": "https://dc.lft.to/lastmile_qr_scan"}, "type": "electric_scooter", "lon": -76.98465033333333, "name": "c9d7c402881263d69e77aefe53395e43", "bike_id": "c9d7c402881263d69e77aefe53395e43", "fusion_lat": 0.0, "is_reserved": 0, "lat": 38.89368183333333, "fusion_lon": 0.0, "is_disabled": 0}, {"rental_uris": {"android": "https://dc.lft.to/lastmile_qr_scan", "ios": "https://dc.lft.to/lastmile_qr_scan"}, "type": "electric_bike", "lon": -77.043973, "name": "101a5b00803368b2cec08c5b76ab6eec", "bike_id": "101a5b00803368b2cec08c5b76ab6eec", "fusion_lat": 0.0, "is_reserved": 0, "lat": 38.92447533333333, "fusion_lon": 0.0, "is_disabled": 0}, {"rental_uris": {"android": "https://dc.lft.to/lastmile_qr_scan", "ios": "https://dc.lft.to/lastmile_qr_scan"}, "type": "electric_scooter", "lon": -77.037512, "name": "6ae542a777a55fd003f96e77b5296b44", "bike_id": "6ae542a777a55fd003f96e77b5296b44", "fusion_lat": 0.0, "is_reserved": 0, "lat": 38.902409166666665, "fusion_lon": 0.0, "is_disabled": 0}, {"rental_uris": {"android": "https://dc.lft.to/lastmile_qr_scan", "ios": "https://dc.lft.to/lastmile_qr_scan"}, "type": "electric_scooter", "lon": -77.0540465, "name": "bc566f0645e25a052c1fccd483c9bac3", "bike_id": "bc566f0645e25a052c1fccd483c9bac3", "fusion_lat": 0.0, "is_reserved": 0, "lat": 38.86897783333333, "fusion_lon": 0.0, "is_disabled": 0}, {"rental_uris": {"android": "https://dc.lft.to/lastmile_qr_scan", "ios": "https://dc.lft.to/lastmile_qr_scan"}, "type": "electric_scooter", "lon": -77.07366733333333, "name": "7313bd1f8116d87fa735caeb0ca5af9d", "bike_id": "7313bd1f8116d87fa735caeb0ca5af9d", "fusion_lat": 0.0, "is_reserved": 0, "lat": 38.94322866666667, "fusion_lon": 0.0, "is_disabled": 0}, {"rental_uris": {"android": "https://dc.lft.to/lastmile_qr_scan", "ios": "https://dc.lft.to/lastmile_qr_scan"}, "type": "electric_scooter", "lon": -76.9938945, "name": "6ac3223fdd95a18d91cf15454c97b600", "bike_id": "6ac3223fdd95a18d91cf15454c97b600", "fusion_lat": 0.0, "is_reserved": 0, "lat": 38.924017666666664, "fusion_lon": 0.0, "is_disabled": 0}, {"rental_uris": {"android": "https://dc.lft.to/lastmile_qr_scan", "ios": "https://dc.lft.to/lastmile_qr_scan"}, "type": "electric_scooter", "lon": -77.03214516666667, "name": "0d6c8cb6226cdfe0ecb0cd8e0d8a4e08", "bike_id": "0d6c8cb6226cdfe0ecb0cd8e0d8a4e08", "fusion_lat": 0.0, "is_reserved": 0, "lat": 38.9147115, "fusion_lon": 0.0, "is_disabled": 0}, {"rental_uris": {"android": "https://dc.lft.to/lastmile_qr_scan", "ios": "https://dc.lft.to/lastmile_qr_scan"}, "type": "electric_scooter", "lon": -77.0200905, "name": "33797a0b3905608ec7276421e9a09300", "bike_id": "33797a0b3905608ec7276421e9a09300", "fusion_lat": 0.0, "is_reserved": 0, "lat": 38.879380166666664, "fusion_lon": 0.0, "is_disabled": 0}, {"rental_uris": {"android": "https://dc.lft.to/lastmile_qr_scan", "ios": "https://dc.lft.to/lastmile_qr_scan"}, "type": "electric_scooter", "lon": -77.017146, "name": "3befa4a565b0fa4305884a2bf82ea81d", "bike_id": "3befa4a565b0fa4305884a2bf82ea81d", "fusion_lat": 0.0, "is_reserved": 0, "lat": 38.87939816666667, "fusion_lon": 0.0, "is_disabled": 0}, {"rental_uris": {"android": "https://dc.lft.to/lastmile_qr_scan", "ios": "https://dc.lft.to/lastmile_qr_scan"}, "type": "electric_scooter", "lon": -76.9856265, "name": "2d3b5f696a563ae2e5ae25150f0ee101", "bike_id": "2d3b5f696a563ae2e5ae25150f0ee101", "fusion_lat": 0.0, "is_reserved": 0, "lat": 38.8559375, "fusion_lon": 0.0, "is_disabled": 0}, {"rental_uris": {"android": "https://dc.lft.to/lastmile_qr_scan", "ios": "https://dc.lft.to/lastmile_qr_scan"}, "type": "electric_scooter", "lon": -76.99670433333333, "name": "8c25369bade9bab657fbbd44749364c5", "bike_id": "8c25369bade9bab657fbbd44749364c5", "fusion_lat": 0.0, "is_reserved": 0, "lat": 38.92189583333333, "fusion_lon": 0.0, "is_disabled": 0}, {"rental_uris": {"android": "https://dc.lft.to/lastmile_qr_scan", "ios": "https://dc.lft.to/lastmile_qr_scan"}, "type": "electric_scooter", "lon": -77.03456983333334, "name": "f96cbdbc8b999b64d1d3f367bfffb6db", "bike_id": "f96cbdbc8b999b64d1d3f367bfffb6db", "fusion_lat": 0.0, "is_reserved": 0, "lat": 38.90874916666667, "fusion_lon": 0.0, "is_disabled": 0}, {"rental_uris": {"android": "https://dc.lft.to/lastmile_qr_scan", "ios": "https://dc.lft.to/lastmile_qr_scan"}, "type": "electric_scooter", "lon": -77.038664, "name": "fac7f529d23684b1aae141305c9b6ef2", "bike_id": "fac7f529d23684b1aae141305c9b6ef2", "fusion_lat": 0.0, "is_reserved": 0, "lat": 38.91172683333333, "fusion_lon": 0.0, "is_disabled": 0}, {"rental_uris": {"android": "https://dc.lft.to/lastmile_qr_scan", "ios": "https://dc.lft.to/lastmile_qr_scan"}, "type": "electric_scooter", "lon": -76.986178, "name": "d927958302ad4b270ee9bc2a17b54d93", "bike_id": "d927958302ad4b270ee9bc2a17b54d93", "fusion_lat": 0.0, "is_reserved": 0, "lat": 38.905782333333335, "fusion_lon": 0.0, "is_disabled": 0}, {"rental_uris": {"android": "https://dc.lft.to/lastmile_qr_scan", "ios": "https://dc.lft.to/lastmile_qr_scan"}, "type": "electric_scooter", "lon": -77.01735633333334, "name": "4ceb4ccb9769055698a813e710dcfcd6", "bike_id": "4ceb4ccb9769055698a813e710dcfcd6", "fusion_lat": 0.0, "is_reserved": 0, "lat": 38.90187183333333, "fusion_lon": 0.0, "is_disabled": 0}, {"rental_uris": {"android": "https://dc.lft.to/lastmile_qr_scan", "ios": "https://dc.lft.to/lastmile_qr_scan"}, "type": "electric_bike", "lon": -77.008618, "name": "e5d3e0df5565771dae89672cd0ccf45c", "bike_id": "e5d3e0df5565771dae89672cd0ccf45c", "fusion_lat": 0.0, "is_reserved": 0, "lat": 38.827294, "fusion_lon": 0.0, "is_disabled": 0}, {"rental_uris": {"android": "https://dc.lft.to/lastmile_qr_scan", "ios": "https://dc.lft.to/lastmile_qr_scan"}, "type": "electric_scooter", "lon": -76.98458416666666, "name": "b3679153d03074596e935acce4163969", "bike_id": "b3679153d03074596e935acce4163969", "fusion_lat": 0.0, "is_reserved": 0, "lat": 38.880151, "fusion_lon": 0.0, "is_disabled": 0}, {"rental_uris": {"android": "https://dc.lft.to/lastmile_qr_scan", "ios": "https://dc.lft.to/lastmile_qr_scan"}, "type": "electric_scooter", "lon": -77.0118165, "name": "59ca5c891da33680c5988aeeb5ca35ff", "bike_id": "59ca5c891da33680c5988aeeb5ca35ff", "fusion_lat": 0.0, "is_reserved": 0, "lat": 38.900223833333335, "fusion_lon": 0.0, "is_disabled": 0}, {"rental_uris": {"android": "https://dc.lft.to/lastmile_qr_scan", "ios": "https://dc.lft.to/lastmile_qr_scan"}, "type": "electric_scooter", "lon": -76.949187, "name": "5751bbe8ef06a762b0cf10fa5d9f15e0", "bike_id": "5751bbe8ef06a762b0cf10fa5d9f15e0", "fusion_lat": 0.0, "is_reserved": 0, "lat": 38.892674, "fusion_lon": 0.0, "is_disabled": 0}, {"rental_uris": {"android": "https://dc.lft.to/lastmile_qr_scan", "ios": "https://dc.lft.to/lastmile_qr_scan"}, "type": "electric_scooter", "lon": -76.98831016666666, "name": "e554369834187158efe42ebae37c4231", "bike_id": "e554369834187158efe42ebae37c4231", "fusion_lat": 0.0, "is_reserved": 0, "lat": 38.90038216666667, "fusion_lon": 0.0, "is_disabled": 0}, {"rental_uris": {"android": "https://dc.lft.to/lastmile_qr_scan", "ios": "https://dc.lft.to/lastmile_qr_scan"}, "type": "electric_scooter", "lon": -77.03655033333334, "name": "1ac198c67f2c059b1bd8f23313d7c65c", "bike_id": "1ac198c67f2c059b1bd8f23313d7c65c", "fusion_lat": 0.0, "is_reserved": 0, "lat": 38.942039666666666, "fusion_lon": 0.0, "is_disabled": 0}, {"rental_uris": {"android": "https://dc.lft.to/lastmile_qr_scan", "ios": "https://dc.lft.to/lastmile_qr_scan"}, "type": "electric_scooter", "lon": -76.984586, "name": "b5b9ee4ae254a86e2a6c3b8bec4c86d9", "bike_id": "b5b9ee4ae254a86e2a6c3b8bec4c86d9", "fusion_lat": 0.0, "is_reserved": 0, "lat": 38.88009066666667, "fusion_lon": 0.0, "is_disabled": 0}, {"rental_uris": {"android": "https://dc.lft.to/lastmile_qr_scan", "ios": "https://dc.lft.to/lastmile_qr_scan"}, "type": "electric_scooter", "lon": -77.05330833333333, "name": "77cb57295a77d46f9d191556228980f7", "bike_id": "77cb57295a77d46f9d191556228980f7", "fusion_lat": 0.0, "is_reserved": 0, "lat": 38.910028, "fusion_lon": 0.0, "is_disabled": 0}, {"rental_uris": {"android": "https://dc.lft.to/lastmile_qr_scan", "ios": "https://dc.lft.to/lastmile_qr_scan"}, "type": "electric_scooter", "lon": -77.02621016666667, "name": "6420537b6d931cf0c794cc701bd735f3", "bike_id": "6420537b6d931cf0c794cc701bd735f3", "fusion_lat": 0.0, "is_reserved": 0, "lat": 38.91915066666667, "fusion_lon": 0.0, "is_disabled": 0}, {"rental_uris": {"android": "https://dc.lft.to/lastmile_qr_scan", "ios": "https://dc.lft.to/lastmile_qr_scan"}, "type": "electric_scooter", "lon": -76.97932516666667, "name": "de24cd0fd3a28541a48b7a1af6527f9c", "bike_id": "de24cd0fd3a28541a48b7a1af6527f9c", "fusion_lat": 0.0, "is_reserved": 0, "lat": 38.902358166666666, "fusion_lon": 0.0, "is_disabled": 0}, {"rental_uris": {"android": "https://dc.lft.to/lastmile_qr_scan", "ios": "https://dc.lft.to/lastmile_qr_scan"}, "type": "electric_scooter", "lon": -77.03211366666666, "name": "fd4875a8412a8b17cbab41f6000080fa", "bike_id": "fd4875a8412a8b17cbab41f6000080fa", "fusion_lat": 0.0, "is_reserved": 0, "lat": 38.89627433333333, "fusion_lon": 0.0, "is_disabled": 0}, {"rental_uris": {"android": "https://dc.lft.to/lastmile_qr_scan", "ios": "https://dc.lft.to/lastmile_qr_scan"}, "type": "electric_bike", "lon": -77.08437316666667, "name": "28864ed48f3a0d9437044e0ef187f460", "bike_id": "28864ed48f3a0d9437044e0ef187f460", "fusion_lat": 0.0, "is_reserved": 0, "lat": 38.81025733333333, "fusion_lon": 0.0, "is_disabled": 0}, {"rental_uris": {"android": "https://dc.lft.to/lastmile_qr_scan", "ios": "https://dc.lft.to/lastmile_qr_scan"}, "type": "electric_bike", "lon": -76.975043, "name": "557a7b8bbc4267a8ef5c7cac2c04724c", "bike_id": "557a7b8bbc4267a8ef5c7cac2c04724c", "fusion_lat": 0.0, "is_reserved": 0, "lat": 38.91934916666666, "fusion_lon": 0.0, "is_disabled": 0}, {"rental_uris": {"android": "https://dc.lft.to/lastmile_qr_scan", "ios": "https://dc.lft.to/lastmile_qr_scan"}, "type": "electric_scooter", "lon": -77.02960516666667, "name": "b4894b757b0cd4936bbe8e478cd9ac1f", "bike_id": "b4894b757b0cd4936bbe8e478cd9ac1f", "fusion_lat": 0.0, "is_reserved": 0, "lat": 38.922431333333336, "fusion_lon": 0.0, "is_disabled": 0}, {"rental_uris": {"android": "https://dc.lft.to/lastmile_qr_scan", "ios": "https://dc.lft.to/lastmile_qr_scan"}, "type": "electric_scooter", "lon": -77.06110683333333, "name": "c56b39b4063ceb7f1f01dadeb9a1036c", "bike_id": "c56b39b4063ceb7f1f01dadeb9a1036c", "fusion_lat": 0.0, "is_reserved": 0, "lat": 38.90444683333333, "fusion_lon": 0.0, "is_disabled": 0}, {"rental_uris": {"android": "https://dc.lft.to/lastmile_qr_scan", "ios": "https://dc.lft.to/lastmile_qr_scan"}, "type": "electric_scooter", "lon": -77.0321685, "name": "604d38d17e5b0199034df179e37b07be", "bike_id": "604d38d17e5b0199034df179e37b07be", "fusion_lat": 0.0, "is_reserved": 0, "lat": 38.9163045, "fusion_lon": 0.0, "is_disabled": 0}, {"rental_uris": {"android": "https://dc.lft.to/lastmile_qr_scan", "ios": "https://dc.lft.to/lastmile_qr_scan"}, "type": "electric_scooter", "lon": -76.9915165, "name": "d8dc58d431090d3ed939e8ee05a79754", "bike_id": "d8dc58d431090d3ed939e8ee05a79754", "fusion_lat": 0.0, "is_reserved": 0, "lat": 38.886661333333336, "fusion_lon": 0.0, "is_disabled": 0}, {"rental_uris": {"android": "https://dc.lft.to/lastmile_qr_scan", "ios": "https://dc.lft.to/lastmile_qr_scan"}, "type": "electric_scooter", "lon": -77.0074175, "name": "8ef45be3b586a318f01cb225b5f8d77c", "bike_id": "8ef45be3b586a318f01cb225b5f8d77c", "fusion_lat": 0.0, "is_reserved": 0, "lat": 38.8984855, "fusion_lon": 0.0, "is_disabled": 0}, {"rental_uris": {"android": "https://dc.lft.to/lastmile_qr_scan", "ios": "https://dc.lft.to/lastmile_qr_scan"}, "type": "electric_scooter", "lon": -77.0185735, "name": "1ddf12ccf956291ab21551d2b3a3d74b", "bike_id": "1ddf12ccf956291ab21551d2b3a3d74b", "fusion_lat": 0.0, "is_reserved": 0, "lat": 38.919875, "fusion_lon": 0.0, "is_disabled": 0}, {"rental_uris": {"android": "https://dc.lft.to/lastmile_qr_scan", "ios": "https://dc.lft.to/lastmile_qr_scan"}, "type": "electric_scooter", "lon": -77.0215745, "name": "45a4d574e4043e9d63ad5407085f8f95", "bike_id": "45a4d574e4043e9d63ad5407085f8f95", "fusion_lat": 0.0, "is_reserved": 0, "lat": 38.926046166666666, "fusion_lon": 0.0, "is_disabled": 0}, {"rental_uris": {"android": "https://dc.lft.to/lastmile_qr_scan", "ios": "https://dc.lft.to/lastmile_qr_scan"}, "type": "electric_scooter", "lon": -77.03030183333334, "name": "8c566ac552d3fc5bbb7e429f3e5c80f2", "bike_id": "8c566ac552d3fc5bbb7e429f3e5c80f2", "fusion_lat": 0.0, "is_reserved": 0, "lat": 38.93979183333333, "fusion_lon": 0.0, "is_disabled": 0}, {"rental_uris": {"android": "https://dc.lft.to/lastmile_qr_scan", "ios": "https://dc.lft.to/lastmile_qr_scan"}, "type": "electric_scooter", "lon": -77.06759333333333, "name": "3b855619677dab05e65d1c6e1047a372", "bike_id": "3b855619677dab05e65d1c6e1047a372", "fusion_lat": 0.0, "is_reserved": 0, "lat": 38.94967533333333, "fusion_lon": 0.0, "is_disabled": 0}, {"rental_uris": {"android": "https://dc.lft.to/lastmile_qr_scan", "ios": "https://dc.lft.to/lastmile_qr_scan"}, "type": "electric_scooter", "lon": -77.032049, "name": "6951455bcc341d7e7642b2de2e73db8b", "bike_id": "6951455bcc341d7e7642b2de2e73db8b", "fusion_lat": 0.0, "is_reserved": 0, "lat": 38.93965, "fusion_lon": 0.0, "is_disabled": 0}, {"rental_uris": {"android": "https://dc.lft.to/lastmile_qr_scan", "ios": "https://dc.lft.to/lastmile_qr_scan"}, "type": "electric_scooter", "lon": -77.02053716666667, "name": "311c40e43a7536191d377446f1febd34", "bike_id": "311c40e43a7536191d377446f1febd34", "fusion_lat": 0.0, "is_reserved": 0, "lat": 38.9586865, "fusion_lon": 0.0, "is_disabled": 0}, {"rental_uris": {"android": "https://dc.lft.to/lastmile_qr_scan", "ios": "https://dc.lft.to/lastmile_qr_scan"}, "type": "electric_bike", "lon": -76.97215383333334, "name": "d56a136c5363754d2e43f25f14f6986c", "bike_id": "d56a136c5363754d2e43f25f14f6986c", "fusion_lat": 0.0, "is_reserved": 0, "lat": 38.84480216666667, "fusion_lon": 0.0, "is_disabled": 0}, {"rental_uris": {"android": "https://dc.lft.to/lastmile_qr_scan", "ios": "https://dc.lft.to/lastmile_qr_scan"}, "type": "electric_scooter", "lon": -77.04545383333334, "name": "7bb907435699637d16d335438a1f9462", "bike_id": "7bb907435699637d16d335438a1f9462", "fusion_lat": 0.0, "is_reserved": 0, "lat": 38.920509333333335, "fusion_lon": 0.0, "is_disabled": 0}, {"rental_uris": {"android": "https://dc.lft.to/lastmile_qr_scan", "ios": "https://dc.lft.to/lastmile_qr_scan"}, "type": "electric_scooter", "lon": -77.04583266666667, "name": "c32f51594a1753943606a06bf0b7c030", "bike_id": "c32f51594a1753943606a06bf0b7c030", "fusion_lat": 0.0, "is_reserved": 0, "lat": 38.900016666666666, "fusion_lon": 0.0, "is_disabled": 0}, {"rental_uris": {"android": "https://dc.lft.to/lastmile_qr_scan", "ios": "https://dc.lft.to/lastmile_qr_scan"}, "type": "electric_scooter", "lon": -77.03517516666666, "name": "4271425c6f2c2178c72e222ff4640e44", "bike_id": "4271425c6f2c2178c72e222ff4640e44", "fusion_lat": 0.0, "is_reserved": 0, "lat": 38.92859633333333, "fusion_lon": 0.0, "is_disabled": 0}, {"rental_uris": {"android": "https://dc.lft.to/lastmile_qr_scan", "ios": "https://dc.lft.to/lastmile_qr_scan"}, "type": "electric_scooter", "lon": -77.07851066666667, "name": "86af3eb9441465f255ac6303c7c4781f", "bike_id": "86af3eb9441465f255ac6303c7c4781f", "fusion_lat": 0.0, "is_reserved": 0, "lat": 38.9311845, "fusion_lon": 0.0, "is_disabled": 0}, {"rental_uris": {"android": "https://dc.lft.to/lastmile_qr_scan", "ios": "https://dc.lft.to/lastmile_qr_scan"}, "type": "electric_scooter", "lon": -77.0384215, "name": "fa7aafd4d00d2a13ab865d0178095ea4", "bike_id": "fa7aafd4d00d2a13ab865d0178095ea4", "fusion_lat": 0.0, "is_reserved": 0, "lat": 38.91160266666667, "fusion_lon": 0.0, "is_disabled": 0}, {"rental_uris": {"android": "https://dc.lft.to/lastmile_qr_scan", "ios": "https://dc.lft.to/lastmile_qr_scan"}, "type": "electric_scooter", "lon": -77.04898883333334, "name": "5885de34b1d4043191deff80f1aeea7f", "bike_id": "5885de34b1d4043191deff80f1aeea7f", "fusion_lat": 0.0, "is_reserved": 0, "lat": 38.8923415, "fusion_lon": 0.0, "is_disabled": 0}, {"rental_uris": {"android": "https://dc.lft.to/lastmile_qr_scan", "ios": "https://dc.lft.to/lastmile_qr_scan"}, "type": "electric_scooter", "lon": -77.04658983333333, "name": "0ecd32a6fcacc725ea649c7b072c1f52", "bike_id": "0ecd32a6fcacc725ea649c7b072c1f52", "fusion_lat": 0.0, "is_reserved": 0, "lat": 38.892404666666664, "fusion_lon": 0.0, "is_disabled": 0}, {"rental_uris": {"android": "https://dc.lft.to/lastmile_qr_scan", "ios": "https://dc.lft.to/lastmile_qr_scan"}, "type": "electric_bike", "lon": -76.96561283333334, "name": "c66e1e706a7b5a8f746af056769e91e3", "bike_id": "c66e1e706a7b5a8f746af056769e91e3", "fusion_lat": 0.0, "is_reserved": 0, "lat": 38.95086583333333, "fusion_lon": 0.0, "is_disabled": 0}, {"rental_uris": {"android": "https://dc.lft.to/lastmile_qr_scan", "ios": "https://dc.lft.to/lastmile_qr_scan"}, "type": "electric_scooter", "lon": -77.04106983333334, "name": "91b0457932bbac90bab8825b8d810153", "bike_id": "91b0457932bbac90bab8825b8d810153", "fusion_lat": 0.0, "is_reserved": 0, "lat": 38.90810116666667, "fusion_lon": 0.0, "is_disabled": 0}, {"rental_uris": {"android": "https://dc.lft.to/lastmile_qr_scan", "ios": "https://dc.lft.to/lastmile_qr_scan"}, "type": "electric_scooter", "lon": -77.02688883333333, "name": "57419d33d831a5f5d4f968f72bc38a34", "bike_id": "57419d33d831a5f5d4f968f72bc38a34", "fusion_lat": 0.0, "is_reserved": 0, "lat": 38.8986365, "fusion_lon": 0.0, "is_disabled": 0}, {"rental_uris": {"android": "https://dc.lft.to/lastmile_qr_scan", "ios": "https://dc.lft.to/lastmile_qr_scan"}, "type": "electric_scooter", "lon": -77.03858533333333, "name": "5e4b2a1da8ca9e11cf2d62a5166fbd59", "bike_id": "5e4b2a1da8ca9e11cf2d62a5166fbd59", "fusion_lat": 0.0, "is_reserved": 0, "lat": 38.91209416666667, "fusion_lon": 0.0, "is_disabled": 0}, {"rental_uris": {"android": "https://dc.lft.to/lastmile_qr_scan", "ios": "https://dc.lft.to/lastmile_qr_scan"}, "type": "electric_scooter", "lon": -77.027131, "name": "1dabd4fbabdbb1cdd0ee3b98f57b0b03", "bike_id": "1dabd4fbabdbb1cdd0ee3b98f57b0b03", "fusion_lat": 0.0, "is_reserved": 0, "lat": 38.906691333333335, "fusion_lon": 0.0, "is_disabled": 0},