{"data": {"bikes": [{"name": "4193271640932445cda30dd5cf49bd1a", "is_disabled": 0, "lat": 38.954577666666665, "rental_uris": {"ios": "https://dc.lft.to/lastmile_qr_scan", "android": "https://dc.lft.to/lastmile_qr_scan"}, "bike_id": "4193271640932445cda30dd5cf49bd1a", "type": "electric_bike", "lon": -77.027758, "is_reserved": 0, "fusion_lat": 0.0, "fusion_lon": 0.0}, {"name": "71529c97da8670b00197b17b7c21488e", "is_disabled": 0, "lat": 38.907789666666666, "rental_uris": {"ios": "https://dc.lft.to/lastmile_qr_scan", "android": "https://dc.lft.to/lastmile_qr_scan"}, "bike_id": "71529c97da8670b00197b17b7c21488e", "type": "electric_scooter", "lon": -77.035181, "is_reserved": 0, "fusion_lat": 0.0, "fusion_lon": 0.0}, {"name": "4b65a12c9911c4b23758fde1b7d8e1f2", "is_disabled": 0, "lat": 38.889879, "rental_uris": {"ios": "https://dc.lft.to/lastmile_qr_scan", "android": "https://dc.lft.to/lastmile_qr_scan"}, "bike_id": "4b65a12c9911c4b23758fde1b7d8e1f2", "type": "electric_bike", "lon": -77.0713245, "is_reserved": 0, "fusion_lat": 0.0, "fusion_lon": 0.0}, {"name": "666afe2b125a6c46bd9a776e21bbb65e", "is_disabled": 0, "lat": 38.882378, "rental_uris": {"ios": "https://dc.lft.to/lastmile_qr_scan", "android": "https://dc.lft.to/lastmile_qr_scan"}, "bike_id": "666afe2b125a6c46bd9a776e21bbb65e", "type": "electric_scooter", "lon": -77.025835, "is_reserved": 0, "fusion_lat": 0.0, "fusion_lon": 0.0}, {"name": "cbef4ef010bfe64c61902a23ce843d4f", "is_disabled": 0, "lat": 38.90919266666667, "rental_uris": {"ios": "https://dc.lft.to/lastmile_qr_scan", "android": "https://dc.lft.to/lastmile_qr_scan"}, "bike_id": "cbef4ef010bfe64c61902a23ce843d4f", "type": "electric_scooter", "lon": -76.999657, "is_reserved": 0, "fusion_lat": 0.0, "fusion_lon": 0.0}, {"name": "418923c3f065e4bc817bd4ef5f01dafb", "is_disabled": 0, "lat": 38.931673833333335, "rental_uris": {"ios": "https://dc.lft.to/lastmile_qr_scan", "android": "https://dc.lft.to/lastmile_qr_scan"}, "bike_id": "418923c3f065e4bc817bd4ef5f01dafb", "type": "electric_bike", "lon": -77.17880483333333, "is_reserved": 0, "fusion_lat": 0.0, "fusion_lon": 0.0}, {"name": "83b8a0f524086b8e51d27d258f04bf77", "is_disabled": 0, "lat": 38.911739833333336, "rental_uris": {"ios": "https://dc.lft.to/lastmile_qr_scan", "android": "https://dc.lft.to/lastmile_qr_scan"}, "bike_id": "83b8a0f524086b8e51d27d258f04bf77", "type": "electric_bike", "lon": -76.984198, "is_reserved": 0, "fusion_lat": 0.0, "fusion_lon": 0.0}, {"name": "ad6cc5bc24af90da0ee730db245192a9", "is_disabled": 0, "lat": 38.90500383333333, "rental_uris": {"ios": "https://dc.lft.to/lastmile_qr_scan", "android": "https://dc.lft.to/lastmile_qr_scan"}, "bike_id": "ad6cc5bc24af90da0ee730db245192a9", "type": "electric_scooter", "lon": -77.04860583333334, "is_reserved": 0, "fusion_lat": 0.0, "fusion_lon": 0.0}, {"name": "db279f522c4faa6d930cec058f8062f8", "is_disabled": 0, "lat": 38.9056355, "rental_uris": {"ios": "https://dc.lft.to/lastmile_qr_scan", "android": "https://dc.lft.to/lastmile_qr_scan"}, "bike_id": "db279f522c4faa6d930cec058f8062f8", "type": "electric_scooter", "lon": -77.00396633333334, "is_reserved": 0, "fusion_lat": 0.0, "fusion_lon": 0.0}, {"name": "8c54611da642a3ddfc364cb8248ff5e7", "is_disabled": 0, "lat": 38.903201, "rental_uris": {"ios": "https://dc.lft.to/lastmile_qr_scan", "android": "https://dc.lft.to/lastmile_qr_scan"}, "bike_id": "8c54611da642a3ddfc364cb8248ff5e7", "type": "electric_scooter", "lon": -77.02576283333333, "is_reserved": 0, "fusion_lat": 0.0, "fusion_lon": 0.0}, {"name": "c40cd4bed7dc2ee7df4f438d092645c3", "is_disabled": 0, "lat": 38.909080333333335, "rental_uris": {"ios": "https://dc.lft.to/lastmile_qr_scan", "android": "https://dc.lft.to/lastmile_qr_scan"}, "bike_id": "c40cd4bed7dc2ee7df4f438d092645c3", "type": "electric_scooter", "lon": -77.04212983333333, "is_reserved": 0, "fusion_lat": 0.0, "fusion_lon": 0.0}, {"name": "2e177fddb25f2dc63539df7d6659873a", "is_disabled": 0, "lat": 38.903785, "rental_uris": {"ios": "https://dc.lft.to/lastmile_qr_scan", "android": "https://dc.lft.to/lastmile_qr_scan"}, "bike_id": "2e177fddb25f2dc63539df7d6659873a", "type": "electric_scooter", "lon": -77.03837516666667, "is_reserved": 0, "fusion_lat": 0.0, "fusion_lon": 0.0}, {"name": "a0ae2cadde6e9ff858c9d7102d7c70a4", "is_disabled": 0, "lat": 38.900507833333336, "rental_uris": {"ios": "https://dc.lft.to/lastmile_qr_scan", "android": "https://dc.lft.to/lastmile_qr_scan"}, "bike_id": "a0ae2cadde6e9ff858c9d7102d7c70a4", "type": "electric_scooter", "lon": -77.00208233333333, "is_reserved": 0, "fusion_lat": 0.0, "fusion_lon": 0.0}, {"name": "6b523591dee16ca2ca94355ab5612cd7", "is_disabled": 0, "lat": 38.89234833333333, "rental_uris": {"ios": "https://dc.lft.to/lastmile_qr_scan", "android": "https://dc.lft.to/lastmile_qr_scan"}, "bike_id": "6b523591dee16ca2ca94355ab5612cd7", "type": "electric_scooter", "lon": -77.031905, "is_reserved": 0, "fusion_lat": 0.0, "fusion_lon": 0.0}, {"name": "3a1d057af73f00763abb575699e6d50d", "is_disabled": 0, "lat": 38.911653333333334, "rental_uris": {"ios": "https://dc.lft.to/lastmile_qr_scan", "android": "https://dc.lft.to/lastmile_qr_scan"}, "bike_id": "3a1d057af73f00763abb575699e6d50d", "type": "electric_bike", "lon": -77.00280233333334, "is_reserved": 0, "fusion_lat": 0.0, "fusion_lon": 0.0}, {"name": "c1009b002ac9c24ff5c08a1fecd20750", "is_disabled": 0, "lat": 38.938293333333334, "rental_uris": {"ios": "https://dc.lft.to/lastmile_qr_scan", "android": "https://dc.lft.to/lastmile_qr_scan"}, "bike_id": "c1009b002ac9c24ff5c08a1fecd20750", "type": "electric_scooter", "lon": -76.99193966666667, "is_reserved": 0, "fusion_lat": 0.0, "fusion_lon": 0.0}, {"name": "8430521108b5876b4f5d0741bc64f549", "is_disabled": 0, "lat": 38.89615666666667, "rental_uris": {"ios": "https://dc.lft.to/lastmile_qr_scan", "android": "https://dc.lft.to/lastmile_qr_scan"}, "bike_id": "8430521108b5876b4f5d0741bc64f549", "type": "electric_scooter", "lon": -77.0121365, "is_reserved": 0, "fusion_lat": 0.0, "fusion_lon": 0.0}, {"name": "88e5a1b8a7a3d293d89ab00bdc076616", "is_disabled": 0, "lat": 38.923384666666664, "rental_uris": {"ios": "https://dc.lft.to/lastmile_qr_scan", "android": "https://dc.lft.to/lastmile_qr_scan"}, "bike_id": "88e5a1b8a7a3d293d89ab00bdc076616", "type": "electric_scooter", "lon": -77.053047, "is_reserved": 0, "fusion_lat": 0.0, "fusion_lon": 0.0}, {"name": "b3f0438680b310e50ac1adf7ed7ac81f", "is_disabled": 0, "lat": 38.892263, "rental_uris": {"ios": "https://dc.lft.to/lastmile_qr_scan", "android": "https://dc.lft.to/lastmile_qr_scan"}, "bike_id": "b3f0438680b310e50ac1adf7ed7ac81f", "type": "electric_scooter", "lon": -77.04898083333333, "is_reserved": 0, "fusion_lat": 0.0, "fusion_lon": 0.0}, {"name": "39cc2b949608f9ad284eaedc5d10c6ee", "is_disabled": 0, "lat": 38.904663666666664, "rental_uris": {"ios": "https://dc.lft.to/lastmile_qr_scan", "android": "https://dc.lft.to/lastmile_qr_scan"}, "bike_id": "39cc2b949608f9ad284eaedc5d10c6ee", "type": "electric_scooter", "lon": -77.028192, "is_reserved": 0, "fusion_lat": 0.0, "fusion_lon": 0.0}, {"name": "fc9d498b2387b2333d7973e00fe97d93", "is_disabled": 0, "lat": 38.876481, "rental_uris": {"ios": "https://dc.lft.to/lastmile_qr_scan", "android": "https://dc.lft.to/lastmile_qr_scan"}, "bike_id": "fc9d498b2387b2333d7973e00fe97d93", "type": "electric_scooter", "lon": -77.00074783333334, "is_reserved": 0, "fusion_lat": 0.0, "fusion_lon": 0.0}, {"name": "ae8f4708ca9cc8f26f7a139930d9320d", "is_disabled": 0, "lat": 38.90033316666667, "rental_uris": {"ios": "https://dc.lft.to/lastmile_qr_scan", "android": "https://dc.lft.to/lastmile_qr_scan"}, "bike_id": "ae8f4708ca9cc8f26f7a139930d9320d", "type": "electric_scooter", "lon": -77.0118145, "is_reserved": 0, "fusion_lat": 0.0, "fusion_lon": 0.0}, {"name": "1125dfc80313275bbac889337629d414", "is_disabled": 0, "lat": 38.920993833333334, "rental_uris": {"ios": "https://dc.lft.to/lastmile_qr_scan", "android": "https://dc.lft.to/lastmile_qr_scan"}, "bike_id": "1125dfc80313275bbac889337629d414", "type": "electric_scooter", "lon": -77.0251035, "is_reserved": 0, "fusion_lat": 0.0, "fusion_lon": 0.0}, {"name": "6fb39c5f26a2f16ed5d3d6554936e319", "is_disabled": 0, "lat": 38.895826666666665, "rental_uris": {"ios": "https://dc.lft.to/lastmile_qr_scan", "android": "https://dc.lft.to/lastmile_qr_scan"}, "bike_id": "6fb39c5f26a2f16ed5d3d6554936e319", "type": "electric_scooter", "lon": -76.9832085, "is_reserved": 0, "fusion_lat": 0.0, "fusion_lon": 0.0}, {"name": "9672a7466ffe02320257d7c9944c3839", "is_disabled": 0, "lat": 38.90046133333333, "rental_uris": {"ios": "https://dc.lft.to/lastmile_qr_scan", "android": "https://dc.lft.to/lastmile_qr_scan"}, "bike_id": "9672a7466ffe02320257d7c9944c3839", "type": "electric_scooter", "lon": -77.0006845, "is_reserved": 0, "fusion_lat": 0.0, "fusion_lon": 0.0}, {"name": "ee6df2d5e3d69c53ab039e76223c4472", "is_disabled": 0, "lat": 38.94564733333333, "rental_uris": {"ios": "https://dc.lft.to/lastmile_qr_scan", "android": "https://dc.lft.to/lastmile_qr_scan"}, "bike_id": "ee6df2d5e3d69c53ab039e76223c4472", "type": "electric_scooter", "lon": -77.079587, "is_reserved": 0, "fusion_lat": 0.0, "fusion_lon": 0.0}, {"name": "758a6fc69381b25edd9a5990deca30b0", "is_disabled": 0, "lat": 38.895943333333335, "rental_uris": {"ios": "https://dc.lft.to/lastmile_qr_scan", "android": "https://dc.lft.to/lastmile_qr_scan"}, "bike_id": "758a6fc69381b25edd9a5990deca30b0", "type": "electric_scooter", "lon": -77.02360816666666, "is_reserved": 0, "fusion_lat": 0.0, "fusion_lon": 0.0}, {"name": "00ea1fcd09529fc995440952f76de843", "is_disabled": 0, "lat": 38.901983, "rental_uris": {"ios": "https://dc.lft.to/lastmile_qr_scan", "android": "https://dc.lft.to/lastmile_qr_scan"}, "bike_id": "00ea1fcd09529fc995440952f76de843", "type": "electric_scooter", "lon": -77.022171, "is_reserved": 0, "fusion_lat": 0.0, "fusion_lon": 0.0}, {"name": "0bc2ebf03cb613869ad7785d864df571", "is_disabled": 0, "lat": 38.91661666666667, "rental_uris": {"ios": "https://dc.lft.to/lastmile_qr_scan", "android": "https://dc.lft.to/lastmile_qr_scan"}, "bike_id": "0bc2ebf03cb613869ad7785d864df571", "type": "electric_scooter", "lon": -77.02476716666666, "is_reserved": 0, "fusion_lat": 0.0, "fusion_lon": 0.0}, {"name": "09094ed28571c35ceda89e374c5d9da7", "is_disabled": 0, "lat": 38.918413666666666, "rental_uris": {"ios": "https://dc.lft.to/lastmile_qr_scan", "android": "https://dc.lft.to/lastmile_qr_scan"}, "bike_id": "09094ed28571c35ceda89e374c5d9da7", "type": "electric_scooter", "lon": -77.0320635, "is_reserved": 0, "fusion_lat": 0.0, "fusion_lon": 0.0}, {"name": "5c523669c8af3a761ff1a673ede3fbe8", "is_disabled": 0, "lat": 38.92971433333334, "rental_uris": {"ios": "https://dc.lft.to/lastmile_qr_scan", "android": "https://dc.lft.to/lastmile_qr_scan"}, "bike_id": "5c523669c8af3a761ff1a673ede3fbe8", "type": "electric_scooter", "lon": -77.02822033333334, "is_reserved": 0, "fusion_lat": 0.0, "fusion_lon": 0.0}, {"name": "fd8e989ab558e3f74b0b5f909c1674c7", "is_disabled": 0, "lat": 38.9111715, "rental_uris": {"ios": "https://dc.lft.to/lastmile_qr_scan", "android": "https://dc.lft.to/lastmile_qr_scan"}, "bike_id": "fd8e989ab558e3f74b0b5f909c1674c7", "type": "electric_scooter", "lon": -77.04407233333333, "is_reserved": 0, "fusion_lat": 0.0, "fusion_lon": 0.0}, {"name": "97aab305c6a4be28376196b8dd233438", "is_disabled": 0, "lat": 38.901476, "rental_uris": {"ios": "https://dc.lft.to/lastmile_qr_scan", "android": "https://dc.lft.to/lastmile_qr_scan"}, "bike_id": "97aab305c6a4be28376196b8dd233438", "type": "electric_scooter", "lon": -77.01499083333333, "is_reserved": 0, "fusion_lat": 0.0, "fusion_lon": 0.0}, {"name": "fcf95dee77ef429bfdcb47ab866ea518", "is_disabled": 0, "lat": 38.87477166666667, "rental_uris": {"ios": "https://dc.lft.to/lastmile_qr_scan", "android": "https://dc.lft.to/lastmile_qr_scan"}, "bike_id": "fcf95dee77ef429bfdcb47ab866ea518", "type": "electric_scooter", "lon": -77.0059135, "is_reserved": 0, "fusion_lat": 0.0, "fusion_lon": 0.0}, {"name": "6fb96e161a8851aa62056015bf3bfa5f", "is_disabled": 0, "lat": 38.90671916666667, "rental_uris": {"ios": "https://dc.lft.to/lastmile_qr_scan", "android": "https://dc.lft.to/lastmile_qr_scan"}, "bike_id": "6fb96e161a8851aa62056015bf3bfa5f", "type": "electric_scooter", "lon": -77.02709133333333, "is_reserved": 0, "fusion_lat": 0.0, "fusion_lon": 0.0}, {"name": "6780958b8f4d19bfaaab039e975e675f", "is_disabled": 0, "lat": 38.90374333333333, "rental_uris": {"ios": "https://dc.lft.to/lastmile_qr_scan", "android": "https://dc.lft.to/lastmile_qr_scan"}, "bike_id": "6780958b8f4d19bfaaab039e975e675f", "type": "electric_bike", "lon": -77.036409, "is_reserved": 0, "fusion_lat": 0.0, "fusion_lon": 0.0}, {"name": "b7ffc1dde1e99d2535cf063a6a3a4b99", "is_disabled": 0, "lat": 38.961792, "rental_uris": {"ios": "https://dc.lft.to/lastmile_qr_scan", "android": "https://dc.lft.to/lastmile_qr_scan"}, "bike_id": "b7ffc1dde1e99d2535cf063a6a3a4b99", "type": "electric_scooter", "lon": -77.01437516666667, "is_reserved": 0, "fusion_lat": 0.0, "fusion_lon": 0.0}, {"name": "f967e2556b86b7c2fa7463eb300cfc63", "is_disabled": 0, "lat": 38.87703033333333, "rental_uris": {"ios": "https://dc.lft.to/lastmile_qr_scan", "android": "https://dc.lft.to/lastmile_qr_scan"}, "bike_id": "f967e2556b86b7c2fa7463eb300cfc63", "type": "electric_scooter", "lon": -77.01921266666666, "is_reserved": 0, "fusion_lat": 0.0, "fusion_lon": 0.0}, {"name": "2d3d407f716838231d1ad9a530c0223a", "is_disabled": 0, "lat": 38.901459, "rental_uris": {"ios": "https://dc.lft.to/lastmile_qr_scan", "android": "https://dc.lft.to/lastmile_qr_scan"}, "bike_id": "2d3d407f716838231d1ad9a530c0223a", "type": "electric_scooter", "lon": -77.04182533333334, "is_reserved": 0, "fusion_lat": 0.0, "fusion_lon": 0.0}, {"name": "993b8d7e7848902692faa2f3236b4992", "is_disabled": 0, "lat": 38.903709666666664, "rental_uris": {"ios": "https://dc.lft.to/lastmile_qr_scan", "android": "https://dc.lft.to/lastmile_qr_scan"}, "bike_id": "993b8d7e7848902692faa2f3236b4992", "type": "electric_scooter", "lon": -77.00749583333334, "is_reserved": 0, "fusion_lat": 0.0, "fusion_lon": 0.0}, {"name": "63738062c5eb9fe806534065b9cd7c9b", "is_disabled": 0, "lat": 38.908122666666664, "rental_uris": {"ios": "https://dc.lft.to/lastmile_qr_scan", "android": "https://dc.lft.to/lastmile_qr_scan"}, "bike_id": "63738062c5eb9fe806534065b9cd7c9b", "type": "electric_scooter", "lon": -77.03446883333334, "is_reserved": 0, "fusion_lat": 0.0, "fusion_lon": 0.0}, {"name": "503bec8173e6b4f5c426b7d8d718ea93", "is_disabled": 0, "lat": 38.89709233333333, "rental_uris": {"ios": "https://dc.lft.to/lastmile_qr_scan", "android": "https://dc.lft.to/lastmile_qr_scan"}, "bike_id": "503bec8173e6b4f5c426b7d8d718ea93", "type": "electric_scooter", "lon": -77.0283145, "is_reserved": 0, "fusion_lat": 0.0, "fusion_lon": 0.0}, {"name": "124ae889c23a40c4876b115c94a3e536", "is_disabled": 0, "lat": 38.906366, "rental_uris": {"ios": "https://dc.lft.to/lastmile_qr_scan", "android": "https://dc.lft.to/lastmile_qr_scan"}, "bike_id": "124ae889c23a40c4876b115c94a3e536", "type": "electric_scooter", "lon": -77.00657166666667, "is_reserved": 0, "fusion_lat": 0.0, "fusion_lon": 0.0}, {"name": "0766adbe8d1606c426d26926d04ec1e1", "is_disabled": 0, "lat": 38.898421166666665, "rental_uris": {"ios": "https://dc.lft.to/lastmile_qr_scan", "android": "https://dc.lft.to/lastmile_qr_scan"}, "bike_id": "0766adbe8d1606c426d26926d04ec1e1", "type": "electric_scooter", "lon": -77.02204866666666, "is_reserved": 0, "fusion_lat": 0.0, "fusion_lon": 0.0}, {"name": "9a4f0150f3fabb9fc5d3a24bb6853012", "is_disabled": 0, "lat": 38.887465666666664, "rental_uris": {"ios": "https://dc.lft.to/lastmile_qr_scan", "android": "https://dc.lft.to/lastmile_qr_scan"}, "bike_id": "9a4f0150f3fabb9fc5d3a24bb6853012", "type": "electric_scooter", "lon": -77.0213005, "is_reserved": 0, "fusion_lat": 0.0, "fusion_lon": 0.0}, {"name": "cfd9be28d7995319995aae998cacb33e", "is_disabled": 0, "lat": 38.9122105, "rental_uris": {"ios": "https://dc.lft.to/lastmile_qr_scan", "android": "https://dc.lft.to/lastmile_qr_scan"}, "bike_id": "cfd9be28d7995319995aae998cacb33e", "type": "electric_scooter", "lon": -77.06604916666667, "is_reserved": 0, "fusion_lat": 0.0, "fusion_lon": 0.0}, {"name": "dab9c0d4522a5d6caee032a4165c3ea5", "is_disabled": 0, "lat": 38.90249933333333, "rental_uris": {"ios": "https://dc.lft.to/lastmile_qr_scan", "android": "https://dc.lft.to/lastmile_qr_scan"}, "bike_id": "dab9c0d4522a5d6caee032a4165c3ea5", "type": "electric_scooter", "lon": -77.04281566666667, "is_reserved": 0, "fusion_lat": 0.0, "fusion_lon": 0.0}, {"name": "82ec9215f18719a23ead625fc01c2873", "is_disabled": 0, "lat": 38.8571815, "rental_uris": {"ios": "https://dc.lft.to/lastmile_qr_scan", "android": "https://dc.lft.to/lastmile_qr_scan"}, "bike_id": "82ec9215f18719a23ead625fc01c2873", "type": "electric_bike", "lon": -76.98103633333334, "is_reserved": 0, "fusion_lat": 0.0, "fusion_lon": 0.0}, {"name": "bedd9282ee628cb150bf85e4ddf6a120", "is_disabled": 0, "lat": 38.934129666666664, "rental_uris": {"ios": "https://dc.lft.to/lastmile_qr_scan", "android": "https://dc.lft.to/lastmile_qr_scan"}, "bike_id": "bedd9282ee628cb150bf85e4ddf6a120", "type": "electric_bike", "lon": -77.04304766666667, "is_reserved": 0, "fusion_lat": 0.0, "fusion_lon": 0.0}, {"name": "30f1ff719082bdc9f9f90676765306a8", "is_disabled": 0, "lat": 38.90084216666666, "rental_uris": {"ios": "https://dc.lft.to/lastmile_qr_scan", "android": "https://dc.lft.to/lastmile_qr_scan"}, "bike_id": "30f1ff719082bdc9f9f90676765306a8", "type": "electric_scooter", "lon": -77.04745016666666, "is_reserved": 0, "fusion_lat": 0.0, "fusion_lon": 0.0}, {"name": "2bda33580857c5dbecd9096817cd04bc", "is_disabled": 0, "lat": 38.997767, "rental_uris": {"ios": "https://dc.lft.to/lastmile_qr_scan", "android": "https://dc.lft.to/lastmile_qr_scan"}, "bike_id": "2bda33580857c5dbecd9096817cd04bc", "type": "electric_bike", "lon": -77.04717433333333, "is_reserved": 0, "fusion_lat": 0.0, "fusion_lon": 0.0}, {"name": "28dad32d14652182df83e0ee164ac914", "is_disabled": 0, "lat": 38.9256455, "rental_uris": {"ios": "https://dc.lft.to/lastmile_qr_scan", "android": "https://dc.lft.to/lastmile_qr_scan"}, "bike_id": "28dad32d14652182df83e0ee164ac914", "type": "electric_scooter", "lon": -77.05264483333333, "is_reserved": 0, "fusion_lat": 0.0, "fusion_lon": 0.0}, {"name": "6f6f15315155ceddba6b40387ef38d18", "is_disabled": 0, "lat": 38.90228316666666, "rental_uris": {"ios": "https://dc.lft.to/lastmile_qr_scan", "android": "https://dc.lft.to/lastmile_qr_scan"}, "bike_id": "6f6f15315155ceddba6b40387ef38d18", "type": "electric_scooter", "lon": -77.01791383333334, "is_reserved": 0, "fusion_lat": 0.0, "fusion_lon": 0.0}, {"name": "a751a60a1ef8f0e149650b0f018fa1eb", "is_disabled": 0, "lat": 38.907190666666665, "rental_uris": {"ios": "https://dc.lft.to/lastmile_qr_scan", "android": "https://dc.lft.to/lastmile_qr_scan"}, "bike_id": "a751a60a1ef8f0e149650b0f018fa1eb", "type": "electric_scooter", "lon": -77.04523116666667, "is_reserved": 0, "fusion_lat": 0.0, "fusion_lon": 0.0}, {"name": "0f4d2304e54874731ddb40c06c2ff967", "is_disabled": 0, "lat": 38.90026833333334, "rental_uris": {"ios": "https://dc.lft.to/lastmile_qr_scan", "android": "https://dc.lft.to/lastmile_qr_scan"}, "bike_id": "0f4d2304e54874731ddb40c06c2ff967", "type": "electric_scooter", "lon": -76.9962995, "is_reserved": 0, "fusion_lat": 0.0, "fusion_lon": 0.0}, {"name": "e2d8271440391e311da39f52988435ef", "is_disabled": 0, "lat": 38.94279, "rental_uris": {"ios": "https://dc.lft.to/lastmile_qr_scan", "android": "https://dc.lft.to/lastmile_qr_scan"}, "bike_id": "e2d8271440391e311da39f52988435ef", "type": "electric_scooter", "lon": -77.02945233333334, "is_reserved": 0, "fusion_lat": 0.0, "fusion_lon": 0.0}, {"name": "7e44cad5356993915c8946b9164a2aab", "is_disabled": 0, "lat": 38.92252416666667, "rental_uris": {"ios": "https://dc.lft.to/lastmile_qr_scan", "android": "https://dc.lft.to/lastmile_qr_scan"}, "bike_id": "7e44cad5356993915c8946b9164a2aab", "type": "electric_scooter", "lon": -77.01933033333333, "is_reserved": 0, "fusion_lat": 0.0, "fusion_lon": 0.0}, {"name": "ac4b3559fb925da45d75854af51b0dbc", "is_disabled": 0, "lat": 38.90906283333333, "rental_uris": {"ios": "https://dc.lft.to/lastmile_qr_scan", "android": "https://dc.lft.to/lastmile_qr_scan"}, "bike_id": "ac4b3559fb925da45d75854af51b0dbc", "type": "electric_scooter", "lon": -77.02714466666667, "is_reserved": 0, "fusion_lat": 0.0, "fusion_lon": 0.0}, {"name": "8cba8c9ebc2ed9403d58f453dabeee5e", "is_disabled": 0, "lat": 38.8923955, "rental_uris": {"ios": "https://dc.lft.to/lastmile_qr_scan", "android": "https://dc.lft.to/lastmile_qr_scan"}, "bike_id": "8cba8c9ebc2ed9403d58f453dabeee5e", "type": "electric_scooter", "lon": -77.03188833333333, "is_reserved": 0, "fusion_lat": 0.0, "fusion_lon": 0.0}, {"name": "0f4fe1abedb46d5ca5965d9b9cc44edc", "is_disabled": 0, "lat": 38.91098083333333, "rental_uris": {"ios": "https://dc.lft.to/lastmile_qr_scan", "android": "https://dc.lft.to/lastmile_qr_scan"}, "bike_id": "0f4fe1abedb46d5ca5965d9b9cc44edc", "type": "electric_scooter", "lon": -77.07350366666667, "is_reserved": 0, "fusion_lat": 0.0, "fusion_lon": 0.0}, {"name": "ed5997b72a73c5a5a7ac385143ce4cdb", "is_disabled": 0, "lat": 38.90376966666667, "rental_uris": {"ios": "https://dc.lft.to/lastmile_qr_scan", "android": "https://dc.lft.to/lastmile_qr_scan"}, "bike_id": "ed5997b72a73c5a5a7ac385143ce4cdb", "type": "electric_scooter", "lon": -77.009865, "is_reserved": 0, "fusion_lat": 0.0, "fusion_lon": 0.0}, {"name": "ca61e0d22e65c7f29d8782ae0480f4af", "is_disabled": 0, "lat": 38.91105783333333, "rental_uris": {"ios": "https://dc.lft.to/lastmile_qr_scan", "android": "https://dc.lft.to/lastmile_qr_scan"}, "bike_id": "ca61e0d22e65c7f29d8782ae0480f4af", "type": "electric_scooter", "lon": -77.04203016666666, "is_reserved": 0, "fusion_lat": 0.0, "fusion_lon": 0.0}, {"name": "0bcb41fe470ac61b2dfe4abe9d23d627", "is_disabled": 0, "lat": 38.903034, "rental_uris": {"ios": "https://dc.lft.to/lastmile_qr_scan", "android": "https://dc.lft.to/lastmile_qr_scan"}, "bike_id": "0bcb41fe470ac61b2dfe4abe9d23d627", "type": "electric_scooter", "lon": -77.051986, "is_reserved": 0, "fusion_lat": 0.0, "fusion_lon": 0.0}, {"name": "a102cba520c4a3ab5d0148bcfd4972cd", "is_disabled": 0, "lat": 38.907224166666666, "rental_uris": {"ios": "https://dc.lft.to/lastmile_qr_scan", "android": "https://dc.lft.to/lastmile_qr_scan"}, "bike_id": "a102cba520c4a3ab5d0148bcfd4972cd", "type": "electric_scooter", "lon": -77.026785, "is_reserved": 0, "fusion_lat": 0.0, "fusion_lon": 0.0}, {"name": "0110363011bca96d5a1483595d06ecee", "is_disabled": 0, "lat": 38.899681333333334, "rental_uris": {"ios": "https://dc.lft.to/lastmile_qr_scan", "android": "https://dc.lft.to/lastmile_qr_scan"}, "bike_id": "0110363011bca96d5a1483595d06ecee", "type": "electric_scooter", "lon": -76.937595, "is_reserved": 0, "fusion_lat": 0.0, "fusion_lon": 0.0}, {"name": "c39846057384dc88569de39d5eee02b9", "is_disabled": 0, "lat": 38.950561666666665, "rental_uris": {"ios": "https://dc.lft.to/lastmile_qr_scan", "android": "https://dc.lft.to/lastmile_qr_scan"}, "bike_id": "c39846057384dc88569de39d5eee02b9", "type": "electric_scooter", "lon": -77.0803025, "is_reserved": 0, "fusion_lat": 0.0, "fusion_lon": 0.0}, {"name": "bf20e8520342c02b07b056c54beb89fa", "is_disabled": 0, "lat": 38.90838983333333, "rental_uris": {"ios": "https://dc.lft.to/lastmile_qr_scan", "android": "https://dc.lft.to/lastmile_qr_scan"}, "bike_id": "bf20e8520342c02b07b056c54beb89fa", "type": "electric_scooter", "lon": -77.03300283333333, "is_reserved": 0, "fusion_lat": 0.0, "fusion_lon": 0.0}, {"name": "f6d861a46e6e498ceaa9376f1e835a18", "is_disabled": 0, "lat": 38.89686016666667, "rental_uris": {"ios": "https://dc.lft.to/lastmile_qr_scan", "android": "https://dc.lft.to/lastmile_qr_scan"}, "bike_id": "f6d861a46e6e498ceaa9376f1e835a18", "type": "electric_scooter", "lon": -76.93712633333334, "is_reserved": 0, "fusion_lat": 0.0, "fusion_lon": 0.0}, {"name": "98494ae4a006bc1f5c812950b98bb3fd", "is_disabled": 0, "lat": 38.899679666666664, "rental_uris": {"ios": "https://dc.lft.to/lastmile_qr_scan", "android": "https://dc.lft.to/lastmile_qr_scan"}, "bike_id": "98494ae4a006bc1f5c812950b98bb3fd", "type": "electric_scooter", "lon": -77.02739933333334, "is_reserved": 0, "fusion_lat": 0.0, "fusion_lon": 0.0}, {"name": "ce7249e8c640db155f561eb90f2d6db0", "is_disabled": 0, "lat": 38.923631, "rental_uris": {"ios": "https://dc.lft.to/lastmile_qr_scan", "android": "https://dc.lft.to/lastmile_qr_scan"}, "bike_id": "ce7249e8c640db155f561eb90f2d6db0", "type": "electric_scooter", "lon": -77.05053716666667, "is_reserved": 0, "fusion_lat": 0.0, "fusion_lon": 0.0}, {"name": "eafce5d10c2362abe2ba61c40bfd0929", "is_disabled": 0, "lat": 38.917464, "rental_uris": {"ios": "https://dc.lft.to/lastmile_qr_scan", "android": "https://dc.lft.to/lastmile_qr_scan"}, "bike_id": "eafce5d10c2362abe2ba61c40bfd0929", "type": "electric_scooter", "lon": -77.02610283333334, "is_reserved": 0, "fusion_lat": 0.0, "fusion_lon": 0.0}, {"name": "c4dda2d9e6fd7b4dbe4ed65fdeab55a4", "is_disabled": 0, "lat": 38.924064666666666, "rental_uris": {"ios": "https://dc.lft.to/lastmile_qr_scan", "android": "https://dc.lft.to/lastmile_qr_scan"}, "bike_id": "c4dda2d9e6fd7b4dbe4ed65fdeab55a4", "type": "electric_scooter", "lon": -77.05254516666666, "is_reserved": 0, "fusion_lat": 0.0, "fusion_lon": 0.0}, {"name": "2e93dab504209878ab2d2fcaf2ec71ee", "is_disabled": 0, "lat": 38.875771666666665, "rental_uris": {"ios": "https://dc.lft.to/lastmile_qr_scan", "android": "https://dc.lft.to/lastmile_qr_scan"}, "bike_id": "2e93dab504209878ab2d2fcaf2ec71ee", "type": "electric_bike", "lon": -77.234132, "is_reserved": 0, "fusion_lat": 0.0, "fusion_lon": 0.0}, {"name": "42e137b50dcdb3c4b16a8e9b1ec9dceb", "is_disabled": 0, "lat": 38.897327833333335, "rental_uris": {"ios": "https://dc.lft.to/lastmile_qr_scan", "android": "https://dc.lft.to/lastmile_qr_scan"}, "bike_id": "42e137b50dcdb3c4b16a8e9b1ec9dceb", "type": "electric_scooter", "lon": -77.00373, "is_reserved": 0, "fusion_lat": 0.0, "fusion_lon": 0.0}, {"name": "4ad6b3fee27ca90e2da7b3678e5e732a", "is_disabled": 0, "lat": 38.90580766666667, "rental_uris": {"ios": "https://dc.lft.to/lastmile_qr_scan", "android": "https://dc.lft.to/lastmile_qr_scan"}, "bike_id": "4ad6b3fee27ca90e2da7b3678e5e732a", "type": "electric_scooter", "lon": -77.009122, "is_reserved": 0, "fusion_lat": 0.0, "fusion_lon": 0.0}, {"name": "f5195e67d77797e4c0aeceb6aca3401e", "is_disabled": 0, "lat": 38.916936666666665, "rental_uris": {"ios": "https://dc.lft.to/lastmile_qr_scan", "android": "https://dc.lft.to/lastmile_qr_scan"}, "bike_id": "f5195e67d77797e4c0aeceb6aca3401e", "type": "electric_scooter", "lon": -77.02277716666667, "is_reserved": 0, "fusion_lat": 0.0, "fusion_lon": 0.0}, {"name": "3684a0f9fe9c162b5e29f1fccb258a76", "is_disabled": 0, "lat": 38.935399833333335, "rental_uris": {"ios": "https://dc.lft.to/lastmile_qr_scan", "android": "https://dc.lft.to/lastmile_qr_scan"}, "bike_id": "3684a0f9fe9c162b5e29f1fccb258a76", "type": "electric_scooter", "lon": -77.05752, "is_reserved": 0, "fusion_lat": 0.0, "fusion_lon": 0.0}, {"name": "735d431b36984069bade7cc76a421049", "is_disabled": 0, "lat": 38.95601833333333, "rental_uris": {"ios": "https://dc.lft.to/lastmile_qr_scan", "android": "https://dc.lft.to/lastmile_qr_scan"}, "bike_id": "735d431b36984069bade7cc76a421049", "type": "electric_scooter", "lon": -77.03356766666667, "is_reserved": 0, "fusion_lat": 0.0, "fusion_lon": 0.0}, {"name": "08977137e8b7bedf45972d689c56f22f", "is_disabled": 0, "lat": 38.892112833333336, "rental_uris": {"ios": "https://dc.lft.to/lastmile_qr_scan", "android": "https://dc.lft.to/lastmile_qr_scan"}, "bike_id": "08977137e8b7bedf45972d689c56f22f", "type": "electric_scooter", "lon": -76.99573466666666, "is_reserved": 0, "fusion_lat": 0.0, "fusion_lon": 0.0}, {"name": "5bcd6be38fa85df33d8c653473bc0136", "is_disabled": 0, "lat": 38.937753, "rental_uris": {"ios": "https://dc.lft.to/lastmile_qr_scan", "android": "https://dc.lft.to/lastmile_qr_scan"}, "bike_id": "5bcd6be38fa85df33d8c653473bc0136", "type": "electric_scooter", "lon": -77.0326765, "is_reserved": 0, "fusion_lat": 0.0, "fusion_lon": 0.0}, {"name": "d5ef14db5133d73d0061b87393c3605d", "is_disabled": 0, "lat": 38.91186033333334, "rental_uris": {"ios": "https://dc.lft.to/lastmile_qr_scan", "android": "https://dc.lft.to/lastmile_qr_scan"}, "bike_id": "d5ef14db5133d73d0061b87393c3605d", "type": "electric_scooter", "lon": -77.0376295, "is_reserved": 0, "fusion_lat": 0.0, "fusion_lon": 0.0}, {"name": "45c0566a30c9dead89cbf5655bc76045", "is_disabled": 0, "lat": 38.89599166666667, "rental_uris": {"ios": "https://dc.lft.to/lastmile_qr_scan", "android": "https://dc.lft.to/lastmile_qr_scan"}, "bike_id": "45c0566a30c9dead89cbf5655bc76045", "type": "electric_scooter", "lon": -77.023591, "is_reserved": 0, "fusion_lat": 0.0, "fusion_lon": 0.0}, {"name": "9ee87a662042d4c2bf12c802354c7834", "is_disabled": 0, "lat": 38.902839666666665, "rental_uris": {"ios": "https://dc.lft.to/lastmile_qr_scan", "android": "https://dc.lft.to/lastmile_qr_scan"}, "bike_id": "9ee87a662042d4c2bf12c802354c7834", "type": "electric_scooter", "lon": -77.03350633333334, "is_reserved": 0, "fusion_lat": 0.0, "fusion_lon": 0.0}, {"name": "a02f55d5aa352ac854a37043b11ec857", "is_disabled": 0, "lat": 38.91820283333333, "rental_uris": {"ios": "https://dc.lft.to/lastmile_qr_scan", "android": "https://dc.lft.to/lastmile_qr_scan"}, "bike_id": "a02f55d5aa352ac854a37043b11ec857", "type": "electric_scooter", "lon": -77.040026, "is_reserved": 0, "fusion_lat": 0.0, "fusion_lon": 0.0}, {"name": "3616fa4cd12800b675c1a6fb4a4b77ba", "is_disabled": 0, "lat": 38.9126255, "rental_uris": {"ios": "https://dc.lft.to/lastmile_qr_scan", "android": "https://dc.lft.to/lastmile_qr_scan"}, "bike_id": "3616fa4cd12800b675c1a6fb4a4b77ba", "type": "electric_scooter", "lon": -77.0282585, "is_reserved": 0, "fusion_lat": 0.0, "fusion_lon": 0.0}, {"name": "b3524376df46cea08967ee924449514a", "is_disabled": 0, "lat": 38.90032266666667, "rental_uris": {"ios": "https://dc.lft.to/lastmile_qr_scan", "android": "https://dc.lft.to/lastmile_qr_scan"}, "bike_id": "b3524376df46cea08967ee924449514a", "type": "electric_scooter", "lon": -76.988452, "is_reserved": 0, "fusion_lat": 0.0, "fusion_lon": 0.0}, {"name": "469c17170f841811b802ab3bfb4adef0", "is_disabled": 0, "lat": 38.902792833333336, "rental_uris": {"ios": "https://dc.lft.to/lastmile_qr_scan", "android": "https://dc.lft.to/lastmile_qr_scan"}, "bike_id": "469c17170f841811b802ab3bfb4adef0", "type": "electric_scooter", "lon": -77.03472366666666, "is_reserved": 0, "fusion_lat": 0.0, "fusion_lon": 0.0}, {"name": "9a4a50f8883bd681457783f155690915", "is_disabled": 0, "lat": 38.93443333333333, "rental_uris": {"ios": "https://dc.lft.to/lastmile_qr_scan", "android": "https://dc.lft.to/lastmile_qr_scan"}, "bike_id": "9a4a50f8883bd681457783f155690915", "type": "electric_scooter", "lon": -77.05778466666666, "is_reserved": 0, "fusion_lat": 0.0, "fusion_lon": 0.0}, {"name": "bed6cf26fee69e03166025f456e7b2f4", "is_disabled": 0, "lat": 38.924545, "rental_uris": {"ios": "https://dc.lft.to/lastmile_qr_scan", "android": "https://dc.lft.to/lastmile_qr_scan"}, "bike_id": "bed6cf26fee69e03166025f456e7b2f4", "type": "electric_scooter", "lon": -76.971065, "is_reserved": 0, "fusion_lat": 0.0, "fusion_lon": 0.0}, {"name": "2061df70b18f27223c8cf3640652f5f2", "is_disabled": 0, "lat": 38.89887216666666, "rental_uris": {"ios": "https://dc.lft.to/lastmile_qr_scan", "android": "https://dc.lft.to/lastmile_qr_scan"}, "bike_id": "2061df70b18f27223c8cf3640652f5f2", "type": "electric_scooter", "lon": -76.93174516666667, "is_reserved": 0, "fusion_lat": 0.0, "fusion_lon": 0.0}, {"name": "b640406ac2fedd9539f3316936600eeb", "is_disabled": 0, "lat": 38.911191333333335, "rental_uris": {"ios": "https://dc.lft.to/lastmile_qr_scan", "android": "https://dc.lft.to/lastmile_qr_scan"}, "bike_id": "b640406ac2fedd9539f3316936600eeb", "type": "electric_scooter", "lon": -77.03289, "is_reserved": 0, "fusion_lat": 0.0, "fusion_lon": 0.0}, {"name": "89a0210ad28c7f08914065bd8adff180", "is_disabled": 0, "lat": 38.89830233333333, "rental_uris": {"ios": "https://dc.lft.to/lastmile_qr_scan", "android": "https://dc.lft.to/lastmile_qr_scan"}, "bike_id": "89a0210ad28c7f08914065bd8adff180", "type": "electric_scooter", "lon": -76.94633666666667, "is_reserved": 0, "fusion_lat": 0.0, "fusion_lon": 0.0}, {"name": "aecfa346fcef24b5b9da7cca22b76ac4", "is_disabled": 0, "lat": 38.9176345, "rental_uris": {"ios": "https://dc.lft.to/lastmile_qr_scan", "android": "https://dc.lft.to/lastmile_qr_scan"}, "bike_id": "aecfa346fcef24b5b9da7cca22b76ac4", "type": "electric_scooter", "lon": -77.04049483333333, "is_reserved": 0, "fusion_lat": 0.0, "fusion_lon": 0.0}, {"name": "dad5c0fa021173f7b4209160af4396a4", "is_disabled": 0, "lat": 38.902271999999996, "rental_uris": {"ios": "https://dc.lft.to/lastmile_qr_scan", "android": "https://dc.lft.to/lastmile_qr_scan"}, "bike_id": "dad5c0fa021173f7b4209160af4396a4", "type": "electric_scooter", "lon": -77.02181183333333, "is_reserved": 0, "fusion_lat": 0.0, "fusion_lon": 0.0}, {"name": "8ca0ecb48b2d55fa9e6fbfc3220cfda3", "is_disabled": 0, "lat": 38.932249166666665, "rental_uris": {"ios": "https://dc.lft.to/lastmile_qr_scan", "android": "https://dc.lft.to/lastmile_qr_scan"}, "bike_id": "8ca0ecb48b2d55fa9e6fbfc3220cfda3", "type": "electric_scooter", "lon": -76.99493083333333, "is_reserved": 0, "fusion_lat": 0.0, "fusion_lon": 0.0}, {"name": "6cd75c171661544590a95b58745f4de5", "is_disabled": 0, "lat": 38.90532666666667, "rental_uris": {"ios": "https://dc.lft.to/lastmile_qr_scan", "android": "https://dc.lft.to/lastmile_qr_scan"}, "bike_id": "6cd75c171661544590a95b58745f4de5", "type": "electric_scooter", "lon": -77.04955333333334, "is_reserved": 0, "fusion_lat": 0.0, "fusion_lon": 0.0}, {"name": "aaa99d0444f944ea8be413d97ddd9bf9", "is_disabled": 0, "lat": 38.973671, "rental_uris": {"ios": "https://dc.lft.to/lastmile_qr_scan", "android": "https://dc.lft.to/lastmile_qr_scan"}, "bike_id": "aaa99d0444f944ea8be413d97ddd9bf9", "type": "electric_scooter", "lon": -77.01852883333333, "is_reserved": 0, "fusion_lat": 0.0, "fusion_lon": 0.0}, {"name": "84dc536de8bcdbfb7b7429c8cc7b0f70", "is_disabled": 0, "lat": 38.90556683333333, "rental_uris": {"ios": "https://dc.lft.to/lastmile_qr_scan", "android": "https://dc.lft.to/lastmile_qr_scan"}, "bike_id": "84dc536de8bcdbfb7b7429c8cc7b0f70", "type": "electric_scooter", "lon": -77.00536333333334, "is_reserved": 0, "fusion_lat": 0.0, "fusion_lon": 0.0}, {"name": "eed44e9a7fe14ce038fa252f42a5cedf", "is_disabled": 0, "lat": 38.92160966666667, "rental_uris": {"ios": "https://dc.lft.to/lastmile_qr_scan", "android": "https://dc.lft.to/lastmile_qr_scan"}, "bike_id": "eed44e9a7fe14ce038fa252f42a5cedf", "type": "electric_scooter", "lon": -77.04356633333333, "is_reserved": 0, "fusion_lat": 0.0, "fusion_lon": 0.0}, {"name": "92f6994f646f49fdaecdea30f0aba9dd", "is_disabled": 0, "lat": 38.912193333333335, "rental_uris": {"ios": "https://dc.lft.to/lastmile_qr_scan", "android": "https://dc.lft.to/lastmile_qr_scan"}, "bike_id": "92f6994f646f49fdaecdea30f0aba9dd", "type": "electric_scooter", "lon": -77.03204266666667, "is_reserved": 0, "fusion_lat": 0.0, "fusion_lon": 0.0}, {"name": "3df19c2e3eb5d1fdee670cc02a28014d", "is_disabled": 0, "lat": 38.92579466666667, "rental_uris": {"ios": "https://dc.lft.to/lastmile_qr_scan", "android": "https://dc.lft.to/lastmile_qr_scan"}, "bike_id": "3df19c2e3eb5d1fdee670cc02a28014d", "type": "electric_scooter", "lon": -77.05291833333334, "is_reserved": 0, "fusion_lat": 0.0, "fusion_lon": 0.0}, {"name": "d6d9cd77b4e60ae6f9faef72a9c8b2da", "is_disabled": 0, "lat": 38.91484883333333, "rental_uris": {"ios": "https://dc.lft.to/lastmile_qr_scan", "android": "https://dc.lft.to/lastmile_qr_scan"}, "bike_id": "d6d9cd77b4e60ae6f9faef72a9c8b2da", "type": "electric_scooter", "lon": -77.04247466666666, "is_reserved": 0, "fusion_lat": 0.0, "fusion_lon": 0.0}, {"name": "f1ad7f5d1f225052ff743f93d8cbff05", "is_disabled": 0, "lat": 38.91237816666667, "rental_uris": {"ios": "https://dc.lft.to/lastmile_qr_scan", "android": "https://dc.lft.to/lastmile_qr_scan"}, "bike_id": "f1ad7f5d1f225052ff743f93d8cbff05", "type": "electric_scooter", "lon": -77.0488555, "is_reserved": 0, "fusion_lat": 0.0, "fusion_lon": 0.0}, {"name": "7bc88df06cb6dd0843f25eba1375e4dd", "is_disabled": 0, "lat": 39.070554666666666, "rental_uris": {"ios": "https://dc.lft.to/lastmile_qr_scan", "android": "https://dc.lft.to/lastmile_qr_scan"}, "bike_id": "7bc88df06cb6dd0843f25eba1375e4dd", "type": "electric_bike", "lon": -77.11514633333333, "is_reserved": 0, "fusion_lat": 0.0, "fusion_lon": 0.0}, {"name": "50059013af446441989848802dde5c6d", "is_disabled": 0, "lat": 38.905066833333336, "rental_uris": {"ios": "https://dc.lft.to/lastmile_qr_scan", "android": "https://dc.lft.to/lastmile_qr_scan"}, "bike_id": "50059013af446441989848802dde5c6d", "type": "electric_scooter", "lon": -77.06355083333334, "is_reserved": 0, "fusion_lat": 0.0, "fusion_lon": 0.0}, {"name": "de221e5a39d2e1e739501ddf67f80898", "is_disabled": 0, "lat": 38.90577316666667, "rental_uris": {"ios": "https://dc.lft.to/lastmile_qr_scan", "android": "https://dc.lft.to/lastmile_qr_scan"}, "bike_id": "de221e5a39d2e1e739501ddf67f80898", "type": "electric_scooter", "lon": -77.008858, "is_reserved": 0, "fusion_lat": 0.0, "fusion_lon": 0.0}, {"name": "cdbad6c009ccba668b4af701f60a3bc4", "is_disabled": 0, "lat": 38.92462166666667, "rental_uris": {"ios": "https://dc.lft.to/lastmile_qr_scan", "android": "https://dc.lft.to/lastmile_qr_scan"}, "bike_id": "cdbad6c009ccba668b4af701f60a3bc4", "type": "electric_scooter", "lon": -77.02216266666667, "is_reserved": 0, "fusion_lat": 0.0, "fusion_lon": 0.0}, {"name": "356c43bf951151999d4cc3c4e96c8119", "is_disabled": 0, "lat": 38.915793666666666, "rental_uris": {"ios": "https://dc.lft.to/lastmile_qr_scan", "android": "https://dc.lft.to/lastmile_qr_scan"}, "bike_id": "356c43bf951151999d4cc3c4e96c8119", "type": "electric_scooter", "lon": -77.01233516666667, "is_reserved": 0, "fusion_lat": 0.0, "fusion_lon": 0.0}, {"name": "10a2740d9a70b4ade456182ac7d1794b", "is_disabled": 0, "lat": 38.932393166666664, "rental_uris": {"ios": "https://dc.lft.to/lastmile_qr_scan", "android": "https://dc.lft.to/lastmile_qr_scan"}, "bike_id": "10a2740d9a70b4ade456182ac7d1794b", "type": "electric_scooter", "lon": -76.99523866666667, "is_reserved": 0, "fusion_lat": 0.0, "fusion_lon": 0.0}, {"name": "fa2cf170c774b1123df325773c5a75b1", "is_disabled": 0, "lat": 38.8995065, "rental_uris": {"ios": "https://dc.lft.to/lastmile_qr_scan", "android": "https://dc.lft.to/lastmile_qr_scan"}, "bike_id": "fa2cf170c774b1123df325773c5a75b1", "type": "electric_scooter", "lon": -77.01393766666666, "is_reserved": 0, "fusion_lat": 0.0, "fusion_lon": 0.0}, {"name": "38b145d19e1225cc435f850bf07f17bb", "is_disabled": 0, "lat": 38.90549333333333, "rental_uris": {"ios": "https://dc.lft.to/lastmile_qr_scan", "android": "https://dc.lft.to/lastmile_qr_scan"}, "bike_id": "38b145d19e1225cc435f850bf07f17bb", "type": "electric_scooter", "lon": -77.00597616666667, "is_reserved": 0, "fusion_lat": 0.0, "fusion_lon": 0.0}, {"name": "9da5fe8c275ac14af74334febaed3afe", "is_disabled": 0, "lat": 38.906652666666666, "rental_uris": {"ios": "https://dc.lft.to/lastmile_qr_scan", "android": "https://dc.lft.to/lastmile_qr_scan"}, "bike_id": "9da5fe8c275ac14af74334febaed3afe", "type": "electric_scooter", "lon": -77.0269865, "is_reserved": 0, "fusion_lat": 0.0, "fusion_lon": 0.0}, {"name": "749d8ea87bdfc4723b8ed97658fe6ab4", "is_disabled": 0, "lat": 38.901928833333336, "rental_uris": {"ios": "https://dc.lft.to/lastmile_qr_scan", "android": "https://dc.lft.to/lastmile_qr_scan"}, "bike_id": "749d8ea87bdfc4723b8ed97658fe6ab4", "type": "electric_scooter", "lon": -77.02376016666666, "is_reserved": 0, "fusion_lat": 0.0, "fusion_lon": 0.0}, {"name": "47a5dd4187d59f1181897d56136a3225", "is_disabled": 0, "lat": 38.92022383333333, "rental_uris": {"ios": "https://dc.lft.to/lastmile_qr_scan", "android": "https://dc.lft.to/lastmile_qr_scan"}, "bike_id": "47a5dd4187d59f1181897d56136a3225", "type": "electric_scooter", "lon": -76.99567083333334, "is_reserved": 0, "fusion_lat": 0.0, "fusion_lon": 0.0}, {"name": "1d61eb52f0e95acc9e530d949db4db26", "is_disabled": 0, "lat": 38.923870666666666, "rental_uris": {"ios": "https://dc.lft.to/lastmile_qr_scan", "android": "https://dc.lft.to/lastmile_qr_scan"}, "bike_id": "1d61eb52f0e95acc9e530d949db4db26", "type": "electric_scooter", "lon": -77.02731966666667, "is_reserved": 0, "fusion_lat": 0.0, "fusion_lon": 0.0}, {"name": "124b1387ab101131caf11cc0f7b46582", "is_disabled": 0, "lat": 38.9009415, "rental_uris": {"ios": "https://dc.lft.to/lastmile_qr_scan", "android": "https://dc.lft.to/lastmile_qr_scan"}, "bike_id": "124b1387ab101131caf11cc0f7b46582", "type": "electric_scooter", "lon": -77.0569385, "is_reserved": 0, "fusion_lat": 0.0, "fusion_lon": 0.0}, {"name": "2d413185bb3abc466c4199cc3480524d", "is_disabled": 0, "lat": 38.931723833333336, "rental_uris": {"ios": "https://dc.lft.to/lastmile_qr_scan", "android": "https://dc.lft.to/lastmile_qr_scan"}, "bike_id": "2d413185bb3abc466c4199cc3480524d", "type": "electric_scooter", "lon": -77.05650383333334, "is_reserved": 0, "fusion_lat": 0.0, "fusion_lon": 0.0}, {"name": "30154683881cf8fbf233b71e88324548", "is_disabled": 0, "lat": 38.9249785, "rental_uris": {"ios": "https://dc.lft.to/lastmile_qr_scan", "android": "https://dc.lft.to/lastmile_qr_scan"}, "bike_id": "30154683881cf8fbf233b71e88324548", "type": "electric_bike", "lon": -77.23330366666667, "is_reserved": 0, "fusion_lat": 0.0, "fusion_lon": 0.0}, {"name": "a8fd686e9c7738a9c40c838f8202d6b9", "is_disabled": 0, "lat": 38.908803, "rental_uris": {"ios": "https://dc.lft.to/lastmile_qr_scan", "android": "https://dc.lft.to/lastmile_qr_scan"}, "bike_id": "a8fd686e9c7738a9c40c838f8202d6b9", "type": "electric_scooter", "lon": -77.07533816666667, "is_reserved": 0, "fusion_lat": 0.0, "fusion_lon": 0.0}, {"name": "cf8964c8b8399108457b165f5b774593", "is_disabled": 0, "lat": 38.907353, "rental_uris": {"ios": "https://dc.lft.to/lastmile_qr_scan", "android": "https://dc.lft.to/lastmile_qr_scan"}, "bike_id": "cf8964c8b8399108457b165f5b774593", "type": "electric_scooter", "lon": -77.02952933333333, "is_reserved": 0, "fusion_lat": 0.0, "fusion_lon": 0.0}, {"name": "1fa4731dd4fbf51600de5849293fa269", "is_disabled": 0, "lat": 38.91029266666666, "rental_uris": {"ios": "https://dc.lft.to/lastmile_qr_scan", "android": "https://dc.lft.to/lastmile_qr_scan"}, "bike_id": "1fa4731dd4fbf51600de5849293fa269", "type": "electric_scooter", "lon": -77.0425155, "is_reserved": 0, "fusion_lat": 0.0, "fusion_lon": 0.0}, {"name": "1b97aa739c0bcd9fdb49facd1fb59340", "is_disabled": 0, "lat": 38.905598499999996, "rental_uris": {"ios": "https://dc.lft.to/lastmile_qr_scan", "android": "https://dc.lft.to/lastmile_qr_scan"}, "bike_id": "1b97aa739c0bcd9fdb49facd1fb59340", "type": "electric_scooter", "lon": -76.98140066666667, "is_reserved": 0, "fusion_lat": 0.0, "fusion_lon": 0.0}, {"name": "b27a1320cb81d9c18ace7bbf8734318c", "is_disabled": 0, "lat": 38.911032, "rental_uris": {"ios": "https://dc.lft.to/lastmile_qr_scan", "android": "https://dc.lft.to/lastmile_qr_scan"}, "bike_id": "b27a1320cb81d9c18ace7bbf8734318c", "type": "electric_scooter", "lon": -77.04203766666667, "is_reserved": 0, "fusion_lat": 0.0, "fusion_lon": 0.0}, {"name": "0421654071d107aadd0c579fe5ba1f71", "is_disabled": 0, "lat": 38.909602666666665, "rental_uris": {"ios": "https://dc.lft.to/lastmile_qr_scan", "android": "https://dc.lft.to/lastmile_qr_scan"}, "bike_id": "0421654071d107aadd0c579fe5ba1f71", "type": "electric_scooter", "lon": -77.03431716666667, "is_reserved": 0, "fusion_lat": 0.0, "fusion_lon": 0.0}, {"name": "21fe0cccc8833d1aa63aea5a5c46f1b0", "is_disabled": 0, "lat": 38.90121233333333, "rental_uris": {"ios": "https://dc.lft.to/lastmile_qr_scan", "android": "https://dc.lft.to/lastmile_qr_scan"}, "bike_id": "21fe0cccc8833d1aa63aea5a5c46f1b0", "type": "electric_scooter", "lon": -77.03366116666666, "is_reserved": 0, "fusion_lat": 0.0, "fusion_lon": 0.0}, {"name": "ffc00eb41c4d36870601635f337a36f9", "is_disabled": 0, "lat": 38.910297166666666, "rental_uris": {"ios": "https://dc.lft.to/lastmile_qr_scan", "android": "https://dc.lft.to/lastmile_qr_scan"}, "bike_id": "ffc00eb41c4d36870601635f337a36f9", "type": "electric_scooter", "lon": -77.042574, "is_reserved": 0, "fusion_lat": 0.0, "fusion_lon": 0.0}, {"name": "24c5bbcfd6df2d5e09a9eb220c80437d", "is_disabled": 0, "lat": 38.87406583333333, "rental_uris": {"ios": "https://dc.lft.to/lastmile_qr_scan", "android": "https://dc.lft.to/lastmile_qr_scan"}, "bike_id": "24c5bbcfd6df2d5e09a9eb220c80437d", "type": "electric_scooter", "lon": -77.00196616666666, "is_reserved": 0, "fusion_lat": 0.0, "fusion_lon": 0.0}, {"name": "80afdc5296ebd97fb1ab3f46d44261ac", "is_disabled": 0, "lat": 38.919268, "rental_uris": {"ios": "https://dc.lft.to/lastmile_qr_scan", "android": "https://dc.lft.to/lastmile_qr_scan"}, "bike_id": "80afdc5296ebd97fb1ab3f46d44261ac", "type": "electric_scooter", "lon": -77.041704, "is_reserved": 0, "fusion_lat": 0.0, "fusion_lon": 0.0}, {"name": "8a2be17842baed1f4809977601eb7d8e", "is_disabled": 0, "lat": 38.92856483333333, "rental_uris": {"ios": "https://dc.lft.to/lastmile_qr_scan", "android": "https://dc.lft.to/lastmile_qr_scan"}, "bike_id": "8a2be17842baed1f4809977601eb7d8e", "type": "electric_scooter", "lon": -77.03531566666666, "is_reserved": 0, "fusion_lat": 0.0, "fusion_lon": 0.0}, {"name": "0e0e7718fd657848f05769aebd4c17da", "is_disabled": 0, "lat": 38.90897233333333, "rental_uris": {"ios": "https://dc.lft.to/lastmile_qr_scan", "android": "https://dc.lft.to/lastmile_qr_scan"}, "bike_id": "0e0e7718fd657848f05769aebd4c17da", "type": "electric_scooter", "lon": -77.04394933333333, "is_reserved": 0, "fusion_lat": 0.0, "fusion_lon": 0.0}, {"name": "265935c65d2a2162a92e156a24ea238e", "is_disabled": 0, "lat": 38.887307, "rental_uris": {"ios": "https://dc.lft.to/lastmile_qr_scan", "android": "https://dc.lft.to/lastmile_qr_scan"}, "bike_id": "265935c65d2a2162a92e156a24ea238e", "type": "electric_scooter", "lon": -77.02384683333334, "is_reserved": 0, "fusion_lat": 0.0, "fusion_lon": 0.0}, {"name": "111acc6ad05e114f716184715d6f2f20", "is_disabled": 0, "lat": 38.918429833333334, "rental_uris": {"ios": "https://dc.lft.to/lastmile_qr_scan", "android": "https://dc.lft.to/lastmile_qr_scan"}, "bike_id": "111acc6ad05e114f716184715d6f2f20", "type": "electric_scooter", "lon": -76.96540033333333, "is_reserved": 0, "fusion_lat": 0.0, "fusion_lon": 0.0}, {"name": "2a71b40acac9f2e041e49d9195ecd622", "is_disabled": 0, "lat": 38.89894983333333, "rental_uris": {"ios": "https://dc.lft.to/lastmile_qr_scan", "android": "https://dc.lft.to/lastmile_qr_scan"}, "bike_id": "2a71b40acac9f2e041e49d9195ecd622", "type": "electric_scooter", "lon": -76.986719, "is_reserved": 0, "fusion_lat": 0.0, "fusion_lon": 0.0}, {"name": "47bee5ee625e5b8141214fb19265f447", "is_disabled": 0, "lat": 38.9021295, "rental_uris": {"ios": "https://dc.lft.to/lastmile_qr_scan", "android": "https://dc.lft.to/lastmile_qr_scan"}, "bike_id": "47bee5ee625e5b8141214fb19265f447", "type": "electric_scooter", "lon": -76.9861235, "is_reserved": 0, "fusion_lat": 0.0, "fusion_lon": 0.0}, {"name": "1bc76371e5c3046f157a6338c50340bc", "is_disabled": 0, "lat": 38.95731166666667, "rental_uris": {"ios": "https://dc.lft.to/lastmile_qr_scan", "android": "https://dc.lft.to/lastmile_qr_scan"}, "bike_id": "1bc76371e5c3046f157a6338c50340bc", "type": "electric_scooter", "lon": -77.024086, "is_reserved": 0, "fusion_lat": 0.0, "fusion_lon": 0.0}, {"name": "791de9fe0482e127c375e35b101e4a12", "is_disabled": 0, "lat": 38.9212815, "rental_uris": {"ios": "https://dc.lft.to/lastmile_qr_scan", "android": "https://dc.lft.to/lastmile_qr_scan"}, "bike_id": "791de9fe0482e127c375e35b101e4a12", "type": "electric_scooter", "lon": -77.042114, "is_reserved": 0, "fusion_lat": 0.0, "fusion_lon": 0.0}, {"name": "dfe4455e8d3cbfa7d79dddb76cd0eafc", "is_disabled": 0, "lat": 38.90581866666667, "rental_uris": {"ios": "https://dc.lft.to/lastmile_qr_scan", "android": "https://dc.lft.to/lastmile_qr_scan"}, "bike_id": "dfe4455e8d3cbfa7d79dddb76cd0eafc", "type": "electric_scooter", "lon": -77.00589733333334, "is_reserved": 0, "fusion_lat": 0.0, "fusion_lon": 0.0}, {"name": "bfabf05fa59b13d32c98ef6009f4503e", "is_disabled": 0, "lat": 38.917925833333335, "rental_uris": {"ios": "https://dc.lft.to/lastmile_qr_scan", "android": "https://dc.lft.to/lastmile_qr_scan"}, "bike_id": "bfabf05fa59b13d32c98ef6009f4503e", "type": "electric_scooter", "lon": -77.04166983333333, "is_reserved": 0, "fusion_lat": 0.0, "fusion_lon": 0.0}, {"name": "8b6a00600e07aae93b2bc995b55d3438", "is_disabled": 0, "lat": 38.918042666666665, "rental_uris": {"ios": "https://dc.lft.to/lastmile_qr_scan", "android": "https://dc.lft.to/lastmile_qr_scan"}, "bike_id": "8b6a00600e07aae93b2bc995b55d3438", "type": "electric_scooter", "lon": -77.02498216666666, "is_reserved": 0, "fusion_lat": 0.0, "fusion_lon": 0.0}, {"name": "d96a79a95307226f83ea6ec7bbc59954", "is_disabled": 0, "lat": 38.930394, "rental_uris": {"ios": "https://dc.lft.to/lastmile_qr_scan", "android": "https://dc.lft.to/lastmile_qr_scan"}, "bike_id": "d96a79a95307226f83ea6ec7bbc59954", "type": "electric_scooter", "lon": -77.03225766666667, "is_reserved": 0, "fusion_lat": 0.0, "fusion_lon": 0.0}, {"name": "2f2d3579b034a2563f028db29d5a0d23", "is_disabled": 0, "lat": 38.8705855, "rental_uris": {"ios": "https://dc.lft.to/lastmile_qr_scan", "android": "https://dc.lft.to/lastmile_qr_scan"}, "bike_id": "2f2d3579b034a2563f028db29d5a0d23", "type": "electric_bike", "lon": -77.0136475, "is_reserved": 0, "fusion_lat": 0.0, "fusion_lon": 0.0}, {"name": "65a082dc43f89b37f269c9880ceab0ae", "is_disabled": 0, "lat": 38.925992666666666, "rental_uris": {"ios": "https://dc.lft.to/lastmile_qr_scan", "android": "https://dc.lft.to/lastmile_qr_scan"}, "bike_id": "65a082dc43f89b37f269c9880ceab0ae", "type": "electric_scooter", "lon": -77.02393683333334, "is_reserved": 0, "fusion_lat": 0.0, "fusion_lon": 0.0}, {"name": "ce41642e4f9bdad57871e1986b1bcaa7", "is_disabled": 0, "lat": 38.9262125, "rental_uris": {"ios": "https://dc.lft.to/lastmile_qr_scan", "android": "https://dc.lft.to/lastmile_qr_scan"}, "bike_id": "ce41642e4f9bdad57871e1986b1bcaa7", "type": "electric_scooter", "lon": -77.0419335, "is_reserved": 0, "fusion_lat": 0.0, "fusion_lon": 0.0}, {"name": "00a5a079d55220500925f3e341f76a3c", "is_disabled": 0, "lat": 38.878464666666666, "rental_uris": {"ios": "https://dc.lft.to/lastmile_qr_scan", "android": "https://dc.lft.to/lastmile_qr_scan"}, "bike_id": "00a5a079d55220500925f3e341f76a3c", "type": "electric_scooter", "lon": -77.00633116666667, "is_reserved": 0, "fusion_lat": 0.0, "fusion_lon": 0.0}, {"name": "b072b33c8b5b71b986905e9324a8cea6", "is_disabled": 0, "lat": 38.89616433333333, "rental_uris": {"ios": "https://dc.lft.to/lastmile_qr_scan", "android": "https://dc.lft.to/lastmile_qr_scan"}, "bike_id": "b072b33c8b5b71b986905e9324a8cea6", "type": "electric_scooter", "lon": -76.98572383333334, "is_reserved": 0, "fusion_lat": 0.0, "fusion_lon": 0.0}, {"name": "8f270f9f2854a0c7947beaf1b54f851b", "is_disabled": 0, "lat": 38.928783333333335, "rental_uris": {"ios": "https://dc.lft.to/lastmile_qr_scan", "android": "https://dc.lft.to/lastmile_qr_scan"}, "bike_id": "8f270f9f2854a0c7947beaf1b54f851b", "type": "electric_scooter", "lon": -77.03355083333334, "is_reserved": 0, "fusion_lat": 0.0, "fusion_lon": 0.0}, {"name": "b21d9f4f1aca75619612dda474e42e61", "is_disabled": 0, "lat": 38.9564125, "rental_uris": {"ios": "https://dc.lft.to/lastmile_qr_scan", "android": "https://dc.lft.to/lastmile_qr_scan"}, "bike_id": "b21d9f4f1aca75619612dda474e42e61", "type": "electric_scooter", "lon": -77.00991716666667, "is_reserved": 0, "fusion_lat": 0.0, "fusion_lon": 0.0}, {"name": "8623850babeea2746629c388436f9c99", "is_disabled": 0, "lat": 38.887459666666665, "rental_uris": {"ios": "https://dc.lft.to/lastmile_qr_scan", "android": "https://dc.lft.to/lastmile_qr_scan"}, "bike_id": "8623850babeea2746629c388436f9c99", "type": "electric_scooter", "lon": -77.01779316666666, "is_reserved": 0, "fusion_lat": 0.0, "fusion_lon": 0.0}, {"name": "af6074a54de23c5bb787431cb57cef4a", "is_disabled": 0, "lat": 38.898228, "rental_uris": {"ios": "https://dc.lft.to/lastmile_qr_scan", "android": "https://dc.lft.to/lastmile_qr_scan"}, "bike_id": "af6074a54de23c5bb787431cb57cef4a", "type": "electric_scooter", "lon": -77.02789966666667, "is_reserved": 0, "fusion_lat": 0.0, "fusion_lon": 0.0}, {"name": "fce016044bb32c74815652f2e30a2e4f", "is_disabled": 0, "lat": 38.903171, "rental_uris": {"ios": "https://dc.lft.to/lastmile_qr_scan", "android": "https://dc.lft.to/lastmile_qr_scan"}, "bike_id": "fce016044bb32c74815652f2e30a2e4f", "type": "electric_scooter", "lon": -77.02452666666667, "is_reserved": 0, "fusion_lat": 0.0, "fusion_lon": 0.0}, {"name": "862a7c4ddbfce92f027506f348b61532", "is_disabled": 0, "lat": 38.90810666666667, "rental_uris": {"ios": "https://dc.lft.to/lastmile_qr_scan", "android": "https://dc.lft.to/lastmile_qr_scan"}, "bike_id": "862a7c4ddbfce92f027506f348b61532", "type": "electric_scooter", "lon": -77.04337333333334, "is_reserved": 0, "fusion_lat": 0.0, "fusion_lon": 0.0}, {"name": "f14df6ae9b39fb3c6a8cb4c4ccb18a71", "is_disabled": 0, "lat": 38.902733166666664, "rental_uris": {"ios": "https://dc.lft.to/lastmile_qr_scan", "android": "https://dc.lft.to/lastmile_qr_scan"}, "bike_id": "f14df6ae9b39fb3c6a8cb4c4ccb18a71", "type": "electric_scooter", "lon": -77.01858533333333, "is_reserved": 0, "fusion_lat": 0.0, "fusion_lon": 0.0}, {"name": "74319b6f5420f6f85881d3efc550ae21", "is_disabled": 0, "lat": 38.90125233333333, "rental_uris": {"ios": "https://dc.lft.to/lastmile_qr_scan", "android": "https://dc.lft.to/lastmile_qr_scan"}, "bike_id": "74319b6f5420f6f85881d3efc550ae21", "type": "electric_scooter", "lon": -77.045991, "is_reserved": 0, "fusion_lat": 0.0, "fusion_lon": 0.0}, {"name": "b8022abd3f92eed2471e94410e491509", "is_disabled": 0, "lat": 38.892258, "rental_uris": {"ios": "https://dc.lft.to/lastmile_qr_scan", "android": "https://dc.lft.to/lastmile_qr_scan"}, "bike_id": "b8022abd3f92eed2471e94410e491509", "type": "electric_scooter", "lon": -77.043234, "is_reserved": 0, "fusion_lat": 0.0, "fusion_lon": 0.0}, {"name": "980a54dfbb5c8b119214423329ea22e1", "is_disabled": 0, "lat": 38.890433333333334, "rental_uris": {"ios": "https://dc.lft.to/lastmile_qr_scan", "android": "https://dc.lft.to/lastmile_qr_scan"}, "bike_id": "980a54dfbb5c8b119214423329ea22e1", "type": "electric_scooter", "lon": -77.01510066666667, "is_reserved": 0, "fusion_lat": 0.0, "fusion_lon": 0.0}, {"name": "cd13ef9af6f706ea6d1c0b81a4bba157", "is_disabled": 0, "lat": 38.83514483333333, "rental_uris": {"ios": "https://dc.lft.to/lastmile_qr_scan", "android": "https://dc.lft.to/lastmile_qr_scan"}, "bike_id": "cd13ef9af6f706ea6d1c0b81a4bba157", "type": "electric_bike", "lon": -76.98678866666667, "is_reserved": 0, "fusion_lat": 0.0, "fusion_lon": 0.0}, {"name": "1d5ad4297887da4718592cd003a64ba7", "is_disabled": 0, "lat": 38.9081835, "rental_uris": {"ios": "https://dc.lft.to/lastmile_qr_scan", "android": "https://dc.lft.to/lastmile_qr_scan"}, "bike_id": "1d5ad4297887da4718592cd003a64ba7", "type": "electric_scooter", "lon": -76.93473366666667, "is_reserved": 0, "fusion_lat": 0.0, "fusion_lon": 0.0}, {"name": "dbcdea3cd28d8e61a4c1e266cff0d50f", "is_disabled": 0, "lat": 38.8900585, "rental_uris": {"ios": "https://dc.lft.to/lastmile_qr_scan", "android": "https://dc.lft.to/lastmile_qr_scan"}, "bike_id": "dbcdea3cd28d8e61a4c1e266cff0d50f", "type": "electric_scooter", "lon": -76.937017, "is_reserved": 0, "fusion_lat": 0.0, "fusion_lon": 0.0}, {"name": "974bec2e42a21fcafe88d5d8ed149bdf", "is_disabled": 0, "lat": 38.94270216666666, "rental_uris": {"ios": "https://dc.lft.to/lastmile_qr_scan", "android": "https://dc.lft.to/lastmile_qr_scan"}, "bike_id": "974bec2e42a21fcafe88d5d8ed149bdf", "type": "electric_scooter", "lon": -77.032589, "is_reserved": 0, "fusion_lat": 0.0, "fusion_lon": 0.0}, {"name": "1e732c4c4e72690c2003cc5c671761c1", "is_disabled": 0, "lat": 38.9140465, "rental_uris": {"ios": "https://dc.lft.to/lastmile_qr_scan", "android": "https://dc.lft.to/lastmile_qr_scan"}, "bike_id": "1e732c4c4e72690c2003cc5c671761c1", "type": "electric_scooter", "lon": -77.0298575, "is_reserved": 0, "fusion_lat": 0.0, "fusion_lon": 0.0}, {"name": "4657ded485a1777181a833d64ac8b6a9", "is_disabled": 0, "lat": 38.88999466666667, "rental_uris": {"ios": "https://dc.lft.to/lastmile_qr_scan", "android": "https://dc.lft.to/lastmile_qr_scan"}, "bike_id": "4657ded485a1777181a833d64ac8b6a9", "type": "electric_scooter", "lon": -76.95434133333333, "is_reserved": 0, "fusion_lat": 0.0, "fusion_lon": 0.0}, {"name": "3d2e0d9966e0c299834c21b158b86058", "is_disabled": 0, "lat": 38.877934833333335, "rental_uris": {"ios": "https://dc.lft.to/lastmile_qr_scan", "android": "https://dc.lft.to/lastmile_qr_scan"}, "bike_id": "3d2e0d9966e0c299834c21b158b86058", "type": "electric_scooter", "lon": -76.99937683333333, "is_reserved": 0, "fusion_lat": 0.0, "fusion_lon": 0.0}, {"name": "3aef59196a58960b7bde9371f3b72631", "is_disabled": 0, "lat": 38.93980583333333, "rental_uris": {"ios": "https://dc.lft.to/lastmile_qr_scan", "android": "https://dc.lft.to/lastmile_qr_scan"}, "bike_id": "3aef59196a58960b7bde9371f3b72631", "type": "electric_scooter", "lon": -77.02865133333333, "is_reserved": 0, "fusion_lat": 0.0, "fusion_lon": 0.0}, {"name": "4e4e4220328a17cb1dcc074b594c6db5", "is_disabled": 0, "lat": 38.88729433333334, "rental_uris": {"ios": "https://dc.lft.to/lastmile_qr_scan", "android": "https://dc.lft.to/lastmile_qr_scan"}, "bike_id": "4e4e4220328a17cb1dcc074b594c6db5", "type": "electric_scooter", "lon": -77.031828, "is_reserved": 0, "fusion_lat": 0.0, "fusion_lon": 0.0}, {"name": "1f88dee867f5b333b028621bbfe0c853", "is_disabled": 0, "lat": 38.887695666666666, "rental_uris": {"ios": "https://dc.lft.to/lastmile_qr_scan", "android": "https://dc.lft.to/lastmile_qr_scan"}, "bike_id": "1f88dee867f5b333b028621bbfe0c853", "type": "electric_scooter", "lon": -76.99161383333333, "is_reserved": 0, "fusion_lat": 0.0, "fusion_lon": 0.0}, {"name": "66258b08dc928314c64e6f44635d1de3", "is_disabled": 0, "lat": 38.91548483333333, "rental_uris": {"ios": "https://dc.lft.to/lastmile_qr_scan", "android": "https://dc.lft.to/lastmile_qr_scan"}, "bike_id": "66258b08dc928314c64e6f44635d1de3", "type": "electric_scooter", "lon": -77.03180583333334, "is_reserved": 0, "fusion_lat": 0.0, "fusion_lon": 0.0}, {"name": "53d56c50efbd783afdf7d6fdee440805", "is_disabled": 0, "lat": 38.92343283333334, "rental_uris": {"ios": "https://dc.lft.to/lastmile_qr_scan", "android": "https://dc.lft.to/lastmile_qr_scan"}, "bike_id": "53d56c50efbd783afdf7d6fdee440805", "type": "electric_scooter", "lon": -77.05170266666667, "is_reserved": 0, "fusion_lat": 0.0, "fusion_lon": 0.0}, {"name": "2f135e660ba838ef8f7e4045f349dec8", "is_disabled": 0, "lat": 38.923426666666664, "rental_uris": {"ios": "https://dc.lft.to/lastmile_qr_scan", "android": "https://dc.lft.to/lastmile_qr_scan"}, "bike_id": "2f135e660ba838ef8f7e4045f349dec8", "type": "electric_scooter", "lon": -77.00308183333334, "is_reserved": 0, "fusion_lat": 0.0, "fusion_lon": 0.0}, {"name": "fc50108e12112f691d0443c4c9a4a8cd", "is_disabled": 0, "lat": 38.97879316666667, "rental_uris": {"ios": "https://dc.lft.to/lastmile_qr_scan", "android": "https://dc.lft.to/lastmile_qr_scan"}, "bike_id": "fc50108e12112f691d0443c4c9a4a8cd", "type": "electric_bike", "lon": -77.060329, "is_reserved": 0, "fusion_lat": 0.0, "fusion_lon": 0.0}, {"name": "bcc2c25dcc5d5ca3fe4330c79b534bab", "is_disabled": 0, "lat": 38.877621500000004, "rental_uris": {"ios": "https://dc.lft.to/lastmile_qr_scan", "android": "https://dc.lft.to/lastmile_qr_scan"}, "bike_id": "bcc2c25dcc5d5ca3fe4330c79b534bab", "type": "electric_bike", "lon": -77.01050966666666, "is_reserved": 0, "fusion_lat": 0.0, "fusion_lon": 0.0}, {"name": "814ba155fee2de1eee64a3c418d9c1e8", "is_disabled": 0, "lat": 38.90201916666667, "rental_uris": {"ios": "https://dc.lft.to/lastmile_qr_scan", "android": "https://dc.lft.to/lastmile_qr_scan"}, "bike_id": "814ba155fee2de1eee64a3c418d9c1e8", "type": "electric_scooter", "lon": -77.022164, "is_reserved": 0, "fusion_lat": 0.0, "fusion_lon": 0.0}, {"name": "13dcdb487ce87fe827af68fbce61f89e", "is_disabled": 0, "lat": 38.957512333333334, "rental_uris": {"ios": "https://dc.lft.to/lastmile_qr_scan", "android": "https://dc.lft.to/lastmile_qr_scan"}, "bike_id": "13dcdb487ce87fe827af68fbce61f89e", "type": "electric_bike", "lon": -77.0218535, "is_reserved": 0, "fusion_lat": 0.0, "fusion_lon": 0.0}, {"name": "bc7e7c27cd4fd63f76b6d052cd8c1c71", "is_disabled": 0, "lat": 38.917032166666665, "rental_uris": {"ios": "https://dc.lft.to/lastmile_qr_scan", "android": "https://dc.lft.to/lastmile_qr_scan"}, "bike_id": "bc7e7c27cd4fd63f76b6d052cd8c1c71", "type": "electric_scooter", "lon": -77.02861583333333, "is_reserved": 0, "fusion_lat": 0.0, "fusion_lon": 0.0}, {"name": "c176a57e2a075013181e078002dbdea2", "is_disabled": 0, "lat": 38.90185533333333, "rental_uris": {"ios": "https://dc.lft.to/lastmile_qr_scan", "android": "https://dc.lft.to/lastmile_qr_scan"}, "bike_id": "c176a57e2a075013181e078002dbdea2", "type": "electric_scooter", "lon": -77.05061033333334, "is_reserved": 0, "fusion_lat": 0.0, "fusion_lon": 0.0}, {"name": "238ba3a2916be742bad485cafe2a839c", "is_disabled": 0, "lat": 38.9043, "rental_uris": {"ios": "https://dc.lft.to/lastmile_qr_scan", "android": "https://dc.lft.to/lastmile_qr_scan"}, "bike_id": "238ba3a2916be742bad485cafe2a839c", "type": "electric_scooter", "lon": -77.03220766666666, "is_reserved": 0, "fusion_lat": 0.0, "fusion_lon": 0.0}, {"name": "3be2628e3b9b3e1255861443afcb7849", "is_disabled": 0, "lat": 38.89907133333333, "rental_uris": {"ios": "https://dc.lft.to/lastmile_qr_scan", "android": "https://dc.lft.to/lastmile_qr_scan"}, "bike_id": "3be2628e3b9b3e1255861443afcb7849", "type": "electric_scooter", "lon": -77.03931183333333, "is_reserved": 0, "fusion_lat": 0.0, "fusion_lon": 0.0}, {"name": "49d7b9c0e0fbb2cc26cc193ceece3eb7", "is_disabled": 0, "lat": 38.928624666666664, "rental_uris": {"ios": "https://dc.lft.to/lastmile_qr_scan", "android": "https://dc.lft.to/lastmile_qr_scan"}, "bike_id": "49d7b9c0e0fbb2cc26cc193ceece3eb7", "type": "electric_scooter", "lon": -77.03717283333333, "is_reserved": 0, "fusion_lat": 0.0, "fusion_lon": 0.0}, {"name": "ae3be86fc60780198c28d04e61b3f78b", "is_disabled": 0, "lat": 38.91806183333333, "rental_uris": {"ios": "https://dc.lft.to/lastmile_qr_scan", "android": "https://dc.lft.to/lastmile_qr_scan"}, "bike_id": "ae3be86fc60780198c28d04e61b3f78b", "type": "electric_scooter", "lon": -77.02495366666666, "is_reserved": 0, "fusion_lat": 0.0, "fusion_lon": 0.0}, {"name": "f63b70b61c71f201f88d8ed2ced648e1", "is_disabled": 0, "lat": 38.93710983333333, "rental_uris": {"ios": "https://dc.lft.to/lastmile_qr_scan", "android": "https://dc.lft.to/lastmile_qr_scan"}, "bike_id": "f63b70b61c71f201f88d8ed2ced648e1", "type": "electric_scooter", "lon": -77.02424316666666, "is_reserved": 0, "fusion_lat": 0.0, "fusion_lon": 0.0}, {"name": "7d5e23f206c0e4498f26264879cdc1da", "is_disabled": 0, "lat": 38.91114816666666, "rental_uris": {"ios": "https://dc.lft.to/lastmile_qr_scan", "android": "https://dc.lft.to/lastmile_qr_scan"}, "bike_id": "7d5e23f206c0e4498f26264879cdc1da", "type": "electric_scooter", "lon": -77.04461883333333, "is_reserved": 0, "fusion_lat": 0.0, "fusion_lon": 0.0}, {"name": "81be02f1e82d565ca22423535197af34", "is_disabled": 0, "lat": 38.87307116666667, "rental_uris": {"ios": "https://dc.lft.to/lastmile_qr_scan", "android": "https://dc.lft.to/lastmile_qr_scan"}, "bike_id": "81be02f1e82d565ca22423535197af34", "type": "electric_scooter", "lon": -77.0013695, "is_reserved": 0, "fusion_lat": 0.0, "fusion_lon": 0.0}, {"name": "309481ddb5eb1e586bf7ea4509be0212", "is_disabled": 0, "lat": 38.94185, "rental_uris": {"ios": "https://dc.lft.to/lastmile_qr_scan", "android": "https://dc.lft.to/lastmile_qr_scan"}, "bike_id": "309481ddb5eb1e586bf7ea4509be0212", "type": "electric_scooter", "lon": -77.02489933333334, "is_reserved": 0, "fusion_lat": 0.0, "fusion_lon": 0.0}, {"name": "8ef4cb247efff4f0784c54b1f2eee5fd", "is_disabled": 0, "lat": 38.91690666666667, "rental_uris": {"ios": "https://dc.lft.to/lastmile_qr_scan", "android": "https://dc.lft.to/lastmile_qr_scan"}, "bike_id": "8ef4cb247efff4f0784c54b1f2eee5fd", "type": "electric_scooter", "lon": -77.02602683333333, "is_reserved": 0, "fusion_lat": 0.0, "fusion_lon": 0.0}, {"name": "48d190d11ad8b63cb171bd7d2b7ece75", "is_disabled": 0, "lat": 38.90837666666667, "rental_uris": {"ios": "https://dc.lft.to/lastmile_qr_scan", "android": "https://dc.lft.to/lastmile_qr_scan"}, "bike_id": "48d190d11ad8b63cb171bd7d2b7ece75", "type": "electric_scooter", "lon": -77.04013083333334, "is_reserved": 0, "fusion_lat": 0.0, "fusion_lon": 0.0}, {"name": "134ffaaf7b259efa49c6e5eed27cb01d", "is_disabled": 0, "lat": 38.933494, "rental_uris": {"ios": "https://dc.lft.to/lastmile_qr_scan", "android": "https://dc.lft.to/lastmile_qr_scan"}, "bike_id": "134ffaaf7b259efa49c6e5eed27cb01d", "type": "electric_scooter", "lon": -77.06197983333334, "is_reserved": 0, "fusion_lat": 0.0, "fusion_lon": 0.0}, {"name": "7daeae367827960376bdef4c76301f56", "is_disabled": 0, "lat": 38.887263833333336, "rental_uris": {"ios": "https://dc.lft.to/lastmile_qr_scan", "android": "https://dc.lft.to/lastmile_qr_scan"}, "bike_id": "7daeae367827960376bdef4c76301f56", "type": "electric_scooter", "lon": -77.0134235, "is_reserved": 0, "fusion_lat": 0.0, "fusion_lon": 0.0}, {"name": "2a2357d743a86f6636e44e404d17b09c", "is_disabled": 0, "lat": 38.91780833333333, "rental_uris": {"ios": "https://dc.lft.to/lastmile_qr_scan", "android": "https://dc.lft.to/lastmile_qr_scan"}, "bike_id": "2a2357d743a86f6636e44e404d17b09c", "type": "electric_scooter", "lon": -77.032173, "is_reserved": 0, "fusion_lat": 0.0, "fusion_lon": 0.0}, {"name": "e376b4655b8036b0783d8eca05ff513c", "is_disabled": 0, "lat": 38.9167245, "rental_uris": {"ios": "https://dc.lft.to/lastmile_qr_scan", "android": "https://dc.lft.to/lastmile_qr_scan"}, "bike_id": "e376b4655b8036b0783d8eca05ff513c", "type": "electric_scooter", "lon": -77.023947, "is_reserved": 0, "fusion_lat": 0.0, "fusion_lon": 0.0}, {"name": "b5d7079caf78f211aa23423e0fc00d78", "is_disabled": 0, "lat": 38.917995166666664, "rental_uris": {"ios": "https://dc.lft.to/lastmile_qr_scan", "android": "https://dc.lft.to/lastmile_qr_scan"}, "bike_id": "b5d7079caf78f211aa23423e0fc00d78", "type": "electric_scooter", "lon": -77.03194483333333, "is_reserved": 0, "fusion_lat": 0.0, "fusion_lon": 0.0}, {"name": "2ab380499d214dabec8839efe4fb5d7d", "is_disabled": 0, "lat": 38.9220305, "rental_uris": {"ios": "https://dc.lft.to/lastmile_qr_scan", "android": "https://dc.lft.to/lastmile_qr_scan"}, "bike_id": "2ab380499d214dabec8839efe4fb5d7d", "type": "electric_scooter", "lon": -77.0419165, "is_reserved": 0, "fusion_lat": 0.0, "fusion_lon": 0.0}, {"name": "57f6b01e0e8ede77cfac5239b3e4bcf2", "is_disabled": 0, "lat": 38.9097535, "rental_uris": {"ios": "https://dc.lft.to/lastmile_qr_scan", "android": "https://dc.lft.to/lastmile_qr_scan"}, "bike_id": "57f6b01e0e8ede77cfac5239b3e4bcf2", "type": "electric_scooter", "lon": -77.0322955, "is_reserved": 0, "fusion_lat": 0.0, "fusion_lon": 0.0}, {"name": "3db0081cf51326321525cb76671adb70", "is_disabled": 0, "lat": 38.91481733333333, "rental_uris": {"ios": "https://dc.lft.to/lastmile_qr_scan", "android": "https://dc.lft.to/lastmile_qr_scan"}, "bike_id": "3db0081cf51326321525cb76671adb70", "type": "electric_scooter", "lon": -77.046122, "is_reserved": 0, "fusion_lat": 0.0, "fusion_lon": 0.0}, {"name": "80476f20248e61333848aa0c7b3041af", "is_disabled": 0, "lat": 38.92478966666667, "rental_uris": {"ios": "https://dc.lft.to/lastmile_qr_scan", "android": "https://dc.lft.to/lastmile_qr_scan"}, "bike_id": "80476f20248e61333848aa0c7b3041af", "type": "electric_scooter", "lon": -77.03558033333333, "is_reserved": 0, "fusion_lat": 0.0, "fusion_lon": 0.0}, {"name": "98273e0dd672a0819897f7f46a7c6410", "is_disabled": 0, "lat": 38.89745283333333, "rental_uris": {"ios": "https://dc.lft.to/lastmile_qr_scan", "android": "https://dc.lft.to/lastmile_qr_scan"}, "bike_id": "98273e0dd672a0819897f7f46a7c6410", "type": "electric_scooter", "lon": -77.012921, "is_reserved": 0, "fusion_lat": 0.0, "fusion_lon": 0.0}, {"name": "d85ea148e2abb3754335db36bfc3308d", "is_disabled": 0, "lat": 38.877485166666666, "rental_uris": {"ios": "https://dc.lft.to/lastmile_qr_scan", "android": "https://dc.lft.to/lastmile_qr_scan"}, "bike_id": "d85ea148e2abb3754335db36bfc3308d", "type": "electric_scooter", "lon": -77.00263683333333, "is_reserved": 0, "fusion_lat": 0.0, "fusion_lon": 0.0}, {"name": "448a02c9067e418157fa6b54db24ba4e", "is_disabled": 0, "lat": 38.892019166666664, "rental_uris": {"ios": "https://dc.lft.to/lastmile_qr_scan", "android": "https://dc.lft.to/lastmile_qr_scan"}, "bike_id": "448a02c9067e418157fa6b54db24ba4e", "type": "electric_scooter", "lon": -77.02649916666667, "is_reserved": 0, "fusion_lat": 0.0, "fusion_lon": 0.0}, {"name": "d5283cc8691d2f4e89b6fc09e5b473b5", "is_disabled": 0, "lat": 38.894934166666665, "rental_uris": {"ios": "https://dc.lft.to/lastmile_qr_scan", "android": "https://dc.lft.to/lastmile_qr_scan"}, "bike_id": "d5283cc8691d2f4e89b6fc09e5b473b5", "type": "electric_scooter", "lon": -77.00359433333334, "is_reserved": 0, "fusion_lat": 0.0, "fusion_lon": 0.0}, {"name": "961ec98516ffb3a1a5572e9864aed928", "is_disabled": 0, "lat": 38.9171325, "rental_uris": {"ios": "https://dc.lft.to/lastmile_qr_scan", "android": "https://dc.lft.to/lastmile_qr_scan"}, "bike_id": "961ec98516ffb3a1a5572e9864aed928", "type": "electric_scooter", "lon": -77.02399716666666, "is_reserved": 0, "fusion_lat": 0.0, "fusion_lon": 0.0}, {"name": "1bbf557ba6334414118422b179b2738f", "is_disabled": 0, "lat": 38.94251783333333, "rental_uris": {"ios": "https://dc.lft.to/lastmile_qr_scan", "android": "https://dc.lft.to/lastmile_qr_scan"}, "bike_id": "1bbf557ba6334414118422b179b2738f", "type": "electric_scooter", "lon": -77.03632466666667, "is_reserved": 0, "fusion_lat": 0.0, "fusion_lon": 0.0}, {"name": "1df99549e042379d6698395bd37f83c7", "is_disabled": 0, "lat": 38.93717983333333, "rental_uris": {"ios": "https://dc.lft.to/lastmile_qr_scan", "android": "https://dc.lft.to/lastmile_qr_scan"}, "bike_id": "1df99549e042379d6698395bd37f83c7", "type": "electric_scooter", "lon": -77.024214, "is_reserved": 0, "fusion_lat": 0.0, "fusion_lon": 0.0}, {"name": "1aa7401b6656f295490996ae0ddc1dbe", "is_disabled": 0, "lat": 38.866655333333334, "rental_uris": {"ios": "https://dc.lft.to/lastmile_qr_scan", "android": "https://dc.lft.to/lastmile_qr_scan"}, "bike_id": "1aa7401b6656f295490996ae0ddc1dbe", "type": "electric_scooter", "lon": -76.98904516666667, "is_reserved": 0, "fusion_lat": 0.0, "fusion_lon": 0.0}, {"name": "68f75df0304640d67c238274e4e52cb0", "is_disabled": 0, "lat": 38.90516, "rental_uris": {"ios": "https://dc.lft.to/lastmile_qr_scan", "android": "https://dc.lft.to/lastmile_qr_scan"}, "bike_id": "68f75df0304640d67c238274e4e52cb0", "type": "electric_scooter", "lon": -77.05998033333333, "is_reserved": 0, "fusion_lat": 0.0, "fusion_lon": 0.0}, {"name": "894a0d6fd57273b5c3d43e818c45f41d", "is_disabled": 0, "lat": 38.90084783333333, "rental_uris": {"ios": "https://dc.lft.to/lastmile_qr_scan", "android": "https://dc.lft.to/lastmile_qr_scan"}, "bike_id": "894a0d6fd57273b5c3d43e818c45f41d", "type": "electric_scooter", "lon": -77.04912216666666, "is_reserved": 0, "fusion_lat": 0.0, "fusion_lon": 0.0}, {"name": "a5ebbe9a81bb181c61a8b754934e8a0c", "is_disabled": 0, "lat": 38.887669, "rental_uris": {"ios": "https://dc.lft.to/lastmile_qr_scan", "android": "https://dc.lft.to/lastmile_qr_scan"}, "bike_id": "a5ebbe9a81bb181c61a8b754934e8a0c", "type": "electric_scooter", "lon": -77.0294755, "is_reserved": 0, "fusion_lat": 0.0, "fusion_lon": 0.0}, {"name": "78996eb33b94a8c01832b11bb9ed65c2", "is_disabled": 0, "lat": 38.87383466666667, "rental_uris": {"ios": "https://dc.lft.to/lastmile_qr_scan", "android": "https://dc.lft.to/lastmile_qr_scan"}, "bike_id": "78996eb33b94a8c01832b11bb9ed65c2", "type": "electric_scooter", "lon": -77.00067133333333, "is_reserved": 0, "fusion_lat": 0.0, "fusion_lon": 0.0}, {"name": "03d3afe19d282224aa0dcd939282b922", "is_disabled": 0, "lat": 38.91344766666667, "rental_uris": {"ios": "https://dc.lft.to/lastmile_qr_scan", "android": "https://dc.lft.to/lastmile_qr_scan"}, "bike_id": "03d3afe19d282224aa0dcd939282b922", "type": "electric_bike", "lon": -76.9889905, "is_reserved": 0, "fusion_lat": 0.0, "fusion_lon": 0.0}, {"name": "0e41f86d77604e3bcd3a17ed5103e932", "is_disabled": 0, "lat": 38.909392, "rental_uris": {"ios": "https://dc.lft.to/lastmile_qr_scan", "android": "https://dc.lft.to/lastmile_qr_scan"}, "bike_id": "0e41f86d77604e3bcd3a17ed5103e932", "type": "electric_scooter", "lon": -77.03177266666667, "is_reserved": 0, "fusion_lat": 0.0, "fusion_lon": 0.0}, {"name": "7aebccf1c0b7ee54ebcab72c462e1fb4", "is_disabled": 0, "lat": 38.9095065, "rental_uris": {"ios": "https://dc.lft.to/lastmile_qr_scan", "android": "https://dc.lft.to/lastmile_qr_scan"}, "bike_id": "7aebccf1c0b7ee54ebcab72c462e1fb4", "type": "electric_scooter", "lon": -77.031794, "is_reserved": 0, "fusion_lat": 0.0, "fusion_lon": 0.0}, {"name": "e1381a9d05881d0e08acd3c3fe9f887c", "is_disabled": 0, "lat": 38.9003505, "rental_uris": {"ios": "https://dc.lft.to/lastmile_qr_scan", "android": "https://dc.lft.to/lastmile_qr_scan"}, "bike_id": "e1381a9d05881d0e08acd3c3fe9f887c", "type": "electric_scooter", "lon": -76.99846166666667, "is_reserved": 0, "fusion_lat": 0.0, "fusion_lon": 0.0}, {"name": "6933be2444cf5323dc2ddfa45dbe4d53", "is_disabled": 0, "lat": 38.910124, "rental_uris": {"ios": "https://dc.lft.to/lastmile_qr_scan", "android": "https://dc.lft.to/lastmile_qr_scan"}, "bike_id": "6933be2444cf5323dc2ddfa45dbe4d53", "type": "electric_scooter", "lon": -77.0343085, "is_reserved": 0, "fusion_lat": 0.0, "fusion_lon": 0.0}, {"name": "2db1b7d8dbab8fe3ffb4e300da32a48e", "is_disabled": 0, "lat": 38.920404, "rental_uris": {"ios": "https://dc.lft.to/lastmile_qr_scan", "android": "https://dc.lft.to/lastmile_qr_scan"}, "bike_id": "2db1b7d8dbab8fe3ffb4e300da32a48e", "type": "electric_scooter", "lon": -77.01678033333333, "is_reserved": 0, "fusion_lat": 0.0, "fusion_lon": 0.0}, {"name": "fd4e540575393e922db15a6540693223", "is_disabled": 0, "lat": 38.9028145, "rental_uris": {"ios": "https://dc.lft.to/lastmile_qr_scan", "android": "https://dc.lft.to/lastmile_qr_scan"}, "bike_id": "fd4e540575393e922db15a6540693223", "type": "electric_scooter", "lon": -77.02388283333333, "is_reserved": 0, "fusion_lat": 0.0, "fusion_lon": 0.0}, {"name": "295d0b80f38b99851703d1f1df7cf149", "is_disabled": 0, "lat": 38.903981333333334, "rental_uris": {"ios": "https://dc.lft.to/lastmile_qr_scan", "android": "https://dc.lft.to/lastmile_qr_scan"}, "bike_id": "295d0b80f38b99851703d1f1df7cf149", "type": "electric_scooter", "lon": -77.0363725, "is_reserved": 0, "fusion_lat": 0.0, "fusion_lon": 0.0}, {"name": "e51cb090057235f5f570594aa4639e77", "is_disabled": 0, "lat": 38.905995833333336, "rental_uris": {"ios": "https://dc.lft.to/lastmile_qr_scan", "android": "https://dc.lft.to/lastmile_qr_scan"}, "bike_id": "e51cb090057235f5f570594aa4639e77", "type": "electric_scooter", "lon": -77.03350433333334, "is_reserved": 0, "fusion_lat": 0.0, "fusion_lon": 0.0}, {"name": "7e58d50fef8b09e8204a47f0ee849dc3", "is_disabled": 0, "lat": 38.92368966666667, "rental_uris": {"ios": "https://dc.lft.to/lastmile_qr_scan", "android": "https://dc.lft.to/lastmile_qr_scan"}, "bike_id": "7e58d50fef8b09e8204a47f0ee849dc3", "type": "electric_scooter", "lon": -77.05176066666667, "is_reserved": 0, "fusion_lat": 0.0, "fusion_lon": 0.0}, {"name": "f4495ce230204cc8dbd64847767444b1", "is_disabled": 0, "lat": 38.87421883333333, "rental_uris": {"ios": "https://dc.lft.to/lastmile_qr_scan", "android": "https://dc.lft.to/lastmile_qr_scan"}, "bike_id": "f4495ce230204cc8dbd64847767444b1", "type": "electric_scooter", "lon": -76.971802, "is_reserved": 0, "fusion_lat": 0.0, "fusion_lon": 0.0}, {"name": "85f2baff1a88c847a5eef016d99c67e0", "is_disabled": 0, "lat": 38.87260666666667, "rental_uris": {"ios": "https://dc.lft.to/lastmile_qr_scan", "android": "https://dc.lft.to/lastmile_qr_scan"}, "bike_id": "85f2baff1a88c847a5eef016d99c67e0", "type": "electric_scooter", "lon": -77.0057895, "is_reserved": 0, "fusion_lat": 0.0, "fusion_lon": 0.0}, {"name": "5e4b235138beb56151d46c02db01ac7b", "is_disabled": 0, "lat": 38.89822816666667, "rental_uris": {"ios": "https://dc.lft.to/lastmile_qr_scan", "android": "https://dc.lft.to/lastmile_qr_scan"}, "bike_id": "5e4b235138beb56151d46c02db01ac7b", "type": "electric_scooter", "lon": -77.02243216666666, "is_reserved": 0, "fusion_lat": 0.0, "fusion_lon": 0.0}, {"name": "a1ecd177ed2ede67fe8dcac3aa2569f3", "is_disabled": 0, "lat": 38.912542333333334, "rental_uris": {"ios": "https://dc.lft.to/lastmile_qr_scan", "android": "https://dc.lft.to/lastmile_qr_scan"}, "bike_id": "a1ecd177ed2ede67fe8dcac3aa2569f3", "type": "electric_scooter", "lon": -77.00672683333333, "is_reserved": 0, "fusion_lat": 0.0, "fusion_lon": 0.0}, {"name": "2e25d9963094a36b500eedeb2ed0f631", "is_disabled": 0, "lat": 38.9180575, "rental_uris": {"ios": "https://dc.lft.to/lastmile_qr_scan", "android": "https://dc.lft.to/lastmile_qr_scan"}, "bike_id": "2e25d9963094a36b500eedeb2ed0f631", "type": "electric_scooter", "lon": -77.03176716666667, "is_reserved": 0, "fusion_lat": 0.0, "fusion_lon": 0.0}, {"name": "ea4603062da7fcbb7ef81ada8b453522", "is_disabled": 0, "lat": 38.92418266666667, "rental_uris": {"ios": "https://dc.lft.to/lastmile_qr_scan", "android": "https://dc.lft.to/lastmile_qr_scan"}, "bike_id": "ea4603062da7fcbb7ef81ada8b453522", "type": "electric_scooter", "lon": -77.02006533333333, "is_reserved": 0, "fusion_lat": 0.0, "fusion_lon": 0.0}, {"name": "e218abb9970a0843ac1d722a4520a321", "is_disabled": 0, "lat": 38.92380933333333, "rental_uris": {"ios": "https://dc.lft.to/lastmile_qr_scan", "android": "https://dc.lft.to/lastmile_qr_scan"}, "bike_id": "e218abb9970a0843ac1d722a4520a321", "type": "electric_scooter", "lon": -77.02742433333333, "is_reserved": 0, "fusion_lat": 0.0, "fusion_lon": 0.0}, {"name": "ede0f2f3f2dc2f6b5217877d3c54a00d", "is_disabled": 0, "lat": 38.90736583333333, "rental_uris": {"ios": "https://dc.lft.to/lastmile_qr_scan", "android": "https://dc.lft.to/lastmile_qr_scan"}, "bike_id": "ede0f2f3f2dc2f6b5217877d3c54a00d", "type": "electric_scooter", "lon": -77.02376683333334, "is_reserved": 0, "fusion_lat": 0.0, "fusion_lon": 0.0}, {"name": "f5b4fd764ba13e58b17bdc20349543ce", "is_disabled": 0, "lat": 38.89917066666667, "rental_uris": {"ios": "https://dc.lft.to/lastmile_qr_scan", "android": "https://dc.lft.to/lastmile_qr_scan"}, "bike_id": "f5b4fd764ba13e58b17bdc20349543ce", "type": "electric_scooter", "lon": -77.03374933333333, "is_reserved": 0, "fusion_lat": 0.0, "fusion_lon": 0.0}, {"name": "954568c7f87cce312001f1b68ef43efc", "is_disabled": 0, "lat": 38.9124655, "rental_uris": {"ios": "https://dc.lft.to/lastmile_qr_scan", "android": "https://dc.lft.to/lastmile_qr_scan"}, "bike_id": "954568c7f87cce312001f1b68ef43efc", "type": "electric_bike", "lon": -77.0315395, "is_reserved": 0, "fusion_lat": 0.0, "fusion_lon": 0.0}, {"name": "c6cbd14d06923816ae6e314808a598bd", "is_disabled": 0, "lat": 38.924475666666666, "rental_uris": {"ios": "https://dc.lft.to/lastmile_qr_scan", "android": "https://dc.lft.to/lastmile_qr_scan"}, "bike_id": "c6cbd14d06923816ae6e314808a598bd", "type": "electric_scooter", "lon": -77.02255166666667, "is_reserved": 0, "fusion_lat": 0.0, "fusion_lon": 0.0}, {"name": "11014b064d7b54fca69cdcc0e71b69e6", "is_disabled": 0, "lat": 38.920590833333335, "rental_uris": {"ios": "https://dc.lft.to/lastmile_qr_scan", "android": "https://dc.lft.to/lastmile_qr_scan"}, "bike_id": "11014b064d7b54fca69cdcc0e71b69e6", "type": "electric_scooter", "lon": -77.0257835, "is_reserved": 0, "fusion_lat": 0.0, "fusion_lon": 0.0}, {"name": "baeff8822a69f9b07a501bb6789bb0b9", "is_disabled": 0, "lat": 38.9171265, "rental_uris": {"ios": "https://dc.lft.to/lastmile_qr_scan", "android": "https://dc.lft.to/lastmile_qr_scan"}, "bike_id": "baeff8822a69f9b07a501bb6789bb0b9", "type": "electric_scooter", "lon": -77.02390383333334, "is_reserved": 0, "fusion_lat": 0.0, "fusion_lon": 0.0}, {"name": "ce3df575d9e0c5b22a6fe5b70936d0fc", "is_disabled": 0, "lat": 38.919187666666666, "rental_uris": {"ios": "https://dc.lft.to/lastmile_qr_scan", "android": "https://dc.lft.to/lastmile_qr_scan"}, "bike_id": "ce3df575d9e0c5b22a6fe5b70936d0fc", "type": "electric_scooter", "lon": -77.02417933333334, "is_reserved": 0, "fusion_lat": 0.0, "fusion_lon": 0.0}, {"name": "622dfd1e720009970cdbd697311c9ecc", "is_disabled": 0, "lat": 38.90647116666667, "rental_uris": {"ios": "https://dc.lft.to/lastmile_qr_scan", "android": "https://dc.lft.to/lastmile_qr_scan"}, "bike_id": "622dfd1e720009970cdbd697311c9ecc", "type": "electric_scooter", "lon": -77.041788, "is_reserved": 0, "fusion_lat": 0.0, "fusion_lon": 0.0}, {"name": "8a4ca9d0826f8a3a160c82695a6fad97", "is_disabled": 0, "lat": 38.878312666666666, "rental_uris": {"ios": "https://dc.lft.to/lastmile_qr_scan", "android": "https://dc.lft.to/lastmile_qr_scan"}, "bike_id": "8a4ca9d0826f8a3a160c82695a6fad97", "type": "electric_scooter", "lon": -76.96325933333334, "is_reserved": 0, "fusion_lat": 0.0, "fusion_lon": 0.0}, {"name": "5c08a88be3a8b1481580b9115a0057db", "is_disabled": 0, "lat": 38.920565833333335, "rental_uris": {"ios": "https://dc.lft.to/lastmile_qr_scan", "android": "https://dc.lft.to/lastmile_qr_scan"}, "bike_id": "5c08a88be3a8b1481580b9115a0057db", "type": "electric_scooter", "lon": -77.03390816666666, "is_reserved": 0, "fusion_lat": 0.0, "fusion_lon": 0.0}, {"name": "5ab5ba5fbaee7652606dbb0266568dc1", "is_disabled": 0, "lat": 38.90268483333333, "rental_uris": {"ios": "https://dc.lft.to/lastmile_qr_scan", "android": "https://dc.lft.to/lastmile_qr_scan"}, "bike_id": "5ab5ba5fbaee7652606dbb0266568dc1", "type": "electric_scooter", "lon": -77.03882766666666, "is_reserved": 0, "fusion_lat": 0.0, "fusion_lon": 0.0}, {"name": "9a2b1e312ac596dedd4bba92d7a922f2", "is_disabled": 0, "lat": 38.87385733333333, "rental_uris": {"ios": "https://dc.lft.to/lastmile_qr_scan", "android": "https://dc.lft.to/lastmile_qr_scan"}, "bike_id": "9a2b1e312ac596dedd4bba92d7a922f2", "type": "electric_scooter", "lon": -77.000362, "is_reserved": 0, "fusion_lat": 0.0, "fusion_lon": 0.0}, {"name": "d21655980e3265323fcfeaf56c493ce7", "is_disabled": 0, "lat": 38.905758, "rental_uris": {"ios": "https://dc.lft.to/lastmile_qr_scan", "android": "https://dc.lft.to/lastmile_qr_scan"}, "bike_id": "d21655980e3265323fcfeaf56c493ce7", "type": "electric_scooter", "lon": -77.00603683333334, "is_reserved": 0, "fusion_lat": 0.0, "fusion_lon": 0.0}, {"name": "b3ed8229873192efffb1bf6ccc27d6ef", "is_disabled": 0, "lat": 38.940793, "rental_uris": {"ios": "https://dc.lft.to/lastmile_qr_scan", "android": "https://dc.lft.to/lastmile_qr_scan"}, "bike_id": "b3ed8229873192efffb1bf6ccc27d6ef", "type": "electric_scooter", "lon": -77.02638283333333, "is_reserved": 0, "fusion_lat": 0.0, "fusion_lon": 0.0}, {"name": "60c04d12bc161afaa614b62055dd234d", "is_disabled": 0, "lat": 38.876535833333335, "rental_uris": {"ios": "https://dc.lft.to/lastmile_qr_scan", "android": "https://dc.lft.to/lastmile_qr_scan"}, "bike_id": "60c04d12bc161afaa614b62055dd234d", "type": "electric_scooter", "lon": -77.00112633333333, "is_reserved": 0, "fusion_lat": 0.0, "fusion_lon": 0.0}, {"name": "d4cf8c948c0b7f2093953b5930830de3", "is_disabled": 0, "lat": 38.90567683333333, "rental_uris": {"ios": "https://dc.lft.to/lastmile_qr_scan", "android": "https://dc.lft.to/lastmile_qr_scan"}, "bike_id": "d4cf8c948c0b7f2093953b5930830de3", "type": "electric_scooter", "lon": -77.0240955, "is_reserved": 0, "fusion_lat": 0.0, "fusion_lon": 0.0}, {"name": "2a493b5e7a7251ab1820b0b828475002", "is_disabled": 0, "lat": 38.9175005, "rental_uris": {"ios": "https://dc.lft.to/lastmile_qr_scan", "android": "https://dc.lft.to/lastmile_qr_scan"}, "bike_id": "2a493b5e7a7251ab1820b0b828475002", "type": "electric_scooter", "lon": -77.02820766666666, "is_reserved": 0, "fusion_lat": 0.0, "fusion_lon": 0.0}, {"name": "293ff43e33b0f8a8dfb945c46a691321", "is_disabled": 0, "lat": 38.918149166666666, "rental_uris": {"ios": "https://dc.lft.to/lastmile_qr_scan", "android": "https://dc.lft.to/lastmile_qr_scan"}, "bike_id": "293ff43e33b0f8a8dfb945c46a691321", "type": "electric_scooter", "lon": -77.02685783333334, "is_reserved": 0, "fusion_lat": 0.0, "fusion_lon": 0.0}, {"name": "92f04412adbf087868790344e58873e1", "is_disabled": 0, "lat": 38.919658, "rental_uris": {"ios": "https://dc.lft.to/lastmile_qr_scan", "android": "https://dc.lft.to/lastmile_qr_scan"}, "bike_id": "92f04412adbf087868790344e58873e1", "type": "electric_scooter", "lon": -77.0120835, "is_reserved": 0, "fusion_lat": 0.0, "fusion_lon": 0.0}, {"name": "fb1f15e1fdf562a857ba941274828812", "is_disabled": 0, "lat": 38.9181895, "rental_uris": {"ios": "https://dc.lft.to/lastmile_qr_scan", "android": "https://dc.lft.to/lastmile_qr_scan"}, "bike_id": "fb1f15e1fdf562a857ba941274828812", "type": "electric_scooter", "lon": -77.03752783333333, "is_reserved": 0, "fusion_lat": 0.0, "fusion_lon": 0.0}, {"name": "665036f6651e6c961b504feb54f7e30e", "is_disabled": 0, "lat": 38.915759666666666, "rental_uris": {"ios": "https://dc.lft.to/lastmile_qr_scan", "android": "https://dc.lft.to/lastmile_qr_scan"}, "bike_id": "665036f6651e6c961b504feb54f7e30e", "type": "electric_scooter", "lon": -77.01232633333333, "is_reserved": 0, "fusion_lat": 0.0, "fusion_lon": 0.0}, {"name": "70b50d48bc428a8301be625a911eca56", "is_disabled": 0, "lat": 38.92070066666667, "rental_uris": {"ios": "https://dc.lft.to/lastmile_qr_scan", "android": "https://dc.lft.to/lastmile_qr_scan"}, "bike_id": "70b50d48bc428a8301be625a911eca56", "type": "electric_scooter", "lon": -77.0241355, "is_reserved": 0, "fusion_lat": 0.0, "fusion_lon": 0.0}, {"name": "14e6e89290e2a567756a9cea1fd3bdda", "is_disabled": 0, "lat": 38.91840783333333, "rental_uris": {"ios": "https://dc.lft.to/lastmile_qr_scan", "android": "https://dc.lft.to/lastmile_qr_scan"}, "bike_id": "14e6e89290e2a567756a9cea1fd3bdda", "type": "electric_scooter", "lon": -77.04829783333334, "is_reserved": 0, "fusion_lat": 0.0, "fusion_lon": 0.0}, {"name": "e00c8862aa63576bd54a457fdbd8d90b", "is_disabled": 0, "lat": 38.91690916666667, "rental_uris": {"ios": "https://dc.lft.to/lastmile_qr_scan", "android": "https://dc.lft.to/lastmile_qr_scan"}, "bike_id": "e00c8862aa63576bd54a457fdbd8d90b", "type": "electric_scooter", "lon": -77.04600566666667, "is_reserved": 0, "fusion_lat": 0.0, "fusion_lon": 0.0}, {"name": "60f7fbe7c4d1324400cba67d0d1c1b47", "is_disabled": 0, "lat": 38.905272333333336, "rental_uris": {"ios": "https://dc.lft.to/lastmile_qr_scan", "android": "https://dc.lft.to/lastmile_qr_scan"}, "bike_id": "60f7fbe7c4d1324400cba67d0d1c1b47", "type": "electric_scooter", "lon": -77.05640083333333, "is_reserved": 0, "fusion_lat": 0.0, "fusion_lon": 0.0}, {"name": "e30aac2a7f0fdfc2b5869a092075d075", "is_disabled": 0, "lat": 38.90573633333333, "rental_uris": {"ios": "https://dc.lft.to/lastmile_qr_scan", "android": "https://dc.lft.to/lastmile_qr_scan"}, "bike_id": "e30aac2a7f0fdfc2b5869a092075d075", "type": "electric_scooter", "lon": -77.04454533333333, "is_reserved": 0, "fusion_lat": 0.0, "fusion_lon": 0.0}, {"name": "d33a4ebcec2964124ffcedd36ac42cbb", "is_disabled": 0, "lat": 38.87650283333333, "rental_uris": {"ios": "https://dc.lft.to/lastmile_qr_scan", "android": "https://dc.lft.to/lastmile_qr_scan"}, "bike_id": "d33a4ebcec2964124ffcedd36ac42cbb", "type": "electric_scooter", "lon": -77.00575466666666, "is_reserved": 0, "fusion_lat": 0.0, "fusion_lon": 0.0}, {"name": "7f8c73c227dba9a21707a70d7b3982dc", "is_disabled": 0, "lat": 38.92767466666667, "rental_uris": {"ios": "https://dc.lft.to/lastmile_qr_scan", "android": "https://dc.lft.to/lastmile_qr_scan"}, "bike_id": "7f8c73c227dba9a21707a70d7b3982dc", "type": "electric_scooter", "lon": -77.02792383333333, "is_reserved": 0, "fusion_lat": 0.0, "fusion_lon": 0.0}, {"name": "d7b439cc299f58d7deb2425f245bfe79", "is_disabled": 0, "lat": 38.92319333333333, "rental_uris": {"ios": "https://dc.lft.to/lastmile_qr_scan", "android": "https://dc.lft.to/lastmile_qr_scan"}, "bike_id": "d7b439cc299f58d7deb2425f245bfe79", "type": "electric_scooter", "lon": -77.0402295, "is_reserved": 0, "fusion_lat": 0.0, "fusion_lon": 0.0}, {"name": "89dcad8c9c94478c35dca68cceb93a66", "is_disabled": 0, "lat": 38.900718166666664, "rental_uris": {"ios": "https://dc.lft.to/lastmile_qr_scan", "android": "https://dc.lft.to/lastmile_qr_scan"}, "bike_id": "89dcad8c9c94478c35dca68cceb93a66", "type": "electric_scooter", "lon": -77.04908416666666, "is_reserved": 0, "fusion_lat": 0.0, "fusion_lon": 0.0}, {"name": "d2345f06eb20686ae89802e93e9f1ede", "is_disabled": 0, "lat": 38.900031, "rental_uris": {"ios": "https://dc.lft.to/lastmile_qr_scan", "android": "https://dc.lft.to/lastmile_qr_scan"}, "bike_id": "d2345f06eb20686ae89802e93e9f1ede", "type": "electric_scooter", "lon": -77.05422133333333, "is_reserved": 0, "fusion_lat": 0.0, "fusion_lon": 0.0}, {"name": "d72a77486367fbb68271a575d6153597", "is_disabled": 0, "lat": 38.916791333333336, "rental_uris": {"ios": "https://dc.lft.to/lastmile_qr_scan", "android": "https://dc.lft.to/lastmile_qr_scan"}, "bike_id": "d72a77486367fbb68271a575d6153597", "type": "electric_scooter", "lon": -77.023877, "is_reserved": 0, "fusion_lat": 0.0, "fusion_lon": 0.0}, {"name": "0b4dabc0a02c1ab48a45e840b7188131", "is_disabled": 0, "lat": 38.90035666666667, "rental_uris": {"ios": "https://dc.lft.to/lastmile_qr_scan", "android": "https://dc.lft.to/lastmile_qr_scan"}, "bike_id": "0b4dabc0a02c1ab48a45e840b7188131", "type": "electric_scooter", "lon": -77.00195616666667, "is_reserved": 0, "fusion_lat": 0.0, "fusion_lon": 0.0}, {"name": "a5b34b664c4873e6f72ce00f8c5f34f7", "is_disabled": 0, "lat": 38.9234565, "rental_uris": {"ios": "https://dc.lft.to/lastmile_qr_scan", "android": "https://dc.lft.to/lastmile_qr_scan"}, "bike_id": "a5b34b664c4873e6f72ce00f8c5f34f7", "type": "electric_scooter", "lon": -77.05182433333333, "is_reserved": 0, "fusion_lat": 0.0, "fusion_lon": 0.0}, {"name": "692d84776b292561253a178d4b07bbea", "is_disabled": 0, "lat": 38.9236325, "rental_uris": {"ios": "https://dc.lft.to/lastmile_qr_scan", "android": "https://dc.lft.to/lastmile_qr_scan"}, "bike_id": "692d84776b292561253a178d4b07bbea", "type": "electric_scooter", "lon": -77.02120733333334, "is_reserved": 0, "fusion_lat": 0.0, "fusion_lon": 0.0}, {"name": "38995aeadabca70d0b07f4a382a5ef58", "is_disabled": 0, "lat": 38.89721216666667, "rental_uris": {"ios": "https://dc.lft.to/lastmile_qr_scan", "android": "https://dc.lft.to/lastmile_qr_scan"}, "bike_id": "38995aeadabca70d0b07f4a382a5ef58", "type": "electric_scooter", "lon": -77.00211033333333, "is_reserved": 0, "fusion_lat": 0.0, "fusion_lon": 0.0}, {"name": "83e42cbcec3cedacafa67e3f8985adb9", "is_disabled": 0, "lat": 38.9040715, "rental_uris": {"ios": "https://dc.lft.to/lastmile_qr_scan", "android": "https://dc.lft.to/lastmile_qr_scan"}, "bike_id": "83e42cbcec3cedacafa67e3f8985adb9", "type": "electric_scooter", "lon": -77.0627385, "is_reserved": 0, "fusion_lat": 0.0, "fusion_lon": 0.0}, {"name": "f4e9016f0685108620598753bf21ff7a", "is_disabled": 0, "lat": 38.902154833333334, "rental_uris": {"ios": "https://dc.lft.to/lastmile_qr_scan", "android": "https://dc.lft.to/lastmile_qr_scan"}, "bike_id": "f4e9016f0685108620598753bf21ff7a", "type": "electric_scooter", "lon": -77.016067, "is_reserved": 0, "fusion_lat": 0.0, "fusion_lon": 0.0}, {"name": "e4d3cafdecaa514f985f63c7f3ac20f0", "is_disabled": 0, "lat": 38.883213, "rental_uris": {"ios": "https://dc.lft.to/lastmile_qr_scan", "android": "https://dc.lft.to/lastmile_qr_scan"}, "bike_id": "e4d3cafdecaa514f985f63c7f3ac20f0", "type": "electric_scooter", "lon": -77.0137655, "is_reserved": 0, "fusion_lat": 0.0, "fusion_lon": 0.0}, {"name": "b68fccdf6dc6b5a754e090a280c3cbaf", "is_disabled": 0, "lat": 38.90784083333333, "rental_uris": {"ios": "https://dc.lft.to/lastmile_qr_scan", "android": "https://dc.lft.to/lastmile_qr_scan"}, "bike_id": "b68fccdf6dc6b5a754e090a280c3cbaf", "type": "electric_scooter", "lon": -77.04507083333333, "is_reserved": 0, "fusion_lat": 0.0, "fusion_lon": 0.0}, {"name": "88569ca14b358fd9fe07d6972533e8ed", "is_disabled": 0, "lat": 38.84090233333333, "rental_uris": {"ios": "https://dc.lft.to/lastmile_qr_scan", "android": "https://dc.lft.to/lastmile_qr_scan"}, "bike_id": "88569ca14b358fd9fe07d6972533e8ed", "type": "electric_bike", "lon": -77.107097, "is_reserved": 0, "fusion_lat": 0.0, "fusion_lon": 0.0}, {"name": "ba89ad0ff253119dc6ea4dc004578349", "is_disabled": 0, "lat": 38.910017, "rental_uris": {"ios": "https://dc.lft.to/lastmile_qr_scan", "android": "https://dc.lft.to/lastmile_qr_scan"}, "bike_id": "ba89ad0ff253119dc6ea4dc004578349", "type": "electric_scooter", "lon": -77.03469116666666, "is_reserved": 0, "fusion_lat": 0.0, "fusion_lon": 0.0}, {"name": "d960d997bccc300864a1a99e9d59ca5a", "is_disabled": 0, "lat": 38.87177916666667, "rental_uris": {"ios": "https://dc.lft.to/lastmile_qr_scan", "android": "https://dc.lft.to/lastmile_qr_scan"}, "bike_id": "d960d997bccc300864a1a99e9d59ca5a", "type": "electric_scooter", "lon": -77.00611633333334, "is_reserved": 0, "fusion_lat": 0.0, "fusion_lon": 0.0}, {"name": "bdd9c97af7d2c71fe265294f101103ac", "is_disabled": 0, "lat": 38.91573366666667, "rental_uris": {"ios": "https://dc.lft.to/lastmile_qr_scan", "android": "https://dc.lft.to/lastmile_qr_scan"}, "bike_id": "bdd9c97af7d2c71fe265294f101103ac", "type": "electric_scooter", "lon": -76.983992, "is_reserved": 0, "fusion_lat": 0.0, "fusion_lon": 0.0}, {"name": "218fd775b8f55de21c6be5e7ed9df1f0", "is_disabled": 0, "lat": 38.898978666666665, "rental_uris": {"ios": "https://dc.lft.to/lastmile_qr_scan", "android": "https://dc.lft.to/lastmile_qr_scan"}, "bike_id": "218fd775b8f55de21c6be5e7ed9df1f0", "type": "electric_scooter", "lon": -77.040457, "is_reserved": 0, "fusion_lat": 0.0, "fusion_lon": 0.0}, {"name": "aa5495651365352f838e412614d71d1b", "is_disabled": 0, "lat": 38.924739833333334, "rental_uris": {"ios": "https://dc.lft.to/lastmile_qr_scan", "android": "https://dc.lft.to/lastmile_qr_scan"}, "bike_id": "aa5495651365352f838e412614d71d1b", "type": "electric_scooter", "lon": -77.0304755, "is_reserved": 0, "fusion_lat": 0.0, "fusion_lon": 0.0}, {"name": "d33e32dfef9bc54b9115b6e07c3b5b17", "is_disabled": 0, "lat": 38.905904166666666, "rental_uris": {"ios": "https://dc.lft.to/lastmile_qr_scan", "android": "https://dc.lft.to/lastmile_qr_scan"}, "bike_id": "d33e32dfef9bc54b9115b6e07c3b5b17", "type": "electric_scooter", "lon": -77.04691816666667, "is_reserved": 0, "fusion_lat": 0.0, "fusion_lon": 0.0}, {"name": "0dc5d3bd9b5740ef21af50bc0fa2c10f", "is_disabled": 0, "lat": 38.903464, "rental_uris": {"ios": "https://dc.lft.to/lastmile_qr_scan", "android": "https://dc.lft.to/lastmile_qr_scan"}, "bike_id": "0dc5d3bd9b5740ef21af50bc0fa2c10f", "type": "electric_scooter", "lon": -77.0295215, "is_reserved": 0, "fusion_lat": 0.0, "fusion_lon": 0.0}, {"name": "0fd8c73761f083f372d69877a6c808b0", "is_disabled": 0, "lat": 38.8876835, "rental_uris": {"ios": "https://dc.lft.to/lastmile_qr_scan", "android": "https://dc.lft.to/lastmile_qr_scan"}, "bike_id": "0fd8c73761f083f372d69877a6c808b0", "type": "electric_scooter", "lon": -77.0237335, "is_reserved": 0, "fusion_lat": 0.0, "fusion_lon": 0.0}, {"name": "cc9d59168aa52933e98599896df2daea", "is_disabled": 0, "lat": 38.92175533333333, "rental_uris": {"ios": "https://dc.lft.to/lastmile_qr_scan", "android": "https://dc.lft.to/lastmile_qr_scan"}, "bike_id": "cc9d59168aa52933e98599896df2daea", "type": "electric_scooter", "lon": -77.02110666666667, "is_reserved": 0, "fusion_lat": 0.0, "fusion_lon": 0.0}, {"name": "720951e7ef4b85df839bad9fad1db16a", "is_disabled": 0, "lat": 38.910434333333335, "rental_uris": {"ios": "https://dc.lft.to/lastmile_qr_scan", "android": "https://dc.lft.to/lastmile_qr_scan"}, "bike_id": "720951e7ef4b85df839bad9fad1db16a", "type": "electric_scooter", "lon": -77.03212833333333, "is_reserved": 0, "fusion_lat": 0.0, "fusion_lon": 0.0}, {"name": "87e74a9268f5702c54c409a0a65c35a8", "is_disabled": 0, "lat": 38.9210885, "rental_uris": {"ios": "https://dc.lft.to/lastmile_qr_scan", "android": "https://dc.lft.to/lastmile_qr_scan"}, "bike_id": "87e74a9268f5702c54c409a0a65c35a8", "type": "electric_bike", "lon": -77.23684066666667, "is_reserved": 0, "fusion_lat": 0.0, "fusion_lon": 0.0}, {"name": "aa17851195009c132525ae174076c5e6", "is_disabled": 0, "lat": 38.94134016666667, "rental_uris": {"ios": "https://dc.lft.to/lastmile_qr_scan", "android": "https://dc.lft.to/lastmile_qr_scan"}, "bike_id": "aa17851195009c132525ae174076c5e6", "type": "electric_scooter", "lon": -77.02504516666667, "is_reserved": 0, "fusion_lat": 0.0, "fusion_lon": 0.0}, {"name": "f3c8e3f85e065a6f7d144b0f924d923a", "is_disabled": 0, "lat": 38.90652433333333, "rental_uris": {"ios": "https://dc.lft.to/lastmile_qr_scan", "android": "https://dc.lft.to/lastmile_qr_scan"}, "bike_id": "f3c8e3f85e065a6f7d144b0f924d923a", "type": "electric_scooter", "lon": -77.03162133333333, "is_reserved": 0, "fusion_lat": 0.0, "fusion_lon": 0.0}, {"name": "e18ebef4efc6e9b4758be60335604d17", "is_disabled": 0, "lat": 38.89899366666667, "rental_uris": {"ios": "https://dc.lft.to/lastmile_qr_scan", "android": "https://dc.lft.to/lastmile_qr_scan"}, "bike_id": "e18ebef4efc6e9b4758be60335604d17", "type": "electric_scooter", "lon": -77.02725133333334, "is_reserved": 0, "fusion_lat": 0.0, "fusion_lon": 0.0}, {"name": "91c1ff122efc2f1795453b184c44081c", "is_disabled": 0, "lat": 38.898489166666664, "rental_uris": {"ios": "https://dc.lft.to/lastmile_qr_scan", "android": "https://dc.lft.to/lastmile_qr_scan"}, "bike_id": "91c1ff122efc2f1795453b184c44081c", "type": "electric_scooter", "lon": -76.95040733333333, "is_reserved": 0, "fusion_lat": 0.0, "fusion_lon": 0.0}, {"name": "9075a75de1564fb4f164c9cbec7691c2", "is_disabled": 0, "lat": 38.876520166666666, "rental_uris": {"ios": "https://dc.lft.to/lastmile_qr_scan", "android": "https://dc.lft.to/lastmile_qr_scan"}, "bike_id": "9075a75de1564fb4f164c9cbec7691c2", "type": "electric_scooter", "lon": -77.00336833333333, "is_reserved": 0, "fusion_lat": 0.0, "fusion_lon": 0.0}, {"name": "8adaac9d152ffb9a77ec067c55002951", "is_disabled": 0, "lat": 38.879094, "rental_uris": {"ios": "https://dc.lft.to/lastmile_qr_scan", "android": "https://dc.lft.to/lastmile_qr_scan"}, "bike_id": "8adaac9d152ffb9a77ec067c55002951", "type": "electric_scooter", "lon": -76.99490366666667, "is_reserved": 0, "fusion_lat": 0.0, "fusion_lon": 0.0}, {"name": "f3534019ae43c4a5aaddacad6cff1e81", "is_disabled": 0, "lat": 38.89568883333333, "rental_uris": {"ios": "https://dc.lft.to/lastmile_qr_scan", "android": "https://dc.lft.to/lastmile_qr_scan"}, "bike_id": "f3534019ae43c4a5aaddacad6cff1e81", "type": "electric_scooter", "lon": -76.98324283333334, "is_reserved": 0, "fusion_lat": 0.0, "fusion_lon": 0.0}, {"name": "396f6cf56669453975ee65883042a55d", "is_disabled": 0, "lat": 38.91932883333333, "rental_uris": {"ios": "https://dc.lft.to/lastmile_qr_scan", "android": "https://dc.lft.to/lastmile_qr_scan"}, "bike_id": "396f6cf56669453975ee65883042a55d", "type": "electric_scooter", "lon": -77.04499733333333, "is_reserved": 0, "fusion_lat": 0.0, "fusion_lon": 0.0},