{"data": {"bikes": [{"lon": -77.041529, "name": "08e3b4f51732c19e4d3766c161e5a535", "is_disabled": 0, "type": "electric_scooter", "is_reserved": 0, "fusion_lon": 0.0, "lat": 38.92354533333334, "rental_uris": {"ios": "https://dc.lft.to/lastmile_qr_scan", "android": "https://dc.lft.to/lastmile_qr_scan"}, "bike_id": "08e3b4f51732c19e4d3766c161e5a535", "fusion_lat": 0.0}, {"lon": -77.04544333333334, "name": "5537a7535992c4e7a6caa5d350855d09", "is_disabled": 0, "type": "electric_scooter", "is_reserved": 0, "fusion_lon": 0.0, "lat": 38.91492916666667, "rental_uris": {"ios": "https://dc.lft.to/lastmile_qr_scan", "android": "https://dc.lft.to/lastmile_qr_scan"}, "bike_id": "5537a7535992c4e7a6caa5d350855d09", "fusion_lat": 0.0}, {"lon": -77.02714316666666, "name": "7abcbbea83b6d9da10ff942869208cbc", "is_disabled": 0, "type": "electric_scooter", "is_reserved": 0, "fusion_lon": 0.0, "lat": 38.89572616666667, "rental_uris": {"ios": "https://dc.lft.to/lastmile_qr_scan", "android": "https://dc.lft.to/lastmile_qr_scan"}, "bike_id": "7abcbbea83b6d9da10ff942869208cbc", "fusion_lat": 0.0}, {"lon": -77.0022165, "name": "d08dfea533cd8ba25c106acc7b29a196", "is_disabled": 0, "type": "electric_scooter", "is_reserved": 0, "fusion_lon": 0.0, "lat": 38.891924, "rental_uris": {"ios": "https://dc.lft.to/lastmile_qr_scan", "android": "https://dc.lft.to/lastmile_qr_scan"}, "bike_id": "d08dfea533cd8ba25c106acc7b29a196", "fusion_lat": 0.0}, {"lon": -77.06462416666666, "name": "480d94babe311b2444366f6c81730e8a", "is_disabled": 0, "type": "electric_scooter", "is_reserved": 0, "fusion_lon": 0.0, "lat": 38.910438666666664, "rental_uris": {"ios": "https://dc.lft.to/lastmile_qr_scan", "android": "https://dc.lft.to/lastmile_qr_scan"}, "bike_id": "480d94babe311b2444366f6c81730e8a", "fusion_lat": 0.0}, {"lon": -77.027145, "name": "437e7284ccb0ce01721334f5d644796d", "is_disabled": 0, "type": "electric_scooter", "is_reserved": 0, "fusion_lon": 0.0, "lat": 38.91815116666667, "rental_uris": {"ios": "https://dc.lft.to/lastmile_qr_scan", "android": "https://dc.lft.to/lastmile_qr_scan"}, "bike_id": "437e7284ccb0ce01721334f5d644796d", "fusion_lat": 0.0}, {"lon": -77.04355833333334, "name": "32f371e9f27e7f7c369537e9a9066f41", "is_disabled": 0, "type": "electric_scooter", "is_reserved": 0, "fusion_lon": 0.0, "lat": 38.904286666666664, "rental_uris": {"ios": "https://dc.lft.to/lastmile_qr_scan", "android": "https://dc.lft.to/lastmile_qr_scan"}, "bike_id": "32f371e9f27e7f7c369537e9a9066f41", "fusion_lat": 0.0}, {"lon": -77.02073266666666, "name": "a82dcb9278f01177403ba0e51f42657f", "is_disabled": 0, "type": "electric_scooter", "is_reserved": 0, "fusion_lon": 0.0, "lat": 38.9525925, "rental_uris": {"ios": "https://dc.lft.to/lastmile_qr_scan", "android": "https://dc.lft.to/lastmile_qr_scan"}, "bike_id": "a82dcb9278f01177403ba0e51f42657f", "fusion_lat": 0.0}, {"lon": -76.95200133333333, "name": "e5a1a9b8639c140d2c7be71ef4e8f93a", "is_disabled": 0, "type": "electric_bike", "is_reserved": 0, "fusion_lon": 0.0, "lat": 38.891143166666666, "rental_uris": {"ios": "https://dc.lft.to/lastmile_qr_scan", "android": "https://dc.lft.to/lastmile_qr_scan"}, "bike_id": "e5a1a9b8639c140d2c7be71ef4e8f93a", "fusion_lat": 0.0}, {"lon": -77.065657, "name": "b949ec5f7404a549023e44ce34a6f1e5", "is_disabled": 0, "type": "electric_bike", "is_reserved": 0, "fusion_lon": 0.0, "lat": 38.9326465, "rental_uris": {"ios": "https://dc.lft.to/lastmile_qr_scan", "android": "https://dc.lft.to/lastmile_qr_scan"}, "bike_id": "b949ec5f7404a549023e44ce34a6f1e5", "fusion_lat": 0.0}, {"lon": -76.99857783333333, "name": "875cabd13421e469b060c6a97639194f", "is_disabled": 0, "type": "electric_scooter", "is_reserved": 0, "fusion_lon": 0.0, "lat": 38.90258, "rental_uris": {"ios": "https://dc.lft.to/lastmile_qr_scan", "android": "https://dc.lft.to/lastmile_qr_scan"}, "bike_id": "875cabd13421e469b060c6a97639194f", "fusion_lat": 0.0}, {"lon": -77.04517466666667, "name": "2e2cc94bf0d1b3ae299f702aedb3df72", "is_disabled": 0, "type": "electric_scooter", "is_reserved": 0, "fusion_lon": 0.0, "lat": 38.9085455, "rental_uris": {"ios": "https://dc.lft.to/lastmile_qr_scan", "android": "https://dc.lft.to/lastmile_qr_scan"}, "bike_id": "2e2cc94bf0d1b3ae299f702aedb3df72", "fusion_lat": 0.0}, {"lon": -77.04218216666666, "name": "b53537007e31cd53cd3688085f6497e3", "is_disabled": 0, "type": "electric_scooter", "is_reserved": 0, "fusion_lon": 0.0, "lat": 38.9214865, "rental_uris": {"ios": "https://dc.lft.to/lastmile_qr_scan", "android": "https://dc.lft.to/lastmile_qr_scan"}, "bike_id": "b53537007e31cd53cd3688085f6497e3", "fusion_lat": 0.0}, {"lon": -77.02002883333333, "name": "f9c86e679977c443b563d7b3def7ef1f", "is_disabled": 0, "type": "electric_scooter", "is_reserved": 0, "fusion_lon": 0.0, "lat": 38.9235795, "rental_uris": {"ios": "https://dc.lft.to/lastmile_qr_scan", "android": "https://dc.lft.to/lastmile_qr_scan"}, "bike_id": "f9c86e679977c443b563d7b3def7ef1f", "fusion_lat": 0.0}, {"lon": -77.02298366666666, "name": "61e663120c83fa722cc0d756eb04ac1f", "is_disabled": 0, "type": "electric_scooter", "is_reserved": 0, "fusion_lon": 0.0, "lat": 38.920576, "rental_uris": {"ios": "https://dc.lft.to/lastmile_qr_scan", "android": "https://dc.lft.to/lastmile_qr_scan"}, "bike_id": "61e663120c83fa722cc0d756eb04ac1f", "fusion_lat": 0.0}, {"lon": -77.04410716666666, "name": "f852355399362dc11926e2c129f68c46", "is_disabled": 0, "type": "electric_scooter", "is_reserved": 0, "fusion_lon": 0.0, "lat": 38.92041233333333, "rental_uris": {"ios": "https://dc.lft.to/lastmile_qr_scan", "android": "https://dc.lft.to/lastmile_qr_scan"}, "bike_id": "f852355399362dc11926e2c129f68c46", "fusion_lat": 0.0}, {"lon": -76.98083516666667, "name": "e83f717db67c2e51be0aea26d309e2e8", "is_disabled": 0, "type": "electric_scooter", "is_reserved": 0, "fusion_lon": 0.0, "lat": 38.8943735, "rental_uris": {"ios": "https://dc.lft.to/lastmile_qr_scan", "android": "https://dc.lft.to/lastmile_qr_scan"}, "bike_id": "e83f717db67c2e51be0aea26d309e2e8", "fusion_lat": 0.0}, {"lon": -77.05228316666667, "name": "8805808858467da6b4a1a9bbcb5fcd1c", "is_disabled": 0, "type": "electric_scooter", "is_reserved": 0, "fusion_lon": 0.0, "lat": 38.92467883333333, "rental_uris": {"ios": "https://dc.lft.to/lastmile_qr_scan", "android": "https://dc.lft.to/lastmile_qr_scan"}, "bike_id": "8805808858467da6b4a1a9bbcb5fcd1c", "fusion_lat": 0.0}, {"lon": -77.05718666666667, "name": "11ae8bbe183c285aedfdda7902874fec", "is_disabled": 0, "type": "electric_scooter", "is_reserved": 0, "fusion_lon": 0.0, "lat": 38.9313495, "rental_uris": {"ios": "https://dc.lft.to/lastmile_qr_scan", "android": "https://dc.lft.to/lastmile_qr_scan"}, "bike_id": "11ae8bbe183c285aedfdda7902874fec", "fusion_lat": 0.0}, {"lon": -77.02206966666667, "name": "85d52871c828443504aa45082b078164", "is_disabled": 0, "type": "electric_scooter", "is_reserved": 0, "fusion_lon": 0.0, "lat": 38.9164235, "rental_uris": {"ios": "https://dc.lft.to/lastmile_qr_scan", "android": "https://dc.lft.to/lastmile_qr_scan"}, "bike_id": "85d52871c828443504aa45082b078164", "fusion_lat": 0.0}, {"lon": -76.925824, "name": "474a2155dd6ae4b0867e4d2e844f935b", "is_disabled": 0, "type": "electric_scooter", "is_reserved": 0, "fusion_lon": 0.0, "lat": 38.8972735, "rental_uris": {"ios": "https://dc.lft.to/lastmile_qr_scan", "android": "https://dc.lft.to/lastmile_qr_scan"}, "bike_id": "474a2155dd6ae4b0867e4d2e844f935b", "fusion_lat": 0.0}, {"lon": -77.03448566666667, "name": "4130885bd933cc31b3fd62cacc2d0eb2", "is_disabled": 0, "type": "electric_scooter", "is_reserved": 0, "fusion_lon": 0.0, "lat": 38.911743333333334, "rental_uris": {"ios": "https://dc.lft.to/lastmile_qr_scan", "android": "https://dc.lft.to/lastmile_qr_scan"}, "bike_id": "4130885bd933cc31b3fd62cacc2d0eb2", "fusion_lat": 0.0}, {"lon": -77.02584666666667, "name": "9a9755a29d3e9232c0f3dc6870dd6b9b", "is_disabled": 0, "type": "electric_scooter", "is_reserved": 0, "fusion_lon": 0.0, "lat": 38.92032433333333, "rental_uris": {"ios": "https://dc.lft.to/lastmile_qr_scan", "android": "https://dc.lft.to/lastmile_qr_scan"}, "bike_id": "9a9755a29d3e9232c0f3dc6870dd6b9b", "fusion_lat": 0.0}, {"lon": -77.01056966666667, "name": "8a86a6f7d28a6e0a670cb6be782dd202", "is_disabled": 0, "type": "electric_bike", "is_reserved": 0, "fusion_lon": 0.0, "lat": 38.966318666666666, "rental_uris": {"ios": "https://dc.lft.to/lastmile_qr_scan", "android": "https://dc.lft.to/lastmile_qr_scan"}, "bike_id": "8a86a6f7d28a6e0a670cb6be782dd202", "fusion_lat": 0.0}, {"lon": -77.00047966666666, "name": "a22cc451288b430f97aafbab326671c4", "is_disabled": 0, "type": "electric_scooter", "is_reserved": 0, "fusion_lon": 0.0, "lat": 38.87881316666667, "rental_uris": {"ios": "https://dc.lft.to/lastmile_qr_scan", "android": "https://dc.lft.to/lastmile_qr_scan"}, "bike_id": "a22cc451288b430f97aafbab326671c4", "fusion_lat": 0.0}, {"lon": -77.02135, "name": "2377c977b7fce246edcf587bfbd2f5aa", "is_disabled": 0, "type": "electric_scooter", "is_reserved": 0, "fusion_lon": 0.0, "lat": 38.924862833333336, "rental_uris": {"ios": "https://dc.lft.to/lastmile_qr_scan", "android": "https://dc.lft.to/lastmile_qr_scan"}, "bike_id": "2377c977b7fce246edcf587bfbd2f5aa", "fusion_lat": 0.0}, {"lon": -77.04864016666667, "name": "6af9a6de138ab047845cb4bbd589f41c", "is_disabled": 0, "type": "electric_scooter", "is_reserved": 0, "fusion_lon": 0.0, "lat": 38.916200333333336, "rental_uris": {"ios": "https://dc.lft.to/lastmile_qr_scan", "android": "https://dc.lft.to/lastmile_qr_scan"}, "bike_id": "6af9a6de138ab047845cb4bbd589f41c", "fusion_lat": 0.0}, {"lon": -77.0232355, "name": "be54e15ac83cb1f565a521f456d68e43", "is_disabled": 0, "type": "electric_scooter", "is_reserved": 0, "fusion_lon": 0.0, "lat": 38.9276575, "rental_uris": {"ios": "https://dc.lft.to/lastmile_qr_scan", "android": "https://dc.lft.to/lastmile_qr_scan"}, "bike_id": "be54e15ac83cb1f565a521f456d68e43", "fusion_lat": 0.0}, {"lon": -77.02310766666666, "name": "262fbb36310ba710dfa400586fbd0305", "is_disabled": 0, "type": "electric_scooter", "is_reserved": 0, "fusion_lon": 0.0, "lat": 38.92071766666667, "rental_uris": {"ios": "https://dc.lft.to/lastmile_qr_scan", "android": "https://dc.lft.to/lastmile_qr_scan"}, "bike_id": "262fbb36310ba710dfa400586fbd0305", "fusion_lat": 0.0}, {"lon": -77.00057433333333, "name": "b2001483c01818d35d5a3f52800b3b8b", "is_disabled": 0, "type": "electric_scooter", "is_reserved": 0, "fusion_lon": 0.0, "lat": 38.876810666666664, "rental_uris": {"ios": "https://dc.lft.to/lastmile_qr_scan", "android": "https://dc.lft.to/lastmile_qr_scan"}, "bike_id": "b2001483c01818d35d5a3f52800b3b8b", "fusion_lat": 0.0}, {"lon": -76.92505633333333, "name": "da71d11067ea87b69fff3b1e92af2a44", "is_disabled": 0, "type": "electric_scooter", "is_reserved": 0, "fusion_lon": 0.0, "lat": 38.8860035, "rental_uris": {"ios": "https://dc.lft.to/lastmile_qr_scan", "android": "https://dc.lft.to/lastmile_qr_scan"}, "bike_id": "da71d11067ea87b69fff3b1e92af2a44", "fusion_lat": 0.0}, {"lon": -77.04376266666667, "name": "fb2ee2abb118e60a6071727bddfbb075", "is_disabled": 0, "type": "electric_scooter", "is_reserved": 0, "fusion_lon": 0.0, "lat": 38.898423, "rental_uris": {"ios": "https://dc.lft.to/lastmile_qr_scan", "android": "https://dc.lft.to/lastmile_qr_scan"}, "bike_id": "fb2ee2abb118e60a6071727bddfbb075", "fusion_lat": 0.0}, {"lon": -76.9915825, "name": "2ef741d0cae7e8f18e87733aecaab26f", "is_disabled": 0, "type": "electric_scooter", "is_reserved": 0, "fusion_lon": 0.0, "lat": 38.899051666666665, "rental_uris": {"ios": "https://dc.lft.to/lastmile_qr_scan", "android": "https://dc.lft.to/lastmile_qr_scan"}, "bike_id": "2ef741d0cae7e8f18e87733aecaab26f", "fusion_lat": 0.0}, {"lon": -77.027594, "name": "515d6e05a3684b06520393cc976465ef", "is_disabled": 0, "type": "electric_scooter", "is_reserved": 0, "fusion_lon": 0.0, "lat": 38.95612783333333, "rental_uris": {"ios": "https://dc.lft.to/lastmile_qr_scan", "android": "https://dc.lft.to/lastmile_qr_scan"}, "bike_id": "515d6e05a3684b06520393cc976465ef", "fusion_lat": 0.0}, {"lon": -77.05701783333333, "name": "5c361cd9a58293c3f752755e6ba896fe", "is_disabled": 0, "type": "electric_scooter", "is_reserved": 0, "fusion_lon": 0.0, "lat": 38.91667066666667, "rental_uris": {"ios": "https://dc.lft.to/lastmile_qr_scan", "android": "https://dc.lft.to/lastmile_qr_scan"}, "bike_id": "5c361cd9a58293c3f752755e6ba896fe", "fusion_lat": 0.0}, {"lon": -77.01843733333334, "name": "bb82975a417406b109f289e4e239f23a", "is_disabled": 0, "type": "electric_scooter", "is_reserved": 0, "fusion_lon": 0.0, "lat": 38.87712916666667, "rental_uris": {"ios": "https://dc.lft.to/lastmile_qr_scan", "android": "https://dc.lft.to/lastmile_qr_scan"}, "bike_id": "bb82975a417406b109f289e4e239f23a", "fusion_lat": 0.0}, {"lon": -76.9950905, "name": "9bc60a3bacbc78f513ed933fa8b55e37", "is_disabled": 0, "type": "electric_scooter", "is_reserved": 0, "fusion_lon": 0.0, "lat": 38.88086233333333, "rental_uris": {"ios": "https://dc.lft.to/lastmile_qr_scan", "android": "https://dc.lft.to/lastmile_qr_scan"}, "bike_id": "9bc60a3bacbc78f513ed933fa8b55e37", "fusion_lat": 0.0}, {"lon": -76.99854833333333, "name": "3d108eaf4f3aa814f087e938c69bff4c", "is_disabled": 0, "type": "electric_scooter", "is_reserved": 0, "fusion_lon": 0.0, "lat": 38.902548833333334, "rental_uris": {"ios": "https://dc.lft.to/lastmile_qr_scan", "android": "https://dc.lft.to/lastmile_qr_scan"}, "bike_id": "3d108eaf4f3aa814f087e938c69bff4c", "fusion_lat": 0.0}, {"lon": -77.02027066666666, "name": "cc1b4269817b8b3550c358f2554c7927", "is_disabled": 0, "type": "electric_scooter", "is_reserved": 0, "fusion_lon": 0.0, "lat": 38.921225666666665, "rental_uris": {"ios": "https://dc.lft.to/lastmile_qr_scan", "android": "https://dc.lft.to/lastmile_qr_scan"}, "bike_id": "cc1b4269817b8b3550c358f2554c7927", "fusion_lat": 0.0}, {"lon": -77.02162633333333, "name": "62657e13254753fd4b657599a45658fc", "is_disabled": 0, "type": "electric_bike", "is_reserved": 0, "fusion_lon": 0.0, "lat": 38.95741983333333, "rental_uris": {"ios": "https://dc.lft.to/lastmile_qr_scan", "android": "https://dc.lft.to/lastmile_qr_scan"}, "bike_id": "62657e13254753fd4b657599a45658fc", "fusion_lat": 0.0}, {"lon": -77.02822483333334, "name": "1776c92c177f25b6e3e23fa6c13478c3", "is_disabled": 0, "type": "electric_scooter", "is_reserved": 0, "fusion_lon": 0.0, "lat": 38.92225466666667, "rental_uris": {"ios": "https://dc.lft.to/lastmile_qr_scan", "android": "https://dc.lft.to/lastmile_qr_scan"}, "bike_id": "1776c92c177f25b6e3e23fa6c13478c3", "fusion_lat": 0.0}, {"lon": -77.019513, "name": "ecf937416f8e9c24375be2b88237c113", "is_disabled": 0, "type": "electric_scooter", "is_reserved": 0, "fusion_lon": 0.0, "lat": 38.88483266666667, "rental_uris": {"ios": "https://dc.lft.to/lastmile_qr_scan", "android": "https://dc.lft.to/lastmile_qr_scan"}, "bike_id": "ecf937416f8e9c24375be2b88237c113", "fusion_lat": 0.0}, {"lon": -77.053292, "name": "4aa7e10b7fd7855c0fcfa7ccbe8c9810", "is_disabled": 0, "type": "electric_scooter", "is_reserved": 0, "fusion_lon": 0.0, "lat": 38.90158866666667, "rental_uris": {"ios": "https://dc.lft.to/lastmile_qr_scan", "android": "https://dc.lft.to/lastmile_qr_scan"}, "bike_id": "4aa7e10b7fd7855c0fcfa7ccbe8c9810", "fusion_lat": 0.0}, {"lon": -77.0405955, "name": "9141da6e20958dcea76cf6a5d876eade", "is_disabled": 0, "type": "electric_scooter", "is_reserved": 0, "fusion_lon": 0.0, "lat": 38.898847, "rental_uris": {"ios": "https://dc.lft.to/lastmile_qr_scan", "android": "https://dc.lft.to/lastmile_qr_scan"}, "bike_id": "9141da6e20958dcea76cf6a5d876eade", "fusion_lat": 0.0}, {"lon": -77.02115833333333, "name": "1808175b9fbbb63b1ce327fb17ba22c5", "is_disabled": 0, "type": "electric_scooter", "is_reserved": 0, "fusion_lon": 0.0, "lat": 38.917367166666665, "rental_uris": {"ios": "https://dc.lft.to/lastmile_qr_scan", "android": "https://dc.lft.to/lastmile_qr_scan"}, "bike_id": "1808175b9fbbb63b1ce327fb17ba22c5", "fusion_lat": 0.0}, {"lon": -77.00309083333333, "name": "d846817291a19c975467f8c1b2427970", "is_disabled": 0, "type": "electric_scooter", "is_reserved": 0, "fusion_lon": 0.0, "lat": 38.876592, "rental_uris": {"ios": "https://dc.lft.to/lastmile_qr_scan", "android": "https://dc.lft.to/lastmile_qr_scan"}, "bike_id": "d846817291a19c975467f8c1b2427970", "fusion_lat": 0.0}, {"lon": -77.043392, "name": "3e29d8cab739dd88407ec4c74f513608", "is_disabled": 0, "type": "electric_scooter", "is_reserved": 0, "fusion_lon": 0.0, "lat": 38.897392833333335, "rental_uris": {"ios": "https://dc.lft.to/lastmile_qr_scan", "android": "https://dc.lft.to/lastmile_qr_scan"}, "bike_id": "3e29d8cab739dd88407ec4c74f513608", "fusion_lat": 0.0}, {"lon": -77.0396935, "name": "5f6d1c989444f138c2c04951c65fcd23", "is_disabled": 0, "type": "electric_scooter", "is_reserved": 0, "fusion_lon": 0.0, "lat": 38.90549216666667, "rental_uris": {"ios": "https://dc.lft.to/lastmile_qr_scan", "android": "https://dc.lft.to/lastmile_qr_scan"}, "bike_id": "5f6d1c989444f138c2c04951c65fcd23", "fusion_lat": 0.0}, {"lon": -77.09686333333333, "name": "8fe7480d822e9b958991c81608f62cf9", "is_disabled": 0, "type": "electric_bike", "is_reserved": 0, "fusion_lon": 0.0, "lat": 38.807383, "rental_uris": {"ios": "https://dc.lft.to/lastmile_qr_scan", "android": "https://dc.lft.to/lastmile_qr_scan"}, "bike_id": "8fe7480d822e9b958991c81608f62cf9", "fusion_lat": 0.0}, {"lon": -77.0715355, "name": "c35d806c43d4f8cbd687caa049f14f19", "is_disabled": 0, "type": "electric_scooter", "is_reserved": 0, "fusion_lon": 0.0, "lat": 38.9086995, "rental_uris": {"ios": "https://dc.lft.to/lastmile_qr_scan", "android": "https://dc.lft.to/lastmile_qr_scan"}, "bike_id": "c35d806c43d4f8cbd687caa049f14f19", "fusion_lat": 0.0}, {"lon": -77.01512366666667, "name": "48c68f66b6022ad2aab72b25403629fa", "is_disabled": 0, "type": "electric_scooter", "is_reserved": 0, "fusion_lon": 0.0, "lat": 38.872794666666664, "rental_uris": {"ios": "https://dc.lft.to/lastmile_qr_scan", "android": "https://dc.lft.to/lastmile_qr_scan"}, "bike_id": "48c68f66b6022ad2aab72b25403629fa", "fusion_lat": 0.0}, {"lon": -77.0314235, "name": "9617f826be18ec7d2ce79517c54e6b87", "is_disabled": 0, "type": "electric_scooter", "is_reserved": 0, "fusion_lon": 0.0, "lat": 38.912626, "rental_uris": {"ios": "https://dc.lft.to/lastmile_qr_scan", "android": "https://dc.lft.to/lastmile_qr_scan"}, "bike_id": "9617f826be18ec7d2ce79517c54e6b87", "fusion_lat": 0.0}, {"lon": -77.021268, "name": "54db765265b55d2b5e6037538c212730", "is_disabled": 0, "type": "electric_scooter", "is_reserved": 0, "fusion_lon": 0.0, "lat": 38.921208166666666, "rental_uris": {"ios": "https://dc.lft.to/lastmile_qr_scan", "android": "https://dc.lft.to/lastmile_qr_scan"}, "bike_id": "54db765265b55d2b5e6037538c212730", "fusion_lat": 0.0}, {"lon": -76.992335, "name": "ba4c94fb3b8470cf8d77a5607c53dd2f", "is_disabled": 0, "type": "electric_scooter", "is_reserved": 0, "fusion_lon": 0.0, "lat": 38.902094166666664, "rental_uris": {"ios": "https://dc.lft.to/lastmile_qr_scan", "android": "https://dc.lft.to/lastmile_qr_scan"}, "bike_id": "ba4c94fb3b8470cf8d77a5607c53dd2f", "fusion_lat": 0.0}, {"lon": -77.046122, "name": "05ee76773c337e01d4553a901292e756", "is_disabled": 0, "type": "electric_scooter", "is_reserved": 0, "fusion_lon": 0.0, "lat": 38.897994833333335, "rental_uris": {"ios": "https://dc.lft.to/lastmile_qr_scan", "android": "https://dc.lft.to/lastmile_qr_scan"}, "bike_id": "05ee76773c337e01d4553a901292e756", "fusion_lat": 0.0}, {"lon": -77.02309833333334, "name": "89d96feeed6be345a99b9e252ceec918", "is_disabled": 0, "type": "electric_scooter", "is_reserved": 0, "fusion_lon": 0.0, "lat": 38.917035166666665, "rental_uris": {"ios": "https://dc.lft.to/lastmile_qr_scan", "android": "https://dc.lft.to/lastmile_qr_scan"}, "bike_id": "89d96feeed6be345a99b9e252ceec918", "fusion_lat": 0.0}, {"lon": -77.06352633333333, "name": "bbe66a9904ac37c340e6ee9d32595267", "is_disabled": 0, "type": "electric_scooter", "is_reserved": 0, "fusion_lon": 0.0, "lat": 38.944456833333334, "rental_uris": {"ios": "https://dc.lft.to/lastmile_qr_scan", "android": "https://dc.lft.to/lastmile_qr_scan"}, "bike_id": "bbe66a9904ac37c340e6ee9d32595267", "fusion_lat": 0.0}, {"lon": -77.00866033333334, "name": "dddbcb2001cb29289547f6df44a75cc0", "is_disabled": 0, "type": "electric_scooter", "is_reserved": 0, "fusion_lon": 0.0, "lat": 38.89742483333333, "rental_uris": {"ios": "https://dc.lft.to/lastmile_qr_scan", "android": "https://dc.lft.to/lastmile_qr_scan"}, "bike_id": "dddbcb2001cb29289547f6df44a75cc0", "fusion_lat": 0.0}, {"lon": -76.948837, "name": "750732cf9c9513254bb5afeb2477fed1", "is_disabled": 0, "type": "electric_scooter", "is_reserved": 0, "fusion_lon": 0.0, "lat": 38.895049, "rental_uris": {"ios": "https://dc.lft.to/lastmile_qr_scan", "android": "https://dc.lft.to/lastmile_qr_scan"}, "bike_id": "750732cf9c9513254bb5afeb2477fed1", "fusion_lat": 0.0}, {"lon": -77.0321445, "name": "5c4388e8e45922ad9797885e093fea22", "is_disabled": 0, "type": "electric_scooter", "is_reserved": 0, "fusion_lon": 0.0, "lat": 38.91693383333333, "rental_uris": {"ios": "https://dc.lft.to/lastmile_qr_scan", "android": "https://dc.lft.to/lastmile_qr_scan"}, "bike_id": "5c4388e8e45922ad9797885e093fea22", "fusion_lat": 0.0}, {"lon": -77.00049616666666, "name": "f121b4bb05c4c0a2ab68f83d4397af9c", "is_disabled": 0, "type": "electric_scooter", "is_reserved": 0, "fusion_lon": 0.0, "lat": 38.9206285, "rental_uris": {"ios": "https://dc.lft.to/lastmile_qr_scan", "android": "https://dc.lft.to/lastmile_qr_scan"}, "bike_id": "f121b4bb05c4c0a2ab68f83d4397af9c", "fusion_lat": 0.0}, {"lon": -77.03179866666666, "name": "069ee5f411c55139587689d549195d95", "is_disabled": 0, "type": "electric_scooter", "is_reserved": 0, "fusion_lon": 0.0, "lat": 38.914267333333335, "rental_uris": {"ios": "https://dc.lft.to/lastmile_qr_scan", "android": "https://dc.lft.to/lastmile_qr_scan"}, "bike_id": "069ee5f411c55139587689d549195d95", "fusion_lat": 0.0}, {"lon": -76.99274583333333, "name": "3cbfd450fc31fdb3fefdc5abfff62f33", "is_disabled": 0, "type": "electric_scooter", "is_reserved": 0, "fusion_lon": 0.0, "lat": 38.903101, "rental_uris": {"ios": "https://dc.lft.to/lastmile_qr_scan", "android": "https://dc.lft.to/lastmile_qr_scan"}, "bike_id": "3cbfd450fc31fdb3fefdc5abfff62f33", "fusion_lat": 0.0}, {"lon": -77.025843, "name": "853d81265f554c07edf8bc5deab49888", "is_disabled": 0, "type": "electric_scooter", "is_reserved": 0, "fusion_lon": 0.0, "lat": 38.96389333333333, "rental_uris": {"ios": "https://dc.lft.to/lastmile_qr_scan", "android": "https://dc.lft.to/lastmile_qr_scan"}, "bike_id": "853d81265f554c07edf8bc5deab49888", "fusion_lat": 0.0}, {"lon": -77.23392, "name": "3bff18158f57e2150321f72ea34d65d2", "is_disabled": 0, "type": "electric_bike", "is_reserved": 0, "fusion_lon": 0.0, "lat": 38.87173516666667, "rental_uris": {"ios": "https://dc.lft.to/lastmile_qr_scan", "android": "https://dc.lft.to/lastmile_qr_scan"}, "bike_id": "3bff18158f57e2150321f72ea34d65d2", "fusion_lat": 0.0}, {"lon": -77.02133716666667, "name": "69db8520a1fe4fb1e11e7b86a89f6a16", "is_disabled": 0, "type": "electric_scooter", "is_reserved": 0, "fusion_lon": 0.0, "lat": 38.92489783333333, "rental_uris": {"ios": "https://dc.lft.to/lastmile_qr_scan", "android": "https://dc.lft.to/lastmile_qr_scan"}, "bike_id": "69db8520a1fe4fb1e11e7b86a89f6a16", "fusion_lat": 0.0}, {"lon": -77.03233583333333, "name": "13717e68274a3506fea5b220ddd54e75", "is_disabled": 0, "type": "electric_scooter", "is_reserved": 0, "fusion_lon": 0.0, "lat": 38.9125825, "rental_uris": {"ios": "https://dc.lft.to/lastmile_qr_scan", "android": "https://dc.lft.to/lastmile_qr_scan"}, "bike_id": "13717e68274a3506fea5b220ddd54e75", "fusion_lat": 0.0}, {"lon": -77.03727816666667, "name": "1dcd46323745098aa4a5658bb12e7b60", "is_disabled": 0, "type": "electric_scooter", "is_reserved": 0, "fusion_lon": 0.0, "lat": 38.92470383333333, "rental_uris": {"ios": "https://dc.lft.to/lastmile_qr_scan", "android": "https://dc.lft.to/lastmile_qr_scan"}, "bike_id": "1dcd46323745098aa4a5658bb12e7b60", "fusion_lat": 0.0}, {"lon": -77.04171616666666, "name": "75890e7fde1ac01ae1cd9760aa64511c", "is_disabled": 0, "type": "electric_scooter", "is_reserved": 0, "fusion_lon": 0.0, "lat": 38.916057, "rental_uris": {"ios": "https://dc.lft.to/lastmile_qr_scan", "android": "https://dc.lft.to/lastmile_qr_scan"}, "bike_id": "75890e7fde1ac01ae1cd9760aa64511c", "fusion_lat": 0.0}, {"lon": -77.0244705, "name": "3f066ab2918a0c088f00b1418706ad2f", "is_disabled": 0, "type": "electric_scooter", "is_reserved": 0, "fusion_lon": 0.0, "lat": 38.91333783333333, "rental_uris": {"ios": "https://dc.lft.to/lastmile_qr_scan", "android": "https://dc.lft.to/lastmile_qr_scan"}, "bike_id": "3f066ab2918a0c088f00b1418706ad2f", "fusion_lat": 0.0}, {"lon": -77.020986, "name": "9f9247ce5ec901569e435a4482c53864", "is_disabled": 0, "type": "electric_scooter", "is_reserved": 0, "fusion_lon": 0.0, "lat": 38.9018995, "rental_uris": {"ios": "https://dc.lft.to/lastmile_qr_scan", "android": "https://dc.lft.to/lastmile_qr_scan"}, "bike_id": "9f9247ce5ec901569e435a4482c53864", "fusion_lat": 0.0}, {"lon": -77.001974, "name": "00d82387a5bd181b4a9d75178a5c5367", "is_disabled": 0, "type": "electric_scooter", "is_reserved": 0, "fusion_lon": 0.0, "lat": 38.90036333333333, "rental_uris": {"ios": "https://dc.lft.to/lastmile_qr_scan", "android": "https://dc.lft.to/lastmile_qr_scan"}, "bike_id": "00d82387a5bd181b4a9d75178a5c5367", "fusion_lat": 0.0}, {"lon": -77.050987, "name": "c81cb6e8196951a973fb400263dbdce0", "is_disabled": 0, "type": "electric_scooter", "is_reserved": 0, "fusion_lon": 0.0, "lat": 38.901758, "rental_uris": {"ios": "https://dc.lft.to/lastmile_qr_scan", "android": "https://dc.lft.to/lastmile_qr_scan"}, "bike_id": "c81cb6e8196951a973fb400263dbdce0", "fusion_lat": 0.0}, {"lon": -77.01112183333333, "name": "dbc0351d86bc28f10be6fb04babe34b8", "is_disabled": 0, "type": "electric_scooter", "is_reserved": 0, "fusion_lon": 0.0, "lat": 38.90348066666667, "rental_uris": {"ios": "https://dc.lft.to/lastmile_qr_scan", "android": "https://dc.lft.to/lastmile_qr_scan"}, "bike_id": "dbc0351d86bc28f10be6fb04babe34b8", "fusion_lat": 0.0}, {"lon": -76.93737483333334, "name": "27dbe002b14db3f97eb3183cb6163a55", "is_disabled": 0, "type": "electric_scooter", "is_reserved": 0, "fusion_lon": 0.0, "lat": 38.89009983333333, "rental_uris": {"ios": "https://dc.lft.to/lastmile_qr_scan", "android": "https://dc.lft.to/lastmile_qr_scan"}, "bike_id": "27dbe002b14db3f97eb3183cb6163a55", "fusion_lat": 0.0}, {"lon": -76.92587783333333, "name": "997cf96327cae0113535f0021a5bf69c", "is_disabled": 0, "type": "electric_scooter", "is_reserved": 0, "fusion_lon": 0.0, "lat": 38.89739016666667, "rental_uris": {"ios": "https://dc.lft.to/lastmile_qr_scan", "android": "https://dc.lft.to/lastmile_qr_scan"}, "bike_id": "997cf96327cae0113535f0021a5bf69c", "fusion_lat": 0.0}, {"lon": -77.044114, "name": "44140644879a48b82274e901b4d9106b", "is_disabled": 0, "type": "electric_scooter", "is_reserved": 0, "fusion_lon": 0.0, "lat": 38.9258515, "rental_uris": {"ios": "https://dc.lft.to/lastmile_qr_scan", "android": "https://dc.lft.to/lastmile_qr_scan"}, "bike_id": "44140644879a48b82274e901b4d9106b", "fusion_lat": 0.0}, {"lon": -77.04104566666666, "name": "3be4cfc8bb452d4c526e1e4b119d7758", "is_disabled": 0, "type": "electric_scooter", "is_reserved": 0, "fusion_lon": 0.0, "lat": 38.900120666666666, "rental_uris": {"ios": "https://dc.lft.to/lastmile_qr_scan", "android": "https://dc.lft.to/lastmile_qr_scan"}, "bike_id": "3be4cfc8bb452d4c526e1e4b119d7758", "fusion_lat": 0.0}, {"lon": -77.01898066666666, "name": "6c58e2a8db1405ec49bab81ceedbb335", "is_disabled": 0, "type": "electric_scooter", "is_reserved": 0, "fusion_lon": 0.0, "lat": 38.92336183333333, "rental_uris": {"ios": "https://dc.lft.to/lastmile_qr_scan", "android": "https://dc.lft.to/lastmile_qr_scan"}, "bike_id": "6c58e2a8db1405ec49bab81ceedbb335", "fusion_lat": 0.0}, {"lon": -77.02690633333333, "name": "5e0922ec5a76e873ceb9dc39ce3c3ac6", "is_disabled": 0, "type": "electric_scooter", "is_reserved": 0, "fusion_lon": 0.0, "lat": 38.897642, "rental_uris": {"ios": "https://dc.lft.to/lastmile_qr_scan", "android": "https://dc.lft.to/lastmile_qr_scan"}, "bike_id": "5e0922ec5a76e873ceb9dc39ce3c3ac6", "fusion_lat": 0.0}, {"lon": -76.99014033333333, "name": "e2fe3cce79e3b2852ae6b6353bcfc3f0", "is_disabled": 0, "type": "electric_scooter", "is_reserved": 0, "fusion_lon": 0.0, "lat": 38.899923, "rental_uris": {"ios": "https://dc.lft.to/lastmile_qr_scan", "android": "https://dc.lft.to/lastmile_qr_scan"}, "bike_id": "e2fe3cce79e3b2852ae6b6353bcfc3f0", "fusion_lat": 0.0}, {"lon": -77.03562366666667, "name": "d85cc979789c6ce6e3a76875680677bf", "is_disabled": 0, "type": "electric_scooter", "is_reserved": 0, "fusion_lon": 0.0, "lat": 38.90470633333334, "rental_uris": {"ios": "https://dc.lft.to/lastmile_qr_scan", "android": "https://dc.lft.to/lastmile_qr_scan"}, "bike_id": "d85cc979789c6ce6e3a76875680677bf", "fusion_lat": 0.0}, {"lon": -77.03320933333333, "name": "39cc3c3b87b731aa444ae437df06e608", "is_disabled": 0, "type": "electric_scooter", "is_reserved": 0, "fusion_lon": 0.0, "lat": 38.903165, "rental_uris": {"ios": "https://dc.lft.to/lastmile_qr_scan", "android": "https://dc.lft.to/lastmile_qr_scan"}, "bike_id": "39cc3c3b87b731aa444ae437df06e608", "fusion_lat": 0.0}, {"lon": -77.03186516666666, "name": "a3ac37d63fb945878b95b0eca49f5444", "is_disabled": 0, "type": "electric_scooter", "is_reserved": 0, "fusion_lon": 0.0, "lat": 38.90858733333334, "rental_uris": {"ios": "https://dc.lft.to/lastmile_qr_scan", "android": "https://dc.lft.to/lastmile_qr_scan"}, "bike_id": "a3ac37d63fb945878b95b0eca49f5444", "fusion_lat": 0.0}, {"lon": -77.08321733333334, "name": "ffc0d02f80500e637ae981a2c237192f", "is_disabled": 0, "type": "electric_scooter", "is_reserved": 0, "fusion_lon": 0.0, "lat": 38.93604633333333, "rental_uris": {"ios": "https://dc.lft.to/lastmile_qr_scan", "android": "https://dc.lft.to/lastmile_qr_scan"}, "bike_id": "ffc0d02f80500e637ae981a2c237192f", "fusion_lat": 0.0}, {"lon": -77.03550316666667, "name": "508826bc084222db7fd8b881d96c1dfd", "is_disabled": 0, "type": "electric_scooter", "is_reserved": 0, "fusion_lon": 0.0, "lat": 38.9048345, "rental_uris": {"ios": "https://dc.lft.to/lastmile_qr_scan", "android": "https://dc.lft.to/lastmile_qr_scan"}, "bike_id": "508826bc084222db7fd8b881d96c1dfd", "fusion_lat": 0.0}, {"lon": -76.981122, "name": "38a765bd32f1c0e906ba4f46ce1cc754", "is_disabled": 0, "type": "electric_scooter", "is_reserved": 0, "fusion_lon": 0.0, "lat": 38.914681333333334, "rental_uris": {"ios": "https://dc.lft.to/lastmile_qr_scan", "android": "https://dc.lft.to/lastmile_qr_scan"}, "bike_id": "38a765bd32f1c0e906ba4f46ce1cc754", "fusion_lat": 0.0}, {"lon": -77.09523283333333, "name": "ca5262b8157cf8df8de0211e29fda7f5", "is_disabled": 0, "type": "electric_bike", "is_reserved": 0, "fusion_lon": 0.0, "lat": 38.838109, "rental_uris": {"ios": "https://dc.lft.to/lastmile_qr_scan", "android": "https://dc.lft.to/lastmile_qr_scan"}, "bike_id": "ca5262b8157cf8df8de0211e29fda7f5", "fusion_lat": 0.0}, {"lon": -77.00575983333333, "name": "59c531aa82fc1e42d84f95ac64b6a424", "is_disabled": 0, "type": "electric_scooter", "is_reserved": 0, "fusion_lon": 0.0, "lat": 38.87211666666666, "rental_uris": {"ios": "https://dc.lft.to/lastmile_qr_scan", "android": "https://dc.lft.to/lastmile_qr_scan"}, "bike_id": "59c531aa82fc1e42d84f95ac64b6a424", "fusion_lat": 0.0}, {"lon": -77.005661, "name": "d9f4908cead123b033705fe13f9f9555", "is_disabled": 0, "type": "electric_scooter", "is_reserved": 0, "fusion_lon": 0.0, "lat": 38.885036, "rental_uris": {"ios": "https://dc.lft.to/lastmile_qr_scan", "android": "https://dc.lft.to/lastmile_qr_scan"}, "bike_id": "d9f4908cead123b033705fe13f9f9555", "fusion_lat": 0.0}, {"lon": -77.03691433333333, "name": "49452ce723b5fd3d8726010bfd74f32a", "is_disabled": 0, "type": "electric_scooter", "is_reserved": 0, "fusion_lon": 0.0, "lat": 38.93644183333333, "rental_uris": {"ios": "https://dc.lft.to/lastmile_qr_scan", "android": "https://dc.lft.to/lastmile_qr_scan"}, "bike_id": "49452ce723b5fd3d8726010bfd74f32a", "fusion_lat": 0.0}, {"lon": -77.01702283333333, "name": "c58737686b2d88a11bfe0b3579a84c8e", "is_disabled": 0, "type": "electric_scooter", "is_reserved": 0, "fusion_lon": 0.0, "lat": 38.887459166666666, "rental_uris": {"ios": "https://dc.lft.to/lastmile_qr_scan", "android": "https://dc.lft.to/lastmile_qr_scan"}, "bike_id": "c58737686b2d88a11bfe0b3579a84c8e", "fusion_lat": 0.0}, {"lon": -76.984824, "name": "69560dfaa2b5ab1d60613678e6b97158", "is_disabled": 0, "type": "electric_scooter", "is_reserved": 0, "fusion_lon": 0.0, "lat": 38.90365333333333, "rental_uris": {"ios": "https://dc.lft.to/lastmile_qr_scan", "android": "https://dc.lft.to/lastmile_qr_scan"}, "bike_id": "69560dfaa2b5ab1d60613678e6b97158", "fusion_lat": 0.0}, {"lon": -77.0221595, "name": "a922c7d85e4a490d1c4ae9f02cb7dc71", "is_disabled": 0, "type": "electric_scooter", "is_reserved": 0, "fusion_lon": 0.0, "lat": 38.9247085, "rental_uris": {"ios": "https://dc.lft.to/lastmile_qr_scan", "android": "https://dc.lft.to/lastmile_qr_scan"}, "bike_id": "a922c7d85e4a490d1c4ae9f02cb7dc71", "fusion_lat": 0.0}, {"lon": -77.00577433333333, "name": "c15ec59aa03665fcf3aa5affe7787ede", "is_disabled": 0, "type": "electric_scooter", "is_reserved": 0, "fusion_lon": 0.0, "lat": 38.87521683333333, "rental_uris": {"ios": "https://dc.lft.to/lastmile_qr_scan", "android": "https://dc.lft.to/lastmile_qr_scan"}, "bike_id": "c15ec59aa03665fcf3aa5affe7787ede", "fusion_lat": 0.0}, {"lon": -77.00920466666666, "name": "ecd2a84345396a3cdad84655452ce5b9", "is_disabled": 0, "type": "electric_scooter", "is_reserved": 0, "fusion_lon": 0.0, "lat": 38.896091, "rental_uris": {"ios": "https://dc.lft.to/lastmile_qr_scan", "android": "https://dc.lft.to/lastmile_qr_scan"}, "bike_id": "ecd2a84345396a3cdad84655452ce5b9", "fusion_lat": 0.0}, {"lon": -77.01067383333333, "name": "1cb82e43fbb77545f51fbfd6326e44a9", "is_disabled": 0, "type": "electric_scooter", "is_reserved": 0, "fusion_lon": 0.0, "lat": 38.874742, "rental_uris": {"ios": "https://dc.lft.to/lastmile_qr_scan", "android": "https://dc.lft.to/lastmile_qr_scan"}, "bike_id": "1cb82e43fbb77545f51fbfd6326e44a9", "fusion_lat": 0.0}, {"lon": -77.10340216666667, "name": "d7b03cf7add8de1d503a262196d341be", "is_disabled": 0, "type": "electric_bike", "is_reserved": 0, "fusion_lon": 0.0, "lat": 38.836891333333334, "rental_uris": {"ios": "https://dc.lft.to/lastmile_qr_scan", "android": "https://dc.lft.to/lastmile_qr_scan"}, "bike_id": "d7b03cf7add8de1d503a262196d341be", "fusion_lat": 0.0}, {"lon": -76.9916895, "name": "367ac187ba3479cc50188064f97ce66d", "is_disabled": 0, "type": "electric_scooter", "is_reserved": 0, "fusion_lon": 0.0, "lat": 38.87336616666666, "rental_uris": {"ios": "https://dc.lft.to/lastmile_qr_scan", "android": "https://dc.lft.to/lastmile_qr_scan"}, "bike_id": "367ac187ba3479cc50188064f97ce66d", "fusion_lat": 0.0}, {"lon": -77.03438916666667, "name": "1a5d4d5d4a69fcab8813eb895ea82d2d", "is_disabled": 0, "type": "electric_scooter", "is_reserved": 0, "fusion_lon": 0.0, "lat": 38.917760333333334, "rental_uris": {"ios": "https://dc.lft.to/lastmile_qr_scan", "android": "https://dc.lft.to/lastmile_qr_scan"}, "bike_id": "1a5d4d5d4a69fcab8813eb895ea82d2d", "fusion_lat": 0.0}, {"lon": -77.07240183333333, "name": "5887504ae01b648eec9a1ba2d36b8664", "is_disabled": 0, "type": "electric_scooter", "is_reserved": 0, "fusion_lon": 0.0, "lat": 38.92154166666667, "rental_uris": {"ios": "https://dc.lft.to/lastmile_qr_scan", "android": "https://dc.lft.to/lastmile_qr_scan"}, "bike_id": "5887504ae01b648eec9a1ba2d36b8664", "fusion_lat": 0.0}, {"lon": -77.042301, "name": "db802984af59f8e665ff25dab56cfd06", "is_disabled": 0, "type": "electric_scooter", "is_reserved": 0, "fusion_lon": 0.0, "lat": 38.92159433333333, "rental_uris": {"ios": "https://dc.lft.to/lastmile_qr_scan", "android": "https://dc.lft.to/lastmile_qr_scan"}, "bike_id": "db802984af59f8e665ff25dab56cfd06", "fusion_lat": 0.0}, {"lon": -77.02789666666666, "name": "bc0c3f960c24390a0d764c838c2b41e8", "is_disabled": 0, "type": "electric_scooter", "is_reserved": 0, "fusion_lon": 0.0, "lat": 38.8841935, "rental_uris": {"ios": "https://dc.lft.to/lastmile_qr_scan", "android": "https://dc.lft.to/lastmile_qr_scan"}, "bike_id": "bc0c3f960c24390a0d764c838c2b41e8", "fusion_lat": 0.0}, {"lon": -77.00587233333333, "name": "f9326fc344f443ec12b16fa2ad575e2b", "is_disabled": 0, "type": "electric_scooter", "is_reserved": 0, "fusion_lon": 0.0, "lat": 38.876541, "rental_uris": {"ios": "https://dc.lft.to/lastmile_qr_scan", "android": "https://dc.lft.to/lastmile_qr_scan"}, "bike_id": "f9326fc344f443ec12b16fa2ad575e2b", "fusion_lat": 0.0}, {"lon": -77.04598316666667, "name": "940e498e7a530898a30bf927bce8bab6", "is_disabled": 0, "type": "electric_scooter", "is_reserved": 0, "fusion_lon": 0.0, "lat": 38.896098, "rental_uris": {"ios": "https://dc.lft.to/lastmile_qr_scan", "android": "https://dc.lft.to/lastmile_qr_scan"}, "bike_id": "940e498e7a530898a30bf927bce8bab6", "fusion_lat": 0.0}, {"lon": -77.03133983333333, "name": "2b177016840484a9a775c9df7bb152b1", "is_disabled": 0, "type": "electric_scooter", "is_reserved": 0, "fusion_lon": 0.0, "lat": 38.9110595, "rental_uris": {"ios": "https://dc.lft.to/lastmile_qr_scan", "android": "https://dc.lft.to/lastmile_qr_scan"}, "bike_id": "2b177016840484a9a775c9df7bb152b1", "fusion_lat": 0.0}, {"lon": -77.019474, "name": "67a905fbea64b9a2a1351c262a55337f", "is_disabled": 0, "type": "electric_scooter", "is_reserved": 0, "fusion_lon": 0.0, "lat": 38.924224333333335, "rental_uris": {"ios": "https://dc.lft.to/lastmile_qr_scan", "android": "https://dc.lft.to/lastmile_qr_scan"}, "bike_id": "67a905fbea64b9a2a1351c262a55337f", "fusion_lat": 0.0}, {"lon": -76.97333533333334, "name": "19f74c46bf80ae0f0b4270f41f1059b3", "is_disabled": 0, "type": "electric_scooter", "is_reserved": 0, "fusion_lon": 0.0, "lat": 38.904094, "rental_uris": {"ios": "https://dc.lft.to/lastmile_qr_scan", "android": "https://dc.lft.to/lastmile_qr_scan"}, "bike_id": "19f74c46bf80ae0f0b4270f41f1059b3", "fusion_lat": 0.0}, {"lon": -77.02148983333333, "name": "462c17b8171f1a485d5f6567cac412f4", "is_disabled": 0, "type": "electric_scooter", "is_reserved": 0, "fusion_lon": 0.0, "lat": 38.92600783333334, "rental_uris": {"ios": "https://dc.lft.to/lastmile_qr_scan", "android": "https://dc.lft.to/lastmile_qr_scan"}, "bike_id": "462c17b8171f1a485d5f6567cac412f4", "fusion_lat": 0.0}, {"lon": -77.03650366666666, "name": "588822e8f43759053c666965a772f2f7", "is_disabled": 0, "type": "electric_scooter", "is_reserved": 0, "fusion_lon": 0.0, "lat": 38.90292616666667, "rental_uris": {"ios": "https://dc.lft.to/lastmile_qr_scan", "android": "https://dc.lft.to/lastmile_qr_scan"}, "bike_id": "588822e8f43759053c666965a772f2f7", "fusion_lat": 0.0}, {"lon": -77.04080433333333, "name": "9ef5c878222ebd974f68e79fd403abff", "is_disabled": 0, "type": "electric_scooter", "is_reserved": 0, "fusion_lon": 0.0, "lat": 38.92885316666667, "rental_uris": {"ios": "https://dc.lft.to/lastmile_qr_scan", "android": "https://dc.lft.to/lastmile_qr_scan"}, "bike_id": "9ef5c878222ebd974f68e79fd403abff", "fusion_lat": 0.0}, {"lon": -77.07467033333333, "name": "fc728b160dd2039a8267ef90be1fd255", "is_disabled": 0, "type": "electric_scooter", "is_reserved": 0, "fusion_lon": 0.0, "lat": 38.92241933333333, "rental_uris": {"ios": "https://dc.lft.to/lastmile_qr_scan", "android": "https://dc.lft.to/lastmile_qr_scan"}, "bike_id": "fc728b160dd2039a8267ef90be1fd255", "fusion_lat": 0.0}, {"lon": -77.02518716666667, "name": "25b264b444bd1fe21f1fde8764470e52", "is_disabled": 0, "type": "electric_scooter", "is_reserved": 0, "fusion_lon": 0.0, "lat": 38.92084766666667, "rental_uris": {"ios": "https://dc.lft.to/lastmile_qr_scan", "android": "https://dc.lft.to/lastmile_qr_scan"}, "bike_id": "25b264b444bd1fe21f1fde8764470e52", "fusion_lat": 0.0}, {"lon": -76.99140466666667, "name": "dd28ab7ab39ef32763a7dc1c241a7f94", "is_disabled": 0, "type": "electric_bike", "is_reserved": 0, "fusion_lon": 0.0, "lat": 38.93813566666667, "rental_uris": {"ios": "https://dc.lft.to/lastmile_qr_scan", "android": "https://dc.lft.to/lastmile_qr_scan"}, "bike_id": "dd28ab7ab39ef32763a7dc1c241a7f94", "fusion_lat": 0.0}, {"lon": -77.031855, "name": "42a0d9ead0f15aa9296a678e31190b6f", "is_disabled": 0, "type": "electric_scooter", "is_reserved": 0, "fusion_lon": 0.0, "lat": 38.91324066666667, "rental_uris": {"ios": "https://dc.lft.to/lastmile_qr_scan", "android": "https://dc.lft.to/lastmile_qr_scan"}, "bike_id": "42a0d9ead0f15aa9296a678e31190b6f", "fusion_lat": 0.0}, {"lon": -76.94853916666666, "name": "5083882f6d915f7a8b66ce674609dc67", "is_disabled": 0, "type": "electric_scooter", "is_reserved": 0, "fusion_lon": 0.0, "lat": 38.89609633333333, "rental_uris": {"ios": "https://dc.lft.to/lastmile_qr_scan", "android": "https://dc.lft.to/lastmile_qr_scan"}, "bike_id": "5083882f6d915f7a8b66ce674609dc67", "fusion_lat": 0.0}, {"lon": -76.97306633333334, "name": "195a9db601f0f5e764dc8ce723cfce88", "is_disabled": 0, "type": "electric_scooter", "is_reserved": 0, "fusion_lon": 0.0, "lat": 38.919835166666665, "rental_uris": {"ios": "https://dc.lft.to/lastmile_qr_scan", "android": "https://dc.lft.to/lastmile_qr_scan"}, "bike_id": "195a9db601f0f5e764dc8ce723cfce88", "fusion_lat": 0.0}, {"lon": -77.00866283333333, "name": "d706b06a23229631a90721c31b172222", "is_disabled": 0, "type": "electric_scooter", "is_reserved": 0, "fusion_lon": 0.0, "lat": 38.897426, "rental_uris": {"ios": "https://dc.lft.to/lastmile_qr_scan", "android": "https://dc.lft.to/lastmile_qr_scan"}, "bike_id": "d706b06a23229631a90721c31b172222", "fusion_lat": 0.0}, {"lon": -77.00130816666666, "name": "9e48da302dbacdbffa815223bd5b0fca", "is_disabled": 0, "type": "electric_bike", "is_reserved": 0, "fusion_lon": 0.0, "lat": 38.994958833333335, "rental_uris": {"ios": "https://dc.lft.to/lastmile_qr_scan", "android": "https://dc.lft.to/lastmile_qr_scan"}, "bike_id": "9e48da302dbacdbffa815223bd5b0fca", "fusion_lat": 0.0}, {"lon": -77.00114216666667, "name": "9e6a4cfa5649a06052de178596c1352e", "is_disabled": 0, "type": "electric_scooter", "is_reserved": 0, "fusion_lon": 0.0, "lat": 38.876406, "rental_uris": {"ios": "https://dc.lft.to/lastmile_qr_scan", "android": "https://dc.lft.to/lastmile_qr_scan"}, "bike_id": "9e6a4cfa5649a06052de178596c1352e", "fusion_lat": 0.0}, {"lon": -77.031364, "name": "b2f8ae5adca3f9718e005211d251cb07", "is_disabled": 0, "type": "electric_scooter", "is_reserved": 0, "fusion_lon": 0.0, "lat": 38.94197533333333, "rental_uris": {"ios": "https://dc.lft.to/lastmile_qr_scan", "android": "https://dc.lft.to/lastmile_qr_scan"}, "bike_id": "b2f8ae5adca3f9718e005211d251cb07", "fusion_lat": 0.0}, {"lon": -77.03966133333333, "name": "324686b77043904bc6c8d8d678d24ef4", "is_disabled": 0, "type": "electric_scooter", "is_reserved": 0, "fusion_lon": 0.0, "lat": 38.902498666666666, "rental_uris": {"ios": "https://dc.lft.to/lastmile_qr_scan", "android": "https://dc.lft.to/lastmile_qr_scan"}, "bike_id": "324686b77043904bc6c8d8d678d24ef4", "fusion_lat": 0.0}, {"lon": -77.04463016666666, "name": "456d9264585b863b14375c2f3ee5382b", "is_disabled": 0, "type": "electric_scooter", "is_reserved": 0, "fusion_lon": 0.0, "lat": 38.89611333333333, "rental_uris": {"ios": "https://dc.lft.to/lastmile_qr_scan", "android": "https://dc.lft.to/lastmile_qr_scan"}, "bike_id": "456d9264585b863b14375c2f3ee5382b", "fusion_lat": 0.0}, {"lon": -76.99340533333333, "name": "c14835d2eee0580efb153e790f95a842", "is_disabled": 0, "type": "electric_scooter", "is_reserved": 0, "fusion_lon": 0.0, "lat": 38.88121433333333, "rental_uris": {"ios": "https://dc.lft.to/lastmile_qr_scan", "android": "https://dc.lft.to/lastmile_qr_scan"}, "bike_id": "c14835d2eee0580efb153e790f95a842", "fusion_lat": 0.0}, {"lon": -76.90300166666667, "name": "4c0dc180751c659e34589acde22b35dd", "is_disabled": 0, "type": "electric_bike", "is_reserved": 0, "fusion_lon": 0.0, "lat": 39.00295083333334, "rental_uris": {"ios": "https://dc.lft.to/lastmile_qr_scan", "android": "https://dc.lft.to/lastmile_qr_scan"}, "bike_id": "4c0dc180751c659e34589acde22b35dd", "fusion_lat": 0.0}, {"lon": -77.02401466666667, "name": "5a295996b2df8cd9066d754ab1ff58eb", "is_disabled": 0, "type": "electric_scooter", "is_reserved": 0, "fusion_lon": 0.0, "lat": 38.894163666666664, "rental_uris": {"ios": "https://dc.lft.to/lastmile_qr_scan", "android": "https://dc.lft.to/lastmile_qr_scan"}, "bike_id": "5a295996b2df8cd9066d754ab1ff58eb", "fusion_lat": 0.0}, {"lon": -77.03178533333333, "name": "845d6014e90ede91e57cd68d38ec41a8", "is_disabled": 0, "type": "electric_scooter", "is_reserved": 0, "fusion_lon": 0.0, "lat": 38.907921333333334, "rental_uris": {"ios": "https://dc.lft.to/lastmile_qr_scan", "android": "https://dc.lft.to/lastmile_qr_scan"}, "bike_id": "845d6014e90ede91e57cd68d38ec41a8", "fusion_lat": 0.0}, {"lon": -77.021674, "name": "ea48fff1c1603ffb11eacd2026191f5d", "is_disabled": 0, "type": "electric_scooter", "is_reserved": 0, "fusion_lon": 0.0, "lat": 38.926375166666666, "rental_uris": {"ios": "https://dc.lft.to/lastmile_qr_scan", "android": "https://dc.lft.to/lastmile_qr_scan"}, "bike_id": "ea48fff1c1603ffb11eacd2026191f5d", "fusion_lat": 0.0}, {"lon": -76.93710533333334, "name": "e1bae479fc2ce179112e6afcb57ee518", "is_disabled": 0, "type": "electric_scooter", "is_reserved": 0, "fusion_lon": 0.0, "lat": 38.888534666666665, "rental_uris": {"ios": "https://dc.lft.to/lastmile_qr_scan", "android": "https://dc.lft.to/lastmile_qr_scan"}, "bike_id": "e1bae479fc2ce179112e6afcb57ee518", "fusion_lat": 0.0}, {"lon": -77.0269175, "name": "395834e4a4fa5dd1e32d2bb7e5a0f03a", "is_disabled": 0, "type": "electric_scooter", "is_reserved": 0, "fusion_lon": 0.0, "lat": 38.897633166666665, "rental_uris": {"ios": "https://dc.lft.to/lastmile_qr_scan", "android": "https://dc.lft.to/lastmile_qr_scan"}, "bike_id": "395834e4a4fa5dd1e32d2bb7e5a0f03a", "fusion_lat": 0.0}, {"lon": -77.06782683333333, "name": "9a2c73d5c8b9ea6021ccc4b3e3a8db27", "is_disabled": 0, "type": "electric_scooter", "is_reserved": 0, "fusion_lon": 0.0, "lat": 38.90391783333333, "rental_uris": {"ios": "https://dc.lft.to/lastmile_qr_scan", "android": "https://dc.lft.to/lastmile_qr_scan"}, "bike_id": "9a2c73d5c8b9ea6021ccc4b3e3a8db27", "fusion_lat": 0.0}, {"lon": -77.029487, "name": "dd11c7046f1765a50b1ab825e93bf7ef", "is_disabled": 0, "type": "electric_scooter", "is_reserved": 0, "fusion_lon": 0.0, "lat": 38.905038, "rental_uris": {"ios": "https://dc.lft.to/lastmile_qr_scan", "android": "https://dc.lft.to/lastmile_qr_scan"}, "bike_id": "dd11c7046f1765a50b1ab825e93bf7ef", "fusion_lat": 0.0}, {"lon": -77.04653816666666, "name": "8a6b1502f704907bb5daeea338495087", "is_disabled": 0, "type": "electric_scooter", "is_reserved": 0, "fusion_lon": 0.0, "lat": 38.892522666666665, "rental_uris": {"ios": "https://dc.lft.to/lastmile_qr_scan", "android": "https://dc.lft.to/lastmile_qr_scan"}, "bike_id": "8a6b1502f704907bb5daeea338495087", "fusion_lat": 0.0}, {"lon": -77.01499833333334, "name": "856ea2aeb5f45d14a12f178d281a47d0", "is_disabled": 0, "type": "electric_scooter", "is_reserved": 0, "fusion_lon": 0.0, "lat": 38.89160583333334, "rental_uris": {"ios": "https://dc.lft.to/lastmile_qr_scan", "android": "https://dc.lft.to/lastmile_qr_scan"}, "bike_id": "856ea2aeb5f45d14a12f178d281a47d0", "fusion_lat": 0.0}, {"lon": -77.0187055, "name": "f786fe8ee14ef4cfe82208117ae25c3f", "is_disabled": 0, "type": "electric_scooter", "is_reserved": 0, "fusion_lon": 0.0, "lat": 38.920191833333334, "rental_uris": {"ios": "https://dc.lft.to/lastmile_qr_scan", "android": "https://dc.lft.to/lastmile_qr_scan"}, "bike_id": "f786fe8ee14ef4cfe82208117ae25c3f", "fusion_lat": 0.0}, {"lon": -77.00382683333333, "name": "6c0873155352e7215923ae30e728ea24", "is_disabled": 0, "type": "electric_scooter", "is_reserved": 0, "fusion_lon": 0.0, "lat": 38.8763615, "rental_uris": {"ios": "https://dc.lft.to/lastmile_qr_scan", "android": "https://dc.lft.to/lastmile_qr_scan"}, "bike_id": "6c0873155352e7215923ae30e728ea24", "fusion_lat": 0.0}, {"lon": -77.03461016666667, "name": "e36d08872f835c528ca4f7abc4fc2e1d", "is_disabled": 0, "type": "electric_scooter", "is_reserved": 0, "fusion_lon": 0.0, "lat": 38.908597, "rental_uris": {"ios": "https://dc.lft.to/lastmile_qr_scan", "android": "https://dc.lft.to/lastmile_qr_scan"}, "bike_id": "e36d08872f835c528ca4f7abc4fc2e1d", "fusion_lat": 0.0}, {"lon": -77.02780116666666, "name": "ae82665d4ac7ac2e3b96df268b431187", "is_disabled": 0, "type": "electric_scooter", "is_reserved": 0, "fusion_lon": 0.0, "lat": 38.96209133333333, "rental_uris": {"ios": "https://dc.lft.to/lastmile_qr_scan", "android": "https://dc.lft.to/lastmile_qr_scan"}, "bike_id": "ae82665d4ac7ac2e3b96df268b431187", "fusion_lat": 0.0}, {"lon": -77.01981566666667, "name": "9250f33d3872fbb59d9dd6d0af777f45", "is_disabled": 0, "type": "electric_scooter", "is_reserved": 0, "fusion_lon": 0.0, "lat": 38.93012983333333, "rental_uris": {"ios": "https://dc.lft.to/lastmile_qr_scan", "android": "https://dc.lft.to/lastmile_qr_scan"}, "bike_id": "9250f33d3872fbb59d9dd6d0af777f45", "fusion_lat": 0.0}, {"lon": -77.04450633333333, "name": "b0a1ba94136c67c3c753bcc15e67401e", "is_disabled": 0, "type": "electric_scooter", "is_reserved": 0, "fusion_lon": 0.0, "lat": 38.9154245, "rental_uris": {"ios": "https://dc.lft.to/lastmile_qr_scan", "android": "https://dc.lft.to/lastmile_qr_scan"}, "bike_id": "b0a1ba94136c67c3c753bcc15e67401e", "fusion_lat": 0.0}, {"lon": -76.95696766666667, "name": "4c75bad960ec91f3bd3f1bc2c25983bc", "is_disabled": 0, "type": "electric_bike", "is_reserved": 0, "fusion_lon": 0.0, "lat": 38.888708, "rental_uris": {"ios": "https://dc.lft.to/lastmile_qr_scan", "android": "https://dc.lft.to/lastmile_qr_scan"}, "bike_id": "4c75bad960ec91f3bd3f1bc2c25983bc", "fusion_lat": 0.0}, {"lon": -77.03202483333334, "name": "bc1e17fe802916b6e182a91f2182726c", "is_disabled": 0, "type": "electric_scooter", "is_reserved": 0, "fusion_lon": 0.0, "lat": 38.91679033333333, "rental_uris": {"ios": "https://dc.lft.to/lastmile_qr_scan", "android": "https://dc.lft.to/lastmile_qr_scan"}, "bike_id": "bc1e17fe802916b6e182a91f2182726c", "fusion_lat": 0.0}, {"lon": -77.05326983333333, "name": "c6b92b6592fc8f81a82d49c87e53b15f", "is_disabled": 0, "type": "electric_scooter", "is_reserved": 0, "fusion_lon": 0.0, "lat": 38.9105305, "rental_uris": {"ios": "https://dc.lft.to/lastmile_qr_scan", "android": "https://dc.lft.to/lastmile_qr_scan"}, "bike_id": "c6b92b6592fc8f81a82d49c87e53b15f", "fusion_lat": 0.0}, {"lon": -77.05294483333333, "name": "e2dff4db2da4b41211e834aa72200bd1", "is_disabled": 0, "type": "electric_scooter", "is_reserved": 0, "fusion_lon": 0.0, "lat": 38.92551183333333, "rental_uris": {"ios": "https://dc.lft.to/lastmile_qr_scan", "android": "https://dc.lft.to/lastmile_qr_scan"}, "bike_id": "e2dff4db2da4b41211e834aa72200bd1", "fusion_lat": 0.0}, {"lon": -77.01950283333333, "name": "d3762be6f02d0f104d2d0186eefa4639", "is_disabled": 0, "type": "electric_scooter", "is_reserved": 0, "fusion_lon": 0.0, "lat": 38.89838433333333, "rental_uris": {"ios": "https://dc.lft.to/lastmile_qr_scan", "android": "https://dc.lft.to/lastmile_qr_scan"}, "bike_id": "d3762be6f02d0f104d2d0186eefa4639", "fusion_lat": 0.0}, {"lon": -77.04097633333333, "name": "252794e27bf6b7d55b925bec25de10fa", "is_disabled": 0, "type": "electric_scooter", "is_reserved": 0, "fusion_lon": 0.0, "lat": 38.905202333333335, "rental_uris": {"ios": "https://dc.lft.to/lastmile_qr_scan", "android": "https://dc.lft.to/lastmile_qr_scan"}, "bike_id": "252794e27bf6b7d55b925bec25de10fa", "fusion_lat": 0.0}, {"lon": -77.04323, "name": "efcef5e85ecd6821066283dcb5f5dd33", "is_disabled": 0, "type": "electric_scooter", "is_reserved": 0, "fusion_lon": 0.0, "lat": 38.926171833333335, "rental_uris": {"ios": "https://dc.lft.to/lastmile_qr_scan", "android": "https://dc.lft.to/lastmile_qr_scan"}, "bike_id": "efcef5e85ecd6821066283dcb5f5dd33", "fusion_lat": 0.0}, {"lon": -77.02300166666667, "name": "00502ab6236269ffef091c0b6a7625cc", "is_disabled": 0, "type": "electric_scooter", "is_reserved": 0, "fusion_lon": 0.0, "lat": 38.890603666666664, "rental_uris": {"ios": "https://dc.lft.to/lastmile_qr_scan", "android": "https://dc.lft.to/lastmile_qr_scan"}, "bike_id": "00502ab6236269ffef091c0b6a7625cc", "fusion_lat": 0.0}, {"lon": -77.018596, "name": "3c678bf46b7d6650856a81b53a670e54", "is_disabled": 0, "type": "electric_scooter", "is_reserved": 0, "fusion_lon": 0.0, "lat": 38.9492065, "rental_uris": {"ios": "https://dc.lft.to/lastmile_qr_scan", "android": "https://dc.lft.to/lastmile_qr_scan"}, "bike_id": "3c678bf46b7d6650856a81b53a670e54", "fusion_lat": 0.0}, {"lon": -76.92960816666667, "name": "9c7a695b8a9e2af306f66aaa6dc266f4", "is_disabled": 0, "type": "electric_scooter", "is_reserved": 0, "fusion_lon": 0.0, "lat": 38.884529, "rental_uris": {"ios": "https://dc.lft.to/lastmile_qr_scan", "android": "https://dc.lft.to/lastmile_qr_scan"}, "bike_id": "9c7a695b8a9e2af306f66aaa6dc266f4", "fusion_lat": 0.0}, {"lon": -76.9856475, "name": "8111cc5e164ed1d9eb9e6a7afa3fcbed", "is_disabled": 0, "type": "electric_scooter", "is_reserved": 0, "fusion_lon": 0.0, "lat": 38.883977, "rental_uris": {"ios": "https://dc.lft.to/lastmile_qr_scan", "android": "https://dc.lft.to/lastmile_qr_scan"}, "bike_id": "8111cc5e164ed1d9eb9e6a7afa3fcbed", "fusion_lat": 0.0}, {"lon": -77.00343283333333, "name": "948427648fb8cce34c14bc45136cf78c", "is_disabled": 0, "type": "electric_scooter", "is_reserved": 0, "fusion_lon": 0.0, "lat": 38.8908305, "rental_uris": {"ios": "https://dc.lft.to/lastmile_qr_scan", "android": "https://dc.lft.to/lastmile_qr_scan"}, "bike_id": "948427648fb8cce34c14bc45136cf78c", "fusion_lat": 0.0}, {"lon": -77.00578483333334, "name": "9e0124a897b0f4b7ebe04bdb9f868eae", "is_disabled": 0, "type": "electric_scooter", "is_reserved": 0, "fusion_lon": 0.0, "lat": 38.87173516666667, "rental_uris": {"ios": "https://dc.lft.to/lastmile_qr_scan", "android": "https://dc.lft.to/lastmile_qr_scan"}, "bike_id": "9e0124a897b0f4b7ebe04bdb9f868eae", "fusion_lat": 0.0}, {"lon": -76.98563816666666, "name": "d94dfe0b4da54f1de35f414ec2fc09ad", "is_disabled": 0, "type": "electric_scooter", "is_reserved": 0, "fusion_lon": 0.0, "lat": 38.89617283333333, "rental_uris": {"ios": "https://dc.lft.to/lastmile_qr_scan", "android": "https://dc.lft.to/lastmile_qr_scan"}, "bike_id": "d94dfe0b4da54f1de35f414ec2fc09ad", "fusion_lat": 0.0}, {"lon": -77.02455766666667, "name": "ea8dfe99ccc007c25ce52c037608582b", "is_disabled": 0, "type": "electric_scooter", "is_reserved": 0, "fusion_lon": 0.0, "lat": 38.918471, "rental_uris": {"ios": "https://dc.lft.to/lastmile_qr_scan", "android": "https://dc.lft.to/lastmile_qr_scan"}, "bike_id": "ea8dfe99ccc007c25ce52c037608582b", "fusion_lat": 0.0}, {"lon": -77.027068, "name": "f6495193642e81fa410a801389812a4f", "is_disabled": 0, "type": "electric_scooter", "is_reserved": 0, "fusion_lon": 0.0, "lat": 38.927716, "rental_uris": {"ios": "https://dc.lft.to/lastmile_qr_scan", "android": "https://dc.lft.to/lastmile_qr_scan"}, "bike_id": "f6495193642e81fa410a801389812a4f", "fusion_lat": 0.0}, {"lon": -76.98815716666667, "name": "cc51058a70d93a58aa32fd15b038ba53", "is_disabled": 0, "type": "electric_scooter", "is_reserved": 0, "fusion_lon": 0.0, "lat": 38.89093116666667, "rental_uris": {"ios": "https://dc.lft.to/lastmile_qr_scan", "android": "https://dc.lft.to/lastmile_qr_scan"}, "bike_id": "cc51058a70d93a58aa32fd15b038ba53", "fusion_lat": 0.0}, {"lon": -76.99403816666667, "name": "764a88835a44df644c48ec01829391ee", "is_disabled": 0, "type": "electric_scooter", "is_reserved": 0, "fusion_lon": 0.0, "lat": 38.910089166666666, "rental_uris": {"ios": "https://dc.lft.to/lastmile_qr_scan", "android": "https://dc.lft.to/lastmile_qr_scan"}, "bike_id": "764a88835a44df644c48ec01829391ee", "fusion_lat": 0.0}, {"lon": -77.02579716666666, "name": "5ec297c1e627d765a8d56af798ce61d3", "is_disabled": 0, "type": "electric_scooter", "is_reserved": 0, "fusion_lon": 0.0, "lat": 38.92029183333333, "rental_uris": {"ios": "https://dc.lft.to/lastmile_qr_scan", "android": "https://dc.lft.to/lastmile_qr_scan"}, "bike_id": "5ec297c1e627d765a8d56af798ce61d3", "fusion_lat": 0.0}, {"lon": -77.02150666666667, "name": "156cf2800d8ec55e6ffa35f695eba033", "is_disabled": 0, "type": "electric_scooter", "is_reserved": 0, "fusion_lon": 0.0, "lat": 38.919883666666664, "rental_uris": {"ios": "https://dc.lft.to/lastmile_qr_scan", "android": "https://dc.lft.to/lastmile_qr_scan"}, "bike_id": "156cf2800d8ec55e6ffa35f695eba033", "fusion_lat": 0.0}, {"lon": -77.0207995, "name": "828474a21e0d4a7a256fe8f395470e70", "is_disabled": 0, "type": "electric_scooter", "is_reserved": 0, "fusion_lon": 0.0, "lat": 38.9269895, "rental_uris": {"ios": "https://dc.lft.to/lastmile_qr_scan", "android": "https://dc.lft.to/lastmile_qr_scan"}, "bike_id": "828474a21e0d4a7a256fe8f395470e70", "fusion_lat": 0.0}, {"lon": -77.02133233333333, "name": "47bd0d2a295f6e2b66d4217d93a868cd", "is_disabled": 0, "type": "electric_scooter", "is_reserved": 0, "fusion_lon": 0.0, "lat": 38.924145333333335, "rental_uris": {"ios": "https://dc.lft.to/lastmile_qr_scan", "android": "https://dc.lft.to/lastmile_qr_scan"}, "bike_id": "47bd0d2a295f6e2b66d4217d93a868cd", "fusion_lat": 0.0}, {"lon": -77.0154465, "name": "872ad0b02177197de6cf7449de42b360", "is_disabled": 0, "type": "electric_scooter", "is_reserved": 0, "fusion_lon": 0.0, "lat": 38.893679666666664, "rental_uris": {"ios": "https://dc.lft.to/lastmile_qr_scan", "android": "https://dc.lft.to/lastmile_qr_scan"}, "bike_id": "872ad0b02177197de6cf7449de42b360", "fusion_lat": 0.0}, {"lon": -77.02814516666666, "name": "7b6a91096410b8aacb414a3033ef9534", "is_disabled": 0, "type": "electric_scooter", "is_reserved": 0, "fusion_lon": 0.0, "lat": 38.903598, "rental_uris": {"ios": "https://dc.lft.to/lastmile_qr_scan", "android": "https://dc.lft.to/lastmile_qr_scan"}, "bike_id": "7b6a91096410b8aacb414a3033ef9534", "fusion_lat": 0.0}, {"lon": -76.97321583333333, "name": "2708a8f9d40bf0c4df5d2058bd397c0b", "is_disabled": 0, "type": "electric_scooter", "is_reserved": 0, "fusion_lon": 0.0, "lat": 38.91773766666667, "rental_uris": {"ios": "https://dc.lft.to/lastmile_qr_scan", "android": "https://dc.lft.to/lastmile_qr_scan"}, "bike_id": "2708a8f9d40bf0c4df5d2058bd397c0b", "fusion_lat": 0.0}, {"lon": -77.013539, "name": "4dba1399322424d6e819eb6c6ba5b49e", "is_disabled": 0, "type": "electric_scooter", "is_reserved": 0, "fusion_lon": 0.0, "lat": 38.908573833333335, "rental_uris": {"ios": "https://dc.lft.to/lastmile_qr_scan", "android": "https://dc.lft.to/lastmile_qr_scan"}, "bike_id": "4dba1399322424d6e819eb6c6ba5b49e", "fusion_lat": 0.0}, {"lon": -77.02303033333334, "name": "70ae87e5e59f34a1223ee62b2735b122", "is_disabled": 0, "type": "electric_scooter", "is_reserved": 0, "fusion_lon": 0.0, "lat": 38.920582333333336, "rental_uris": {"ios": "https://dc.lft.to/lastmile_qr_scan", "android": "https://dc.lft.to/lastmile_qr_scan"}, "bike_id": "70ae87e5e59f34a1223ee62b2735b122", "fusion_lat": 0.0}, {"lon": -77.0438195, "name": "11f47059a3f08d71e271366025009607", "is_disabled": 0, "type": "electric_scooter", "is_reserved": 0, "fusion_lon": 0.0, "lat": 38.909474, "rental_uris": {"ios": "https://dc.lft.to/lastmile_qr_scan", "android": "https://dc.lft.to/lastmile_qr_scan"}, "bike_id": "11f47059a3f08d71e271366025009607", "fusion_lat": 0.0}, {"lon": -77.00028766666667, "name": "3374c456b0e3ef4db91fa5bcd68db9d4", "is_disabled": 0, "type": "electric_scooter", "is_reserved": 0, "fusion_lon": 0.0, "lat": 38.873850166666664, "rental_uris": {"ios": "https://dc.lft.to/lastmile_qr_scan", "android": "https://dc.lft.to/lastmile_qr_scan"}, "bike_id": "3374c456b0e3ef4db91fa5bcd68db9d4", "fusion_lat": 0.0}, {"lon": -77.0404875, "name": "49ee5211ea5e49735477b52566738dc7", "is_disabled": 0, "type": "electric_scooter", "is_reserved": 0, "fusion_lon": 0.0, "lat": 38.90721933333333, "rental_uris": {"ios": "https://dc.lft.to/lastmile_qr_scan", "android": "https://dc.lft.to/lastmile_qr_scan"}, "bike_id": "49ee5211ea5e49735477b52566738dc7", "fusion_lat": 0.0}, {"lon": -77.01227533333333, "name": "526ff1e8b2564a7368916d664c1e760f", "is_disabled": 0, "type": "electric_bike", "is_reserved": 0, "fusion_lon": 0.0, "lat": 38.95087433333333, "rental_uris": {"ios": "https://dc.lft.to/lastmile_qr_scan", "android": "https://dc.lft.to/lastmile_qr_scan"}, "bike_id": "526ff1e8b2564a7368916d664c1e760f", "fusion_lat": 0.0}, {"lon": -77.0724255, "name": "4e0129f84df01aa8d5c3809462e19300", "is_disabled": 0, "type": "electric_scooter", "is_reserved": 0, "fusion_lon": 0.0, "lat": 38.93951783333333, "rental_uris": {"ios": "https://dc.lft.to/lastmile_qr_scan", "android": "https://dc.lft.to/lastmile_qr_scan"}, "bike_id": "4e0129f84df01aa8d5c3809462e19300", "fusion_lat": 0.0}, {"lon": -77.038891, "name": "df8aa009a3373b71d1f5102ab00468c7", "is_disabled": 0, "type": "electric_scooter", "is_reserved": 0, "fusion_lon": 0.0, "lat": 38.92037716666667, "rental_uris": {"ios": "https://dc.lft.to/lastmile_qr_scan", "android": "https://dc.lft.to/lastmile_qr_scan"}, "bike_id": "df8aa009a3373b71d1f5102ab00468c7", "fusion_lat": 0.0}, {"lon": -76.98112416666666, "name": "ac3bbfe169d5f6a416a66de9c14036fa", "is_disabled": 0, "type": "electric_bike", "is_reserved": 0, "fusion_lon": 0.0, "lat": 38.94569033333333, "rental_uris": {"ios": "https://dc.lft.to/lastmile_qr_scan", "android": "https://dc.lft.to/lastmile_qr_scan"}, "bike_id": "ac3bbfe169d5f6a416a66de9c14036fa", "fusion_lat": 0.0}, {"lon": -77.06378616666667, "name": "c1f368a73824bafd2b74635925b70d04", "is_disabled": 0, "type": "electric_scooter", "is_reserved": 0, "fusion_lon": 0.0, "lat": 38.906079, "rental_uris": {"ios": "https://dc.lft.to/lastmile_qr_scan", "android": "https://dc.lft.to/lastmile_qr_scan"}, "bike_id": "c1f368a73824bafd2b74635925b70d04", "fusion_lat": 0.0}, {"lon": -77.0216085, "name": "8af8601178fb65684d158db22edcc407", "is_disabled": 0, "type": "electric_scooter", "is_reserved": 0, "fusion_lon": 0.0, "lat": 38.926143, "rental_uris": {"ios": "https://dc.lft.to/lastmile_qr_scan", "android": "https://dc.lft.to/lastmile_qr_scan"}, "bike_id": "8af8601178fb65684d158db22edcc407", "fusion_lat": 0.0}, {"lon": -76.93261616666666, "name": "b88021ec69a0c52b842f47254939ca1e", "is_disabled": 0, "type": "electric_scooter", "is_reserved": 0, "fusion_lon": 0.0, "lat": 38.88771916666666, "rental_uris": {"ios": "https://dc.lft.to/lastmile_qr_scan", "android": "https://dc.lft.to/lastmile_qr_scan"}, "bike_id": "b88021ec69a0c52b842f47254939ca1e", "fusion_lat": 0.0}, {"lon": -77.009085, "name": "5c07860bb4fa40cb57797fd9743a87d0", "is_disabled": 0, "type": "electric_scooter", "is_reserved": 0, "fusion_lon": 0.0, "lat": 38.895581, "rental_uris": {"ios": "https://dc.lft.to/lastmile_qr_scan", "android": "https://dc.lft.to/lastmile_qr_scan"}, "bike_id": "5c07860bb4fa40cb57797fd9743a87d0", "fusion_lat": 0.0}, {"lon": -77.03058333333334, "name": "79b443682d1a33f81c70b3edfab62872", "is_disabled": 0, "type": "electric_scooter", "is_reserved": 0, "fusion_lon": 0.0, "lat": 38.96276533333333, "rental_uris": {"ios": "https://dc.lft.to/lastmile_qr_scan", "android": "https://dc.lft.to/lastmile_qr_scan"}, "bike_id": "79b443682d1a33f81c70b3edfab62872", "fusion_lat": 0.0}, {"lon": -77.027042, "name": "0ce7617741835d0651ef475a6649699e", "is_disabled": 0, "type": "electric_scooter", "is_reserved": 0, "fusion_lon": 0.0, "lat": 38.898272166666665, "rental_uris": {"ios": "https://dc.lft.to/lastmile_qr_scan", "android": "https://dc.lft.to/lastmile_qr_scan"}, "bike_id": "0ce7617741835d0651ef475a6649699e", "fusion_lat": 0.0}, {"lon": -77.02846883333333, "name": "ff13e65a538d8666959a59bf250db239", "is_disabled": 0, "type": "electric_scooter", "is_reserved": 0, "fusion_lon": 0.0, "lat": 38.94493716666667, "rental_uris": {"ios": "https://dc.lft.to/lastmile_qr_scan", "android": "https://dc.lft.to/lastmile_qr_scan"}, "bike_id": "ff13e65a538d8666959a59bf250db239", "fusion_lat": 0.0}, {"lon": -77.05459716666667, "name": "0e884b9943a9946a089bbe2e8c022100", "is_disabled": 0, "type": "electric_scooter", "is_reserved": 0, "fusion_lon": 0.0, "lat": 38.928998666666665, "rental_uris": {"ios": "https://dc.lft.to/lastmile_qr_scan", "android": "https://dc.lft.to/lastmile_qr_scan"}, "bike_id": "0e884b9943a9946a089bbe2e8c022100", "fusion_lat": 0.0}, {"lon": -77.02004083333334, "name": "39572c6c24b0a1b0a3fe7050104f3883", "is_disabled": 0, "type": "electric_scooter", "is_reserved": 0, "fusion_lon": 0.0, "lat": 38.92358266666667, "rental_uris": {"ios": "https://dc.lft.to/lastmile_qr_scan", "android": "https://dc.lft.to/lastmile_qr_scan"}, "bike_id": "39572c6c24b0a1b0a3fe7050104f3883", "fusion_lat": 0.0}, {"lon": -77.025349, "name": "c1f53a82ff74cd002a19fe7b988d7eb7", "is_disabled": 0, "type": "electric_scooter", "is_reserved": 0, "fusion_lon": 0.0, "lat": 38.920844833333334, "rental_uris": {"ios": "https://dc.lft.to/lastmile_qr_scan", "android": "https://dc.lft.to/lastmile_qr_scan"}, "bike_id": "c1f53a82ff74cd002a19fe7b988d7eb7", "fusion_lat": 0.0}, {"lon": -77.0472585, "name": "dc0eda734e4fdbc8c54ae72f45dacd90", "is_disabled": 0, "type": "electric_scooter", "is_reserved": 0, "fusion_lon": 0.0, "lat": 38.90946983333333, "rental_uris": {"ios": "https://dc.lft.to/lastmile_qr_scan", "android": "https://dc.lft.to/lastmile_qr_scan"}, "bike_id": "dc0eda734e4fdbc8c54ae72f45dacd90", "fusion_lat": 0.0}, {"lon": -77.0184875, "name": "a3e245c5b2c84f4a03dd07ccdb0c4499", "is_disabled": 0, "type": "electric_scooter", "is_reserved": 0, "fusion_lon": 0.0, "lat": 38.94930333333333, "rental_uris": {"ios": "https://dc.lft.to/lastmile_qr_scan", "android": "https://dc.lft.to/lastmile_qr_scan"}, "bike_id": "a3e245c5b2c84f4a03dd07ccdb0c4499", "fusion_lat": 0.0}, {"lon": -77.04433133333333, "name": "7a1f5db3400f24b2f5e698ee6e634a08", "is_disabled": 0, "type": "electric_scooter", "is_reserved": 0, "fusion_lon": 0.0, "lat": 38.90957616666667, "rental_uris": {"ios": "https://dc.lft.to/lastmile_qr_scan", "android": "https://dc.lft.to/lastmile_qr_scan"}, "bike_id": "7a1f5db3400f24b2f5e698ee6e634a08", "fusion_lat": 0.0}, {"lon": -77.02298866666666, "name": "da41e3029b8904806a314af7c72d65f7", "is_disabled": 0, "type": "electric_scooter", "is_reserved": 0, "fusion_lon": 0.0, "lat": 38.9206515, "rental_uris": {"ios": "https://dc.lft.to/lastmile_qr_scan", "android": "https://dc.lft.to/lastmile_qr_scan"}, "bike_id": "da41e3029b8904806a314af7c72d65f7", "fusion_lat": 0.0}, {"lon": -77.00803433333333, "name": "111e124c12ff3d650a8061a917a0d3a8", "is_disabled": 0, "type": "electric_scooter", "is_reserved": 0, "fusion_lon": 0.0, "lat": 38.911797166666666, "rental_uris": {"ios": "https://dc.lft.to/lastmile_qr_scan", "android": "https://dc.lft.to/lastmile_qr_scan"}, "bike_id": "111e124c12ff3d650a8061a917a0d3a8", "fusion_lat": 0.0}, {"lon": -77.00326716666666, "name": "85f979a3432770bf105ed44d7bc4bfcb", "is_disabled": 0, "type": "electric_scooter", "is_reserved": 0, "fusion_lon": 0.0, "lat": 38.8936335, "rental_uris": {"ios": "https://dc.lft.to/lastmile_qr_scan", "android": "https://dc.lft.to/lastmile_qr_scan"}, "bike_id": "85f979a3432770bf105ed44d7bc4bfcb", "fusion_lat": 0.0}, {"lon": -77.012197, "name": "4c66694d2c3f0ed9f1e41b0577258a3c", "is_disabled": 0, "type": "electric_scooter", "is_reserved": 0, "fusion_lon": 0.0, "lat": 38.898027, "rental_uris": {"ios": "https://dc.lft.to/lastmile_qr_scan", "android": "https://dc.lft.to/lastmile_qr_scan"}, "bike_id": "4c66694d2c3f0ed9f1e41b0577258a3c", "fusion_lat": 0.0}, {"lon": -77.01887366666666, "name": "66c5dd13644c05bc39b32c78c5f16905", "is_disabled": 0, "type": "electric_scooter", "is_reserved": 0, "fusion_lon": 0.0, "lat": 38.897449333333334, "rental_uris": {"ios": "https://dc.lft.to/lastmile_qr_scan", "android": "https://dc.lft.to/lastmile_qr_scan"}, "bike_id": "66c5dd13644c05bc39b32c78c5f16905", "fusion_lat": 0.0}, {"lon": -77.01534066666666, "name": "d13d23b97a0e75c44b2a3573048055d0", "is_disabled": 0, "type": "electric_scooter", "is_reserved": 0, "fusion_lon": 0.0, "lat": 38.9205825, "rental_uris": {"ios": "https://dc.lft.to/lastmile_qr_scan", "android": "https://dc.lft.to/lastmile_qr_scan"}, "bike_id": "d13d23b97a0e75c44b2a3573048055d0", "fusion_lat": 0.0}, {"lon": -77.00179683333333, "name": "bc56e42260e198cf2453d29c12aae36b", "is_disabled": 0, "type": "electric_scooter", "is_reserved": 0, "fusion_lon": 0.0, "lat": 38.87411816666667, "rental_uris": {"ios": "https://dc.lft.to/lastmile_qr_scan", "android": "https://dc.lft.to/lastmile_qr_scan"}, "bike_id": "bc56e42260e198cf2453d29c12aae36b", "fusion_lat": 0.0}, {"lon": -77.03195733333334, "name": "53c78ad1c41c54ca3249f77e0f29eed3", "is_disabled": 0, "type": "electric_scooter", "is_reserved": 0, "fusion_lon": 0.0, "lat": 38.907084, "rental_uris": {"ios": "https://dc.lft.to/lastmile_qr_scan", "android": "https://dc.lft.to/lastmile_qr_scan"}, "bike_id": "53c78ad1c41c54ca3249f77e0f29eed3", "fusion_lat": 0.0}, {"lon": -77.0490735, "name": "87accc304e40a4bfa5caf32492986da0", "is_disabled": 0, "type": "electric_scooter", "is_reserved": 0, "fusion_lon": 0.0, "lat": 38.91602616666667, "rental_uris": {"ios": "https://dc.lft.to/lastmile_qr_scan", "android": "https://dc.lft.to/lastmile_qr_scan"}, "bike_id": "87accc304e40a4bfa5caf32492986da0", "fusion_lat": 0.0}, {"lon": -77.030464, "name": "8943a8c2aaa6bfcb0cfd7fe74d376a6e", "is_disabled": 0, "type": "electric_scooter", "is_reserved": 0, "fusion_lon": 0.0, "lat": 38.923820666666664, "rental_uris": {"ios": "https://dc.lft.to/lastmile_qr_scan", "android": "https://dc.lft.to/lastmile_qr_scan"}, "bike_id": "8943a8c2aaa6bfcb0cfd7fe74d376a6e", "fusion_lat": 0.0}, {"lon": -77.07281633333334, "name": "596fb67beb271687d1335403b6323015", "is_disabled": 0, "type": "electric_scooter", "is_reserved": 0, "fusion_lon": 0.0, "lat": 38.93226883333333, "rental_uris": {"ios": "https://dc.lft.to/lastmile_qr_scan", "android": "https://dc.lft.to/lastmile_qr_scan"}, "bike_id": "596fb67beb271687d1335403b6323015", "fusion_lat": 0.0}, {"lon": -77.0487495, "name": "8d66f3b3b71eed1617bbe2424e952069", "is_disabled": 0, "type": "electric_scooter", "is_reserved": 0, "fusion_lon": 0.0, "lat": 38.899434166666666, "rental_uris": {"ios": "https://dc.lft.to/lastmile_qr_scan", "android": "https://dc.lft.to/lastmile_qr_scan"}, "bike_id": "8d66f3b3b71eed1617bbe2424e952069", "fusion_lat": 0.0}, {"lon": -77.00367983333334, "name": "bb4e25be65ad38d658803afc45ac06c8", "is_disabled": 0, "type": "electric_scooter", "is_reserved": 0, "fusion_lon": 0.0, "lat": 38.87630166666667, "rental_uris": {"ios": "https://dc.lft.to/lastmile_qr_scan", "android": "https://dc.lft.to/lastmile_qr_scan"}, "bike_id": "bb4e25be65ad38d658803afc45ac06c8", "fusion_lat": 0.0}, {"lon": -77.04687833333334, "name": "4d90a2b2ccc8d4aa140d3749b01ae08e", "is_disabled": 0, "type": "electric_scooter", "is_reserved": 0, "fusion_lon": 0.0, "lat": 38.892223666666666, "rental_uris": {"ios": "https://dc.lft.to/lastmile_qr_scan", "android": "https://dc.lft.to/lastmile_qr_scan"}, "bike_id": "4d90a2b2ccc8d4aa140d3749b01ae08e", "fusion_lat": 0.0}, {"lon": -77.02150616666667, "name": "ea957921ef9f0a43f83ecdd88255c7a5", "is_disabled": 0, "type": "electric_scooter", "is_reserved": 0, "fusion_lon": 0.0, "lat": 38.9245235, "rental_uris": {"ios": "https://dc.lft.to/lastmile_qr_scan", "android": "https://dc.lft.to/lastmile_qr_scan"}, "bike_id": "ea957921ef9f0a43f83ecdd88255c7a5", "fusion_lat": 0.0}, {"lon": -77.01156083333333, "name": "2cf83821e415061541b137a85867f848", "is_disabled": 0, "type": "electric_scooter", "is_reserved": 0, "fusion_lon": 0.0, "lat": 38.917035, "rental_uris": {"ios": "https://dc.lft.to/lastmile_qr_scan", "android": "https://dc.lft.to/lastmile_qr_scan"}, "bike_id": "2cf83821e415061541b137a85867f848", "fusion_lat": 0.0}, {"lon": -77.03219683333333, "name": "c4651c4db8433f2baaee87109a9963a1", "is_disabled": 0, "type": "electric_scooter", "is_reserved": 0, "fusion_lon": 0.0, "lat": 38.911821, "rental_uris": {"ios": "https://dc.lft.to/lastmile_qr_scan", "android": "https://dc.lft.to/lastmile_qr_scan"}, "bike_id": "c4651c4db8433f2baaee87109a9963a1", "fusion_lat": 0.0}, {"lon": -77.01117733333334, "name": "a66bb86172654ee5014a772524433f63", "is_disabled": 0, "type": "electric_scooter", "is_reserved": 0, "fusion_lon": 0.0, "lat": 38.894751166666666, "rental_uris": {"ios": "https://dc.lft.to/lastmile_qr_scan", "android": "https://dc.lft.to/lastmile_qr_scan"}, "bike_id": "a66bb86172654ee5014a772524433f63", "fusion_lat": 0.0}, {"lon": -77.00677116666667, "name": "e7a27a9311216cb73af1e5dae080cae4", "is_disabled": 0, "type": "electric_scooter", "is_reserved": 0, "fusion_lon": 0.0, "lat": 38.8717425, "rental_uris": {"ios": "https://dc.lft.to/lastmile_qr_scan", "android": "https://dc.lft.to/lastmile_qr_scan"}, "bike_id": "e7a27a9311216cb73af1e5dae080cae4", "fusion_lat": 0.0}, {"lon": -77.02753783333333, "name": "f4909b5015a67396344f99b0b10d0963", "is_disabled": 0, "type": "electric_scooter", "is_reserved": 0, "fusion_lon": 0.0, "lat": 38.929104833333334, "rental_uris": {"ios": "https://dc.lft.to/lastmile_qr_scan", "android": "https://dc.lft.to/lastmile_qr_scan"}, "bike_id": "f4909b5015a67396344f99b0b10d0963", "fusion_lat": 0.0}, {"lon": -77.03443333333334, "name": "b54451f03075bfbd6c5d6e1939242e11", "is_disabled": 0, "type": "electric_scooter", "is_reserved": 0, "fusion_lon": 0.0, "lat": 38.920520833333335, "rental_uris": {"ios": "https://dc.lft.to/lastmile_qr_scan", "android": "https://dc.lft.to/lastmile_qr_scan"}, "bike_id": "b54451f03075bfbd6c5d6e1939242e11", "fusion_lat": 0.0}, {"lon": -77.00713833333333, "name": "6fbf099b78b18b31988c874d1aff01e5", "is_disabled": 0, "type": "electric_scooter", "is_reserved": 0, "fusion_lon": 0.0, "lat": 38.917038166666664, "rental_uris": {"ios": "https://dc.lft.to/lastmile_qr_scan", "android": "https://dc.lft.to/lastmile_qr_scan"}, "bike_id": "6fbf099b78b18b31988c874d1aff01e5", "fusion_lat": 0.0}, {"lon": -77.02696533333334, "name": "0e443f04d6729e641029fbfbaa382911", "is_disabled": 0, "type": "electric_scooter", "is_reserved": 0, "fusion_lon": 0.0, "lat": 38.9183115, "rental_uris": {"ios": "https://dc.lft.to/lastmile_qr_scan", "android": "https://dc.lft.to/lastmile_qr_scan"}, "bike_id": "0e443f04d6729e641029fbfbaa382911", "fusion_lat": 0.0}, {"lon": -77.01811483333333, "name": "930f6263f4dd3617176abf58d1aa485e", "is_disabled": 0, "type": "electric_scooter", "is_reserved": 0, "fusion_lon": 0.0, "lat": 38.97391316666667, "rental_uris": {"ios": "https://dc.lft.to/lastmile_qr_scan", "android": "https://dc.lft.to/lastmile_qr_scan"}, "bike_id": "930f6263f4dd3617176abf58d1aa485e", "fusion_lat": 0.0}, {"lon": -77.0260005, "name": "f7fe6b9cac2a49ed47b6abc3b46e3fdd", "is_disabled": 0, "type": "electric_scooter", "is_reserved": 0, "fusion_lon": 0.0, "lat": 38.92029183333333, "rental_uris": {"ios": "https://dc.lft.to/lastmile_qr_scan", "android": "https://dc.lft.to/lastmile_qr_scan"}, "bike_id": "f7fe6b9cac2a49ed47b6abc3b46e3fdd", "fusion_lat": 0.0}, {"lon": -77.026504, "name": "03bb73f7e24a62ae152de8a40d0c7e60", "is_disabled": 0, "type": "electric_scooter", "is_reserved": 0, "fusion_lon": 0.0, "lat": 38.89713, "rental_uris": {"ios": "https://dc.lft.to/lastmile_qr_scan", "android": "https://dc.lft.to/lastmile_qr_scan"}, "bike_id": "03bb73f7e24a62ae152de8a40d0c7e60", "fusion_lat": 0.0}, {"lon": -77.02808883333333, "name": "e703b3c562bed25da39ab6f6bfd72cc2", "is_disabled": 0, "type": "electric_scooter", "is_reserved": 0, "fusion_lon": 0.0, "lat": 38.9142375, "rental_uris": {"ios": "https://dc.lft.to/lastmile_qr_scan", "android": "https://dc.lft.to/lastmile_qr_scan"}, "bike_id": "e703b3c562bed25da39ab6f6bfd72cc2", "fusion_lat": 0.0}, {"lon": -77.02245316666666, "name": "7432428990d12756bfd7ed4664f025ee", "is_disabled": 0, "type": "electric_scooter", "is_reserved": 0, "fusion_lon": 0.0, "lat": 38.87893116666667, "rental_uris": {"ios": "https://dc.lft.to/lastmile_qr_scan", "android": "https://dc.lft.to/lastmile_qr_scan"}, "bike_id": "7432428990d12756bfd7ed4664f025ee", "fusion_lat": 0.0}, {"lon": -77.00908416666667, "name": "b06b443a22b3a65a7cd95ab3318859e4", "is_disabled": 0, "type": "electric_scooter", "is_reserved": 0, "fusion_lon": 0.0, "lat": 38.90985216666667, "rental_uris": {"ios": "https://dc.lft.to/lastmile_qr_scan", "android": "https://dc.lft.to/lastmile_qr_scan"}, "bike_id": "b06b443a22b3a65a7cd95ab3318859e4", "fusion_lat": 0.0}, {"lon": -77.01199516666667, "name": "79433709f55b90ba2679ec389a0ee2e5", "is_disabled": 0, "type": "electric_scooter", "is_reserved": 0, "fusion_lon": 0.0, "lat": 38.89794966666667, "rental_uris": {"ios": "https://dc.lft.to/lastmile_qr_scan", "android": "https://dc.lft.to/lastmile_qr_scan"}, "bike_id": "79433709f55b90ba2679ec389a0ee2e5", "fusion_lat": 0.0}, {"lon": -77.08172766666667, "name": "904f7b3dfb71d747f30fd8464b47f36c", "is_disabled": 0, "type": "electric_bike", "is_reserved": 0, "fusion_lon": 0.0, "lat": 38.907788833333335, "rental_uris": {"ios": "https://dc.lft.to/lastmile_qr_scan", "android": "https://dc.lft.to/lastmile_qr_scan"}, "bike_id": "904f7b3dfb71d747f30fd8464b47f36c", "fusion_lat": 0.0}, {"lon": -77.02582966666667, "name": "cb147d917b9977321b4d30ef78bfed62", "is_disabled": 0, "type": "electric_scooter", "is_reserved": 0, "fusion_lon": 0.0, "lat": 38.920339166666665, "rental_uris": {"ios": "https://dc.lft.to/lastmile_qr_scan", "android": "https://dc.lft.to/lastmile_qr_scan"}, "bike_id": "cb147d917b9977321b4d30ef78bfed62", "fusion_lat": 0.0}, {"lon": -77.02778083333334, "name": "d7454583a6cf4e3a944ea3a8c1ae85b9", "is_disabled": 0, "type": "electric_scooter", "is_reserved": 0, "fusion_lon": 0.0, "lat": 38.898719, "rental_uris": {"ios": "https://dc.lft.to/lastmile_qr_scan", "android": "https://dc.lft.to/lastmile_qr_scan"}, "bike_id": "d7454583a6cf4e3a944ea3a8c1ae85b9", "fusion_lat": 0.0}, {"lon": -76.99676683333334, "name": "1f445f5138b6a2ed038cc20da5c5e601", "is_disabled": 0, "type": "electric_scooter", "is_reserved": 0, "fusion_lon": 0.0, "lat": 38.9219405, "rental_uris": {"ios": "https://dc.lft.to/lastmile_qr_scan", "android": "https://dc.lft.to/lastmile_qr_scan"}, "bike_id": "1f445f5138b6a2ed038cc20da5c5e601", "fusion_lat": 0.0}, {"lon": -76.978057, "name": "8e8b8d3a0fff0b9eeb3da5210d44758a", "is_disabled": 0, "type": "electric_scooter", "is_reserved": 0, "fusion_lon": 0.0, "lat": 38.920317, "rental_uris": {"ios": "https://dc.lft.to/lastmile_qr_scan", "android": "https://dc.lft.to/lastmile_qr_scan"}, "bike_id": "8e8b8d3a0fff0b9eeb3da5210d44758a", "fusion_lat": 0.0}, {"lon": -77.02846616666666, "name": "5b1012fb2ff66ed78f7f81a8f472c9a4", "is_disabled": 0, "type": "electric_scooter", "is_reserved": 0, "fusion_lon": 0.0, "lat": 38.898389333333334, "rental_uris": {"ios": "https://dc.lft.to/lastmile_qr_scan", "android": "https://dc.lft.to/lastmile_qr_scan"}, "bike_id": "5b1012fb2ff66ed78f7f81a8f472c9a4", "fusion_lat": 0.0}, {"lon": -77.03168266666667, "name": "bfe44e8c5c0886d3189d8f7c8bb6d000", "is_disabled": 0, "type": "electric_scooter", "is_reserved": 0, "fusion_lon": 0.0, "lat": 38.883847, "rental_uris": {"ios": "https://dc.lft.to/lastmile_qr_scan", "android": "https://dc.lft.to/lastmile_qr_scan"}, "bike_id": "bfe44e8c5c0886d3189d8f7c8bb6d000", "fusion_lat": 0.0}, {"lon": -77.00198616666667, "name": "a67624dd02036a690db9143ecef0c878", "is_disabled": 0, "type": "electric_scooter", "is_reserved": 0, "fusion_lon": 0.0, "lat": 38.881630333333334, "rental_uris": {"ios": "https://dc.lft.to/lastmile_qr_scan", "android": "https://dc.lft.to/lastmile_qr_scan"}, "bike_id": "a67624dd02036a690db9143ecef0c878", "fusion_lat": 0.0}, {"lon": -76.99095616666666, "name": "ff7607d89fb2ac727d0bbb4a490f589d", "is_disabled": 0, "type": "electric_scooter", "is_reserved": 0, "fusion_lon": 0.0, "lat": 38.9327035, "rental_uris": {"ios": "https://dc.lft.to/lastmile_qr_scan", "android": "https://dc.lft.to/lastmile_qr_scan"}, "bike_id": "ff7607d89fb2ac727d0bbb4a490f589d", "fusion_lat": 0.0}, {"lon": -77.02573466666666, "name": "0740389a2565eae8a80d70f21fee2e7f", "is_disabled": 0, "type": "electric_scooter", "is_reserved": 0, "fusion_lon": 0.0, "lat": 38.916615666666665, "rental_uris": {"ios": "https://dc.lft.to/lastmile_qr_scan", "android": "https://dc.lft.to/lastmile_qr_scan"}, "bike_id": "0740389a2565eae8a80d70f21fee2e7f", "fusion_lat": 0.0}, {"lon": -77.0324675, "name": "9f2430207464378ec7162cccb45794a9", "is_disabled": 0, "type": "electric_scooter", "is_reserved": 0, "fusion_lon": 0.0, "lat": 38.902520333333335, "rental_uris": {"ios": "https://dc.lft.to/lastmile_qr_scan", "android": "https://dc.lft.to/lastmile_qr_scan"}, "bike_id": "9f2430207464378ec7162cccb45794a9", "fusion_lat": 0.0}, {"lon": -77.01802983333333, "name": "17ba1f4e9bc21ba0bdd193a66cd7298e", "is_disabled": 0, "type": "electric_scooter", "is_reserved": 0, "fusion_lon": 0.0, "lat": 38.914005833333334, "rental_uris": {"ios": "https://dc.lft.to/lastmile_qr_scan", "android": "https://dc.lft.to/lastmile_qr_scan"}, "bike_id": "17ba1f4e9bc21ba0bdd193a66cd7298e", "fusion_lat": 0.0}, {"lon": -76.98662666666667, "name": "5ba94afdb8b69bfb21156375fab24c8a", "is_disabled": 0, "type": "electric_scooter", "is_reserved": 0, "fusion_lon": 0.0, "lat": 38.91241683333333, "rental_uris": {"ios": "https://dc.lft.to/lastmile_qr_scan", "android": "https://dc.lft.to/lastmile_qr_scan"}, "bike_id": "5ba94afdb8b69bfb21156375fab24c8a", "fusion_lat": 0.0}, {"lon": -77.02311616666667, "name": "2660ef3f9d7a31d74d7f57260f265566", "is_disabled": 0, "type": "electric_scooter", "is_reserved": 0, "fusion_lon": 0.0, "lat": 38.9398105, "rental_uris": {"ios": "https://dc.lft.to/lastmile_qr_scan", "android": "https://dc.lft.to/lastmile_qr_scan"}, "bike_id": "2660ef3f9d7a31d74d7f57260f265566", "fusion_lat": 0.0}, {"lon": -77.05046583333333, "name": "140b0599067817af042e01fc79db6bb0", "is_disabled": 0, "type": "electric_scooter", "is_reserved": 0, "fusion_lon": 0.0, "lat": 38.90066433333333, "rental_uris": {"ios": "https://dc.lft.to/lastmile_qr_scan", "android": "https://dc.lft.to/lastmile_qr_scan"}, "bike_id": "140b0599067817af042e01fc79db6bb0", "fusion_lat": 0.0}, {"lon": -77.04150016666667, "name": "5a24ecb36f7c6c7e12895fe476484042", "is_disabled": 0, "type": "electric_scooter", "is_reserved": 0, "fusion_lon": 0.0, "lat": 38.9180925, "rental_uris": {"ios": "https://dc.lft.to/lastmile_qr_scan", "android": "https://dc.lft.to/lastmile_qr_scan"}, "bike_id": "5a24ecb36f7c6c7e12895fe476484042", "fusion_lat": 0.0}, {"lon": -77.00208716666667, "name": "e75a820897a678303dc330c29b95e22a", "is_disabled": 0, "type": "electric_scooter", "is_reserved": 0, "fusion_lon": 0.0, "lat": 38.901283, "rental_uris": {"ios": "https://dc.lft.to/lastmile_qr_scan", "android": "https://dc.lft.to/lastmile_qr_scan"}, "bike_id": "e75a820897a678303dc330c29b95e22a", "fusion_lat": 0.0}, {"lon": -77.015969, "name": "39973beb07e6ba42d3f4efa6f14feefa", "is_disabled": 0, "type": "electric_scooter", "is_reserved": 0, "fusion_lon": 0.0, "lat": 38.8746615, "rental_uris": {"ios": "https://dc.lft.to/lastmile_qr_scan", "android": "https://dc.lft.to/lastmile_qr_scan"}, "bike_id": "39973beb07e6ba42d3f4efa6f14feefa", "fusion_lat": 0.0}, {"lon": -77.02301483333333, "name": "afec526b9a9b139ac66669a8cfcae6d1", "is_disabled": 0, "type": "electric_scooter", "is_reserved": 0, "fusion_lon": 0.0, "lat": 38.9178475, "rental_uris": {"ios": "https://dc.lft.to/lastmile_qr_scan", "android": "https://dc.lft.to/lastmile_qr_scan"}, "bike_id": "afec526b9a9b139ac66669a8cfcae6d1", "fusion_lat": 0.0}, {"lon": -77.03626383333334, "name": "0ef9e2900d81665c254b3668e9c05aa0", "is_disabled": 0, "type": "electric_scooter", "is_reserved": 0, "fusion_lon": 0.0, "lat": 38.93908883333334, "rental_uris": {"ios": "https://dc.lft.to/lastmile_qr_scan", "android": "https://dc.lft.to/lastmile_qr_scan"}, "bike_id": "0ef9e2900d81665c254b3668e9c05aa0", "fusion_lat": 0.0}, {"lon": -76.95564166666666, "name": "3b7259426a71cee8704b940ae688869d", "is_disabled": 0, "type": "electric_bike", "is_reserved": 0, "fusion_lon": 0.0, "lat": 38.985045, "rental_uris": {"ios": "https://dc.lft.to/lastmile_qr_scan", "android": "https://dc.lft.to/lastmile_qr_scan"}, "bike_id": "3b7259426a71cee8704b940ae688869d", "fusion_lat": 0.0}, {"lon": -77.01767516666666, "name": "b344ace3871d01e6a0595ac5127761fd", "is_disabled": 0, "type": "electric_scooter", "is_reserved": 0, "fusion_lon": 0.0, "lat": 38.88737916666667, "rental_uris": {"ios": "https://dc.lft.to/lastmile_qr_scan", "android": "https://dc.lft.to/lastmile_qr_scan"}, "bike_id": "b344ace3871d01e6a0595ac5127761fd", "fusion_lat": 0.0}, {"lon": -77.034364, "name": "418cd5dc77218aa8a2745d670a2e10a0", "is_disabled": 0, "type": "electric_scooter", "is_reserved": 0, "fusion_lon": 0.0, "lat": 38.90382316666667, "rental_uris": {"ios": "https://dc.lft.to/lastmile_qr_scan", "android": "https://dc.lft.to/lastmile_qr_scan"}, "bike_id": "418cd5dc77218aa8a2745d670a2e10a0", "fusion_lat": 0.0}, {"lon": -76.95253183333334, "name": "2d6f10091a0f80738519a25a7f1d9f90", "is_disabled": 0, "type": "electric_bike", "is_reserved": 0, "fusion_lon": 0.0, "lat": 38.90692166666667, "rental_uris": {"ios": "https://dc.lft.to/lastmile_qr_scan", "android": "https://dc.lft.to/lastmile_qr_scan"}, "bike_id": "2d6f10091a0f80738519a25a7f1d9f90", "fusion_lat": 0.0}, {"lon": -77.04453133333334, "name": "f35204200de4296264d0e03f44ae6f6c", "is_disabled": 0, "type": "electric_scooter", "is_reserved": 0, "fusion_lon": 0.0, "lat": 38.924701166666665, "rental_uris": {"ios": "https://dc.lft.to/lastmile_qr_scan", "android": "https://dc.lft.to/lastmile_qr_scan"}, "bike_id": "f35204200de4296264d0e03f44ae6f6c", "fusion_lat": 0.0}, {"lon": -77.04344933333333, "name": "6c96b582e6559730e614db49147700fa", "is_disabled": 0, "type": "electric_scooter", "is_reserved": 0, "fusion_lon": 0.0, "lat": 38.90445116666667, "rental_uris": {"ios": "https://dc.lft.to/lastmile_qr_scan", "android": "https://dc.lft.to/lastmile_qr_scan"}, "bike_id": "6c96b582e6559730e614db49147700fa", "fusion_lat": 0.0}, {"lon": -76.9836645, "name": "241899f70ec1544b38b16815323a9541", "is_disabled": 0, "type": "electric_scooter", "is_reserved": 0, "fusion_lon": 0.0, "lat": 38.91499483333333, "rental_uris": {"ios": "https://dc.lft.to/lastmile_qr_scan", "android": "https://dc.lft.to/lastmile_qr_scan"}, "bike_id": "241899f70ec1544b38b16815323a9541", "fusion_lat": 0.0}, {"lon": -77.07319066666666, "name": "b6ce1b7192bc81a0572045e1824226f4", "is_disabled": 0, "type": "electric_scooter", "is_reserved": 0, "fusion_lon": 0.0, "lat": 38.921676166666664, "rental_uris": {"ios": "https://dc.lft.to/lastmile_qr_scan", "android": "https://dc.lft.to/lastmile_qr_scan"}, "bike_id": "b6ce1b7192bc81a0572045e1824226f4", "fusion_lat": 0.0}, {"lon": -77.0298055, "name": "694ab66b9ada5c4a949fbb7161895046", "is_disabled": 0, "type": "electric_scooter", "is_reserved": 0, "fusion_lon": 0.0, "lat": 38.9425775, "rental_uris": {"ios": "https://dc.lft.to/lastmile_qr_scan", "android": "https://dc.lft.to/lastmile_qr_scan"}, "bike_id": "694ab66b9ada5c4a949fbb7161895046", "fusion_lat": 0.0}, {"lon": -77.01512083333333, "name": "14a120d17b447b970a591c2562c092cd", "is_disabled": 0, "type": "electric_scooter", "is_reserved": 0, "fusion_lon": 0.0, "lat": 38.89327383333333, "rental_uris": {"ios": "https://dc.lft.to/lastmile_qr_scan", "android": "https://dc.lft.to/lastmile_qr_scan"}, "bike_id": "14a120d17b447b970a591c2562c092cd", "fusion_lat": 0.0}, {"lon": -77.02397983333333, "name": "ed38f84834e36bd80ae3e2a73c558f1b", "is_disabled": 0, "type": "electric_scooter", "is_reserved": 0, "fusion_lon": 0.0, "lat": 38.8988, "rental_uris": {"ios": "https://dc.lft.to/lastmile_qr_scan", "android": "https://dc.lft.to/lastmile_qr_scan"}, "bike_id": "ed38f84834e36bd80ae3e2a73c558f1b", "fusion_lat": 0.0}, {"lon": -77.07234416666667, "name": "e118cacde558e8894e0fddeb8d4f1836", "is_disabled": 0, "type": "electric_scooter", "is_reserved": 0, "fusion_lon": 0.0, "lat": 38.941015166666666, "rental_uris": {"ios": "https://dc.lft.to/lastmile_qr_scan", "android": "https://dc.lft.to/lastmile_qr_scan"}, "bike_id": "e118cacde558e8894e0fddeb8d4f1836", "fusion_lat": 0.0}, {"lon": -77.030706, "name": "52dbade5e24a76a9b66eb6a48117ca45", "is_disabled": 0, "type": "electric_scooter", "is_reserved": 0, "fusion_lon": 0.0, "lat": 38.89971533333333, "rental_uris": {"ios": "https://dc.lft.to/lastmile_qr_scan", "android": "https://dc.lft.to/lastmile_qr_scan"}, "bike_id": "52dbade5e24a76a9b66eb6a48117ca45", "fusion_lat": 0.0}, {"lon": -76.9732885, "name": "f260faef553a883a8c7a8b33a1bec5b4", "is_disabled": 0, "type": "electric_scooter", "is_reserved": 0, "fusion_lon": 0.0, "lat": 38.90410683333333, "rental_uris": {"ios": "https://dc.lft.to/lastmile_qr_scan", "android": "https://dc.lft.to/lastmile_qr_scan"}, "bike_id": "f260faef553a883a8c7a8b33a1bec5b4", "fusion_lat": 0.0}, {"lon": -77.01975566666667, "name": "09e9655cd49d1b7903a1b9766f7ccde7", "is_disabled": 0, "type": "electric_scooter", "is_reserved": 0, "fusion_lon": 0.0, "lat": 38.902556833333335, "rental_uris": {"ios": "https://dc.lft.to/lastmile_qr_scan", "android": "https://dc.lft.to/lastmile_qr_scan"}, "bike_id": "09e9655cd49d1b7903a1b9766f7ccde7", "fusion_lat": 0.0}, {"lon": -76.99150383333334, "name": "11c725c896ac21658eaf7b41ed8a1aa9", "is_disabled": 0, "type": "electric_scooter", "is_reserved": 0, "fusion_lon": 0.0, "lat": 38.90036283333333, "rental_uris": {"ios": "https://dc.lft.to/lastmile_qr_scan", "android": "https://dc.lft.to/lastmile_qr_scan"}, "bike_id": "11c725c896ac21658eaf7b41ed8a1aa9", "fusion_lat": 0.0}, {"lon": -77.00219583333333, "name": "7bb8154ad5589c59ce19a5b7bd9d760d", "is_disabled": 0, "type": "electric_scooter", "is_reserved": 0, "fusion_lon": 0.0, "lat": 38.87919566666667, "rental_uris": {"ios": "https://dc.lft.to/lastmile_qr_scan", "android": "https://dc.lft.to/lastmile_qr_scan"}, "bike_id": "7bb8154ad5589c59ce19a5b7bd9d760d", "fusion_lat": 0.0}, {"lon": -77.01990683333334, "name": "a9e00ae39b34a9c3728f5c63d0acf026", "is_disabled": 0, "type": "electric_scooter", "is_reserved": 0, "fusion_lon": 0.0, "lat": 38.937801666666665, "rental_uris": {"ios": "https://dc.lft.to/lastmile_qr_scan", "android": "https://dc.lft.to/lastmile_qr_scan"}, "bike_id": "a9e00ae39b34a9c3728f5c63d0acf026", "fusion_lat": 0.0}, {"lon": -77.04425366666666, "name": "14cc0a1dd26345f7bf5fc5b1614f0f54", "is_disabled": 0, "type": "electric_scooter", "is_reserved": 0, "fusion_lon": 0.0, "lat": 38.9153795, "rental_uris": {"ios": "https://dc.lft.to/lastmile_qr_scan", "android": "https://dc.lft.to/lastmile_qr_scan"}, "bike_id": "14cc0a1dd26345f7bf5fc5b1614f0f54", "fusion_lat": 0.0}, {"lon": -77.00923166666666, "name": "06078e6780b2c6a470b785234a83a87d", "is_disabled": 0, "type": "electric_scooter", "is_reserved": 0, "fusion_lon": 0.0, "lat": 38.9113165, "rental_uris": {"ios": "https://dc.lft.to/lastmile_qr_scan", "android": "https://dc.lft.to/lastmile_qr_scan"}, "bike_id": "06078e6780b2c6a470b785234a83a87d", "fusion_lat": 0.0}, {"lon": -76.98372266666667, "name": "821e3e336dbbf4405b9504e7f4cbb717", "is_disabled": 0, "type": "electric_scooter", "is_reserved": 0, "fusion_lon": 0.0, "lat": 38.86030983333333, "rental_uris": {"ios": "https://dc.lft.to/lastmile_qr_scan", "android": "https://dc.lft.to/lastmile_qr_scan"}, "bike_id": "821e3e336dbbf4405b9504e7f4cbb717", "fusion_lat": 0.0}, {"lon": -77.02530216666666, "name": "855c90531d945f34434e9c04764e63d2", "is_disabled": 0, "type": "electric_scooter", "is_reserved": 0, "fusion_lon": 0.0, "lat": 38.94836566666667, "rental_uris": {"ios": "https://dc.lft.to/lastmile_qr_scan", "android": "https://dc.lft.to/lastmile_qr_scan"}, "bike_id": "855c90531d945f34434e9c04764e63d2", "fusion_lat": 0.0}, {"lon": -76.99734766666667, "name": "92dfc38d4e16f44fa7a3c79801091d7a", "is_disabled": 0, "type": "electric_scooter", "is_reserved": 0, "fusion_lon": 0.0, "lat": 38.8961815, "rental_uris": {"ios": "https://dc.lft.to/lastmile_qr_scan", "android": "https://dc.lft.to/lastmile_qr_scan"}, "bike_id": "92dfc38d4e16f44fa7a3c79801091d7a", "fusion_lat": 0.0}, {"lon": -77.04667116666667, "name": "2d51cdba843320baf4d7a0d96aabb2df", "is_disabled": 0, "type": "electric_scooter", "is_reserved": 0, "fusion_lon": 0.0, "lat": 38.909388666666665, "rental_uris": {"ios": "https://dc.lft.to/lastmile_qr_scan", "android": "https://dc.lft.to/lastmile_qr_scan"}, "bike_id": "2d51cdba843320baf4d7a0d96aabb2df", "fusion_lat": 0.0}, {"lon": -77.04041466666666, "name": "95c34e857b885bb5c1a5e5b167e9a438", "is_disabled": 0, "type": "electric_scooter", "is_reserved": 0, "fusion_lon": 0.0, "lat": 38.906063, "rental_uris": {"ios": "https://dc.lft.to/lastmile_qr_scan", "android": "https://dc.lft.to/lastmile_qr_scan"}, "bike_id": "95c34e857b885bb5c1a5e5b167e9a438", "fusion_lat": 0.0}, {"lon": -77.06082233333333, "name": "687ac60a06b078303a5037839350475e", "is_disabled": 0, "type": "electric_scooter", "is_reserved": 0, "fusion_lon": 0.0, "lat": 38.91187883333333, "rental_uris": {"ios": "https://dc.lft.to/lastmile_qr_scan", "android": "https://dc.lft.to/lastmile_qr_scan"}, "bike_id": "687ac60a06b078303a5037839350475e", "fusion_lat": 0.0}, {"lon": -77.02684783333333, "name": "20456602e3a0cc1a242017485c8175d1", "is_disabled": 0, "type": "electric_scooter", "is_reserved": 0, "fusion_lon": 0.0, "lat": 38.9483505, "rental_uris": {"ios": "https://dc.lft.to/lastmile_qr_scan", "android": "https://dc.lft.to/lastmile_qr_scan"}, "bike_id": "20456602e3a0cc1a242017485c8175d1", "fusion_lat": 0.0}, {"lon": -77.02835366666666, "name": "1b3674d6050f47246e98915cf3dd9642", "is_disabled": 0, "type": "electric_scooter", "is_reserved": 0, "fusion_lon": 0.0, "lat": 38.898358333333334, "rental_uris": {"ios": "https://dc.lft.to/lastmile_qr_scan", "android": "https://dc.lft.to/lastmile_qr_scan"}, "bike_id": "1b3674d6050f47246e98915cf3dd9642", "fusion_lat": 0.0}, {"lon": -77.03911916666667, "name": "622a32007c92b38a93d4b0153213151b", "is_disabled": 0, "type": "electric_scooter", "is_reserved": 0, "fusion_lon": 0.0, "lat": 38.92472866666667, "rental_uris": {"ios": "https://dc.lft.to/lastmile_qr_scan", "android": "https://dc.lft.to/lastmile_qr_scan"}, "bike_id": "622a32007c92b38a93d4b0153213151b", "fusion_lat": 0.0}, {"lon": -77.02127616666667, "name": "373a95394307607351f437984e8489ce", "is_disabled": 0, "type": "electric_scooter", "is_reserved": 0, "fusion_lon": 0.0, "lat": 38.922745, "rental_uris": {"ios": "https://dc.lft.to/lastmile_qr_scan", "android": "https://dc.lft.to/lastmile_qr_scan"}, "bike_id": "373a95394307607351f437984e8489ce", "fusion_lat": 0.0}, {"lon": -77.03839, "name": "3e29bbdf51b4db3677b99de152bb11b1", "is_disabled": 0, "type": "electric_scooter", "is_reserved": 0, "fusion_lon": 0.0, "lat": 38.90835633333333, "rental_uris": {"ios": "https://dc.lft.to/lastmile_qr_scan", "android": "https://dc.lft.to/lastmile_qr_scan"}, "bike_id": "3e29bbdf51b4db3677b99de152bb11b1", "fusion_lat": 0.0}, {"lon": -77.02610233333333, "name": "8078c38e9ef8f5f25d36eb223cd5602e", "is_disabled": 0, "type": "electric_scooter", "is_reserved": 0, "fusion_lon": 0.0, "lat": 38.8973105, "rental_uris": {"ios": "https://dc.lft.to/lastmile_qr_scan", "android": "https://dc.lft.to/lastmile_qr_scan"}, "bike_id": "8078c38e9ef8f5f25d36eb223cd5602e", "fusion_lat": 0.0}, {"lon": -77.01963866666667, "name": "f7ebf8aee3a8716865013ea55abc9303", "is_disabled": 0, "type": "electric_scooter", "is_reserved": 0, "fusion_lon": 0.0, "lat": 38.88601333333333, "rental_uris": {"ios": "https://dc.lft.to/lastmile_qr_scan", "android": "https://dc.lft.to/lastmile_qr_scan"}, "bike_id": "f7ebf8aee3a8716865013ea55abc9303", "fusion_lat": 0.0}, {"lon": -76.9803485, "name": "8fa62420f64d920f1c24c122908caad3", "is_disabled": 0, "type": "electric_scooter", "is_reserved": 0, "fusion_lon": 0.0, "lat": 38.88970583333333, "rental_uris": {"ios": "https://dc.lft.to/lastmile_qr_scan", "android": "https://dc.lft.to/lastmile_qr_scan"}, "bike_id": "8fa62420f64d920f1c24c122908caad3", "fusion_lat": 0.0}, {"lon": -77.02978733333333, "name": "823faf3aafaa845b6548e9cf6389ee31", "is_disabled": 0, "type": "electric_scooter", "is_reserved": 0, "fusion_lon": 0.0, "lat": 38.898924, "rental_uris": {"ios": "https://dc.lft.to/lastmile_qr_scan", "android": "https://dc.lft.to/lastmile_qr_scan"}, "bike_id": "823faf3aafaa845b6548e9cf6389ee31", "fusion_lat": 0.0}, {"lon": -76.944655, "name": "b9f3592aa9b643c457404bba5eb12b24", "is_disabled": 0, "type": "electric_scooter", "is_reserved": 0, "fusion_lon": 0.0, "lat": 38.89028183333333, "rental_uris": {"ios": "https://dc.lft.to/lastmile_qr_scan", "android": "https://dc.lft.to/lastmile_qr_scan"}, "bike_id": "b9f3592aa9b643c457404bba5eb12b24", "fusion_lat": 0.0}, {"lon": -76.9802295, "name": "399a58b9e2d43f8651e1ddac3984b1eb", "is_disabled": 0, "type": "electric_bike", "is_reserved": 0, "fusion_lon": 0.0, "lat": 38.868179, "rental_uris": {"ios": "https://dc.lft.to/lastmile_qr_scan", "android": "https://dc.lft.to/lastmile_qr_scan"}, "bike_id": "399a58b9e2d43f8651e1ddac3984b1eb", "fusion_lat": 0.0}, {"lon": -77.018741, "name": "c053eb1772256b0f622e1ed6d5e2764b", "is_disabled": 0, "type": "electric_scooter", "is_reserved": 0, "fusion_lon": 0.0, "lat": 38.931978666666666, "rental_uris": {"ios": "https://dc.lft.to/lastmile_qr_scan", "android": "https://dc.lft.to/lastmile_qr_scan"}, "bike_id": "c053eb1772256b0f622e1ed6d5e2764b", "fusion_lat": 0.0}, {"lon": -77.002835, "name": "73a35964397783676fd17031eb69edc6", "is_disabled": 0, "type": "electric_scooter", "is_reserved": 0, "fusion_lon": 0.0, "lat": 38.893512666666666, "rental_uris": {"ios": "https://dc.lft.to/lastmile_qr_scan", "android": "https://dc.lft.to/lastmile_qr_scan"}, "bike_id": "73a35964397783676fd17031eb69edc6", "fusion_lat": 0.0}, {"lon": -77.022843, "name": "d401e126b7c5ec9c537f7d4964da13fd", "is_disabled": 0, "type": "electric_scooter", "is_reserved": 0, "fusion_lon": 0.0, "lat": 38.914386666666665, "rental_uris": {"ios": "https://dc.lft.to/lastmile_qr_scan", "android": "https://dc.lft.to/lastmile_qr_scan"}, "bike_id": "d401e126b7c5ec9c537f7d4964da13fd", "fusion_lat": 0.0}, {"lon": -77.04788233333333, "name": "33b87a2d3b70a3461dcb8cd1b6136e54", "is_disabled": 0, "type": "electric_scooter", "is_reserved": 0, "fusion_lon": 0.0, "lat": 38.9020555, "rental_uris": {"ios": "https://dc.lft.to/lastmile_qr_scan", "android": "https://dc.lft.to/lastmile_qr_scan"}, "bike_id": "33b87a2d3b70a3461dcb8cd1b6136e54", "fusion_lat": 0.0}, {"lon": -77.0245585, "name": "e20521eb226fe3b7b23e33a350700775", "is_disabled": 0, "type": "electric_scooter", "is_reserved": 0, "fusion_lon": 0.0, "lat": 38.91689316666667, "rental_uris": {"ios": "https://dc.lft.to/lastmile_qr_scan", "android": "https://dc.lft.to/lastmile_qr_scan"}, "bike_id": "e20521eb226fe3b7b23e33a350700775", "fusion_lat": 0.0}, {"lon": -77.00191716666667, "name": "79125989f1d6f58cf7391b8ea0448ffb", "is_disabled": 0, "type": "electric_scooter", "is_reserved": 0, "fusion_lon": 0.0, "lat": 38.89617916666667, "rental_uris": {"ios": "https://dc.lft.to/lastmile_qr_scan", "android": "https://dc.lft.to/lastmile_qr_scan"}, "bike_id": "79125989f1d6f58cf7391b8ea0448ffb", "fusion_lat": 0.0}, {"lon": -76.99017266666667, "name": "f0461d102771c62e179ba67a6484a271", "is_disabled": 0, "type": "electric_scooter", "is_reserved": 0, "fusion_lon": 0.0, "lat": 38.865150666666665, "rental_uris": {"ios": "https://dc.lft.to/lastmile_qr_scan", "android": "https://dc.lft.to/lastmile_qr_scan"}, "bike_id": "f0461d102771c62e179ba67a6484a271", "fusion_lat": 0.0}, {"lon": -77.0095265, "name": "532ce9218384b84ec59b67c118b4051f", "is_disabled": 0, "type": "electric_scooter", "is_reserved": 0, "fusion_lon": 0.0, "lat": 38.876320666666665, "rental_uris": {"ios": "https://dc.lft.to/lastmile_qr_scan", "android": "https://dc.lft.to/lastmile_qr_scan"}, "bike_id": "532ce9218384b84ec59b67c118b4051f", "fusion_lat": 0.0},