{"data": {"bikes": [{"rental_uris": {"ios": "https://dc.lft.to/lastmile_qr_scan", "android": "https://dc.lft.to/lastmile_qr_scan"}, "fusion_lat": 0.0, "name": "9144b9f2fe5e781660317331b8ee57ed", "bike_id": "9144b9f2fe5e781660317331b8ee57ed", "is_disabled": 0, "type": "electric_scooter", "lat": 38.91702316666667, "lon": -77.02588033333333, "is_reserved": 0, "fusion_lon": 0.0}, {"rental_uris": {"ios": "https://dc.lft.to/lastmile_qr_scan", "android": "https://dc.lft.to/lastmile_qr_scan"}, "fusion_lat": 0.0, "name": "6d2d36b22d59c9294ca6d442d3e0ecf3", "bike_id": "6d2d36b22d59c9294ca6d442d3e0ecf3", "is_disabled": 0, "type": "electric_bike", "lat": 38.90532866666667, "lon": -77.043425, "is_reserved": 0, "fusion_lon": 0.0}, {"rental_uris": {"ios": "https://dc.lft.to/lastmile_qr_scan", "android": "https://dc.lft.to/lastmile_qr_scan"}, "fusion_lat": 0.0, "name": "1e0728e2a4974562d6abca176b5ccee7", "bike_id": "1e0728e2a4974562d6abca176b5ccee7", "is_disabled": 0, "type": "electric_scooter", "lat": 38.959328666666664, "lon": -77.03126733333333, "is_reserved": 0, "fusion_lon": 0.0}, {"rental_uris": {"ios": "https://dc.lft.to/lastmile_qr_scan", "android": "https://dc.lft.to/lastmile_qr_scan"}, "fusion_lat": 0.0, "name": "7df9a7f5da9d5694b5d0abcf2274f49d", "bike_id": "7df9a7f5da9d5694b5d0abcf2274f49d", "is_disabled": 0, "type": "electric_bike", "lat": 38.9850765, "lon": -76.98196283333333, "is_reserved": 0, "fusion_lon": 0.0}, {"rental_uris": {"ios": "https://dc.lft.to/lastmile_qr_scan", "android": "https://dc.lft.to/lastmile_qr_scan"}, "fusion_lat": 0.0, "name": "4e36b8d1c8f38d870b3a47998b004273", "bike_id": "4e36b8d1c8f38d870b3a47998b004273", "is_disabled": 0, "type": "electric_scooter", "lat": 38.946985833333336, "lon": -77.02165783333334, "is_reserved": 0, "fusion_lon": 0.0}, {"rental_uris": {"ios": "https://dc.lft.to/lastmile_qr_scan", "android": "https://dc.lft.to/lastmile_qr_scan"}, "fusion_lat": 0.0, "name": "1c7408e9f9835649cbd7a3fc3ad9347e", "bike_id": "1c7408e9f9835649cbd7a3fc3ad9347e", "is_disabled": 0, "type": "electric_scooter", "lat": 38.897088333333336, "lon": -77.0267725, "is_reserved": 0, "fusion_lon": 0.0}, {"rental_uris": {"ios": "https://dc.lft.to/lastmile_qr_scan", "android": "https://dc.lft.to/lastmile_qr_scan"}, "fusion_lat": 0.0, "name": "402945db484ad586b80837dae5980282", "bike_id": "402945db484ad586b80837dae5980282", "is_disabled": 0, "type": "electric_bike", "lat": 38.90556266666667, "lon": -76.9979355, "is_reserved": 0, "fusion_lon": 0.0}, {"rental_uris": {"ios": "https://dc.lft.to/lastmile_qr_scan", "android": "https://dc.lft.to/lastmile_qr_scan"}, "fusion_lat": 0.0, "name": "369618dc14d035feca18369db7a24d9d", "bike_id": "369618dc14d035feca18369db7a24d9d", "is_disabled": 0, "type": "electric_scooter", "lat": 38.89448816666667, "lon": -76.9780325, "is_reserved": 0, "fusion_lon": 0.0}, {"rental_uris": {"ios": "https://dc.lft.to/lastmile_qr_scan", "android": "https://dc.lft.to/lastmile_qr_scan"}, "fusion_lat": 0.0, "name": "f4b7128f80224f328e5541246b617da3", "bike_id": "f4b7128f80224f328e5541246b617da3", "is_disabled": 0, "type": "electric_bike", "lat": 38.9631165, "lon": -77.03330566666666, "is_reserved": 0, "fusion_lon": 0.0}, {"rental_uris": {"ios": "https://dc.lft.to/lastmile_qr_scan", "android": "https://dc.lft.to/lastmile_qr_scan"}, "fusion_lat": 0.0, "name": "dfe01ebb2e6898ad47a2e3c72d6673ad", "bike_id": "dfe01ebb2e6898ad47a2e3c72d6673ad", "is_disabled": 0, "type": "electric_bike", "lat": 38.80574166666667, "lon": -77.06860966666666, "is_reserved": 0, "fusion_lon": 0.0}, {"rental_uris": {"ios": "https://dc.lft.to/lastmile_qr_scan", "android": "https://dc.lft.to/lastmile_qr_scan"}, "fusion_lat": 0.0, "name": "b0edaa828bd479d638066c6605101671", "bike_id": "b0edaa828bd479d638066c6605101671", "is_disabled": 0, "type": "electric_scooter", "lat": 38.913007, "lon": -77.0322045, "is_reserved": 0, "fusion_lon": 0.0}, {"rental_uris": {"ios": "https://dc.lft.to/lastmile_qr_scan", "android": "https://dc.lft.to/lastmile_qr_scan"}, "fusion_lat": 0.0, "name": "2ebf8f4a5e44a24b7214d712c2189529", "bike_id": "2ebf8f4a5e44a24b7214d712c2189529", "is_disabled": 0, "type": "electric_scooter", "lat": 38.9274905, "lon": -77.0248605, "is_reserved": 0, "fusion_lon": 0.0}, {"rental_uris": {"ios": "https://dc.lft.to/lastmile_qr_scan", "android": "https://dc.lft.to/lastmile_qr_scan"}, "fusion_lat": 0.0, "name": "0764634ed12945cd9a9d3acf948257fa", "bike_id": "0764634ed12945cd9a9d3acf948257fa", "is_disabled": 0, "type": "electric_scooter", "lat": 38.892983, "lon": -77.021806, "is_reserved": 0, "fusion_lon": 0.0}, {"rental_uris": {"ios": "https://dc.lft.to/lastmile_qr_scan", "android": "https://dc.lft.to/lastmile_qr_scan"}, "fusion_lat": 0.0, "name": "ea583f18bb1a017b930a410cdd41db1f", "bike_id": "ea583f18bb1a017b930a410cdd41db1f", "is_disabled": 0, "type": "electric_scooter", "lat": 38.9260175, "lon": -77.02151133333334, "is_reserved": 0, "fusion_lon": 0.0}, {"rental_uris": {"ios": "https://dc.lft.to/lastmile_qr_scan", "android": "https://dc.lft.to/lastmile_qr_scan"}, "fusion_lat": 0.0, "name": "335b4d8fbd999befc43abb48e18f1e35", "bike_id": "335b4d8fbd999befc43abb48e18f1e35", "is_disabled": 0, "type": "electric_bike", "lat": 38.982710833333336, "lon": -77.0177085, "is_reserved": 0, "fusion_lon": 0.0}, {"rental_uris": {"ios": "https://dc.lft.to/lastmile_qr_scan", "android": "https://dc.lft.to/lastmile_qr_scan"}, "fusion_lat": 0.0, "name": "97cfaa407cacf2beb901501f431576f4", "bike_id": "97cfaa407cacf2beb901501f431576f4", "is_disabled": 0, "type": "electric_bike", "lat": 38.95878183333333, "lon": -77.01034266666667, "is_reserved": 0, "fusion_lon": 0.0}, {"rental_uris": {"ios": "https://dc.lft.to/lastmile_qr_scan", "android": "https://dc.lft.to/lastmile_qr_scan"}, "fusion_lat": 0.0, "name": "088639d62c15f1bfa8a996db11ec5111", "bike_id": "088639d62c15f1bfa8a996db11ec5111", "is_disabled": 0, "type": "electric_scooter", "lat": 38.89231083333333, "lon": -77.05002216666666, "is_reserved": 0, "fusion_lon": 0.0}, {"rental_uris": {"ios": "https://dc.lft.to/lastmile_qr_scan", "android": "https://dc.lft.to/lastmile_qr_scan"}, "fusion_lat": 0.0, "name": "5dd586d20704ee35d43e25eb6adea7bc", "bike_id": "5dd586d20704ee35d43e25eb6adea7bc", "is_disabled": 0, "type": "electric_scooter", "lat": 38.897213666666666, "lon": -77.02785183333333, "is_reserved": 0, "fusion_lon": 0.0}, {"rental_uris": {"ios": "https://dc.lft.to/lastmile_qr_scan", "android": "https://dc.lft.to/lastmile_qr_scan"}, "fusion_lat": 0.0, "name": "09297d9d665aeff408c92e480bae0fcf", "bike_id": "09297d9d665aeff408c92e480bae0fcf", "is_disabled": 0, "type": "electric_scooter", "lat": 38.86240816666667, "lon": -76.99497533333333, "is_reserved": 0, "fusion_lon": 0.0}, {"rental_uris": {"ios": "https://dc.lft.to/lastmile_qr_scan", "android": "https://dc.lft.to/lastmile_qr_scan"}, "fusion_lat": 0.0, "name": "ef5a0a899610179746e24032ddaa064f", "bike_id": "ef5a0a899610179746e24032ddaa064f", "is_disabled": 0, "type": "electric_bike", "lat": 38.8728435, "lon": -77.23320283333334, "is_reserved": 0, "fusion_lon": 0.0}, {"rental_uris": {"ios": "https://dc.lft.to/lastmile_qr_scan", "android": "https://dc.lft.to/lastmile_qr_scan"}, "fusion_lat": 0.0, "name": "f6351865fdc3ba656e3b5331b8c7be95", "bike_id": "f6351865fdc3ba656e3b5331b8c7be95", "is_disabled": 0, "type": "electric_scooter", "lat": 38.8922525, "lon": -77.0432835, "is_reserved": 0, "fusion_lon": 0.0}, {"rental_uris": {"ios": "https://dc.lft.to/lastmile_qr_scan", "android": "https://dc.lft.to/lastmile_qr_scan"}, "fusion_lat": 0.0, "name": "7354f3f1fa46cd625388181cf970074a", "bike_id": "7354f3f1fa46cd625388181cf970074a", "is_disabled": 0, "type": "electric_bike", "lat": 38.9309355, "lon": -77.02515216666667, "is_reserved": 0, "fusion_lon": 0.0}, {"rental_uris": {"ios": "https://dc.lft.to/lastmile_qr_scan", "android": "https://dc.lft.to/lastmile_qr_scan"}, "fusion_lat": 0.0, "name": "7efdcbeb3bc1b36113efbe8f406b87b5", "bike_id": "7efdcbeb3bc1b36113efbe8f406b87b5", "is_disabled": 0, "type": "electric_scooter", "lat": 38.90777216666667, "lon": -76.98004066666667, "is_reserved": 0, "fusion_lon": 0.0}, {"rental_uris": {"ios": "https://dc.lft.to/lastmile_qr_scan", "android": "https://dc.lft.to/lastmile_qr_scan"}, "fusion_lat": 0.0, "name": "076b5ea808b9f5f92a6b99097f1efc4d", "bike_id": "076b5ea808b9f5f92a6b99097f1efc4d", "is_disabled": 0, "type": "electric_scooter", "lat": 38.892261166666664, "lon": -77.04327083333334, "is_reserved": 0, "fusion_lon": 0.0}, {"rental_uris": {"ios": "https://dc.lft.to/lastmile_qr_scan", "android": "https://dc.lft.to/lastmile_qr_scan"}, "fusion_lat": 0.0, "name": "ef06b58477207d153107206c8164abd9", "bike_id": "ef06b58477207d153107206c8164abd9", "is_disabled": 0, "type": "electric_scooter", "lat": 38.90552366666667, "lon": -77.03983566666666, "is_reserved": 0, "fusion_lon": 0.0}, {"rental_uris": {"ios": "https://dc.lft.to/lastmile_qr_scan", "android": "https://dc.lft.to/lastmile_qr_scan"}, "fusion_lat": 0.0, "name": "6fe49c7b08ceffc145c8145bdad8626f", "bike_id": "6fe49c7b08ceffc145c8145bdad8626f", "is_disabled": 0, "type": "electric_scooter", "lat": 38.9099615, "lon": -77.04009666666667, "is_reserved": 0, "fusion_lon": 0.0}, {"rental_uris": {"ios": "https://dc.lft.to/lastmile_qr_scan", "android": "https://dc.lft.to/lastmile_qr_scan"}, "fusion_lat": 0.0, "name": "246a10631c371701d039c4ffcbf2ce60", "bike_id": "246a10631c371701d039c4ffcbf2ce60", "is_disabled": 0, "type": "electric_scooter", "lat": 38.8922225, "lon": -77.04683, "is_reserved": 0, "fusion_lon": 0.0}, {"rental_uris": {"ios": "https://dc.lft.to/lastmile_qr_scan", "android": "https://dc.lft.to/lastmile_qr_scan"}, "fusion_lat": 0.0, "name": "f48e646db378a4fdf2f14407e76e436c", "bike_id": "f48e646db378a4fdf2f14407e76e436c", "is_disabled": 0, "type": "electric_bike", "lat": 38.914782333333335, "lon": -76.98554183333333, "is_reserved": 0, "fusion_lon": 0.0}, {"rental_uris": {"ios": "https://dc.lft.to/lastmile_qr_scan", "android": "https://dc.lft.to/lastmile_qr_scan"}, "fusion_lat": 0.0, "name": "cef5208e8516942751311c83dfa6febd", "bike_id": "cef5208e8516942751311c83dfa6febd", "is_disabled": 0, "type": "electric_scooter", "lat": 38.91003166666667, "lon": -77.04425166666667, "is_reserved": 0, "fusion_lon": 0.0}, {"rental_uris": {"ios": "https://dc.lft.to/lastmile_qr_scan", "android": "https://dc.lft.to/lastmile_qr_scan"}, "fusion_lat": 0.0, "name": "ddff6b52c72513a27dfe727ff56675d2", "bike_id": "ddff6b52c72513a27dfe727ff56675d2", "is_disabled": 0, "type": "electric_scooter", "lat": 38.899994666666665, "lon": -77.04342216666667, "is_reserved": 0, "fusion_lon": 0.0}, {"rental_uris": {"ios": "https://dc.lft.to/lastmile_qr_scan", "android": "https://dc.lft.to/lastmile_qr_scan"}, "fusion_lat": 0.0, "name": "3504fcdb57db734388389e25df7680f7", "bike_id": "3504fcdb57db734388389e25df7680f7", "is_disabled": 0, "type": "electric_scooter", "lat": 38.901415, "lon": -77.00349733333333, "is_reserved": 0, "fusion_lon": 0.0}, {"rental_uris": {"ios": "https://dc.lft.to/lastmile_qr_scan", "android": "https://dc.lft.to/lastmile_qr_scan"}, "fusion_lat": 0.0, "name": "d93a2d2ac16ad5032737cfa8ebfa7845", "bike_id": "d93a2d2ac16ad5032737cfa8ebfa7845", "is_disabled": 0, "type": "electric_scooter", "lat": 38.90466266666667, "lon": -77.02693733333334, "is_reserved": 0, "fusion_lon": 0.0}, {"rental_uris": {"ios": "https://dc.lft.to/lastmile_qr_scan", "android": "https://dc.lft.to/lastmile_qr_scan"}, "fusion_lat": 0.0, "name": "c01e696dbcf891b682f6e766dac37ffb", "bike_id": "c01e696dbcf891b682f6e766dac37ffb", "is_disabled": 0, "type": "electric_scooter", "lat": 38.90312316666667, "lon": -77.03316633333333, "is_reserved": 0, "fusion_lon": 0.0}, {"rental_uris": {"ios": "https://dc.lft.to/lastmile_qr_scan", "android": "https://dc.lft.to/lastmile_qr_scan"}, "fusion_lat": 0.0, "name": "d85f088d9d48802d602676ed4d12bead", "bike_id": "d85f088d9d48802d602676ed4d12bead", "is_disabled": 0, "type": "electric_scooter", "lat": 38.91561683333333, "lon": -77.02008316666667, "is_reserved": 0, "fusion_lon": 0.0}, {"rental_uris": {"ios": "https://dc.lft.to/lastmile_qr_scan", "android": "https://dc.lft.to/lastmile_qr_scan"}, "fusion_lat": 0.0, "name": "228eb995bfb8685c297be262b18d0f87", "bike_id": "228eb995bfb8685c297be262b18d0f87", "is_disabled": 0, "type": "electric_scooter", "lat": 38.902500833333335, "lon": -77.033341, "is_reserved": 0, "fusion_lon": 0.0}, {"rental_uris": {"ios": "https://dc.lft.to/lastmile_qr_scan", "android": "https://dc.lft.to/lastmile_qr_scan"}, "fusion_lat": 0.0, "name": "5bc29faea1441410c4f5c486625ae9c7", "bike_id": "5bc29faea1441410c4f5c486625ae9c7", "is_disabled": 0, "type": "electric_scooter", "lat": 38.944095833333336, "lon": -77.05517616666667, "is_reserved": 0, "fusion_lon": 0.0}, {"rental_uris": {"ios": "https://dc.lft.to/lastmile_qr_scan", "android": "https://dc.lft.to/lastmile_qr_scan"}, "fusion_lat": 0.0, "name": "98e6ebc7b49f79c0e364dd655c43532d", "bike_id": "98e6ebc7b49f79c0e364dd655c43532d", "is_disabled": 0, "type": "electric_scooter", "lat": 38.92206016666667, "lon": -77.00393416666667, "is_reserved": 0, "fusion_lon": 0.0}, {"rental_uris": {"ios": "https://dc.lft.to/lastmile_qr_scan", "android": "https://dc.lft.to/lastmile_qr_scan"}, "fusion_lat": 0.0, "name": "ab4b81153dde01c681f81ecfc5244724", "bike_id": "ab4b81153dde01c681f81ecfc5244724", "is_disabled": 0, "type": "electric_scooter", "lat": 38.9179295, "lon": -77.03659516666667, "is_reserved": 0, "fusion_lon": 0.0}, {"rental_uris": {"ios": "https://dc.lft.to/lastmile_qr_scan", "android": "https://dc.lft.to/lastmile_qr_scan"}, "fusion_lat": 0.0, "name": "f9e216dbc8ec68a458f3dbd1500e5967", "bike_id": "f9e216dbc8ec68a458f3dbd1500e5967", "is_disabled": 0, "type": "electric_bike", "lat": 38.91476266666667, "lon": -76.981168, "is_reserved": 0, "fusion_lon": 0.0}, {"rental_uris": {"ios": "https://dc.lft.to/lastmile_qr_scan", "android": "https://dc.lft.to/lastmile_qr_scan"}, "fusion_lat": 0.0, "name": "52f849c4732143d0cd651ad813a20215", "bike_id": "52f849c4732143d0cd651ad813a20215", "is_disabled": 0, "type": "electric_scooter", "lat": 38.911081, "lon": -77.044721, "is_reserved": 0, "fusion_lon": 0.0}, {"rental_uris": {"ios": "https://dc.lft.to/lastmile_qr_scan", "android": "https://dc.lft.to/lastmile_qr_scan"}, "fusion_lat": 0.0, "name": "3cde4ddc7dddd42de00a1e25f85402ea", "bike_id": "3cde4ddc7dddd42de00a1e25f85402ea", "is_disabled": 0, "type": "electric_scooter", "lat": 38.905681666666666, "lon": -77.03479716666666, "is_reserved": 0, "fusion_lon": 0.0}, {"rental_uris": {"ios": "https://dc.lft.to/lastmile_qr_scan", "android": "https://dc.lft.to/lastmile_qr_scan"}, "fusion_lat": 0.0, "name": "51510d4917c261fdacae7cec52b980f6", "bike_id": "51510d4917c261fdacae7cec52b980f6", "is_disabled": 0, "type": "electric_scooter", "lat": 38.90369166666667, "lon": -77.0450945, "is_reserved": 0, "fusion_lon": 0.0}, {"rental_uris": {"ios": "https://dc.lft.to/lastmile_qr_scan", "android": "https://dc.lft.to/lastmile_qr_scan"}, "fusion_lat": 0.0, "name": "68ee32fecc6e2992cdf07293f6df8eda", "bike_id": "68ee32fecc6e2992cdf07293f6df8eda", "is_disabled": 0, "type": "electric_scooter", "lat": 38.910062, "lon": -77.04422483333333, "is_reserved": 0, "fusion_lon": 0.0}, {"rental_uris": {"ios": "https://dc.lft.to/lastmile_qr_scan", "android": "https://dc.lft.to/lastmile_qr_scan"}, "fusion_lat": 0.0, "name": "d850dd07b44b684c546c6104d3294ea8", "bike_id": "d850dd07b44b684c546c6104d3294ea8", "is_disabled": 0, "type": "electric_scooter", "lat": 38.917290666666666, "lon": -77.0416975, "is_reserved": 0, "fusion_lon": 0.0}, {"rental_uris": {"ios": "https://dc.lft.to/lastmile_qr_scan", "android": "https://dc.lft.to/lastmile_qr_scan"}, "fusion_lat": 0.0, "name": "59c658233887d1b7c572c29dece679b1", "bike_id": "59c658233887d1b7c572c29dece679b1", "is_disabled": 0, "type": "electric_scooter", "lat": 38.9155755, "lon": -77.036624, "is_reserved": 0, "fusion_lon": 0.0}, {"rental_uris": {"ios": "https://dc.lft.to/lastmile_qr_scan", "android": "https://dc.lft.to/lastmile_qr_scan"}, "fusion_lat": 0.0, "name": "880821401dfc490d6e329415f33511ee", "bike_id": "880821401dfc490d6e329415f33511ee", "is_disabled": 0, "type": "electric_scooter", "lat": 38.91591483333333, "lon": -77.0296855, "is_reserved": 0, "fusion_lon": 0.0}, {"rental_uris": {"ios": "https://dc.lft.to/lastmile_qr_scan", "android": "https://dc.lft.to/lastmile_qr_scan"}, "fusion_lat": 0.0, "name": "9a879c7b3634b82766b7fa223cc44d56", "bike_id": "9a879c7b3634b82766b7fa223cc44d56", "is_disabled": 0, "type": "electric_scooter", "lat": 38.906196, "lon": -77.02175033333333, "is_reserved": 0, "fusion_lon": 0.0}, {"rental_uris": {"ios": "https://dc.lft.to/lastmile_qr_scan", "android": "https://dc.lft.to/lastmile_qr_scan"}, "fusion_lat": 0.0, "name": "cbc482ef9a285aa0ca40fc878b2f47c9", "bike_id": "cbc482ef9a285aa0ca40fc878b2f47c9", "is_disabled": 0, "type": "electric_scooter", "lat": 38.89230366666666, "lon": -77.0280115, "is_reserved": 0, "fusion_lon": 0.0}, {"rental_uris": {"ios": "https://dc.lft.to/lastmile_qr_scan", "android": "https://dc.lft.to/lastmile_qr_scan"}, "fusion_lat": 0.0, "name": "83b08bd26b643e870e5bac1ee6c55f46", "bike_id": "83b08bd26b643e870e5bac1ee6c55f46", "is_disabled": 0, "type": "electric_scooter", "lat": 38.9220265, "lon": -77.0424695, "is_reserved": 0, "fusion_lon": 0.0}, {"rental_uris": {"ios": "https://dc.lft.to/lastmile_qr_scan", "android": "https://dc.lft.to/lastmile_qr_scan"}, "fusion_lat": 0.0, "name": "99d4408766ccecf43b0b13373942b9b5", "bike_id": "99d4408766ccecf43b0b13373942b9b5", "is_disabled": 0, "type": "electric_scooter", "lat": 38.84294333333333, "lon": -76.99947183333333, "is_reserved": 0, "fusion_lon": 0.0}, {"rental_uris": {"ios": "https://dc.lft.to/lastmile_qr_scan", "android": "https://dc.lft.to/lastmile_qr_scan"}, "fusion_lat": 0.0, "name": "92e97d74ea91cf6a21501fc01bc1fe0d", "bike_id": "92e97d74ea91cf6a21501fc01bc1fe0d", "is_disabled": 0, "type": "electric_scooter", "lat": 38.89897233333333, "lon": -77.03272583333333, "is_reserved": 0, "fusion_lon": 0.0}, {"rental_uris": {"ios": "https://dc.lft.to/lastmile_qr_scan", "android": "https://dc.lft.to/lastmile_qr_scan"}, "fusion_lat": 0.0, "name": "1f31a64c90ade84c16080fedc9bc70a3", "bike_id": "1f31a64c90ade84c16080fedc9bc70a3", "is_disabled": 0, "type": "electric_scooter", "lat": 38.93192333333333, "lon": -77.0283655, "is_reserved": 0, "fusion_lon": 0.0}, {"rental_uris": {"ios": "https://dc.lft.to/lastmile_qr_scan", "android": "https://dc.lft.to/lastmile_qr_scan"}, "fusion_lat": 0.0, "name": "5425a0564fa62f5cc9217169c645aa9f", "bike_id": "5425a0564fa62f5cc9217169c645aa9f", "is_disabled": 0, "type": "electric_scooter", "lat": 38.906829, "lon": -77.02696283333333, "is_reserved": 0, "fusion_lon": 0.0}, {"rental_uris": {"ios": "https://dc.lft.to/lastmile_qr_scan", "android": "https://dc.lft.to/lastmile_qr_scan"}, "fusion_lat": 0.0, "name": "5fa4c77cb6f0aaa9e5f60f60c2d7f733", "bike_id": "5fa4c77cb6f0aaa9e5f60f60c2d7f733", "is_disabled": 0, "type": "electric_scooter", "lat": 38.8909365, "lon": -77.00049883333334, "is_reserved": 0, "fusion_lon": 0.0}, {"rental_uris": {"ios": "https://dc.lft.to/lastmile_qr_scan", "android": "https://dc.lft.to/lastmile_qr_scan"}, "fusion_lat": 0.0, "name": "47b6bacb7c9a5840ec2531cf932a85d3", "bike_id": "47b6bacb7c9a5840ec2531cf932a85d3", "is_disabled": 0, "type": "electric_scooter", "lat": 38.892197, "lon": -77.02623, "is_reserved": 0, "fusion_lon": 0.0}, {"rental_uris": {"ios": "https://dc.lft.to/lastmile_qr_scan", "android": "https://dc.lft.to/lastmile_qr_scan"}, "fusion_lat": 0.0, "name": "6252719cd974201dbf8450a8c0744e1e", "bike_id": "6252719cd974201dbf8450a8c0744e1e", "is_disabled": 0, "type": "electric_bike", "lat": 38.79325266666667, "lon": -77.04020433333334, "is_reserved": 0, "fusion_lon": 0.0}, {"rental_uris": {"ios": "https://dc.lft.to/lastmile_qr_scan", "android": "https://dc.lft.to/lastmile_qr_scan"}, "fusion_lat": 0.0, "name": "31bd7f9b15b5e0b560966cd3b06c868a", "bike_id": "31bd7f9b15b5e0b560966cd3b06c868a", "is_disabled": 0, "type": "electric_bike", "lat": 38.96488083333333, "lon": -77.10710416666667, "is_reserved": 0, "fusion_lon": 0.0}, {"rental_uris": {"ios": "https://dc.lft.to/lastmile_qr_scan", "android": "https://dc.lft.to/lastmile_qr_scan"}, "fusion_lat": 0.0, "name": "25891522acef940a7e869513269234dd", "bike_id": "25891522acef940a7e869513269234dd", "is_disabled": 0, "type": "electric_scooter", "lat": 38.90560683333333, "lon": -77.0042725, "is_reserved": 0, "fusion_lon": 0.0}, {"rental_uris": {"ios": "https://dc.lft.to/lastmile_qr_scan", "android": "https://dc.lft.to/lastmile_qr_scan"}, "fusion_lat": 0.0, "name": "2821d563a743e40e43d7a6b8dbc4840f", "bike_id": "2821d563a743e40e43d7a6b8dbc4840f", "is_disabled": 0, "type": "electric_scooter", "lat": 38.94098283333334, "lon": -77.02112583333333, "is_reserved": 0, "fusion_lon": 0.0}, {"rental_uris": {"ios": "https://dc.lft.to/lastmile_qr_scan", "android": "https://dc.lft.to/lastmile_qr_scan"}, "fusion_lat": 0.0, "name": "7ceb4e75489dcc23733432b82a9bf347", "bike_id": "7ceb4e75489dcc23733432b82a9bf347", "is_disabled": 0, "type": "electric_scooter", "lat": 38.92329516666667, "lon": -77.0430825, "is_reserved": 0, "fusion_lon": 0.0}, {"rental_uris": {"ios": "https://dc.lft.to/lastmile_qr_scan", "android": "https://dc.lft.to/lastmile_qr_scan"}, "fusion_lat": 0.0, "name": "6698b78e76bf03ca458900b231bb11f8", "bike_id": "6698b78e76bf03ca458900b231bb11f8", "is_disabled": 0, "type": "electric_scooter", "lat": 38.88335466666667, "lon": -77.00933916666666, "is_reserved": 0, "fusion_lon": 0.0}, {"rental_uris": {"ios": "https://dc.lft.to/lastmile_qr_scan", "android": "https://dc.lft.to/lastmile_qr_scan"}, "fusion_lat": 0.0, "name": "da30772467e321431bab79c41fbd36a5", "bike_id": "da30772467e321431bab79c41fbd36a5", "is_disabled": 0, "type": "electric_scooter", "lat": 38.913206, "lon": -77.03171466666667, "is_reserved": 0, "fusion_lon": 0.0}, {"rental_uris": {"ios": "https://dc.lft.to/lastmile_qr_scan", "android": "https://dc.lft.to/lastmile_qr_scan"}, "fusion_lat": 0.0, "name": "504b581bb8267214d755aad5d82c566f", "bike_id": "504b581bb8267214d755aad5d82c566f", "is_disabled": 0, "type": "electric_bike", "lat": 38.94901266666667, "lon": -76.97238783333333, "is_reserved": 0, "fusion_lon": 0.0}, {"rental_uris": {"ios": "https://dc.lft.to/lastmile_qr_scan", "android": "https://dc.lft.to/lastmile_qr_scan"}, "fusion_lat": 0.0, "name": "5259e20541845d21e6b935d0c54b8b85", "bike_id": "5259e20541845d21e6b935d0c54b8b85", "is_disabled": 0, "type": "electric_scooter", "lat": 38.9137165, "lon": -77.03203783333333, "is_reserved": 0, "fusion_lon": 0.0}, {"rental_uris": {"ios": "https://dc.lft.to/lastmile_qr_scan", "android": "https://dc.lft.to/lastmile_qr_scan"}, "fusion_lat": 0.0, "name": "8cac321acaf53a0c0f02fc4d64fc671f", "bike_id": "8cac321acaf53a0c0f02fc4d64fc671f", "is_disabled": 0, "type": "electric_scooter", "lat": 38.9286345, "lon": -77.03367, "is_reserved": 0, "fusion_lon": 0.0}, {"rental_uris": {"ios": "https://dc.lft.to/lastmile_qr_scan", "android": "https://dc.lft.to/lastmile_qr_scan"}, "fusion_lat": 0.0, "name": "5fa0b759aa989754ddcea29926091ad3", "bike_id": "5fa0b759aa989754ddcea29926091ad3", "is_disabled": 0, "type": "electric_bike", "lat": 38.82906766666667, "lon": -77.00841633333333, "is_reserved": 0, "fusion_lon": 0.0}, {"rental_uris": {"ios": "https://dc.lft.to/lastmile_qr_scan", "android": "https://dc.lft.to/lastmile_qr_scan"}, "fusion_lat": 0.0, "name": "e6aad0451577436e2748b1339cf071c4", "bike_id": "e6aad0451577436e2748b1339cf071c4", "is_disabled": 0, "type": "electric_scooter", "lat": 38.907807166666665, "lon": -77.03859683333333, "is_reserved": 0, "fusion_lon": 0.0}, {"rental_uris": {"ios": "https://dc.lft.to/lastmile_qr_scan", "android": "https://dc.lft.to/lastmile_qr_scan"}, "fusion_lat": 0.0, "name": "c56aea31406cee7a6577edb3b1c7ae71", "bike_id": "c56aea31406cee7a6577edb3b1c7ae71", "is_disabled": 0, "type": "electric_bike", "lat": 38.86514366666667, "lon": -76.97328433333334, "is_reserved": 0, "fusion_lon": 0.0}, {"rental_uris": {"ios": "https://dc.lft.to/lastmile_qr_scan", "android": "https://dc.lft.to/lastmile_qr_scan"}, "fusion_lat": 0.0, "name": "0ca8bc021ee0442fe1099cc76c3aa4f9", "bike_id": "0ca8bc021ee0442fe1099cc76c3aa4f9", "is_disabled": 0, "type": "electric_bike", "lat": 38.932353666666664, "lon": -76.974249, "is_reserved": 0, "fusion_lon": 0.0}, {"rental_uris": {"ios": "https://dc.lft.to/lastmile_qr_scan", "android": "https://dc.lft.to/lastmile_qr_scan"}, "fusion_lat": 0.0, "name": "426b61df8a9790a06b2d0c1972b115d0", "bike_id": "426b61df8a9790a06b2d0c1972b115d0", "is_disabled": 0, "type": "electric_scooter", "lat": 38.928706166666665, "lon": -77.03456566666667, "is_reserved": 0, "fusion_lon": 0.0}, {"rental_uris": {"ios": "https://dc.lft.to/lastmile_qr_scan", "android": "https://dc.lft.to/lastmile_qr_scan"}, "fusion_lat": 0.0, "name": "d58108d449d983c0632c5651935fff41", "bike_id": "d58108d449d983c0632c5651935fff41", "is_disabled": 0, "type": "electric_scooter", "lat": 38.86240733333333, "lon": -76.99496283333333, "is_reserved": 0, "fusion_lon": 0.0}, {"rental_uris": {"ios": "https://dc.lft.to/lastmile_qr_scan", "android": "https://dc.lft.to/lastmile_qr_scan"}, "fusion_lat": 0.0, "name": "cee1b49b42861d8453ceda947ca4d4bb", "bike_id": "cee1b49b42861d8453ceda947ca4d4bb", "is_disabled": 0, "type": "electric_scooter", "lat": 38.8990155, "lon": -76.93357466666667, "is_reserved": 0, "fusion_lon": 0.0}, {"rental_uris": {"ios": "https://dc.lft.to/lastmile_qr_scan", "android": "https://dc.lft.to/lastmile_qr_scan"}, "fusion_lat": 0.0, "name": "fa608c0b341b6a76585e30c97a5e4859", "bike_id": "fa608c0b341b6a76585e30c97a5e4859", "is_disabled": 0, "type": "electric_scooter", "lat": 38.90985, "lon": -76.9948615, "is_reserved": 0, "fusion_lon": 0.0}, {"rental_uris": {"ios": "https://dc.lft.to/lastmile_qr_scan", "android": "https://dc.lft.to/lastmile_qr_scan"}, "fusion_lat": 0.0, "name": "b5954f2def9f907c1c0d0a48d1a69253", "bike_id": "b5954f2def9f907c1c0d0a48d1a69253", "is_disabled": 0, "type": "electric_scooter", "lat": 38.8874325, "lon": -77.02574016666667, "is_reserved": 0, "fusion_lon": 0.0}, {"rental_uris": {"ios": "https://dc.lft.to/lastmile_qr_scan", "android": "https://dc.lft.to/lastmile_qr_scan"}, "fusion_lat": 0.0, "name": "9202b0892039f56c113e727d6ebb4769", "bike_id": "9202b0892039f56c113e727d6ebb4769", "is_disabled": 0, "type": "electric_scooter", "lat": 38.91685983333333, "lon": -77.03443033333333, "is_reserved": 0, "fusion_lon": 0.0}, {"rental_uris": {"ios": "https://dc.lft.to/lastmile_qr_scan", "android": "https://dc.lft.to/lastmile_qr_scan"}, "fusion_lat": 0.0, "name": "c3805a458bac922d5ef991d0023fa403", "bike_id": "c3805a458bac922d5ef991d0023fa403", "is_disabled": 0, "type": "electric_scooter", "lat": 38.902607, "lon": -77.0434185, "is_reserved": 0, "fusion_lon": 0.0}, {"rental_uris": {"ios": "https://dc.lft.to/lastmile_qr_scan", "android": "https://dc.lft.to/lastmile_qr_scan"}, "fusion_lat": 0.0, "name": "77b2e9960887c13001f51f39168baae9", "bike_id": "77b2e9960887c13001f51f39168baae9", "is_disabled": 0, "type": "electric_scooter", "lat": 38.9096385, "lon": -77.048245, "is_reserved": 0, "fusion_lon": 0.0}, {"rental_uris": {"ios": "https://dc.lft.to/lastmile_qr_scan", "android": "https://dc.lft.to/lastmile_qr_scan"}, "fusion_lat": 0.0, "name": "7c57e0223cc0f3b99440c16e3128f3ea", "bike_id": "7c57e0223cc0f3b99440c16e3128f3ea", "is_disabled": 0, "type": "electric_scooter", "lat": 38.850991666666665, "lon": -76.9666685, "is_reserved": 0, "fusion_lon": 0.0}, {"rental_uris": {"ios": "https://dc.lft.to/lastmile_qr_scan", "android": "https://dc.lft.to/lastmile_qr_scan"}, "fusion_lat": 0.0, "name": "aebd5ebdaa5483431821b5de378e8170", "bike_id": "aebd5ebdaa5483431821b5de378e8170", "is_disabled": 0, "type": "electric_scooter", "lat": 38.93967683333333, "lon": -77.0325595, "is_reserved": 0, "fusion_lon": 0.0}, {"rental_uris": {"ios": "https://dc.lft.to/lastmile_qr_scan", "android": "https://dc.lft.to/lastmile_qr_scan"}, "fusion_lat": 0.0, "name": "823af027a1b582711c017104430e4953", "bike_id": "823af027a1b582711c017104430e4953", "is_disabled": 0, "type": "electric_scooter", "lat": 38.91659, "lon": -77.02192366666667, "is_reserved": 0, "fusion_lon": 0.0}, {"rental_uris": {"ios": "https://dc.lft.to/lastmile_qr_scan", "android": "https://dc.lft.to/lastmile_qr_scan"}, "fusion_lat": 0.0, "name": "4d36b351652ed3e8e509862c053f79fb", "bike_id": "4d36b351652ed3e8e509862c053f79fb", "is_disabled": 0, "type": "electric_scooter", "lat": 38.9002505, "lon": -77.0020445, "is_reserved": 0, "fusion_lon": 0.0}, {"rental_uris": {"ios": "https://dc.lft.to/lastmile_qr_scan", "android": "https://dc.lft.to/lastmile_qr_scan"}, "fusion_lat": 0.0, "name": "133a18392df818537ecd57011f03928c", "bike_id": "133a18392df818537ecd57011f03928c", "is_disabled": 0, "type": "electric_scooter", "lat": 38.926523833333334, "lon": -77.02442283333333, "is_reserved": 0, "fusion_lon": 0.0}, {"rental_uris": {"ios": "https://dc.lft.to/lastmile_qr_scan", "android": "https://dc.lft.to/lastmile_qr_scan"}, "fusion_lat": 0.0, "name": "a74d633d42deedbbd016c4becd5fdd5a", "bike_id": "a74d633d42deedbbd016c4becd5fdd5a", "is_disabled": 0, "type": "electric_bike", "lat": 38.906213666666666, "lon": -77.02405533333334, "is_reserved": 0, "fusion_lon": 0.0}, {"rental_uris": {"ios": "https://dc.lft.to/lastmile_qr_scan", "android": "https://dc.lft.to/lastmile_qr_scan"}, "fusion_lat": 0.0, "name": "c20bd5b8a3830968de50a7c761f55860", "bike_id": "c20bd5b8a3830968de50a7c761f55860", "is_disabled": 0, "type": "electric_scooter", "lat": 38.861115833333336, "lon": -76.98374883333334, "is_reserved": 0, "fusion_lon": 0.0}, {"rental_uris": {"ios": "https://dc.lft.to/lastmile_qr_scan", "android": "https://dc.lft.to/lastmile_qr_scan"}, "fusion_lat": 0.0, "name": "3374858a1097a608b711fde6899cbb98", "bike_id": "3374858a1097a608b711fde6899cbb98", "is_disabled": 0, "type": "electric_scooter", "lat": 38.90439666666666, "lon": -77.06108266666666, "is_reserved": 0, "fusion_lon": 0.0}, {"rental_uris": {"ios": "https://dc.lft.to/lastmile_qr_scan", "android": "https://dc.lft.to/lastmile_qr_scan"}, "fusion_lat": 0.0, "name": "aa7d8379f9b713098616fcebd83641e1", "bike_id": "aa7d8379f9b713098616fcebd83641e1", "is_disabled": 0, "type": "electric_scooter", "lat": 38.909823333333335, "lon": -77.0318645, "is_reserved": 0, "fusion_lon": 0.0}, {"rental_uris": {"ios": "https://dc.lft.to/lastmile_qr_scan", "android": "https://dc.lft.to/lastmile_qr_scan"}, "fusion_lat": 0.0, "name": "4465a14b6746d7a8477cc20d7f21c9d2", "bike_id": "4465a14b6746d7a8477cc20d7f21c9d2", "is_disabled": 0, "type": "electric_scooter", "lat": 38.91552183333334, "lon": -77.02211783333334, "is_reserved": 0, "fusion_lon": 0.0}, {"rental_uris": {"ios": "https://dc.lft.to/lastmile_qr_scan", "android": "https://dc.lft.to/lastmile_qr_scan"}, "fusion_lat": 0.0, "name": "eff0f7c0bbff19d11e53a3a6dda24d75", "bike_id": "eff0f7c0bbff19d11e53a3a6dda24d75", "is_disabled": 0, "type": "electric_scooter", "lat": 38.8767275, "lon": -77.0180235, "is_reserved": 0, "fusion_lon": 0.0}, {"rental_uris": {"ios": "https://dc.lft.to/lastmile_qr_scan", "android": "https://dc.lft.to/lastmile_qr_scan"}, "fusion_lat": 0.0, "name": "805b8076acbc6c991d50a78500c754e9", "bike_id": "805b8076acbc6c991d50a78500c754e9", "is_disabled": 0, "type": "electric_scooter", "lat": 38.91857233333333, "lon": -77.04034783333333, "is_reserved": 0, "fusion_lon": 0.0}, {"rental_uris": {"ios": "https://dc.lft.to/lastmile_qr_scan", "android": "https://dc.lft.to/lastmile_qr_scan"}, "fusion_lat": 0.0, "name": "73ff82815cdd327fcfacf02ed38fa3ba", "bike_id": "73ff82815cdd327fcfacf02ed38fa3ba", "is_disabled": 0, "type": "electric_scooter", "lat": 38.87624133333333, "lon": -76.96528966666666, "is_reserved": 0, "fusion_lon": 0.0}, {"rental_uris": {"ios": "https://dc.lft.to/lastmile_qr_scan", "android": "https://dc.lft.to/lastmile_qr_scan"}, "fusion_lat": 0.0, "name": "e083e0363cde7021ced547dbf16437b9", "bike_id": "e083e0363cde7021ced547dbf16437b9", "is_disabled": 0, "type": "electric_scooter", "lat": 38.917773833333335, "lon": -77.04337283333334, "is_reserved": 0, "fusion_lon": 0.0}, {"rental_uris": {"ios": "https://dc.lft.to/lastmile_qr_scan", "android": "https://dc.lft.to/lastmile_qr_scan"}, "fusion_lat": 0.0, "name": "f71983ee52f43e3e22bedda0947d676d", "bike_id": "f71983ee52f43e3e22bedda0947d676d", "is_disabled": 0, "type": "electric_scooter", "lat": 38.915645166666664, "lon": -77.00601266666666, "is_reserved": 0, "fusion_lon": 0.0}, {"rental_uris": {"ios": "https://dc.lft.to/lastmile_qr_scan", "android": "https://dc.lft.to/lastmile_qr_scan"}, "fusion_lat": 0.0, "name": "a3d0e1b64be838e5ec1b45c1bd2e49a9", "bike_id": "a3d0e1b64be838e5ec1b45c1bd2e49a9", "is_disabled": 0, "type": "electric_scooter", "lat": 38.91343916666667, "lon": -77.00917966666667, "is_reserved": 0, "fusion_lon": 0.0}, {"rental_uris": {"ios": "https://dc.lft.to/lastmile_qr_scan", "android": "https://dc.lft.to/lastmile_qr_scan"}, "fusion_lat": 0.0, "name": "ff0f13dad943c073dbef4d1920433fef", "bike_id": "ff0f13dad943c073dbef4d1920433fef", "is_disabled": 0, "type": "electric_scooter", "lat": 38.9360525, "lon": -77.058597, "is_reserved": 0, "fusion_lon": 0.0}, {"rental_uris": {"ios": "https://dc.lft.to/lastmile_qr_scan", "android": "https://dc.lft.to/lastmile_qr_scan"}, "fusion_lat": 0.0, "name": "bde57d55d29c277e7d45986af492dcc8", "bike_id": "bde57d55d29c277e7d45986af492dcc8", "is_disabled": 0, "type": "electric_scooter", "lat": 38.90277, "lon": -77.03915366666666, "is_reserved": 0, "fusion_lon": 0.0}, {"rental_uris": {"ios": "https://dc.lft.to/lastmile_qr_scan", "android": "https://dc.lft.to/lastmile_qr_scan"}, "fusion_lat": 0.0, "name": "ff219a831a774336affab368ac1cfc94", "bike_id": "ff219a831a774336affab368ac1cfc94", "is_disabled": 0, "type": "electric_bike", "lat": 38.973448166666664, "lon": -77.01789333333333, "is_reserved": 0, "fusion_lon": 0.0}, {"rental_uris": {"ios": "https://dc.lft.to/lastmile_qr_scan", "android": "https://dc.lft.to/lastmile_qr_scan"}, "fusion_lat": 0.0, "name": "8f96475b6aae88d0e960f6ca7c809e97", "bike_id": "8f96475b6aae88d0e960f6ca7c809e97", "is_disabled": 0, "type": "electric_scooter", "lat": 38.87870816666667, "lon": -76.94138316666667, "is_reserved": 0, "fusion_lon": 0.0}, {"rental_uris": {"ios": "https://dc.lft.to/lastmile_qr_scan", "android": "https://dc.lft.to/lastmile_qr_scan"}, "fusion_lat": 0.0, "name": "badcc903967b5c558afc371265efa1cf", "bike_id": "badcc903967b5c558afc371265efa1cf", "is_disabled": 0, "type": "electric_bike", "lat": 38.958865833333334, "lon": -76.924869, "is_reserved": 0, "fusion_lon": 0.0}, {"rental_uris": {"ios": "https://dc.lft.to/lastmile_qr_scan", "android": "https://dc.lft.to/lastmile_qr_scan"}, "fusion_lat": 0.0, "name": "31944187691c83cc7a3c8443fcd270f4", "bike_id": "31944187691c83cc7a3c8443fcd270f4", "is_disabled": 0, "type": "electric_scooter", "lat": 38.92528333333333, "lon": -77.02642933333334, "is_reserved": 0, "fusion_lon": 0.0}, {"rental_uris": {"ios": "https://dc.lft.to/lastmile_qr_scan", "android": "https://dc.lft.to/lastmile_qr_scan"}, "fusion_lat": 0.0, "name": "5264c797fcbb6ce074d2aba33ce70ffd", "bike_id": "5264c797fcbb6ce074d2aba33ce70ffd", "is_disabled": 0, "type": "electric_scooter", "lat": 38.927374, "lon": -77.03417116666667, "is_reserved": 0, "fusion_lon": 0.0}, {"rental_uris": {"ios": "https://dc.lft.to/lastmile_qr_scan", "android": "https://dc.lft.to/lastmile_qr_scan"}, "fusion_lat": 0.0, "name": "2332afec65b3ebfd88f89881a6f9bf28", "bike_id": "2332afec65b3ebfd88f89881a6f9bf28", "is_disabled": 0, "type": "electric_scooter", "lat": 38.92838966666667, "lon": -76.99363616666666, "is_reserved": 0, "fusion_lon": 0.0}, {"rental_uris": {"ios": "https://dc.lft.to/lastmile_qr_scan", "android": "https://dc.lft.to/lastmile_qr_scan"}, "fusion_lat": 0.0, "name": "2c61fc4debf82a92b7e7834bfe72f557", "bike_id": "2c61fc4debf82a92b7e7834bfe72f557", "is_disabled": 0, "type": "electric_scooter", "lat": 38.89224516666667, "lon": -77.0322145, "is_reserved": 0, "fusion_lon": 0.0}, {"rental_uris": {"ios": "https://dc.lft.to/lastmile_qr_scan", "android": "https://dc.lft.to/lastmile_qr_scan"}, "fusion_lat": 0.0, "name": "0fe5615a0ab1a543cff1594523f2af83", "bike_id": "0fe5615a0ab1a543cff1594523f2af83", "is_disabled": 0, "type": "electric_scooter", "lat": 38.93169866666667, "lon": -77.03638866666667, "is_reserved": 0, "fusion_lon": 0.0}, {"rental_uris": {"ios": "https://dc.lft.to/lastmile_qr_scan", "android": "https://dc.lft.to/lastmile_qr_scan"}, "fusion_lat": 0.0, "name": "dd6098f5e7a06330d291212ecc764560", "bike_id": "dd6098f5e7a06330d291212ecc764560", "is_disabled": 0, "type": "electric_scooter", "lat": 38.901146833333335, "lon": -77.04996433333334, "is_reserved": 0, "fusion_lon": 0.0}, {"rental_uris": {"ios": "https://dc.lft.to/lastmile_qr_scan", "android": "https://dc.lft.to/lastmile_qr_scan"}, "fusion_lat": 0.0, "name": "97bb59987d18e9ec63f88272bd438404", "bike_id": "97bb59987d18e9ec63f88272bd438404", "is_disabled": 0, "type": "electric_scooter", "lat": 38.89500616666667, "lon": -77.028211, "is_reserved": 0, "fusion_lon": 0.0}, {"rental_uris": {"ios": "https://dc.lft.to/lastmile_qr_scan", "android": "https://dc.lft.to/lastmile_qr_scan"}, "fusion_lat": 0.0, "name": "f7f0cf6f0ab64c525e67d09624ca7d2d", "bike_id": "f7f0cf6f0ab64c525e67d09624ca7d2d", "is_disabled": 0, "type": "electric_scooter", "lat": 38.892176, "lon": -77.03223333333334, "is_reserved": 0, "fusion_lon": 0.0}, {"rental_uris": {"ios": "https://dc.lft.to/lastmile_qr_scan", "android": "https://dc.lft.to/lastmile_qr_scan"}, "fusion_lat": 0.0, "name": "bafda5042ebc7b18cd5b8322042c8edd", "bike_id": "bafda5042ebc7b18cd5b8322042c8edd", "is_disabled": 0, "type": "electric_scooter", "lat": 38.918638333333334, "lon": -77.03184316666666, "is_reserved": 0, "fusion_lon": 0.0}, {"rental_uris": {"ios": "https://dc.lft.to/lastmile_qr_scan", "android": "https://dc.lft.to/lastmile_qr_scan"}, "fusion_lat": 0.0, "name": "94e76afc9897fb0149a17ff541a6122b", "bike_id": "94e76afc9897fb0149a17ff541a6122b", "is_disabled": 0, "type": "electric_scooter", "lat": 38.8873995, "lon": -77.01531566666667, "is_reserved": 0, "fusion_lon": 0.0}, {"rental_uris": {"ios": "https://dc.lft.to/lastmile_qr_scan", "android": "https://dc.lft.to/lastmile_qr_scan"}, "fusion_lat": 0.0, "name": "d4d3b2e179ba557ac375386ee93f0bc8", "bike_id": "d4d3b2e179ba557ac375386ee93f0bc8", "is_disabled": 0, "type": "electric_scooter", "lat": 38.928777833333335, "lon": -77.033639, "is_reserved": 0, "fusion_lon": 0.0}, {"rental_uris": {"ios": "https://dc.lft.to/lastmile_qr_scan", "android": "https://dc.lft.to/lastmile_qr_scan"}, "fusion_lat": 0.0, "name": "649b201385d1a3409383bb33305d6b53", "bike_id": "649b201385d1a3409383bb33305d6b53", "is_disabled": 0, "type": "electric_scooter", "lat": 38.93602933333333, "lon": -77.05860683333333, "is_reserved": 0, "fusion_lon": 0.0}, {"rental_uris": {"ios": "https://dc.lft.to/lastmile_qr_scan", "android": "https://dc.lft.to/lastmile_qr_scan"}, "fusion_lat": 0.0, "name": "5bee1288b8a16b35a34f9531fd926073", "bike_id": "5bee1288b8a16b35a34f9531fd926073", "is_disabled": 0, "type": "electric_scooter", "lat": 38.93046183333333, "lon": -77.01998266666666, "is_reserved": 0, "fusion_lon": 0.0}, {"rental_uris": {"ios": "https://dc.lft.to/lastmile_qr_scan", "android": "https://dc.lft.to/lastmile_qr_scan"}, "fusion_lat": 0.0, "name": "5b60a6ad200a01122563bce477105672", "bike_id": "5b60a6ad200a01122563bce477105672", "is_disabled": 0, "type": "electric_bike", "lat": 38.850254, "lon": -77.098018, "is_reserved": 0, "fusion_lon": 0.0}, {"rental_uris": {"ios": "https://dc.lft.to/lastmile_qr_scan", "android": "https://dc.lft.to/lastmile_qr_scan"}, "fusion_lat": 0.0, "name": "1d8018e87d5dba010f72ce0b1b2e4fdb", "bike_id": "1d8018e87d5dba010f72ce0b1b2e4fdb", "is_disabled": 0, "type": "electric_scooter", "lat": 38.94519433333333, "lon": -76.97945783333333, "is_reserved": 0, "fusion_lon": 0.0}, {"rental_uris": {"ios": "https://dc.lft.to/lastmile_qr_scan", "android": "https://dc.lft.to/lastmile_qr_scan"}, "fusion_lat": 0.0, "name": "fd766cc313e9e2812194424ccdf5dbbb", "bike_id": "fd766cc313e9e2812194424ccdf5dbbb", "is_disabled": 0, "type": "electric_bike", "lat": 38.857888833333334, "lon": -77.0996205, "is_reserved": 0, "fusion_lon": 0.0}, {"rental_uris": {"ios": "https://dc.lft.to/lastmile_qr_scan", "android": "https://dc.lft.to/lastmile_qr_scan"}, "fusion_lat": 0.0, "name": "005a6a7875a44af10632c89d4141333b", "bike_id": "005a6a7875a44af10632c89d4141333b", "is_disabled": 0, "type": "electric_scooter", "lat": 38.918584, "lon": -77.0403685, "is_reserved": 0, "fusion_lon": 0.0}, {"rental_uris": {"ios": "https://dc.lft.to/lastmile_qr_scan", "android": "https://dc.lft.to/lastmile_qr_scan"}, "fusion_lat": 0.0, "name": "43aa4ddd17bf360a5250515b0ea5d4c2", "bike_id": "43aa4ddd17bf360a5250515b0ea5d4c2", "is_disabled": 0, "type": "electric_scooter", "lat": 38.892187666666665, "lon": -77.02221066666667, "is_reserved": 0, "fusion_lon": 0.0}, {"rental_uris": {"ios": "https://dc.lft.to/lastmile_qr_scan", "android": "https://dc.lft.to/lastmile_qr_scan"}, "fusion_lat": 0.0, "name": "279e764effc097416f7b30885a754edd", "bike_id": "279e764effc097416f7b30885a754edd", "is_disabled": 0, "type": "electric_scooter", "lat": 38.92283333333334, "lon": -77.03513066666666, "is_reserved": 0, "fusion_lon": 0.0}, {"rental_uris": {"ios": "https://dc.lft.to/lastmile_qr_scan", "android": "https://dc.lft.to/lastmile_qr_scan"}, "fusion_lat": 0.0, "name": "92d49b06c3333bfb005370d4185c0382", "bike_id": "92d49b06c3333bfb005370d4185c0382", "is_disabled": 0, "type": "electric_scooter", "lat": 38.909676166666664, "lon": -77.0247625, "is_reserved": 0, "fusion_lon": 0.0}, {"rental_uris": {"ios": "https://dc.lft.to/lastmile_qr_scan", "android": "https://dc.lft.to/lastmile_qr_scan"}, "fusion_lat": 0.0, "name": "438f58dc1c1723ea3bc1b94e9a6241ea", "bike_id": "438f58dc1c1723ea3bc1b94e9a6241ea", "is_disabled": 0, "type": "electric_scooter", "lat": 38.9014375, "lon": -77.04160333333333, "is_reserved": 0, "fusion_lon": 0.0}, {"rental_uris": {"ios": "https://dc.lft.to/lastmile_qr_scan", "android": "https://dc.lft.to/lastmile_qr_scan"}, "fusion_lat": 0.0, "name": "03c904d6f312f30120bc8fe30aefc808", "bike_id": "03c904d6f312f30120bc8fe30aefc808", "is_disabled": 0, "type": "electric_scooter", "lat": 38.9156015, "lon": -77.02215866666667, "is_reserved": 0, "fusion_lon": 0.0}, {"rental_uris": {"ios": "https://dc.lft.to/lastmile_qr_scan", "android": "https://dc.lft.to/lastmile_qr_scan"}, "fusion_lat": 0.0, "name": "fe018fc7c09dabba6c8e91a426b35001", "bike_id": "fe018fc7c09dabba6c8e91a426b35001", "is_disabled": 0, "type": "electric_bike", "lat": 38.9644075, "lon": -77.020748, "is_reserved": 0, "fusion_lon": 0.0}, {"rental_uris": {"ios": "https://dc.lft.to/lastmile_qr_scan", "android": "https://dc.lft.to/lastmile_qr_scan"}, "fusion_lat": 0.0, "name": "7fcc1c5d2e11308f30795dd0dfd8a352", "bike_id": "7fcc1c5d2e11308f30795dd0dfd8a352", "is_disabled": 0, "type": "electric_scooter", "lat": 38.916791, "lon": -77.029763, "is_reserved": 0, "fusion_lon": 0.0}, {"rental_uris": {"ios": "https://dc.lft.to/lastmile_qr_scan", "android": "https://dc.lft.to/lastmile_qr_scan"}, "fusion_lat": 0.0, "name": "ca9981ac7a74de0b0ddb42b95698b5fe", "bike_id": "ca9981ac7a74de0b0ddb42b95698b5fe", "is_disabled": 0, "type": "electric_scooter", "lat": 38.9324315, "lon": -76.99536916666666, "is_reserved": 0, "fusion_lon": 0.0}, {"rental_uris": {"ios": "https://dc.lft.to/lastmile_qr_scan", "android": "https://dc.lft.to/lastmile_qr_scan"}, "fusion_lat": 0.0, "name": "610f61c4ccffd123a0e8dc67d69e9de4", "bike_id": "610f61c4ccffd123a0e8dc67d69e9de4", "is_disabled": 0, "type": "electric_scooter", "lat": 38.90806, "lon": -77.03840433333333, "is_reserved": 0, "fusion_lon": 0.0}, {"rental_uris": {"ios": "https://dc.lft.to/lastmile_qr_scan", "android": "https://dc.lft.to/lastmile_qr_scan"}, "fusion_lat": 0.0, "name": "f67d9679b24884231e0ab40d7368bc6d", "bike_id": "f67d9679b24884231e0ab40d7368bc6d", "is_disabled": 0, "type": "electric_scooter", "lat": 38.91477666666667, "lon": -77.02560483333333, "is_reserved": 0, "fusion_lon": 0.0}, {"rental_uris": {"ios": "https://dc.lft.to/lastmile_qr_scan", "android": "https://dc.lft.to/lastmile_qr_scan"}, "fusion_lat": 0.0, "name": "d1af74d8f9c7be72402d93a6917c3322", "bike_id": "d1af74d8f9c7be72402d93a6917c3322", "is_disabled": 0, "type": "electric_scooter", "lat": 38.90621816666667, "lon": -77.02184116666666, "is_reserved": 0, "fusion_lon": 0.0}, {"rental_uris": {"ios": "https://dc.lft.to/lastmile_qr_scan", "android": "https://dc.lft.to/lastmile_qr_scan"}, "fusion_lat": 0.0, "name": "24cc6b02315aa5b0842e575edc82f270", "bike_id": "24cc6b02315aa5b0842e575edc82f270", "is_disabled": 0, "type": "electric_scooter", "lat": 38.920513, "lon": -77.0328785, "is_reserved": 0, "fusion_lon": 0.0}, {"rental_uris": {"ios": "https://dc.lft.to/lastmile_qr_scan", "android": "https://dc.lft.to/lastmile_qr_scan"}, "fusion_lat": 0.0, "name": "1692a9beadb0d964c009cc0031d31c06", "bike_id": "1692a9beadb0d964c009cc0031d31c06", "is_disabled": 0, "type": "electric_scooter", "lat": 38.926115333333335, "lon": -77.02159433333334, "is_reserved": 0, "fusion_lon": 0.0}, {"rental_uris": {"ios": "https://dc.lft.to/lastmile_qr_scan", "android": "https://dc.lft.to/lastmile_qr_scan"}, "fusion_lat": 0.0, "name": "c2fe7acb25291c55bed467a10d3093b0", "bike_id": "c2fe7acb25291c55bed467a10d3093b0", "is_disabled": 0, "type": "electric_scooter", "lat": 38.905992833333336, "lon": -77.00579, "is_reserved": 0, "fusion_lon": 0.0}, {"rental_uris": {"ios": "https://dc.lft.to/lastmile_qr_scan", "android": "https://dc.lft.to/lastmile_qr_scan"}, "fusion_lat": 0.0, "name": "70f003379625773d9f4d6cd44c33dfd9", "bike_id": "70f003379625773d9f4d6cd44c33dfd9", "is_disabled": 0, "type": "electric_scooter", "lat": 38.921432, "lon": -77.04357633333333, "is_reserved": 0, "fusion_lon": 0.0}, {"rental_uris": {"ios": "https://dc.lft.to/lastmile_qr_scan", "android": "https://dc.lft.to/lastmile_qr_scan"}, "fusion_lat": 0.0, "name": "6c87a9219e28ff198443c6a0a4c30d97", "bike_id": "6c87a9219e28ff198443c6a0a4c30d97", "is_disabled": 0, "type": "electric_scooter", "lat": 38.903532166666665, "lon": -77.03198816666666, "is_reserved": 0, "fusion_lon": 0.0}, {"rental_uris": {"ios": "https://dc.lft.to/lastmile_qr_scan", "android": "https://dc.lft.to/lastmile_qr_scan"}, "fusion_lat": 0.0, "name": "99fafca5659698c62efc0fd6e0157b0f", "bike_id": "99fafca5659698c62efc0fd6e0157b0f", "is_disabled": 0, "type": "electric_scooter", "lat": 38.939594666666665, "lon": -77.02772266666666, "is_reserved": 0, "fusion_lon": 0.0}, {"rental_uris": {"ios": "https://dc.lft.to/lastmile_qr_scan", "android": "https://dc.lft.to/lastmile_qr_scan"}, "fusion_lat": 0.0, "name": "c1a8f3b1bcc60c169a55239129e9d90b", "bike_id": "c1a8f3b1bcc60c169a55239129e9d90b", "is_disabled": 0, "type": "electric_scooter", "lat": 38.90974516666667, "lon": -77.02690866666667, "is_reserved": 0, "fusion_lon": 0.0}, {"rental_uris": {"ios": "https://dc.lft.to/lastmile_qr_scan", "android": "https://dc.lft.to/lastmile_qr_scan"}, "fusion_lat": 0.0, "name": "4b17b511f79146af91b4f77863cf9992", "bike_id": "4b17b511f79146af91b4f77863cf9992", "is_disabled": 0, "type": "electric_scooter", "lat": 38.892281833333335, "lon": -77.03183983333334, "is_reserved": 0, "fusion_lon": 0.0}, {"rental_uris": {"ios": "https://dc.lft.to/lastmile_qr_scan", "android": "https://dc.lft.to/lastmile_qr_scan"}, "fusion_lat": 0.0, "name": "8d0a775e2064bdc32504bd6db925c481", "bike_id": "8d0a775e2064bdc32504bd6db925c481", "is_disabled": 0, "type": "electric_bike", "lat": 38.870826, "lon": -77.01216733333334, "is_reserved": 0, "fusion_lon": 0.0}, {"rental_uris": {"ios": "https://dc.lft.to/lastmile_qr_scan", "android": "https://dc.lft.to/lastmile_qr_scan"}, "fusion_lat": 0.0, "name": "9567dce54bef33f641ef69d131ab581d", "bike_id": "9567dce54bef33f641ef69d131ab581d", "is_disabled": 0, "type": "electric_scooter", "lat": 38.902760666666666, "lon": -77.03868566666667, "is_reserved": 0, "fusion_lon": 0.0}, {"rental_uris": {"ios": "https://dc.lft.to/lastmile_qr_scan", "android": "https://dc.lft.to/lastmile_qr_scan"}, "fusion_lat": 0.0, "name": "103d89e00cfb3cf15e2f55b5623dd07c", "bike_id": "103d89e00cfb3cf15e2f55b5623dd07c", "is_disabled": 0, "type": "electric_bike", "lat": 38.906986, "lon": -77.02179333333333, "is_reserved": 0, "fusion_lon": 0.0}, {"rental_uris": {"ios": "https://dc.lft.to/lastmile_qr_scan", "android": "https://dc.lft.to/lastmile_qr_scan"}, "fusion_lat": 0.0, "name": "5c8de59547583a9e65877dc4b2d19f76", "bike_id": "5c8de59547583a9e65877dc4b2d19f76", "is_disabled": 0, "type": "electric_scooter", "lat": 38.915984, "lon": -77.025783, "is_reserved": 0, "fusion_lon": 0.0}, {"rental_uris": {"ios": "https://dc.lft.to/lastmile_qr_scan", "android": "https://dc.lft.to/lastmile_qr_scan"}, "fusion_lat": 0.0, "name": "7ccb5bac3a65748a314cb858c83a7bee", "bike_id": "7ccb5bac3a65748a314cb858c83a7bee", "is_disabled": 0, "type": "electric_scooter", "lat": 38.905395166666665, "lon": -77.0500125, "is_reserved": 0, "fusion_lon": 0.0}, {"rental_uris": {"ios": "https://dc.lft.to/lastmile_qr_scan", "android": "https://dc.lft.to/lastmile_qr_scan"}, "fusion_lat": 0.0, "name": "e468ce6695802320d636752062d2a923", "bike_id": "e468ce6695802320d636752062d2a923", "is_disabled": 0, "type": "electric_scooter", "lat": 38.9357675, "lon": -77.0376105, "is_reserved": 0, "fusion_lon": 0.0}, {"rental_uris": {"ios": "https://dc.lft.to/lastmile_qr_scan", "android": "https://dc.lft.to/lastmile_qr_scan"}, "fusion_lat": 0.0, "name": "67da5342fc8aa49835f24ab61c55c43c", "bike_id": "67da5342fc8aa49835f24ab61c55c43c", "is_disabled": 0, "type": "electric_scooter", "lat": 38.9253605, "lon": -77.052498, "is_reserved": 0, "fusion_lon": 0.0}, {"rental_uris": {"ios": "https://dc.lft.to/lastmile_qr_scan", "android": "https://dc.lft.to/lastmile_qr_scan"}, "fusion_lat": 0.0, "name": "2db68465b1c063c0c7a4e392ef1379d6", "bike_id": "2db68465b1c063c0c7a4e392ef1379d6", "is_disabled": 0, "type": "electric_scooter", "lat": 38.9027315, "lon": -77.0344225, "is_reserved": 0, "fusion_lon": 0.0}, {"rental_uris": {"ios": "https://dc.lft.to/lastmile_qr_scan", "android": "https://dc.lft.to/lastmile_qr_scan"}, "fusion_lat": 0.0, "name": "4de4e922eea41283d3a89e5632bc3127", "bike_id": "4de4e922eea41283d3a89e5632bc3127", "is_disabled": 0, "type": "electric_scooter", "lat": 38.920785333333335, "lon": -77.04208033333333, "is_reserved": 0, "fusion_lon": 0.0}, {"rental_uris": {"ios": "https://dc.lft.to/lastmile_qr_scan", "android": "https://dc.lft.to/lastmile_qr_scan"}, "fusion_lat": 0.0, "name": "2dbe2cf3eee285ac33a3ffe50ee3bf45", "bike_id": "2dbe2cf3eee285ac33a3ffe50ee3bf45", "is_disabled": 0, "type": "electric_scooter", "lat": 38.91330583333333, "lon": -77.0384525, "is_reserved": 0, "fusion_lon": 0.0}, {"rental_uris": {"ios": "https://dc.lft.to/lastmile_qr_scan", "android": "https://dc.lft.to/lastmile_qr_scan"}, "fusion_lat": 0.0, "name": "ff43fa1efe357802f55d063158efa19e", "bike_id": "ff43fa1efe357802f55d063158efa19e", "is_disabled": 0, "type": "electric_scooter", "lat": 38.87675316666667, "lon": -77.01760066666667, "is_reserved": 0, "fusion_lon": 0.0}, {"rental_uris": {"ios": "https://dc.lft.to/lastmile_qr_scan", "android": "https://dc.lft.to/lastmile_qr_scan"}, "fusion_lat": 0.0, "name": "2168ec9e2f0baa7d18487683422d6294", "bike_id": "2168ec9e2f0baa7d18487683422d6294", "is_disabled": 0, "type": "electric_scooter", "lat": 38.90281066666667, "lon": -77.03645116666667, "is_reserved": 0, "fusion_lon": 0.0}, {"rental_uris": {"ios": "https://dc.lft.to/lastmile_qr_scan", "android": "https://dc.lft.to/lastmile_qr_scan"}, "fusion_lat": 0.0, "name": "803ddb8f216be99afab9d038c3dd80cb", "bike_id": "803ddb8f216be99afab9d038c3dd80cb", "is_disabled": 0, "type": "electric_scooter", "lat": 38.9169015, "lon": -77.03495133333334, "is_reserved": 0, "fusion_lon": 0.0}, {"rental_uris": {"ios": "https://dc.lft.to/lastmile_qr_scan", "android": "https://dc.lft.to/lastmile_qr_scan"}, "fusion_lat": 0.0, "name": "bb34eaf47f9f9fc25783aeac4588a206", "bike_id": "bb34eaf47f9f9fc25783aeac4588a206", "is_disabled": 0, "type": "electric_scooter", "lat": 38.90849466666667, "lon": -77.02066433333333, "is_reserved": 0, "fusion_lon": 0.0}, {"rental_uris": {"ios": "https://dc.lft.to/lastmile_qr_scan", "android": "https://dc.lft.to/lastmile_qr_scan"}, "fusion_lat": 0.0, "name": "8a4686ddca7af7ef61ac26eeaa761577", "bike_id": "8a4686ddca7af7ef61ac26eeaa761577", "is_disabled": 0, "type": "electric_scooter", "lat": 38.933520666666666, "lon": -77.05736166666667, "is_reserved": 0, "fusion_lon": 0.0}, {"rental_uris": {"ios": "https://dc.lft.to/lastmile_qr_scan", "android": "https://dc.lft.to/lastmile_qr_scan"}, "fusion_lat": 0.0, "name": "d7b849e1b6132a5d3ea38c6e01164823", "bike_id": "d7b849e1b6132a5d3ea38c6e01164823", "is_disabled": 0, "type": "electric_scooter", "lat": 38.9168735, "lon": -77.031611, "is_reserved": 0, "fusion_lon": 0.0}, {"rental_uris": {"ios": "https://dc.lft.to/lastmile_qr_scan", "android": "https://dc.lft.to/lastmile_qr_scan"}, "fusion_lat": 0.0, "name": "126a5fa1866b431cf1f0327b26b94d8b", "bike_id": "126a5fa1866b431cf1f0327b26b94d8b", "is_disabled": 0, "type": "electric_scooter", "lat": 38.9255705, "lon": -77.02281283333333, "is_reserved": 0, "fusion_lon": 0.0}, {"rental_uris": {"ios": "https://dc.lft.to/lastmile_qr_scan", "android": "https://dc.lft.to/lastmile_qr_scan"}, "fusion_lat": 0.0, "name": "a61b23459a3bfc995b46c8b38cf11925", "bike_id": "a61b23459a3bfc995b46c8b38cf11925", "is_disabled": 0, "type": "electric_scooter", "lat": 38.93422133333333, "lon": -77.0555265, "is_reserved": 0, "fusion_lon": 0.0}, {"rental_uris": {"ios": "https://dc.lft.to/lastmile_qr_scan", "android": "https://dc.lft.to/lastmile_qr_scan"}, "fusion_lat": 0.0, "name": "46237190112416300e8ee8001561cbf3", "bike_id": "46237190112416300e8ee8001561cbf3", "is_disabled": 0, "type": "electric_scooter", "lat": 38.91124833333333, "lon": -77.02696216666666, "is_reserved": 0, "fusion_lon": 0.0}, {"rental_uris": {"ios": "https://dc.lft.to/lastmile_qr_scan", "android": "https://dc.lft.to/lastmile_qr_scan"}, "fusion_lat": 0.0, "name": "f76f2c51464f3a9b9a8bcb7f4bac25b3", "bike_id": "f76f2c51464f3a9b9a8bcb7f4bac25b3", "is_disabled": 0, "type": "electric_scooter", "lat": 38.879594, "lon": -77.00064866666666, "is_reserved": 0, "fusion_lon": 0.0}, {"rental_uris": {"ios": "https://dc.lft.to/lastmile_qr_scan", "android": "https://dc.lft.to/lastmile_qr_scan"}, "fusion_lat": 0.0, "name": "1f41bacc65e064e7dc8232949645e768", "bike_id": "1f41bacc65e064e7dc8232949645e768", "is_disabled": 0, "type": "electric_scooter", "lat": 38.906490833333336, "lon": -77.008852, "is_reserved": 0, "fusion_lon": 0.0}, {"rental_uris": {"ios": "https://dc.lft.to/lastmile_qr_scan", "android": "https://dc.lft.to/lastmile_qr_scan"}, "fusion_lat": 0.0, "name": "cd5d4e53a4590396eb96139d9b4acaf5", "bike_id": "cd5d4e53a4590396eb96139d9b4acaf5", "is_disabled": 0, "type": "electric_bike", "lat": 38.813448, "lon": -77.04930466666667, "is_reserved": 0, "fusion_lon": 0.0}, {"rental_uris": {"ios": "https://dc.lft.to/lastmile_qr_scan", "android": "https://dc.lft.to/lastmile_qr_scan"}, "fusion_lat": 0.0, "name": "98e54019d87ca7650c3ea56547e2ca28", "bike_id": "98e54019d87ca7650c3ea56547e2ca28", "is_disabled": 0, "type": "electric_scooter", "lat": 38.90273533333333, "lon": -77.031819, "is_reserved": 0, "fusion_lon": 0.0}, {"rental_uris": {"ios": "https://dc.lft.to/lastmile_qr_scan", "android": "https://dc.lft.to/lastmile_qr_scan"}, "fusion_lat": 0.0, "name": "352489b812b674dd0c9f1f8ce52c491f", "bike_id": "352489b812b674dd0c9f1f8ce52c491f", "is_disabled": 0, "type": "electric_scooter", "lat": 38.946318833333336, "lon": -77.01847633333334, "is_reserved": 0, "fusion_lon": 0.0}, {"rental_uris": {"ios": "https://dc.lft.to/lastmile_qr_scan", "android": "https://dc.lft.to/lastmile_qr_scan"}, "fusion_lat": 0.0, "name": "00aa5a73ad83e269ab43004a8cf0e558", "bike_id": "00aa5a73ad83e269ab43004a8cf0e558", "is_disabled": 0, "type": "electric_bike", "lat": 38.95184283333333, "lon": -76.93545216666666, "is_reserved": 0, "fusion_lon": 0.0}, {"rental_uris": {"ios": "https://dc.lft.to/lastmile_qr_scan", "android": "https://dc.lft.to/lastmile_qr_scan"}, "fusion_lat": 0.0, "name": "46c6e6fabe6c4a818d874528b3af7efe", "bike_id": "46c6e6fabe6c4a818d874528b3af7efe", "is_disabled": 0, "type": "electric_scooter", "lat": 38.90727166666667, "lon": -77.02761616666666, "is_reserved": 0, "fusion_lon": 0.0}, {"rental_uris": {"ios": "https://dc.lft.to/lastmile_qr_scan", "android": "https://dc.lft.to/lastmile_qr_scan"}, "fusion_lat": 0.0, "name": "ace39a06615abd9e88f1105b1aff6bf0", "bike_id": "ace39a06615abd9e88f1105b1aff6bf0", "is_disabled": 0, "type": "electric_scooter", "lat": 38.90726733333333, "lon": -77.02760416666666, "is_reserved": 0, "fusion_lon": 0.0}, {"rental_uris": {"ios": "https://dc.lft.to/lastmile_qr_scan", "android": "https://dc.lft.to/lastmile_qr_scan"}, "fusion_lat": 0.0, "name": "4b548ff5e663f48953ec7468b84055fd", "bike_id": "4b548ff5e663f48953ec7468b84055fd", "is_disabled": 0, "type": "electric_scooter", "lat": 38.86697183333333, "lon": -76.98710316666667, "is_reserved": 0, "fusion_lon": 0.0}, {"rental_uris": {"ios": "https://dc.lft.to/lastmile_qr_scan", "android": "https://dc.lft.to/lastmile_qr_scan"}, "fusion_lat": 0.0, "name": "c6057e2761bf873d35f16d2492190806", "bike_id": "c6057e2761bf873d35f16d2492190806", "is_disabled": 0, "type": "electric_scooter", "lat": 38.90960916666667, "lon": -77.03469616666666, "is_reserved": 0, "fusion_lon": 0.0}, {"rental_uris": {"ios": "https://dc.lft.to/lastmile_qr_scan", "android": "https://dc.lft.to/lastmile_qr_scan"}, "fusion_lat": 0.0, "name": "61575aec01d85470c71b6a8356a06f85", "bike_id": "61575aec01d85470c71b6a8356a06f85", "is_disabled": 0, "type": "electric_bike", "lat": 38.95877133333333, "lon": -76.92476733333334, "is_reserved": 0, "fusion_lon": 0.0}, {"rental_uris": {"ios": "https://dc.lft.to/lastmile_qr_scan", "android": "https://dc.lft.to/lastmile_qr_scan"}, "fusion_lat": 0.0, "name": "6ed7d47552dee13daf14c41ab430776f", "bike_id": "6ed7d47552dee13daf14c41ab430776f", "is_disabled": 0, "type": "electric_scooter", "lat": 38.89543666666667, "lon": -77.00198816666666, "is_reserved": 0, "fusion_lon": 0.0}, {"rental_uris": {"ios": "https://dc.lft.to/lastmile_qr_scan", "android": "https://dc.lft.to/lastmile_qr_scan"}, "fusion_lat": 0.0, "name": "db186bd6736245fe7967a1b7b3ae0764", "bike_id": "db186bd6736245fe7967a1b7b3ae0764", "is_disabled": 0, "type": "electric_scooter", "lat": 38.90828783333333, "lon": -77.00927416666667, "is_reserved": 0, "fusion_lon": 0.0}, {"rental_uris": {"ios": "https://dc.lft.to/lastmile_qr_scan", "android": "https://dc.lft.to/lastmile_qr_scan"}, "fusion_lat": 0.0, "name": "bbcaa916be784cf0d46fd2880f9e4adf", "bike_id": "bbcaa916be784cf0d46fd2880f9e4adf", "is_disabled": 0, "type": "electric_scooter", "lat": 38.90342783333333, "lon": -77.04142083333333, "is_reserved": 0, "fusion_lon": 0.0}, {"rental_uris": {"ios": "https://dc.lft.to/lastmile_qr_scan", "android": "https://dc.lft.to/lastmile_qr_scan"}, "fusion_lat": 0.0, "name": "4dad2a57b4a9d98ea70e63440ffaa48e", "bike_id": "4dad2a57b4a9d98ea70e63440ffaa48e", "is_disabled": 0, "type": "electric_scooter", "lat": 38.910185, "lon": -77.03860416666667, "is_reserved": 0, "fusion_lon": 0.0}, {"rental_uris": {"ios": "https://dc.lft.to/lastmile_qr_scan", "android": "https://dc.lft.to/lastmile_qr_scan"}, "fusion_lat": 0.0, "name": "fe528ac0112ad05358f782cfe6f64c96", "bike_id": "fe528ac0112ad05358f782cfe6f64c96", "is_disabled": 0, "type": "electric_scooter", "lat": 38.91925583333333, "lon": -77.03187066666666, "is_reserved": 0, "fusion_lon": 0.0}, {"rental_uris": {"ios": "https://dc.lft.to/lastmile_qr_scan", "android": "https://dc.lft.to/lastmile_qr_scan"}, "fusion_lat": 0.0, "name": "897ef4b805256f3e748f5dcdfe0b94b4", "bike_id": "897ef4b805256f3e748f5dcdfe0b94b4", "is_disabled": 0, "type": "electric_scooter", "lat": 38.92060716666667, "lon": -76.99532083333334, "is_reserved": 0, "fusion_lon": 0.0}, {"rental_uris": {"ios": "https://dc.lft.to/lastmile_qr_scan", "android": "https://dc.lft.to/lastmile_qr_scan"}, "fusion_lat": 0.0, "name": "3a698c065de6386996a9f1c74346d592", "bike_id": "3a698c065de6386996a9f1c74346d592", "is_disabled": 0, "type": "electric_scooter", "lat": 38.8875965, "lon": -77.03361733333334, "is_reserved": 0, "fusion_lon": 0.0}, {"rental_uris": {"ios": "https://dc.lft.to/lastmile_qr_scan", "android": "https://dc.lft.to/lastmile_qr_scan"}, "fusion_lat": 0.0, "name": "3c37800077cae8e11ac0d0bb417cbdd2", "bike_id": "3c37800077cae8e11ac0d0bb417cbdd2", "is_disabled": 0, "type": "electric_scooter", "lat": 38.91647116666667, "lon": -77.02279866666667, "is_reserved": 0, "fusion_lon": 0.0}, {"rental_uris": {"ios": "https://dc.lft.to/lastmile_qr_scan", "android": "https://dc.lft.to/lastmile_qr_scan"}, "fusion_lat": 0.0, "name": "9e726077600ae54a828eb03f361a8f70", "bike_id": "9e726077600ae54a828eb03f361a8f70", "is_disabled": 0, "type": "electric_bike", "lat": 38.853522, "lon": -77.13466766666667, "is_reserved": 0, "fusion_lon": 0.0}, {"rental_uris": {"ios": "https://dc.lft.to/lastmile_qr_scan", "android": "https://dc.lft.to/lastmile_qr_scan"}, "fusion_lat": 0.0, "name": "1f4a20f806954f66fccf36fa84a4a74a", "bike_id": "1f4a20f806954f66fccf36fa84a4a74a", "is_disabled": 0, "type": "electric_scooter", "lat": 38.9010735, "lon": -77.03164166666667, "is_reserved": 0, "fusion_lon": 0.0}, {"rental_uris": {"ios": "https://dc.lft.to/lastmile_qr_scan", "android": "https://dc.lft.to/lastmile_qr_scan"}, "fusion_lat": 0.0, "name": "df2ef1a9b50aafa3119e7ece6c96f3c0", "bike_id": "df2ef1a9b50aafa3119e7ece6c96f3c0", "is_disabled": 0, "type": "electric_scooter", "lat": 38.919272666666664, "lon": -77.0341155, "is_reserved": 0, "fusion_lon": 0.0}, {"rental_uris": {"ios": "https://dc.lft.to/lastmile_qr_scan", "android": "https://dc.lft.to/lastmile_qr_scan"}, "fusion_lat": 0.0, "name": "f5f3be6d24e1fb1ae1af09248f8f6e9f", "bike_id": "f5f3be6d24e1fb1ae1af09248f8f6e9f", "is_disabled": 0, "type": "electric_scooter", "lat": 38.93130816666667, "lon": -77.0339895, "is_reserved": 0, "fusion_lon": 0.0}, {"rental_uris": {"ios": "https://dc.lft.to/lastmile_qr_scan", "android": "https://dc.lft.to/lastmile_qr_scan"}, "fusion_lat": 0.0, "name": "754cb409c056da12a825cfcc5f5824ee", "bike_id": "754cb409c056da12a825cfcc5f5824ee", "is_disabled": 0, "type": "electric_bike", "lat": 38.9587905, "lon": -76.97055933333333, "is_reserved": 0, "fusion_lon": 0.0}, {"rental_uris": {"ios": "https://dc.lft.to/lastmile_qr_scan", "android": "https://dc.lft.to/lastmile_qr_scan"}, "fusion_lat": 0.0, "name": "ec8ff78d0a23ebc31773a453a65c3b59", "bike_id": "ec8ff78d0a23ebc31773a453a65c3b59", "is_disabled": 0, "type": "electric_scooter", "lat": 38.915391, "lon": -77.03202483333334, "is_reserved": 0, "fusion_lon": 0.0}, {"rental_uris": {"ios": "https://dc.lft.to/lastmile_qr_scan", "android": "https://dc.lft.to/lastmile_qr_scan"}, "fusion_lat": 0.0, "name": "dff13747903f3c823557c5d6380b6979", "bike_id": "dff13747903f3c823557c5d6380b6979", "is_disabled": 0, "type": "electric_scooter", "lat": 38.907850833333335, "lon": -77.04007583333333, "is_reserved": 0, "fusion_lon": 0.0}, {"rental_uris": {"ios": "https://dc.lft.to/lastmile_qr_scan", "android": "https://dc.lft.to/lastmile_qr_scan"}, "fusion_lat": 0.0, "name": "34a6574b5d408e728bec334ea36e1ffa", "bike_id": "34a6574b5d408e728bec334ea36e1ffa", "is_disabled": 0, "type": "electric_scooter", "lat": 38.919267166666664, "lon": -77.03170166666666, "is_reserved": 0, "fusion_lon": 0.0}, {"rental_uris": {"ios": "https://dc.lft.to/lastmile_qr_scan", "android": "https://dc.lft.to/lastmile_qr_scan"}, "fusion_lat": 0.0, "name": "6306b603af09a001a870f2bdac186ff9", "bike_id": "6306b603af09a001a870f2bdac186ff9", "is_disabled": 0, "type": "electric_scooter", "lat": 38.8824925, "lon": -76.99501216666667, "is_reserved": 0, "fusion_lon": 0.0}, {"rental_uris": {"ios": "https://dc.lft.to/lastmile_qr_scan", "android": "https://dc.lft.to/lastmile_qr_scan"}, "fusion_lat": 0.0, "name": "94833f9651cdbd1c5050cc7a02e939b9", "bike_id": "94833f9651cdbd1c5050cc7a02e939b9", "is_disabled": 0, "type": "electric_scooter", "lat": 38.863556, "lon": -76.9904505, "is_reserved": 0, "fusion_lon": 0.0}, {"rental_uris": {"ios": "https://dc.lft.to/lastmile_qr_scan", "android": "https://dc.lft.to/lastmile_qr_scan"}, "fusion_lat": 0.0, "name": "75c22e978e0dd10384ceefb2cd7bd4bf", "bike_id": "75c22e978e0dd10384ceefb2cd7bd4bf", "is_disabled": 0, "type": "electric_scooter", "lat": 38.9187685, "lon": -77.0220305, "is_reserved": 0, "fusion_lon": 0.0}, {"rental_uris": {"ios": "https://dc.lft.to/lastmile_qr_scan", "android": "https://dc.lft.to/lastmile_qr_scan"}, "fusion_lat": 0.0, "name": "9ec4af7a53e4cad4f32e826f04e8da53", "bike_id": "9ec4af7a53e4cad4f32e826f04e8da53", "is_disabled": 0, "type": "electric_scooter", "lat": 38.89229533333334, "lon": -77.0500135, "is_reserved": 0, "fusion_lon": 0.0}, {"rental_uris": {"ios": "https://dc.lft.to/lastmile_qr_scan", "android": "https://dc.lft.to/lastmile_qr_scan"}, "fusion_lat": 0.0, "name": "5086aec1eac7571f32079d66d8dbff64", "bike_id": "5086aec1eac7571f32079d66d8dbff64", "is_disabled": 0, "type": "electric_scooter", "lat": 38.8924765, "lon": -77.04655883333334, "is_reserved": 0, "fusion_lon": 0.0}, {"rental_uris": {"ios": "https://dc.lft.to/lastmile_qr_scan", "android": "https://dc.lft.to/lastmile_qr_scan"}, "fusion_lat": 0.0, "name": "43558e66564a4ad5b6fea8c55e002b29", "bike_id": "43558e66564a4ad5b6fea8c55e002b29", "is_disabled": 0, "type": "electric_bike", "lat": 38.879738, "lon": -76.99500783333333, "is_reserved": 0, "fusion_lon": 0.0}, {"rental_uris": {"ios": "https://dc.lft.to/lastmile_qr_scan", "android": "https://dc.lft.to/lastmile_qr_scan"}, "fusion_lat": 0.0, "name": "1e623fc2f24bcabdef85f8cd6b560931", "bike_id": "1e623fc2f24bcabdef85f8cd6b560931", "is_disabled": 0, "type": "electric_scooter", "lat": 38.902397, "lon": -77.01800116666666, "is_reserved": 0, "fusion_lon": 0.0}, {"rental_uris": {"ios": "https://dc.lft.to/lastmile_qr_scan", "android": "https://dc.lft.to/lastmile_qr_scan"}, "fusion_lat": 0.0, "name": "add5d88089395d55a3de6ccda9155106", "bike_id": "add5d88089395d55a3de6ccda9155106", "is_disabled": 0, "type": "electric_scooter", "lat": 38.9542295, "lon": -77.027654, "is_reserved": 0, "fusion_lon": 0.0}, {"rental_uris": {"ios": "https://dc.lft.to/lastmile_qr_scan", "android": "https://dc.lft.to/lastmile_qr_scan"}, "fusion_lat": 0.0, "name": "e7264dbb44517f0ee5cdf07e75742f5e", "bike_id": "e7264dbb44517f0ee5cdf07e75742f5e", "is_disabled": 0, "type": "electric_bike", "lat": 38.806808, "lon": -77.08123666666667, "is_reserved": 0, "fusion_lon": 0.0}, {"rental_uris": {"ios": "https://dc.lft.to/lastmile_qr_scan", "android": "https://dc.lft.to/lastmile_qr_scan"}, "fusion_lat": 0.0, "name": "ad219513535ec87d8e066bd09eddd409", "bike_id": "ad219513535ec87d8e066bd09eddd409", "is_disabled": 0, "type": "electric_scooter", "lat": 38.923237, "lon": -77.02128883333333, "is_reserved": 0, "fusion_lon": 0.0}, {"rental_uris": {"ios": "https://dc.lft.to/lastmile_qr_scan", "android": "https://dc.lft.to/lastmile_qr_scan"}, "fusion_lat": 0.0, "name": "4c48e9d06814c500eba69efe238f55db", "bike_id": "4c48e9d06814c500eba69efe238f55db", "is_disabled": 0, "type": "electric_scooter", "lat": 38.91111716666666, "lon": -77.04357233333333, "is_reserved": 0, "fusion_lon": 0.0}, {"rental_uris": {"ios": "https://dc.lft.to/lastmile_qr_scan", "android": "https://dc.lft.to/lastmile_qr_scan"}, "fusion_lat": 0.0, "name": "973a7cd1cf9b9d7921d8ae01a4d39146", "bike_id": "973a7cd1cf9b9d7921d8ae01a4d39146", "is_disabled": 0, "type": "electric_scooter", "lat": 38.923561166666666, "lon": -77.05324733333333, "is_reserved": 0, "fusion_lon": 0.0}, {"rental_uris": {"ios": "https://dc.lft.to/lastmile_qr_scan", "android": "https://dc.lft.to/lastmile_qr_scan"}, "fusion_lat": 0.0, "name": "ad6590bbdb2955646c08e25eeee54382", "bike_id": "ad6590bbdb2955646c08e25eeee54382", "is_disabled": 0, "type": "electric_scooter", "lat": 38.93885616666667, "lon": -77.02484366666667, "is_reserved": 0, "fusion_lon": 0.0}, {"rental_uris": {"ios": "https://dc.lft.to/lastmile_qr_scan", "android": "https://dc.lft.to/lastmile_qr_scan"}, "fusion_lat": 0.0, "name": "b903802fe4c40f7d5bd8df0dea4399b2", "bike_id": "b903802fe4c40f7d5bd8df0dea4399b2", "is_disabled": 0, "type": "electric_scooter", "lat": 38.923825, "lon": -77.02680133333334, "is_reserved": 0, "fusion_lon": 0.0}, {"rental_uris": {"ios": "https://dc.lft.to/lastmile_qr_scan", "android": "https://dc.lft.to/lastmile_qr_scan"}, "fusion_lat": 0.0, "name": "13c45ec834eb2a2e0ead9277a3b748a0", "bike_id": "13c45ec834eb2a2e0ead9277a3b748a0", "is_disabled": 0, "type": "electric_bike", "lat": 38.91784766666667, "lon": -76.9718105, "is_reserved": 0, "fusion_lon": 0.0}, {"rental_uris": {"ios": "https://dc.lft.to/lastmile_qr_scan", "android": "https://dc.lft.to/lastmile_qr_scan"}, "fusion_lat": 0.0, "name": "8691c4d605ca1b3354df194272ef82fa", "bike_id": "8691c4d605ca1b3354df194272ef82fa", "is_disabled": 0, "type": "electric_scooter", "lat": 38.936560166666666, "lon": -77.05502883333334, "is_reserved": 0, "fusion_lon": 0.0}, {"rental_uris": {"ios": "https://dc.lft.to/lastmile_qr_scan", "android": "https://dc.lft.to/lastmile_qr_scan"}, "fusion_lat": 0.0, "name": "a92a9b4469b5d4c1da4c053c00751e90", "bike_id": "a92a9b4469b5d4c1da4c053c00751e90", "is_disabled": 0, "type": "electric_scooter", "lat": 38.8810535, "lon": -77.04311566666667, "is_reserved": 0, "fusion_lon": 0.0}, {"rental_uris": {"ios": "https://dc.lft.to/lastmile_qr_scan", "android": "https://dc.lft.to/lastmile_qr_scan"}, "fusion_lat": 0.0, "name": "bf3d4d62f388a5a81e413a92523c9dfc", "bike_id": "bf3d4d62f388a5a81e413a92523c9dfc", "is_disabled": 0, "type": "electric_scooter", "lat": 38.885224, "lon": -77.011338, "is_reserved": 0, "fusion_lon": 0.0}, {"rental_uris": {"ios": "https://dc.lft.to/lastmile_qr_scan", "android": "https://dc.lft.to/lastmile_qr_scan"}, "fusion_lat": 0.0, "name": "cff532f0def717b7926c64eca88f27b3", "bike_id": "cff532f0def717b7926c64eca88f27b3", "is_disabled": 0, "type": "electric_scooter", "lat": 38.917113666666665, "lon": -77.03476433333333, "is_reserved": 0, "fusion_lon": 0.0}, {"rental_uris": {"ios": "https://dc.lft.to/lastmile_qr_scan", "android": "https://dc.lft.to/lastmile_qr_scan"}, "fusion_lat": 0.0, "name": "d170063e2b0d92752f6c1d57ffc29a05", "bike_id": "d170063e2b0d92752f6c1d57ffc29a05", "is_disabled": 0, "type": "electric_scooter", "lat": 38.916176666666665, "lon": -77.04157083333334, "is_reserved": 0, "fusion_lon": 0.0}, {"rental_uris": {"ios": "https://dc.lft.to/lastmile_qr_scan", "android": "https://dc.lft.to/lastmile_qr_scan"}, "fusion_lat": 0.0, "name": "368d8b541e218c2a2f333a2012345ccf", "bike_id": "368d8b541e218c2a2f333a2012345ccf", "is_disabled": 0, "type": "electric_bike", "lat": 38.8616865, "lon": -77.13145866666666, "is_reserved": 0, "fusion_lon": 0.0}, {"rental_uris": {"ios": "https://dc.lft.to/lastmile_qr_scan", "android": "https://dc.lft.to/lastmile_qr_scan"}, "fusion_lat": 0.0, "name": "aaf6bd1e1698859935895f99d04d9a34", "bike_id": "aaf6bd1e1698859935895f99d04d9a34", "is_disabled": 0, "type": "electric_scooter", "lat": 38.94289716666667, "lon": -77.0217155, "is_reserved": 0, "fusion_lon": 0.0}, {"rental_uris": {"ios": "https://dc.lft.to/lastmile_qr_scan", "android": "https://dc.lft.to/lastmile_qr_scan"}, "fusion_lat": 0.0, "name": "95c785e14c9c05c746f2043040d53280", "bike_id": "95c785e14c9c05c746f2043040d53280", "is_disabled": 0, "type": "electric_scooter", "lat": 38.918759666666666, "lon": -77.042529, "is_reserved": 0, "fusion_lon": 0.0}, {"rental_uris": {"ios": "https://dc.lft.to/lastmile_qr_scan", "android": "https://dc.lft.to/lastmile_qr_scan"}, "fusion_lat": 0.0, "name": "9920335ecf242a5f5a74f8b34e50191a", "bike_id": "9920335ecf242a5f5a74f8b34e50191a", "is_disabled": 0, "type": "electric_scooter", "lat": 38.917356, "lon": -77.02116683333334, "is_reserved": 0, "fusion_lon": 0.0}, {"rental_uris": {"ios": "https://dc.lft.to/lastmile_qr_scan", "android": "https://dc.lft.to/lastmile_qr_scan"}, "fusion_lat": 0.0, "name": "c2f24b023ad542567cf255202fb3f1e5", "bike_id": "c2f24b023ad542567cf255202fb3f1e5", "is_disabled": 0, "type": "electric_scooter", "lat": 38.901399, "lon": -77.04486866666667, "is_reserved": 0, "fusion_lon": 0.0}, {"rental_uris": {"ios": "https://dc.lft.to/lastmile_qr_scan", "android": "https://dc.lft.to/lastmile_qr_scan"}, "fusion_lat": 0.0, "name": "630a9d54249b62487afc2d33298e9644", "bike_id": "630a9d54249b62487afc2d33298e9644", "is_disabled": 0, "type": "electric_scooter", "lat": 38.89472133333334, "lon": -77.03111666666666, "is_reserved": 0, "fusion_lon": 0.0}, {"rental_uris": {"ios": "https://dc.lft.to/lastmile_qr_scan", "android": "https://dc.lft.to/lastmile_qr_scan"}, "fusion_lat": 0.0, "name": "f19c65ca1d118c7528668fffe05ae69b", "bike_id": "f19c65ca1d118c7528668fffe05ae69b", "is_disabled": 0, "type": "electric_scooter", "lat": 38.941844, "lon": -77.02490933333333, "is_reserved": 0, "fusion_lon": 0.0}, {"rental_uris": {"ios": "https://dc.lft.to/lastmile_qr_scan", "android": "https://dc.lft.to/lastmile_qr_scan"}, "fusion_lat": 0.0, "name": "61142495da0f81e4786098401b508fc3", "bike_id": "61142495da0f81e4786098401b508fc3", "is_disabled": 0, "type": "electric_scooter", "lat": 38.86535766666667, "lon": -76.98706833333334, "is_reserved": 0, "fusion_lon": 0.0}, {"rental_uris": {"ios": "https://dc.lft.to/lastmile_qr_scan", "android": "https://dc.lft.to/lastmile_qr_scan"}, "fusion_lat": 0.0, "name": "334294edb40cf8c6c26ce2e3c1d69de8", "bike_id": "334294edb40cf8c6c26ce2e3c1d69de8", "is_disabled": 0, "type": "electric_bike", "lat": 38.94963083333333, "lon": -77.06644683333333, "is_reserved": 0, "fusion_lon": 0.0}, {"rental_uris": {"ios": "https://dc.lft.to/lastmile_qr_scan", "android": "https://dc.lft.to/lastmile_qr_scan"}, "fusion_lat": 0.0, "name": "1ac30824ee08a6e1fcfc318694d79583", "bike_id": "1ac30824ee08a6e1fcfc318694d79583", "is_disabled": 0, "type": "electric_scooter", "lat": 38.90523266666667, "lon": -77.04165416666666, "is_reserved": 0, "fusion_lon": 0.0}, {"rental_uris": {"ios": "https://dc.lft.to/lastmile_qr_scan", "android": "https://dc.lft.to/lastmile_qr_scan"}, "fusion_lat": 0.0, "name": "49380b42ccd330f5f16bb17241e3e878", "bike_id": "49380b42ccd330f5f16bb17241e3e878", "is_disabled": 0, "type": "electric_bike", "lat": 38.85513, "lon": -77.120144, "is_reserved": 0, "fusion_lon": 0.0}, {"rental_uris": {"ios": "https://dc.lft.to/lastmile_qr_scan", "android": "https://dc.lft.to/lastmile_qr_scan"}, "fusion_lat": 0.0, "name": "0de5e9fad33add60e1f5ab59b397e35a", "bike_id": "0de5e9fad33add60e1f5ab59b397e35a", "is_disabled": 0, "type": "electric_scooter", "lat": 38.916902666666665, "lon": -77.02600216666667, "is_reserved": 0, "fusion_lon": 0.0}, {"rental_uris": {"ios": "https://dc.lft.to/lastmile_qr_scan", "android": "https://dc.lft.to/lastmile_qr_scan"}, "fusion_lat": 0.0, "name": "733e390fff9e017a54289ade64154116", "bike_id": "733e390fff9e017a54289ade64154116", "is_disabled": 0, "type": "electric_scooter", "lat": 38.922431, "lon": -77.03425366666667, "is_reserved": 0, "fusion_lon": 0.0}, {"rental_uris": {"ios": "https://dc.lft.to/lastmile_qr_scan", "android": "https://dc.lft.to/lastmile_qr_scan"}, "fusion_lat": 0.0, "name": "90d488160b412ecf071ffd1a7c4bdaf7", "bike_id": "90d488160b412ecf071ffd1a7c4bdaf7", "is_disabled": 0, "type": "electric_scooter", "lat": 38.89354066666667, "lon": -77.04184466666666, "is_reserved": 0, "fusion_lon": 0.0}, {"rental_uris": {"ios": "https://dc.lft.to/lastmile_qr_scan", "android": "https://dc.lft.to/lastmile_qr_scan"}, "fusion_lat": 0.0, "name": "bd9702e3eb1754d77ab6bf9764307f40", "bike_id": "bd9702e3eb1754d77ab6bf9764307f40", "is_disabled": 0, "type": "electric_scooter", "lat": 38.9096265, "lon": -77.02588133333333, "is_reserved": 0, "fusion_lon": 0.0}, {"rental_uris": {"ios": "https://dc.lft.to/lastmile_qr_scan", "android": "https://dc.lft.to/lastmile_qr_scan"}, "fusion_lat": 0.0, "name": "b253ae429cfce302adf0f8fb0b66eb31", "bike_id": "b253ae429cfce302adf0f8fb0b66eb31", "is_disabled": 0, "type": "electric_bike", "lat": 38.93184983333333, "lon": -77.023517, "is_reserved": 0, "fusion_lon": 0.0}, {"rental_uris": {"ios": "https://dc.lft.to/lastmile_qr_scan", "android": "https://dc.lft.to/lastmile_qr_scan"}, "fusion_lat": 0.0, "name": "d1e8b57dcbc9eee49efc09df915e91f7", "bike_id": "d1e8b57dcbc9eee49efc09df915e91f7", "is_disabled": 0, "type": "electric_scooter", "lat": 38.923646833333336, "lon": -77.0191775, "is_reserved": 0, "fusion_lon": 0.0}, {"rental_uris": {"ios": "https://dc.lft.to/lastmile_qr_scan", "android": "https://dc.lft.to/lastmile_qr_scan"}, "fusion_lat": 0.0, "name": "e387dd47c3cd97ab62d16aef57c2116f", "bike_id": "e387dd47c3cd97ab62d16aef57c2116f", "is_disabled": 0, "type": "electric_scooter", "lat": 38.918012, "lon": -77.04026966666666, "is_reserved": 0, "fusion_lon": 0.0}, {"rental_uris": {"ios": "https://dc.lft.to/lastmile_qr_scan", "android": "https://dc.lft.to/lastmile_qr_scan"}, "fusion_lat": 0.0, "name": "b021c5a5aee3a78e43e669bff564f0bb", "bike_id": "b021c5a5aee3a78e43e669bff564f0bb", "is_disabled": 0, "type": "electric_scooter", "lat": 38.897516, "lon": -76.94191183333334, "is_reserved": 0, "fusion_lon": 0.0}, {"rental_uris": {"ios": "https://dc.lft.to/lastmile_qr_scan", "android": "https://dc.lft.to/lastmile_qr_scan"}, "fusion_lat": 0.0, "name": "2bd8a4fd1767ff8729b1703b6bfcdc49", "bike_id": "2bd8a4fd1767ff8729b1703b6bfcdc49", "is_disabled": 0, "type": "electric_scooter", "lat": 38.91111716666666, "lon": -77.00382866666666, "is_reserved": 0, "fusion_lon": 0.0}, {"rental_uris": {"ios": "https://dc.lft.to/lastmile_qr_scan", "android": "https://dc.lft.to/lastmile_qr_scan"}, "fusion_lat": 0.0, "name": "fd40ba3f26e5d916026f271e62d71304", "bike_id": "fd40ba3f26e5d916026f271e62d71304", "is_disabled": 0, "type": "electric_scooter", "lat": 38.92324983333334, "lon": -77.02134, "is_reserved": 0, "fusion_lon": 0.0}, {"rental_uris": {"ios": "https://dc.lft.to/lastmile_qr_scan", "android": "https://dc.lft.to/lastmile_qr_scan"}, "fusion_lat": 0.0, "name": "3b4c572a2e5fa041c8a0e1d48b0fae2b", "bike_id": "3b4c572a2e5fa041c8a0e1d48b0fae2b", "is_disabled": 0, "type": "electric_scooter", "lat": 38.907846166666666, "lon": -77.03179033333333, "is_reserved": 0, "fusion_lon": 0.0}, {"rental_uris": {"ios": "https://dc.lft.to/lastmile_qr_scan", "android": "https://dc.lft.to/lastmile_qr_scan"}, "fusion_lat": 0.0, "name": "b4df346c8eddff2ad3bf41c7f261fb85", "bike_id": "b4df346c8eddff2ad3bf41c7f261fb85", "is_disabled": 0, "type": "electric_scooter", "lat": 38.939419, "lon": -77.07524233333334, "is_reserved": 0, "fusion_lon": 0.0}, {"rental_uris": {"ios": "https://dc.lft.to/lastmile_qr_scan", "android": "https://dc.lft.to/lastmile_qr_scan"}, "fusion_lat": 0.0, "name": "c9fcc17711977d3efb70ca2933a4823b", "bike_id": "c9fcc17711977d3efb70ca2933a4823b", "is_disabled": 0, "type": "electric_scooter", "lat": 38.930771, "lon": -77.02155983333333, "is_reserved": 0, "fusion_lon": 0.0}, {"rental_uris": {"ios": "https://dc.lft.to/lastmile_qr_scan", "android": "https://dc.lft.to/lastmile_qr_scan"}, "fusion_lat": 0.0, "name": "f7ba29e2fb44ae1af62c6f2d1926ad56", "bike_id": "f7ba29e2fb44ae1af62c6f2d1926ad56", "is_disabled": 0, "type": "electric_scooter", "lat": 38.91916666666667, "lon": -77.02413666666666, "is_reserved": 0, "fusion_lon": 0.0}, {"rental_uris": {"ios": "https://dc.lft.to/lastmile_qr_scan", "android": "https://dc.lft.to/lastmile_qr_scan"}, "fusion_lat": 0.0, "name": "6b463cf8515bbe929bd784311add288f", "bike_id": "6b463cf8515bbe929bd784311add288f", "is_disabled": 0, "type": "electric_scooter", "lat": 38.8873975, "lon": -77.02123733333333, "is_reserved": 0, "fusion_lon": 0.0}, {"rental_uris": {"ios": "https://dc.lft.to/lastmile_qr_scan", "android": "https://dc.lft.to/lastmile_qr_scan"}, "fusion_lat": 0.0, "name": "6b4281ec7e9fdf7fc4590bb66abbabc3", "bike_id": "6b4281ec7e9fdf7fc4590bb66abbabc3", "is_disabled": 0, "type": "electric_scooter", "lat": 38.94824466666667, "lon": -76.9990225, "is_reserved": 0, "fusion_lon": 0.0}, {"rental_uris": {"ios": "https://dc.lft.to/lastmile_qr_scan", "android": "https://dc.lft.to/lastmile_qr_scan"}, "fusion_lat": 0.0, "name": "c0272270f03e75cfde3e72231820ce48", "bike_id": "c0272270f03e75cfde3e72231820ce48", "is_disabled": 0, "type": "electric_bike", "lat": 38.902395, "lon": -77.044644, "is_reserved": 0, "fusion_lon": 0.0}, {"rental_uris": {"ios": "https://dc.lft.to/lastmile_qr_scan", "android": "https://dc.lft.to/lastmile_qr_scan"}, "fusion_lat": 0.0, "name": "caaa8070a421a18b0d94bb58d074ea92", "bike_id": "caaa8070a421a18b0d94bb58d074ea92", "is_disabled": 0, "type": "electric_bike", "lat": 38.97213683333333, "lon": -77.02712183333334, "is_reserved": 0, "fusion_lon": 0.0}, {"rental_uris": {"ios": "https://dc.lft.to/lastmile_qr_scan", "android": "https://dc.lft.to/lastmile_qr_scan"}, "fusion_lat": 0.0, "name": "54dccaf3be2bf1558b6a201d0216f340", "bike_id": "54dccaf3be2bf1558b6a201d0216f340", "is_disabled": 0, "type": "electric_scooter", "lat": 38.9022455, "lon": -77.060621, "is_reserved": 0, "fusion_lon": 0.0}, {"rental_uris": {"ios": "https://dc.lft.to/lastmile_qr_scan", "android": "https://dc.lft.to/lastmile_qr_scan"}, "fusion_lat": 0.0, "name": "beadff848af75694a8b46d617cb73e2d", "bike_id": "beadff848af75694a8b46d617cb73e2d", "is_disabled": 0, "type": "electric_scooter", "lat": 38.930035, "lon": -77.0554805, "is_reserved": 0, "fusion_lon": 0.0}, {"rental_uris": {"ios": "https://dc.lft.to/lastmile_qr_scan", "android": "https://dc.lft.to/lastmile_qr_scan"}, "fusion_lat": 0.0, "name": "db6666bc2ef6df726bbcc3f78f2403bb", "bike_id": "db6666bc2ef6df726bbcc3f78f2403bb", "is_disabled": 0, "type": "electric_scooter", "lat": 38.928162, "lon": -77.01410183333333, "is_reserved": 0, "fusion_lon": 0.0}, {"rental_uris": {"ios": "https://dc.lft.to/lastmile_qr_scan", "android": "https://dc.lft.to/lastmile_qr_scan"}, "fusion_lat": 0.0, "name": "c60b9054fd709c9ba51b740b100c050d", "bike_id": "c60b9054fd709c9ba51b740b100c050d", "is_disabled": 0, "type": "electric_scooter", "lat": 38.908706, "lon": -77.032372, "is_reserved": 0, "fusion_lon": 0.0}, {"rental_uris": {"ios": "https://dc.lft.to/lastmile_qr_scan", "android": "https://dc.lft.to/lastmile_qr_scan"}, "fusion_lat": 0.0, "name": "6e94b6828526ee198d612c037ba67743", "bike_id": "6e94b6828526ee198d612c037ba67743", "is_disabled": 0, "type": "electric_scooter", "lat": 38.896815333333336, "lon": -76.93611716666666, "is_reserved": 0, "fusion_lon": 0.0}, {"rental_uris": {"ios": "https://dc.lft.to/lastmile_qr_scan", "android": "https://dc.lft.to/lastmile_qr_scan"}, "fusion_lat": 0.0, "name": "21a2f68babba058e44251e5592be3a41", "bike_id": "21a2f68babba058e44251e5592be3a41", "is_disabled": 0, "type": "electric_scooter", "lat": 38.904115, "lon": -77.04343533333333, "is_reserved": 0, "fusion_lon": 0.0}, {"rental_uris": {"ios": "https://dc.lft.to/lastmile_qr_scan", "android": "https://dc.lft.to/lastmile_qr_scan"}, "fusion_lat": 0.0, "name": "3284a3ce98843c308b4a1713ad55887c", "bike_id": "3284a3ce98843c308b4a1713ad55887c", "is_disabled": 0, "type": "electric_scooter", "lat": 38.90258, "lon": -77.0637875, "is_reserved": 0, "fusion_lon": 0.0}, {"rental_uris": {"ios": "https://dc.lft.to/lastmile_qr_scan", "android": "https://dc.lft.to/lastmile_qr_scan"}, "fusion_lat": 0.0, "name": "0683a5899c703a1654f5c79f34050eb6", "bike_id": "0683a5899c703a1654f5c79f34050eb6", "is_disabled": 0, "type": "electric_scooter", "lat": 38.90823483333333, "lon": -77.0179205, "is_reserved": 0, "fusion_lon": 0.0}, {"rental_uris": {"ios": "https://dc.lft.to/lastmile_qr_scan", "android": "https://dc.lft.to/lastmile_qr_scan"}, "fusion_lat": 0.0, "name": "00d8b7b9b765226a2ad217a5c966b380", "bike_id": "00d8b7b9b765226a2ad217a5c966b380", "is_disabled": 0, "type": "electric_scooter", "lat": 38.90960666666667, "lon": -77.03162633333334, "is_reserved": 0, "fusion_lon": 0.0}, {"rental_uris": {"ios": "https://dc.lft.to/lastmile_qr_scan", "android": "https://dc.lft.to/lastmile_qr_scan"}, "fusion_lat": 0.0, "name": "2d54a588efb29308a8f4ccefe60f29ed", "bike_id": "2d54a588efb29308a8f4ccefe60f29ed", "is_disabled": 0, "type": "electric_scooter", "lat": 38.93508933333333, "lon": -77.02412466666667, "is_reserved": 0, "fusion_lon": 0.0}, {"rental_uris": {"ios": "https://dc.lft.to/lastmile_qr_scan", "android": "https://dc.lft.to/lastmile_qr_scan"}, "fusion_lat": 0.0, "name": "74a3ab197a5272c4fb6b9bcee53e7342", "bike_id": "74a3ab197a5272c4fb6b9bcee53e7342", "is_disabled": 0, "type": "electric_scooter", "lat": 38.90530233333333, "lon": -77.05937733333333, "is_reserved": 0, "fusion_lon": 0.0}, {"rental_uris": {"ios": "https://dc.lft.to/lastmile_qr_scan", "android": "https://dc.lft.to/lastmile_qr_scan"}, "fusion_lat": 0.0, "name": "8cbeefa86bcce644fb41a303f3fe45f1", "bike_id": "8cbeefa86bcce644fb41a303f3fe45f1", "is_disabled": 0, "type": "electric_scooter", "lat": 38.919862, "lon": -77.03266833333333, "is_reserved": 0, "fusion_lon": 0.0}, {"rental_uris": {"ios": "https://dc.lft.to/lastmile_qr_scan", "android": "https://dc.lft.to/lastmile_qr_scan"}, "fusion_lat": 0.0, "name": "c8c927b673b0020e68d791bdd8eda419", "bike_id": "c8c927b673b0020e68d791bdd8eda419", "is_disabled": 0, "type": "electric_scooter", "lat": 38.90456316666667, "lon": -77.04480183333334, "is_reserved": 0, "fusion_lon": 0.0}, {"rental_uris": {"ios": "https://dc.lft.to/lastmile_qr_scan", "android": "https://dc.lft.to/lastmile_qr_scan"}, "fusion_lat": 0.0, "name": "300f3e87758190f5a16636618e35b39c", "bike_id": "300f3e87758190f5a16636618e35b39c", "is_disabled": 0, "type": "electric_scooter", "lat": 38.91693816666667, "lon": -77.03713016666667, "is_reserved": 0, "fusion_lon": 0.0}, {"rental_uris": {"ios": "https://dc.lft.to/lastmile_qr_scan", "android": "https://dc.lft.to/lastmile_qr_scan"}, "fusion_lat": 0.0, "name": "3fda87ee0b80ab57d22164ef6f90555c", "bike_id": "3fda87ee0b80ab57d22164ef6f90555c", "is_disabled": 0, "type": "electric_scooter", "lat": 38.9247935, "lon": -77.0272435, "is_reserved": 0, "fusion_lon": 0.0}, {"rental_uris": {"ios": "https://dc.lft.to/lastmile_qr_scan", "android": "https://dc.lft.to/lastmile_qr_scan"}, "fusion_lat": 0.0, "name": "8b42bbf9cbef4e5a2b8e7283ef64484f", "bike_id": "8b42bbf9cbef4e5a2b8e7283ef64484f", "is_disabled": 0, "type": "electric_scooter", "lat": 38.9245615, "lon": -77.0523315, "is_reserved": 0, "fusion_lon": 0.0}, {"rental_uris": {"ios": "https://dc.lft.to/lastmile_qr_scan", "android": "https://dc.lft.to/lastmile_qr_scan"}, "fusion_lat": 0.0, "name": "bfa82069b3922755032f117af54bd01f", "bike_id": "bfa82069b3922755032f117af54bd01f", "is_disabled": 0, "type": "electric_scooter", "lat": 38.898429166666666, "lon": -76.94638616666667, "is_reserved": 0, "fusion_lon": 0.0}, {"rental_uris": {"ios": "https://dc.lft.to/lastmile_qr_scan", "android": "https://dc.lft.to/lastmile_qr_scan"}, "fusion_lat": 0.0, "name": "a322bc5f31fa2ef22b26140e46c1d7b5", "bike_id": "a322bc5f31fa2ef22b26140e46c1d7b5", "is_disabled": 0, "type": "electric_scooter", "lat": 38.918591166666666, "lon": -77.0459045, "is_reserved": 0, "fusion_lon": 0.0}, {"rental_uris": {"ios": "https://dc.lft.to/lastmile_qr_scan", "android": "https://dc.lft.to/lastmile_qr_scan"}, "fusion_lat": 0.0, "name": "cdb4242effcf4ceb6a790df7f134f518", "bike_id": "cdb4242effcf4ceb6a790df7f134f518", "is_disabled": 0, "type": "electric_scooter", "lat": 38.90310816666667, "lon": -77.03428233333334, "is_reserved": 0, "fusion_lon": 0.0}, {"rental_uris": {"ios": "https://dc.lft.to/lastmile_qr_scan", "android": "https://dc.lft.to/lastmile_qr_scan"}, "fusion_lat": 0.0, "name": "a7ba8903ea842f04898567f8c440c721", "bike_id": "a7ba8903ea842f04898567f8c440c721", "is_disabled": 0, "type": "electric_scooter", "lat": 38.88426033333333, "lon": -76.95753033333334, "is_reserved": 0, "fusion_lon": 0.0}, {"rental_uris": {"ios": "https://dc.lft.to/lastmile_qr_scan", "android": "https://dc.lft.to/lastmile_qr_scan"}, "fusion_lat": 0.0, "name": "a8fdbc56debc009598398f0f579d63f1", "bike_id": "a8fdbc56debc009598398f0f579d63f1", "is_disabled": 0, "type": "electric_scooter", "lat": 38.9007785, "lon": -77.0492675, "is_reserved": 0, "fusion_lon": 0.0}, {"rental_uris": {"ios": "https://dc.lft.to/lastmile_qr_scan", "android": "https://dc.lft.to/lastmile_qr_scan"}, "fusion_lat": 0.0, "name": "6b21a40af12a346e146305bf4407df55", "bike_id": "6b21a40af12a346e146305bf4407df55", "is_disabled": 0, "type": "electric_scooter", "lat": 38.90251133333334, "lon": -76.9770085, "is_reserved": 0, "fusion_lon": 0.0}, {"rental_uris": {"ios": "https://dc.lft.to/lastmile_qr_scan", "android": "https://dc.lft.to/lastmile_qr_scan"}, "fusion_lat": 0.0, "name": "d2e7142a2c04d7c6f61c03ada12b2bcf", "bike_id": "d2e7142a2c04d7c6f61c03ada12b2bcf", "is_disabled": 0, "type": "electric_scooter", "lat": 38.919475166666665, "lon": -76.98075933333334, "is_reserved": 0, "fusion_lon": 0.0}, {"rental_uris": {"ios": "https://dc.lft.to/lastmile_qr_scan", "android": "https://dc.lft.to/lastmile_qr_scan"}, "fusion_lat": 0.0, "name": "b18dae9cca3495423279f6c20d784b26", "bike_id": "b18dae9cca3495423279f6c20d784b26", "is_disabled": 0, "type": "electric_bike", "lat": 38.95589233333333, "lon": -77.01008483333334, "is_reserved": 0, "fusion_lon": 0.0}, {"rental_uris": {"ios": "https://dc.lft.to/lastmile_qr_scan", "android": "https://dc.lft.to/lastmile_qr_scan"}, "fusion_lat": 0.0, "name": "a0ef8d94c52ccc9cf53f69e6fb74b4ad", "bike_id": "a0ef8d94c52ccc9cf53f69e6fb74b4ad", "is_disabled": 0, "type": "electric_scooter", "lat": 38.9024975, "lon": -77.03873083333333, "is_reserved": 0, "fusion_lon": 0.0}, {"rental_uris": {"ios": "https://dc.lft.to/lastmile_qr_scan", "android": "https://dc.lft.to/lastmile_qr_scan"}, "fusion_lat": 0.0, "name": "0cacb14fd149b39354f62356c8c4ad36", "bike_id": "0cacb14fd149b39354f62356c8c4ad36", "is_disabled": 0, "type": "electric_scooter", "lat": 38.93087533333333, "lon": -77.03421266666666, "is_reserved": 0, "fusion_lon": 0.0}, {"rental_uris": {"ios": "https://dc.lft.to/lastmile_qr_scan", "android": "https://dc.lft.to/lastmile_qr_scan"}, "fusion_lat": 0.0, "name": "788d0d468712ebe3fe87e94f154c699f", "bike_id": "788d0d468712ebe3fe87e94f154c699f", "is_disabled": 0, "type": "electric_scooter", "lat": 38.893773333333336, "lon": -77.04657083333333, "is_reserved": 0, "fusion_lon": 0.0}, {"rental_uris": {"ios": "https://dc.lft.to/lastmile_qr_scan", "android": "https://dc.lft.to/lastmile_qr_scan"}, "fusion_lat": 0.0, "name": "5cf521a328a61d1225cf02d8090e079e", "bike_id": "5cf521a328a61d1225cf02d8090e079e", "is_disabled": 0, "type": "electric_scooter", "lat": 38.885259, "lon": -77.011346, "is_reserved": 0, "fusion_lon": 0.0}, {"rental_uris": {"ios": "https://dc.lft.to/lastmile_qr_scan", "android": "https://dc.lft.to/lastmile_qr_scan"}, "fusion_lat": 0.0, "name": "0c47f55b5e9ee3dc99bd23baec46e3c4", "bike_id": "0c47f55b5e9ee3dc99bd23baec46e3c4", "is_disabled": 0, "type": "electric_scooter", "lat": 38.95965966666667, "lon": -77.00856216666666, "is_reserved": 0, "fusion_lon": 0.0}, {"rental_uris": {"ios": "https://dc.lft.to/lastmile_qr_scan", "android": "https://dc.lft.to/lastmile_qr_scan"}, "fusion_lat": 0.0, "name": "b0850b29f3b9eaba8c7ab3436a113cb9", "bike_id": "b0850b29f3b9eaba8c7ab3436a113cb9", "is_disabled": 0, "type": "electric_bike", "lat": 38.862505166666665, "lon": -77.08846016666666, "is_reserved": 0, "fusion_lon": 0.0}, {"rental_uris": {"ios": "https://dc.lft.to/lastmile_qr_scan", "android": "https://dc.lft.to/lastmile_qr_scan"}, "fusion_lat": 0.0, "name": "bb5d477c8e6f066c03cae0dff2d46751", "bike_id": "bb5d477c8e6f066c03cae0dff2d46751", "is_disabled": 0, "type": "electric_scooter", "lat": 38.918508333333335, "lon": -77.0389965, "is_reserved": 0, "fusion_lon": 0.0}, {"rental_uris": {"ios": "https://dc.lft.to/lastmile_qr_scan", "android": "https://dc.lft.to/lastmile_qr_scan"}, "fusion_lat": 0.0, "name": "89b38a07260b071cda587b803b2d863a", "bike_id": "89b38a07260b071cda587b803b2d863a", "is_disabled": 0, "type": "electric_scooter", "lat": 38.8764535, "lon": -77.00835866666667, "is_reserved": 0, "fusion_lon": 0.0}, {"rental_uris": {"ios": "https://dc.lft.to/lastmile_qr_scan", "android": "https://dc.lft.to/lastmile_qr_scan"}, "fusion_lat": 0.0, "name": "d2ec93ecda790daec891eda9a604ddfe", "bike_id": "d2ec93ecda790daec891eda9a604ddfe", "is_disabled": 0, "type": "electric_scooter", "lat": 38.942018833333336, "lon": -77.02596133333333, "is_reserved": 0, "fusion_lon": 0.0}, {"rental_uris": {"ios": "https://dc.lft.to/lastmile_qr_scan", "android": "https://dc.lft.to/lastmile_qr_scan"}, "fusion_lat": 0.0, "name": "39aa7c1458634c30b1e81870740f98a5", "bike_id": "39aa7c1458634c30b1e81870740f98a5", "is_disabled": 0, "type": "electric_scooter", "lat": 38.88113233333333, "lon": -77.0266245, "is_reserved": 0, "fusion_lon": 0.0}, {"rental_uris": {"ios": "https://dc.lft.to/lastmile_qr_scan", "android": "https://dc.lft.to/lastmile_qr_scan"}, "fusion_lat": 0.0, "name": "45ab5770434ea5215c5c8e61ecccbeac", "bike_id": "45ab5770434ea5215c5c8e61ecccbeac", "is_disabled": 0, "type": "electric_scooter", "lat": 38.91693583333333, "lon": -77.03600483333334, "is_reserved": 0, "fusion_lon": 0.0}, {"rental_uris": {"ios": "https://dc.lft.to/lastmile_qr_scan", "android": "https://dc.lft.to/lastmile_qr_scan"}, "fusion_lat": 0.0, "name": "99cfbf0d49f69c47c29df92d9e9c604f", "bike_id": "99cfbf0d49f69c47c29df92d9e9c604f", "is_disabled": 0, "type": "electric_bike", "lat": 39.03889216666666, "lon": -77.05009733333333, "is_reserved": 0, "fusion_lon": 0.0}, {"rental_uris": {"ios": "https://dc.lft.to/lastmile_qr_scan", "android": "https://dc.lft.to/lastmile_qr_scan"}, "fusion_lat": 0.0, "name": "6c7cddbf3373bd146acc03122caef392", "bike_id": "6c7cddbf3373bd146acc03122caef392", "is_disabled": 0, "type": "electric_scooter", "lat": 38.884631666666664, "lon": -77.02157316666667, "is_reserved": 0, "fusion_lon": 0.0}, {"rental_uris": {"ios": "https://dc.lft.to/lastmile_qr_scan", "android": "https://dc.lft.to/lastmile_qr_scan"}, "fusion_lat": 0.0, "name": "5cfb89a2c722be85687940f43247c5df", "bike_id": "5cfb89a2c722be85687940f43247c5df", "is_disabled": 0, "type": "electric_scooter", "lat": 38.91561083333333, "lon": -77.03150066666667, "is_reserved": 0, "fusion_lon": 0.0}, {"rental_uris": {"ios": "https://dc.lft.to/lastmile_qr_scan", "android": "https://dc.lft.to/lastmile_qr_scan"}, "fusion_lat": 0.0, "name": "12cdac8c5da216e81b5ebe2388d644d8", "bike_id": "12cdac8c5da216e81b5ebe2388d644d8", "is_disabled": 0, "type": "electric_scooter", "lat": 38.9169185, "lon": -77.02976616666666, "is_reserved": 0, "fusion_lon": 0.0}, {"rental_uris": {"ios": "https://dc.lft.to/lastmile_qr_scan", "android": "https://dc.lft.to/lastmile_qr_scan"}, "fusion_lat": 0.0, "name": "79b1b949f08fd4b9beaab71f7e9d3858", "bike_id": "79b1b949f08fd4b9beaab71f7e9d3858", "is_disabled": 0, "type": "electric_bike", "lat": 38.85940166666666, "lon": -77.08607466666666, "is_reserved": 0, "fusion_lon": 0.0}, {"rental_uris": {"ios": "https://dc.lft.to/lastmile_qr_scan", "android": "https://dc.lft.to/lastmile_qr_scan"}, "fusion_lat": 0.0, "name": "ccc416855fb6706ade0bae393817fdc9", "bike_id": "ccc416855fb6706ade0bae393817fdc9", "is_disabled": 0, "type": "electric_scooter", "lat": 38.907993166666664, "lon": -77.03850183333333, "is_reserved": 0, "fusion_lon": 0.0}, {"rental_uris": {"ios": "https://dc.lft.to/lastmile_qr_scan", "android": "https://dc.lft.to/lastmile_qr_scan"}, "fusion_lat": 0.0, "name": "7922041e29e0e41524aac314e0f3cb3d", "bike_id": "7922041e29e0e41524aac314e0f3cb3d", "is_disabled": 0, "type": "electric_scooter", "lat": 38.95164183333333, "lon": -77.02748616666666, "is_reserved": 0, "fusion_lon": 0.0}, {"rental_uris": {"ios": "https://dc.lft.to/lastmile_qr_scan", "android": "https://dc.lft.to/lastmile_qr_scan"}, "fusion_lat": 0.0, "name": "7c419f3a3a0e8bbd97cf607da4f1bbed", "bike_id": "7c419f3a3a0e8bbd97cf607da4f1bbed", "is_disabled": 0, "type": "electric_scooter", "lat": 38.890126333333335, "lon": -76.9373255, "is_reserved": 0, "fusion_lon": 0.0}, {"rental_uris": {"ios": "https://dc.lft.to/lastmile_qr_scan", "android": "https://dc.lft.to/lastmile_qr_scan"}, "fusion_lat": 0.0, "name": "75e2fd9e849226f1bbc44aefcdd6a55a", "bike_id": "75e2fd9e849226f1bbc44aefcdd6a55a", "is_disabled": 0, "type": "electric_bike", "lat": 38.9221125, "lon": -76.9879895, "is_reserved": 0, "fusion_lon": 0.0}, {"rental_uris": {"ios": "https://dc.lft.to/lastmile_qr_scan", "android": "https://dc.lft.to/lastmile_qr_scan"}, "fusion_lat": 0.0, "name": "575a15f19b45e9df8d4d79820cdfd056", "bike_id": "575a15f19b45e9df8d4d79820cdfd056", "is_disabled": 0, "type": "electric_scooter", "lat": 38.866678, "lon": -76.98521533333333, "is_reserved": 0, "fusion_lon": 0.0}, {"rental_uris": {"ios": "https://dc.lft.to/lastmile_qr_scan", "android": "https://dc.lft.to/lastmile_qr_scan"}, "fusion_lat": 0.0, "name": "7bdda3b4afdb52bafa8728a753b2f42f", "bike_id": "7bdda3b4afdb52bafa8728a753b2f42f", "is_disabled": 0, "type": "electric_scooter", "lat": 38.89822866666667, "lon": -76.93028316666667, "is_reserved": 0, "fusion_lon": 0.0}, {"rental_uris": {"ios": "https://dc.lft.to/lastmile_qr_scan", "android": "https://dc.lft.to/lastmile_qr_scan"}, "fusion_lat": 0.0, "name": "e249ef9def166e51415670aa9f1fcef7", "bike_id": "e249ef9def166e51415670aa9f1fcef7", "is_disabled": 0, "type": "electric_scooter", "lat": 38.899696, "lon": -77.05261316666666, "is_reserved": 0, "fusion_lon": 0.0}, {"rental_uris": {"ios": "https://dc.lft.to/lastmile_qr_scan", "android": "https://dc.lft.to/lastmile_qr_scan"}, "fusion_lat": 0.0, "name": "dea9150d4ccb297c877c4d5be404464b", "bike_id": "dea9150d4ccb297c877c4d5be404464b", "is_disabled": 0, "type": "electric_scooter", "lat": 38.93967766666667, "lon": -77.02159916666666, "is_reserved": 0, "fusion_lon": 0.0}, {"rental_uris": {"ios": "https://dc.lft.to/lastmile_qr_scan", "android": "https://dc.lft.to/lastmile_qr_scan"}, "fusion_lat": 0.0, "name": "f1684d2dd926cfbb52e37bc802eca08b", "bike_id": "f1684d2dd926cfbb52e37bc802eca08b", "is_disabled": 0, "type": "electric_scooter", "lat": 38.936908333333335, "lon": -77.03276333333334, "is_reserved": 0, "fusion_lon": 0.0}, {"rental_uris": {"ios": "https://dc.lft.to/lastmile_qr_scan", "android": "https://dc.lft.to/lastmile_qr_scan"}, "fusion_lat": 0.0, "name": "d136b192422c0595238b327643fcb3fb", "bike_id": "d136b192422c0595238b327643fcb3fb", "is_disabled": 0, "type": "electric_scooter", "lat": 38.88730183333333, "lon": -77.02820766666666, "is_reserved": 0, "fusion_lon": 0.0}, {"rental_uris": {"ios": "https://dc.lft.to/lastmile_qr_scan", "android": "https://dc.lft.to/lastmile_qr_scan"}, "fusion_lat": 0.0, "name": "54a8f6d50b45846f22ff41b8eb86995e", "bike_id": "54a8f6d50b45846f22ff41b8eb86995e", "is_disabled": 0, "type": "electric_scooter", "lat": 38.92568716666667, "lon": -77.02852833333333, "is_reserved": 0, "fusion_lon": 0.0}, {"rental_uris": {"ios": "https://dc.lft.to/lastmile_qr_scan", "android": "https://dc.lft.to/lastmile_qr_scan"}, "fusion_lat": 0.0, "name": "9d8781d76f1723bb86603986eae594b5", "bike_id": "9d8781d76f1723bb86603986eae594b5", "is_disabled": 0, "type": "electric_scooter", "lat": 38.870859, "lon": -77.01378333333334, "is_reserved": 0, "fusion_lon": 0.0}, {"rental_uris": {"ios": "https://dc.lft.to/lastmile_qr_scan", "android": "https://dc.lft.to/lastmile_qr_scan"}, "fusion_lat": 0.0, "name": "e77a1fbc3fa394225cecdf48812d4262", "bike_id": "e77a1fbc3fa394225cecdf48812d4262", "is_disabled": 0, "type": "electric_scooter", "lat": 38.89218233333333, "lon": -77.03219616666667, "is_reserved": 0, "fusion_lon": 0.0}, {"rental_uris": {"ios": "https://dc.lft.to/lastmile_qr_scan", "android": "https://dc.lft.to/lastmile_qr_scan"},