{"data": {"bikes": [{"rental_uris": {"ios": "https://dc.lft.to/lastmile_qr_scan", "android": "https://dc.lft.to/lastmile_qr_scan"}, "lon": -76.998888, "type": "electric_scooter", "fusion_lat": 0.0, "lat": 38.9094195, "name": "2f08c6b9f8385e3a10409488df30d7ed", "fusion_lon": 0.0, "bike_id": "2f08c6b9f8385e3a10409488df30d7ed", "is_disabled": 0, "is_reserved": 0}, {"rental_uris": {"ios": "https://dc.lft.to/lastmile_qr_scan", "android": "https://dc.lft.to/lastmile_qr_scan"}, "lon": -77.038227, "type": "electric_scooter", "fusion_lat": 0.0, "lat": 38.916873833333334, "name": "1595cef84c3d987f5e87e6543fd55c98", "fusion_lon": 0.0, "bike_id": "1595cef84c3d987f5e87e6543fd55c98", "is_disabled": 0, "is_reserved": 0}, {"rental_uris": {"ios": "https://dc.lft.to/lastmile_qr_scan", "android": "https://dc.lft.to/lastmile_qr_scan"}, "lon": -76.93372683333334, "type": "electric_scooter", "fusion_lat": 0.0, "lat": 38.899102666666664, "name": "917be0f585f02ee992c75d0a5ba11268", "fusion_lon": 0.0, "bike_id": "917be0f585f02ee992c75d0a5ba11268", "is_disabled": 0, "is_reserved": 0}, {"rental_uris": {"ios": "https://dc.lft.to/lastmile_qr_scan", "android": "https://dc.lft.to/lastmile_qr_scan"}, "lon": -77.04274, "type": "electric_scooter", "fusion_lat": 0.0, "lat": 38.905478, "name": "7cd3c6b5077c26dcc41497c94f6ff92d", "fusion_lon": 0.0, "bike_id": "7cd3c6b5077c26dcc41497c94f6ff92d", "is_disabled": 0, "is_reserved": 0}, {"rental_uris": {"ios": "https://dc.lft.to/lastmile_qr_scan", "android": "https://dc.lft.to/lastmile_qr_scan"}, "lon": -76.93647483333334, "type": "electric_scooter", "fusion_lat": 0.0, "lat": 38.88993416666667, "name": "7d94bba916d3198ed1043d013b63901d", "fusion_lon": 0.0, "bike_id": "7d94bba916d3198ed1043d013b63901d", "is_disabled": 0, "is_reserved": 0}, {"rental_uris": {"ios": "https://dc.lft.to/lastmile_qr_scan", "android": "https://dc.lft.to/lastmile_qr_scan"}, "lon": -76.99502083333333, "type": "electric_scooter", "fusion_lat": 0.0, "lat": 38.883001166666666, "name": "be2fca50da1ac382278e592e7ed68938", "fusion_lon": 0.0, "bike_id": "be2fca50da1ac382278e592e7ed68938", "is_disabled": 0, "is_reserved": 0}, {"rental_uris": {"ios": "https://dc.lft.to/lastmile_qr_scan", "android": "https://dc.lft.to/lastmile_qr_scan"}, "lon": -77.06360266666667, "type": "electric_scooter", "fusion_lat": 0.0, "lat": 38.9093025, "name": "98ce6751fe3e9393701352ec7f7a7f5f", "fusion_lon": 0.0, "bike_id": "98ce6751fe3e9393701352ec7f7a7f5f", "is_disabled": 0, "is_reserved": 0}, {"rental_uris": {"ios": "https://dc.lft.to/lastmile_qr_scan", "android": "https://dc.lft.to/lastmile_qr_scan"}, "lon": -77.01417833333333, "type": "electric_scooter", "fusion_lat": 0.0, "lat": 38.9169765, "name": "3863571e001690a0aa58437eaa13cfd8", "fusion_lon": 0.0, "bike_id": "3863571e001690a0aa58437eaa13cfd8", "is_disabled": 0, "is_reserved": 0}, {"rental_uris": {"ios": "https://dc.lft.to/lastmile_qr_scan", "android": "https://dc.lft.to/lastmile_qr_scan"}, "lon": -77.02279766666666, "type": "electric_scooter", "fusion_lat": 0.0, "lat": 38.916600333333335, "name": "0d8ff0b4e7012ed9e940e20c71f0a69e", "fusion_lon": 0.0, "bike_id": "0d8ff0b4e7012ed9e940e20c71f0a69e", "is_disabled": 0, "is_reserved": 0}, {"rental_uris": {"ios": "https://dc.lft.to/lastmile_qr_scan", "android": "https://dc.lft.to/lastmile_qr_scan"}, "lon": -77.035671, "type": "electric_scooter", "fusion_lat": 0.0, "lat": 38.916316, "name": "4de387f8a734b6360ccb95ffd6155150", "fusion_lon": 0.0, "bike_id": "4de387f8a734b6360ccb95ffd6155150", "is_disabled": 0, "is_reserved": 0}, {"rental_uris": {"ios": "https://dc.lft.to/lastmile_qr_scan", "android": "https://dc.lft.to/lastmile_qr_scan"}, "lon": -76.9899265, "type": "electric_bike", "fusion_lat": 0.0, "lat": 38.91227533333333, "name": "c8e56bbe4fbd5c051e0663d34d9f1777", "fusion_lon": 0.0, "bike_id": "c8e56bbe4fbd5c051e0663d34d9f1777", "is_disabled": 0, "is_reserved": 0}, {"rental_uris": {"ios": "https://dc.lft.to/lastmile_qr_scan", "android": "https://dc.lft.to/lastmile_qr_scan"}, "lon": -77.14995066666667, "type": "electric_bike", "fusion_lat": 0.0, "lat": 39.09459866666667, "name": "4c44c976b421222cf11019393c9d7749", "fusion_lon": 0.0, "bike_id": "4c44c976b421222cf11019393c9d7749", "is_disabled": 0, "is_reserved": 0}, {"rental_uris": {"ios": "https://dc.lft.to/lastmile_qr_scan", "android": "https://dc.lft.to/lastmile_qr_scan"}, "lon": -77.19904483333333, "type": "electric_bike", "fusion_lat": 0.0, "lat": 38.87527983333333, "name": "6dc981b7cb676a19f195314764555cb9", "fusion_lon": 0.0, "bike_id": "6dc981b7cb676a19f195314764555cb9", "is_disabled": 0, "is_reserved": 0}, {"rental_uris": {"ios": "https://dc.lft.to/lastmile_qr_scan", "android": "https://dc.lft.to/lastmile_qr_scan"}, "lon": -77.02935883333333, "type": "electric_scooter", "fusion_lat": 0.0, "lat": 38.9034265, "name": "8c017a4cb6bb4cfcfed2405a614cc730", "fusion_lon": 0.0, "bike_id": "8c017a4cb6bb4cfcfed2405a614cc730", "is_disabled": 0, "is_reserved": 0}, {"rental_uris": {"ios": "https://dc.lft.to/lastmile_qr_scan", "android": "https://dc.lft.to/lastmile_qr_scan"}, "lon": -76.93373316666667, "type": "electric_scooter", "fusion_lat": 0.0, "lat": 38.899102666666664, "name": "4ff2c76a35c7f633d5ccf0a45bcf76a4", "fusion_lon": 0.0, "bike_id": "4ff2c76a35c7f633d5ccf0a45bcf76a4", "is_disabled": 0, "is_reserved": 0}, {"rental_uris": {"ios": "https://dc.lft.to/lastmile_qr_scan", "android": "https://dc.lft.to/lastmile_qr_scan"}, "lon": -76.995976, "type": "electric_scooter", "fusion_lat": 0.0, "lat": 38.884253, "name": "28c33ced4f089dcb80c6e95ebd5efd97", "fusion_lon": 0.0, "bike_id": "28c33ced4f089dcb80c6e95ebd5efd97", "is_disabled": 0, "is_reserved": 0}, {"rental_uris": {"ios": "https://dc.lft.to/lastmile_qr_scan", "android": "https://dc.lft.to/lastmile_qr_scan"}, "lon": -77.01493933333333, "type": "electric_scooter", "fusion_lat": 0.0, "lat": 38.917667333333334, "name": "00bd355ec9d8d5745e216f6fb7bdb3a7", "fusion_lon": 0.0, "bike_id": "00bd355ec9d8d5745e216f6fb7bdb3a7", "is_disabled": 0, "is_reserved": 0}, {"rental_uris": {"ios": "https://dc.lft.to/lastmile_qr_scan", "android": "https://dc.lft.to/lastmile_qr_scan"}, "lon": -77.02347633333333, "type": "electric_scooter", "fusion_lat": 0.0, "lat": 38.93527533333334, "name": "fc9b2706b5e57d2b01a0dbd303d205e8", "fusion_lon": 0.0, "bike_id": "fc9b2706b5e57d2b01a0dbd303d205e8", "is_disabled": 0, "is_reserved": 0}, {"rental_uris": {"ios": "https://dc.lft.to/lastmile_qr_scan", "android": "https://dc.lft.to/lastmile_qr_scan"}, "lon": -77.03178633333333, "type": "electric_scooter", "fusion_lat": 0.0, "lat": 38.90416466666667, "name": "c3d094ba6f1eb39983b8a2f317f7d545", "fusion_lon": 0.0, "bike_id": "c3d094ba6f1eb39983b8a2f317f7d545", "is_disabled": 0, "is_reserved": 0}, {"rental_uris": {"ios": "https://dc.lft.to/lastmile_qr_scan", "android": "https://dc.lft.to/lastmile_qr_scan"}, "lon": -77.012, "type": "electric_scooter", "fusion_lat": 0.0, "lat": 38.915603, "name": "a215bc2696d06192ce4146e3d223ed60", "fusion_lon": 0.0, "bike_id": "a215bc2696d06192ce4146e3d223ed60", "is_disabled": 0, "is_reserved": 0}, {"rental_uris": {"ios": "https://dc.lft.to/lastmile_qr_scan", "android": "https://dc.lft.to/lastmile_qr_scan"}, "lon": -77.05742933333333, "type": "electric_scooter", "fusion_lat": 0.0, "lat": 38.93396933333333, "name": "65ff6d5468f0e80b83f29c4391147b54", "fusion_lon": 0.0, "bike_id": "65ff6d5468f0e80b83f29c4391147b54", "is_disabled": 0, "is_reserved": 0}, {"rental_uris": {"ios": "https://dc.lft.to/lastmile_qr_scan", "android": "https://dc.lft.to/lastmile_qr_scan"}, "lon": -76.997733, "type": "electric_scooter", "fusion_lat": 0.0, "lat": 38.9216835, "name": "c87a3e501163a87e4614daff88f4bec8", "fusion_lon": 0.0, "bike_id": "c87a3e501163a87e4614daff88f4bec8", "is_disabled": 0, "is_reserved": 0}, {"rental_uris": {"ios": "https://dc.lft.to/lastmile_qr_scan", "android": "https://dc.lft.to/lastmile_qr_scan"}, "lon": -77.0260995, "type": "electric_scooter", "fusion_lat": 0.0, "lat": 38.91701916666667, "name": "dfb8edc87ba0dfec56511724a0f69ad5", "fusion_lon": 0.0, "bike_id": "dfb8edc87ba0dfec56511724a0f69ad5", "is_disabled": 0, "is_reserved": 0}, {"rental_uris": {"ios": "https://dc.lft.to/lastmile_qr_scan", "android": "https://dc.lft.to/lastmile_qr_scan"}, "lon": -77.03201316666667, "type": "electric_scooter", "fusion_lat": 0.0, "lat": 38.88559933333333, "name": "96453f9c8b57fb050f3b5231ed3dd0cb", "fusion_lon": 0.0, "bike_id": "96453f9c8b57fb050f3b5231ed3dd0cb", "is_disabled": 0, "is_reserved": 0}, {"rental_uris": {"ios": "https://dc.lft.to/lastmile_qr_scan", "android": "https://dc.lft.to/lastmile_qr_scan"}, "lon": -77.11523083333333, "type": "electric_bike", "fusion_lat": 0.0, "lat": 38.854932833333336, "name": "d6bdfb34159077d8262816fdff58149b", "fusion_lon": 0.0, "bike_id": "d6bdfb34159077d8262816fdff58149b", "is_disabled": 0, "is_reserved": 0}, {"rental_uris": {"ios": "https://dc.lft.to/lastmile_qr_scan", "android": "https://dc.lft.to/lastmile_qr_scan"}, "lon": -77.0021415, "type": "electric_scooter", "fusion_lat": 0.0, "lat": 38.910979, "name": "6abc7bf36edbacabf2271218a0a9059b", "fusion_lon": 0.0, "bike_id": "6abc7bf36edbacabf2271218a0a9059b", "is_disabled": 0, "is_reserved": 0}, {"rental_uris": {"ios": "https://dc.lft.to/lastmile_qr_scan", "android": "https://dc.lft.to/lastmile_qr_scan"}, "lon": -77.04808583333333, "type": "electric_scooter", "fusion_lat": 0.0, "lat": 38.91648883333333, "name": "505784402336aa357e8245f6d332eb2e", "fusion_lon": 0.0, "bike_id": "505784402336aa357e8245f6d332eb2e", "is_disabled": 0, "is_reserved": 0}, {"rental_uris": {"ios": "https://dc.lft.to/lastmile_qr_scan", "android": "https://dc.lft.to/lastmile_qr_scan"}, "lon": -77.032119, "type": "electric_scooter", "fusion_lat": 0.0, "lat": 38.916876, "name": "6a4589c3a1daf2a56b6e03f924c5d8d3", "fusion_lon": 0.0, "bike_id": "6a4589c3a1daf2a56b6e03f924c5d8d3", "is_disabled": 0, "is_reserved": 0}, {"rental_uris": {"ios": "https://dc.lft.to/lastmile_qr_scan", "android": "https://dc.lft.to/lastmile_qr_scan"}, "lon": -77.03178033333333, "type": "electric_scooter", "fusion_lat": 0.0, "lat": 38.91315733333333, "name": "7a9165e55bcfdf8af201557d0fd9eb3d", "fusion_lon": 0.0, "bike_id": "7a9165e55bcfdf8af201557d0fd9eb3d", "is_disabled": 0, "is_reserved": 0}, {"rental_uris": {"ios": "https://dc.lft.to/lastmile_qr_scan", "android": "https://dc.lft.to/lastmile_qr_scan"}, "lon": -77.01774966666666, "type": "electric_scooter", "fusion_lat": 0.0, "lat": 38.904151166666665, "name": "11a401d7508895b54c2d6812feaf382a", "fusion_lon": 0.0, "bike_id": "11a401d7508895b54c2d6812feaf382a", "is_disabled": 0, "is_reserved": 0}, {"rental_uris": {"ios": "https://dc.lft.to/lastmile_qr_scan", "android": "https://dc.lft.to/lastmile_qr_scan"}, "lon": -77.031935, "type": "electric_scooter", "fusion_lat": 0.0, "lat": 38.914767166666664, "name": "e1b76259feb443a6bba5aabab8c4a7d8", "fusion_lon": 0.0, "bike_id": "e1b76259feb443a6bba5aabab8c4a7d8", "is_disabled": 0, "is_reserved": 0}, {"rental_uris": {"ios": "https://dc.lft.to/lastmile_qr_scan", "android": "https://dc.lft.to/lastmile_qr_scan"}, "lon": -77.03392883333333, "type": "electric_scooter", "fusion_lat": 0.0, "lat": 38.919111666666666, "name": "f4f851278dde824309351fc7af5a8026", "fusion_lon": 0.0, "bike_id": "f4f851278dde824309351fc7af5a8026", "is_disabled": 0, "is_reserved": 0}, {"rental_uris": {"ios": "https://dc.lft.to/lastmile_qr_scan", "android": "https://dc.lft.to/lastmile_qr_scan"}, "lon": -77.04503683333333, "type": "electric_scooter", "fusion_lat": 0.0, "lat": 38.90957, "name": "b3662fcfb7d810cafe1489481105efb1", "fusion_lon": 0.0, "bike_id": "b3662fcfb7d810cafe1489481105efb1", "is_disabled": 0, "is_reserved": 0}, {"rental_uris": {"ios": "https://dc.lft.to/lastmile_qr_scan", "android": "https://dc.lft.to/lastmile_qr_scan"}, "lon": -76.9951955, "type": "electric_scooter", "fusion_lat": 0.0, "lat": 38.8625625, "name": "e230438b2be0bb355ce2437c0dade804", "fusion_lon": 0.0, "bike_id": "e230438b2be0bb355ce2437c0dade804", "is_disabled": 0, "is_reserved": 0}, {"rental_uris": {"ios": "https://dc.lft.to/lastmile_qr_scan", "android": "https://dc.lft.to/lastmile_qr_scan"}, "lon": -77.020804, "type": "electric_scooter", "fusion_lat": 0.0, "lat": 38.88645833333333, "name": "0c77021c87892edfc15230bbc55c11be", "fusion_lon": 0.0, "bike_id": "0c77021c87892edfc15230bbc55c11be", "is_disabled": 0, "is_reserved": 0}, {"rental_uris": {"ios": "https://dc.lft.to/lastmile_qr_scan", "android": "https://dc.lft.to/lastmile_qr_scan"}, "lon": -77.00581983333333, "type": "electric_scooter", "fusion_lat": 0.0, "lat": 38.8741875, "name": "e62eac844eb454cc4ccffb4f87a63071", "fusion_lon": 0.0, "bike_id": "e62eac844eb454cc4ccffb4f87a63071", "is_disabled": 0, "is_reserved": 0}, {"rental_uris": {"ios": "https://dc.lft.to/lastmile_qr_scan", "android": "https://dc.lft.to/lastmile_qr_scan"}, "lon": -77.02306966666667, "type": "electric_scooter", "fusion_lat": 0.0, "lat": 38.91805883333333, "name": "9550a9639419614af7e1dd2af1dac73e", "fusion_lon": 0.0, "bike_id": "9550a9639419614af7e1dd2af1dac73e", "is_disabled": 0, "is_reserved": 0}, {"rental_uris": {"ios": "https://dc.lft.to/lastmile_qr_scan", "android": "https://dc.lft.to/lastmile_qr_scan"}, "lon": -77.03275966666666, "type": "electric_scooter", "fusion_lat": 0.0, "lat": 38.91915683333333, "name": "28fa8b31a5c4490a927922310dc28a01", "fusion_lon": 0.0, "bike_id": "28fa8b31a5c4490a927922310dc28a01", "is_disabled": 0, "is_reserved": 0}, {"rental_uris": {"ios": "https://dc.lft.to/lastmile_qr_scan", "android": "https://dc.lft.to/lastmile_qr_scan"}, "lon": -77.0084685, "type": "electric_bike", "fusion_lat": 0.0, "lat": 38.9491735, "name": "9de62fa97187b86eb9748476bd4df4b8", "fusion_lon": 0.0, "bike_id": "9de62fa97187b86eb9748476bd4df4b8", "is_disabled": 0, "is_reserved": 0}, {"rental_uris": {"ios": "https://dc.lft.to/lastmile_qr_scan", "android": "https://dc.lft.to/lastmile_qr_scan"}, "lon": -77.0136875, "type": "electric_scooter", "fusion_lat": 0.0, "lat": 38.863656666666664, "name": "b4ccabd06bec8b8169c62963443b54e7", "fusion_lon": 0.0, "bike_id": "b4ccabd06bec8b8169c62963443b54e7", "is_disabled": 0, "is_reserved": 0}, {"rental_uris": {"ios": "https://dc.lft.to/lastmile_qr_scan", "android": "https://dc.lft.to/lastmile_qr_scan"}, "lon": -77.02118016666667, "type": "electric_scooter", "fusion_lat": 0.0, "lat": 38.914038833333336, "name": "fbb928204b2310981aa005d5ad28d97d", "fusion_lon": 0.0, "bike_id": "fbb928204b2310981aa005d5ad28d97d", "is_disabled": 0, "is_reserved": 0}, {"rental_uris": {"ios": "https://dc.lft.to/lastmile_qr_scan", "android": "https://dc.lft.to/lastmile_qr_scan"}, "lon": -77.14120333333334, "type": "electric_bike", "fusion_lat": 0.0, "lat": 38.8160115, "name": "24b4d31c50b5fbfd8f095be974541bfe", "fusion_lon": 0.0, "bike_id": "24b4d31c50b5fbfd8f095be974541bfe", "is_disabled": 0, "is_reserved": 0}, {"rental_uris": {"ios": "https://dc.lft.to/lastmile_qr_scan", "android": "https://dc.lft.to/lastmile_qr_scan"}, "lon": -77.03779533333334, "type": "electric_scooter", "fusion_lat": 0.0, "lat": 38.95498283333333, "name": "efd55ecf9c00ee22696ccf99d2d8502e", "fusion_lon": 0.0, "bike_id": "efd55ecf9c00ee22696ccf99d2d8502e", "is_disabled": 0, "is_reserved": 0}, {"rental_uris": {"ios": "https://dc.lft.to/lastmile_qr_scan", "android": "https://dc.lft.to/lastmile_qr_scan"}, "lon": -77.03518966666667, "type": "electric_scooter", "fusion_lat": 0.0, "lat": 38.9219775, "name": "3cafc0640fbc246dd6a28e1f855cd718", "fusion_lon": 0.0, "bike_id": "3cafc0640fbc246dd6a28e1f855cd718", "is_disabled": 0, "is_reserved": 0}, {"rental_uris": {"ios": "https://dc.lft.to/lastmile_qr_scan", "android": "https://dc.lft.to/lastmile_qr_scan"}, "lon": -77.02953, "type": "electric_scooter", "fusion_lat": 0.0, "lat": 38.9166975, "name": "131b996079c4bacabde2eaa41ddbf8c6", "fusion_lon": 0.0, "bike_id": "131b996079c4bacabde2eaa41ddbf8c6", "is_disabled": 0, "is_reserved": 0}, {"rental_uris": {"ios": "https://dc.lft.to/lastmile_qr_scan", "android": "https://dc.lft.to/lastmile_qr_scan"}, "lon": -76.94792983333333, "type": "electric_scooter", "fusion_lat": 0.0, "lat": 38.89632833333334, "name": "771515cdc2c47a5da4bfa43a03e15b28", "fusion_lon": 0.0, "bike_id": "771515cdc2c47a5da4bfa43a03e15b28", "is_disabled": 0, "is_reserved": 0}, {"rental_uris": {"ios": "https://dc.lft.to/lastmile_qr_scan", "android": "https://dc.lft.to/lastmile_qr_scan"}, "lon": -77.0297505, "type": "electric_scooter", "fusion_lat": 0.0, "lat": 38.96226266666667, "name": "dc31dc9fde370560e874966c689186da", "fusion_lon": 0.0, "bike_id": "dc31dc9fde370560e874966c689186da", "is_disabled": 0, "is_reserved": 0}, {"rental_uris": {"ios": "https://dc.lft.to/lastmile_qr_scan", "android": "https://dc.lft.to/lastmile_qr_scan"}, "lon": -77.00879366666666, "type": "electric_scooter", "fusion_lat": 0.0, "lat": 38.91401033333333, "name": "12a4a1f35fe7da15acc002ae3b1c3efe", "fusion_lon": 0.0, "bike_id": "12a4a1f35fe7da15acc002ae3b1c3efe", "is_disabled": 0, "is_reserved": 0}, {"rental_uris": {"ios": "https://dc.lft.to/lastmile_qr_scan", "android": "https://dc.lft.to/lastmile_qr_scan"}, "lon": -77.00135916666666, "type": "electric_scooter", "fusion_lat": 0.0, "lat": 38.90408016666667, "name": "626ba05d82359bf2d933896d4fa84ccc", "fusion_lon": 0.0, "bike_id": "626ba05d82359bf2d933896d4fa84ccc", "is_disabled": 0, "is_reserved": 0}, {"rental_uris": {"ios": "https://dc.lft.to/lastmile_qr_scan", "android": "https://dc.lft.to/lastmile_qr_scan"}, "lon": -77.0162185, "type": "electric_scooter", "fusion_lat": 0.0, "lat": 38.88742116666667, "name": "18bfe992b8cc7a516c2257b575cf5141", "fusion_lon": 0.0, "bike_id": "18bfe992b8cc7a516c2257b575cf5141", "is_disabled": 0, "is_reserved": 0}, {"rental_uris": {"ios": "https://dc.lft.to/lastmile_qr_scan", "android": "https://dc.lft.to/lastmile_qr_scan"}, "lon": -77.10341533333333, "type": "electric_bike", "fusion_lat": 0.0, "lat": 38.8522415, "name": "6cd5d644bb75664f16317a089d2ca695", "fusion_lon": 0.0, "bike_id": "6cd5d644bb75664f16317a089d2ca695", "is_disabled": 0, "is_reserved": 0}, {"rental_uris": {"ios": "https://dc.lft.to/lastmile_qr_scan", "android": "https://dc.lft.to/lastmile_qr_scan"}, "lon": -77.05005266666667, "type": "electric_scooter", "fusion_lat": 0.0, "lat": 38.90387, "name": "b06c5aaa4b5eb7553e6c0bbc83826297", "fusion_lon": 0.0, "bike_id": "b06c5aaa4b5eb7553e6c0bbc83826297", "is_disabled": 0, "is_reserved": 0}, {"rental_uris": {"ios": "https://dc.lft.to/lastmile_qr_scan", "android": "https://dc.lft.to/lastmile_qr_scan"}, "lon": -77.002838, "type": "electric_scooter", "fusion_lat": 0.0, "lat": 38.908949666666665, "name": "e0cf15fbfbef78feb49ae6021f490201", "fusion_lon": 0.0, "bike_id": "e0cf15fbfbef78feb49ae6021f490201", "is_disabled": 0, "is_reserved": 0}, {"rental_uris": {"ios": "https://dc.lft.to/lastmile_qr_scan", "android": "https://dc.lft.to/lastmile_qr_scan"}, "lon": -76.97251083333333, "type": "electric_bike", "fusion_lat": 0.0, "lat": 38.957409, "name": "42d1ed85743834ef433df3da19b7872d", "fusion_lon": 0.0, "bike_id": "42d1ed85743834ef433df3da19b7872d", "is_disabled": 0, "is_reserved": 0}, {"rental_uris": {"ios": "https://dc.lft.to/lastmile_qr_scan", "android": "https://dc.lft.to/lastmile_qr_scan"}, "lon": -77.02611733333333, "type": "electric_scooter", "fusion_lat": 0.0, "lat": 38.91815583333333, "name": "447fee230b5e08ceb39e4e4dde4af781", "fusion_lon": 0.0, "bike_id": "447fee230b5e08ceb39e4e4dde4af781", "is_disabled": 0, "is_reserved": 0}, {"rental_uris": {"ios": "https://dc.lft.to/lastmile_qr_scan", "android": "https://dc.lft.to/lastmile_qr_scan"}, "lon": -77.058821, "type": "electric_scooter", "fusion_lat": 0.0, "lat": 38.936330833333336, "name": "85e1d2bea460cbbaff9c76b3c561e561", "fusion_lon": 0.0, "bike_id": "85e1d2bea460cbbaff9c76b3c561e561", "is_disabled": 0, "is_reserved": 0}, {"rental_uris": {"ios": "https://dc.lft.to/lastmile_qr_scan", "android": "https://dc.lft.to/lastmile_qr_scan"}, "lon": -77.03349133333333, "type": "electric_scooter", "fusion_lat": 0.0, "lat": 38.906351, "name": "933f56ee2dd736cfc302ead66c695aa1", "fusion_lon": 0.0, "bike_id": "933f56ee2dd736cfc302ead66c695aa1", "is_disabled": 0, "is_reserved": 0}, {"rental_uris": {"ios": "https://dc.lft.to/lastmile_qr_scan", "android": "https://dc.lft.to/lastmile_qr_scan"}, "lon": -76.94651383333333, "type": "electric_scooter", "fusion_lat": 0.0, "lat": 38.8982545, "name": "d8c86588daa326a939ba18415d803af3", "fusion_lon": 0.0, "bike_id": "d8c86588daa326a939ba18415d803af3", "is_disabled": 0, "is_reserved": 0}, {"rental_uris": {"ios": "https://dc.lft.to/lastmile_qr_scan", "android": "https://dc.lft.to/lastmile_qr_scan"}, "lon": -77.01804533333333, "type": "electric_scooter", "fusion_lat": 0.0, "lat": 38.90417933333333, "name": "5f78e96d61094795ae0ba6bccd811cb0", "fusion_lon": 0.0, "bike_id": "5f78e96d61094795ae0ba6bccd811cb0", "is_disabled": 0, "is_reserved": 0}, {"rental_uris": {"ios": "https://dc.lft.to/lastmile_qr_scan", "android": "https://dc.lft.to/lastmile_qr_scan"}, "lon": -77.01124333333334, "type": "electric_scooter", "fusion_lat": 0.0, "lat": 38.89542316666667, "name": "4e0826b4457d43a5b368be4186f3912c", "fusion_lon": 0.0, "bike_id": "4e0826b4457d43a5b368be4186f3912c", "is_disabled": 0, "is_reserved": 0}, {"rental_uris": {"ios": "https://dc.lft.to/lastmile_qr_scan", "android": "https://dc.lft.to/lastmile_qr_scan"}, "lon": -77.02690916666667, "type": "electric_scooter", "fusion_lat": 0.0, "lat": 38.916926333333336, "name": "4d1adeb1ce1f722c397835c2b9871c53", "fusion_lon": 0.0, "bike_id": "4d1adeb1ce1f722c397835c2b9871c53", "is_disabled": 0, "is_reserved": 0}, {"rental_uris": {"ios": "https://dc.lft.to/lastmile_qr_scan", "android": "https://dc.lft.to/lastmile_qr_scan"}, "lon": -77.0024495, "type": "electric_bike", "fusion_lat": 0.0, "lat": 38.873369833333335, "name": "447f57e930b65ba756e2c26109294e2e", "fusion_lon": 0.0, "bike_id": "447f57e930b65ba756e2c26109294e2e", "is_disabled": 0, "is_reserved": 0}, {"rental_uris": {"ios": "https://dc.lft.to/lastmile_qr_scan", "android": "https://dc.lft.to/lastmile_qr_scan"}, "lon": -77.04884483333333, "type": "electric_scooter", "fusion_lat": 0.0, "lat": 38.90630633333333, "name": "ef4612b4cb14a3a7ca28d8d924d0184f", "fusion_lon": 0.0, "bike_id": "ef4612b4cb14a3a7ca28d8d924d0184f", "is_disabled": 0, "is_reserved": 0}, {"rental_uris": {"ios": "https://dc.lft.to/lastmile_qr_scan", "android": "https://dc.lft.to/lastmile_qr_scan"}, "lon": -77.023864, "type": "electric_scooter", "fusion_lat": 0.0, "lat": 38.91611483333333, "name": "b41e7f969483372a67c9262ad1bf5259", "fusion_lon": 0.0, "bike_id": "b41e7f969483372a67c9262ad1bf5259", "is_disabled": 0, "is_reserved": 0}, {"rental_uris": {"ios": "https://dc.lft.to/lastmile_qr_scan", "android": "https://dc.lft.to/lastmile_qr_scan"}, "lon": -77.03204666666667, "type": "electric_scooter", "fusion_lat": 0.0, "lat": 38.93753566666667, "name": "89193242f85cb49a9b61e9af326a233a", "fusion_lon": 0.0, "bike_id": "89193242f85cb49a9b61e9af326a233a", "is_disabled": 0, "is_reserved": 0}, {"rental_uris": {"ios": "https://dc.lft.to/lastmile_qr_scan", "android": "https://dc.lft.to/lastmile_qr_scan"}, "lon": -77.02955716666666, "type": "electric_scooter", "fusion_lat": 0.0, "lat": 38.9048925, "name": "a630edcac0450a1dfe44df98d8039ec4", "fusion_lon": 0.0, "bike_id": "a630edcac0450a1dfe44df98d8039ec4", "is_disabled": 0, "is_reserved": 0}, {"rental_uris": {"ios": "https://dc.lft.to/lastmile_qr_scan", "android": "https://dc.lft.to/lastmile_qr_scan"}, "lon": -77.0238155, "type": "electric_scooter", "fusion_lat": 0.0, "lat": 38.931989, "name": "e734864031b331fa86fbcd15f8c790d5", "fusion_lon": 0.0, "bike_id": "e734864031b331fa86fbcd15f8c790d5", "is_disabled": 0, "is_reserved": 0}, {"rental_uris": {"ios": "https://dc.lft.to/lastmile_qr_scan", "android": "https://dc.lft.to/lastmile_qr_scan"}, "lon": -77.0279375, "type": "electric_scooter", "fusion_lat": 0.0, "lat": 38.924693833333336, "name": "40ba4076a1f5ff9ba00d20696077ae5e", "fusion_lon": 0.0, "bike_id": "40ba4076a1f5ff9ba00d20696077ae5e", "is_disabled": 0, "is_reserved": 0}, {"rental_uris": {"ios": "https://dc.lft.to/lastmile_qr_scan", "android": "https://dc.lft.to/lastmile_qr_scan"}, "lon": -77.00431783333333, "type": "electric_scooter", "fusion_lat": 0.0, "lat": 38.903962, "name": "1255f421087c68bd0230323f455443e7", "fusion_lon": 0.0, "bike_id": "1255f421087c68bd0230323f455443e7", "is_disabled": 0, "is_reserved": 0}, {"rental_uris": {"ios": "https://dc.lft.to/lastmile_qr_scan", "android": "https://dc.lft.to/lastmile_qr_scan"}, "lon": -77.0578885, "type": "electric_scooter", "fusion_lat": 0.0, "lat": 38.9050585, "name": "db8fc92ed77b705aac98658211e92cbf", "fusion_lon": 0.0, "bike_id": "db8fc92ed77b705aac98658211e92cbf", "is_disabled": 0, "is_reserved": 0}, {"rental_uris": {"ios": "https://dc.lft.to/lastmile_qr_scan", "android": "https://dc.lft.to/lastmile_qr_scan"}, "lon": -77.03014, "type": "electric_scooter", "fusion_lat": 0.0, "lat": 38.89734466666667, "name": "538ff4fbeaf1be3e1b0483f510e06a7d", "fusion_lon": 0.0, "bike_id": "538ff4fbeaf1be3e1b0483f510e06a7d", "is_disabled": 0, "is_reserved": 0}, {"rental_uris": {"ios": "https://dc.lft.to/lastmile_qr_scan", "android": "https://dc.lft.to/lastmile_qr_scan"}, "lon": -76.93824633333334, "type": "electric_scooter", "fusion_lat": 0.0, "lat": 38.897587333333334, "name": "58c7661020fe73f67c10002259041a03", "fusion_lon": 0.0, "bike_id": "58c7661020fe73f67c10002259041a03", "is_disabled": 0, "is_reserved": 0}, {"rental_uris": {"ios": "https://dc.lft.to/lastmile_qr_scan", "android": "https://dc.lft.to/lastmile_qr_scan"}, "lon": -77.03198483333334, "type": "electric_scooter", "fusion_lat": 0.0, "lat": 38.914248666666666, "name": "0087012e2aee4bff5026e22d70c017bb", "fusion_lon": 0.0, "bike_id": "0087012e2aee4bff5026e22d70c017bb", "is_disabled": 0, "is_reserved": 0}, {"rental_uris": {"ios": "https://dc.lft.to/lastmile_qr_scan", "android": "https://dc.lft.to/lastmile_qr_scan"}, "lon": -77.03502216666666, "type": "electric_scooter", "fusion_lat": 0.0, "lat": 38.921403, "name": "dd08dce8e6e8d9646656b42c1dd498d0", "fusion_lon": 0.0, "bike_id": "dd08dce8e6e8d9646656b42c1dd498d0", "is_disabled": 0, "is_reserved": 0}, {"rental_uris": {"ios": "https://dc.lft.to/lastmile_qr_scan", "android": "https://dc.lft.to/lastmile_qr_scan"}, "lon": -77.00116383333334, "type": "electric_scooter", "fusion_lat": 0.0, "lat": 38.894376333333334, "name": "ae387ef6c30e67164cbb5d0952c3cb7b", "fusion_lon": 0.0, "bike_id": "ae387ef6c30e67164cbb5d0952c3cb7b", "is_disabled": 0, "is_reserved": 0}, {"rental_uris": {"ios": "https://dc.lft.to/lastmile_qr_scan", "android": "https://dc.lft.to/lastmile_qr_scan"}, "lon": -77.04427333333334, "type": "electric_scooter", "fusion_lat": 0.0, "lat": 38.921133166666664, "name": "d81805c03407de596d44dfa48d1e2041", "fusion_lon": 0.0, "bike_id": "d81805c03407de596d44dfa48d1e2041", "is_disabled": 0, "is_reserved": 0}, {"rental_uris": {"ios": "https://dc.lft.to/lastmile_qr_scan", "android": "https://dc.lft.to/lastmile_qr_scan"}, "lon": -76.96506433333333, "type": "electric_scooter", "fusion_lat": 0.0, "lat": 38.876501, "name": "8b36de2f96117134a0bb0dece1263b49", "fusion_lon": 0.0, "bike_id": "8b36de2f96117134a0bb0dece1263b49", "is_disabled": 0, "is_reserved": 0}, {"rental_uris": {"ios": "https://dc.lft.to/lastmile_qr_scan", "android": "https://dc.lft.to/lastmile_qr_scan"}, "lon": -77.0416565, "type": "electric_scooter", "fusion_lat": 0.0, "lat": 38.917678, "name": "0f725c0b683b218a55f8040145479786", "fusion_lon": 0.0, "bike_id": "0f725c0b683b218a55f8040145479786", "is_disabled": 0, "is_reserved": 0}, {"rental_uris": {"ios": "https://dc.lft.to/lastmile_qr_scan", "android": "https://dc.lft.to/lastmile_qr_scan"}, "lon": -77.02455766666667, "type": "electric_scooter", "fusion_lat": 0.0, "lat": 38.9793735, "name": "ac3b595a431cc4279bfe7846fb201cab", "fusion_lon": 0.0, "bike_id": "ac3b595a431cc4279bfe7846fb201cab", "is_disabled": 0, "is_reserved": 0}, {"rental_uris": {"ios": "https://dc.lft.to/lastmile_qr_scan", "android": "https://dc.lft.to/lastmile_qr_scan"}, "lon": -77.0322055, "type": "electric_scooter", "fusion_lat": 0.0, "lat": 38.918098, "name": "33414aca67e3001106ff7635427f9dc7", "fusion_lon": 0.0, "bike_id": "33414aca67e3001106ff7635427f9dc7", "is_disabled": 0, "is_reserved": 0}, {"rental_uris": {"ios": "https://dc.lft.to/lastmile_qr_scan", "android": "https://dc.lft.to/lastmile_qr_scan"}, "lon": -77.03627383333334, "type": "electric_scooter", "fusion_lat": 0.0, "lat": 38.95639583333333, "name": "372f181f1f241405fdd99b03c795a8d0", "fusion_lon": 0.0, "bike_id": "372f181f1f241405fdd99b03c795a8d0", "is_disabled": 0, "is_reserved": 0}, {"rental_uris": {"ios": "https://dc.lft.to/lastmile_qr_scan", "android": "https://dc.lft.to/lastmile_qr_scan"}, "lon": -77.038809, "type": "electric_scooter", "fusion_lat": 0.0, "lat": 38.9324635, "name": "bd05bca7a997b1f3e23475a896cbab1a", "fusion_lon": 0.0, "bike_id": "bd05bca7a997b1f3e23475a896cbab1a", "is_disabled": 0, "is_reserved": 0}, {"rental_uris": {"ios": "https://dc.lft.to/lastmile_qr_scan", "android": "https://dc.lft.to/lastmile_qr_scan"}, "lon": -77.00888583333334, "type": "electric_scooter", "fusion_lat": 0.0, "lat": 38.92309083333333, "name": "f0651bba925da21a8a75b2024b16d9f7", "fusion_lon": 0.0, "bike_id": "f0651bba925da21a8a75b2024b16d9f7", "is_disabled": 0, "is_reserved": 0}, {"rental_uris": {"ios": "https://dc.lft.to/lastmile_qr_scan", "android": "https://dc.lft.to/lastmile_qr_scan"}, "lon": -77.02673316666667, "type": "electric_scooter", "fusion_lat": 0.0, "lat": 38.899862166666665, "name": "e3a6570fd56f758098e06522c730ad38", "fusion_lon": 0.0, "bike_id": "e3a6570fd56f758098e06522c730ad38", "is_disabled": 0, "is_reserved": 0}, {"rental_uris": {"ios": "https://dc.lft.to/lastmile_qr_scan", "android": "https://dc.lft.to/lastmile_qr_scan"}, "lon": -77.04537183333333, "type": "electric_scooter", "fusion_lat": 0.0, "lat": 38.91935183333333, "name": "15f3d0fbc86bad3c0da5e0129ee4de55", "fusion_lon": 0.0, "bike_id": "15f3d0fbc86bad3c0da5e0129ee4de55", "is_disabled": 0, "is_reserved": 0}, {"rental_uris": {"ios": "https://dc.lft.to/lastmile_qr_scan", "android": "https://dc.lft.to/lastmile_qr_scan"}, "lon": -77.02195383333333, "type": "electric_scooter", "fusion_lat": 0.0, "lat": 38.880531, "name": "c057b46e744b0da35bd87c27ec06536e", "fusion_lon": 0.0, "bike_id": "c057b46e744b0da35bd87c27ec06536e", "is_disabled": 0, "is_reserved": 0}, {"rental_uris": {"ios": "https://dc.lft.to/lastmile_qr_scan", "android": "https://dc.lft.to/lastmile_qr_scan"}, "lon": -76.97328, "type": "electric_bike", "fusion_lat": 0.0, "lat": 38.850585833333334, "name": "9eaedcb745b09e490ac16a51b0ad1980", "fusion_lon": 0.0, "bike_id": "9eaedcb745b09e490ac16a51b0ad1980", "is_disabled": 0, "is_reserved": 0}, {"rental_uris": {"ios": "https://dc.lft.to/lastmile_qr_scan", "android": "https://dc.lft.to/lastmile_qr_scan"}, "lon": -77.03968966666666, "type": "electric_scooter", "fusion_lat": 0.0, "lat": 38.90248733333333, "name": "3bcc3a1aa9183757b7cdcdf68222a55b", "fusion_lon": 0.0, "bike_id": "3bcc3a1aa9183757b7cdcdf68222a55b", "is_disabled": 0, "is_reserved": 0}, {"rental_uris": {"ios": "https://dc.lft.to/lastmile_qr_scan", "android": "https://dc.lft.to/lastmile_qr_scan"}, "lon": -77.00575633333334, "type": "electric_scooter", "fusion_lat": 0.0, "lat": 38.903982, "name": "34bb66e157ffa92fae757f715885e2e2", "fusion_lon": 0.0, "bike_id": "34bb66e157ffa92fae757f715885e2e2", "is_disabled": 0, "is_reserved": 0}, {"rental_uris": {"ios": "https://dc.lft.to/lastmile_qr_scan", "android": "https://dc.lft.to/lastmile_qr_scan"}, "lon": -77.05274066666666, "type": "electric_scooter", "fusion_lat": 0.0, "lat": 38.910310833333334, "name": "c4d6efad8b96b2b40d05221c9731cd4e", "fusion_lon": 0.0, "bike_id": "c4d6efad8b96b2b40d05221c9731cd4e", "is_disabled": 0, "is_reserved": 0}, {"rental_uris": {"ios": "https://dc.lft.to/lastmile_qr_scan", "android": "https://dc.lft.to/lastmile_qr_scan"}, "lon": -77.0257975, "type": "electric_scooter", "fusion_lat": 0.0, "lat": 38.91818033333333, "name": "44960f511d7f053d21ccd9cf1eb06b00", "fusion_lon": 0.0, "bike_id": "44960f511d7f053d21ccd9cf1eb06b00", "is_disabled": 0, "is_reserved": 0}, {"rental_uris": {"ios": "https://dc.lft.to/lastmile_qr_scan", "android": "https://dc.lft.to/lastmile_qr_scan"}, "lon": -77.02979783333333, "type": "electric_scooter", "fusion_lat": 0.0, "lat": 38.9622765, "name": "76c619a220e1274044ade990a4c2f3e4", "fusion_lon": 0.0, "bike_id": "76c619a220e1274044ade990a4c2f3e4", "is_disabled": 0, "is_reserved": 0}, {"rental_uris": {"ios": "https://dc.lft.to/lastmile_qr_scan", "android": "https://dc.lft.to/lastmile_qr_scan"}, "lon": -77.02236133333334, "type": "electric_scooter", "fusion_lat": 0.0, "lat": 38.915484666666664, "name": "45ba6012f49b65ae354ab3538e71f626", "fusion_lon": 0.0, "bike_id": "45ba6012f49b65ae354ab3538e71f626", "is_disabled": 0, "is_reserved": 0}, {"rental_uris": {"ios": "https://dc.lft.to/lastmile_qr_scan", "android": "https://dc.lft.to/lastmile_qr_scan"}, "lon": -77.04102466666667, "type": "electric_scooter", "fusion_lat": 0.0, "lat": 38.91850633333333, "name": "dbe161bdcfe787bd922ea7e46224f909", "fusion_lon": 0.0, "bike_id": "dbe161bdcfe787bd922ea7e46224f909", "is_disabled": 0, "is_reserved": 0}, {"rental_uris": {"ios": "https://dc.lft.to/lastmile_qr_scan", "android": "https://dc.lft.to/lastmile_qr_scan"}, "lon": -77.08545216666667, "type": "electric_bike", "fusion_lat": 0.0, "lat": 38.856223666666665, "name": "74405fc3c3d725933af2063bfbf0e617", "fusion_lon": 0.0, "bike_id": "74405fc3c3d725933af2063bfbf0e617", "is_disabled": 0, "is_reserved": 0}, {"rental_uris": {"ios": "https://dc.lft.to/lastmile_qr_scan", "android": "https://dc.lft.to/lastmile_qr_scan"}, "lon": -77.00670633333333, "type": "electric_scooter", "fusion_lat": 0.0, "lat": 38.87467216666667, "name": "17eec25745ceda4bf3a2d6588d30f8fc", "fusion_lon": 0.0, "bike_id": "17eec25745ceda4bf3a2d6588d30f8fc", "is_disabled": 0, "is_reserved": 0}, {"rental_uris": {"ios": "https://dc.lft.to/lastmile_qr_scan", "android": "https://dc.lft.to/lastmile_qr_scan"}, "lon": -77.02368283333334, "type": "electric_scooter", "fusion_lat": 0.0, "lat": 38.90300966666667, "name": "dd7b45a575fb91650ca91a1649f72e0d", "fusion_lon": 0.0, "bike_id": "dd7b45a575fb91650ca91a1649f72e0d", "is_disabled": 0, "is_reserved": 0}, {"rental_uris": {"ios": "https://dc.lft.to/lastmile_qr_scan", "android": "https://dc.lft.to/lastmile_qr_scan"}, "lon": -77.056768, "type": "electric_scooter", "fusion_lat": 0.0, "lat": 38.923323333333336, "name": "fb071d0bcb0af33d9769627d48654a95", "fusion_lon": 0.0, "bike_id": "fb071d0bcb0af33d9769627d48654a95", "is_disabled": 0, "is_reserved": 0}, {"rental_uris": {"ios": "https://dc.lft.to/lastmile_qr_scan", "android": "https://dc.lft.to/lastmile_qr_scan"}, "lon": -77.01927266666667, "type": "electric_scooter", "fusion_lat": 0.0, "lat": 38.95683866666667, "name": "86a0a4bdc3fd48bdcee28aafc6dd5e1b", "fusion_lon": 0.0, "bike_id": "86a0a4bdc3fd48bdcee28aafc6dd5e1b", "is_disabled": 0, "is_reserved": 0}, {"rental_uris": {"ios": "https://dc.lft.to/lastmile_qr_scan", "android": "https://dc.lft.to/lastmile_qr_scan"}, "lon": -77.0320575, "type": "electric_scooter", "fusion_lat": 0.0, "lat": 38.9119695, "name": "aec32ec9fbc479df9ac3800410b3838f", "fusion_lon": 0.0, "bike_id": "aec32ec9fbc479df9ac3800410b3838f", "is_disabled": 0, "is_reserved": 0}, {"rental_uris": {"ios": "https://dc.lft.to/lastmile_qr_scan", "android": "https://dc.lft.to/lastmile_qr_scan"}, "lon": -77.03629533333333, "type": "electric_scooter", "fusion_lat": 0.0, "lat": 38.92834716666667, "name": "d48f8650771f30bce5fe23737b901f55", "fusion_lon": 0.0, "bike_id": "d48f8650771f30bce5fe23737b901f55", "is_disabled": 0, "is_reserved": 0}, {"rental_uris": {"ios": "https://dc.lft.to/lastmile_qr_scan", "android": "https://dc.lft.to/lastmile_qr_scan"}, "lon": -77.03987866666667, "type": "electric_scooter", "fusion_lat": 0.0, "lat": 38.892255666666664, "name": "9edf923ad46d4934954dafca1d14aa27", "fusion_lon": 0.0, "bike_id": "9edf923ad46d4934954dafca1d14aa27", "is_disabled": 0, "is_reserved": 0}, {"rental_uris": {"ios": "https://dc.lft.to/lastmile_qr_scan", "android": "https://dc.lft.to/lastmile_qr_scan"}, "lon": -77.01129616666667, "type": "electric_scooter", "fusion_lat": 0.0, "lat": 38.90733816666667, "name": "f80f241cdc8f0e9647c4dad21afd2e7e", "fusion_lon": 0.0, "bike_id": "f80f241cdc8f0e9647c4dad21afd2e7e", "is_disabled": 0, "is_reserved": 0}, {"rental_uris": {"ios": "https://dc.lft.to/lastmile_qr_scan", "android": "https://dc.lft.to/lastmile_qr_scan"}, "lon": -77.00633416666666, "type": "electric_scooter", "fusion_lat": 0.0, "lat": 38.829298666666666, "name": "084500b97182a55f84cc45efd53bc19f", "fusion_lon": 0.0, "bike_id": "084500b97182a55f84cc45efd53bc19f", "is_disabled": 0, "is_reserved": 0}, {"rental_uris": {"ios": "https://dc.lft.to/lastmile_qr_scan", "android": "https://dc.lft.to/lastmile_qr_scan"}, "lon": -77.04013166666667, "type": "electric_scooter", "fusion_lat": 0.0, "lat": 38.918005, "name": "31f73bcf6476ecd1689ee2b4775a5aee", "fusion_lon": 0.0, "bike_id": "31f73bcf6476ecd1689ee2b4775a5aee", "is_disabled": 0, "is_reserved": 0}, {"rental_uris": {"ios": "https://dc.lft.to/lastmile_qr_scan", "android": "https://dc.lft.to/lastmile_qr_scan"}, "lon": -77.11199266666667, "type": "electric_bike", "fusion_lat": 0.0, "lat": 38.81308966666667, "name": "6ac9320c24824d3cff4488c512908d87", "fusion_lon": 0.0, "bike_id": "6ac9320c24824d3cff4488c512908d87", "is_disabled": 0, "is_reserved": 0}, {"rental_uris": {"ios": "https://dc.lft.to/lastmile_qr_scan", "android": "https://dc.lft.to/lastmile_qr_scan"}, "lon": -76.93528966666666, "type": "electric_bike", "fusion_lat": 0.0, "lat": 38.95554766666667, "name": "ecca2852c43f43b046cdcfe54a651f99", "fusion_lon": 0.0, "bike_id": "ecca2852c43f43b046cdcfe54a651f99", "is_disabled": 0, "is_reserved": 0}, {"rental_uris": {"ios": "https://dc.lft.to/lastmile_qr_scan", "android": "https://dc.lft.to/lastmile_qr_scan"}, "lon": -77.0325945, "type": "electric_scooter", "fusion_lat": 0.0, "lat": 38.92922333333333, "name": "33bcf59c3c241e2649a42be6ab9a0cde", "fusion_lon": 0.0, "bike_id": "33bcf59c3c241e2649a42be6ab9a0cde", "is_disabled": 0, "is_reserved": 0}, {"rental_uris": {"ios": "https://dc.lft.to/lastmile_qr_scan", "android": "https://dc.lft.to/lastmile_qr_scan"}, "lon": -77.12261416666666, "type": "electric_bike", "fusion_lat": 0.0, "lat": 38.89191133333333, "name": "b6d8f2dbde83c90d679469c4a2e92023", "fusion_lon": 0.0, "bike_id": "b6d8f2dbde83c90d679469c4a2e92023", "is_disabled": 0, "is_reserved": 0}, {"rental_uris": {"ios": "https://dc.lft.to/lastmile_qr_scan", "android": "https://dc.lft.to/lastmile_qr_scan"}, "lon": -77.04748933333333, "type": "electric_scooter", "fusion_lat": 0.0, "lat": 38.90215083333333, "name": "f2ea6f26c27c7820b3f9a069deec7d12", "fusion_lon": 0.0, "bike_id": "f2ea6f26c27c7820b3f9a069deec7d12", "is_disabled": 0, "is_reserved": 0}, {"rental_uris": {"ios": "https://dc.lft.to/lastmile_qr_scan", "android": "https://dc.lft.to/lastmile_qr_scan"}, "lon": -77.0438625, "type": "electric_scooter", "fusion_lat": 0.0, "lat": 38.920518666666666, "name": "f161e15bf20b2bcd9929f86d00cc495b", "fusion_lon": 0.0, "bike_id": "f161e15bf20b2bcd9929f86d00cc495b", "is_disabled": 0, "is_reserved": 0}, {"rental_uris": {"ios": "https://dc.lft.to/lastmile_qr_scan", "android": "https://dc.lft.to/lastmile_qr_scan"}, "lon": -76.95745183333334, "type": "electric_scooter", "fusion_lat": 0.0, "lat": 38.88438766666667, "name": "ab0dada737ef0e84961ae3c58f522e30", "fusion_lon": 0.0, "bike_id": "ab0dada737ef0e84961ae3c58f522e30", "is_disabled": 0, "is_reserved": 0}, {"rental_uris": {"ios": "https://dc.lft.to/lastmile_qr_scan", "android": "https://dc.lft.to/lastmile_qr_scan"}, "lon": -77.07681783333334, "type": "electric_bike", "fusion_lat": 0.0, "lat": 38.83191383333333, "name": "6e36363e105477c5836ea6a5c80ae7e1", "fusion_lon": 0.0, "bike_id": "6e36363e105477c5836ea6a5c80ae7e1", "is_disabled": 0, "is_reserved": 0}, {"rental_uris": {"ios": "https://dc.lft.to/lastmile_qr_scan", "android": "https://dc.lft.to/lastmile_qr_scan"}, "lon": -77.02909666666666, "type": "electric_scooter", "fusion_lat": 0.0, "lat": 38.898210166666665, "name": "1fc6c5c4b9c8d7d4d6356555f8f3f964", "fusion_lon": 0.0, "bike_id": "1fc6c5c4b9c8d7d4d6356555f8f3f964", "is_disabled": 0, "is_reserved": 0}, {"rental_uris": {"ios": "https://dc.lft.to/lastmile_qr_scan", "android": "https://dc.lft.to/lastmile_qr_scan"}, "lon": -77.033191, "type": "electric_scooter", "fusion_lat": 0.0, "lat": 38.89881833333333, "name": "d5ce17d38e66f1888719ac63a3ef4c89", "fusion_lon": 0.0, "bike_id": "d5ce17d38e66f1888719ac63a3ef4c89", "is_disabled": 0, "is_reserved": 0}, {"rental_uris": {"ios": "https://dc.lft.to/lastmile_qr_scan", "android": "https://dc.lft.to/lastmile_qr_scan"}, "lon": -77.02388383333333, "type": "electric_scooter", "fusion_lat": 0.0, "lat": 38.91599183333334, "name": "567d6a0c2c071913a5edd7d3a9639cb4", "fusion_lon": 0.0, "bike_id": "567d6a0c2c071913a5edd7d3a9639cb4", "is_disabled": 0, "is_reserved": 0}, {"rental_uris": {"ios": "https://dc.lft.to/lastmile_qr_scan", "android": "https://dc.lft.to/lastmile_qr_scan"}, "lon": -77.036708, "type": "electric_scooter", "fusion_lat": 0.0, "lat": 38.936390333333335, "name": "6e54176870551c533561bc35b0fb0c78", "fusion_lon": 0.0, "bike_id": "6e54176870551c533561bc35b0fb0c78", "is_disabled": 0, "is_reserved": 0}, {"rental_uris": {"ios": "https://dc.lft.to/lastmile_qr_scan", "android": "https://dc.lft.to/lastmile_qr_scan"}, "lon": -77.0432315, "type": "electric_scooter", "fusion_lat": 0.0, "lat": 38.914848666666664, "name": "71fe6174ab4be517f2b507513f745db9", "fusion_lon": 0.0, "bike_id": "71fe6174ab4be517f2b507513f745db9", "is_disabled": 0, "is_reserved": 0}, {"rental_uris": {"ios": "https://dc.lft.to/lastmile_qr_scan", "android": "https://dc.lft.to/lastmile_qr_scan"}, "lon": -77.11225333333333, "type": "electric_bike", "fusion_lat": 0.0, "lat": 38.828675833333335, "name": "7f5e8224e66301c9a54b0576b064a4b4", "fusion_lon": 0.0, "bike_id": "7f5e8224e66301c9a54b0576b064a4b4", "is_disabled": 0, "is_reserved": 0}, {"rental_uris": {"ios": "https://dc.lft.to/lastmile_qr_scan", "android": "https://dc.lft.to/lastmile_qr_scan"}, "lon": -77.048023, "type": "electric_scooter", "fusion_lat": 0.0, "lat": 38.896058, "name": "ecc6512f430b47142b5a9d6214b19c17", "fusion_lon": 0.0, "bike_id": "ecc6512f430b47142b5a9d6214b19c17", "is_disabled": 0, "is_reserved": 0}, {"rental_uris": {"ios": "https://dc.lft.to/lastmile_qr_scan", "android": "https://dc.lft.to/lastmile_qr_scan"}, "lon": -77.033474, "type": "electric_scooter", "fusion_lat": 0.0, "lat": 38.928758333333334, "name": "7a1823213ac89522f661ee3d70988310", "fusion_lon": 0.0, "bike_id": "7a1823213ac89522f661ee3d70988310", "is_disabled": 0, "is_reserved": 0}, {"rental_uris": {"ios": "https://dc.lft.to/lastmile_qr_scan", "android": "https://dc.lft.to/lastmile_qr_scan"}, "lon": -77.0060915, "type": "electric_scooter", "fusion_lat": 0.0, "lat": 38.90584916666667, "name": "617b99e5a3d3acf2faa9888e2d9bba1a", "fusion_lon": 0.0, "bike_id": "617b99e5a3d3acf2faa9888e2d9bba1a", "is_disabled": 0, "is_reserved": 0}, {"rental_uris": {"ios": "https://dc.lft.to/lastmile_qr_scan", "android": "https://dc.lft.to/lastmile_qr_scan"}, "lon": -76.9955295, "type": "electric_scooter", "fusion_lat": 0.0, "lat": 38.9288575, "name": "5e67680d370a268f103c056b8587ab66", "fusion_lon": 0.0, "bike_id": "5e67680d370a268f103c056b8587ab66", "is_disabled": 0, "is_reserved": 0}, {"rental_uris": {"ios": "https://dc.lft.to/lastmile_qr_scan", "android": "https://dc.lft.to/lastmile_qr_scan"}, "lon": -77.02415183333333, "type": "electric_scooter", "fusion_lat": 0.0, "lat": 38.8953835, "name": "435a5a8f263e8574be934394d077a29d", "fusion_lon": 0.0, "bike_id": "435a5a8f263e8574be934394d077a29d", "is_disabled": 0, "is_reserved": 0}, {"rental_uris": {"ios": "https://dc.lft.to/lastmile_qr_scan", "android": "https://dc.lft.to/lastmile_qr_scan"}, "lon": -76.93878116666667, "type": "electric_scooter", "fusion_lat": 0.0, "lat": 38.90069783333333, "name": "6e1a728728f3a9ab318e237ba08989da", "fusion_lon": 0.0, "bike_id": "6e1a728728f3a9ab318e237ba08989da", "is_disabled": 0, "is_reserved": 0}, {"rental_uris": {"ios": "https://dc.lft.to/lastmile_qr_scan", "android": "https://dc.lft.to/lastmile_qr_scan"}, "lon": -77.0449675, "type": "electric_scooter", "fusion_lat": 0.0, "lat": 38.89995483333333, "name": "e2d64c075ec74a12b15548d564a60131", "fusion_lon": 0.0, "bike_id": "e2d64c075ec74a12b15548d564a60131", "is_disabled": 0, "is_reserved": 0}, {"rental_uris": {"ios": "https://dc.lft.to/lastmile_qr_scan", "android": "https://dc.lft.to/lastmile_qr_scan"}, "lon": -76.98654433333333, "type": "electric_scooter", "fusion_lat": 0.0, "lat": 38.858024666666665, "name": "c01df1f355cde653d2f4d577278be5ae", "fusion_lon": 0.0, "bike_id": "c01df1f355cde653d2f4d577278be5ae", "is_disabled": 0, "is_reserved": 0}, {"rental_uris": {"ios": "https://dc.lft.to/lastmile_qr_scan", "android": "https://dc.lft.to/lastmile_qr_scan"}, "lon": -76.99670966666666, "type": "electric_scooter", "fusion_lat": 0.0, "lat": 38.910212666666666, "name": "4cb71eebe886e55e74cd54a35d7230a9", "fusion_lon": 0.0, "bike_id": "4cb71eebe886e55e74cd54a35d7230a9", "is_disabled": 0, "is_reserved": 0}, {"rental_uris": {"ios": "https://dc.lft.to/lastmile_qr_scan", "android": "https://dc.lft.to/lastmile_qr_scan"}, "lon": -77.02811183333333, "type": "electric_scooter", "fusion_lat": 0.0, "lat": 38.8816645, "name": "49aebec8241c261b81b4484da37b5dce", "fusion_lon": 0.0, "bike_id": "49aebec8241c261b81b4484da37b5dce", "is_disabled": 0, "is_reserved": 0}, {"rental_uris": {"ios": "https://dc.lft.to/lastmile_qr_scan", "android": "https://dc.lft.to/lastmile_qr_scan"}, "lon": -77.02492916666667, "type": "electric_scooter", "fusion_lat": 0.0, "lat": 38.91808116666667, "name": "06ee66b9b2bc245051cf6137f3957420", "fusion_lon": 0.0, "bike_id": "06ee66b9b2bc245051cf6137f3957420", "is_disabled": 0, "is_reserved": 0}, {"rental_uris": {"ios": "https://dc.lft.to/lastmile_qr_scan", "android": "https://dc.lft.to/lastmile_qr_scan"}, "lon": -77.03072383333334, "type": "electric_scooter", "fusion_lat": 0.0, "lat": 38.89966916666667, "name": "898cd609af6713f872153dfc200f1203", "fusion_lon": 0.0, "bike_id": "898cd609af6713f872153dfc200f1203", "is_disabled": 0, "is_reserved": 0}, {"rental_uris": {"ios": "https://dc.lft.to/lastmile_qr_scan", "android": "https://dc.lft.to/lastmile_qr_scan"}, "lon": -77.0233675, "type": "electric_scooter", "fusion_lat": 0.0, "lat": 38.884832333333335, "name": "24ea1b6e8b09d7e8627091ae3c1dba27", "fusion_lon": 0.0, "bike_id": "24ea1b6e8b09d7e8627091ae3c1dba27", "is_disabled": 0, "is_reserved": 0}, {"rental_uris": {"ios": "https://dc.lft.to/lastmile_qr_scan", "android": "https://dc.lft.to/lastmile_qr_scan"}, "lon": -77.0050835, "type": "electric_scooter", "fusion_lat": 0.0, "lat": 38.905741166666665, "name": "c37af4d934b4ced534598b4a76eafe36", "fusion_lon": 0.0, "bike_id": "c37af4d934b4ced534598b4a76eafe36", "is_disabled": 0, "is_reserved": 0}, {"rental_uris": {"ios": "https://dc.lft.to/lastmile_qr_scan", "android": "https://dc.lft.to/lastmile_qr_scan"}, "lon": -77.02374166666667, "type": "electric_scooter", "fusion_lat": 0.0, "lat": 38.8984265, "name": "bde8850c10ce34c0714a2cd2b2f8df94", "fusion_lon": 0.0, "bike_id": "bde8850c10ce34c0714a2cd2b2f8df94", "is_disabled": 0, "is_reserved": 0}, {"rental_uris": {"ios": "https://dc.lft.to/lastmile_qr_scan", "android": "https://dc.lft.to/lastmile_qr_scan"}, "lon": -77.04029433333334, "type": "electric_scooter", "fusion_lat": 0.0, "lat": 38.903839, "name": "0ce8b781206f92eaf7e7fb91058d2aca", "fusion_lon": 0.0, "bike_id": "0ce8b781206f92eaf7e7fb91058d2aca", "is_disabled": 0, "is_reserved": 0}, {"rental_uris": {"ios": "https://dc.lft.to/lastmile_qr_scan", "android": "https://dc.lft.to/lastmile_qr_scan"}, "lon": -77.025577, "type": "electric_scooter", "fusion_lat": 0.0, "lat": 38.918078666666666, "name": "59340c6efd1a96c9916e0531949b8924", "fusion_lon": 0.0, "bike_id": "59340c6efd1a96c9916e0531949b8924", "is_disabled": 0, "is_reserved": 0}, {"rental_uris": {"ios": "https://dc.lft.to/lastmile_qr_scan", "android": "https://dc.lft.to/lastmile_qr_scan"}, "lon": -77.057612, "type": "electric_bike", "fusion_lat": 0.0, "lat": 38.9052695, "name": "0fcb91d8c03b328917792ffc072bb9a2", "fusion_lon": 0.0, "bike_id": "0fcb91d8c03b328917792ffc072bb9a2", "is_disabled": 0, "is_reserved": 0}, {"rental_uris": {"ios": "https://dc.lft.to/lastmile_qr_scan", "android": "https://dc.lft.to/lastmile_qr_scan"}, "lon": -77.05520783333333, "type": "electric_scooter", "fusion_lat": 0.0, "lat": 38.928242833333336, "name": "ca27bbcb646ab3908d4a4766e3214cc2", "fusion_lon": 0.0, "bike_id": "ca27bbcb646ab3908d4a4766e3214cc2", "is_disabled": 0, "is_reserved": 0}, {"rental_uris": {"ios": "https://dc.lft.to/lastmile_qr_scan", "android": "https://dc.lft.to/lastmile_qr_scan"}, "lon": -77.0249075, "type": "electric_scooter", "fusion_lat": 0.0, "lat": 38.88048116666667, "name": "2a136f8ecb1ece312ea79818bff4d03c", "fusion_lon": 0.0, "bike_id": "2a136f8ecb1ece312ea79818bff4d03c", "is_disabled": 0, "is_reserved": 0}, {"rental_uris": {"ios": "https://dc.lft.to/lastmile_qr_scan", "android": "https://dc.lft.to/lastmile_qr_scan"}, "lon": -77.0415305, "type": "electric_scooter", "fusion_lat": 0.0, "lat": 38.91677083333333, "name": "f2d514f018ee4367123627e7e1bbb901", "fusion_lon": 0.0, "bike_id": "f2d514f018ee4367123627e7e1bbb901", "is_disabled": 0, "is_reserved": 0}, {"rental_uris": {"ios": "https://dc.lft.to/lastmile_qr_scan", "android": "https://dc.lft.to/lastmile_qr_scan"}, "lon": -77.0590265, "type": "electric_scooter", "fusion_lat": 0.0, "lat": 38.9008005, "name": "13431919c3bb834530429b0dab431fe2", "fusion_lon": 0.0, "bike_id": "13431919c3bb834530429b0dab431fe2", "is_disabled": 0, "is_reserved": 0}, {"rental_uris": {"ios": "https://dc.lft.to/lastmile_qr_scan", "android": "https://dc.lft.to/lastmile_qr_scan"}, "lon": -77.03263966666667, "type": "electric_scooter", "fusion_lat": 0.0, "lat": 38.93442066666667, "name": "481dff9461cd3f49a38156d62ba1fa87", "fusion_lon": 0.0, "bike_id": "481dff9461cd3f49a38156d62ba1fa87", "is_disabled": 0, "is_reserved": 0}, {"rental_uris": {"ios": "https://dc.lft.to/lastmile_qr_scan", "android": "https://dc.lft.to/lastmile_qr_scan"}, "lon": -77.06990466666667, "type": "electric_bike", "fusion_lat": 0.0, "lat": 38.95265166666667, "name": "ff020ab65e0879088a7ce110abbd6d30", "fusion_lon": 0.0, "bike_id": "ff020ab65e0879088a7ce110abbd6d30", "is_disabled": 0, "is_reserved": 0}, {"rental_uris": {"ios": "https://dc.lft.to/lastmile_qr_scan", "android": "https://dc.lft.to/lastmile_qr_scan"}, "lon": -77.02617133333334, "type": "electric_scooter", "fusion_lat": 0.0, "lat": 38.91708066666666, "name": "718ef80728fcc7c6b3672f8f85d5159f", "fusion_lon": 0.0, "bike_id": "718ef80728fcc7c6b3672f8f85d5159f", "is_disabled": 0, "is_reserved": 0}, {"rental_uris": {"ios": "https://dc.lft.to/lastmile_qr_scan", "android": "https://dc.lft.to/lastmile_qr_scan"}, "lon": -77.03834566666667, "type": "electric_scooter", "fusion_lat": 0.0, "lat": 38.9039365, "name": "398cf186ab1ab42353c94e6c45e0f2ab", "fusion_lon": 0.0, "bike_id": "398cf186ab1ab42353c94e6c45e0f2ab", "is_disabled": 0, "is_reserved": 0}, {"rental_uris": {"ios": "https://dc.lft.to/lastmile_qr_scan", "android": "https://dc.lft.to/lastmile_qr_scan"}, "lon": -77.03247283333333, "type": "electric_scooter", "fusion_lat": 0.0, "lat": 38.9058575, "name": "ce74b598b2e3ab93ad55418946efa250", "fusion_lon": 0.0, "bike_id": "ce74b598b2e3ab93ad55418946efa250", "is_disabled": 0, "is_reserved": 0}, {"rental_uris": {"ios": "https://dc.lft.to/lastmile_qr_scan", "android": "https://dc.lft.to/lastmile_qr_scan"}, "lon": -77.01505833333333, "type": "electric_scooter", "fusion_lat": 0.0, "lat": 38.872097333333336, "name": "6253058fec48b09cb13df35fbe95aa41", "fusion_lon": 0.0, "bike_id": "6253058fec48b09cb13df35fbe95aa41", "is_disabled": 0, "is_reserved": 0}, {"rental_uris": {"ios": "https://dc.lft.to/lastmile_qr_scan", "android": "https://dc.lft.to/lastmile_qr_scan"}, "lon": -77.00130683333333, "type": "electric_bike", "fusion_lat": 0.0, "lat": 38.958732499999996, "name": "8413f50bec8b0ab90c4d8ca7b788d891", "fusion_lon": 0.0, "bike_id": "8413f50bec8b0ab90c4d8ca7b788d891", "is_disabled": 0, "is_reserved": 0}, {"rental_uris": {"ios": "https://dc.lft.to/lastmile_qr_scan", "android": "https://dc.lft.to/lastmile_qr_scan"}, "lon": -77.05547266666666, "type": "electric_scooter", "fusion_lat": 0.0, "lat": 38.89871816666667, "name": "8609b5d1b0912523c25d7795b38ae22a", "fusion_lon": 0.0, "bike_id": "8609b5d1b0912523c25d7795b38ae22a", "is_disabled": 0, "is_reserved": 0}, {"rental_uris": {"ios": "https://dc.lft.to/lastmile_qr_scan", "android": "https://dc.lft.to/lastmile_qr_scan"}, "lon": -77.00197966666667, "type": "electric_scooter", "fusion_lat": 0.0, "lat": 38.899856, "name": "f7e398c9b7568efc783e019673266b5c", "fusion_lon": 0.0, "bike_id": "f7e398c9b7568efc783e019673266b5c", "is_disabled": 0, "is_reserved": 0}, {"rental_uris": {"ios": "https://dc.lft.to/lastmile_qr_scan", "android": "https://dc.lft.to/lastmile_qr_scan"}, "lon": -77.01433316666666, "type": "electric_scooter", "fusion_lat": 0.0, "lat": 38.92983683333333, "name": "badf1b32bd7771adf2704be2014e3973", "fusion_lon": 0.0, "bike_id": "badf1b32bd7771adf2704be2014e3973", "is_disabled": 0, "is_reserved": 0}, {"rental_uris": {"ios": "https://dc.lft.to/lastmile_qr_scan", "android": "https://dc.lft.to/lastmile_qr_scan"}, "lon": -76.9535905, "type": "electric_bike", "fusion_lat": 0.0, "lat": 38.93953283333333, "name": "3a86e6e00ecaa73216ddf55c13ba1f58", "fusion_lon": 0.0, "bike_id": "3a86e6e00ecaa73216ddf55c13ba1f58", "is_disabled": 0, "is_reserved": 0}, {"rental_uris": {"ios": "https://dc.lft.to/lastmile_qr_scan", "android": "https://dc.lft.to/lastmile_qr_scan"}, "lon": -77.04267116666666, "type": "electric_scooter", "fusion_lat": 0.0, "lat": 38.9177695, "name": "441354a1370e0e85554646413fc03d04", "fusion_lon": 0.0, "bike_id": "441354a1370e0e85554646413fc03d04", "is_disabled": 0, "is_reserved": 0}, {"rental_uris": {"ios": "https://dc.lft.to/lastmile_qr_scan", "android": "https://dc.lft.to/lastmile_qr_scan"}, "lon": -77.17840733333334, "type": "electric_bike", "fusion_lat": 0.0, "lat": 39.0885145, "name": "d1c58347112981ca2aa2b1bd25da0dbb", "fusion_lon": 0.0, "bike_id": "d1c58347112981ca2aa2b1bd25da0dbb", "is_disabled": 0, "is_reserved": 0}, {"rental_uris": {"ios": "https://dc.lft.to/lastmile_qr_scan", "android": "https://dc.lft.to/lastmile_qr_scan"}, "lon": -77.0514975, "type": "electric_scooter", "fusion_lat": 0.0, "lat": 38.92370183333333, "name": "8ad38e26ea3fd531025cbf774813ff30", "fusion_lon": 0.0, "bike_id": "8ad38e26ea3fd531025cbf774813ff30", "is_disabled": 0, "is_reserved": 0}, {"rental_uris": {"ios": "https://dc.lft.to/lastmile_qr_scan", "android": "https://dc.lft.to/lastmile_qr_scan"}, "lon": -77.04304733333333, "type": "electric_bike", "fusion_lat": 0.0, "lat": 39.054435833333336, "name": "e9b12cb3b19ef9d1c3a359bdb49503e8", "fusion_lon": 0.0, "bike_id": "e9b12cb3b19ef9d1c3a359bdb49503e8", "is_disabled": 0, "is_reserved": 0}, {"rental_uris": {"ios": "https://dc.lft.to/lastmile_qr_scan", "android": "https://dc.lft.to/lastmile_qr_scan"}, "lon": -77.01989683333333, "type": "electric_scooter", "fusion_lat": 0.0, "lat": 38.8774915, "name": "3bd8c33e6cff1ba5e40670ca03b5b9ae", "fusion_lon": 0.0, "bike_id": "3bd8c33e6cff1ba5e40670ca03b5b9ae", "is_disabled": 0, "is_reserved": 0}, {"rental_uris": {"ios": "https://dc.lft.to/lastmile_qr_scan", "android": "https://dc.lft.to/lastmile_qr_scan"}, "lon": -76.98900066666667, "type": "electric_scooter", "fusion_lat": 0.0, "lat": 38.866878166666666, "name": "d1d5460ac6c6307b087b2f5b12ea144b", "fusion_lon": 0.0, "bike_id": "d1d5460ac6c6307b087b2f5b12ea144b", "is_disabled": 0, "is_reserved": 0}, {"rental_uris": {"ios": "https://dc.lft.to/lastmile_qr_scan", "android": "https://dc.lft.to/lastmile_qr_scan"}, "lon": -77.02605883333334, "type": "electric_scooter", "fusion_lat": 0.0, "lat": 38.897277, "name": "6e81bddcd2f1e9577f2b099b6481be96", "fusion_lon": 0.0, "bike_id": "6e81bddcd2f1e9577f2b099b6481be96", "is_disabled": 0, "is_reserved": 0}, {"rental_uris": {"ios": "https://dc.lft.to/lastmile_qr_scan", "android": "https://dc.lft.to/lastmile_qr_scan"}, "lon": -77.05126716666666, "type": "electric_scooter", "fusion_lat": 0.0, "lat": 38.90523616666667, "name": "a70c056cd710df3881d22e9272393fcf", "fusion_lon": 0.0, "bike_id": "a70c056cd710df3881d22e9272393fcf", "is_disabled": 0, "is_reserved": 0}, {"rental_uris": {"ios": "https://dc.lft.to/lastmile_qr_scan", "android": "https://dc.lft.to/lastmile_qr_scan"}, "lon": -77.033233, "type": "electric_scooter", "fusion_lat": 0.0, "lat": 38.8988565, "name": "2e7d762df70c8f70e2edb10f812757d8", "fusion_lon": 0.0, "bike_id": "2e7d762df70c8f70e2edb10f812757d8", "is_disabled": 0, "is_reserved": 0}, {"rental_uris": {"ios": "https://dc.lft.to/lastmile_qr_scan", "android": "https://dc.lft.to/lastmile_qr_scan"}, "lon": -77.04126016666666, "type": "electric_scooter", "fusion_lat": 0.0, "lat": 38.9188725, "name": "47350c76b7c165d81760b0bc3f369395", "fusion_lon": 0.0, "bike_id": "47350c76b7c165d81760b0bc3f369395", "is_disabled": 0, "is_reserved": 0}, {"rental_uris": {"ios": "https://dc.lft.to/lastmile_qr_scan", "android": "https://dc.lft.to/lastmile_qr_scan"}, "lon": -76.98885416666667, "type": "electric_scooter", "fusion_lat": 0.0, "lat": 38.866542833333334, "name": "b7ec380ace04815f315a4124fb76049b", "fusion_lon": 0.0, "bike_id": "b7ec380ace04815f315a4124fb76049b", "is_disabled": 0, "is_reserved": 0}, {"rental_uris": {"ios": "https://dc.lft.to/lastmile_qr_scan", "android": "https://dc.lft.to/lastmile_qr_scan"}, "lon": -76.94995533333334, "type": "electric_scooter", "fusion_lat": 0.0, "lat": 38.8936145, "name": "66f5e45e78a94c8361ab49eae86bd882", "fusion_lon": 0.0, "bike_id": "66f5e45e78a94c8361ab49eae86bd882", "is_disabled": 0, "is_reserved": 0}, {"rental_uris": {"ios": "https://dc.lft.to/lastmile_qr_scan", "android": "https://dc.lft.to/lastmile_qr_scan"}, "lon": -77.032178, "type": "electric_scooter", "fusion_lat": 0.0, "lat": 38.91261, "name": "c0322b6d1fc8a864f6e4003efc29cdbb", "fusion_lon": 0.0, "bike_id": "c0322b6d1fc8a864f6e4003efc29cdbb", "is_disabled": 0, "is_reserved": 0}, {"rental_uris": {"ios": "https://dc.lft.to/lastmile_qr_scan", "android": "https://dc.lft.to/lastmile_qr_scan"}, "lon": -77.02004616666666, "type": "electric_scooter", "fusion_lat": 0.0, "lat": 38.91904516666666, "name": "3141cf95d2561b0ca16dfb2714346444", "fusion_lon": 0.0, "bike_id": "3141cf95d2561b0ca16dfb2714346444", "is_disabled": 0, "is_reserved": 0}, {"rental_uris": {"ios": "https://dc.lft.to/lastmile_qr_scan", "android": "https://dc.lft.to/lastmile_qr_scan"}, "lon": -77.01644183333333, "type": "electric_scooter", "fusion_lat": 0.0, "lat": 38.9292805, "name": "e7b0a28fac389e03f575844f81caa320", "fusion_lon": 0.0, "bike_id": "e7b0a28fac389e03f575844f81caa320", "is_disabled": 0, "is_reserved": 0}, {"rental_uris": {"ios": "https://dc.lft.to/lastmile_qr_scan", "android": "https://dc.lft.to/lastmile_qr_scan"}, "lon": -77.02604733333334, "type": "electric_scooter", "fusion_lat": 0.0, "lat": 38.90557116666667, "name": "656739da8214de4d365371ed4217c6d8", "fusion_lon": 0.0, "bike_id": "656739da8214de4d365371ed4217c6d8", "is_disabled": 0, "is_reserved": 0}, {"rental_uris": {"ios": "https://dc.lft.to/lastmile_qr_scan", "android": "https://dc.lft.to/lastmile_qr_scan"}, "lon": -77.03216933333333, "type": "electric_scooter", "fusion_lat": 0.0, "lat": 38.920106833333335, "name": "4527095df663cbbc3cdc98b4fd078be6", "fusion_lon": 0.0, "bike_id": "4527095df663cbbc3cdc98b4fd078be6", "is_disabled": 0, "is_reserved": 0}, {"rental_uris": {"ios": "https://dc.lft.to/lastmile_qr_scan", "android": "https://dc.lft.to/lastmile_qr_scan"}, "lon": -76.99489983333333, "type": "electric_scooter", "fusion_lat": 0.0, "lat": 38.89957316666667, "name": "71ffce32c0aff26c6268c29b696901bb", "fusion_lon": 0.0, "bike_id": "71ffce32c0aff26c6268c29b696901bb", "is_disabled": 0, "is_reserved": 0}, {"rental_uris": {"ios": "https://dc.lft.to/lastmile_qr_scan", "android": "https://dc.lft.to/lastmile_qr_scan"}, "lon": -77.02841316666667, "type": "electric_scooter", "fusion_lat": 0.0, "lat": 38.94260166666667, "name": "d565ea59d6815c39cb8c9bf976982742", "fusion_lon": 0.0, "bike_id": "d565ea59d6815c39cb8c9bf976982742", "is_disabled": 0, "is_reserved": 0}, {"rental_uris": {"ios": "https://dc.lft.to/lastmile_qr_scan", "android": "https://dc.lft.to/lastmile_qr_scan"}, "lon": -77.0629655, "type": "electric_scooter", "fusion_lat": 0.0, "lat": 38.90401766666667, "name": "727afd4858eeb4060de2e916d4a732e1", "fusion_lon": 0.0, "bike_id": "727afd4858eeb4060de2e916d4a732e1", "is_disabled": 0, "is_reserved": 0}, {"rental_uris": {"ios": "https://dc.lft.to/lastmile_qr_scan", "android": "https://dc.lft.to/lastmile_qr_scan"}, "lon": -77.03950333333333, "type": "electric_scooter", "fusion_lat": 0.0, "lat": 38.901188833333336, "name": "4249c7632c3849bc56703f904e499632", "fusion_lon": 0.0, "bike_id": "4249c7632c3849bc56703f904e499632", "is_disabled": 0, "is_reserved": 0}, {"rental_uris": {"ios": "https://dc.lft.to/lastmile_qr_scan", "android": "https://dc.lft.to/lastmile_qr_scan"}, "lon": -76.99487466666666, "type": "electric_scooter", "fusion_lat": 0.0, "lat": 38.8623435, "name": "b6cb8b442d0110e025ebf2720d797f1d", "fusion_lon": 0.0, "bike_id": "b6cb8b442d0110e025ebf2720d797f1d", "is_disabled": 0, "is_reserved": 0}, {"rental_uris": {"ios": "https://dc.lft.to/lastmile_qr_scan", "android": "https://dc.lft.to/lastmile_qr_scan"}, "lon": -76.9317705, "type": "electric_scooter", "fusion_lat": 0.0, "lat": 38.8988595, "name": "29aac216208e70c2c24a4dc4338ed737", "fusion_lon": 0.0, "bike_id": "29aac216208e70c2c24a4dc4338ed737", "is_disabled": 0, "is_reserved": 0}, {"rental_uris": {"ios": "https://dc.lft.to/lastmile_qr_scan", "android": "https://dc.lft.to/lastmile_qr_scan"}, "lon": -77.04865016666666, "type": "electric_scooter", "fusion_lat": 0.0, "lat": 38.89216366666667, "name": "506875da4c1899702807e86fc892e54a", "fusion_lon": 0.0, "bike_id": "506875da4c1899702807e86fc892e54a", "is_disabled": 0, "is_reserved": 0}, {"rental_uris": {"ios": "https://dc.lft.to/lastmile_qr_scan", "android": "https://dc.lft.to/lastmile_qr_scan"}, "lon": -77.353093, "type": "electric_bike", "fusion_lat": 0.0, "lat": 38.950004666666665, "name": "946ac85cfa898e77ea41b72bf30c52c9", "fusion_lon": 0.0, "bike_id": "946ac85cfa898e77ea41b72bf30c52c9", "is_disabled": 0, "is_reserved": 0}, {"rental_uris": {"ios": "https://dc.lft.to/lastmile_qr_scan", "android": "https://dc.lft.to/lastmile_qr_scan"}, "lon": -77.02224083333333, "type": "electric_scooter", "fusion_lat": 0.0, "lat": 38.92101516666666, "name": "99ab824a96618d56e798338e10c21786", "fusion_lon": 0.0, "bike_id": "99ab824a96618d56e798338e10c21786", "is_disabled": 0, "is_reserved": 0}, {"rental_uris": {"ios": "https://dc.lft.to/lastmile_qr_scan", "android": "https://dc.lft.to/lastmile_qr_scan"}, "lon": -76.996203, "type": "electric_scooter", "fusion_lat": 0.0, "lat": 38.885512, "name": "91a8534f0cfee09dde4d790d8ea758f6", "fusion_lon": 0.0, "bike_id": "91a8534f0cfee09dde4d790d8ea758f6", "is_disabled": 0, "is_reserved": 0}, {"rental_uris": {"ios": "https://dc.lft.to/lastmile_qr_scan", "android": "https://dc.lft.to/lastmile_qr_scan"}, "lon": -77.03186283333334, "type": "electric_scooter", "fusion_lat": 0.0, "lat": 38.91122083333333, "name": "3d2eb0d3d942154babea8fc63c5f8c7d", "fusion_lon": 0.0, "bike_id": "3d2eb0d3d942154babea8fc63c5f8c7d", "is_disabled": 0, "is_reserved": 0}, {"rental_uris": {"ios": "https://dc.lft.to/lastmile_qr_scan", "android": "https://dc.lft.to/lastmile_qr_scan"}, "lon": -76.97324716666667, "type": "electric_scooter", "fusion_lat": 0.0, "lat": 38.917775166666665, "name": "75ffd33757e4c0eca356533151a99a84", "fusion_lon": 0.0, "bike_id": "75ffd33757e4c0eca356533151a99a84", "is_disabled": 0, "is_reserved": 0}, {"rental_uris": {"ios": "https://dc.lft.to/lastmile_qr_scan", "android": "https://dc.lft.to/lastmile_qr_scan"}, "lon": -77.03149533333334, "type": "electric_scooter", "fusion_lat": 0.0, "lat": 38.94533583333333, "name": "5f8ce342ba5a9661f11c65db57eb33d6", "fusion_lon": 0.0, "bike_id": "5f8ce342ba5a9661f11c65db57eb33d6", "is_disabled": 0, "is_reserved": 0}, {"rental_uris": {"ios": "https://dc.lft.to/lastmile_qr_scan", "android": "https://dc.lft.to/lastmile_qr_scan"}, "lon": -77.04320766666666, "type": "electric_scooter", "fusion_lat": 0.0, "lat": 38.918785666666665, "name": "c418ba4bfbb0bdb20f15763b1b5bd4f7", "fusion_lon": 0.0, "bike_id": "c418ba4bfbb0bdb20f15763b1b5bd4f7", "is_disabled": 0, "is_reserved": 0}, {"rental_uris": {"ios": "https://dc.lft.to/lastmile_qr_scan", "android": "https://dc.lft.to/lastmile_qr_scan"}, "lon": -77.0153005, "type": "electric_scooter", "fusion_lat": 0.0, "lat": 38.88732733333333, "name": "48e5b007dc7e0fe3f6146006fcd558df", "fusion_lon": 0.0, "bike_id": "48e5b007dc7e0fe3f6146006fcd558df", "is_disabled": 0, "is_reserved": 0}, {"rental_uris": {"ios": "https://dc.lft.to/lastmile_qr_scan", "android": "https://dc.lft.to/lastmile_qr_scan"}, "lon": -77.05514666666667, "type": "electric_scooter", "fusion_lat": 0.0, "lat": 38.930031166666666, "name": "05d2346cb85e3e8c5d163a2340d9cba8", "fusion_lon": 0.0, "bike_id": "05d2346cb85e3e8c5d163a2340d9cba8", "is_disabled": 0, "is_reserved": 0}, {"rental_uris": {"ios": "https://dc.lft.to/lastmile_qr_scan", "android": "https://dc.lft.to/lastmile_qr_scan"}, "lon": -77.026658, "type": "electric_scooter", "fusion_lat": 0.0, "lat": 38.895283166666665, "name": "c691046798b95776c2c73ff43c4c4f63", "fusion_lon": 0.0, "bike_id": "c691046798b95776c2c73ff43c4c4f63", "is_disabled": 0, "is_reserved": 0}, {"rental_uris": {"ios": "https://dc.lft.to/lastmile_qr_scan", "android": "https://dc.lft.to/lastmile_qr_scan"}, "lon": -77.00584, "type": "electric_scooter", "fusion_lat": 0.0, "lat": 38.844933166666664, "name": "38c44babc63edc362c4ed0131e94b0a6", "fusion_lon": 0.0, "bike_id": "38c44babc63edc362c4ed0131e94b0a6", "is_disabled": 0, "is_reserved": 0}, {"rental_uris": {"ios": "https://dc.lft.to/lastmile_qr_scan", "android": "https://dc.lft.to/lastmile_qr_scan"}, "lon": -77.02307416666666, "type": "electric_scooter", "fusion_lat": 0.0, "lat": 38.87889066666666, "name": "92b6b0081bed8ff063ee4d61ed62a60c", "fusion_lon": 0.0, "bike_id": "92b6b0081bed8ff063ee4d61ed62a60c", "is_disabled": 0, "is_reserved": 0}, {"rental_uris": {"ios": "https://dc.lft.to/lastmile_qr_scan", "android": "https://dc.lft.to/lastmile_qr_scan"}, "lon": -77.02598666666667, "type": "electric_scooter", "fusion_lat": 0.0, "lat": 38.9168925, "name": "733843ce75af1b6d634f5814b075a560", "fusion_lon": 0.0, "bike_id": "733843ce75af1b6d634f5814b075a560", "is_disabled": 0, "is_reserved": 0}, {"rental_uris": {"ios": "https://dc.lft.to/lastmile_qr_scan", "android": "https://dc.lft.to/lastmile_qr_scan"}, "lon": -77.02693916666666, "type": "electric_scooter", "fusion_lat": 0.0, "lat": 38.92530416666666, "name": "e115868c461c0e51dc5cffb426ae12f6", "fusion_lon": 0.0, "bike_id": "e115868c461c0e51dc5cffb426ae12f6", "is_disabled": 0, "is_reserved": 0}, {"rental_uris": {"ios": "https://dc.lft.to/lastmile_qr_scan", "android": "https://dc.lft.to/lastmile_qr_scan"}, "lon": -76.9462795, "type": "electric_bike", "fusion_lat": 0.0, "lat": 38.946220333333336, "name": "7ba0a415b2061c514f4d634ea896660b", "fusion_lon": 0.0, "bike_id": "7ba0a415b2061c514f4d634ea896660b", "is_disabled": 0, "is_reserved": 0}, {"rental_uris": {"ios": "https://dc.lft.to/lastmile_qr_scan", "android": "https://dc.lft.to/lastmile_qr_scan"}, "lon": -77.06297416666666, "type": "electric_scooter", "fusion_lat": 0.0, "lat": 38.903931666666665, "name": "7d4af56ac1dfede9e1275ddaf1717483", "fusion_lon": 0.0, "bike_id": "7d4af56ac1dfede9e1275ddaf1717483", "is_disabled": 0, "is_reserved": 0}, {"rental_uris": {"ios": "https://dc.lft.to/lastmile_qr_scan", "android": "https://dc.lft.to/lastmile_qr_scan"}, "lon": -76.998854, "type": "electric_scooter", "fusion_lat": 0.0, "lat": 38.90754733333333, "name": "d94c1ad3d24e1059a8a19349a7150dee", "fusion_lon": 0.0, "bike_id": "d94c1ad3d24e1059a8a19349a7150dee", "is_disabled": 0, "is_reserved": 0}, {"rental_uris": {"ios": "https://dc.lft.to/lastmile_qr_scan", "android": "https://dc.lft.to/lastmile_qr_scan"}, "lon": -77.07055883333334, "type": "electric_scooter", "fusion_lat": 0.0, "lat": 38.90857233333333, "name": "7051b12be3146f0843e5f668159c087e", "fusion_lon": 0.0, "bike_id": "7051b12be3146f0843e5f668159c087e", "is_disabled": 0, "is_reserved": 0}, {"rental_uris": {"ios": "https://dc.lft.to/lastmile_qr_scan", "android": "https://dc.lft.to/lastmile_qr_scan"}, "lon": -76.97207033333333, "type": "electric_scooter", "fusion_lat": 0.0, "lat": 38.854980166666664, "name": "d72c8d00988f0c7c62b7c149fa73d070", "fusion_lon": 0.0, "bike_id": "d72c8d00988f0c7c62b7c149fa73d070", "is_disabled": 0, "is_reserved": 0}, {"rental_uris": {"ios": "https://dc.lft.to/lastmile_qr_scan", "android": "https://dc.lft.to/lastmile_qr_scan"}, "lon": -77.03821483333333, "type": "electric_scooter", "fusion_lat": 0.0, "lat": 38.904740333333336, "name": "11ca2928bd8f3781171e62792de8e512", "fusion_lon": 0.0, "bike_id": "11ca2928bd8f3781171e62792de8e512", "is_disabled": 0, "is_reserved": 0}, {"rental_uris": {"ios": "https://dc.lft.to/lastmile_qr_scan", "android": "https://dc.lft.to/lastmile_qr_scan"}, "lon": -77.0315545, "type": "electric_scooter", "fusion_lat": 0.0, "lat": 38.915678, "name": "05e2a00e5271d22b8572e180313496cf", "fusion_lon": 0.0, "bike_id": "05e2a00e5271d22b8572e180313496cf", "is_disabled": 0, "is_reserved": 0}, {"rental_uris": {"ios": "https://dc.lft.to/lastmile_qr_scan", "android": "https://dc.lft.to/lastmile_qr_scan"}, "lon": -77.04196833333333, "type": "electric_scooter", "fusion_lat": 0.0, "lat": 38.89221233333333, "name": "7049258d7362d244c87b7d344dd88696", "fusion_lon": 0.0, "bike_id": "7049258d7362d244c87b7d344dd88696", "is_disabled": 0, "is_reserved": 0}, {"rental_uris": {"ios": "https://dc.lft.to/lastmile_qr_scan", "android": "https://dc.lft.to/lastmile_qr_scan"}, "lon": -77.039487, "type": "electric_scooter", "fusion_lat": 0.0, "lat": 38.899673666666665, "name": "76bd1e63cfd1e91e0145185d923d4fad", "fusion_lon": 0.0, "bike_id": "76bd1e63cfd1e91e0145185d923d4fad", "is_disabled": 0, "is_reserved": 0}, {"rental_uris": {"ios": "https://dc.lft.to/lastmile_qr_scan", "android": "https://dc.lft.to/lastmile_qr_scan"}, "lon": -77.03450283333333, "type": "electric_scooter", "fusion_lat": 0.0, "lat": 38.90946866666667, "name": "b9167982b95f9bae3ddf59cf8b03c134", "fusion_lon": 0.0, "bike_id": "b9167982b95f9bae3ddf59cf8b03c134", "is_disabled": 0, "is_reserved": 0}, {"rental_uris": {"ios": "https://dc.lft.to/lastmile_qr_scan", "android": "https://dc.lft.to/lastmile_qr_scan"}, "lon": -77.01771333333333, "type": "electric_scooter", "fusion_lat": 0.0, "lat": 38.90372333333333, "name": "3a4db169bfb7f5ad98900ce0e54a7e7c", "fusion_lon": 0.0, "bike_id": "3a4db169bfb7f5ad98900ce0e54a7e7c", "is_disabled": 0, "is_reserved": 0}, {"rental_uris": {"ios": "https://dc.lft.to/lastmile_qr_scan", "android": "https://dc.lft.to/lastmile_qr_scan"}, "lon": -77.04265766666667, "type": "electric_scooter", "fusion_lat": 0.0, "lat": 38.93402016666667, "name": "1a7ff37a231581f81669768a59eb851c", "fusion_lon": 0.0, "bike_id": "1a7ff37a231581f81669768a59eb851c", "is_disabled": 0, "is_reserved": 0}, {"rental_uris": {"ios": "https://dc.lft.to/lastmile_qr_scan", "android": "https://dc.lft.to/lastmile_qr_scan"}, "lon": -77.02820416666667, "type": "electric_scooter", "fusion_lat": 0.0, "lat": 38.88758333333333, "name": "e7cc493729d2a4f5cbc756e20de69a35", "fusion_lon": 0.0, "bike_id": "e7cc493729d2a4f5cbc756e20de69a35", "is_disabled": 0, "is_reserved": 0}, {"rental_uris": {"ios": "https://dc.lft.to/lastmile_qr_scan", "android": "https://dc.lft.to/lastmile_qr_scan"}, "lon": -77.03174233333333, "type": "electric_scooter", "fusion_lat": 0.0, "lat": 38.89948233333333, "name": "cdd698ad4c0044288119e3b00336da30", "fusion_lon": 0.0, "bike_id": "cdd698ad4c0044288119e3b00336da30", "is_disabled": 0, "is_reserved": 0}, {"rental_uris": {"ios": "https://dc.lft.to/lastmile_qr_scan", "android": "https://dc.lft.to/lastmile_qr_scan"}, "lon": -77.01936733333334, "type": "electric_scooter", "fusion_lat": 0.0, "lat": 38.912659166666664, "name": "50375488273696eb8e353ffb2ee0e931", "fusion_lon": 0.0, "bike_id": "50375488273696eb8e353ffb2ee0e931", "is_disabled": 0, "is_reserved": 0}, {"rental_uris": {"ios": "https://dc.lft.to/lastmile_qr_scan", "android": "https://dc.lft.to/lastmile_qr_scan"}, "lon": -77.0261075, "type": "electric_scooter", "fusion_lat": 0.0, "lat": 38.883544666666666, "name": "dab7d795d497c7258282ebebe404e049", "fusion_lon": 0.0, "bike_id": "dab7d795d497c7258282ebebe404e049", "is_disabled": 0, "is_reserved": 0}, {"rental_uris": {"ios": "https://dc.lft.to/lastmile_qr_scan", "android": "https://dc.lft.to/lastmile_qr_scan"}, "lon": -77.00703866666667, "type": "electric_scooter", "fusion_lat": 0.0, "lat": 38.9054235, "name": "aeea3ba5b71eee0b506ae9b16c8d7510", "fusion_lon": 0.0, "bike_id": "aeea3ba5b71eee0b506ae9b16c8d7510", "is_disabled": 0, "is_reserved": 0}, {"rental_uris": {"ios": "https://dc.lft.to/lastmile_qr_scan", "android": "https://dc.lft.to/lastmile_qr_scan"}, "lon": -77.11430116666666, "type": "electric_bike", "fusion_lat": 0.0, "lat": 38.8524365, "name": "11b70356b9a30e42934d32ce527327cb", "fusion_lon": 0.0, "bike_id": "11b70356b9a30e42934d32ce527327cb", "is_disabled": 0, "is_reserved": 0}, {"rental_uris": {"ios": "https://dc.lft.to/lastmile_qr_scan", "android": "https://dc.lft.to/lastmile_qr_scan"}, "lon": -77.02383116666667, "type": "electric_scooter", "fusion_lat": 0.0, "lat": 38.931929333333336, "name": "61b0dbc37f00447b7c81d4fba5b05612", "fusion_lon": 0.0, "bike_id": "61b0dbc37f00447b7c81d4fba5b05612", "is_disabled": 0, "is_reserved": 0}, {"rental_uris": {"ios": "https://dc.lft.to/lastmile_qr_scan", "android": "https://dc.lft.to/lastmile_qr_scan"}, "lon": -77.02239883333333, "type": "electric_scooter", "fusion_lat": 0.0, "lat": 38.916525, "name": "0e2ee42ab77c3fa9b4c0e5824599601d", "fusion_lon": 0.0, "bike_id": "0e2ee42ab77c3fa9b4c0e5824599601d", "is_disabled": 0, "is_reserved": 0}, {"rental_uris": {"ios": "https://dc.lft.to/lastmile_qr_scan", "android": "https://dc.lft.to/lastmile_qr_scan"}, "lon": -76.96777383333334, "type": "electric_scooter", "fusion_lat": 0.0, "lat": 38.86140666666667, "name": "641a70f89ed3673f3453352f6186bffa", "fusion_lon": 0.0, "bike_id": "641a70f89ed3673f3453352f6186bffa", "is_disabled": 0, "is_reserved": 0}, {"rental_uris": {"ios": "https://dc.lft.to/lastmile_qr_scan", "android": "https://dc.lft.to/lastmile_qr_scan"}, "lon": -77.0781395, "type": "electric_scooter", "fusion_lat": 0.0, "lat": 38.92628333333333, "name": "475ec8c14358951c1f65f073c87bae4c", "fusion_lon": 0.0, "bike_id": "475ec8c14358951c1f65f073c87bae4c", "is_disabled": 0, "is_reserved": 0}, {"rental_uris": {"ios": "https://dc.lft.to/lastmile_qr_scan", "android": "https://dc.lft.to/lastmile_qr_scan"}, "lon": -77.00931683333333, "type": "electric_scooter", "fusion_lat": 0.0, "lat": 38.87628016666667, "name": "1b4970ae4a8dd6fdb9f2edd249234af2", "fusion_lon": 0.0, "bike_id": "1b4970ae4a8dd6fdb9f2edd249234af2", "is_disabled": 0, "is_reserved": 0}, {"rental_uris": {"ios": "https://dc.lft.to/lastmile_qr_scan", "android": "https://dc.lft.to/lastmile_qr_scan"}, "lon": -77.0350625, "type": "electric_scooter", "fusion_lat": 0.0, "lat": 38.921512666666665, "name": "60d25d56a1f91909977a700b4702e2be", "fusion_lon": 0.0, "bike_id": "60d25d56a1f91909977a700b4702e2be", "is_disabled": 0, "is_reserved": 0}, {"rental_uris": {"ios": "https://dc.lft.to/lastmile_qr_scan", "android": "https://dc.lft.to/lastmile_qr_scan"}, "lon": -77.042201, "type": "electric_scooter", "fusion_lat": 0.0, "lat": 38.921192833333336, "name": "3b23b300845342951342f31f9f7d36be", "fusion_lon": 0.0, "bike_id": "3b23b300845342951342f31f9f7d36be", "is_disabled": 0, "is_reserved": 0}, {"rental_uris": {"ios": "https://dc.lft.to/lastmile_qr_scan", "android": "https://dc.lft.to/lastmile_qr_scan"}, "lon": -76.98414866666667, "type": "electric_scooter", "fusion_lat": 0.0, "lat": 38.91383616666667, "name": "9a597fec16a5b22fafa99aef0befd62d", "fusion_lon": 0.0, "bike_id": "9a597fec16a5b22fafa99aef0befd62d", "is_disabled": 0, "is_reserved": 0}, {"rental_uris": {"ios": "https://dc.lft.to/lastmile_qr_scan", "android": "https://dc.lft.to/lastmile_qr_scan"}, "lon": -77.028074, "type": "electric_scooter", "fusion_lat": 0.0, "lat": 38.88177133333333, "name": "5f0c7ce7c3121ce8e1de0941ea6fc4d0", "fusion_lon": 0.0, "bike_id": "5f0c7ce7c3121ce8e1de0941ea6fc4d0", "is_disabled": 0, "is_reserved": 0}, {"rental_uris": {"ios": "https://dc.lft.to/lastmile_qr_scan", "android": "https://dc.lft.to/lastmile_qr_scan"}, "lon": -77.02835283333333, "type": "electric_scooter", "fusion_lat": 0.0, "lat": 38.89522566666667, "name": "65a524772a9ea257a21077e7ce08fc3a", "fusion_lon": 0.0, "bike_id": "65a524772a9ea257a21077e7ce08fc3a", "is_disabled": 0, "is_reserved": 0}, {"rental_uris": {"ios": "https://dc.lft.to/lastmile_qr_scan", "android": "https://dc.lft.to/lastmile_qr_scan"}, "lon": -76.97891816666667, "type": "electric_scooter", "fusion_lat": 0.0, "lat": 38.90417933333333, "name": "11ba6f6aaf2c1f5c8f8361f6e3ab7adb", "fusion_lon": 0.0, "bike_id": "11ba6f6aaf2c1f5c8f8361f6e3ab7adb", "is_disabled": 0, "is_reserved": 0}, {"rental_uris": {"ios": "https://dc.lft.to/lastmile_qr_scan", "android": "https://dc.lft.to/lastmile_qr_scan"}, "lon": -77.0332255, "type": "electric_scooter", "fusion_lat": 0.0, "lat": 38.89736166666667, "name": "4a340f33e6ca38d7396c6694cff01d76", "fusion_lon": 0.0, "bike_id": "4a340f33e6ca38d7396c6694cff01d76", "is_disabled": 0, "is_reserved": 0}, {"rental_uris": {"ios": "https://dc.lft.to/lastmile_qr_scan", "android": "https://dc.lft.to/lastmile_qr_scan"}, "lon": -76.99542866666667, "type": "electric_scooter", "fusion_lat": 0.0, "lat": 38.92651683333333, "name": "820e3ff4fc1cea3c963b4f8029ef21ce", "fusion_lon": 0.0, "bike_id": "820e3ff4fc1cea3c963b4f8029ef21ce", "is_disabled": 0, "is_reserved": 0}, {"rental_uris": {"ios": "https://dc.lft.to/lastmile_qr_scan", "android": "https://dc.lft.to/lastmile_qr_scan"}, "lon": -77.01391866666667, "type": "electric_scooter", "fusion_lat": 0.0, "lat": 38.9701525, "name": "cb48f53ece908875a7bcd5ea4e3b6022", "fusion_lon": 0.0, "bike_id": "cb48f53ece908875a7bcd5ea4e3b6022", "is_disabled": 0, "is_reserved": 0}, {"rental_uris": {"ios": "https://dc.lft.to/lastmile_qr_scan", "android": "https://dc.lft.to/lastmile_qr_scan"}, "lon": -76.9856755, "type": "electric_scooter", "fusion_lat": 0.0, "lat": 38.892048, "name": "670621776e4f7cd9e35f843d84ed61a2", "fusion_lon": 0.0, "bike_id": "670621776e4f7cd9e35f843d84ed61a2", "is_disabled": 0, "is_reserved": 0}, {"rental_uris": {"ios": "https://dc.lft.to/lastmile_qr_scan", "android": "https://dc.lft.to/lastmile_qr_scan"}, "lon": -77.02451433333333, "type": "electric_scooter", "fusion_lat": 0.0, "lat": 38.89997416666667, "name": "70b036cffb62c0e67bb9b89aeb4a5b1b", "fusion_lon": 0.0, "bike_id": "70b036cffb62c0e67bb9b89aeb4a5b1b", "is_disabled": 0, "is_reserved": 0}, {"rental_uris": {"ios": "https://dc.lft.to/lastmile_qr_scan", "android": "https://dc.lft.to/lastmile_qr_scan"}, "lon": -77.02212366666667, "type": "electric_scooter", "fusion_lat": 0.0, "lat": 38.91542283333333, "name": "c7d970a8a511556b9f37cab410ef6b02", "fusion_lon": 0.0, "bike_id": "c7d970a8a511556b9f37cab410ef6b02", "is_disabled": 0, "is_reserved": 0}, {"rental_uris": {"ios": "https://dc.lft.to/lastmile_qr_scan", "android": "https://dc.lft.to/lastmile_qr_scan"}, "lon": -77.10089216666667, "type": "electric_bike", "fusion_lat": 0.0, "lat": 38.959566833333334, "name": "22404741095e196bacaccb86d137e004", "fusion_lon": 0.0, "bike_id": "22404741095e196bacaccb86d137e004", "is_disabled": 0, "is_reserved": 0}, {"rental_uris": {"ios": "https://dc.lft.to/lastmile_qr_scan", "android": "https://dc.lft.to/lastmile_qr_scan"}, "lon": -76.98496533333334, "type": "electric_scooter", "fusion_lat": 0.0, "lat": 38.860443833333335, "name": "bbaa87b177908935657fab90293a7958", "fusion_lon": 0.0, "bike_id": "bbaa87b177908935657fab90293a7958", "is_disabled": 0, "is_reserved": 0}, {"rental_uris": {"ios": "https://dc.lft.to/lastmile_qr_scan", "android": "https://dc.lft.to/lastmile_qr_scan"}, "lon": -76.99517866666666, "type": "electric_scooter", "fusion_lat": 0.0, "lat": 38.84457866666666, "name": "051aaa71e736b0d558a1a4e4d7186a70", "fusion_lon": 0.0, "bike_id": "051aaa71e736b0d558a1a4e4d7186a70", "is_disabled": 0, "is_reserved": 0}, {"rental_uris": {"ios": "https://dc.lft.to/lastmile_qr_scan", "android": "https://dc.lft.to/lastmile_qr_scan"}, "lon": -77.051777, "type": "electric_scooter", "fusion_lat": 0.0, "lat": 38.92412383333333, "name": "9cdecc370c248a4fc33a6d37aeed87cd", "fusion_lon": 0.0, "bike_id": "9cdecc370c248a4fc33a6d37aeed87cd", "is_disabled": 0, "is_reserved": 0}, {"rental_uris": {"ios": "https://dc.lft.to/lastmile_qr_scan", "android": "https://dc.lft.to/lastmile_qr_scan"}, "lon": -76.97620583333334, "type": "electric_scooter", "fusion_lat": 0.0, "lat": 38.905656666666665, "name": "d62811127c28144cf5b330dfe6b82508", "fusion_lon": 0.0, "bike_id": "d62811127c28144cf5b330dfe6b82508", "is_disabled": 0, "is_reserved": 0}, {"rental_uris": {"ios": "https://dc.lft.to/lastmile_qr_scan", "android": "https://dc.lft.to/lastmile_qr_scan"}, "lon": -77.0121145, "type": "electric_scooter", "fusion_lat": 0.0, "lat": 38.91825816666667, "name": "a48d5af1497ed665da4a8042005b3098", "fusion_lon": 0.0, "bike_id": "a48d5af1497ed665da4a8042005b3098", "is_disabled": 0, "is_reserved": 0}, {"rental_uris": {"ios": "https://dc.lft.to/lastmile_qr_scan", "android": "https://dc.lft.to/lastmile_qr_scan"}, "lon": -77.04323966666666, "type": "electric_scooter", "fusion_lat": 0.0, "lat": 38.923505166666665, "name": "9fe0728095abb8d9f6ac7f4d37b846df", "fusion_lon": 0.0, "bike_id": "9fe0728095abb8d9f6ac7f4d37b846df", "is_disabled": 0, "is_reserved": 0}, {"rental_uris": {"ios": "https://dc.lft.to/lastmile_qr_scan", "android": "https://dc.lft.to/lastmile_qr_scan"}, "lon": -76.98682016666666, "type": "electric_scooter", "fusion_lat": 0.0, "lat": 38.88195366666667, "name": "7004762f9d355f3518ce24730fd1169e", "fusion_lon": 0.0, "bike_id": "7004762f9d355f3518ce24730fd1169e", "is_disabled": 0, "is_reserved": 0}, {"rental_uris": {"ios": "https://dc.lft.to/lastmile_qr_scan", "android": "https://dc.lft.to/lastmile_qr_scan"}, "lon": -77.0219175, "type": "electric_scooter", "fusion_lat": 0.0, "lat": 38.89706, "name": "c23faf4527cf5b97ad05d72e25dbfa21", "fusion_lon": 0.0, "bike_id": "c23faf4527cf5b97ad05d72e25dbfa21", "is_disabled": 0, "is_reserved": 0}, {"rental_uris": {"ios": "https://dc.lft.to/lastmile_qr_scan", "android": "https://dc.lft.to/lastmile_qr_scan"}, "lon": -77.0212905, "type": "electric_scooter", "fusion_lat": 0.0, "lat": 38.931052333333334, "name": "60b3990b4120116cbe7f8cffc1d2829b", "fusion_lon": 0.0, "bike_id": "60b3990b4120116cbe7f8cffc1d2829b", "is_disabled": 0, "is_reserved": 0}, {"rental_uris": {"ios": "https://dc.lft.to/lastmile_qr_scan", "android": "https://dc.lft.to/lastmile_qr_scan"}, "lon": -76.97960716666667, "type": "electric_scooter", "fusion_lat": 0.0, "lat": 38.903830166666665, "name": "c155a19c7e4e3c98ca77fca6ffed9f2f", "fusion_lon": 0.0, "bike_id": "c155a19c7e4e3c98ca77fca6ffed9f2f", "is_disabled": 0, "is_reserved": 0}, {"rental_uris": {"ios": "https://dc.lft.to/lastmile_qr_scan", "android": "https://dc.lft.to/lastmile_qr_scan"}, "lon": -77.05882066666666, "type": "electric_scooter", "fusion_lat": 0.0, "lat": 38.936277, "name": "3ed266ad647ecc41c7e9a244f578575a", "fusion_lon": 0.0, "bike_id": "3ed266ad647ecc41c7e9a244f578575a", "is_disabled": 0, "is_reserved": 0}, {"rental_uris": {"ios": "https://dc.lft.to/lastmile_qr_scan", "android": "https://dc.lft.to/lastmile_qr_scan"}, "lon": -77.04733483333334, "type": "electric_scooter", "fusion_lat": 0.0, "lat": 38.9128605, "name": "5aad620e652741a8ea6ecced3bc078ee", "fusion_lon": 0.0, "bike_id": "5aad620e652741a8ea6ecced3bc078ee", "is_disabled": 0, "is_reserved": 0}, {"rental_uris": {"ios": "https://dc.lft.to/lastmile_qr_scan", "android": "https://dc.lft.to/lastmile_qr_scan"}, "lon": -77.06302066666667, "type": "electric_scooter", "fusion_lat": 0.0, "lat": 38.9132585, "name": "9587ca5b339597463454b21eea792064", "fusion_lon": 0.0, "bike_id": "9587ca5b339597463454b21eea792064", "is_disabled": 0, "is_reserved": 0}, {"rental_uris": {"ios": "https://dc.lft.to/lastmile_qr_scan", "android": "https://dc.lft.to/lastmile_qr_scan"}, "lon": -77.03119183333334, "type": "electric_scooter", "fusion_lat": 0.0, "lat": 38.91330383333333, "name": "b0bdd11dffb8f9f4a67a6b45e1e6c807", "fusion_lon": 0.0, "bike_id": "b0bdd11dffb8f9f4a67a6b45e1e6c807", "is_disabled": 0, "is_reserved": 0}, {"rental_uris": {"ios": "https://dc.lft.to/lastmile_qr_scan", "android": "https://dc.lft.to/lastmile_qr_scan"}, "lon": -77.0416995, "type": "electric_scooter", "fusion_lat": 0.0, "lat": 38.91855566666667, "name": "659c9dfc4ad5f2ec98cb97243462d087", "fusion_lon": 0.0, "bike_id": "659c9dfc4ad5f2ec98cb97243462d087", "is_disabled": 0, "is_reserved": 0}, {"rental_uris": {"ios": "https://dc.lft.to/lastmile_qr_scan", "android": "https://dc.lft.to/lastmile_qr_scan"}, "lon": -77.0554655, "type": "electric_scooter", "fusion_lat": 0.0, "lat": 38.8987965, "name": "c2749d5f2977cb29a39bccbf67ae7221", "fusion_lon": 0.0, "bike_id": "c2749d5f2977cb29a39bccbf67ae7221", "is_disabled": 0, "is_reserved": 0}, {"rental_uris": {"ios": "https://dc.lft.to/lastmile_qr_scan", "android": "https://dc.lft.to/lastmile_qr_scan"}, "lon": -77.07719966666667, "type": "electric_scooter", "fusion_lat": 0.0, "lat": 38.9470315, "name": "44681725d2fb75b9fcb917b903e03622", "fusion_lon": 0.0, "bike_id": "44681725d2fb75b9fcb917b903e03622", "is_disabled": 0, "is_reserved": 0}, {"rental_uris": {"ios": "https://dc.lft.to/lastmile_qr_scan", "android": "https://dc.lft.to/lastmile_qr_scan"}, "lon": -77.0710075, "type": "electric_bike", "fusion_lat": 0.0, "lat": 38.9145015, "name": "936c768b6d94e2ed12f0180379a20f8b", "fusion_lon": 0.0, "bike_id": "936c768b6d94e2ed12f0180379a20f8b", "is_disabled": 0, "is_reserved": 0}, {"rental_uris": {"ios": "https://dc.lft.to/lastmile_qr_scan", "android": "https://dc.lft.to/lastmile_qr_scan"}, "lon": -77.02733116666667, "type": "electric_scooter", "fusion_lat": 0.0, "lat": 38.932143833333335, "name": "b66dc3a0899010198e93714393f2a73f", "fusion_lon": 0.0, "bike_id": "b66dc3a0899010198e93714393f2a73f", "is_disabled": 0, "is_reserved": 0}, {"rental_uris": {"ios": "https://dc.lft.to/lastmile_qr_scan", "android": "https://dc.lft.to/lastmile_qr_scan"}, "lon": -77.0479405, "type": "electric_scooter", "fusion_lat": 0.0, "lat": 38.8995055, "name": "6353dc04475f364d5d2d07c616ce9a49", "fusion_lon": 0.0, "bike_id": "6353dc04475f364d5d2d07c616ce9a49", "is_disabled": 0, "is_reserved": 0}, {"rental_uris": {"ios": "https://dc.lft.to/lastmile_qr_scan", "android": "https://dc.lft.to/lastmile_qr_scan"}, "lon": -76.98389866666666, "type": "electric_scooter", "fusion_lat": 0.0, "lat": 38.878263833333335, "name": "df3241fc8f3b54f45520c67a7dff347f", "fusion_lon": 0.0, "bike_id": "df3241fc8f3b54f45520c67a7dff347f", "is_disabled": 0, "is_reserved": 0}, {"rental_uris": {"ios": "https://dc.lft.to/lastmile_qr_scan", "android": "https://dc.lft.to/lastmile_qr_scan"}, "lon": -77.031449, "type": "electric_scooter", "fusion_lat": 0.0, "lat": 38.9376585, "name": "d7f37728c4df1ccb616b5453f6d4b25b", "fusion_lon": 0.0, "bike_id": "d7f37728c4df1ccb616b5453f6d4b25b", "is_disabled": 0, "is_reserved": 0}, {"rental_uris": {"ios": "https://dc.lft.to/lastmile_qr_scan", "android": "https://dc.lft.to/lastmile_qr_scan"}, "lon": -77.03437483333333, "type": "electric_scooter", "fusion_lat": 0.0, "lat": 38.9095, "name": "0851614d19e1251ae17a40fada2503d8", "fusion_lon": 0.0, "bike_id": "0851614d19e1251ae17a40fada2503d8", "is_disabled": 0, "is_reserved": 0}, {"rental_uris": {"ios": "https://dc.lft.to/lastmile_qr_scan", "android": "https://dc.lft.to/lastmile_qr_scan"}, "lon": -76.9809205, "type": "electric_bike", "fusion_lat": 0.0, "lat": 38.881325833333335, "name": "99dc2e3ff93c2dc022ada07288e3a0e0", "fusion_lon": 0.0, "bike_id": "99dc2e3ff93c2dc022ada07288e3a0e0", "is_disabled": 0, "is_reserved": 0}, {"rental_uris": {"ios": "https://dc.lft.to/lastmile_qr_scan", "android": "https://dc.lft.to/lastmile_qr_scan"}, "lon": -77.023048, "type": "electric_scooter", "fusion_lat": 0.0, "lat": 38.88192866666667, "name": "d4f439268ef2fc2804e57a3fba2f862d", "fusion_lon": 0.0, "bike_id": "d4f439268ef2fc2804e57a3fba2f862d", "is_disabled": 0, "is_reserved": 0}, {"rental_uris": {"ios": "https://dc.lft.to/lastmile_qr_scan", "android": "https://dc.lft.to/lastmile_qr_scan"}, "lon": -77.01621533333334, "type": "electric_scooter", "fusion_lat": 0.0, "lat": 38.90604716666667, "name": "e6326282cf0518bec4ee2f257d2a5639", "fusion_lon": 0.0, "bike_id": "e6326282cf0518bec4ee2f257d2a5639", "is_disabled": 0, "is_reserved": 0}, {"rental_uris": {"ios": "https://dc.lft.to/lastmile_qr_scan", "android": "https://dc.lft.to/lastmile_qr_scan"}, "lon": -77.0117525, "type": "electric_bike", "fusion_lat": 0.0, "lat": 38.872173, "name": "afa913a62a1f1c8a92b06ab34a593a01", "fusion_lon": 0.0, "bike_id": "afa913a62a1f1c8a92b06ab34a593a01", "is_disabled": 0, "is_reserved": 0}, {"rental_uris": {"ios": "https://dc.lft.to/lastmile_qr_scan", "android": "https://dc.lft.to/lastmile_qr_scan"}, "lon": -77.00880433333333, "type": "electric_scooter", "fusion_lat": 0.0, "lat": 38.9051675, "name": "b1c62db303dc7cd4be3a4cfca87ebd2f", "fusion_lon": 0.0, "bike_id": "b1c62db303dc7cd4be3a4cfca87ebd2f", "is_disabled": 0, "is_reserved": 0}, {"rental_uris": {"ios": "https://dc.lft.to/lastmile_qr_scan", "android": "https://dc.lft.to/lastmile_qr_scan"}, "lon": -76.95184066666667, "type": "electric_scooter", "fusion_lat": 0.0, "lat": 38.891381333333335, "name": "39609cae8cdec753dff917841e0540fa", "fusion_lon": 0.0, "bike_id": "39609cae8cdec753dff917841e0540fa", "is_disabled": 0, "is_reserved": 0}, {"rental_uris": {"ios": "https://dc.lft.to/lastmile_qr_scan", "android": "https://dc.lft.to/lastmile_qr_scan"}, "lon": -77.0219915, "type": "electric_scooter", "fusion_lat": 0.0, "lat": 38.91413516666667, "name": "aba45d954bc9db2c41831ddf63c48cb4", "fusion_lon": 0.0, "bike_id": "aba45d954bc9db2c41831ddf63c48cb4", "is_disabled": 0, "is_reserved": 0}, {"rental_uris": {"ios": "https://dc.lft.to/lastmile_qr_scan", "android": "https://dc.lft.to/lastmile_qr_scan"}, "lon": -77.0250295, "type": "electric_scooter", "fusion_lat": 0.0, "lat": 38.90195633333333, "name": "274b14cf7a5a27effbe5305ac9ecfb9d", "fusion_lon": 0.0, "bike_id": "274b14cf7a5a27effbe5305ac9ecfb9d", "is_disabled": 0, "is_reserved": 0}, {"rental_uris": {"ios": "https://dc.lft.to/lastmile_qr_scan", "android": "https://dc.lft.to/lastmile_qr_scan"}, "lon": -77.0350825, "type": "electric_scooter", "fusion_lat": 0.0, "lat": 38.906635666666666, "name": "468f517884c5eb550bf6f6acba1993a8", "fusion_lon": 0.0, "bike_id": "468f517884c5eb550bf6f6acba1993a8", "is_disabled": 0, "is_reserved": 0}, {"rental_uris": {"ios": "https://dc.lft.to/lastmile_qr_scan", "android": "https://dc.lft.to/lastmile_qr_scan"}, "lon": -76.99487433333333, "type": "electric_scooter", "fusion_lat": 0.0, "lat": 38.90229516666667, "name": "da5b72220e23d6ebdef6ecdb8adc12e0", "fusion_lon": 0.0, "bike_id": "da5b72220e23d6ebdef6ecdb8adc12e0", "is_disabled": 0, "is_reserved": 0}, {"rental_uris": {"ios": "https://dc.lft.to/lastmile_qr_scan", "android": "https://dc.lft.to/lastmile_qr_scan"}, "lon": -77.02782233333333, "type": "electric_scooter", "fusion_lat": 0.0, "lat": 38.896851166666664, "name": "e8ca6cdf96b946070507f8f9d3abfde6", "fusion_lon": 0.0, "bike_id": "e8ca6cdf96b946070507f8f9d3abfde6", "is_disabled": 0, "is_reserved": 0}, {"rental_uris": {"ios": "https://dc.lft.to/lastmile_qr_scan", "android": "https://dc.lft.to/lastmile_qr_scan"}, "lon": -77.06001116666667, "type": "electric_scooter", "fusion_lat": 0.0, "lat": 38.90523316666667, "name": "caa73e7646732eb339a46513f199f79d", "fusion_lon": 0.0, "bike_id": "caa73e7646732eb339a46513f199f79d", "is_disabled": 0, "is_reserved": 0}, {"rental_uris": {"ios": "https://dc.lft.to/lastmile_qr_scan", "android": "https://dc.lft.to/lastmile_qr_scan"}, "lon": -77.0428335, "type": "electric_scooter", "fusion_lat": 0.0, "lat": 38.90796783333333, "name": "934b3c4faf18124c61742bb28da19e54", "fusion_lon": 0.0, "bike_id": "934b3c4faf18124c61742bb28da19e54", "is_disabled": 0, "is_reserved": 0}, {"rental_uris": {"ios": "https://dc.lft.to/lastmile_qr_scan", "android": "https://dc.lft.to/lastmile_qr_scan"}, "lon": -77.02229466666667, "type": "electric_scooter", "fusion_lat": 0.0, "lat": 38.916512833333336, "name": "716238849e912cf488458725df13ffba", "fusion_lon": 0.0, "bike_id": "716238849e912cf488458725df13ffba", "is_disabled": 0, "is_reserved": 0}, {"rental_uris": {"ios": "https://dc.lft.to/lastmile_qr_scan", "android": "https://dc.lft.to/lastmile_qr_scan"}, "lon": -77.01640933333333, "type": "electric_scooter", "fusion_lat": 0.0, "lat": 38.92933333333333, "name": "f666275331d5d0e6a0195fa8aa4efc03", "fusion_lon": 0.0, "bike_id": "f666275331d5d0e6a0195fa8aa4efc03", "is_disabled": 0, "is_reserved": 0}, {"rental_uris": {"ios": "https://dc.lft.to/lastmile_qr_scan", "android": "https://dc.lft.to/lastmile_qr_scan"}, "lon": -77.0515975, "type": "electric_scooter", "fusion_lat": 0.0, "lat": 38.9237865, "name": "5d3ac19b53ccf0070941627e2fd6f5e4", "fusion_lon": 0.0, "bike_id": "5d3ac19b53ccf0070941627e2fd6f5e4", "is_disabled": 0, "is_reserved": 0}, {"rental_uris": {"ios": "https://dc.lft.to/lastmile_qr_scan", "android": "https://dc.lft.to/lastmile_qr_scan"}, "lon": -77.06321683333333, "type": "electric_scooter", "fusion_lat": 0.0, "lat": 38.905202333333335, "name": "3ef4f2cf6135a65a7065730a04a55bf1", "fusion_lon": 0.0, "bike_id": "3ef4f2cf6135a65a7065730a04a55bf1", "is_disabled": 0, "is_reserved": 0}, {"rental_uris": {"ios": "https://dc.lft.to/lastmile_qr_scan", "android": "https://dc.lft.to/lastmile_qr_scan"}, "lon": -77.04257783333334, "type": "electric_scooter", "fusion_lat": 0.0, "lat": 38.92055, "name": "83fc90ea8b9f54cc3bd0737e8829e815", "fusion_lon": 0.0, "bike_id": "83fc90ea8b9f54cc3bd0737e8829e815", "is_disabled": 0, "is_reserved": 0}, {"rental_uris": {"ios": "https://dc.lft.to/lastmile_qr_scan", "android": "https://dc.lft.to/lastmile_qr_scan"}, "lon": -77.04118833333334, "type": "electric_scooter", "fusion_lat": 0.0, "lat": 38.921431, "name": "ae7e4c80e64f64acbb297a4011776d25", "fusion_lon": 0.0, "bike_id": "ae7e4c80e64f64acbb297a4011776d25", "is_disabled": 0, "is_reserved": 0}, {"rental_uris": {"ios": "https://dc.lft.to/lastmile_qr_scan", "android": "https://dc.lft.to/lastmile_qr_scan"}, "lon": -76.98560133333334, "type": "electric_scooter", "fusion_lat": 0.0, "lat": 38.899511833333335, "name": "804a1fa7e4ea930e883513e8f9ec48d1", "fusion_lon": 0.0, "bike_id": "804a1fa7e4ea930e883513e8f9ec48d1", "is_disabled": 0, "is_reserved": 0}, {"rental_uris": {"ios": "https://dc.lft.to/lastmile_qr_scan", "android": "https://dc.lft.to/lastmile_qr_scan"}, "lon": -77.038495, "type": "electric_scooter", "fusion_lat": 0.0, "lat": 38.91556683333334, "name": "8d7d538d8f9c7fcc0dad1ca454a66aaf", "fusion_lon": 0.0, "bike_id": "8d7d538d8f9c7fcc0dad1ca454a66aaf", "is_disabled": 0, "is_reserved": 0}, {"rental_uris": {"ios": "https://dc.lft.to/lastmile_qr_scan", "android": "https://dc.lft.to/lastmile_qr_scan"}, "lon": -77.04155333333334, "type": "electric_scooter", "fusion_lat": 0.0, "lat": 38.9171545, "name": "3a784f7710aff08cc5b094ffccef9b7d", "fusion_lon": 0.0, "bike_id": "3a784f7710aff08cc5b094ffccef9b7d", "is_disabled": 0, "is_reserved": 0}, {"rental_uris": {"ios": "https://dc.lft.to/lastmile_qr_scan", "android": "https://dc.lft.to/lastmile_qr_scan"}, "lon": -76.97701383333333, "type": "electric_scooter", "fusion_lat": 0.0, "lat": 38.902501, "name": "eea64ef0486b504e21daf67fa162a538", "fusion_lon": 0.0, "bike_id": "eea64ef0486b504e21daf67fa162a538", "is_disabled": 0, "is_reserved": 0}, {"rental_uris": {"ios": "https://dc.lft.to/lastmile_qr_scan", "android": "https://dc.lft.to/lastmile_qr_scan"}, "lon": -76.98882566666667, "type": "electric_scooter", "fusion_lat": 0.0, "lat": 38.866566, "name": "39d304ea3439e0776d4016ce05e6d43b", "fusion_lon": 0.0, "bike_id": "39d304ea3439e0776d4016ce05e6d43b", "is_disabled": 0, "is_reserved": 0}, {"rental_uris": {"ios": "https://dc.lft.to/lastmile_qr_scan", "android": "https://dc.lft.to/lastmile_qr_scan"}, "lon": -77.09670366666667, "type": "electric_scooter", "fusion_lat": 0.0, "lat": 38.9176975, "name": "a4549ad702dae4f3012ce3defd5bc613", "fusion_lon": 0.0, "bike_id": "a4549ad702dae4f3012ce3defd5bc613", "is_disabled": 0, "is_reserved": 0}, {"rental_uris": {"ios": "https://dc.lft.to/lastmile_qr_scan", "android": "https://dc.lft.to/lastmile_qr_scan"}, "lon": -77.0275, "type": "electric_scooter", "fusion_lat": 0.0, "lat": 38.88153633333334, "name": "050a933929b44bd8c248444326b8660c", "fusion_lon": 0.0, "bike_id": "050a933929b44bd8c248444326b8660c", "is_disabled": 0, "is_reserved": 0}, {"rental_uris": {"ios": "https://dc.lft.to/lastmile_qr_scan", "android": "https://dc.lft.to/lastmile_qr_scan"}, "lon": -77.00538266666666, "type": "electric_scooter", "fusion_lat": 0.0, "lat": 38.8745475, "name": "c52ad1b44e7f5973a90f93edb6e0a3a9", "fusion_lon": 0.0, "bike_id": "c52ad1b44e7f5973a90f93edb6e0a3a9", "is_disabled": 0, "is_reserved": 0}, {"rental_uris": {"ios": "https://dc.lft.to/lastmile_qr_scan", "android": "https://dc.lft.to/lastmile_qr_scan"}, "lon": -76.9808335, "type": "electric_bike", "fusion_lat": 0.0, "lat": 38.90279833333334, "name": "4aed10b5f8596f5173148e00087df06b", "fusion_lon": 0.0, "bike_id": "4aed10b5f8596f5173148e00087df06b", "is_disabled": 0, "is_reserved": 0}, {"rental_uris": {"ios": "https://dc.lft.to/lastmile_qr_scan", "android": "https://dc.lft.to/lastmile_qr_scan"}, "lon": -77.11916783333334, "type": "electric_bike", "fusion_lat": 0.0, "lat": 38.840961166666666, "name": "fdb86b09e40c16cb348230ea590f37f5", "fusion_lon": 0.0, "bike_id": "fdb86b09e40c16cb348230ea590f37f5", "is_disabled": 0, "is_reserved": 0}, {"rental_uris": {"ios": "https://dc.lft.to/lastmile_qr_scan", "android": "https://dc.lft.to/lastmile_qr_scan"}, "lon": -76.93615216666667, "type": "electric_bike", "fusion_lat": 0.0, "lat": 38.970512166666666, "name": "758f191313b7efb495148d2465043fb4", "fusion_lon": 0.0, "bike_id": "758f191313b7efb495148d2465043fb4", "is_disabled": 0, "is_reserved": 0}, {"rental_uris": {"ios": "https://dc.lft.to/lastmile_qr_scan", "android": "https://dc.lft.to/lastmile_qr_scan"}, "lon": -77.02981133333333, "type": "electric_scooter", "fusion_lat": 0.0, "lat": 38.89561, "name": "7171003ee5833ddb59d9d55363ab7537", "fusion_lon": 0.0, "bike_id": "7171003ee5833ddb59d9d55363ab7537", "is_disabled": 0, "is_reserved": 0}, {"rental_uris": {"ios": "https://dc.lft.to/lastmile_qr_scan", "android": "https://dc.lft.to/lastmile_qr_scan"}, "lon": -77.02344816666667, "type": "electric_scooter", "fusion_lat": 0.0, "lat": 38.933651, "name": "a4da257005fe3f4421c49c2b9b924f76", "fusion_lon": 0.0, "bike_id": "a4da257005fe3f4421c49c2b9b924f76", "is_disabled": 0, "is_reserved": 0}, {"rental_uris": {"ios": "https://dc.lft.to/lastmile_qr_scan", "android": "https://dc.lft.to/lastmile_qr_scan"}, "lon": -77.07896533333333, "type": "electric_bike", "fusion_lat": 0.0, "lat": 38.8393145, "name": "cb545d8c8ce57bb2644cdfd05dedd2fa", "fusion_lon": 0.0, "bike_id": "cb545d8c8ce57bb2644cdfd05dedd2fa", "is_disabled": 0, "is_reserved": 0}, {"rental_uris": {"ios": "https://dc.lft.to/lastmile_qr_scan", "android": "https://dc.lft.to/lastmile_qr_scan"},