{"data": {"bikes": [{"lon": -76.99631133333334, "fusion_lon": 0.0, "bike_id": "6f5a8d1e6b7b138119519edd73a264da", "type": "electric_scooter", "name": "6f5a8d1e6b7b138119519edd73a264da", "rental_uris": {"android": "https://dc.lft.to/lastmile_qr_scan", "ios": "https://dc.lft.to/lastmile_qr_scan"}, "is_disabled": 0, "fusion_lat": 0.0, "lat": 38.90061683333333, "is_reserved": 0}, {"lon": -77.03997066666666, "fusion_lon": 0.0, "bike_id": "375929b91d1f7cdd513e034e8f019f99", "type": "electric_scooter", "name": "375929b91d1f7cdd513e034e8f019f99", "rental_uris": {"android": "https://dc.lft.to/lastmile_qr_scan", "ios": "https://dc.lft.to/lastmile_qr_scan"}, "is_disabled": 0, "fusion_lat": 0.0, "lat": 38.92453916666667, "is_reserved": 0}, {"lon": -76.97346666666667, "fusion_lon": 0.0, "bike_id": "50310aa58db47e4a15a8140fa63a1ce9", "type": "electric_scooter", "name": "50310aa58db47e4a15a8140fa63a1ce9", "rental_uris": {"android": "https://dc.lft.to/lastmile_qr_scan", "ios": "https://dc.lft.to/lastmile_qr_scan"}, "is_disabled": 0, "fusion_lat": 0.0, "lat": 38.865173, "is_reserved": 0}, {"lon": -77.0136765, "fusion_lon": 0.0, "bike_id": "175c8220d4c36832d1b04a474cd183f9", "type": "electric_scooter", "name": "175c8220d4c36832d1b04a474cd183f9", "rental_uris": {"android": "https://dc.lft.to/lastmile_qr_scan", "ios": "https://dc.lft.to/lastmile_qr_scan"}, "is_disabled": 0, "fusion_lat": 0.0, "lat": 38.91917383333333, "is_reserved": 0}, {"lon": -77.0320955, "fusion_lon": 0.0, "bike_id": "464e1c8ffdfa999a089538f2bd5d4ac9", "type": "electric_scooter", "name": "464e1c8ffdfa999a089538f2bd5d4ac9", "rental_uris": {"android": "https://dc.lft.to/lastmile_qr_scan", "ios": "https://dc.lft.to/lastmile_qr_scan"}, "is_disabled": 0, "fusion_lat": 0.0, "lat": 38.91424416666667, "is_reserved": 0}, {"lon": -76.99737666666667, "fusion_lon": 0.0, "bike_id": "b2e75fd34e96cb77b1c208f9b26e4ad7", "type": "electric_bike", "name": "b2e75fd34e96cb77b1c208f9b26e4ad7", "rental_uris": {"android": "https://dc.lft.to/lastmile_qr_scan", "ios": "https://dc.lft.to/lastmile_qr_scan"}, "is_disabled": 0, "fusion_lat": 0.0, "lat": 39.04237083333334, "is_reserved": 0}, {"lon": -77.04392266666666, "fusion_lon": 0.0, "bike_id": "6a803582302dbc914736833e87c3b940", "type": "electric_scooter", "name": "6a803582302dbc914736833e87c3b940", "rental_uris": {"android": "https://dc.lft.to/lastmile_qr_scan", "ios": "https://dc.lft.to/lastmile_qr_scan"}, "is_disabled": 0, "fusion_lat": 0.0, "lat": 38.9191815, "is_reserved": 0}, {"lon": -77.0228745, "fusion_lon": 0.0, "bike_id": "d9626366b4892b0bc86a81996323cfce", "type": "electric_scooter", "name": "d9626366b4892b0bc86a81996323cfce", "rental_uris": {"android": "https://dc.lft.to/lastmile_qr_scan", "ios": "https://dc.lft.to/lastmile_qr_scan"}, "is_disabled": 0, "fusion_lat": 0.0, "lat": 38.916096, "is_reserved": 0}, {"lon": -77.02495966666666, "fusion_lon": 0.0, "bike_id": "46a9d4f35f3b6f65554282557a00ad53", "type": "electric_scooter", "name": "46a9d4f35f3b6f65554282557a00ad53", "rental_uris": {"android": "https://dc.lft.to/lastmile_qr_scan", "ios": "https://dc.lft.to/lastmile_qr_scan"}, "is_disabled": 0, "fusion_lat": 0.0, "lat": 38.918085, "is_reserved": 0}, {"lon": -76.984651, "fusion_lon": 0.0, "bike_id": "ca32090217eae4bbedf1bd311745e976", "type": "electric_scooter", "name": "ca32090217eae4bbedf1bd311745e976", "rental_uris": {"android": "https://dc.lft.to/lastmile_qr_scan", "ios": "https://dc.lft.to/lastmile_qr_scan"}, "is_disabled": 0, "fusion_lat": 0.0, "lat": 38.903969833333335, "is_reserved": 0}, {"lon": -77.01161133333333, "fusion_lon": 0.0, "bike_id": "47f40b41008a11cfaaf2f27b84841fb2", "type": "electric_scooter", "name": "47f40b41008a11cfaaf2f27b84841fb2", "rental_uris": {"android": "https://dc.lft.to/lastmile_qr_scan", "ios": "https://dc.lft.to/lastmile_qr_scan"}, "is_disabled": 0, "fusion_lat": 0.0, "lat": 38.91264066666667, "is_reserved": 0}, {"lon": -77.03638466666666, "fusion_lon": 0.0, "bike_id": "b60d6534154e3b3d3d9c3483e10c93d0", "type": "electric_scooter", "name": "b60d6534154e3b3d3d9c3483e10c93d0", "rental_uris": {"android": "https://dc.lft.to/lastmile_qr_scan", "ios": "https://dc.lft.to/lastmile_qr_scan"}, "is_disabled": 0, "fusion_lat": 0.0, "lat": 38.918302, "is_reserved": 0}, {"lon": -77.01352766666666, "fusion_lon": 0.0, "bike_id": "5f75331a4600a684f40cb0ebe650bf51", "type": "electric_scooter", "name": "5f75331a4600a684f40cb0ebe650bf51", "rental_uris": {"android": "https://dc.lft.to/lastmile_qr_scan", "ios": "https://dc.lft.to/lastmile_qr_scan"}, "is_disabled": 0, "fusion_lat": 0.0, "lat": 38.8716115, "is_reserved": 0}, {"lon": -77.02799333333333, "fusion_lon": 0.0, "bike_id": "d643f2e6890189661c5e4a5d2e2ae5a2", "type": "electric_scooter", "name": "d643f2e6890189661c5e4a5d2e2ae5a2", "rental_uris": {"android": "https://dc.lft.to/lastmile_qr_scan", "ios": "https://dc.lft.to/lastmile_qr_scan"}, "is_disabled": 0, "fusion_lat": 0.0, "lat": 38.90479466666667, "is_reserved": 0}, {"lon": -76.946401, "fusion_lon": 0.0, "bike_id": "f73cf2442eb5055751af3cc0537d6b4d", "type": "electric_scooter", "name": "f73cf2442eb5055751af3cc0537d6b4d", "rental_uris": {"android": "https://dc.lft.to/lastmile_qr_scan", "ios": "https://dc.lft.to/lastmile_qr_scan"}, "is_disabled": 0, "fusion_lat": 0.0, "lat": 38.898614333333335, "is_reserved": 0}, {"lon": -77.0384765, "fusion_lon": 0.0, "bike_id": "360dd570e9058910f301988e5958b6d6", "type": "electric_scooter", "name": "360dd570e9058910f301988e5958b6d6", "rental_uris": {"android": "https://dc.lft.to/lastmile_qr_scan", "ios": "https://dc.lft.to/lastmile_qr_scan"}, "is_disabled": 0, "fusion_lat": 0.0, "lat": 38.902935, "is_reserved": 0}, {"lon": -77.04018516666666, "fusion_lon": 0.0, "bike_id": "e259fe43da227a9072e583747a5372cf", "type": "electric_scooter", "name": "e259fe43da227a9072e583747a5372cf", "rental_uris": {"android": "https://dc.lft.to/lastmile_qr_scan", "ios": "https://dc.lft.to/lastmile_qr_scan"}, "is_disabled": 0, "fusion_lat": 0.0, "lat": 38.9217565, "is_reserved": 0}, {"lon": -77.02951716666666, "fusion_lon": 0.0, "bike_id": "6c6d4fa84f7277ce17a1292cce6d298f", "type": "electric_scooter", "name": "6c6d4fa84f7277ce17a1292cce6d298f", "rental_uris": {"android": "https://dc.lft.to/lastmile_qr_scan", "ios": "https://dc.lft.to/lastmile_qr_scan"}, "is_disabled": 0, "fusion_lat": 0.0, "lat": 38.90506766666667, "is_reserved": 0}, {"lon": -76.9652615, "fusion_lon": 0.0, "bike_id": "2b010fe672837d927448518d9f8b8989", "type": "electric_scooter", "name": "2b010fe672837d927448518d9f8b8989", "rental_uris": {"android": "https://dc.lft.to/lastmile_qr_scan", "ios": "https://dc.lft.to/lastmile_qr_scan"}, "is_disabled": 0, "fusion_lat": 0.0, "lat": 38.87632583333333, "is_reserved": 0}, {"lon": -77.054221, "fusion_lon": 0.0, "bike_id": "996c34203365cb03086bf2894c4061e0", "type": "electric_bike", "name": "996c34203365cb03086bf2894c4061e0", "rental_uris": {"android": "https://dc.lft.to/lastmile_qr_scan", "ios": "https://dc.lft.to/lastmile_qr_scan"}, "is_disabled": 0, "fusion_lat": 0.0, "lat": 38.935191333333336, "is_reserved": 0}, {"lon": -76.97548383333333, "fusion_lon": 0.0, "bike_id": "6507d202c4b1a6c7a116bc0984aaca8d", "type": "electric_scooter", "name": "6507d202c4b1a6c7a116bc0984aaca8d", "rental_uris": {"android": "https://dc.lft.to/lastmile_qr_scan", "ios": "https://dc.lft.to/lastmile_qr_scan"}, "is_disabled": 0, "fusion_lat": 0.0, "lat": 38.90321483333334, "is_reserved": 0}, {"lon": -76.98767433333333, "fusion_lon": 0.0, "bike_id": "d471d48611accf32f6ff91ae7469954c", "type": "electric_scooter", "name": "d471d48611accf32f6ff91ae7469954c", "rental_uris": {"android": "https://dc.lft.to/lastmile_qr_scan", "ios": "https://dc.lft.to/lastmile_qr_scan"}, "is_disabled": 0, "fusion_lat": 0.0, "lat": 38.90032466666667, "is_reserved": 0}, {"lon": -76.98568266666666, "fusion_lon": 0.0, "bike_id": "f36e236f44126ed9d19209ad296272e3", "type": "electric_scooter", "name": "f36e236f44126ed9d19209ad296272e3", "rental_uris": {"android": "https://dc.lft.to/lastmile_qr_scan", "ios": "https://dc.lft.to/lastmile_qr_scan"}, "is_disabled": 0, "fusion_lat": 0.0, "lat": 38.8668435, "is_reserved": 0}, {"lon": -76.98614216666667, "fusion_lon": 0.0, "bike_id": "2020918ed6a9db45df3ad50c5fc3186c", "type": "electric_scooter", "name": "2020918ed6a9db45df3ad50c5fc3186c", "rental_uris": {"android": "https://dc.lft.to/lastmile_qr_scan", "ios": "https://dc.lft.to/lastmile_qr_scan"}, "is_disabled": 0, "fusion_lat": 0.0, "lat": 38.88293316666667, "is_reserved": 0}, {"lon": -77.03048716666666, "fusion_lon": 0.0, "bike_id": "2489854b2ba6bfbd013beaa3bed51588", "type": "electric_scooter", "name": "2489854b2ba6bfbd013beaa3bed51588", "rental_uris": {"android": "https://dc.lft.to/lastmile_qr_scan", "ios": "https://dc.lft.to/lastmile_qr_scan"}, "is_disabled": 0, "fusion_lat": 0.0, "lat": 38.917045, "is_reserved": 0}, {"lon": -77.02093383333333, "fusion_lon": 0.0, "bike_id": "3c9bb425dbd8933d4e7cd505df7a0b8e", "type": "electric_scooter", "name": "3c9bb425dbd8933d4e7cd505df7a0b8e", "rental_uris": {"android": "https://dc.lft.to/lastmile_qr_scan", "ios": "https://dc.lft.to/lastmile_qr_scan"}, "is_disabled": 0, "fusion_lat": 0.0, "lat": 38.88184966666667, "is_reserved": 0}, {"lon": -76.986011, "fusion_lon": 0.0, "bike_id": "6a1785c7eb49a8fd397d8f488b649931", "type": "electric_scooter", "name": "6a1785c7eb49a8fd397d8f488b649931", "rental_uris": {"android": "https://dc.lft.to/lastmile_qr_scan", "ios": "https://dc.lft.to/lastmile_qr_scan"}, "is_disabled": 0, "fusion_lat": 0.0, "lat": 38.900171666666665, "is_reserved": 0}, {"lon": -76.97235633333334, "fusion_lon": 0.0, "bike_id": "ba603cd1881dbef5eb2fb8f712d2ac91", "type": "electric_bike", "name": "ba603cd1881dbef5eb2fb8f712d2ac91", "rental_uris": {"android": "https://dc.lft.to/lastmile_qr_scan", "ios": "https://dc.lft.to/lastmile_qr_scan"}, "is_disabled": 0, "fusion_lat": 0.0, "lat": 38.9042675, "is_reserved": 0}, {"lon": -77.02093016666667, "fusion_lon": 0.0, "bike_id": "63335fb569a7b0cae7cb3e3aaa7d7a14", "type": "electric_scooter", "name": "63335fb569a7b0cae7cb3e3aaa7d7a14", "rental_uris": {"android": "https://dc.lft.to/lastmile_qr_scan", "ios": "https://dc.lft.to/lastmile_qr_scan"}, "is_disabled": 0, "fusion_lat": 0.0, "lat": 38.96647183333333, "is_reserved": 0}, {"lon": -77.04226216666666, "fusion_lon": 0.0, "bike_id": "9d6413aa0a31d0feded04b8ecdbeee88", "type": "electric_scooter", "name": "9d6413aa0a31d0feded04b8ecdbeee88", "rental_uris": {"android": "https://dc.lft.to/lastmile_qr_scan", "ios": "https://dc.lft.to/lastmile_qr_scan"}, "is_disabled": 0, "fusion_lat": 0.0, "lat": 38.91416183333333, "is_reserved": 0}, {"lon": -77.09959883333333, "fusion_lon": 0.0, "bike_id": "6b29dcf98a6854d968327bf35e789596", "type": "electric_bike", "name": "6b29dcf98a6854d968327bf35e789596", "rental_uris": {"android": "https://dc.lft.to/lastmile_qr_scan", "ios": "https://dc.lft.to/lastmile_qr_scan"}, "is_disabled": 0, "fusion_lat": 0.0, "lat": 38.85789966666667, "is_reserved": 0}, {"lon": -77.028316, "fusion_lon": 0.0, "bike_id": "f2401c541881ffd0bd538b89cf38dd0f", "type": "electric_scooter", "name": "f2401c541881ffd0bd538b89cf38dd0f", "rental_uris": {"android": "https://dc.lft.to/lastmile_qr_scan", "ios": "https://dc.lft.to/lastmile_qr_scan"}, "is_disabled": 0, "fusion_lat": 0.0, "lat": 38.893780666666665, "is_reserved": 0}, {"lon": -76.98766, "fusion_lon": 0.0, "bike_id": "8f91eb9cfe15d259b9a6bc85a45b2b90", "type": "electric_scooter", "name": "8f91eb9cfe15d259b9a6bc85a45b2b90", "rental_uris": {"android": "https://dc.lft.to/lastmile_qr_scan", "ios": "https://dc.lft.to/lastmile_qr_scan"}, "is_disabled": 0, "fusion_lat": 0.0, "lat": 38.900320666666666, "is_reserved": 0}, {"lon": -77.0312415, "fusion_lon": 0.0, "bike_id": "e3c6871ea380ea47841e5a403b8f9ebe", "type": "electric_scooter", "name": "e3c6871ea380ea47841e5a403b8f9ebe", "rental_uris": {"android": "https://dc.lft.to/lastmile_qr_scan", "ios": "https://dc.lft.to/lastmile_qr_scan"}, "is_disabled": 0, "fusion_lat": 0.0, "lat": 38.91700316666667, "is_reserved": 0}, {"lon": -77.00606266666666, "fusion_lon": 0.0, "bike_id": "4754181426832548fbd44b1c7573b8ba", "type": "electric_scooter", "name": "4754181426832548fbd44b1c7573b8ba", "rental_uris": {"android": "https://dc.lft.to/lastmile_qr_scan", "ios": "https://dc.lft.to/lastmile_qr_scan"}, "is_disabled": 0, "fusion_lat": 0.0, "lat": 38.8718165, "is_reserved": 0}, {"lon": -77.04536766666666, "fusion_lon": 0.0, "bike_id": "0701bb31ff20c3fd2d954a978dac78e4", "type": "electric_bike", "name": "0701bb31ff20c3fd2d954a978dac78e4", "rental_uris": {"android": "https://dc.lft.to/lastmile_qr_scan", "ios": "https://dc.lft.to/lastmile_qr_scan"}, "is_disabled": 0, "fusion_lat": 0.0, "lat": 39.03312416666667, "is_reserved": 0}, {"lon": -77.05152166666667, "fusion_lon": 0.0, "bike_id": "0e66a3366166f5ce89f332178935334a", "type": "electric_scooter", "name": "0e66a3366166f5ce89f332178935334a", "rental_uris": {"android": "https://dc.lft.to/lastmile_qr_scan", "ios": "https://dc.lft.to/lastmile_qr_scan"}, "is_disabled": 0, "fusion_lat": 0.0, "lat": 38.923758166666666, "is_reserved": 0}, {"lon": -77.02950216666666, "fusion_lon": 0.0, "bike_id": "60962db078e72571895daf8f9c27e110", "type": "electric_scooter", "name": "60962db078e72571895daf8f9c27e110", "rental_uris": {"android": "https://dc.lft.to/lastmile_qr_scan", "ios": "https://dc.lft.to/lastmile_qr_scan"}, "is_disabled": 0, "fusion_lat": 0.0, "lat": 38.907405, "is_reserved": 0}, {"lon": -76.95835216666667, "fusion_lon": 0.0, "bike_id": "4543261a8b5dfdb52f3b409455b25625", "type": "electric_bike", "name": "4543261a8b5dfdb52f3b409455b25625", "rental_uris": {"android": "https://dc.lft.to/lastmile_qr_scan", "ios": "https://dc.lft.to/lastmile_qr_scan"}, "is_disabled": 0, "fusion_lat": 0.0, "lat": 38.930475333333334, "is_reserved": 0}, {"lon": -77.0336075, "fusion_lon": 0.0, "bike_id": "c2c8ad80c7650c374797a47b3d6b51bd", "type": "electric_scooter", "name": "c2c8ad80c7650c374797a47b3d6b51bd", "rental_uris": {"android": "https://dc.lft.to/lastmile_qr_scan", "ios": "https://dc.lft.to/lastmile_qr_scan"}, "is_disabled": 0, "fusion_lat": 0.0, "lat": 38.92050533333333, "is_reserved": 0}, {"lon": -77.02460366666666, "fusion_lon": 0.0, "bike_id": "21d16ae2d0bd6ce7fc29e81647a64909", "type": "electric_scooter", "name": "21d16ae2d0bd6ce7fc29e81647a64909", "rental_uris": {"android": "https://dc.lft.to/lastmile_qr_scan", "ios": "https://dc.lft.to/lastmile_qr_scan"}, "is_disabled": 0, "fusion_lat": 0.0, "lat": 38.91707566666667, "is_reserved": 0}, {"lon": -77.002062, "fusion_lon": 0.0, "bike_id": "7f5ed77f0b77c6cd65023e9b0347e04b", "type": "electric_scooter", "name": "7f5ed77f0b77c6cd65023e9b0347e04b", "rental_uris": {"android": "https://dc.lft.to/lastmile_qr_scan", "ios": "https://dc.lft.to/lastmile_qr_scan"}, "is_disabled": 0, "fusion_lat": 0.0, "lat": 38.900318166666665, "is_reserved": 0}, {"lon": -76.98249316666667, "fusion_lon": 0.0, "bike_id": "8c8c698f1ff4e7657574e8e76bf27bae", "type": "electric_scooter", "name": "8c8c698f1ff4e7657574e8e76bf27bae", "rental_uris": {"android": "https://dc.lft.to/lastmile_qr_scan", "ios": "https://dc.lft.to/lastmile_qr_scan"}, "is_disabled": 0, "fusion_lat": 0.0, "lat": 38.8954525, "is_reserved": 0}, {"lon": -77.019186, "fusion_lon": 0.0, "bike_id": "c315a8d8e441e982d334efc284bf32be", "type": "electric_scooter", "name": "c315a8d8e441e982d334efc284bf32be", "rental_uris": {"android": "https://dc.lft.to/lastmile_qr_scan", "ios": "https://dc.lft.to/lastmile_qr_scan"}, "is_disabled": 0, "fusion_lat": 0.0, "lat": 38.9237045, "is_reserved": 0}, {"lon": -77.0269695, "fusion_lon": 0.0, "bike_id": "9aaa226b8a124f9c4cfc24035d125a36", "type": "electric_scooter", "name": "9aaa226b8a124f9c4cfc24035d125a36", "rental_uris": {"android": "https://dc.lft.to/lastmile_qr_scan", "ios": "https://dc.lft.to/lastmile_qr_scan"}, "is_disabled": 0, "fusion_lat": 0.0, "lat": 38.908467333333334, "is_reserved": 0}, {"lon": -77.02153083333333, "fusion_lon": 0.0, "bike_id": "965601954f0a7ef09b74e608b927b26c", "type": "electric_scooter", "name": "965601954f0a7ef09b74e608b927b26c", "rental_uris": {"android": "https://dc.lft.to/lastmile_qr_scan", "ios": "https://dc.lft.to/lastmile_qr_scan"}, "is_disabled": 0, "fusion_lat": 0.0, "lat": 38.9579995, "is_reserved": 0}, {"lon": -77.038291, "fusion_lon": 0.0, "bike_id": "4a50cd89394e8f7a93a4d3e8e6d91eda", "type": "electric_scooter", "name": "4a50cd89394e8f7a93a4d3e8e6d91eda", "rental_uris": {"android": "https://dc.lft.to/lastmile_qr_scan", "ios": "https://dc.lft.to/lastmile_qr_scan"}, "is_disabled": 0, "fusion_lat": 0.0, "lat": 38.9127085, "is_reserved": 0}, {"lon": -77.01855366666666, "fusion_lon": 0.0, "bike_id": "6465a64007fb7beeaf07c71bd6553f0d", "type": "electric_scooter", "name": "6465a64007fb7beeaf07c71bd6553f0d", "rental_uris": {"android": "https://dc.lft.to/lastmile_qr_scan", "ios": "https://dc.lft.to/lastmile_qr_scan"}, "is_disabled": 0, "fusion_lat": 0.0, "lat": 38.97370016666667, "is_reserved": 0}, {"lon": -76.99844733333333, "fusion_lon": 0.0, "bike_id": "c4485e30bcb04b556beb64ff4df43ac9", "type": "electric_scooter", "name": "c4485e30bcb04b556beb64ff4df43ac9", "rental_uris": {"android": "https://dc.lft.to/lastmile_qr_scan", "ios": "https://dc.lft.to/lastmile_qr_scan"}, "is_disabled": 0, "fusion_lat": 0.0, "lat": 38.90041183333334, "is_reserved": 0}, {"lon": -76.92656433333333, "fusion_lon": 0.0, "bike_id": "f270509eb0d84ac68c24d5845c7df337", "type": "electric_scooter", "name": "f270509eb0d84ac68c24d5845c7df337", "rental_uris": {"android": "https://dc.lft.to/lastmile_qr_scan", "ios": "https://dc.lft.to/lastmile_qr_scan"}, "is_disabled": 0, "fusion_lat": 0.0, "lat": 38.90173266666667, "is_reserved": 0}, {"lon": -77.01212233333334, "fusion_lon": 0.0, "bike_id": "230f71d222658d61dce559da237b65af", "type": "electric_scooter", "name": "230f71d222658d61dce559da237b65af", "rental_uris": {"android": "https://dc.lft.to/lastmile_qr_scan", "ios": "https://dc.lft.to/lastmile_qr_scan"}, "is_disabled": 0, "fusion_lat": 0.0, "lat": 38.91683183333333, "is_reserved": 0}, {"lon": -77.01025233333333, "fusion_lon": 0.0, "bike_id": "88fda0ffd978a746389352ddf4b9c6e3", "type": "electric_scooter", "name": "88fda0ffd978a746389352ddf4b9c6e3", "rental_uris": {"android": "https://dc.lft.to/lastmile_qr_scan", "ios": "https://dc.lft.to/lastmile_qr_scan"}, "is_disabled": 0, "fusion_lat": 0.0, "lat": 38.92029566666667, "is_reserved": 0}, {"lon": -77.02947166666667, "fusion_lon": 0.0, "bike_id": "69845a7d0fed2565490dc7edee03a8c9", "type": "electric_scooter", "name": "69845a7d0fed2565490dc7edee03a8c9", "rental_uris": {"android": "https://dc.lft.to/lastmile_qr_scan", "ios": "https://dc.lft.to/lastmile_qr_scan"}, "is_disabled": 0, "fusion_lat": 0.0, "lat": 38.898366833333334, "is_reserved": 0}, {"lon": -77.01767166666667, "fusion_lon": 0.0, "bike_id": "0a5fb4a61b9844a03053cccbb0566d2c", "type": "electric_scooter", "name": "0a5fb4a61b9844a03053cccbb0566d2c", "rental_uris": {"android": "https://dc.lft.to/lastmile_qr_scan", "ios": "https://dc.lft.to/lastmile_qr_scan"}, "is_disabled": 0, "fusion_lat": 0.0, "lat": 38.883141333333334, "is_reserved": 0}, {"lon": -76.988968, "fusion_lon": 0.0, "bike_id": "96f9f62a83615af25a0d8feebbfbd414", "type": "electric_scooter", "name": "96f9f62a83615af25a0d8feebbfbd414", "rental_uris": {"android": "https://dc.lft.to/lastmile_qr_scan", "ios": "https://dc.lft.to/lastmile_qr_scan"}, "is_disabled": 0, "fusion_lat": 0.0, "lat": 38.8666365, "is_reserved": 0}, {"lon": -77.0281205, "fusion_lon": 0.0, "bike_id": "67e2ebbc117e9f4329a5394807324a50", "type": "electric_scooter", "name": "67e2ebbc117e9f4329a5394807324a50", "rental_uris": {"android": "https://dc.lft.to/lastmile_qr_scan", "ios": "https://dc.lft.to/lastmile_qr_scan"}, "is_disabled": 0, "fusion_lat": 0.0, "lat": 38.89941066666667, "is_reserved": 0}, {"lon": -77.01076333333333, "fusion_lon": 0.0, "bike_id": "92a1d8dcc50d86ec23860c514c4b121a", "type": "electric_scooter", "name": "92a1d8dcc50d86ec23860c514c4b121a", "rental_uris": {"android": "https://dc.lft.to/lastmile_qr_scan", "ios": "https://dc.lft.to/lastmile_qr_scan"}, "is_disabled": 0, "fusion_lat": 0.0, "lat": 38.916373166666666, "is_reserved": 0}, {"lon": -76.99740883333334, "fusion_lon": 0.0, "bike_id": "18f1a5ef5228c23ba1543fdeed3d10e4", "type": "electric_scooter", "name": "18f1a5ef5228c23ba1543fdeed3d10e4", "rental_uris": {"android": "https://dc.lft.to/lastmile_qr_scan", "ios": "https://dc.lft.to/lastmile_qr_scan"}, "is_disabled": 0, "fusion_lat": 0.0, "lat": 38.900376, "is_reserved": 0}, {"lon": -77.00207766666666, "fusion_lon": 0.0, "bike_id": "f10266f27e74f5b5bd7d564c0e4f6307", "type": "electric_scooter", "name": "f10266f27e74f5b5bd7d564c0e4f6307", "rental_uris": {"android": "https://dc.lft.to/lastmile_qr_scan", "ios": "https://dc.lft.to/lastmile_qr_scan"}, "is_disabled": 0, "fusion_lat": 0.0, "lat": 38.911025, "is_reserved": 0}, {"lon": -77.02696016666667, "fusion_lon": 0.0, "bike_id": "c41fe9b1efcb43d97cb30e36fa48b190", "type": "electric_scooter", "name": "c41fe9b1efcb43d97cb30e36fa48b190", "rental_uris": {"android": "https://dc.lft.to/lastmile_qr_scan", "ios": "https://dc.lft.to/lastmile_qr_scan"}, "is_disabled": 0, "fusion_lat": 0.0, "lat": 38.90708683333333, "is_reserved": 0}, {"lon": -77.01543816666667, "fusion_lon": 0.0, "bike_id": "6af2bafe51bc68805771e655eca7af62", "type": "electric_scooter", "name": "6af2bafe51bc68805771e655eca7af62", "rental_uris": {"android": "https://dc.lft.to/lastmile_qr_scan", "ios": "https://dc.lft.to/lastmile_qr_scan"}, "is_disabled": 0, "fusion_lat": 0.0, "lat": 38.88581716666667, "is_reserved": 0}, {"lon": -77.002446, "fusion_lon": 0.0, "bike_id": "6e2f82f38781431502fcc74b4af87b72", "type": "electric_scooter", "name": "6e2f82f38781431502fcc74b4af87b72", "rental_uris": {"android": "https://dc.lft.to/lastmile_qr_scan", "ios": "https://dc.lft.to/lastmile_qr_scan"}, "is_disabled": 0, "fusion_lat": 0.0, "lat": 38.8749455, "is_reserved": 0}, {"lon": -77.0155795, "fusion_lon": 0.0, "bike_id": "e2026e88e00ba11da9d3abb814b2d888", "type": "electric_scooter", "name": "e2026e88e00ba11da9d3abb814b2d888", "rental_uris": {"android": "https://dc.lft.to/lastmile_qr_scan", "ios": "https://dc.lft.to/lastmile_qr_scan"}, "is_disabled": 0, "fusion_lat": 0.0, "lat": 38.914029166666666, "is_reserved": 0}, {"lon": -77.043035, "fusion_lon": 0.0, "bike_id": "5a94e51da7fd45789a2a959ccd1733c1", "type": "electric_scooter", "name": "5a94e51da7fd45789a2a959ccd1733c1", "rental_uris": {"android": "https://dc.lft.to/lastmile_qr_scan", "ios": "https://dc.lft.to/lastmile_qr_scan"}, "is_disabled": 0, "fusion_lat": 0.0, "lat": 38.931870333333336, "is_reserved": 0}, {"lon": -77.045365, "fusion_lon": 0.0, "bike_id": "625048cd58a4a306eb6a601782bde06a", "type": "electric_scooter", "name": "625048cd58a4a306eb6a601782bde06a", "rental_uris": {"android": "https://dc.lft.to/lastmile_qr_scan", "ios": "https://dc.lft.to/lastmile_qr_scan"}, "is_disabled": 0, "fusion_lat": 0.0, "lat": 38.8974405, "is_reserved": 0}, {"lon": -77.04486966666667, "fusion_lon": 0.0, "bike_id": "1b05ad67c90cd2a35e622611f03e147c", "type": "electric_scooter", "name": "1b05ad67c90cd2a35e622611f03e147c", "rental_uris": {"android": "https://dc.lft.to/lastmile_qr_scan", "ios": "https://dc.lft.to/lastmile_qr_scan"}, "is_disabled": 0, "fusion_lat": 0.0, "lat": 38.89962416666667, "is_reserved": 0}, {"lon": -77.0279675, "fusion_lon": 0.0, "bike_id": "8bd65daccf08ca49d6b5167e6994dab1", "type": "electric_scooter", "name": "8bd65daccf08ca49d6b5167e6994dab1", "rental_uris": {"android": "https://dc.lft.to/lastmile_qr_scan", "ios": "https://dc.lft.to/lastmile_qr_scan"}, "is_disabled": 0, "fusion_lat": 0.0, "lat": 38.96040283333333, "is_reserved": 0}, {"lon": -77.07282433333333, "fusion_lon": 0.0, "bike_id": "004ea656f91e7b3a6e8c84f6382f9c2d", "type": "electric_scooter", "name": "004ea656f91e7b3a6e8c84f6382f9c2d", "rental_uris": {"android": "https://dc.lft.to/lastmile_qr_scan", "ios": "https://dc.lft.to/lastmile_qr_scan"}, "is_disabled": 0, "fusion_lat": 0.0, "lat": 38.9347445, "is_reserved": 0}, {"lon": -76.95097416666667, "fusion_lon": 0.0, "bike_id": "b6b6072e71791418cddeaa7ef5b62c5f", "type": "electric_scooter", "name": "b6b6072e71791418cddeaa7ef5b62c5f", "rental_uris": {"android": "https://dc.lft.to/lastmile_qr_scan", "ios": "https://dc.lft.to/lastmile_qr_scan"}, "is_disabled": 0, "fusion_lat": 0.0, "lat": 38.88453666666667, "is_reserved": 0}, {"lon": -76.9337975, "fusion_lon": 0.0, "bike_id": "1c71ba96ca8fb114989a159c0c57c309", "type": "electric_scooter", "name": "1c71ba96ca8fb114989a159c0c57c309", "rental_uris": {"android": "https://dc.lft.to/lastmile_qr_scan", "ios": "https://dc.lft.to/lastmile_qr_scan"}, "is_disabled": 0, "fusion_lat": 0.0, "lat": 38.899234166666666, "is_reserved": 0}, {"lon": -77.00166066666667, "fusion_lon": 0.0, "bike_id": "1f8c10e72f05de6cc731d71ad45a38ac", "type": "electric_bike", "name": "1f8c10e72f05de6cc731d71ad45a38ac", "rental_uris": {"android": "https://dc.lft.to/lastmile_qr_scan", "ios": "https://dc.lft.to/lastmile_qr_scan"}, "is_disabled": 0, "fusion_lat": 0.0, "lat": 38.84452316666667, "is_reserved": 0}, {"lon": -77.0228925, "fusion_lon": 0.0, "bike_id": "f5ce582e6d912ac2a9ae8f9b844a8d94", "type": "electric_scooter", "name": "f5ce582e6d912ac2a9ae8f9b844a8d94", "rental_uris": {"android": "https://dc.lft.to/lastmile_qr_scan", "ios": "https://dc.lft.to/lastmile_qr_scan"}, "is_disabled": 0, "fusion_lat": 0.0, "lat": 38.9171535, "is_reserved": 0}, {"lon": -77.025604, "fusion_lon": 0.0, "bike_id": "9aad240fa76a504244fc491666187e49", "type": "electric_scooter", "name": "9aad240fa76a504244fc491666187e49", "rental_uris": {"android": "https://dc.lft.to/lastmile_qr_scan", "ios": "https://dc.lft.to/lastmile_qr_scan"}, "is_disabled": 0, "fusion_lat": 0.0, "lat": 38.91914466666667, "is_reserved": 0}, {"lon": -77.0271995, "fusion_lon": 0.0, "bike_id": "51248d2fdb0bb20735a7eec3c7ac2d77", "type": "electric_scooter", "name": "51248d2fdb0bb20735a7eec3c7ac2d77", "rental_uris": {"android": "https://dc.lft.to/lastmile_qr_scan", "ios": "https://dc.lft.to/lastmile_qr_scan"}, "is_disabled": 0, "fusion_lat": 0.0, "lat": 38.91817066666667, "is_reserved": 0}, {"lon": -77.0364025, "fusion_lon": 0.0, "bike_id": "bef159194e5b1300b7de21373e15e605", "type": "electric_scooter", "name": "bef159194e5b1300b7de21373e15e605", "rental_uris": {"android": "https://dc.lft.to/lastmile_qr_scan", "ios": "https://dc.lft.to/lastmile_qr_scan"}, "is_disabled": 0, "fusion_lat": 0.0, "lat": 38.9241465, "is_reserved": 0}, {"lon": -77.02532633333334, "fusion_lon": 0.0, "bike_id": "12e8bfb66d491aec07f3d58612a2eda0", "type": "electric_scooter", "name": "12e8bfb66d491aec07f3d58612a2eda0", "rental_uris": {"android": "https://dc.lft.to/lastmile_qr_scan", "ios": "https://dc.lft.to/lastmile_qr_scan"}, "is_disabled": 0, "fusion_lat": 0.0, "lat": 38.94554816666667, "is_reserved": 0}, {"lon": -77.0369435, "fusion_lon": 0.0, "bike_id": "7a23f0c8ce5d38c3e0b648aa2a3011e4", "type": "electric_scooter", "name": "7a23f0c8ce5d38c3e0b648aa2a3011e4", "rental_uris": {"android": "https://dc.lft.to/lastmile_qr_scan", "ios": "https://dc.lft.to/lastmile_qr_scan"}, "is_disabled": 0, "fusion_lat": 0.0, "lat": 38.93652733333333, "is_reserved": 0}, {"lon": -77.04905366666667, "fusion_lon": 0.0, "bike_id": "b4e6a06fbf0d1fb1050497ef51067a86", "type": "electric_scooter", "name": "b4e6a06fbf0d1fb1050497ef51067a86", "rental_uris": {"android": "https://dc.lft.to/lastmile_qr_scan", "ios": "https://dc.lft.to/lastmile_qr_scan"}, "is_disabled": 0, "fusion_lat": 0.0, "lat": 38.916017333333336, "is_reserved": 0}, {"lon": -77.03793766666666, "fusion_lon": 0.0, "bike_id": "c252b810e57588ee44a8adc817bbb928", "type": "electric_scooter", "name": "c252b810e57588ee44a8adc817bbb928", "rental_uris": {"android": "https://dc.lft.to/lastmile_qr_scan", "ios": "https://dc.lft.to/lastmile_qr_scan"}, "is_disabled": 0, "fusion_lat": 0.0, "lat": 38.921882, "is_reserved": 0}, {"lon": -77.06012783333334, "fusion_lon": 0.0, "bike_id": "05f1fa00af370d038754028b640286a8", "type": "electric_scooter", "name": "05f1fa00af370d038754028b640286a8", "rental_uris": {"android": "https://dc.lft.to/lastmile_qr_scan", "ios": "https://dc.lft.to/lastmile_qr_scan"}, "is_disabled": 0, "fusion_lat": 0.0, "lat": 38.93641266666667, "is_reserved": 0}, {"lon": -76.97957366666667, "fusion_lon": 0.0, "bike_id": "69fc1d608fb5c5492755aff0b038cbee", "type": "electric_scooter", "name": "69fc1d608fb5c5492755aff0b038cbee", "rental_uris": {"android": "https://dc.lft.to/lastmile_qr_scan", "ios": "https://dc.lft.to/lastmile_qr_scan"}, "is_disabled": 0, "fusion_lat": 0.0, "lat": 38.90501783333333, "is_reserved": 0}, {"lon": -77.11082216666667, "fusion_lon": 0.0, "bike_id": "7889a853559cbaad117a7d94e4ab2da3", "type": "electric_bike", "name": "7889a853559cbaad117a7d94e4ab2da3", "rental_uris": {"android": "https://dc.lft.to/lastmile_qr_scan", "ios": "https://dc.lft.to/lastmile_qr_scan"}, "is_disabled": 0, "fusion_lat": 0.0, "lat": 39.01231133333334, "is_reserved": 0}, {"lon": -77.02421083333333, "fusion_lon": 0.0, "bike_id": "01908ccfaa8bf89187c4f7c9e5520791", "type": "electric_scooter", "name": "01908ccfaa8bf89187c4f7c9e5520791", "rental_uris": {"android": "https://dc.lft.to/lastmile_qr_scan", "ios": "https://dc.lft.to/lastmile_qr_scan"}, "is_disabled": 0, "fusion_lat": 0.0, "lat": 38.92070183333333, "is_reserved": 0}, {"lon": -77.018025, "fusion_lon": 0.0, "bike_id": "2031848f2450f2cdc4c565d57ac8009d", "type": "electric_scooter", "name": "2031848f2450f2cdc4c565d57ac8009d", "rental_uris": {"android": "https://dc.lft.to/lastmile_qr_scan", "ios": "https://dc.lft.to/lastmile_qr_scan"}, "is_disabled": 0, "fusion_lat": 0.0, "lat": 38.904425, "is_reserved": 0}, {"lon": -77.0425585, "fusion_lon": 0.0, "bike_id": "01ffab1635901dcda8c62ea203345d04", "type": "electric_scooter", "name": "01ffab1635901dcda8c62ea203345d04", "rental_uris": {"android": "https://dc.lft.to/lastmile_qr_scan", "ios": "https://dc.lft.to/lastmile_qr_scan"}, "is_disabled": 0, "fusion_lat": 0.0, "lat": 38.90853666666667, "is_reserved": 0}, {"lon": -76.9947125, "fusion_lon": 0.0, "bike_id": "d1a6a78b740c09a9f820fc1e61a5669f", "type": "electric_scooter", "name": "d1a6a78b740c09a9f820fc1e61a5669f", "rental_uris": {"android": "https://dc.lft.to/lastmile_qr_scan", "ios": "https://dc.lft.to/lastmile_qr_scan"}, "is_disabled": 0, "fusion_lat": 0.0, "lat": 38.90517333333333, "is_reserved": 0}, {"lon": -77.00590633333333, "fusion_lon": 0.0, "bike_id": "7eb80878879dab1b8863edeebe9f017d", "type": "electric_scooter", "name": "7eb80878879dab1b8863edeebe9f017d", "rental_uris": {"android": "https://dc.lft.to/lastmile_qr_scan", "ios": "https://dc.lft.to/lastmile_qr_scan"}, "is_disabled": 0, "fusion_lat": 0.0, "lat": 38.876499833333334, "is_reserved": 0}, {"lon": -77.02788166666667, "fusion_lon": 0.0, "bike_id": "76d6613579e3a16b00bc8ba4a888937f", "type": "electric_scooter", "name": "76d6613579e3a16b00bc8ba4a888937f", "rental_uris": {"android": "https://dc.lft.to/lastmile_qr_scan", "ios": "https://dc.lft.to/lastmile_qr_scan"}, "is_disabled": 0, "fusion_lat": 0.0, "lat": 38.9306275, "is_reserved": 0}, {"lon": -76.98370233333333, "fusion_lon": 0.0, "bike_id": "088684949f6c4c68edea54e4e0b08a58", "type": "electric_scooter", "name": "088684949f6c4c68edea54e4e0b08a58", "rental_uris": {"android": "https://dc.lft.to/lastmile_qr_scan", "ios": "https://dc.lft.to/lastmile_qr_scan"}, "is_disabled": 0, "fusion_lat": 0.0, "lat": 38.91494016666667, "is_reserved": 0}, {"lon": -77.02434383333333, "fusion_lon": 0.0, "bike_id": "5da575cff9ecde7489f517f56a413664", "type": "electric_scooter", "name": "5da575cff9ecde7489f517f56a413664", "rental_uris": {"android": "https://dc.lft.to/lastmile_qr_scan", "ios": "https://dc.lft.to/lastmile_qr_scan"}, "is_disabled": 0, "fusion_lat": 0.0, "lat": 38.879669, "is_reserved": 0}, {"lon": -77.034058, "fusion_lon": 0.0, "bike_id": "cf75c787936bbbd7a8262b1234f5149f", "type": "electric_scooter", "name": "cf75c787936bbbd7a8262b1234f5149f", "rental_uris": {"android": "https://dc.lft.to/lastmile_qr_scan", "ios": "https://dc.lft.to/lastmile_qr_scan"}, "is_disabled": 0, "fusion_lat": 0.0, "lat": 38.924397, "is_reserved": 0}, {"lon": -77.04338416666667, "fusion_lon": 0.0, "bike_id": "ffbb351b2561e59726b83001db14e2c8", "type": "electric_scooter", "name": "ffbb351b2561e59726b83001db14e2c8", "rental_uris": {"android": "https://dc.lft.to/lastmile_qr_scan", "ios": "https://dc.lft.to/lastmile_qr_scan"}, "is_disabled": 0, "fusion_lat": 0.0, "lat": 38.89690316666667, "is_reserved": 0}, {"lon": -76.97441066666667, "fusion_lon": 0.0, "bike_id": "0f8eb177df4e21e473ee1e1865c44b73", "type": "electric_scooter", "name": "0f8eb177df4e21e473ee1e1865c44b73", "rental_uris": {"android": "https://dc.lft.to/lastmile_qr_scan", "ios": "https://dc.lft.to/lastmile_qr_scan"}, "is_disabled": 0, "fusion_lat": 0.0, "lat": 38.90240683333333, "is_reserved": 0}, {"lon": -76.985648, "fusion_lon": 0.0, "bike_id": "c634e269526ba8ff982a914f207e6f6f", "type": "electric_scooter", "name": "c634e269526ba8ff982a914f207e6f6f", "rental_uris": {"android": "https://dc.lft.to/lastmile_qr_scan", "ios": "https://dc.lft.to/lastmile_qr_scan"}, "is_disabled": 0, "fusion_lat": 0.0, "lat": 38.866833166666666, "is_reserved": 0}, {"lon": -77.02759833333333, "fusion_lon": 0.0, "bike_id": "e9c2e9ccd1071589684ae612f2c7100a", "type": "electric_scooter", "name": "e9c2e9ccd1071589684ae612f2c7100a", "rental_uris": {"android": "https://dc.lft.to/lastmile_qr_scan", "ios": "https://dc.lft.to/lastmile_qr_scan"}, "is_disabled": 0, "fusion_lat": 0.0, "lat": 38.913431333333335, "is_reserved": 0}, {"lon": -76.999493, "fusion_lon": 0.0, "bike_id": "91e5273ae8ac30a2f1fb824a8b04ad8a", "type": "electric_scooter", "name": "91e5273ae8ac30a2f1fb824a8b04ad8a", "rental_uris": {"android": "https://dc.lft.to/lastmile_qr_scan", "ios": "https://dc.lft.to/lastmile_qr_scan"}, "is_disabled": 0, "fusion_lat": 0.0, "lat": 38.84292966666667, "is_reserved": 0}, {"lon": -76.985423, "fusion_lon": 0.0, "bike_id": "3a42066432f45a24495653a724abe58d", "type": "electric_bike", "name": "3a42066432f45a24495653a724abe58d", "rental_uris": {"android": "https://dc.lft.to/lastmile_qr_scan", "ios": "https://dc.lft.to/lastmile_qr_scan"}, "is_disabled": 0, "fusion_lat": 0.0, "lat": 38.89249866666667, "is_reserved": 0}, {"lon": -77.04872833333333, "fusion_lon": 0.0, "bike_id": "4386588be9d30abf9a8553852c025199", "type": "electric_scooter", "name": "4386588be9d30abf9a8553852c025199", "rental_uris": {"android": "https://dc.lft.to/lastmile_qr_scan", "ios": "https://dc.lft.to/lastmile_qr_scan"}, "is_disabled": 0, "fusion_lat": 0.0, "lat": 38.899357, "is_reserved": 0}, {"lon": -77.04143266666667, "fusion_lon": 0.0, "bike_id": "b272d2d9a2c051a712479dd80b5e078b", "type": "electric_scooter", "name": "b272d2d9a2c051a712479dd80b5e078b", "rental_uris": {"android": "https://dc.lft.to/lastmile_qr_scan", "ios": "https://dc.lft.to/lastmile_qr_scan"}, "is_disabled": 0, "fusion_lat": 0.0, "lat": 38.906301166666665, "is_reserved": 0}, {"lon": -77.04937, "fusion_lon": 0.0, "bike_id": "2ac9304d90e17810bbe2135b331a9477", "type": "electric_scooter", "name": "2ac9304d90e17810bbe2135b331a9477", "rental_uris": {"android": "https://dc.lft.to/lastmile_qr_scan", "ios": "https://dc.lft.to/lastmile_qr_scan"}, "is_disabled": 0, "fusion_lat": 0.0, "lat": 38.8882495, "is_reserved": 0}, {"lon": -77.02712083333333, "fusion_lon": 0.0, "bike_id": "f9201b3e44acd2a6309c3cc56f9d27ff", "type": "electric_scooter", "name": "f9201b3e44acd2a6309c3cc56f9d27ff", "rental_uris": {"android": "https://dc.lft.to/lastmile_qr_scan", "ios": "https://dc.lft.to/lastmile_qr_scan"}, "is_disabled": 0, "fusion_lat": 0.0, "lat": 38.9155255, "is_reserved": 0}, {"lon": -76.98711433333334, "fusion_lon": 0.0, "bike_id": "edeb75e4278802565d6486333728c249", "type": "electric_scooter", "name": "edeb75e4278802565d6486333728c249", "rental_uris": {"android": "https://dc.lft.to/lastmile_qr_scan", "ios": "https://dc.lft.to/lastmile_qr_scan"}, "is_disabled": 0, "fusion_lat": 0.0, "lat": 38.867034333333336, "is_reserved": 0}, {"lon": -76.94048183333334, "fusion_lon": 0.0, "bike_id": "d4609fd6c7fd94f2d16f727570986c16", "type": "electric_bike", "name": "d4609fd6c7fd94f2d16f727570986c16", "rental_uris": {"android": "https://dc.lft.to/lastmile_qr_scan", "ios": "https://dc.lft.to/lastmile_qr_scan"}, "is_disabled": 0, "fusion_lat": 0.0, "lat": 38.97857966666667, "is_reserved": 0}, {"lon": -76.94635933333333, "fusion_lon": 0.0, "bike_id": "31aac75fd99fbfccc2fb6b799d569f12", "type": "electric_scooter", "name": "31aac75fd99fbfccc2fb6b799d569f12", "rental_uris": {"android": "https://dc.lft.to/lastmile_qr_scan", "ios": "https://dc.lft.to/lastmile_qr_scan"}, "is_disabled": 0, "fusion_lat": 0.0, "lat": 38.8986755, "is_reserved": 0}, {"lon": -77.04851933333333, "fusion_lon": 0.0, "bike_id": "2371e1b97a74ff9982d34101630b580a", "type": "electric_scooter", "name": "2371e1b97a74ff9982d34101630b580a", "rental_uris": {"android": "https://dc.lft.to/lastmile_qr_scan", "ios": "https://dc.lft.to/lastmile_qr_scan"}, "is_disabled": 0, "fusion_lat": 0.0, "lat": 38.91522416666667, "is_reserved": 0}, {"lon": -77.03700633333334, "fusion_lon": 0.0, "bike_id": "50cf35cd0af0c3551b7f07d1cbbeee08", "type": "electric_bike", "name": "50cf35cd0af0c3551b7f07d1cbbeee08", "rental_uris": {"android": "https://dc.lft.to/lastmile_qr_scan", "ios": "https://dc.lft.to/lastmile_qr_scan"}, "is_disabled": 0, "fusion_lat": 0.0, "lat": 38.935567, "is_reserved": 0}, {"lon": -77.035246, "fusion_lon": 0.0, "bike_id": "fefb0d2687416d26f97149d7c0b13e6f", "type": "electric_scooter", "name": "fefb0d2687416d26f97149d7c0b13e6f", "rental_uris": {"android": "https://dc.lft.to/lastmile_qr_scan", "ios": "https://dc.lft.to/lastmile_qr_scan"}, "is_disabled": 0, "fusion_lat": 0.0, "lat": 38.902517, "is_reserved": 0}, {"lon": -76.98334433333333, "fusion_lon": 0.0, "bike_id": "05d815be5590d7cbc2a4846aa7e2425e", "type": "electric_scooter", "name": "05d815be5590d7cbc2a4846aa7e2425e", "rental_uris": {"android": "https://dc.lft.to/lastmile_qr_scan", "ios": "https://dc.lft.to/lastmile_qr_scan"}, "is_disabled": 0, "fusion_lat": 0.0, "lat": 38.865651666666665, "is_reserved": 0}, {"lon": -77.07755433333334, "fusion_lon": 0.0, "bike_id": "4fb1a2cdd7697cdf599d3591e086559e", "type": "electric_scooter", "name": "4fb1a2cdd7697cdf599d3591e086559e", "rental_uris": {"android": "https://dc.lft.to/lastmile_qr_scan", "ios": "https://dc.lft.to/lastmile_qr_scan"}, "is_disabled": 0, "fusion_lat": 0.0, "lat": 38.92001233333333, "is_reserved": 0}, {"lon": -77.03033783333333, "fusion_lon": 0.0, "bike_id": "6d4d1e6c83f1e0e2135975f0a74758f2", "type": "electric_scooter", "name": "6d4d1e6c83f1e0e2135975f0a74758f2", "rental_uris": {"android": "https://dc.lft.to/lastmile_qr_scan", "ios": "https://dc.lft.to/lastmile_qr_scan"}, "is_disabled": 0, "fusion_lat": 0.0, "lat": 38.922408, "is_reserved": 0}, {"lon": -77.0118375, "fusion_lon": 0.0, "bike_id": "55b5b37e7dea1d358cc327ddde90acc4", "type": "electric_scooter", "name": "55b5b37e7dea1d358cc327ddde90acc4", "rental_uris": {"android": "https://dc.lft.to/lastmile_qr_scan", "ios": "https://dc.lft.to/lastmile_qr_scan"}, "is_disabled": 0, "fusion_lat": 0.0, "lat": 38.900338166666664, "is_reserved": 0}, {"lon": -77.03183866666667, "fusion_lon": 0.0, "bike_id": "1098a6a804cf41c6371e468b8f7548e0", "type": "electric_scooter", "name": "1098a6a804cf41c6371e468b8f7548e0", "rental_uris": {"android": "https://dc.lft.to/lastmile_qr_scan", "ios": "https://dc.lft.to/lastmile_qr_scan"}, "is_disabled": 0, "fusion_lat": 0.0, "lat": 38.91964516666667, "is_reserved": 0}, {"lon": -77.03904616666667, "fusion_lon": 0.0, "bike_id": "dbc6cb12e4208feef8de56fb36987d31", "type": "electric_scooter", "name": "dbc6cb12e4208feef8de56fb36987d31", "rental_uris": {"android": "https://dc.lft.to/lastmile_qr_scan", "ios": "https://dc.lft.to/lastmile_qr_scan"}, "is_disabled": 0, "fusion_lat": 0.0, "lat": 38.922192, "is_reserved": 0}, {"lon": -77.0236755, "fusion_lon": 0.0, "bike_id": "a88c605816c44908f44f756f5ca09c38", "type": "electric_scooter", "name": "a88c605816c44908f44f756f5ca09c38", "rental_uris": {"android": "https://dc.lft.to/lastmile_qr_scan", "ios": "https://dc.lft.to/lastmile_qr_scan"}, "is_disabled": 0, "fusion_lat": 0.0, "lat": 38.916968, "is_reserved": 0}, {"lon": -77.05727533333334, "fusion_lon": 0.0, "bike_id": "9367d352d9a6f3b1e4cbe4f0decc612f", "type": "electric_scooter", "name": "9367d352d9a6f3b1e4cbe4f0decc612f", "rental_uris": {"android": "https://dc.lft.to/lastmile_qr_scan", "ios": "https://dc.lft.to/lastmile_qr_scan"}, "is_disabled": 0, "fusion_lat": 0.0, "lat": 38.933715, "is_reserved": 0}, {"lon": -77.00204133333334, "fusion_lon": 0.0, "bike_id": "e8d3efeb08fceedd1a79e5cff4dbe94d", "type": "electric_scooter", "name": "e8d3efeb08fceedd1a79e5cff4dbe94d", "rental_uris": {"android": "https://dc.lft.to/lastmile_qr_scan", "ios": "https://dc.lft.to/lastmile_qr_scan"}, "is_disabled": 0, "fusion_lat": 0.0, "lat": 38.9655915, "is_reserved": 0}, {"lon": -77.02229316666667, "fusion_lon": 0.0, "bike_id": "ce601eeb0066cec33a98b2e99746788e", "type": "electric_scooter", "name": "ce601eeb0066cec33a98b2e99746788e", "rental_uris": {"android": "https://dc.lft.to/lastmile_qr_scan", "ios": "https://dc.lft.to/lastmile_qr_scan"}, "is_disabled": 0, "fusion_lat": 0.0, "lat": 38.9126865, "is_reserved": 0}, {"lon": -77.02297733333333, "fusion_lon": 0.0, "bike_id": "0d93221bae604a683432765c8282c462", "type": "electric_scooter", "name": "0d93221bae604a683432765c8282c462", "rental_uris": {"android": "https://dc.lft.to/lastmile_qr_scan", "ios": "https://dc.lft.to/lastmile_qr_scan"}, "is_disabled": 0, "fusion_lat": 0.0, "lat": 38.915867666666664, "is_reserved": 0}, {"lon": -76.98357733333333, "fusion_lon": 0.0, "bike_id": "cf6e0526eb80a6c3d66f56ff5610d238", "type": "electric_scooter", "name": "cf6e0526eb80a6c3d66f56ff5610d238", "rental_uris": {"android": "https://dc.lft.to/lastmile_qr_scan", "ios": "https://dc.lft.to/lastmile_qr_scan"}, "is_disabled": 0, "fusion_lat": 0.0, "lat": 38.894399, "is_reserved": 0}, {"lon": -77.026931, "fusion_lon": 0.0, "bike_id": "06a663b4c3abd9e6ad4e95e5f8d0861d", "type": "electric_scooter", "name": "06a663b4c3abd9e6ad4e95e5f8d0861d", "rental_uris": {"android": "https://dc.lft.to/lastmile_qr_scan", "ios": "https://dc.lft.to/lastmile_qr_scan"}, "is_disabled": 0, "fusion_lat": 0.0, "lat": 38.90708266666667, "is_reserved": 0}, {"lon": -77.04483833333333, "fusion_lon": 0.0, "bike_id": "fe9eb67c0bc7186a7be652d809dbc9bd", "type": "electric_scooter", "name": "fe9eb67c0bc7186a7be652d809dbc9bd", "rental_uris": {"android": "https://dc.lft.to/lastmile_qr_scan", "ios": "https://dc.lft.to/lastmile_qr_scan"}, "is_disabled": 0, "fusion_lat": 0.0, "lat": 38.900147, "is_reserved": 0}, {"lon": -77.0177435, "fusion_lon": 0.0, "bike_id": "10db809d3705792224acebe083a51a5f", "type": "electric_scooter", "name": "10db809d3705792224acebe083a51a5f", "rental_uris": {"android": "https://dc.lft.to/lastmile_qr_scan", "ios": "https://dc.lft.to/lastmile_qr_scan"}, "is_disabled": 0, "fusion_lat": 0.0, "lat": 38.90237333333334, "is_reserved": 0}, {"lon": -77.0269375, "fusion_lon": 0.0, "bike_id": "e321689269107375f01906cb7e2742c0", "type": "electric_scooter", "name": "e321689269107375f01906cb7e2742c0", "rental_uris": {"android": "https://dc.lft.to/lastmile_qr_scan", "ios": "https://dc.lft.to/lastmile_qr_scan"}, "is_disabled": 0, "fusion_lat": 0.0, "lat": 38.894574666666664, "is_reserved": 0}, {"lon": -77.00346566666667, "fusion_lon": 0.0, "bike_id": "1f0259e931d9e9bf8f9f31b29c14aff2", "type": "electric_scooter", "name": "1f0259e931d9e9bf8f9f31b29c14aff2", "rental_uris": {"android": "https://dc.lft.to/lastmile_qr_scan", "ios": "https://dc.lft.to/lastmile_qr_scan"}, "is_disabled": 0, "fusion_lat": 0.0, "lat": 38.887361, "is_reserved": 0}, {"lon": -77.038603, "fusion_lon": 0.0, "bike_id": "12521cec45359d00ddf158833c2c4c6b", "type": "electric_scooter", "name": "12521cec45359d00ddf158833c2c4c6b", "rental_uris": {"android": "https://dc.lft.to/lastmile_qr_scan", "ios": "https://dc.lft.to/lastmile_qr_scan"}, "is_disabled": 0, "fusion_lat": 0.0, "lat": 38.91717, "is_reserved": 0}, {"lon": -77.00579166666667, "fusion_lon": 0.0, "bike_id": "441b2d5b19b7aa2d775b7dbd6bc8736a", "type": "electric_scooter", "name": "441b2d5b19b7aa2d775b7dbd6bc8736a", "rental_uris": {"android": "https://dc.lft.to/lastmile_qr_scan", "ios": "https://dc.lft.to/lastmile_qr_scan"}, "is_disabled": 0, "fusion_lat": 0.0, "lat": 38.905750166666664, "is_reserved": 0}, {"lon": -77.07253216666666, "fusion_lon": 0.0, "bike_id": "3a36451e73e7868f083ec3936758a328", "type": "electric_scooter", "name": "3a36451e73e7868f083ec3936758a328", "rental_uris": {"android": "https://dc.lft.to/lastmile_qr_scan", "ios": "https://dc.lft.to/lastmile_qr_scan"}, "is_disabled": 0, "fusion_lat": 0.0, "lat": 38.933757, "is_reserved": 0}, {"lon": -76.98960733333334, "fusion_lon": 0.0, "bike_id": "d82e9d931611d0b57e994062e5b626c1", "type": "electric_bike", "name": "d82e9d931611d0b57e994062e5b626c1", "rental_uris": {"android": "https://dc.lft.to/lastmile_qr_scan", "ios": "https://dc.lft.to/lastmile_qr_scan"}, "is_disabled": 0, "fusion_lat": 0.0, "lat": 38.89903283333334, "is_reserved": 0}, {"lon": -77.0079795, "fusion_lon": 0.0, "bike_id": "096583971dbe4c3da0c5d55259975dbb", "type": "electric_bike", "name": "096583971dbe4c3da0c5d55259975dbb", "rental_uris": {"android": "https://dc.lft.to/lastmile_qr_scan", "ios": "https://dc.lft.to/lastmile_qr_scan"}, "is_disabled": 0, "fusion_lat": 0.0, "lat": 38.949244166666666, "is_reserved": 0}, {"lon": -77.00585733333334, "fusion_lon": 0.0, "bike_id": "58ef4259dcc0fcac13253ed4073e7d69", "type": "electric_scooter", "name": "58ef4259dcc0fcac13253ed4073e7d69", "rental_uris": {"android": "https://dc.lft.to/lastmile_qr_scan", "ios": "https://dc.lft.to/lastmile_qr_scan"}, "is_disabled": 0, "fusion_lat": 0.0, "lat": 38.87654533333333, "is_reserved": 0}, {"lon": -77.05917083333334, "fusion_lon": 0.0, "bike_id": "5ad64556af7f6841606321a57d3810a1", "type": "electric_scooter", "name": "5ad64556af7f6841606321a57d3810a1", "rental_uris": {"android": "https://dc.lft.to/lastmile_qr_scan", "ios": "https://dc.lft.to/lastmile_qr_scan"}, "is_disabled": 0, "fusion_lat": 0.0, "lat": 38.90272366666667, "is_reserved": 0}, {"lon": -77.02839666666667, "fusion_lon": 0.0, "bike_id": "50db07998b01a4b2a0090349c87ade56", "type": "electric_scooter", "name": "50db07998b01a4b2a0090349c87ade56", "rental_uris": {"android": "https://dc.lft.to/lastmile_qr_scan", "ios": "https://dc.lft.to/lastmile_qr_scan"}, "is_disabled": 0, "fusion_lat": 0.0, "lat": 38.89376266666667, "is_reserved": 0}, {"lon": -77.01461683333333, "fusion_lon": 0.0, "bike_id": "5fc1619caf5467e68193a7a32df9004d", "type": "electric_scooter", "name": "5fc1619caf5467e68193a7a32df9004d", "rental_uris": {"android": "https://dc.lft.to/lastmile_qr_scan", "ios": "https://dc.lft.to/lastmile_qr_scan"}, "is_disabled": 0, "fusion_lat": 0.0, "lat": 38.91590433333333, "is_reserved": 0}, {"lon": -77.0019275, "fusion_lon": 0.0, "bike_id": "e0719b037c91022cad971f5c3e0fc4d7", "type": "electric_scooter", "name": "e0719b037c91022cad971f5c3e0fc4d7", "rental_uris": {"android": "https://dc.lft.to/lastmile_qr_scan", "ios": "https://dc.lft.to/lastmile_qr_scan"}, "is_disabled": 0, "fusion_lat": 0.0, "lat": 38.9023995, "is_reserved": 0}, {"lon": -76.99818266666666, "fusion_lon": 0.0, "bike_id": "adfa1e103c5c52c155b60d6796bd4878", "type": "electric_bike", "name": "adfa1e103c5c52c155b60d6796bd4878", "rental_uris": {"android": "https://dc.lft.to/lastmile_qr_scan", "ios": "https://dc.lft.to/lastmile_qr_scan"}, "is_disabled": 0, "fusion_lat": 0.0, "lat": 38.92401533333334, "is_reserved": 0}, {"lon": -77.02226516666667, "fusion_lon": 0.0, "bike_id": "d2b141d240cb64fa9e0045b038e15c07", "type": "electric_scooter", "name": "d2b141d240cb64fa9e0045b038e15c07", "rental_uris": {"android": "https://dc.lft.to/lastmile_qr_scan", "ios": "https://dc.lft.to/lastmile_qr_scan"}, "is_disabled": 0, "fusion_lat": 0.0, "lat": 38.89221033333333, "is_reserved": 0}, {"lon": -77.03922616666667, "fusion_lon": 0.0, "bike_id": "bd439dc0dbbe6e90a300193885438574", "type": "electric_scooter", "name": "bd439dc0dbbe6e90a300193885438574", "rental_uris": {"android": "https://dc.lft.to/lastmile_qr_scan", "ios": "https://dc.lft.to/lastmile_qr_scan"}, "is_disabled": 0, "fusion_lat": 0.0, "lat": 38.91269233333333, "is_reserved": 0}, {"lon": -77.03829933333333, "fusion_lon": 0.0, "bike_id": "8e45b39a0458c23ff3ca63ad0eb469f7", "type": "electric_scooter", "name": "8e45b39a0458c23ff3ca63ad0eb469f7", "rental_uris": {"android": "https://dc.lft.to/lastmile_qr_scan", "ios": "https://dc.lft.to/lastmile_qr_scan"}, "is_disabled": 0, "fusion_lat": 0.0, "lat": 38.941954833333334, "is_reserved": 0}, {"lon": -76.99977233333334, "fusion_lon": 0.0, "bike_id": "4bfb646914153f692c39cac6643e97f7", "type": "electric_scooter", "name": "4bfb646914153f692c39cac6643e97f7", "rental_uris": {"android": "https://dc.lft.to/lastmile_qr_scan", "ios": "https://dc.lft.to/lastmile_qr_scan"}, "is_disabled": 0, "fusion_lat": 0.0, "lat": 38.906916333333335, "is_reserved": 0}, {"lon": -77.0345095, "fusion_lon": 0.0, "bike_id": "e637cb4beadb4fcfa0d54626f9cdb5c2", "type": "electric_scooter", "name": "e637cb4beadb4fcfa0d54626f9cdb5c2", "rental_uris": {"android": "https://dc.lft.to/lastmile_qr_scan", "ios": "https://dc.lft.to/lastmile_qr_scan"}, "is_disabled": 0, "fusion_lat": 0.0, "lat": 38.92155316666667, "is_reserved": 0}, {"lon": -77.0470925, "fusion_lon": 0.0, "bike_id": "3abbcff743d0892d5a5f6d1b6cd6e331", "type": "electric_scooter", "name": "3abbcff743d0892d5a5f6d1b6cd6e331", "rental_uris": {"android": "https://dc.lft.to/lastmile_qr_scan", "ios": "https://dc.lft.to/lastmile_qr_scan"}, "is_disabled": 0, "fusion_lat": 0.0, "lat": 38.9219345, "is_reserved": 0}, {"lon": -77.029763, "fusion_lon": 0.0, "bike_id": "9068de111d8e4c46843e0cb8321b2416", "type": "electric_scooter", "name": "9068de111d8e4c46843e0cb8321b2416", "rental_uris": {"android": "https://dc.lft.to/lastmile_qr_scan", "ios": "https://dc.lft.to/lastmile_qr_scan"}, "is_disabled": 0, "fusion_lat": 0.0, "lat": 38.89038583333333, "is_reserved": 0}, {"lon": -76.99777566666667, "fusion_lon": 0.0, "bike_id": "f17daa37972b6e3f4bf184b215c3de10", "type": "electric_scooter", "name": "f17daa37972b6e3f4bf184b215c3de10", "rental_uris": {"android": "https://dc.lft.to/lastmile_qr_scan", "ios": "https://dc.lft.to/lastmile_qr_scan"}, "is_disabled": 0, "fusion_lat": 0.0, "lat": 38.84439233333333, "is_reserved": 0}, {"lon": -77.0036205, "fusion_lon": 0.0, "bike_id": "bd0ffb61c2500b323d005aeeb45d9ab9", "type": "electric_scooter", "name": "bd0ffb61c2500b323d005aeeb45d9ab9", "rental_uris": {"android": "https://dc.lft.to/lastmile_qr_scan", "ios": "https://dc.lft.to/lastmile_qr_scan"}, "is_disabled": 0, "fusion_lat": 0.0, "lat": 38.899112333333335, "is_reserved": 0}, {"lon": -77.06310783333333, "fusion_lon": 0.0, "bike_id": "c7c78c783c31f7b336be76bd417acc42", "type": "electric_bike", "name": "c7c78c783c31f7b336be76bd417acc42", "rental_uris": {"android": "https://dc.lft.to/lastmile_qr_scan", "ios": "https://dc.lft.to/lastmile_qr_scan"}, "is_disabled": 0, "fusion_lat": 0.0, "lat": 38.798561666666664, "is_reserved": 0}, {"lon": -77.0258505, "fusion_lon": 0.0, "bike_id": "2263a72fc8b60bc68cd0e14cab7d02d3", "type": "electric_scooter", "name": "2263a72fc8b60bc68cd0e14cab7d02d3", "rental_uris": {"android": "https://dc.lft.to/lastmile_qr_scan", "ios": "https://dc.lft.to/lastmile_qr_scan"}, "is_disabled": 0, "fusion_lat": 0.0, "lat": 38.9203445, "is_reserved": 0}, {"lon": -76.9888835, "fusion_lon": 0.0, "bike_id": "db9c1b6a84e252d81fd8e6ed13aebbe3", "type": "electric_scooter", "name": "db9c1b6a84e252d81fd8e6ed13aebbe3", "rental_uris": {"android": "https://dc.lft.to/lastmile_qr_scan", "ios": "https://dc.lft.to/lastmile_qr_scan"}, "is_disabled": 0, "fusion_lat": 0.0, "lat": 38.866656666666664, "is_reserved": 0}, {"lon": -77.04185766666667, "fusion_lon": 0.0, "bike_id": "1cbb664d055ebc6c802bfc82f379d169", "type": "electric_scooter", "name": "1cbb664d055ebc6c802bfc82f379d169", "rental_uris": {"android": "https://dc.lft.to/lastmile_qr_scan", "ios": "https://dc.lft.to/lastmile_qr_scan"}, "is_disabled": 0, "fusion_lat": 0.0, "lat": 38.9203595, "is_reserved": 0}, {"lon": -77.041821, "fusion_lon": 0.0, "bike_id": "7ff262f80f26c246d71c9b7db00c05c8", "type": "electric_scooter", "name": "7ff262f80f26c246d71c9b7db00c05c8", "rental_uris": {"android": "https://dc.lft.to/lastmile_qr_scan", "ios": "https://dc.lft.to/lastmile_qr_scan"}, "is_disabled": 0, "fusion_lat": 0.0, "lat": 38.92040983333333, "is_reserved": 0}, {"lon": -77.0787465, "fusion_lon": 0.0, "bike_id": "5492db97e206ec92dfb1b2dbd9c4382f", "type": "electric_scooter", "name": "5492db97e206ec92dfb1b2dbd9c4382f", "rental_uris": {"android": "https://dc.lft.to/lastmile_qr_scan", "ios": "https://dc.lft.to/lastmile_qr_scan"}, "is_disabled": 0, "fusion_lat": 0.0, "lat": 38.93146566666667, "is_reserved": 0}, {"lon": -77.03831083333333, "fusion_lon": 0.0, "bike_id": "ddbccf463fd5b9373b027e9c77b67cd7", "type": "electric_scooter", "name": "ddbccf463fd5b9373b027e9c77b67cd7", "rental_uris": {"android": "https://dc.lft.to/lastmile_qr_scan", "ios": "https://dc.lft.to/lastmile_qr_scan"}, "is_disabled": 0, "fusion_lat": 0.0, "lat": 38.914114166666664, "is_reserved": 0}, {"lon": -76.96538683333333, "fusion_lon": 0.0, "bike_id": "3f09a22715d837e6f83529f42c800c6d", "type": "electric_bike", "name": "3f09a22715d837e6f83529f42c800c6d", "rental_uris": {"android": "https://dc.lft.to/lastmile_qr_scan", "ios": "https://dc.lft.to/lastmile_qr_scan"}, "is_disabled": 0, "fusion_lat": 0.0, "lat": 38.874799, "is_reserved": 0}, {"lon": -77.00978883333333, "fusion_lon": 0.0, "bike_id": "ba2a76d84b7ba710f5edb061b7e3b22d", "type": "electric_scooter", "name": "ba2a76d84b7ba710f5edb061b7e3b22d", "rental_uris": {"android": "https://dc.lft.to/lastmile_qr_scan", "ios": "https://dc.lft.to/lastmile_qr_scan"}, "is_disabled": 0, "fusion_lat": 0.0, "lat": 38.919261, "is_reserved": 0}, {"lon": -77.017756, "fusion_lon": 0.0, "bike_id": "72088cbdb5f214f6bcd125b3d552581d", "type": "electric_scooter", "name": "72088cbdb5f214f6bcd125b3d552581d", "rental_uris": {"android": "https://dc.lft.to/lastmile_qr_scan", "ios": "https://dc.lft.to/lastmile_qr_scan"}, "is_disabled": 0, "fusion_lat": 0.0, "lat": 38.87760183333333, "is_reserved": 0}, {"lon": -77.01442466666667, "fusion_lon": 0.0, "bike_id": "353836db90c3094f2e6cdb438a2c4d77", "type": "electric_scooter", "name": "353836db90c3094f2e6cdb438a2c4d77", "rental_uris": {"android": "https://dc.lft.to/lastmile_qr_scan", "ios": "https://dc.lft.to/lastmile_qr_scan"}, "is_disabled": 0, "fusion_lat": 0.0, "lat": 38.94226066666667, "is_reserved": 0}, {"lon": -77.02298533333334, "fusion_lon": 0.0, "bike_id": "60924a13cbf30e450b35be73a8609815", "type": "electric_scooter", "name": "60924a13cbf30e450b35be73a8609815", "rental_uris": {"android": "https://dc.lft.to/lastmile_qr_scan", "ios": "https://dc.lft.to/lastmile_qr_scan"}, "is_disabled": 0, "fusion_lat": 0.0, "lat": 38.89511, "is_reserved": 0}, {"lon": -77.0502595, "fusion_lon": 0.0, "bike_id": "b98ea62bf9422e5c4d75cab041c59816", "type": "electric_scooter", "name": "b98ea62bf9422e5c4d75cab041c59816", "rental_uris": {"android": "https://dc.lft.to/lastmile_qr_scan", "ios": "https://dc.lft.to/lastmile_qr_scan"}, "is_disabled": 0, "fusion_lat": 0.0, "lat": 38.89784083333333, "is_reserved": 0}, {"lon": -77.02827033333334, "fusion_lon": 0.0, "bike_id": "ace3d279c590bfb8a1f78d4975880aa1", "type": "electric_scooter", "name": "ace3d279c590bfb8a1f78d4975880aa1", "rental_uris": {"android": "https://dc.lft.to/lastmile_qr_scan", "ios": "https://dc.lft.to/lastmile_qr_scan"}, "is_disabled": 0, "fusion_lat": 0.0, "lat": 38.89925366666667, "is_reserved": 0}, {"lon": -77.0230295, "fusion_lon": 0.0, "bike_id": "173de8bcc68f0c270bc8f09d89d7f399", "type": "electric_scooter", "name": "173de8bcc68f0c270bc8f09d89d7f399", "rental_uris": {"android": "https://dc.lft.to/lastmile_qr_scan", "ios": "https://dc.lft.to/lastmile_qr_scan"}, "is_disabled": 0, "fusion_lat": 0.0, "lat": 38.91789716666667, "is_reserved": 0}, {"lon": -77.05740733333333, "fusion_lon": 0.0, "bike_id": "e694fc0e0004c019e1a90e427fa6626c", "type": "electric_scooter", "name": "e694fc0e0004c019e1a90e427fa6626c", "rental_uris": {"android": "https://dc.lft.to/lastmile_qr_scan", "ios": "https://dc.lft.to/lastmile_qr_scan"}, "is_disabled": 0, "fusion_lat": 0.0, "lat": 38.9339035, "is_reserved": 0}, {"lon": -77.032467, "fusion_lon": 0.0, "bike_id": "678a9d272344539e18d05ab67f815aab", "type": "electric_scooter", "name": "678a9d272344539e18d05ab67f815aab", "rental_uris": {"android": "https://dc.lft.to/lastmile_qr_scan", "ios": "https://dc.lft.to/lastmile_qr_scan"}, "is_disabled": 0, "fusion_lat": 0.0, "lat": 38.923838, "is_reserved": 0}, {"lon": -77.02479283333334, "fusion_lon": 0.0, "bike_id": "aa04eb39ef9661b907e2a904bc368549", "type": "electric_scooter", "name": "aa04eb39ef9661b907e2a904bc368549", "rental_uris": {"android": "https://dc.lft.to/lastmile_qr_scan", "ios": "https://dc.lft.to/lastmile_qr_scan"}, "is_disabled": 0, "fusion_lat": 0.0, "lat": 38.931031833333336, "is_reserved": 0}, {"lon": -77.05470383333333, "fusion_lon": 0.0, "bike_id": "98927dad4f3be5392e61b379a522512e", "type": "electric_scooter", "name": "98927dad4f3be5392e61b379a522512e", "rental_uris": {"android": "https://dc.lft.to/lastmile_qr_scan", "ios": "https://dc.lft.to/lastmile_qr_scan"}, "is_disabled": 0, "fusion_lat": 0.0, "lat": 38.8973425, "is_reserved": 0}, {"lon": -76.9855935, "fusion_lon": 0.0, "bike_id": "d8e39d132e04edb9895f64d004ac9906", "type": "electric_scooter", "name": "d8e39d132e04edb9895f64d004ac9906", "rental_uris": {"android": "https://dc.lft.to/lastmile_qr_scan", "ios": "https://dc.lft.to/lastmile_qr_scan"}, "is_disabled": 0, "fusion_lat": 0.0, "lat": 38.883517499999996, "is_reserved": 0}, {"lon": -77.0043955, "fusion_lon": 0.0, "bike_id": "787ae6df9a4295e972ef767a4204d88e", "type": "electric_scooter", "name": "787ae6df9a4295e972ef767a4204d88e", "rental_uris": {"android": "https://dc.lft.to/lastmile_qr_scan", "ios": "https://dc.lft.to/lastmile_qr_scan"}, "is_disabled": 0, "fusion_lat": 0.0, "lat": 38.876632666666666, "is_reserved": 0}, {"lon": -77.01854533333334, "fusion_lon": 0.0, "bike_id": "7c8e362fff25d6a63e3d809475187356", "type": "electric_scooter", "name": "7c8e362fff25d6a63e3d809475187356", "rental_uris": {"android": "https://dc.lft.to/lastmile_qr_scan", "ios": "https://dc.lft.to/lastmile_qr_scan"}, "is_disabled": 0, "fusion_lat": 0.0, "lat": 38.899798, "is_reserved": 0}, {"lon": -76.99779133333334, "fusion_lon": 0.0, "bike_id": "f95ad991c959782e2ee972225387a960", "type": "electric_scooter", "name": "f95ad991c959782e2ee972225387a960", "rental_uris": {"android": "https://dc.lft.to/lastmile_qr_scan", "ios": "https://dc.lft.to/lastmile_qr_scan"}, "is_disabled": 0, "fusion_lat": 0.0, "lat": 38.84441416666667, "is_reserved": 0}, {"lon": -77.02474533333333, "fusion_lon": 0.0, "bike_id": "75aefef66482811b6096c0df8a42b170", "type": "electric_scooter", "name": "75aefef66482811b6096c0df8a42b170", "rental_uris": {"android": "https://dc.lft.to/lastmile_qr_scan", "ios": "https://dc.lft.to/lastmile_qr_scan"}, "is_disabled": 0, "fusion_lat": 0.0, "lat": 38.9310045, "is_reserved": 0}, {"lon": -77.04655766666667, "fusion_lon": 0.0, "bike_id": "7142dd18c1a1a3371f89926f0a3540f7", "type": "electric_scooter", "name": "7142dd18c1a1a3371f89926f0a3540f7", "rental_uris": {"android": "https://dc.lft.to/lastmile_qr_scan", "ios": "https://dc.lft.to/lastmile_qr_scan"}, "is_disabled": 0, "fusion_lat": 0.0, "lat": 38.89882466666667, "is_reserved": 0}, {"lon": -77.06950783333333, "fusion_lon": 0.0, "bike_id": "7c9e00cb7e015a3d248d7113e31f1150", "type": "electric_bike", "name": "7c9e00cb7e015a3d248d7113e31f1150", "rental_uris": {"android": "https://dc.lft.to/lastmile_qr_scan", "ios": "https://dc.lft.to/lastmile_qr_scan"}, "is_disabled": 0, "fusion_lat": 0.0, "lat": 38.995365166666666, "is_reserved": 0}, {"lon": -77.0271235, "fusion_lon": 0.0, "bike_id": "e75000a69f4484d269f48f277c46a2a9", "type": "electric_scooter", "name": "e75000a69f4484d269f48f277c46a2a9", "rental_uris": {"android": "https://dc.lft.to/lastmile_qr_scan", "ios": "https://dc.lft.to/lastmile_qr_scan"}, "is_disabled": 0, "fusion_lat": 0.0, "lat": 38.917207, "is_reserved": 0}, {"lon": -77.04161516666667, "fusion_lon": 0.0, "bike_id": "0e77c6e0c1b73117c261eff6b80e91bb", "type": "electric_scooter", "name": "0e77c6e0c1b73117c261eff6b80e91bb", "rental_uris": {"android": "https://dc.lft.to/lastmile_qr_scan", "ios": "https://dc.lft.to/lastmile_qr_scan"}, "is_disabled": 0, "fusion_lat": 0.0, "lat": 38.918968, "is_reserved": 0}, {"lon": -77.000681, "fusion_lon": 0.0, "bike_id": "37b9b9d49566670fd704538e26fdcd01", "type": "electric_scooter", "name": "37b9b9d49566670fd704538e26fdcd01", "rental_uris": {"android": "https://dc.lft.to/lastmile_qr_scan", "ios": "https://dc.lft.to/lastmile_qr_scan"}, "is_disabled": 0, "fusion_lat": 0.0, "lat": 38.838922833333335, "is_reserved": 0}, {"lon": -77.02075483333333, "fusion_lon": 0.0, "bike_id": "7ed4abb99667d3821c3d2f013b79e5cf", "type": "electric_scooter", "name": "7ed4abb99667d3821c3d2f013b79e5cf", "rental_uris": {"android": "https://dc.lft.to/lastmile_qr_scan", "ios": "https://dc.lft.to/lastmile_qr_scan"}, "is_disabled": 0, "fusion_lat": 0.0, "lat": 38.93646283333333, "is_reserved": 0}, {"lon": -77.0297215, "fusion_lon": 0.0, "bike_id": "6db4f8c6e02dce8bdc868988a911ddd5", "type": "electric_scooter", "name": "6db4f8c6e02dce8bdc868988a911ddd5", "rental_uris": {"android": "https://dc.lft.to/lastmile_qr_scan", "ios": "https://dc.lft.to/lastmile_qr_scan"}, "is_disabled": 0, "fusion_lat": 0.0, "lat": 38.917814166666666, "is_reserved": 0}, {"lon": -76.93400616666666, "fusion_lon": 0.0, "bike_id": "861680ffbc0644079c811108aab299d9", "type": "electric_scooter", "name": "861680ffbc0644079c811108aab299d9", "rental_uris": {"android": "https://dc.lft.to/lastmile_qr_scan", "ios": "https://dc.lft.to/lastmile_qr_scan"}, "is_disabled": 0, "fusion_lat": 0.0, "lat": 38.89891383333333, "is_reserved": 0}, {"lon": -76.9877385, "fusion_lon": 0.0, "bike_id": "f3470117117b2bb52a0abe94b473bb95", "type": "electric_scooter", "name": "f3470117117b2bb52a0abe94b473bb95", "rental_uris": {"android": "https://dc.lft.to/lastmile_qr_scan", "ios": "https://dc.lft.to/lastmile_qr_scan"}, "is_disabled": 0, "fusion_lat": 0.0, "lat": 38.90018416666667, "is_reserved": 0}, {"lon": -77.03433433333333, "fusion_lon": 0.0, "bike_id": "7f778e430da489e5e513c86b025ea824", "type": "electric_scooter", "name": "7f778e430da489e5e513c86b025ea824", "rental_uris": {"android": "https://dc.lft.to/lastmile_qr_scan", "ios": "https://dc.lft.to/lastmile_qr_scan"}, "is_disabled": 0, "fusion_lat": 0.0, "lat": 38.903706166666666, "is_reserved": 0}, {"lon": -77.00291866666667, "fusion_lon": 0.0, "bike_id": "85cfb94f636ab1ee7ffa28cb3d723e44", "type": "electric_scooter", "name": "85cfb94f636ab1ee7ffa28cb3d723e44", "rental_uris": {"android": "https://dc.lft.to/lastmile_qr_scan", "ios": "https://dc.lft.to/lastmile_qr_scan"}, "is_disabled": 0, "fusion_lat": 0.0, "lat": 38.91817616666667, "is_reserved": 0}, {"lon": -77.02095183333333, "fusion_lon": 0.0, "bike_id": "7015c42ffc36aee10857fcf2bc151f46", "type": "electric_scooter", "name": "7015c42ffc36aee10857fcf2bc151f46", "rental_uris": {"android": "https://dc.lft.to/lastmile_qr_scan", "ios": "https://dc.lft.to/lastmile_qr_scan"}, "is_disabled": 0, "fusion_lat": 0.0, "lat": 38.8850295, "is_reserved": 0}, {"lon": -77.00240066666667, "fusion_lon": 0.0, "bike_id": "ba833ebe397c90a0952929ca8e044dd5", "type": "electric_scooter", "name": "ba833ebe397c90a0952929ca8e044dd5", "rental_uris": {"android": "https://dc.lft.to/lastmile_qr_scan", "ios": "https://dc.lft.to/lastmile_qr_scan"}, "is_disabled": 0, "fusion_lat": 0.0, "lat": 38.875013333333335, "is_reserved": 0}, {"lon": -76.98718916666667, "fusion_lon": 0.0, "bike_id": "b5380531e0b5eefd4ed15efe50ee682a", "type": "electric_scooter", "name": "b5380531e0b5eefd4ed15efe50ee682a", "rental_uris": {"android": "https://dc.lft.to/lastmile_qr_scan", "ios": "https://dc.lft.to/lastmile_qr_scan"}, "is_disabled": 0, "fusion_lat": 0.0, "lat": 38.866284, "is_reserved": 0}, {"lon": -76.99579733333333, "fusion_lon": 0.0, "bike_id": "baf65cafe46da89fab130355ade0fb07", "type": "electric_scooter", "name": "baf65cafe46da89fab130355ade0fb07", "rental_uris": {"android": "https://dc.lft.to/lastmile_qr_scan", "ios": "https://dc.lft.to/lastmile_qr_scan"}, "is_disabled": 0, "fusion_lat": 0.0, "lat": 38.85177566666667, "is_reserved": 0}, {"lon": -77.06069233333334, "fusion_lon": 0.0, "bike_id": "fd0646ee8f5aa8843b19b813fdb1d718", "type": "electric_scooter", "name": "fd0646ee8f5aa8843b19b813fdb1d718", "rental_uris": {"android": "https://dc.lft.to/lastmile_qr_scan", "ios": "https://dc.lft.to/lastmile_qr_scan"}, "is_disabled": 0, "fusion_lat": 0.0, "lat": 38.90683116666666, "is_reserved": 0}, {"lon": -77.03197833333333, "fusion_lon": 0.0, "bike_id": "b560f9c2f52535906cd330b2e6e1ee62", "type": "electric_scooter", "name": "b560f9c2f52535906cd330b2e6e1ee62", "rental_uris": {"android": "https://dc.lft.to/lastmile_qr_scan", "ios": "https://dc.lft.to/lastmile_qr_scan"}, "is_disabled": 0, "fusion_lat": 0.0, "lat": 38.91617333333333, "is_reserved": 0}, {"lon": -77.02175133333333, "fusion_lon": 0.0, "bike_id": "c92dc9f75a98ab309a2670054dbcbfea", "type": "electric_scooter", "name": "c92dc9f75a98ab309a2670054dbcbfea", "rental_uris": {"android": "https://dc.lft.to/lastmile_qr_scan", "ios": "https://dc.lft.to/lastmile_qr_scan"}, "is_disabled": 0, "fusion_lat": 0.0, "lat": 38.90572683333333, "is_reserved": 0}, {"lon": -77.10684333333333, "fusion_lon": 0.0, "bike_id": "8d8039e9357ddfba4b79d89a228d2383", "type": "electric_bike", "name": "8d8039e9357ddfba4b79d89a228d2383", "rental_uris": {"android": "https://dc.lft.to/lastmile_qr_scan", "ios": "https://dc.lft.to/lastmile_qr_scan"}, "is_disabled": 0, "fusion_lat": 0.0, "lat": 38.86450466666667, "is_reserved": 0}, {"lon": -77.03187833333334, "fusion_lon": 0.0, "bike_id": "d8db836b29ac1bfeb1b0c446da213650", "type": "electric_scooter", "name": "d8db836b29ac1bfeb1b0c446da213650", "rental_uris": {"android": "https://dc.lft.to/lastmile_qr_scan", "ios": "https://dc.lft.to/lastmile_qr_scan"}, "is_disabled": 0, "fusion_lat": 0.0, "lat": 38.90437033333333, "is_reserved": 0}, {"lon": -77.026258, "fusion_lon": 0.0, "bike_id": "4fcd41a64cba70e64cae67e1c68882a3", "type": "electric_scooter", "name": "4fcd41a64cba70e64cae67e1c68882a3", "rental_uris": {"android": "https://dc.lft.to/lastmile_qr_scan", "ios": "https://dc.lft.to/lastmile_qr_scan"}, "is_disabled": 0, "fusion_lat": 0.0, "lat": 38.89842983333333, "is_reserved": 0}, {"lon": -77.05149116666666, "fusion_lon": 0.0, "bike_id": "25e02845b8bd5f8bf8605d57865cd2e7", "type": "electric_scooter", "name": "25e02845b8bd5f8bf8605d57865cd2e7", "rental_uris": {"android": "https://dc.lft.to/lastmile_qr_scan", "ios": "https://dc.lft.to/lastmile_qr_scan"}, "is_disabled": 0, "fusion_lat": 0.0, "lat": 38.923748, "is_reserved": 0}, {"lon": -77.05729666666667, "fusion_lon": 0.0, "bike_id": "aa39c374a1ee3827042cc5e9d659906e", "type": "electric_scooter", "name": "aa39c374a1ee3827042cc5e9d659906e", "rental_uris": {"android": "https://dc.lft.to/lastmile_qr_scan", "ios": "https://dc.lft.to/lastmile_qr_scan"}, "is_disabled": 0, "fusion_lat": 0.0, "lat": 38.93360533333333, "is_reserved": 0}, {"lon": -77.00895683333333, "fusion_lon": 0.0, "bike_id": "6c37aaea4e5ec583126da21baaecd1da", "type": "electric_scooter", "name": "6c37aaea4e5ec583126da21baaecd1da", "rental_uris": {"android": "https://dc.lft.to/lastmile_qr_scan", "ios": "https://dc.lft.to/lastmile_qr_scan"}, "is_disabled": 0, "fusion_lat": 0.0, "lat": 38.88502716666667, "is_reserved": 0}, {"lon": -77.05586866666667, "fusion_lon": 0.0, "bike_id": "f1c0f94c1cbeda5b2d020bee45068e38", "type": "electric_scooter", "name": "f1c0f94c1cbeda5b2d020bee45068e38", "rental_uris": {"android": "https://dc.lft.to/lastmile_qr_scan", "ios": "https://dc.lft.to/lastmile_qr_scan"}, "is_disabled": 0, "fusion_lat": 0.0, "lat": 38.93434033333333, "is_reserved": 0}, {"lon": -77.0529575, "fusion_lon": 0.0, "bike_id": "a48e97dbc84ebf629b121b794493fc03", "type": "electric_scooter", "name": "a48e97dbc84ebf629b121b794493fc03", "rental_uris": {"android": "https://dc.lft.to/lastmile_qr_scan", "ios": "https://dc.lft.to/lastmile_qr_scan"}, "is_disabled": 0, "fusion_lat": 0.0, "lat": 38.90339133333333, "is_reserved": 0}, {"lon": -77.02794466666667, "fusion_lon": 0.0, "bike_id": "28607dc0a4253580abe7fe42c845fa17", "type": "electric_scooter", "name": "28607dc0a4253580abe7fe42c845fa17", "rental_uris": {"android": "https://dc.lft.to/lastmile_qr_scan", "ios": "https://dc.lft.to/lastmile_qr_scan"}, "is_disabled": 0, "fusion_lat": 0.0, "lat": 38.939325, "is_reserved": 0}, {"lon": -76.98228933333333, "fusion_lon": 0.0, "bike_id": "a87e3963323c9b4990cb4961683a38d7", "type": "electric_scooter", "name": "a87e3963323c9b4990cb4961683a38d7", "rental_uris": {"android": "https://dc.lft.to/lastmile_qr_scan", "ios": "https://dc.lft.to/lastmile_qr_scan"}, "is_disabled": 0, "fusion_lat": 0.0, "lat": 38.90202216666667, "is_reserved": 0}, {"lon": -76.99220816666667, "fusion_lon": 0.0, "bike_id": "a55e0a7f6c9710f8e7650ed3a96ba8c8", "type": "electric_bike", "name": "a55e0a7f6c9710f8e7650ed3a96ba8c8", "rental_uris": {"android": "https://dc.lft.to/lastmile_qr_scan", "ios": "https://dc.lft.to/lastmile_qr_scan"}, "is_disabled": 0, "fusion_lat": 0.0, "lat": 38.94020416666667, "is_reserved": 0}, {"lon": -77.0280015, "fusion_lon": 0.0, "bike_id": "1663bd7b83ce4bec5ff82d11dcebadb5", "type": "electric_scooter", "name": "1663bd7b83ce4bec5ff82d11dcebadb5", "rental_uris": {"android": "https://dc.lft.to/lastmile_qr_scan", "ios": "https://dc.lft.to/lastmile_qr_scan"}, "is_disabled": 0, "fusion_lat": 0.0, "lat": 38.917102, "is_reserved": 0}, {"lon": -77.0033685, "fusion_lon": 0.0, "bike_id": "975d426b8294d4365448063234584d3f", "type": "electric_scooter", "name": "975d426b8294d4365448063234584d3f", "rental_uris": {"android": "https://dc.lft.to/lastmile_qr_scan", "ios": "https://dc.lft.to/lastmile_qr_scan"}, "is_disabled": 0, "fusion_lat": 0.0, "lat": 38.895247833333336, "is_reserved": 0}, {"lon": -77.04227766666666, "fusion_lon": 0.0, "bike_id": "b711d1d7e76899b2b0be50a74e70225c", "type": "electric_scooter", "name": "b711d1d7e76899b2b0be50a74e70225c", "rental_uris": {"android": "https://dc.lft.to/lastmile_qr_scan", "ios": "https://dc.lft.to/lastmile_qr_scan"}, "is_disabled": 0, "fusion_lat": 0.0, "lat": 38.926256, "is_reserved": 0}, {"lon": -76.9969725, "fusion_lon": 0.0, "bike_id": "1420a85e650f7dcc939637c72351b49f", "type": "electric_scooter", "name": "1420a85e650f7dcc939637c72351b49f", "rental_uris": {"android": "https://dc.lft.to/lastmile_qr_scan", "ios": "https://dc.lft.to/lastmile_qr_scan"}, "is_disabled": 0, "fusion_lat": 0.0, "lat": 38.88423483333333, "is_reserved": 0}, {"lon": -77.02694183333334, "fusion_lon": 0.0, "bike_id": "a81295091bbb82405ad364530404888d", "type": "electric_scooter", "name": "a81295091bbb82405ad364530404888d", "rental_uris": {"android": "https://dc.lft.to/lastmile_qr_scan", "ios": "https://dc.lft.to/lastmile_qr_scan"}, "is_disabled": 0, "fusion_lat": 0.0, "lat": 38.9084605, "is_reserved": 0}, {"lon": -76.94940233333334, "fusion_lon": 0.0, "bike_id": "79b599c5d74fff32128eacc1fad2ff92", "type": "electric_scooter", "name": "79b599c5d74fff32128eacc1fad2ff92", "rental_uris": {"android": "https://dc.lft.to/lastmile_qr_scan", "ios": "https://dc.lft.to/lastmile_qr_scan"}, "is_disabled": 0, "fusion_lat": 0.0, "lat": 38.893613333333334, "is_reserved": 0}, {"lon": -77.014021, "fusion_lon": 0.0, "bike_id": "14ecbfe3bc3e3a2050b9642405412949", "type": "electric_scooter", "name": "14ecbfe3bc3e3a2050b9642405412949", "rental_uris": {"android": "https://dc.lft.to/lastmile_qr_scan", "ios": "https://dc.lft.to/lastmile_qr_scan"}, "is_disabled": 0, "fusion_lat": 0.0, "lat": 38.92866433333333, "is_reserved": 0}, {"lon": -77.00217066666667, "fusion_lon": 0.0, "bike_id": "2ac4ce4a073359802cd7111355763c0e", "type": "electric_scooter", "name": "2ac4ce4a073359802cd7111355763c0e", "rental_uris": {"android": "https://dc.lft.to/lastmile_qr_scan", "ios": "https://dc.lft.to/lastmile_qr_scan"}, "is_disabled": 0, "fusion_lat": 0.0, "lat": 38.8952455, "is_reserved": 0}, {"lon": -76.97750433333333, "fusion_lon": 0.0, "bike_id": "abfcbb5b74318e3e329521881542e08c", "type": "electric_scooter", "name": "abfcbb5b74318e3e329521881542e08c", "rental_uris": {"android": "https://dc.lft.to/lastmile_qr_scan", "ios": "https://dc.lft.to/lastmile_qr_scan"}, "is_disabled": 0, "fusion_lat": 0.0, "lat": 38.888769833333335, "is_reserved": 0}, {"lon": -77.03201033333333, "fusion_lon": 0.0, "bike_id": "34bf5eb76c8967eb243fc370a92e4778", "type": "electric_scooter", "name": "34bf5eb76c8967eb243fc370a92e4778", "rental_uris": {"android": "https://dc.lft.to/lastmile_qr_scan", "ios": "https://dc.lft.to/lastmile_qr_scan"}, "is_disabled": 0, "fusion_lat": 0.0, "lat": 38.90376883333333, "is_reserved": 0}, {"lon": -77.045531, "fusion_lon": 0.0, "bike_id": "3e6077f54361c83b8626bc1568ef0c00", "type": "electric_scooter", "name": "3e6077f54361c83b8626bc1568ef0c00", "rental_uris": {"android": "https://dc.lft.to/lastmile_qr_scan", "ios": "https://dc.lft.to/lastmile_qr_scan"}, "is_disabled": 0, "fusion_lat": 0.0, "lat": 38.898485666666666, "is_reserved": 0}, {"lon": -77.01264883333333, "fusion_lon": 0.0, "bike_id": "c25a3bcc2db198999de2c103c39a2fb0", "type": "electric_scooter", "name": "c25a3bcc2db198999de2c103c39a2fb0", "rental_uris": {"android": "https://dc.lft.to/lastmile_qr_scan", "ios": "https://dc.lft.to/lastmile_qr_scan"}, "is_disabled": 0, "fusion_lat": 0.0, "lat": 38.915417833333336, "is_reserved": 0}, {"lon": -77.03803516666666, "fusion_lon": 0.0, "bike_id": "995d9618b11e52463a926df46bd480c9", "type": "electric_scooter", "name": "995d9618b11e52463a926df46bd480c9", "rental_uris": {"android": "https://dc.lft.to/lastmile_qr_scan", "ios": "https://dc.lft.to/lastmile_qr_scan"}, "is_disabled": 0, "fusion_lat": 0.0, "lat": 38.902577666666666, "is_reserved": 0}, {"lon": -77.036364, "fusion_lon": 0.0, "bike_id": "19e5cee5f7347b208be7d1c94d61b75b", "type": "electric_scooter", "name": "19e5cee5f7347b208be7d1c94d61b75b", "rental_uris": {"android": "https://dc.lft.to/lastmile_qr_scan", "ios": "https://dc.lft.to/lastmile_qr_scan"}, "is_disabled": 0, "fusion_lat": 0.0, "lat": 38.90689916666667, "is_reserved": 0}, {"lon": -77.02175683333333, "fusion_lon": 0.0, "bike_id": "132ce6d646199881743dc94b339e3d00", "type": "electric_scooter", "name": "132ce6d646199881743dc94b339e3d00", "rental_uris": {"android": "https://dc.lft.to/lastmile_qr_scan", "ios": "https://dc.lft.to/lastmile_qr_scan"}, "is_disabled": 0, "fusion_lat": 0.0, "lat": 38.905773, "is_reserved": 0}, {"lon": -76.97949616666666, "fusion_lon": 0.0, "bike_id": "a232b2cb248129713dbfd8e105a34c13", "type": "electric_scooter", "name": "a232b2cb248129713dbfd8e105a34c13", "rental_uris": {"android": "https://dc.lft.to/lastmile_qr_scan", "ios": "https://dc.lft.to/lastmile_qr_scan"}, "is_disabled": 0, "fusion_lat": 0.0, "lat": 38.90434833333333, "is_reserved": 0}, {"lon": -77.05144033333333, "fusion_lon": 0.0, "bike_id": "328545280aca6243b340bfd5249afe16", "type": "electric_scooter", "name": "328545280aca6243b340bfd5249afe16", "rental_uris": {"android": "https://dc.lft.to/lastmile_qr_scan", "ios": "https://dc.lft.to/lastmile_qr_scan"}, "is_disabled": 0, "fusion_lat": 0.0, "lat": 38.901045333333336, "is_reserved": 0}, {"lon": -76.97055316666666, "fusion_lon": 0.0, "bike_id": "2df48289b8e32ffbf18802b896616f93", "type": "electric_bike", "name": "2df48289b8e32ffbf18802b896616f93", "rental_uris": {"android": "https://dc.lft.to/lastmile_qr_scan", "ios": "https://dc.lft.to/lastmile_qr_scan"}, "is_disabled": 0, "fusion_lat": 0.0, "lat": 38.984630333333335, "is_reserved": 0}, {"lon": -77.03852333333333, "fusion_lon": 0.0, "bike_id": "31d68ca1438ae16dee4a075be417f30b", "type": "electric_scooter", "name": "31d68ca1438ae16dee4a075be417f30b", "rental_uris": {"android": "https://dc.lft.to/lastmile_qr_scan", "ios": "https://dc.lft.to/lastmile_qr_scan"}, "is_disabled": 0, "fusion_lat": 0.0, "lat": 38.915603, "is_reserved": 0}, {"lon": -76.9981995, "fusion_lon": 0.0, "bike_id": "4ea9751eeff82f8955203f446801ce18", "type": "electric_scooter", "name": "4ea9751eeff82f8955203f446801ce18", "rental_uris": {"android": "https://dc.lft.to/lastmile_qr_scan", "ios": "https://dc.lft.to/lastmile_qr_scan"}, "is_disabled": 0, "fusion_lat": 0.0, "lat": 38.90717583333333, "is_reserved": 0}, {"lon": -77.0388165, "fusion_lon": 0.0, "bike_id": "66b5e4c41faefb2c246dbfcc7d854c32", "type": "electric_scooter", "name": "66b5e4c41faefb2c246dbfcc7d854c32", "rental_uris": {"android": "https://dc.lft.to/lastmile_qr_scan", "ios": "https://dc.lft.to/lastmile_qr_scan"}, "is_disabled": 0, "fusion_lat": 0.0, "lat": 38.922587166666666, "is_reserved": 0}, {"lon": -77.03667633333333, "fusion_lon": 0.0, "bike_id": "f67b3c6e770f7cdaf3986d380053ef6e", "type": "electric_scooter", "name": "f67b3c6e770f7cdaf3986d380053ef6e", "rental_uris": {"android": "https://dc.lft.to/lastmile_qr_scan", "ios": "https://dc.lft.to/lastmile_qr_scan"}, "is_disabled": 0, "fusion_lat": 0.0, "lat": 38.910075, "is_reserved": 0}, {"lon": -76.98628283333333, "fusion_lon": 0.0, "bike_id": "9e87e18517a59962d27c816d549ae03e", "type": "electric_scooter", "name": "9e87e18517a59962d27c816d549ae03e", "rental_uris": {"android": "https://dc.lft.to/lastmile_qr_scan", "ios": "https://dc.lft.to/lastmile_qr_scan"}, "is_disabled": 0, "fusion_lat": 0.0, "lat": 38.932877166666664, "is_reserved": 0}, {"lon": -77.08534, "fusion_lon": 0.0, "bike_id": "caec5cde752526c6e841ca58eece4a94", "type": "electric_scooter", "name": "caec5cde752526c6e841ca58eece4a94", "rental_uris": {"android": "https://dc.lft.to/lastmile_qr_scan", "ios": "https://dc.lft.to/lastmile_qr_scan"}, "is_disabled": 0, "fusion_lat": 0.0, "lat": 38.916086666666665, "is_reserved": 0}, {"lon": -77.03242183333333, "fusion_lon": 0.0, "bike_id": "215337a7e66286de3b328bb45b8b748e", "type": "electric_scooter", "name": "215337a7e66286de3b328bb45b8b748e", "rental_uris": {"android": "https://dc.lft.to/lastmile_qr_scan", "ios": "https://dc.lft.to/lastmile_qr_scan"}, "is_disabled": 0, "fusion_lat": 0.0, "lat": 38.901496333333334, "is_reserved": 0}, {"lon": -77.03808466666666, "fusion_lon": 0.0, "bike_id": "9ce567fcaeb9c07ff16f2670db251ad7", "type": "electric_scooter", "name": "9ce567fcaeb9c07ff16f2670db251ad7", "rental_uris": {"android": "https://dc.lft.to/lastmile_qr_scan", "ios": "https://dc.lft.to/lastmile_qr_scan"}, "is_disabled": 0, "fusion_lat": 0.0, "lat": 38.90250016666667, "is_reserved": 0}, {"lon": -76.9734345, "fusion_lon": 0.0, "bike_id": "04347e83c5078e97a230eba16573d5fd", "type": "electric_bike", "name": "04347e83c5078e97a230eba16573d5fd", "rental_uris": {"android": "https://dc.lft.to/lastmile_qr_scan", "ios": "https://dc.lft.to/lastmile_qr_scan"}, "is_disabled": 0, "fusion_lat": 0.0, "lat": 38.897293833333336, "is_reserved": 0}, {"lon": -77.01230216666667, "fusion_lon": 0.0, "bike_id": "0ecc92aa04c6dc4597a1b250f9961630", "type": "electric_scooter", "name": "0ecc92aa04c6dc4597a1b250f9961630", "rental_uris": {"android": "https://dc.lft.to/lastmile_qr_scan", "ios": "https://dc.lft.to/lastmile_qr_scan"}, "is_disabled": 0, "fusion_lat": 0.0, "lat": 38.8720995, "is_reserved": 0}, {"lon": -76.92679066666666, "fusion_lon": 0.0, "bike_id": "5c87492a9d8d24837ca45e3f441bcb17", "type": "electric_scooter", "name": "5c87492a9d8d24837ca45e3f441bcb17", "rental_uris": {"android": "https://dc.lft.to/lastmile_qr_scan", "ios": "https://dc.lft.to/lastmile_qr_scan"}, "is_disabled": 0, "fusion_lat": 0.0, "lat": 38.8884905, "is_reserved": 0}, {"lon": -77.0279205, "fusion_lon": 0.0, "bike_id": "755dc72436957b3b0ecc6f6336970e94", "type": "electric_scooter", "name": "755dc72436957b3b0ecc6f6336970e94", "rental_uris": {"android": "https://dc.lft.to/lastmile_qr_scan", "ios": "https://dc.lft.to/lastmile_qr_scan"}, "is_disabled": 0, "fusion_lat": 0.0, "lat": 38.927727, "is_reserved": 0}, {"lon": -77.03734216666666, "fusion_lon": 0.0, "bike_id": "c98c0e6120d6bee6b1f2d4847a0f0aee", "type": "electric_scooter", "name": "c98c0e6120d6bee6b1f2d4847a0f0aee", "rental_uris": {"android": "https://dc.lft.to/lastmile_qr_scan", "ios": "https://dc.lft.to/lastmile_qr_scan"}, "is_disabled": 0, "fusion_lat": 0.0, "lat": 38.91118683333333, "is_reserved": 0}, {"lon": -77.00886416666667, "fusion_lon": 0.0, "bike_id": "f10344bddb4e0801b95884110f7176e0", "type": "electric_scooter", "name": "f10344bddb4e0801b95884110f7176e0", "rental_uris": {"android": "https://dc.lft.to/lastmile_qr_scan", "ios": "https://dc.lft.to/lastmile_qr_scan"}, "is_disabled": 0, "fusion_lat": 0.0, "lat": 38.8767555, "is_reserved": 0}, {"lon": -77.04629166666666, "fusion_lon": 0.0, "bike_id": "49d2919d988d821c75ff70b7a1355c5f", "type": "electric_scooter", "name": "49d2919d988d821c75ff70b7a1355c5f", "rental_uris": {"android": "https://dc.lft.to/lastmile_qr_scan", "ios": "https://dc.lft.to/lastmile_qr_scan"}, "is_disabled": 0, "fusion_lat": 0.0, "lat": 38.918118, "is_reserved": 0}, {"lon": -77.00320583333334, "fusion_lon": 0.0, "bike_id": "0274237c03b797926d268af3f9df6425", "type": "electric_scooter", "name": "0274237c03b797926d268af3f9df6425", "rental_uris": {"android": "https://dc.lft.to/lastmile_qr_scan", "ios": "https://dc.lft.to/lastmile_qr_scan"}, "is_disabled": 0, "fusion_lat": 0.0, "lat": 38.91951483333333, "is_reserved": 0}, {"lon": -76.96984766666667, "fusion_lon": 0.0, "bike_id": "5558b86135e07c2e677511c2b5aa7750", "type": "electric_scooter", "name": "5558b86135e07c2e677511c2b5aa7750", "rental_uris": {"android": "https://dc.lft.to/lastmile_qr_scan", "ios": "https://dc.lft.to/lastmile_qr_scan"}, "is_disabled": 0, "fusion_lat": 0.0, "lat": 38.878655333333334, "is_reserved": 0}, {"lon": -76.99149933333334, "fusion_lon": 0.0, "bike_id": "041ae2f99769f7cea2de2a856f83b661", "type": "electric_scooter", "name": "041ae2f99769f7cea2de2a856f83b661", "rental_uris": {"android": "https://dc.lft.to/lastmile_qr_scan", "ios": "https://dc.lft.to/lastmile_qr_scan"}, "is_disabled": 0, "fusion_lat": 0.0, "lat": 38.88534116666666, "is_reserved": 0}, {"lon": -77.00067983333334, "fusion_lon": 0.0, "bike_id": "ebfd61790845e8fe43d2ca8282c0f7c5", "type": "electric_scooter", "name": "ebfd61790845e8fe43d2ca8282c0f7c5", "rental_uris": {"android": "https://dc.lft.to/lastmile_qr_scan", "ios": "https://dc.lft.to/lastmile_qr_scan"}, "is_disabled": 0, "fusion_lat": 0.0, "lat": 38.886826, "is_reserved": 0}, {"lon": -77.02962566666666, "fusion_lon": 0.0, "bike_id": "6c2e481c1649b97b7cc44c2716be74c5", "type": "electric_scooter", "name": "6c2e481c1649b97b7cc44c2716be74c5", "rental_uris": {"android": "https://dc.lft.to/lastmile_qr_scan", "ios": "https://dc.lft.to/lastmile_qr_scan"}, "is_disabled": 0, "fusion_lat": 0.0, "lat": 38.90504766666667, "is_reserved": 0}, {"lon": -76.94254133333334, "fusion_lon": 0.0, "bike_id": "6a70763878546aa6db3ba8a864a0156b", "type": "electric_scooter", "name": "6a70763878546aa6db3ba8a864a0156b", "rental_uris": {"android": "https://dc.lft.to/lastmile_qr_scan", "ios": "https://dc.lft.to/lastmile_qr_scan"}, "is_disabled": 0, "fusion_lat": 0.0, "lat": 38.898473833333334, "is_reserved": 0}, {"lon": -77.01976683333334, "fusion_lon": 0.0, "bike_id": "b13fbd19602f98ef8cb720b90c0bb83c", "type": "electric_scooter", "name": "b13fbd19602f98ef8cb720b90c0bb83c", "rental_uris": {"android": "https://dc.lft.to/lastmile_qr_scan", "ios": "https://dc.lft.to/lastmile_qr_scan"}, "is_disabled": 0, "fusion_lat": 0.0, "lat": 38.884173833333335, "is_reserved": 0}, {"lon": -77.02592183333333, "fusion_lon": 0.0, "bike_id": "eb9425cf49b0f4a2bb7f55abfef14ce2", "type": "electric_scooter", "name": "eb9425cf49b0f4a2bb7f55abfef14ce2", "rental_uris": {"android": "https://dc.lft.to/lastmile_qr_scan", "ios": "https://dc.lft.to/lastmile_qr_scan"}, "is_disabled": 0, "fusion_lat": 0.0, "lat": 38.904221666666665, "is_reserved": 0}, {"lon": -77.03064766666667, "fusion_lon": 0.0, "bike_id": "ce00224e3e7944a58d3664ec88189b8d", "type": "electric_scooter", "name": "ce00224e3e7944a58d3664ec88189b8d", "rental_uris": {"android": "https://dc.lft.to/lastmile_qr_scan", "ios": "https://dc.lft.to/lastmile_qr_scan"}, "is_disabled": 0, "fusion_lat": 0.0, "lat": 38.92253083333333, "is_reserved": 0}, {"lon": -77.034554, "fusion_lon": 0.0, "bike_id": "a74ca1218a6e12130914d944d3a6fc55", "type": "electric_scooter", "name": "a74ca1218a6e12130914d944d3a6fc55", "rental_uris": {"android": "https://dc.lft.to/lastmile_qr_scan", "ios": "https://dc.lft.to/lastmile_qr_scan"}, "is_disabled": 0, "fusion_lat": 0.0, "lat": 38.90843133333333, "is_reserved": 0}, {"lon": -77.02075366666666, "fusion_lon": 0.0, "bike_id": "8fc46cf971f1212a0372c6d91efeadde", "type": "electric_scooter", "name": "8fc46cf971f1212a0372c6d91efeadde", "rental_uris": {"android": "https://dc.lft.to/lastmile_qr_scan", "ios": "https://dc.lft.to/lastmile_qr_scan"}, "is_disabled": 0, "fusion_lat": 0.0, "lat": 38.92700816666667, "is_reserved": 0}, {"lon": -77.0171225, "fusion_lon": 0.0, "bike_id": "11674b0cef826b8a5009686e943da128", "type": "electric_scooter", "name": "11674b0cef826b8a5009686e943da128", "rental_uris": {"android": "https://dc.lft.to/lastmile_qr_scan", "ios": "https://dc.lft.to/lastmile_qr_scan"}, "is_disabled": 0, "fusion_lat": 0.0, "lat": 38.90969616666667, "is_reserved": 0}, {"lon": -77.0633835, "fusion_lon": 0.0, "bike_id": "feccb952d14539d209f55ac815267a0e", "type": "electric_scooter", "name": "feccb952d14539d209f55ac815267a0e", "rental_uris": {"android": "https://dc.lft.to/lastmile_qr_scan", "ios": "https://dc.lft.to/lastmile_qr_scan"}, "is_disabled": 0, "fusion_lat": 0.0, "lat": 38.9068365, "is_reserved": 0}, {"lon": -77.01898716666666, "fusion_lon": 0.0, "bike_id": "4048f9bd8cfddbc927b760641ee3aa72", "type": "electric_scooter", "name": "4048f9bd8cfddbc927b760641ee3aa72", "rental_uris": {"android": "https://dc.lft.to/lastmile_qr_scan", "ios": "https://dc.lft.to/lastmile_qr_scan"}, "is_disabled": 0, "fusion_lat": 0.0, "lat": 38.90923683333333, "is_reserved": 0}, {"lon": -77.0335405, "fusion_lon": 0.0, "bike_id": "1b7eb0713ac9a9ac73b69d759adc824a", "type": "electric_scooter", "name": "1b7eb0713ac9a9ac73b69d759adc824a", "rental_uris": {"android": "https://dc.lft.to/lastmile_qr_scan", "ios": "https://dc.lft.to/lastmile_qr_scan"}, "is_disabled": 0, "fusion_lat": 0.0, "lat": 38.90283, "is_reserved": 0}, {"lon": -76.97334116666667, "fusion_lon": 0.0, "bike_id": "93bcee8ef71cdde275ced01be5f859db", "type": "electric_scooter", "name": "93bcee8ef71cdde275ced01be5f859db", "rental_uris": {"android": "https://dc.lft.to/lastmile_qr_scan", "ios": "https://dc.lft.to/lastmile_qr_scan"}, "is_disabled": 0, "fusion_lat": 0.0, "lat": 38.90409666666667, "is_reserved": 0}, {"lon": -77.02806833333334, "fusion_lon": 0.0, "bike_id": "4428c36113315d4eb269c4eb25596726", "type": "electric_scooter", "name": "4428c36113315d4eb269c4eb25596726", "rental_uris": {"android": "https://dc.lft.to/lastmile_qr_scan", "ios": "https://dc.lft.to/lastmile_qr_scan"}, "is_disabled": 0, "fusion_lat": 0.0, "lat": 38.930810666666666, "is_reserved": 0}, {"lon": -77.03504683333334, "fusion_lon": 0.0, "bike_id": "f035ca0db0e27b4adb0b9d531aeb57f8", "type": "electric_scooter", "name": "f035ca0db0e27b4adb0b9d531aeb57f8", "rental_uris": {"android": "https://dc.lft.to/lastmile_qr_scan", "ios": "https://dc.lft.to/lastmile_qr_scan"}, "is_disabled": 0, "fusion_lat": 0.0, "lat": 38.91880616666667, "is_reserved": 0}, {"lon": -77.12739516666667, "fusion_lon": 0.0, "bike_id": "5fe3fa665950fe89dbd565f91ed7a41b", "type": "electric_bike", "name": "5fe3fa665950fe89dbd565f91ed7a41b", "rental_uris": {"android": "https://dc.lft.to/lastmile_qr_scan", "ios": "https://dc.lft.to/lastmile_qr_scan"}, "is_disabled": 0, "fusion_lat": 0.0, "lat": 38.895668, "is_reserved": 0}, {"lon": -77.0019905, "fusion_lon": 0.0, "bike_id": "c9aa2955b8527b22259581747e500fc6", "type": "electric_scooter", "name": "c9aa2955b8527b22259581747e500fc6", "rental_uris": {"android": "https://dc.lft.to/lastmile_qr_scan", "ios": "https://dc.lft.to/lastmile_qr_scan"}, "is_disabled": 0, "fusion_lat": 0.0, "lat": 38.902409666666664, "is_reserved": 0}, {"lon": -77.00281683333333, "fusion_lon": 0.0, "bike_id": "f7d2c4389c4aabcf26958f870f2e7191", "type": "electric_bike", "name": "f7d2c4389c4aabcf26958f870f2e7191", "rental_uris": {"android": "https://dc.lft.to/lastmile_qr_scan", "ios": "https://dc.lft.to/lastmile_qr_scan"}, "is_disabled": 0, "fusion_lat": 0.0, "lat": 38.957139, "is_reserved": 0}, {"lon": -77.03215833333333, "fusion_lon": 0.0, "bike_id": "e533ba0530f44710fad1ed9129fe5a6b", "type": "electric_scooter", "name": "e533ba0530f44710fad1ed9129fe5a6b", "rental_uris": {"android": "https://dc.lft.to/lastmile_qr_scan", "ios": "https://dc.lft.to/lastmile_qr_scan"}, "is_disabled": 0, "fusion_lat": 0.0, "lat": 38.916183333333336, "is_reserved": 0}, {"lon": -77.033393, "fusion_lon": 0.0, "bike_id": "eb94649ec3494585f61d1bde8eca02b4", "type": "electric_scooter", "name": "eb94649ec3494585f61d1bde8eca02b4", "rental_uris": {"android": "https://dc.lft.to/lastmile_qr_scan", "ios": "https://dc.lft.to/lastmile_qr_scan"}, "is_disabled": 0, "fusion_lat": 0.0, "lat": 38.921614, "is_reserved": 0}, {"lon": -77.02408166666666, "fusion_lon": 0.0, "bike_id": "50509d3da421bb02ddce16c658fc0cf1", "type": "electric_scooter", "name": "50509d3da421bb02ddce16c658fc0cf1", "rental_uris": {"android": "https://dc.lft.to/lastmile_qr_scan", "ios": "https://dc.lft.to/lastmile_qr_scan"}, "is_disabled": 0, "fusion_lat": 0.0, "lat": 38.91399, "is_reserved": 0}, {"lon": -77.059225, "fusion_lon": 0.0, "bike_id": "bd7f4735dbf15ba23c8ea1905ba509c7", "type": "electric_scooter", "name": "bd7f4735dbf15ba23c8ea1905ba509c7", "rental_uris": {"android": "https://dc.lft.to/lastmile_qr_scan", "ios": "https://dc.lft.to/lastmile_qr_scan"}, "is_disabled": 0, "fusion_lat": 0.0, "lat": 38.904552833333334, "is_reserved": 0}, {"lon": -77.03405533333333, "fusion_lon": 0.0, "bike_id": "7545d7ba1d2736ea0a8e2c2130ce1936", "type": "electric_scooter", "name": "7545d7ba1d2736ea0a8e2c2130ce1936", "rental_uris": {"android": "https://dc.lft.to/lastmile_qr_scan", "ios": "https://dc.lft.to/lastmile_qr_scan"}, "is_disabled": 0, "fusion_lat": 0.0, "lat": 38.924403166666664, "is_reserved": 0}, {"lon": -77.03264566666667, "fusion_lon": 0.0, "bike_id": "da0d20218e22da354ae0af70f745b93d", "type": "electric_scooter", "name": "da0d20218e22da354ae0af70f745b93d", "rental_uris": {"android": "https://dc.lft.to/lastmile_qr_scan", "ios": "https://dc.lft.to/lastmile_qr_scan"}, "is_disabled": 0, "fusion_lat": 0.0, "lat": 38.937719666666666, "is_reserved": 0}, {"lon": -77.03156866666667, "fusion_lon": 0.0, "bike_id": "0bbf08903249250b420f8324aeab1438", "type": "electric_scooter", "name": "0bbf08903249250b420f8324aeab1438", "rental_uris": {"android": "https://dc.lft.to/lastmile_qr_scan", "ios": "https://dc.lft.to/lastmile_qr_scan"}, "is_disabled": 0, "fusion_lat": 0.0, "lat": 38.897359, "is_reserved": 0}, {"lon": -77.02694433333333, "fusion_lon": 0.0, "bike_id": "93a45603890c650b3123bba7f6e0c866", "type": "electric_scooter", "name": "93a45603890c650b3123bba7f6e0c866", "rental_uris": {"android": "https://dc.lft.to/lastmile_qr_scan", "ios": "https://dc.lft.to/lastmile_qr_scan"}, "is_disabled": 0, "fusion_lat": 0.0, "lat": 38.90706733333333, "is_reserved": 0}, {"lon": -77.0337435, "fusion_lon": 0.0, "bike_id": "6a53b8544a8f533c0f87cea339f5f32c", "type": "electric_scooter", "name": "6a53b8544a8f533c0f87cea339f5f32c", "rental_uris": {"android": "https://dc.lft.to/lastmile_qr_scan", "ios": "https://dc.lft.to/lastmile_qr_scan"}, "is_disabled": 0, "fusion_lat": 0.0, "lat": 38.923616833333334, "is_reserved": 0}, {"lon": -77.0335715, "fusion_lon": 0.0, "bike_id": "677fd254679fcd41feb297ae12f173db", "type": "electric_scooter", "name": "677fd254679fcd41feb297ae12f173db", "rental_uris": {"android": "https://dc.lft.to/lastmile_qr_scan", "ios": "https://dc.lft.to/lastmile_qr_scan"}, "is_disabled": 0, "fusion_lat": 0.0, "lat": 38.8870215, "is_reserved": 0}, {"lon": -77.03321433333333, "fusion_lon": 0.0, "bike_id": "7656e09346ad43a8d859d12794121dff", "type": "electric_scooter", "name": "7656e09346ad43a8d859d12794121dff", "rental_uris": {"android": "https://dc.lft.to/lastmile_qr_scan", "ios": "https://dc.lft.to/lastmile_qr_scan"}, "is_disabled": 0, "fusion_lat": 0.0, "lat": 38.921541, "is_reserved": 0}, {"lon": -77.031838, "fusion_lon": 0.0, "bike_id": "47a72fbd70a708f0733ee1dd9a9cbda0", "type": "electric_scooter", "name": "47a72fbd70a708f0733ee1dd9a9cbda0", "rental_uris": {"android": "https://dc.lft.to/lastmile_qr_scan", "ios": "https://dc.lft.to/lastmile_qr_scan"}, "is_disabled": 0, "fusion_lat": 0.0, "lat": 38.92375366666667, "is_reserved": 0}, {"lon": -77.10852433333334, "fusion_lon": 0.0, "bike_id": "d344802932d3a79b6994ceca7f69cb30", "type": "electric_bike", "name": "d344802932d3a79b6994ceca7f69cb30", "rental_uris": {"android": "https://dc.lft.to/lastmile_qr_scan", "ios": "https://dc.lft.to/lastmile_qr_scan"}, "is_disabled": 0, "fusion_lat": 0.0, "lat": 38.87239566666667, "is_reserved": 0}, {"lon": -77.01971633333334, "fusion_lon": 0.0, "bike_id": "69bec7d2dbbc2a5cb46008596ee2599c", "type": "electric_scooter", "name": "69bec7d2dbbc2a5cb46008596ee2599c", "rental_uris": {"android": "https://dc.lft.to/lastmile_qr_scan", "ios": "https://dc.lft.to/lastmile_qr_scan"}, "is_disabled": 0, "fusion_lat": 0.0, "lat": 38.902375166666666, "is_reserved": 0}, {"lon": -77.02711383333333, "fusion_lon": 0.0, "bike_id": "fa19e6e03918fa99d32b0acab03873fa", "type": "electric_scooter", "name": "fa19e6e03918fa99d32b0acab03873fa", "rental_uris": {"android": "https://dc.lft.to/lastmile_qr_scan", "ios": "https://dc.lft.to/lastmile_qr_scan"}, "is_disabled": 0, "fusion_lat": 0.0, "lat": 38.92880133333333, "is_reserved": 0}, {"lon": -77.01645033333334, "fusion_lon": 0.0, "bike_id": "4d8688c8a181942625874538b5052568", "type": "electric_scooter", "name": "4d8688c8a181942625874538b5052568", "rental_uris": {"android": "https://dc.lft.to/lastmile_qr_scan", "ios": "https://dc.lft.to/lastmile_qr_scan"}, "is_disabled": 0, "fusion_lat": 0.0, "lat": 38.903797833333336, "is_reserved": 0}, {"lon": -77.03663616666667, "fusion_lon": 0.0, "bike_id": "aac5327f8340af173e19620e123abae6", "type": "electric_scooter", "name": "aac5327f8340af173e19620e123abae6", "rental_uris": {"android": "https://dc.lft.to/lastmile_qr_scan", "ios": "https://dc.lft.to/lastmile_qr_scan"}, "is_disabled": 0, "fusion_lat": 0.0, "lat": 38.9212365, "is_reserved": 0}, {"lon": -77.06104466666666, "fusion_lon": 0.0, "bike_id": "abef13965108f79944ab3f2883f1509f", "type": "electric_scooter", "name": "abef13965108f79944ab3f2883f1509f", "rental_uris": {"android": "https://dc.lft.to/lastmile_qr_scan", "ios": "https://dc.lft.to/lastmile_qr_scan"}, "is_disabled": 0, "fusion_lat": 0.0, "lat": 38.937073166666664, "is_reserved": 0}, {"lon": -76.99009616666666, "fusion_lon": 0.0, "bike_id": "a0d27a23d869878a0b54cbfd77f8a10f", "type": "electric_scooter", "name": "a0d27a23d869878a0b54cbfd77f8a10f", "rental_uris": {"android": "https://dc.lft.to/lastmile_qr_scan", "ios": "https://dc.lft.to/lastmile_qr_scan"}, "is_disabled": 0, "fusion_lat": 0.0, "lat": 38.865092833333335, "is_reserved": 0}, {"lon": -77.008922, "fusion_lon": 0.0, "bike_id": "a3e71c10f9e020903c752ab7b18c7d62", "type": "electric_scooter", "name": "a3e71c10f9e020903c752ab7b18c7d62", "rental_uris": {"android": "https://dc.lft.to/lastmile_qr_scan", "ios": "https://dc.lft.to/lastmile_qr_scan"}, "is_disabled": 0, "fusion_lat": 0.0, "lat": 38.96838066666667, "is_reserved": 0}, {"lon": -77.02796033333334, "fusion_lon": 0.0, "bike_id": "aae3686403ff33107efc506fe553c6c5", "type": "electric_scooter", "name": "aae3686403ff33107efc506fe553c6c5", "rental_uris": {"android": "https://dc.lft.to/lastmile_qr_scan", "ios": "https://dc.lft.to/lastmile_qr_scan"}, "is_disabled": 0, "fusion_lat": 0.0, "lat": 38.96052783333333, "is_reserved": 0}, {"lon": -77.035806, "fusion_lon": 0.0, "bike_id": "9c67304060d9fba88712ca6b4e01b026", "type": "electric_scooter", "name": "9c67304060d9fba88712ca6b4e01b026", "rental_uris": {"android": "https://dc.lft.to/lastmile_qr_scan", "ios": "https://dc.lft.to/lastmile_qr_scan"}, "is_disabled": 0, "fusion_lat": 0.0, "lat": 38.90375916666667, "is_reserved": 0}, {"lon": -77.03169383333334, "fusion_lon": 0.0, "bike_id": "b1d39d809fab722fb9a3b06168d82b60", "type": "electric_scooter", "name": "b1d39d809fab722fb9a3b06168d82b60", "rental_uris": {"android": "https://dc.lft.to/lastmile_qr_scan", "ios": "https://dc.lft.to/lastmile_qr_scan"}, "is_disabled": 0, "fusion_lat": 0.0, "lat": 38.896204166666664, "is_reserved": 0}, {"lon": -77.02711933333333, "fusion_lon": 0.0, "bike_id": "06a970c918b6186587c7dd98977c8917", "type": "electric_scooter", "name": "06a970c918b6186587c7dd98977c8917", "rental_uris": {"android": "https://dc.lft.to/lastmile_qr_scan", "ios": "https://dc.lft.to/lastmile_qr_scan"}, "is_disabled": 0, "fusion_lat": 0.0, "lat": 38.9067475, "is_reserved": 0}, {"lon": -77.013921, "fusion_lon": 0.0, "bike_id": "9fe4e33876f5d40c56e568bf90ae4aca", "type": "electric_scooter", "name": "9fe4e33876f5d40c56e568bf90ae4aca", "rental_uris": {"android": "https://dc.lft.to/lastmile_qr_scan", "ios": "https://dc.lft.to/lastmile_qr_scan"}, "is_disabled": 0, "fusion_lat": 0.0, "lat": 38.942294833333335, "is_reserved": 0}, {"lon": -77.042079, "fusion_lon": 0.0, "bike_id": "5d47b09a211aa053c429c0d3166c27b5", "type": "electric_scooter", "name": "5d47b09a211aa053c429c0d3166c27b5", "rental_uris": {"android": "https://dc.lft.to/lastmile_qr_scan", "ios": "https://dc.lft.to/lastmile_qr_scan"}, "is_disabled": 0, "fusion_lat": 0.0, "lat": 38.92297816666667, "is_reserved": 0}, {"lon": -77.0282755, "fusion_lon": 0.0, "bike_id": "88d55e372b80ba6785029195b5ecbb89", "type": "electric_scooter", "name": "88d55e372b80ba6785029195b5ecbb89", "rental_uris": {"android": "https://dc.lft.to/lastmile_qr_scan", "ios": "https://dc.lft.to/lastmile_qr_scan"}, "is_disabled": 0, "fusion_lat": 0.0, "lat": 38.92229183333333, "is_reserved": 0}, {"lon": -77.02279383333334, "fusion_lon": 0.0, "bike_id": "bb2ddfa5a5b8b0f0daec8dcde19ccb7f", "type": "electric_scooter", "name": "bb2ddfa5a5b8b0f0daec8dcde19ccb7f", "rental_uris": {"android": "https://dc.lft.to/lastmile_qr_scan", "ios": "https://dc.lft.to/lastmile_qr_scan"}, "is_disabled": 0, "fusion_lat": 0.0, "lat": 38.9156315, "is_reserved": 0}, {"lon": -76.9541405, "fusion_lon": 0.0, "bike_id": "e42f98929b8756eee1592a79c76d1af6", "type": "electric_scooter", "name": "e42f98929b8756eee1592a79c76d1af6", "rental_uris": {"android": "https://dc.lft.to/lastmile_qr_scan", "ios": "https://dc.lft.to/lastmile_qr_scan"}, "is_disabled": 0, "fusion_lat": 0.0, "lat": 38.890073666666666, "is_reserved": 0}, {"lon": -77.02349366666667, "fusion_lon": 0.0, "bike_id": "2a4c4273ae126a2c80f1b85aeb67dd9f", "type": "electric_scooter", "name": "2a4c4273ae126a2c80f1b85aeb67dd9f", "rental_uris": {"android": "https://dc.lft.to/lastmile_qr_scan", "ios": "https://dc.lft.to/lastmile_qr_scan"}, "is_disabled": 0, "fusion_lat": 0.0, "lat": 38.93052333333333, "is_reserved": 0}, {"lon": -77.03451383333334, "fusion_lon": 0.0, "bike_id": "db211e72aa40322a5b1758b55ac98d26", "type": "electric_scooter", "name": "db211e72aa40322a5b1758b55ac98d26", "rental_uris": {"android": "https://dc.lft.to/lastmile_qr_scan", "ios": "https://dc.lft.to/lastmile_qr_scan"}, "is_disabled": 0, "fusion_lat": 0.0, "lat": 38.917947833333336, "is_reserved": 0},