{"data": {"bikes": [{"rental_uris": {"android": "https://dc.lft.to/lastmile_qr_scan", "ios": "https://dc.lft.to/lastmile_qr_scan"}, "fusion_lat": 0.0, "is_reserved": 0, "lat": 38.92761733333333, "name": "18c0a333cd9415fa05a66c9538da4646", "bike_id": "18c0a333cd9415fa05a66c9538da4646", "is_disabled": 0, "fusion_lon": 0.0, "type": "electric_scooter", "lon": -77.06886016666667}, {"rental_uris": {"android": "https://dc.lft.to/lastmile_qr_scan", "ios": "https://dc.lft.to/lastmile_qr_scan"}, "fusion_lat": 0.0, "is_reserved": 0, "lat": 38.9248465, "name": "965eae26f339e3f520ddc5b476616c27", "bike_id": "965eae26f339e3f520ddc5b476616c27", "is_disabled": 0, "fusion_lon": 0.0, "type": "electric_scooter", "lon": -77.0304995}, {"rental_uris": {"android": "https://dc.lft.to/lastmile_qr_scan", "ios": "https://dc.lft.to/lastmile_qr_scan"}, "fusion_lat": 0.0, "is_reserved": 0, "lat": 38.89224566666667, "name": "bcb6c9873654c3ed890b7fc88e6e8bbe", "bike_id": "bcb6c9873654c3ed890b7fc88e6e8bbe", "is_disabled": 0, "fusion_lon": 0.0, "type": "electric_scooter", "lon": -77.03985866666666}, {"rental_uris": {"android": "https://dc.lft.to/lastmile_qr_scan", "ios": "https://dc.lft.to/lastmile_qr_scan"}, "fusion_lat": 0.0, "is_reserved": 0, "lat": 38.902355, "name": "e75276c8c4a90ebcd2e02acff8a0a91c", "bike_id": "e75276c8c4a90ebcd2e02acff8a0a91c", "is_disabled": 0, "fusion_lon": 0.0, "type": "electric_scooter", "lon": -77.01745766666667}, {"rental_uris": {"android": "https://dc.lft.to/lastmile_qr_scan", "ios": "https://dc.lft.to/lastmile_qr_scan"}, "fusion_lat": 0.0, "is_reserved": 0, "lat": 38.957677333333336, "name": "b466573fcecc51968d26fcbd884b159f", "bike_id": "b466573fcecc51968d26fcbd884b159f", "is_disabled": 0, "fusion_lon": 0.0, "type": "electric_scooter", "lon": -77.01500033333333}, {"rental_uris": {"android": "https://dc.lft.to/lastmile_qr_scan", "ios": "https://dc.lft.to/lastmile_qr_scan"}, "fusion_lat": 0.0, "is_reserved": 0, "lat": 38.893877833333335, "name": "593b1d5855a8f96a1034a8c10b0f272e", "bike_id": "593b1d5855a8f96a1034a8c10b0f272e", "is_disabled": 0, "fusion_lon": 0.0, "type": "electric_bike", "lon": -76.86843333333333}, {"rental_uris": {"android": "https://dc.lft.to/lastmile_qr_scan", "ios": "https://dc.lft.to/lastmile_qr_scan"}, "fusion_lat": 0.0, "is_reserved": 0, "lat": 38.905906, "name": "741ee725bae6cd5452a49303f5635d6a", "bike_id": "741ee725bae6cd5452a49303f5635d6a", "is_disabled": 0, "fusion_lon": 0.0, "type": "electric_scooter", "lon": -76.98412183333333}, {"rental_uris": {"android": "https://dc.lft.to/lastmile_qr_scan", "ios": "https://dc.lft.to/lastmile_qr_scan"}, "fusion_lat": 0.0, "is_reserved": 0, "lat": 38.916322, "name": "065fc6ecb6c3bf7ea916e04be0f3cd90", "bike_id": "065fc6ecb6c3bf7ea916e04be0f3cd90", "is_disabled": 0, "fusion_lon": 0.0, "type": "electric_scooter", "lon": -77.04808283333334}, {"rental_uris": {"android": "https://dc.lft.to/lastmile_qr_scan", "ios": "https://dc.lft.to/lastmile_qr_scan"}, "fusion_lat": 0.0, "is_reserved": 0, "lat": 38.91360616666667, "name": "c8d21443f6855c250464f84e5900f681", "bike_id": "c8d21443f6855c250464f84e5900f681", "is_disabled": 0, "fusion_lon": 0.0, "type": "electric_scooter", "lon": -77.03354383333334}, {"rental_uris": {"android": "https://dc.lft.to/lastmile_qr_scan", "ios": "https://dc.lft.to/lastmile_qr_scan"}, "fusion_lat": 0.0, "is_reserved": 0, "lat": 38.921260333333336, "name": "af3d768e1391c21e5972334a7c0159de", "bike_id": "af3d768e1391c21e5972334a7c0159de", "is_disabled": 0, "fusion_lon": 0.0, "type": "electric_scooter", "lon": -77.03665216666667}, {"rental_uris": {"android": "https://dc.lft.to/lastmile_qr_scan", "ios": "https://dc.lft.to/lastmile_qr_scan"}, "fusion_lat": 0.0, "is_reserved": 0, "lat": 38.903990666666665, "name": "8de8cf92e428f091d0db1db6a2cb0d65", "bike_id": "8de8cf92e428f091d0db1db6a2cb0d65", "is_disabled": 0, "fusion_lon": 0.0, "type": "electric_scooter", "lon": -77.01792083333333}, {"rental_uris": {"android": "https://dc.lft.to/lastmile_qr_scan", "ios": "https://dc.lft.to/lastmile_qr_scan"}, "fusion_lat": 0.0, "is_reserved": 0, "lat": 38.918105833333335, "name": "3886e7c8a582b95b00411230da39463f", "bike_id": "3886e7c8a582b95b00411230da39463f", "is_disabled": 0, "fusion_lon": 0.0, "type": "electric_scooter", "lon": -77.03305233333333}, {"rental_uris": {"android": "https://dc.lft.to/lastmile_qr_scan", "ios": "https://dc.lft.to/lastmile_qr_scan"}, "fusion_lat": 0.0, "is_reserved": 0, "lat": 38.8718125, "name": "d6f4dba7744023f49a7dea8ac716241c", "bike_id": "d6f4dba7744023f49a7dea8ac716241c", "is_disabled": 0, "fusion_lon": 0.0, "type": "electric_scooter", "lon": -77.00610566666667}, {"rental_uris": {"android": "https://dc.lft.to/lastmile_qr_scan", "ios": "https://dc.lft.to/lastmile_qr_scan"}, "fusion_lat": 0.0, "is_reserved": 0, "lat": 38.92077233333333, "name": "8ab96b631f47872ac4179bf9a4818111", "bike_id": "8ab96b631f47872ac4179bf9a4818111", "is_disabled": 0, "fusion_lon": 0.0, "type": "electric_scooter", "lon": -77.02315283333333}, {"rental_uris": {"android": "https://dc.lft.to/lastmile_qr_scan", "ios": "https://dc.lft.to/lastmile_qr_scan"}, "fusion_lat": 0.0, "is_reserved": 0, "lat": 38.91333516666667, "name": "5750b8e9b6b48f3e549d8007f43cf381", "bike_id": "5750b8e9b6b48f3e549d8007f43cf381", "is_disabled": 0, "fusion_lon": 0.0, "type": "electric_scooter", "lon": -77.01151816666666}, {"rental_uris": {"android": "https://dc.lft.to/lastmile_qr_scan", "ios": "https://dc.lft.to/lastmile_qr_scan"}, "fusion_lat": 0.0, "is_reserved": 0, "lat": 38.910348166666665, "name": "027db57d8a6f92368f946c875bfb614c", "bike_id": "027db57d8a6f92368f946c875bfb614c", "is_disabled": 0, "fusion_lon": 0.0, "type": "electric_scooter", "lon": -77.029287}, {"rental_uris": {"android": "https://dc.lft.to/lastmile_qr_scan", "ios": "https://dc.lft.to/lastmile_qr_scan"}, "fusion_lat": 0.0, "is_reserved": 0, "lat": 38.904744, "name": "26482fa4be711ad3b978efc7ca0eda2e", "bike_id": "26482fa4be711ad3b978efc7ca0eda2e", "is_disabled": 0, "fusion_lon": 0.0, "type": "electric_scooter", "lon": -77.0356545}, {"rental_uris": {"android": "https://dc.lft.to/lastmile_qr_scan", "ios": "https://dc.lft.to/lastmile_qr_scan"}, "fusion_lat": 0.0, "is_reserved": 0, "lat": 38.897312, "name": "b9857a7254b8ceb0b00dd7c4af610418", "bike_id": "b9857a7254b8ceb0b00dd7c4af610418", "is_disabled": 0, "fusion_lon": 0.0, "type": "electric_scooter", "lon": -77.05526466666667}, {"rental_uris": {"android": "https://dc.lft.to/lastmile_qr_scan", "ios": "https://dc.lft.to/lastmile_qr_scan"}, "fusion_lat": 0.0, "is_reserved": 0, "lat": 38.9026845, "name": "e7f8bd84081c82e67de5f1df04adcdff", "bike_id": "e7f8bd84081c82e67de5f1df04adcdff", "is_disabled": 0, "fusion_lon": 0.0, "type": "electric_scooter", "lon": -77.01830116666666}, {"rental_uris": {"android": "https://dc.lft.to/lastmile_qr_scan", "ios": "https://dc.lft.to/lastmile_qr_scan"}, "fusion_lat": 0.0, "is_reserved": 0, "lat": 38.941994666666666, "name": "a30be3f6fe5febddc61292fd64ba1be8", "bike_id": "a30be3f6fe5febddc61292fd64ba1be8", "is_disabled": 0, "fusion_lon": 0.0, "type": "electric_scooter", "lon": -77.02371633333334}, {"rental_uris": {"android": "https://dc.lft.to/lastmile_qr_scan", "ios": "https://dc.lft.to/lastmile_qr_scan"}, "fusion_lat": 0.0, "is_reserved": 0, "lat": 38.93267266666667, "name": "2905bc1d328afb971e720be4931fd0ea", "bike_id": "2905bc1d328afb971e720be4931fd0ea", "is_disabled": 0, "fusion_lon": 0.0, "type": "electric_scooter", "lon": -77.02091916666667}, {"rental_uris": {"android": "https://dc.lft.to/lastmile_qr_scan", "ios": "https://dc.lft.to/lastmile_qr_scan"}, "fusion_lat": 0.0, "is_reserved": 0, "lat": 38.905772, "name": "8ad547d3967a127f2aa2106d7ce15986", "bike_id": "8ad547d3967a127f2aa2106d7ce15986", "is_disabled": 0, "fusion_lon": 0.0, "type": "electric_scooter", "lon": -77.04676683333334}, {"rental_uris": {"android": "https://dc.lft.to/lastmile_qr_scan", "ios": "https://dc.lft.to/lastmile_qr_scan"}, "fusion_lat": 0.0, "is_reserved": 0, "lat": 38.916396166666665, "name": "7b57874926894ac5a6dcf9f5b874f5de", "bike_id": "7b57874926894ac5a6dcf9f5b874f5de", "is_disabled": 0, "fusion_lon": 0.0, "type": "electric_scooter", "lon": -77.02103283333334}, {"rental_uris": {"android": "https://dc.lft.to/lastmile_qr_scan", "ios": "https://dc.lft.to/lastmile_qr_scan"}, "fusion_lat": 0.0, "is_reserved": 0, "lat": 38.908982, "name": "6d358dc5be035046fae992ad73adbdae", "bike_id": "6d358dc5be035046fae992ad73adbdae", "is_disabled": 0, "fusion_lon": 0.0, "type": "electric_scooter", "lon": -77.04403266666667}, {"rental_uris": {"android": "https://dc.lft.to/lastmile_qr_scan", "ios": "https://dc.lft.to/lastmile_qr_scan"}, "fusion_lat": 0.0, "is_reserved": 0, "lat": 38.89421216666667, "name": "3ce70aa9d0c4a69573673a9e848dbdf1", "bike_id": "3ce70aa9d0c4a69573673a9e848dbdf1", "is_disabled": 0, "fusion_lon": 0.0, "type": "electric_scooter", "lon": -76.99771483333333}, {"rental_uris": {"android": "https://dc.lft.to/lastmile_qr_scan", "ios": "https://dc.lft.to/lastmile_qr_scan"}, "fusion_lat": 0.0, "is_reserved": 0, "lat": 38.92409, "name": "ac4b1b23d4129e1159317c8c1fd36d6a", "bike_id": "ac4b1b23d4129e1159317c8c1fd36d6a", "is_disabled": 0, "fusion_lon": 0.0, "type": "electric_scooter", "lon": -77.05168766666667}, {"rental_uris": {"android": "https://dc.lft.to/lastmile_qr_scan", "ios": "https://dc.lft.to/lastmile_qr_scan"}, "fusion_lat": 0.0, "is_reserved": 0, "lat": 38.928631, "name": "0fd3fd66546df4af81b204a5d4e9313c", "bike_id": "0fd3fd66546df4af81b204a5d4e9313c", "is_disabled": 0, "fusion_lon": 0.0, "type": "electric_scooter", "lon": -77.01405116666666}, {"rental_uris": {"android": "https://dc.lft.to/lastmile_qr_scan", "ios": "https://dc.lft.to/lastmile_qr_scan"}, "fusion_lat": 0.0, "is_reserved": 0, "lat": 38.903190333333335, "name": "dc42bff38923d9a45b59f037a69a40aa", "bike_id": "dc42bff38923d9a45b59f037a69a40aa", "is_disabled": 0, "fusion_lon": 0.0, "type": "electric_scooter", "lon": -77.01631966666666}, {"rental_uris": {"android": "https://dc.lft.to/lastmile_qr_scan", "ios": "https://dc.lft.to/lastmile_qr_scan"}, "fusion_lat": 0.0, "is_reserved": 0, "lat": 38.887592166666664, "name": "06f7d8b45a9341a0104a39f57fee9cb3", "bike_id": "06f7d8b45a9341a0104a39f57fee9cb3", "is_disabled": 0, "fusion_lon": 0.0, "type": "electric_bike", "lon": -77.08918633333333}, {"rental_uris": {"android": "https://dc.lft.to/lastmile_qr_scan", "ios": "https://dc.lft.to/lastmile_qr_scan"}, "fusion_lat": 0.0, "is_reserved": 0, "lat": 38.800573666666665, "name": "cd8e282f7fda873a91386bea517e6076", "bike_id": "cd8e282f7fda873a91386bea517e6076", "is_disabled": 0, "fusion_lon": 0.0, "type": "electric_bike", "lon": -77.12835433333333}, {"rental_uris": {"android": "https://dc.lft.to/lastmile_qr_scan", "ios": "https://dc.lft.to/lastmile_qr_scan"}, "fusion_lat": 0.0, "is_reserved": 0, "lat": 38.9311445, "name": "4d1a5ce66ab74b981ce4d9ee7370c764", "bike_id": "4d1a5ce66ab74b981ce4d9ee7370c764", "is_disabled": 0, "fusion_lon": 0.0, "type": "electric_scooter", "lon": -77.03510016666667}, {"rental_uris": {"android": "https://dc.lft.to/lastmile_qr_scan", "ios": "https://dc.lft.to/lastmile_qr_scan"}, "fusion_lat": 0.0, "is_reserved": 0, "lat": 38.84631016666667, "name": "d77347f4f0cf817bf8d9b054d50e10e1", "bike_id": "d77347f4f0cf817bf8d9b054d50e10e1", "is_disabled": 0, "fusion_lon": 0.0, "type": "electric_scooter", "lon": -76.98121733333333}, {"rental_uris": {"android": "https://dc.lft.to/lastmile_qr_scan", "ios": "https://dc.lft.to/lastmile_qr_scan"}, "fusion_lat": 0.0, "is_reserved": 0, "lat": 38.916331666666665, "name": "00128fa83fc96c11d6b5a9bcee8a0b06", "bike_id": "00128fa83fc96c11d6b5a9bcee8a0b06", "is_disabled": 0, "fusion_lon": 0.0, "type": "electric_bike", "lon": -77.04255116666667}, {"rental_uris": {"android": "https://dc.lft.to/lastmile_qr_scan", "ios": "https://dc.lft.to/lastmile_qr_scan"}, "fusion_lat": 0.0, "is_reserved": 0, "lat": 38.995244166666666, "name": "bd58922f81fe66eb98f883e9635ef37f", "bike_id": "bd58922f81fe66eb98f883e9635ef37f", "is_disabled": 0, "fusion_lon": 0.0, "type": "electric_bike", "lon": -76.99961283333333}, {"rental_uris": {"android": "https://dc.lft.to/lastmile_qr_scan", "ios": "https://dc.lft.to/lastmile_qr_scan"}, "fusion_lat": 0.0, "is_reserved": 0, "lat": 38.898723833333335, "name": "a1aef9a77f8349f2da2b84619dadd59d", "bike_id": "a1aef9a77f8349f2da2b84619dadd59d", "is_disabled": 0, "fusion_lon": 0.0, "type": "electric_scooter", "lon": -77.050156}, {"rental_uris": {"android": "https://dc.lft.to/lastmile_qr_scan", "ios": "https://dc.lft.to/lastmile_qr_scan"}, "fusion_lat": 0.0, "is_reserved": 0, "lat": 38.933144666666664, "name": "62b4e500ee6e5b9a190faf910fb6b341", "bike_id": "62b4e500ee6e5b9a190faf910fb6b341", "is_disabled": 0, "fusion_lon": 0.0, "type": "electric_scooter", "lon": -77.02902783333333}, {"rental_uris": {"android": "https://dc.lft.to/lastmile_qr_scan", "ios": "https://dc.lft.to/lastmile_qr_scan"}, "fusion_lat": 0.0, "is_reserved": 0, "lat": 38.923302166666666, "name": "e7b73e11bb3a491fc9972a0f0047a677", "bike_id": "e7b73e11bb3a491fc9972a0f0047a677", "is_disabled": 0, "fusion_lon": 0.0, "type": "electric_scooter", "lon": -77.00058983333334}, {"rental_uris": {"android": "https://dc.lft.to/lastmile_qr_scan", "ios": "https://dc.lft.to/lastmile_qr_scan"}, "fusion_lat": 0.0, "is_reserved": 0, "lat": 38.918209, "name": "dbde32235daf805577a17e73be1253f5", "bike_id": "dbde32235daf805577a17e73be1253f5", "is_disabled": 0, "fusion_lon": 0.0, "type": "electric_scooter", "lon": -77.03193}, {"rental_uris": {"android": "https://dc.lft.to/lastmile_qr_scan", "ios": "https://dc.lft.to/lastmile_qr_scan"}, "fusion_lat": 0.0, "is_reserved": 0, "lat": 38.908364, "name": "75f02cf5f2e25616d5ed8ea84471bc39", "bike_id": "75f02cf5f2e25616d5ed8ea84471bc39", "is_disabled": 0, "fusion_lon": 0.0, "type": "electric_scooter", "lon": -76.99703166666667}, {"rental_uris": {"android": "https://dc.lft.to/lastmile_qr_scan", "ios": "https://dc.lft.to/lastmile_qr_scan"}, "fusion_lat": 0.0, "is_reserved": 0, "lat": 38.83615233333333, "name": "5cd4fd9310ab35916ca7d3305e8d7896", "bike_id": "5cd4fd9310ab35916ca7d3305e8d7896", "is_disabled": 0, "fusion_lon": 0.0, "type": "electric_bike", "lon": -77.003815}, {"rental_uris": {"android": "https://dc.lft.to/lastmile_qr_scan", "ios": "https://dc.lft.to/lastmile_qr_scan"}, "fusion_lat": 0.0, "is_reserved": 0, "lat": 38.91813716666667, "name": "100bdae78b41f32c320163bbb028aa63", "bike_id": "100bdae78b41f32c320163bbb028aa63", "is_disabled": 0, "fusion_lon": 0.0, "type": "electric_scooter", "lon": -77.030249}, {"rental_uris": {"android": "https://dc.lft.to/lastmile_qr_scan", "ios": "https://dc.lft.to/lastmile_qr_scan"}, "fusion_lat": 0.0, "is_reserved": 0, "lat": 38.9007135, "name": "4341a963f2b9f42b685daeb2d82f7da4", "bike_id": "4341a963f2b9f42b685daeb2d82f7da4", "is_disabled": 0, "fusion_lon": 0.0, "type": "electric_scooter", "lon": -76.92743366666667}, {"rental_uris": {"android": "https://dc.lft.to/lastmile_qr_scan", "ios": "https://dc.lft.to/lastmile_qr_scan"}, "fusion_lat": 0.0, "is_reserved": 0, "lat": 38.92214516666667, "name": "825005f2d1e32c4bbdcea37e734b133a", "bike_id": "825005f2d1e32c4bbdcea37e734b133a", "is_disabled": 0, "fusion_lon": 0.0, "type": "electric_scooter", "lon": -77.02661583333334}, {"rental_uris": {"android": "https://dc.lft.to/lastmile_qr_scan", "ios": "https://dc.lft.to/lastmile_qr_scan"}, "fusion_lat": 0.0, "is_reserved": 0, "lat": 38.91546533333333, "name": "573a1d33b9b1f636129c802d1d08f600", "bike_id": "573a1d33b9b1f636129c802d1d08f600", "is_disabled": 0, "fusion_lon": 0.0, "type": "electric_scooter", "lon": -77.0220325}, {"rental_uris": {"android": "https://dc.lft.to/lastmile_qr_scan", "ios": "https://dc.lft.to/lastmile_qr_scan"}, "fusion_lat": 0.0, "is_reserved": 0, "lat": 38.92438766666667, "name": "3077b68d59222823094a08f2d3f70c00", "bike_id": "3077b68d59222823094a08f2d3f70c00", "is_disabled": 0, "fusion_lon": 0.0, "type": "electric_scooter", "lon": -77.04253216666666}, {"rental_uris": {"android": "https://dc.lft.to/lastmile_qr_scan", "ios": "https://dc.lft.to/lastmile_qr_scan"}, "fusion_lat": 0.0, "is_reserved": 0, "lat": 38.89224316666667, "name": "c8c2a5cf291d4048cc2a3ed83a9f0831", "bike_id": "c8c2a5cf291d4048cc2a3ed83a9f0831", "is_disabled": 0, "fusion_lon": 0.0, "type": "electric_scooter", "lon": -77.022288}, {"rental_uris": {"android": "https://dc.lft.to/lastmile_qr_scan", "ios": "https://dc.lft.to/lastmile_qr_scan"}, "fusion_lat": 0.0, "is_reserved": 0, "lat": 38.92290066666666, "name": "aa3532861f044be0a1f8edc326301a20", "bike_id": "aa3532861f044be0a1f8edc326301a20", "is_disabled": 0, "fusion_lon": 0.0, "type": "electric_scooter", "lon": -77.0366565}, {"rental_uris": {"android": "https://dc.lft.to/lastmile_qr_scan", "ios": "https://dc.lft.to/lastmile_qr_scan"}, "fusion_lat": 0.0, "is_reserved": 0, "lat": 38.8850235, "name": "bb0fdf272f1079097de518fcd67f7919", "bike_id": "bb0fdf272f1079097de518fcd67f7919", "is_disabled": 0, "fusion_lon": 0.0, "type": "electric_scooter", "lon": -77.01589083333333}, {"rental_uris": {"android": "https://dc.lft.to/lastmile_qr_scan", "ios": "https://dc.lft.to/lastmile_qr_scan"}, "fusion_lat": 0.0, "is_reserved": 0, "lat": 38.909737, "name": "65c6775023b4275bc9d578c4fc759ac8", "bike_id": "65c6775023b4275bc9d578c4fc759ac8", "is_disabled": 0, "fusion_lon": 0.0, "type": "electric_scooter", "lon": -77.02583}, {"rental_uris": {"android": "https://dc.lft.to/lastmile_qr_scan", "ios": "https://dc.lft.to/lastmile_qr_scan"}, "fusion_lat": 0.0, "is_reserved": 0, "lat": 38.90248316666667, "name": "3b9ea7e38eaa1ddd4b1426a32a639c66", "bike_id": "3b9ea7e38eaa1ddd4b1426a32a639c66", "is_disabled": 0, "fusion_lon": 0.0, "type": "electric_scooter", "lon": -77.03950633333334}, {"rental_uris": {"android": "https://dc.lft.to/lastmile_qr_scan", "ios": "https://dc.lft.to/lastmile_qr_scan"}, "fusion_lat": 0.0, "is_reserved": 0, "lat": 38.9294945, "name": "7bad3a08fdf4bc6e606e2befcea4a29b", "bike_id": "7bad3a08fdf4bc6e606e2befcea4a29b", "is_disabled": 0, "fusion_lon": 0.0, "type": "electric_scooter", "lon": -77.00406483333333}, {"rental_uris": {"android": "https://dc.lft.to/lastmile_qr_scan", "ios": "https://dc.lft.to/lastmile_qr_scan"}, "fusion_lat": 0.0, "is_reserved": 0, "lat": 38.91497916666667, "name": "466629160bde059fd8a119ad067596f7", "bike_id": "466629160bde059fd8a119ad067596f7", "is_disabled": 0, "fusion_lon": 0.0, "type": "electric_scooter", "lon": -77.01859233333333}, {"rental_uris": {"android": "https://dc.lft.to/lastmile_qr_scan", "ios": "https://dc.lft.to/lastmile_qr_scan"}, "fusion_lat": 0.0, "is_reserved": 0, "lat": 38.88731083333333, "name": "14bae63e5dcffdf997c4d2e1f2346aa2", "bike_id": "14bae63e5dcffdf997c4d2e1f2346aa2", "is_disabled": 0, "fusion_lon": 0.0, "type": "electric_scooter", "lon": -76.98359183333334}, {"rental_uris": {"android": "https://dc.lft.to/lastmile_qr_scan", "ios": "https://dc.lft.to/lastmile_qr_scan"}, "fusion_lat": 0.0, "is_reserved": 0, "lat": 38.79336383333333, "name": "568ff2f40d4e72734fd5c2d38769fbf9", "bike_id": "568ff2f40d4e72734fd5c2d38769fbf9", "is_disabled": 0, "fusion_lon": 0.0, "type": "electric_bike", "lon": -77.00051733333333}, {"rental_uris": {"android": "https://dc.lft.to/lastmile_qr_scan", "ios": "https://dc.lft.to/lastmile_qr_scan"}, "fusion_lat": 0.0, "is_reserved": 0, "lat": 38.9022325, "name": "5ac8790ce1aae2196dfcade62996bfee", "bike_id": "5ac8790ce1aae2196dfcade62996bfee", "is_disabled": 0, "fusion_lon": 0.0, "type": "electric_scooter", "lon": -77.02441766666666}, {"rental_uris": {"android": "https://dc.lft.to/lastmile_qr_scan", "ios": "https://dc.lft.to/lastmile_qr_scan"}, "fusion_lat": 0.0, "is_reserved": 0, "lat": 38.93983033333333, "name": "1732bdc784b88e3bffc8cdb5cf84ae92", "bike_id": "1732bdc784b88e3bffc8cdb5cf84ae92", "is_disabled": 0, "fusion_lon": 0.0, "type": "electric_scooter", "lon": -77.035631}, {"rental_uris": {"android": "https://dc.lft.to/lastmile_qr_scan", "ios": "https://dc.lft.to/lastmile_qr_scan"}, "fusion_lat": 0.0, "is_reserved": 0, "lat": 38.90585733333333, "name": "729336a1dddbcfcca4f0638cc63760db", "bike_id": "729336a1dddbcfcca4f0638cc63760db", "is_disabled": 0, "fusion_lon": 0.0, "type": "electric_scooter", "lon": -76.99046816666667}, {"rental_uris": {"android": "https://dc.lft.to/lastmile_qr_scan", "ios": "https://dc.lft.to/lastmile_qr_scan"}, "fusion_lat": 0.0, "is_reserved": 0, "lat": 38.89217416666666, "name": "5f763da4bd1ce60a76f3f75a42ec2cd7", "bike_id": "5f763da4bd1ce60a76f3f75a42ec2cd7", "is_disabled": 0, "fusion_lon": 0.0, "type": "electric_scooter", "lon": -76.921597}, {"rental_uris": {"android": "https://dc.lft.to/lastmile_qr_scan", "ios": "https://dc.lft.to/lastmile_qr_scan"}, "fusion_lat": 0.0, "is_reserved": 0, "lat": 38.9119575, "name": "31d2e8e59f8a713393506fc7619fcc6f", "bike_id": "31d2e8e59f8a713393506fc7619fcc6f", "is_disabled": 0, "fusion_lon": 0.0, "type": "electric_scooter", "lon": -77.03837533333333}, {"rental_uris": {"android": "https://dc.lft.to/lastmile_qr_scan", "ios": "https://dc.lft.to/lastmile_qr_scan"}, "fusion_lat": 0.0, "is_reserved": 0, "lat": 38.906019, "name": "07eb003d25dc3bde3b3383fff8c94b94", "bike_id": "07eb003d25dc3bde3b3383fff8c94b94", "is_disabled": 0, "fusion_lon": 0.0, "type": "electric_scooter", "lon": -77.016192}, {"rental_uris": {"android": "https://dc.lft.to/lastmile_qr_scan", "ios": "https://dc.lft.to/lastmile_qr_scan"}, "fusion_lat": 0.0, "is_reserved": 0, "lat": 38.898533, "name": "29dd923d878db41b3aa83d08835cb02b", "bike_id": "29dd923d878db41b3aa83d08835cb02b", "is_disabled": 0, "fusion_lon": 0.0, "type": "electric_bike", "lon": -77.118683}, {"rental_uris": {"android": "https://dc.lft.to/lastmile_qr_scan", "ios": "https://dc.lft.to/lastmile_qr_scan"}, "fusion_lat": 0.0, "is_reserved": 0, "lat": 38.88603633333334, "name": "77fad6d6913411210a65777b0a5e62a4", "bike_id": "77fad6d6913411210a65777b0a5e62a4", "is_disabled": 0, "fusion_lon": 0.0, "type": "electric_scooter", "lon": -77.04514233333333}, {"rental_uris": {"android": "https://dc.lft.to/lastmile_qr_scan", "ios": "https://dc.lft.to/lastmile_qr_scan"}, "fusion_lat": 0.0, "is_reserved": 0, "lat": 38.91492933333333, "name": "4674b5626bb2d53e5b62a2145b12c8e7", "bike_id": "4674b5626bb2d53e5b62a2145b12c8e7", "is_disabled": 0, "fusion_lon": 0.0, "type": "electric_scooter", "lon": -76.983614}, {"rental_uris": {"android": "https://dc.lft.to/lastmile_qr_scan", "ios": "https://dc.lft.to/lastmile_qr_scan"}, "fusion_lat": 0.0, "is_reserved": 0, "lat": 38.98918416666667, "name": "b00c849d48b77b48269d1fc4f0ab0f27", "bike_id": "b00c849d48b77b48269d1fc4f0ab0f27", "is_disabled": 0, "fusion_lon": 0.0, "type": "electric_bike", "lon": -77.025425}, {"rental_uris": {"android": "https://dc.lft.to/lastmile_qr_scan", "ios": "https://dc.lft.to/lastmile_qr_scan"}, "fusion_lat": 0.0, "is_reserved": 0, "lat": 38.9302055, "name": "9b9ede703698a586a2ed63e9987225ec", "bike_id": "9b9ede703698a586a2ed63e9987225ec", "is_disabled": 0, "fusion_lon": 0.0, "type": "electric_scooter", "lon": -77.03657666666666}, {"rental_uris": {"android": "https://dc.lft.to/lastmile_qr_scan", "ios": "https://dc.lft.to/lastmile_qr_scan"}, "fusion_lat": 0.0, "is_reserved": 0, "lat": 38.90458483333333, "name": "64d47fdedb72cae450f681a2efc0e049", "bike_id": "64d47fdedb72cae450f681a2efc0e049", "is_disabled": 0, "fusion_lon": 0.0, "type": "electric_scooter", "lon": -77.0168205}, {"rental_uris": {"android": "https://dc.lft.to/lastmile_qr_scan", "ios": "https://dc.lft.to/lastmile_qr_scan"}, "fusion_lat": 0.0, "is_reserved": 0, "lat": 38.9194775, "name": "baca6c644a03b366471efc33e6bb0a97", "bike_id": "baca6c644a03b366471efc33e6bb0a97", "is_disabled": 0, "fusion_lon": 0.0, "type": "electric_scooter", "lon": -77.01800366666667}, {"rental_uris": {"android": "https://dc.lft.to/lastmile_qr_scan", "ios": "https://dc.lft.to/lastmile_qr_scan"}, "fusion_lat": 0.0, "is_reserved": 0, "lat": 38.92289183333333, "name": "52375c6accd1a6c117e6450c365c450e", "bike_id": "52375c6accd1a6c117e6450c365c450e", "is_disabled": 0, "fusion_lon": 0.0, "type": "electric_scooter", "lon": -77.03666983333333}, {"rental_uris": {"android": "https://dc.lft.to/lastmile_qr_scan", "ios": "https://dc.lft.to/lastmile_qr_scan"}, "fusion_lat": 0.0, "is_reserved": 0, "lat": 38.933497, "name": "368f11074e327e95a256bfb701347782", "bike_id": "368f11074e327e95a256bfb701347782", "is_disabled": 0, "fusion_lon": 0.0, "type": "electric_scooter", "lon": -77.05705933333333}, {"rental_uris": {"android": "https://dc.lft.to/lastmile_qr_scan", "ios": "https://dc.lft.to/lastmile_qr_scan"}, "fusion_lat": 0.0, "is_reserved": 0, "lat": 38.9211315, "name": "690ae6be222d74587988f0c9a6bc091c", "bike_id": "690ae6be222d74587988f0c9a6bc091c", "is_disabled": 0, "fusion_lon": 0.0, "type": "electric_scooter", "lon": -77.04221833333334}, {"rental_uris": {"android": "https://dc.lft.to/lastmile_qr_scan", "ios": "https://dc.lft.to/lastmile_qr_scan"}, "fusion_lat": 0.0, "is_reserved": 0, "lat": 38.89700716666667, "name": "e25af506d7b82c2ad68c22cb914b84b1", "bike_id": "e25af506d7b82c2ad68c22cb914b84b1", "is_disabled": 0, "fusion_lon": 0.0, "type": "electric_scooter", "lon": -77.02808933333333}, {"rental_uris": {"android": "https://dc.lft.to/lastmile_qr_scan", "ios": "https://dc.lft.to/lastmile_qr_scan"}, "fusion_lat": 0.0, "is_reserved": 0, "lat": 38.86247433333333, "name": "8c69c7e34bbbeaf53e9ea6b31bd88fd1", "bike_id": "8c69c7e34bbbeaf53e9ea6b31bd88fd1", "is_disabled": 0, "fusion_lon": 0.0, "type": "electric_scooter", "lon": -76.99500433333333}, {"rental_uris": {"android": "https://dc.lft.to/lastmile_qr_scan", "ios": "https://dc.lft.to/lastmile_qr_scan"}, "fusion_lat": 0.0, "is_reserved": 0, "lat": 38.911950833333336, "name": "f972cf011f4e99864a39b7c2764c7dd1", "bike_id": "f972cf011f4e99864a39b7c2764c7dd1", "is_disabled": 0, "fusion_lon": 0.0, "type": "electric_scooter", "lon": -77.0078545}, {"rental_uris": {"android": "https://dc.lft.to/lastmile_qr_scan", "ios": "https://dc.lft.to/lastmile_qr_scan"}, "fusion_lat": 0.0, "is_reserved": 0, "lat": 38.92361016666667, "name": "34b8783c42a6dcedac6575279042bc49", "bike_id": "34b8783c42a6dcedac6575279042bc49", "is_disabled": 0, "fusion_lon": 0.0, "type": "electric_scooter", "lon": -77.05032066666666}, {"rental_uris": {"android": "https://dc.lft.to/lastmile_qr_scan", "ios": "https://dc.lft.to/lastmile_qr_scan"}, "fusion_lat": 0.0, "is_reserved": 0, "lat": 38.900525333333334, "name": "f139c40a3d11c5a502e9f779d8275c9d", "bike_id": "f139c40a3d11c5a502e9f779d8275c9d", "is_disabled": 0, "fusion_lon": 0.0, "type": "electric_scooter", "lon": -77.017918}, {"rental_uris": {"android": "https://dc.lft.to/lastmile_qr_scan", "ios": "https://dc.lft.to/lastmile_qr_scan"}, "fusion_lat": 0.0, "is_reserved": 0, "lat": 38.908178166666666, "name": "43668565482d19f02b721a2b70ba21c3", "bike_id": "43668565482d19f02b721a2b70ba21c3", "is_disabled": 0, "fusion_lon": 0.0, "type": "electric_scooter", "lon": -77.0691515}, {"rental_uris": {"android": "https://dc.lft.to/lastmile_qr_scan", "ios": "https://dc.lft.to/lastmile_qr_scan"}, "fusion_lat": 0.0, "is_reserved": 0, "lat": 38.91990416666667, "name": "baaee310a6c667aaf3290fabd415d90c", "bike_id": "baaee310a6c667aaf3290fabd415d90c", "is_disabled": 0, "fusion_lon": 0.0, "type": "electric_scooter", "lon": -77.04167066666666}, {"rental_uris": {"android": "https://dc.lft.to/lastmile_qr_scan", "ios": "https://dc.lft.to/lastmile_qr_scan"}, "fusion_lat": 0.0, "is_reserved": 0, "lat": 38.956303, "name": "91431fc00df1ae170260e6c551ceb2b9", "bike_id": "91431fc00df1ae170260e6c551ceb2b9", "is_disabled": 0, "fusion_lon": 0.0, "type": "electric_scooter", "lon": -77.02432216666666}, {"rental_uris": {"android": "https://dc.lft.to/lastmile_qr_scan", "ios": "https://dc.lft.to/lastmile_qr_scan"}, "fusion_lat": 0.0, "is_reserved": 0, "lat": 38.952156333333335, "name": "5fffc84cf009dd1ded1362ee1b9256af", "bike_id": "5fffc84cf009dd1ded1362ee1b9256af", "is_disabled": 0, "fusion_lon": 0.0, "type": "electric_bike", "lon": -77.00279283333333}, {"rental_uris": {"android": "https://dc.lft.to/lastmile_qr_scan", "ios": "https://dc.lft.to/lastmile_qr_scan"}, "fusion_lat": 0.0, "is_reserved": 0, "lat": 38.8962345, "name": "71b5e5d568d773c9c890afd0583d3753", "bike_id": "71b5e5d568d773c9c890afd0583d3753", "is_disabled": 0, "fusion_lon": 0.0, "type": "electric_scooter", "lon": -77.01174233333333}, {"rental_uris": {"android": "https://dc.lft.to/lastmile_qr_scan", "ios": "https://dc.lft.to/lastmile_qr_scan"}, "fusion_lat": 0.0, "is_reserved": 0, "lat": 38.90566883333334, "name": "39867d74c60071bf6ad43f3fcdbb4a46", "bike_id": "39867d74c60071bf6ad43f3fcdbb4a46", "is_disabled": 0, "fusion_lon": 0.0, "type": "electric_scooter", "lon": -77.0418625}, {"rental_uris": {"android": "https://dc.lft.to/lastmile_qr_scan", "ios": "https://dc.lft.to/lastmile_qr_scan"}, "fusion_lat": 0.0, "is_reserved": 0, "lat": 38.947251333333334, "name": "9bc39031e04974088b0f587b0bc7c775", "bike_id": "9bc39031e04974088b0f587b0bc7c775", "is_disabled": 0, "fusion_lon": 0.0, "type": "electric_scooter", "lon": -77.0245405}, {"rental_uris": {"android": "https://dc.lft.to/lastmile_qr_scan", "ios": "https://dc.lft.to/lastmile_qr_scan"}, "fusion_lat": 0.0, "is_reserved": 0, "lat": 38.900668833333334, "name": "99b63dad612bc6d13466da0123edb63c", "bike_id": "99b63dad612bc6d13466da0123edb63c", "is_disabled": 0, "fusion_lon": 0.0, "type": "electric_scooter", "lon": -76.92743216666666}, {"rental_uris": {"android": "https://dc.lft.to/lastmile_qr_scan", "ios": "https://dc.lft.to/lastmile_qr_scan"}, "fusion_lat": 0.0, "is_reserved": 0, "lat": 38.9014745, "name": "75f0721e08931f6467158e98dc81be73", "bike_id": "75f0721e08931f6467158e98dc81be73", "is_disabled": 0, "fusion_lon": 0.0, "type": "electric_scooter", "lon": -77.04032166666667}, {"rental_uris": {"android": "https://dc.lft.to/lastmile_qr_scan", "ios": "https://dc.lft.to/lastmile_qr_scan"}, "fusion_lat": 0.0, "is_reserved": 0, "lat": 38.92055233333333, "name": "9e63f02212a2b4720389d376a084ad79", "bike_id": "9e63f02212a2b4720389d376a084ad79", "is_disabled": 0, "fusion_lon": 0.0, "type": "electric_scooter", "lon": -77.02986783333333}, {"rental_uris": {"android": "https://dc.lft.to/lastmile_qr_scan", "ios": "https://dc.lft.to/lastmile_qr_scan"}, "fusion_lat": 0.0, "is_reserved": 0, "lat": 38.87635083333333, "name": "743f62f06e3accfb5169c9d45e9c9e0e", "bike_id": "743f62f06e3accfb5169c9d45e9c9e0e", "is_disabled": 0, "fusion_lon": 0.0, "type": "electric_scooter", "lon": -77.01659333333333}, {"rental_uris": {"android": "https://dc.lft.to/lastmile_qr_scan", "ios": "https://dc.lft.to/lastmile_qr_scan"}, "fusion_lat": 0.0, "is_reserved": 0, "lat": 38.882671333333334, "name": "00b886f52817c020ca5bd4cd576fe477", "bike_id": "00b886f52817c020ca5bd4cd576fe477", "is_disabled": 0, "fusion_lon": 0.0, "type": "electric_scooter", "lon": -76.991998}, {"rental_uris": {"android": "https://dc.lft.to/lastmile_qr_scan", "ios": "https://dc.lft.to/lastmile_qr_scan"}, "fusion_lat": 0.0, "is_reserved": 0, "lat": 38.92695283333333, "name": "313ee9a68c227890e1d85997a65924ba", "bike_id": "313ee9a68c227890e1d85997a65924ba", "is_disabled": 0, "fusion_lon": 0.0, "type": "electric_scooter", "lon": -77.02056233333333}, {"rental_uris": {"android": "https://dc.lft.to/lastmile_qr_scan", "ios": "https://dc.lft.to/lastmile_qr_scan"}, "fusion_lat": 0.0, "is_reserved": 0, "lat": 38.952240333333336, "name": "094d7ddd521dbc7891051925e03fb002", "bike_id": "094d7ddd521dbc7891051925e03fb002", "is_disabled": 0, "fusion_lon": 0.0, "type": "electric_scooter", "lon": -77.069744}, {"rental_uris": {"android": "https://dc.lft.to/lastmile_qr_scan", "ios": "https://dc.lft.to/lastmile_qr_scan"}, "fusion_lat": 0.0, "is_reserved": 0, "lat": 38.912515, "name": "681e980c1e29665d6b75973a96561a22", "bike_id": "681e980c1e29665d6b75973a96561a22", "is_disabled": 0, "fusion_lon": 0.0, "type": "electric_scooter", "lon": -77.0344405}, {"rental_uris": {"android": "https://dc.lft.to/lastmile_qr_scan", "ios": "https://dc.lft.to/lastmile_qr_scan"}, "fusion_lat": 0.0, "is_reserved": 0, "lat": 38.92974866666667, "name": "ad58eedced69bb74f2547c83e5b4c1bb", "bike_id": "ad58eedced69bb74f2547c83e5b4c1bb", "is_disabled": 0, "fusion_lon": 0.0, "type": "electric_scooter", "lon": -77.02800383333333}, {"rental_uris": {"android": "https://dc.lft.to/lastmile_qr_scan", "ios": "https://dc.lft.to/lastmile_qr_scan"}, "fusion_lat": 0.0, "is_reserved": 0, "lat": 38.94037066666667, "name": "26e504dcd770fb88a1ba9f49ef94c277", "bike_id": "26e504dcd770fb88a1ba9f49ef94c277", "is_disabled": 0, "fusion_lon": 0.0, "type": "electric_scooter", "lon": -77.02501783333334}, {"rental_uris": {"android": "https://dc.lft.to/lastmile_qr_scan", "ios": "https://dc.lft.to/lastmile_qr_scan"}, "fusion_lat": 0.0, "is_reserved": 0, "lat": 38.91713283333333, "name": "9985425655e5f2dba5e2c2725d2f0d3d", "bike_id": "9985425655e5f2dba5e2c2725d2f0d3d", "is_disabled": 0, "fusion_lon": 0.0, "type": "electric_scooter", "lon": -77.02680383333333}, {"rental_uris": {"android": "https://dc.lft.to/lastmile_qr_scan", "ios": "https://dc.lft.to/lastmile_qr_scan"}, "fusion_lat": 0.0, "is_reserved": 0, "lat": 38.924215833333335, "name": "daadf13604c1c047453e01e6e2f7e19f", "bike_id": "daadf13604c1c047453e01e6e2f7e19f", "is_disabled": 0, "fusion_lon": 0.0, "type": "electric_scooter", "lon": -77.01948533333334}, {"rental_uris": {"android": "https://dc.lft.to/lastmile_qr_scan", "ios": "https://dc.lft.to/lastmile_qr_scan"}, "fusion_lat": 0.0, "is_reserved": 0, "lat": 38.923636333333334, "name": "6dab2fbddca8c33a3f4a2783abd28a48", "bike_id": "6dab2fbddca8c33a3f4a2783abd28a48", "is_disabled": 0, "fusion_lon": 0.0, "type": "electric_scooter", "lon": -77.04327316666667}, {"rental_uris": {"android": "https://dc.lft.to/lastmile_qr_scan", "ios": "https://dc.lft.to/lastmile_qr_scan"}, "fusion_lat": 0.0, "is_reserved": 0, "lat": 38.898859, "name": "91240d1946468bd152b78c34882539e2", "bike_id": "91240d1946468bd152b78c34882539e2", "is_disabled": 0, "fusion_lon": 0.0, "type": "electric_scooter", "lon": -76.98836333333334}, {"rental_uris": {"android": "https://dc.lft.to/lastmile_qr_scan", "ios": "https://dc.lft.to/lastmile_qr_scan"}, "fusion_lat": 0.0, "is_reserved": 0, "lat": 38.933394166666666, "name": "414cc9db7e809dda3c87d8579bf5ef5e", "bike_id": "414cc9db7e809dda3c87d8579bf5ef5e", "is_disabled": 0, "fusion_lon": 0.0, "type": "electric_scooter", "lon": -77.0363395}, {"rental_uris": {"android": "https://dc.lft.to/lastmile_qr_scan", "ios": "https://dc.lft.to/lastmile_qr_scan"}, "fusion_lat": 0.0, "is_reserved": 0, "lat": 38.89546166666667, "name": "38e3a66e9f62e9281f892613c8088f23", "bike_id": "38e3a66e9f62e9281f892613c8088f23", "is_disabled": 0, "fusion_lon": 0.0, "type": "electric_scooter", "lon": -76.98336183333333}, {"rental_uris": {"android": "https://dc.lft.to/lastmile_qr_scan", "ios": "https://dc.lft.to/lastmile_qr_scan"}, "fusion_lat": 0.0, "is_reserved": 0, "lat": 38.919583333333335, "name": "dd9898db11c3fffdc89b7de19eba1652", "bike_id": "dd9898db11c3fffdc89b7de19eba1652", "is_disabled": 0, "fusion_lon": 0.0, "type": "electric_scooter", "lon": -76.99200783333333}, {"rental_uris": {"android": "https://dc.lft.to/lastmile_qr_scan", "ios": "https://dc.lft.to/lastmile_qr_scan"}, "fusion_lat": 0.0, "is_reserved": 0, "lat": 38.93861416666667, "name": "166b46873c64bfad729e997b2e42e76a", "bike_id": "166b46873c64bfad729e997b2e42e76a", "is_disabled": 0, "fusion_lon": 0.0, "type": "electric_scooter", "lon": -77.0247875}, {"rental_uris": {"android": "https://dc.lft.to/lastmile_qr_scan", "ios": "https://dc.lft.to/lastmile_qr_scan"}, "fusion_lat": 0.0, "is_reserved": 0, "lat": 38.806382166666666, "name": "bb4085653786074a5ef004c986602eab", "bike_id": "bb4085653786074a5ef004c986602eab", "is_disabled": 0, "fusion_lon": 0.0, "type": "electric_bike", "lon": -77.0625675}, {"rental_uris": {"android": "https://dc.lft.to/lastmile_qr_scan", "ios": "https://dc.lft.to/lastmile_qr_scan"}, "fusion_lat": 0.0, "is_reserved": 0, "lat": 38.930878166666666, "name": "2485375e72027dff9666735070724e25", "bike_id": "2485375e72027dff9666735070724e25", "is_disabled": 0, "fusion_lon": 0.0, "type": "electric_scooter", "lon": -77.03771733333333}, {"rental_uris": {"android": "https://dc.lft.to/lastmile_qr_scan", "ios": "https://dc.lft.to/lastmile_qr_scan"}, "fusion_lat": 0.0, "is_reserved": 0, "lat": 38.896129333333334, "name": "ccc52a420ad9eca130c2ea9904b274be", "bike_id": "ccc52a420ad9eca130c2ea9904b274be", "is_disabled": 0, "fusion_lon": 0.0, "type": "electric_scooter", "lon": -77.02592466666667}, {"rental_uris": {"android": "https://dc.lft.to/lastmile_qr_scan", "ios": "https://dc.lft.to/lastmile_qr_scan"}, "fusion_lat": 0.0, "is_reserved": 0, "lat": 38.915828166666664, "name": "76f4bbb08d2f4543e6746f18ce592e95", "bike_id": "76f4bbb08d2f4543e6746f18ce592e95", "is_disabled": 0, "fusion_lon": 0.0, "type": "electric_scooter", "lon": -77.012334}, {"rental_uris": {"android": "https://dc.lft.to/lastmile_qr_scan", "ios": "https://dc.lft.to/lastmile_qr_scan"}, "fusion_lat": 0.0, "is_reserved": 0, "lat": 38.918736833333334, "name": "d4fe6fd6d172bf152b866c2f7165a164", "bike_id": "d4fe6fd6d172bf152b866c2f7165a164", "is_disabled": 0, "fusion_lon": 0.0, "type": "electric_scooter", "lon": -77.035554}, {"rental_uris": {"android": "https://dc.lft.to/lastmile_qr_scan", "ios": "https://dc.lft.to/lastmile_qr_scan"}, "fusion_lat": 0.0, "is_reserved": 0, "lat": 38.92877283333333, "name": "5d381c328c3b436e839b565417cab8bc", "bike_id": "5d381c328c3b436e839b565417cab8bc", "is_disabled": 0, "fusion_lon": 0.0, "type": "electric_scooter", "lon": -77.02712133333333}, {"rental_uris": {"android": "https://dc.lft.to/lastmile_qr_scan", "ios": "https://dc.lft.to/lastmile_qr_scan"}, "fusion_lat": 0.0, "is_reserved": 0, "lat": 38.9081465, "name": "a6e9630ca76254f17d5117407a1c7c6e", "bike_id": "a6e9630ca76254f17d5117407a1c7c6e", "is_disabled": 0, "fusion_lon": 0.0, "type": "electric_scooter", "lon": -77.042032}, {"rental_uris": {"android": "https://dc.lft.to/lastmile_qr_scan", "ios": "https://dc.lft.to/lastmile_qr_scan"}, "fusion_lat": 0.0, "is_reserved": 0, "lat": 38.904779833333336, "name": "195d323cf03b7b08c8ca67498125251a", "bike_id": "195d323cf03b7b08c8ca67498125251a", "is_disabled": 0, "fusion_lon": 0.0, "type": "electric_scooter", "lon": -77.0487305}, {"rental_uris": {"android": "https://dc.lft.to/lastmile_qr_scan", "ios": "https://dc.lft.to/lastmile_qr_scan"}, "fusion_lat": 0.0, "is_reserved": 0, "lat": 38.927941833333335, "name": "f72211c91203364128b53b1d4570e316", "bike_id": "f72211c91203364128b53b1d4570e316", "is_disabled": 0, "fusion_lon": 0.0, "type": "electric_scooter", "lon": -77.03083683333334}, {"rental_uris": {"android": "https://dc.lft.to/lastmile_qr_scan", "ios": "https://dc.lft.to/lastmile_qr_scan"}, "fusion_lat": 0.0, "is_reserved": 0, "lat": 38.909009, "name": "5a5761d74a2e28989e41398e8dd1f254", "bike_id": "5a5761d74a2e28989e41398e8dd1f254", "is_disabled": 0, "fusion_lon": 0.0, "type": "electric_scooter", "lon": -77.0727205}, {"rental_uris": {"android": "https://dc.lft.to/lastmile_qr_scan", "ios": "https://dc.lft.to/lastmile_qr_scan"}, "fusion_lat": 0.0, "is_reserved": 0, "lat": 38.91986383333333, "name": "9042f88faa34d9289a865ff143eb5ae6", "bike_id": "9042f88faa34d9289a865ff143eb5ae6", "is_disabled": 0, "fusion_lon": 0.0, "type": "electric_scooter", "lon": -77.033135}, {"rental_uris": {"android": "https://dc.lft.to/lastmile_qr_scan", "ios": "https://dc.lft.to/lastmile_qr_scan"}, "fusion_lat": 0.0, "is_reserved": 0, "lat": 38.90657516666667, "name": "4f33ba10149ad1e860fd656c68202759", "bike_id": "4f33ba10149ad1e860fd656c68202759", "is_disabled": 0, "fusion_lon": 0.0, "type": "electric_scooter", "lon": -77.05331233333334}, {"rental_uris": {"android": "https://dc.lft.to/lastmile_qr_scan", "ios": "https://dc.lft.to/lastmile_qr_scan"}, "fusion_lat": 0.0, "is_reserved": 0, "lat": 38.83556033333333, "name": "989576cc44dce075f39dae9b31a7960a", "bike_id": "989576cc44dce075f39dae9b31a7960a", "is_disabled": 0, "fusion_lon": 0.0, "type": "electric_bike", "lon": -77.00755116666667}, {"rental_uris": {"android": "https://dc.lft.to/lastmile_qr_scan", "ios": "https://dc.lft.to/lastmile_qr_scan"}, "fusion_lat": 0.0, "is_reserved": 0, "lat": 38.90383583333333, "name": "e426f6cffd4445d1a1b3bb2e3b4806a7", "bike_id": "e426f6cffd4445d1a1b3bb2e3b4806a7", "is_disabled": 0, "fusion_lon": 0.0, "type": "electric_scooter", "lon": -77.04220116666667}, {"rental_uris": {"android": "https://dc.lft.to/lastmile_qr_scan", "ios": "https://dc.lft.to/lastmile_qr_scan"}, "fusion_lat": 0.0, "is_reserved": 0, "lat": 38.90041316666667, "name": "71c62743dc61f9b2256d0cbdf07b9816", "bike_id": "71c62743dc61f9b2256d0cbdf07b9816", "is_disabled": 0, "fusion_lon": 0.0, "type": "electric_scooter", "lon": -77.00222616666667}, {"rental_uris": {"android": "https://dc.lft.to/lastmile_qr_scan", "ios": "https://dc.lft.to/lastmile_qr_scan"}, "fusion_lat": 0.0, "is_reserved": 0, "lat": 38.90592733333333, "name": "5560dd1a3d1df9d76a30ec4c5e86e645", "bike_id": "5560dd1a3d1df9d76a30ec4c5e86e645", "is_disabled": 0, "fusion_lon": 0.0, "type": "electric_scooter", "lon": -77.021846}, {"rental_uris": {"android": "https://dc.lft.to/lastmile_qr_scan", "ios": "https://dc.lft.to/lastmile_qr_scan"}, "fusion_lat": 0.0, "is_reserved": 0, "lat": 38.91764333333333, "name": "f9669fc0076c1bcd46d336db0937abd2", "bike_id": "f9669fc0076c1bcd46d336db0937abd2", "is_disabled": 0, "fusion_lon": 0.0, "type": "electric_scooter", "lon": -77.04744266666667}, {"rental_uris": {"android": "https://dc.lft.to/lastmile_qr_scan", "ios": "https://dc.lft.to/lastmile_qr_scan"}, "fusion_lat": 0.0, "is_reserved": 0, "lat": 38.92865666666667, "name": "eeded8db7e74e6f5e3a463f49df7574d", "bike_id": "eeded8db7e74e6f5e3a463f49df7574d", "is_disabled": 0, "fusion_lon": 0.0, "type": "electric_scooter", "lon": -77.03421666666667}, {"rental_uris": {"android": "https://dc.lft.to/lastmile_qr_scan", "ios": "https://dc.lft.to/lastmile_qr_scan"}, "fusion_lat": 0.0, "is_reserved": 0, "lat": 38.9155945, "name": "1cbda8e1670db4d2031e2403bdfc205e", "bike_id": "1cbda8e1670db4d2031e2403bdfc205e", "is_disabled": 0, "fusion_lon": 0.0, "type": "electric_scooter", "lon": -77.04005683333334}, {"rental_uris": {"android": "https://dc.lft.to/lastmile_qr_scan", "ios": "https://dc.lft.to/lastmile_qr_scan"}, "fusion_lat": 0.0, "is_reserved": 0, "lat": 38.917687666666666, "name": "df8ebe979ecb994b3bd254128a13cb48", "bike_id": "df8ebe979ecb994b3bd254128a13cb48", "is_disabled": 0, "fusion_lon": 0.0, "type": "electric_scooter", "lon": -77.02307116666667}, {"rental_uris": {"android": "https://dc.lft.to/lastmile_qr_scan", "ios": "https://dc.lft.to/lastmile_qr_scan"}, "fusion_lat": 0.0, "is_reserved": 0, "lat": 38.9535845, "name": "97024f24079432dd559c94716d14cb07", "bike_id": "97024f24079432dd559c94716d14cb07", "is_disabled": 0, "fusion_lon": 0.0, "type": "electric_bike", "lon": -76.98091433333333}, {"rental_uris": {"android": "https://dc.lft.to/lastmile_qr_scan", "ios": "https://dc.lft.to/lastmile_qr_scan"}, "fusion_lat": 0.0, "is_reserved": 0, "lat": 38.90241133333333, "name": "40eb99ee8dbdcee32c657e0406914dc5", "bike_id": "40eb99ee8dbdcee32c657e0406914dc5", "is_disabled": 0, "fusion_lon": 0.0, "type": "electric_scooter", "lon": -77.01755366666667}, {"rental_uris": {"android": "https://dc.lft.to/lastmile_qr_scan", "ios": "https://dc.lft.to/lastmile_qr_scan"}, "fusion_lat": 0.0, "is_reserved": 0, "lat": 38.900780833333336, "name": "89acc3440783a5500593ce3ab6c0ee92", "bike_id": "89acc3440783a5500593ce3ab6c0ee92", "is_disabled": 0, "fusion_lon": 0.0, "type": "electric_scooter", "lon": -77.02636166666667}, {"rental_uris": {"android": "https://dc.lft.to/lastmile_qr_scan", "ios": "https://dc.lft.to/lastmile_qr_scan"}, "fusion_lat": 0.0, "is_reserved": 0, "lat": 38.92210733333334, "name": "f004982cdddef24d47f5bedf8095a475", "bike_id": "f004982cdddef24d47f5bedf8095a475", "is_disabled": 0, "fusion_lon": 0.0, "type": "electric_scooter", "lon": -77.03756983333334}, {"rental_uris": {"android": "https://dc.lft.to/lastmile_qr_scan", "ios": "https://dc.lft.to/lastmile_qr_scan"}, "fusion_lat": 0.0, "is_reserved": 0, "lat": 38.875379333333335, "name": "558230db30f43eb0758999f9cea23f57", "bike_id": "558230db30f43eb0758999f9cea23f57", "is_disabled": 0, "fusion_lon": 0.0, "type": "electric_scooter", "lon": -77.01751983333334}, {"rental_uris": {"android": "https://dc.lft.to/lastmile_qr_scan", "ios": "https://dc.lft.to/lastmile_qr_scan"}, "fusion_lat": 0.0, "is_reserved": 0, "lat": 38.89965866666667, "name": "b2345337eda9f2284789f71da96c0302", "bike_id": "b2345337eda9f2284789f71da96c0302", "is_disabled": 0, "fusion_lon": 0.0, "type": "electric_scooter", "lon": -77.01613766666667}, {"rental_uris": {"android": "https://dc.lft.to/lastmile_qr_scan", "ios": "https://dc.lft.to/lastmile_qr_scan"}, "fusion_lat": 0.0, "is_reserved": 0, "lat": 38.97374516666667, "name": "28790562b25575991b3c0f22cdb1a076", "bike_id": "28790562b25575991b3c0f22cdb1a076", "is_disabled": 0, "fusion_lon": 0.0, "type": "electric_scooter", "lon": -77.026727}, {"rental_uris": {"android": "https://dc.lft.to/lastmile_qr_scan", "ios": "https://dc.lft.to/lastmile_qr_scan"}, "fusion_lat": 0.0, "is_reserved": 0, "lat": 38.90348216666667, "name": "f85501cef0c567b0277ee7ae65f1584e", "bike_id": "f85501cef0c567b0277ee7ae65f1584e", "is_disabled": 0, "fusion_lon": 0.0, "type": "electric_scooter", "lon": -76.98614433333333}, {"rental_uris": {"android": "https://dc.lft.to/lastmile_qr_scan", "ios": "https://dc.lft.to/lastmile_qr_scan"}, "fusion_lat": 0.0, "is_reserved": 0, "lat": 38.893259, "name": "f9c4733dc873f2ed33310f0cf13b420c", "bike_id": "f9c4733dc873f2ed33310f0cf13b420c", "is_disabled": 0, "fusion_lon": 0.0, "type": "electric_scooter", "lon": -76.93964983333333}, {"rental_uris": {"android": "https://dc.lft.to/lastmile_qr_scan", "ios": "https://dc.lft.to/lastmile_qr_scan"}, "fusion_lat": 0.0, "is_reserved": 0, "lat": 38.912791166666665, "name": "28d099e0ad9589b1c21c81bec785c38e", "bike_id": "28d099e0ad9589b1c21c81bec785c38e", "is_disabled": 0, "fusion_lon": 0.0, "type": "electric_scooter", "lon": -77.022113}, {"rental_uris": {"android": "https://dc.lft.to/lastmile_qr_scan", "ios": "https://dc.lft.to/lastmile_qr_scan"}, "fusion_lat": 0.0, "is_reserved": 0, "lat": 38.92240866666667, "name": "b49f1deb2efd41712841bc0cbe39ad07", "bike_id": "b49f1deb2efd41712841bc0cbe39ad07", "is_disabled": 0, "fusion_lon": 0.0, "type": "electric_scooter", "lon": -77.03661533333333}, {"rental_uris": {"android": "https://dc.lft.to/lastmile_qr_scan", "ios": "https://dc.lft.to/lastmile_qr_scan"}, "fusion_lat": 0.0, "is_reserved": 0, "lat": 38.866622666666665, "name": "d1327d99cebdd575e005e173f9abe27c", "bike_id": "d1327d99cebdd575e005e173f9abe27c", "is_disabled": 0, "fusion_lon": 0.0, "type": "electric_scooter", "lon": -76.97912166666667}, {"rental_uris": {"android": "https://dc.lft.to/lastmile_qr_scan", "ios": "https://dc.lft.to/lastmile_qr_scan"}, "fusion_lat": 0.0, "is_reserved": 0, "lat": 38.913307333333336, "name": "5f92fd87f1125a61cf1db7dfcf41edd4", "bike_id": "5f92fd87f1125a61cf1db7dfcf41edd4", "is_disabled": 0, "fusion_lon": 0.0, "type": "electric_scooter", "lon": -77.01662}, {"rental_uris": {"android": "https://dc.lft.to/lastmile_qr_scan", "ios": "https://dc.lft.to/lastmile_qr_scan"}, "fusion_lat": 0.0, "is_reserved": 0, "lat": 38.906437, "name": "239360df1375ce2c748ecf1e0cd8dc53", "bike_id": "239360df1375ce2c748ecf1e0cd8dc53", "is_disabled": 0, "fusion_lon": 0.0, "type": "electric_scooter", "lon": -77.05335683333334}, {"rental_uris": {"android": "https://dc.lft.to/lastmile_qr_scan", "ios": "https://dc.lft.to/lastmile_qr_scan"}, "fusion_lat": 0.0, "is_reserved": 0, "lat": 38.91831716666667, "name": "2dd9f8a0b0193a401ab7bd90b362e75f", "bike_id": "2dd9f8a0b0193a401ab7bd90b362e75f", "is_disabled": 0, "fusion_lon": 0.0, "type": "electric_scooter", "lon": -77.03179716666666}, {"rental_uris": {"android": "https://dc.lft.to/lastmile_qr_scan", "ios": "https://dc.lft.to/lastmile_qr_scan"}, "fusion_lat": 0.0, "is_reserved": 0, "lat": 38.803848, "name": "65eaeef971cd22f321e5bcdb56e3b526", "bike_id": "65eaeef971cd22f321e5bcdb56e3b526", "is_disabled": 0, "fusion_lon": 0.0, "type": "electric_bike", "lon": -76.9881855}, {"rental_uris": {"android": "https://dc.lft.to/lastmile_qr_scan", "ios": "https://dc.lft.to/lastmile_qr_scan"}, "fusion_lat": 0.0, "is_reserved": 0, "lat": 38.89505966666667, "name": "1b517dd289a851da9d30d5c85f88057d", "bike_id": "1b517dd289a851da9d30d5c85f88057d", "is_disabled": 0, "fusion_lon": 0.0, "type": "electric_scooter", "lon": -76.9347645}, {"rental_uris": {"android": "https://dc.lft.to/lastmile_qr_scan", "ios": "https://dc.lft.to/lastmile_qr_scan"}, "fusion_lat": 0.0, "is_reserved": 0, "lat": 38.89367516666667, "name": "41c212dc3bbf99ac74d0ba3ed42f42d6", "bike_id": "41c212dc3bbf99ac74d0ba3ed42f42d6", "is_disabled": 0, "fusion_lon": 0.0, "type": "electric_scooter", "lon": -76.9359575}, {"rental_uris": {"android": "https://dc.lft.to/lastmile_qr_scan", "ios": "https://dc.lft.to/lastmile_qr_scan"}, "fusion_lat": 0.0, "is_reserved": 0, "lat": 38.892257666666666, "name": "869d6f267a1bc0b8d7239861d68c6d62", "bike_id": "869d6f267a1bc0b8d7239861d68c6d62", "is_disabled": 0, "fusion_lon": 0.0, "type": "electric_scooter", "lon": -77.040868}, {"rental_uris": {"android": "https://dc.lft.to/lastmile_qr_scan", "ios": "https://dc.lft.to/lastmile_qr_scan"}, "fusion_lat": 0.0, "is_reserved": 0, "lat": 38.89539716666667, "name": "76aba68980ed7e40d02b0c0f530ebbfa", "bike_id": "76aba68980ed7e40d02b0c0f530ebbfa", "is_disabled": 0, "fusion_lon": 0.0, "type": "electric_scooter", "lon": -76.94885216666667}, {"rental_uris": {"android": "https://dc.lft.to/lastmile_qr_scan", "ios": "https://dc.lft.to/lastmile_qr_scan"}, "fusion_lat": 0.0, "is_reserved": 0, "lat": 38.89225233333333, "name": "f722a1e0b53623576968ae2aa4a86e5a", "bike_id": "f722a1e0b53623576968ae2aa4a86e5a", "is_disabled": 0, "fusion_lon": 0.0, "type": "electric_scooter", "lon": -77.03339166666666}, {"rental_uris": {"android": "https://dc.lft.to/lastmile_qr_scan", "ios": "https://dc.lft.to/lastmile_qr_scan"}, "fusion_lat": 0.0, "is_reserved": 0, "lat": 38.92136333333333, "name": "4ab110cf9a48995502e324eede6b6675", "bike_id": "4ab110cf9a48995502e324eede6b6675", "is_disabled": 0, "fusion_lon": 0.0, "type": "electric_scooter", "lon": -77.01780666666667}, {"rental_uris": {"android": "https://dc.lft.to/lastmile_qr_scan", "ios": "https://dc.lft.to/lastmile_qr_scan"}, "fusion_lat": 0.0, "is_reserved": 0, "lat": 38.9192155, "name": "e585496dc5098b187d5707f009706d95", "bike_id": "e585496dc5098b187d5707f009706d95", "is_disabled": 0, "fusion_lon": 0.0, "type": "electric_scooter", "lon": -77.03188666666667}, {"rental_uris": {"android": "https://dc.lft.to/lastmile_qr_scan", "ios": "https://dc.lft.to/lastmile_qr_scan"}, "fusion_lat": 0.0, "is_reserved": 0, "lat": 38.919173, "name": "107bd904de71d7f698e45236e2df8599", "bike_id": "107bd904de71d7f698e45236e2df8599", "is_disabled": 0, "fusion_lon": 0.0, "type": "electric_scooter", "lon": -77.02953533333333}, {"rental_uris": {"android": "https://dc.lft.to/lastmile_qr_scan", "ios": "https://dc.lft.to/lastmile_qr_scan"}, "fusion_lat": 0.0, "is_reserved": 0, "lat": 38.896044833333335, "name": "84ac5061f912474012884289dc05d988", "bike_id": "84ac5061f912474012884289dc05d988", "is_disabled": 0, "fusion_lon": 0.0, "type": "electric_scooter", "lon": -77.03347683333334}, {"rental_uris": {"android": "https://dc.lft.to/lastmile_qr_scan", "ios": "https://dc.lft.to/lastmile_qr_scan"}, "fusion_lat": 0.0, "is_reserved": 0, "lat": 38.865295833333334, "name": "0f6f65f3b36368b13a26bb4a40bbfec6", "bike_id": "0f6f65f3b36368b13a26bb4a40bbfec6", "is_disabled": 0, "fusion_lon": 0.0, "type": "electric_scooter", "lon": -76.969075}, {"rental_uris": {"android": "https://dc.lft.to/lastmile_qr_scan", "ios": "https://dc.lft.to/lastmile_qr_scan"}, "fusion_lat": 0.0, "is_reserved": 0, "lat": 38.902621833333335, "name": "1b5dcc522f4eb77184fb16983e2a9d21", "bike_id": "1b5dcc522f4eb77184fb16983e2a9d21", "is_disabled": 0, "fusion_lon": 0.0, "type": "electric_scooter", "lon": -77.0176045}, {"rental_uris": {"android": "https://dc.lft.to/lastmile_qr_scan", "ios": "https://dc.lft.to/lastmile_qr_scan"}, "fusion_lat": 0.0, "is_reserved": 0, "lat": 38.95937983333334, "name": "c930b1ea8ac58676498c32b85f24a1b8", "bike_id": "c930b1ea8ac58676498c32b85f24a1b8", "is_disabled": 0, "fusion_lon": 0.0, "type": "electric_scooter", "lon": -77.03122233333333}, {"rental_uris": {"android": "https://dc.lft.to/lastmile_qr_scan", "ios": "https://dc.lft.to/lastmile_qr_scan"}, "fusion_lat": 0.0, "is_reserved": 0, "lat": 38.9003545, "name": "40dc5f24385d789cae6f9ce5b5404a7c", "bike_id": "40dc5f24385d789cae6f9ce5b5404a7c", "is_disabled": 0, "fusion_lon": 0.0, "type": "electric_scooter", "lon": -77.0483645}, {"rental_uris": {"android": "https://dc.lft.to/lastmile_qr_scan", "ios": "https://dc.lft.to/lastmile_qr_scan"}, "fusion_lat": 0.0, "is_reserved": 0, "lat": 38.90735816666667, "name": "81e65b219ae5cf25a2686fb1c9f041f1", "bike_id": "81e65b219ae5cf25a2686fb1c9f041f1", "is_disabled": 0, "fusion_lon": 0.0, "type": "electric_scooter", "lon": -77.05019333333334}, {"rental_uris": {"android": "https://dc.lft.to/lastmile_qr_scan", "ios": "https://dc.lft.to/lastmile_qr_scan"}, "fusion_lat": 0.0, "is_reserved": 0, "lat": 38.907355, "name": "3d8ff35d5ebdc739abb883689e0e0095", "bike_id": "3d8ff35d5ebdc739abb883689e0e0095", "is_disabled": 0, "fusion_lon": 0.0, "type": "electric_scooter", "lon": -77.03893183333334}, {"rental_uris": {"android": "https://dc.lft.to/lastmile_qr_scan", "ios": "https://dc.lft.to/lastmile_qr_scan"}, "fusion_lat": 0.0, "is_reserved": 0, "lat": 38.92464866666667, "name": "3e581f6030510c4dbe046fe7e0958332", "bike_id": "3e581f6030510c4dbe046fe7e0958332", "is_disabled": 0, "fusion_lon": 0.0, "type": "electric_scooter", "lon": -77.02708566666666}, {"rental_uris": {"android": "https://dc.lft.to/lastmile_qr_scan", "ios": "https://dc.lft.to/lastmile_qr_scan"}, "fusion_lat": 0.0, "is_reserved": 0, "lat": 38.9078395, "name": "ad1f2443f421bba5a976bb8b1bc992f3", "bike_id": "ad1f2443f421bba5a976bb8b1bc992f3", "is_disabled": 0, "fusion_lon": 0.0, "type": "electric_scooter", "lon": -77.045167}, {"rental_uris": {"android": "https://dc.lft.to/lastmile_qr_scan", "ios": "https://dc.lft.to/lastmile_qr_scan"}, "fusion_lat": 0.0, "is_reserved": 0, "lat": 38.93357616666667, "name": "ce78b3132701be05cf9c4136676b5d22", "bike_id": "ce78b3132701be05cf9c4136676b5d22", "is_disabled": 0, "fusion_lon": 0.0, "type": "electric_scooter", "lon": -77.02375333333333}, {"rental_uris": {"android": "https://dc.lft.to/lastmile_qr_scan", "ios": "https://dc.lft.to/lastmile_qr_scan"}, "fusion_lat": 0.0, "is_reserved": 0, "lat": 38.90368633333333, "name": "0a824dd41d4c9243d24af129cf5db028", "bike_id": "0a824dd41d4c9243d24af129cf5db028", "is_disabled": 0, "fusion_lon": 0.0, "type": "electric_scooter", "lon": -77.03653716666666}, {"rental_uris": {"android": "https://dc.lft.to/lastmile_qr_scan", "ios": "https://dc.lft.to/lastmile_qr_scan"}, "fusion_lat": 0.0, "is_reserved": 0, "lat": 38.912738166666664, "name": "ba656ef326c367474da4889858615a0c", "bike_id": "ba656ef326c367474da4889858615a0c", "is_disabled": 0, "fusion_lon": 0.0, "type": "electric_scooter", "lon": -77.022128}, {"rental_uris": {"android": "https://dc.lft.to/lastmile_qr_scan", "ios": "https://dc.lft.to/lastmile_qr_scan"}, "fusion_lat": 0.0, "is_reserved": 0, "lat": 38.90993616666667, "name": "4cfaf2103d3007db76aeb9b08bfd1bb8", "bike_id": "4cfaf2103d3007db76aeb9b08bfd1bb8", "is_disabled": 0, "fusion_lon": 0.0, "type": "electric_scooter", "lon": -77.02406733333333}, {"rental_uris": {"android": "https://dc.lft.to/lastmile_qr_scan", "ios": "https://dc.lft.to/lastmile_qr_scan"}, "fusion_lat": 0.0, "is_reserved": 0, "lat": 38.927995833333334, "name": "2721849975ea0f015fdea904863f2938", "bike_id": "2721849975ea0f015fdea904863f2938", "is_disabled": 0, "fusion_lon": 0.0, "type": "electric_scooter", "lon": -77.0533095}, {"rental_uris": {"android": "https://dc.lft.to/lastmile_qr_scan", "ios": "https://dc.lft.to/lastmile_qr_scan"}, "fusion_lat": 0.0, "is_reserved": 0, "lat": 38.88693816666667, "name": "38d7561f7dcb58123070b39f89f48b90", "bike_id": "38d7561f7dcb58123070b39f89f48b90", "is_disabled": 0, "fusion_lon": 0.0, "type": "electric_scooter", "lon": -76.97635966666667}, {"rental_uris": {"android": "https://dc.lft.to/lastmile_qr_scan", "ios": "https://dc.lft.to/lastmile_qr_scan"}, "fusion_lat": 0.0, "is_reserved": 0, "lat": 38.9048805, "name": "508edcd3d4c8a018837f80cfac6c5ba2", "bike_id": "508edcd3d4c8a018837f80cfac6c5ba2", "is_disabled": 0, "fusion_lon": 0.0, "type": "electric_scooter", "lon": -77.04853583333333}, {"rental_uris": {"android": "https://dc.lft.to/lastmile_qr_scan", "ios": "https://dc.lft.to/lastmile_qr_scan"}, "fusion_lat": 0.0, "is_reserved": 0, "lat": 38.91274033333333, "name": "ea90c8c0a6c4a137cfbbfea0b5aed940", "bike_id": "ea90c8c0a6c4a137cfbbfea0b5aed940", "is_disabled": 0, "fusion_lon": 0.0, "type": "electric_scooter", "lon": -77.0450495}, {"rental_uris": {"android": "https://dc.lft.to/lastmile_qr_scan", "ios": "https://dc.lft.to/lastmile_qr_scan"}, "fusion_lat": 0.0, "is_reserved": 0, "lat": 38.90864233333333, "name": "673e8f74e9377783a066323caa26a445", "bike_id": "673e8f74e9377783a066323caa26a445", "is_disabled": 0, "fusion_lon": 0.0, "type": "electric_scooter", "lon": -76.99109966666667}, {"rental_uris": {"android": "https://dc.lft.to/lastmile_qr_scan", "ios": "https://dc.lft.to/lastmile_qr_scan"}, "fusion_lat": 0.0, "is_reserved": 0, "lat": 38.89524483333334, "name": "79c5d3634920996ea0f6fe7ccdd093b1", "bike_id": "79c5d3634920996ea0f6fe7ccdd093b1", "is_disabled": 0, "fusion_lon": 0.0, "type": "electric_scooter", "lon": -76.992198}, {"rental_uris": {"android": "https://dc.lft.to/lastmile_qr_scan", "ios": "https://dc.lft.to/lastmile_qr_scan"}, "fusion_lat": 0.0, "is_reserved": 0, "lat": 38.9169555, "name": "4979532137763ef1cfbc67c14182570f", "bike_id": "4979532137763ef1cfbc67c14182570f", "is_disabled": 0, "fusion_lon": 0.0, "type": "electric_scooter", "lon": -77.02989383333333}, {"rental_uris": {"android": "https://dc.lft.to/lastmile_qr_scan", "ios": "https://dc.lft.to/lastmile_qr_scan"}, "fusion_lat": 0.0, "is_reserved": 0, "lat": 38.95215533333333, "name": "02014741547ddc1c31c40ee7d94530f3", "bike_id": "02014741547ddc1c31c40ee7d94530f3", "is_disabled": 0, "fusion_lon": 0.0, "type": "electric_bike", "lon": -77.017528}, {"rental_uris": {"android": "https://dc.lft.to/lastmile_qr_scan", "ios": "https://dc.lft.to/lastmile_qr_scan"}, "fusion_lat": 0.0, "is_reserved": 0, "lat": 38.915475666666666, "name": "259c134521512b1966a602269e65b861", "bike_id": "259c134521512b1966a602269e65b861", "is_disabled": 0, "fusion_lon": 0.0, "type": "electric_scooter", "lon": -77.04449366666667}, {"rental_uris": {"android": "https://dc.lft.to/lastmile_qr_scan", "ios": "https://dc.lft.to/lastmile_qr_scan"}, "fusion_lat": 0.0, "is_reserved": 0, "lat": 38.95577866666667, "name": "7b31f1d432145eb269b09a7a66c32b27", "bike_id": "7b31f1d432145eb269b09a7a66c32b27", "is_disabled": 0, "fusion_lon": 0.0, "type": "electric_scooter", "lon": -77.070112}, {"rental_uris": {"android": "https://dc.lft.to/lastmile_qr_scan", "ios": "https://dc.lft.to/lastmile_qr_scan"}, "fusion_lat": 0.0, "is_reserved": 0, "lat": 38.927775833333335, "name": "4f4265f3f01651b5938e2b30e9f2de73", "bike_id": "4f4265f3f01651b5938e2b30e9f2de73", "is_disabled": 0, "fusion_lon": 0.0, "type": "electric_scooter", "lon": -77.02782733333333}, {"rental_uris": {"android": "https://dc.lft.to/lastmile_qr_scan", "ios": "https://dc.lft.to/lastmile_qr_scan"}, "fusion_lat": 0.0, "is_reserved": 0, "lat": 38.880780666666666, "name": "71d265e0887b14b7c8e8c562ba027065", "bike_id": "71d265e0887b14b7c8e8c562ba027065", "is_disabled": 0, "fusion_lon": 0.0, "type": "electric_scooter", "lon": -76.99165933333333}, {"rental_uris": {"android": "https://dc.lft.to/lastmile_qr_scan", "ios": "https://dc.lft.to/lastmile_qr_scan"}, "fusion_lat": 0.0, "is_reserved": 0, "lat": 38.93534316666667, "name": "582f299fae82b1a766c7c32f6601f86a", "bike_id": "582f299fae82b1a766c7c32f6601f86a", "is_disabled": 0, "fusion_lon": 0.0, "type": "electric_scooter", "lon": -77.02359033333333}, {"rental_uris": {"android": "https://dc.lft.to/lastmile_qr_scan", "ios": "https://dc.lft.to/lastmile_qr_scan"}, "fusion_lat": 0.0, "is_reserved": 0, "lat": 38.9272905, "name": "81b738da7f6961fb503dbd76e72a1466", "bike_id": "81b738da7f6961fb503dbd76e72a1466", "is_disabled": 0, "fusion_lon": 0.0, "type": "electric_scooter", "lon": -77.02279083333333}, {"rental_uris": {"android": "https://dc.lft.to/lastmile_qr_scan", "ios": "https://dc.lft.to/lastmile_qr_scan"}, "fusion_lat": 0.0, "is_reserved": 0, "lat": 38.90211016666667, "name": "298b1f219b1af760abbf29b77ee021b9", "bike_id": "298b1f219b1af760abbf29b77ee021b9", "is_disabled": 0, "fusion_lon": 0.0, "type": "electric_scooter", "lon": -77.02375866666667}, {"rental_uris": {"android": "https://dc.lft.to/lastmile_qr_scan", "ios": "https://dc.lft.to/lastmile_qr_scan"}, "fusion_lat": 0.0, "is_reserved": 0, "lat": 38.86249166666666, "name": "4c2006b134deb41cc07dbfc15c6e5862", "bike_id": "4c2006b134deb41cc07dbfc15c6e5862", "is_disabled": 0, "fusion_lon": 0.0, "type": "electric_scooter", "lon": -76.99502033333333}, {"rental_uris": {"android": "https://dc.lft.to/lastmile_qr_scan", "ios": "https://dc.lft.to/lastmile_qr_scan"}, "fusion_lat": 0.0, "is_reserved": 0, "lat": 38.898355333333335, "name": "0a940d59afbb523f33ded885c9693f9a", "bike_id": "0a940d59afbb523f33ded885c9693f9a", "is_disabled": 0, "fusion_lon": 0.0, "type": "electric_scooter", "lon": -77.02811766666666}, {"rental_uris": {"android": "https://dc.lft.to/lastmile_qr_scan", "ios": "https://dc.lft.to/lastmile_qr_scan"}, "fusion_lat": 0.0, "is_reserved": 0, "lat": 38.9166935, "name": "319a791fd63c187efd3a8119abf2096a", "bike_id": "319a791fd63c187efd3a8119abf2096a", "is_disabled": 0, "fusion_lon": 0.0, "type": "electric_scooter", "lon": -77.0238625}, {"rental_uris": {"android": "https://dc.lft.to/lastmile_qr_scan", "ios": "https://dc.lft.to/lastmile_qr_scan"}, "fusion_lat": 0.0, "is_reserved": 0, "lat": 38.87565816666667, "name": "0a180b73d6446e5ce0acc72e0dcaf9b6", "bike_id": "0a180b73d6446e5ce0acc72e0dcaf9b6", "is_disabled": 0, "fusion_lon": 0.0, "type": "electric_scooter", "lon": -77.005987}, {"rental_uris": {"android": "https://dc.lft.to/lastmile_qr_scan", "ios": "https://dc.lft.to/lastmile_qr_scan"}, "fusion_lat": 0.0, "is_reserved": 0, "lat": 38.919422, "name": "f21ffb1be83fb33fc2986de211bcc58c", "bike_id": "f21ffb1be83fb33fc2986de211bcc58c", "is_disabled": 0, "fusion_lon": 0.0, "type": "electric_scooter", "lon": -77.018011}, {"rental_uris": {"android": "https://dc.lft.to/lastmile_qr_scan", "ios": "https://dc.lft.to/lastmile_qr_scan"}, "fusion_lat": 0.0, "is_reserved": 0, "lat": 38.941546, "name": "13c7a52aa7a42b9c736a014f6f9b8a18", "bike_id": "13c7a52aa7a42b9c736a014f6f9b8a18", "is_disabled": 0, "fusion_lon": 0.0, "type": "electric_scooter", "lon": -77.03283416666666}, {"rental_uris": {"android": "https://dc.lft.to/lastmile_qr_scan", "ios": "https://dc.lft.to/lastmile_qr_scan"}, "fusion_lat": 0.0, "is_reserved": 0, "lat": 38.8570975, "name": "2e59fe3bc5c8329747f88020482fd0d8", "bike_id": "2e59fe3bc5c8329747f88020482fd0d8", "is_disabled": 0, "fusion_lon": 0.0, "type": "electric_scooter", "lon": -76.98216616666667}, {"rental_uris": {"android": "https://dc.lft.to/lastmile_qr_scan", "ios": "https://dc.lft.to/lastmile_qr_scan"}, "fusion_lat": 0.0, "is_reserved": 0, "lat": 38.91812983333333, "name": "6ef93325b76ec9ec5afc392c6d6e0114", "bike_id": "6ef93325b76ec9ec5afc392c6d6e0114", "is_disabled": 0, "fusion_lon": 0.0, "type": "electric_scooter", "lon": -77.02298566666667}, {"rental_uris": {"android": "https://dc.lft.to/lastmile_qr_scan", "ios": "https://dc.lft.to/lastmile_qr_scan"}, "fusion_lat": 0.0, "is_reserved": 0, "lat": 38.86513466666667, "name": "265c6fe8a0dbecfc692f8d742e187733", "bike_id": "265c6fe8a0dbecfc692f8d742e187733", "is_disabled": 0, "fusion_lon": 0.0, "type": "electric_scooter", "lon": -76.9689915}, {"rental_uris": {"android": "https://dc.lft.to/lastmile_qr_scan", "ios": "https://dc.lft.to/lastmile_qr_scan"}, "fusion_lat": 0.0, "is_reserved": 0, "lat": 38.92298483333333, "name": "cd80a36e9db6266b54235577b5f27036", "bike_id": "cd80a36e9db6266b54235577b5f27036", "is_disabled": 0, "fusion_lon": 0.0, "type": "electric_scooter", "lon": -77.04147666666667}, {"rental_uris": {"android": "https://dc.lft.to/lastmile_qr_scan", "ios": "https://dc.lft.to/lastmile_qr_scan"}, "fusion_lat": 0.0, "is_reserved": 0, "lat": 38.941984166666664, "name": "754a4eb97b4cb545deeaeccb78b7585e", "bike_id": "754a4eb97b4cb545deeaeccb78b7585e", "is_disabled": 0, "fusion_lon": 0.0, "type": "electric_scooter", "lon": -77.02476216666666}, {"rental_uris": {"android": "https://dc.lft.to/lastmile_qr_scan", "ios": "https://dc.lft.to/lastmile_qr_scan"}, "fusion_lat": 0.0, "is_reserved": 0, "lat": 38.91226533333333, "name": "1390c514bb6b78d5a8e45c1103dfb913", "bike_id": "1390c514bb6b78d5a8e45c1103dfb913", "is_disabled": 0, "fusion_lon": 0.0, "type": "electric_scooter", "lon": -77.0320145}, {"rental_uris": {"android": "https://dc.lft.to/lastmile_qr_scan", "ios": "https://dc.lft.to/lastmile_qr_scan"}, "fusion_lat": 0.0, "is_reserved": 0, "lat": 38.915048666666664, "name": "258775440fe290bfc5ef4c62e4d940b7", "bike_id": "258775440fe290bfc5ef4c62e4d940b7", "is_disabled": 0, "fusion_lon": 0.0, "type": "electric_scooter", "lon": -77.022857}, {"rental_uris": {"android": "https://dc.lft.to/lastmile_qr_scan", "ios": "https://dc.lft.to/lastmile_qr_scan"}, "fusion_lat": 0.0, "is_reserved": 0, "lat": 38.92092683333333, "name": "d4f733473988ded0b17d8e978d943458", "bike_id": "d4f733473988ded0b17d8e978d943458", "is_disabled": 0, "fusion_lon": 0.0, "type": "electric_scooter", "lon": -77.0222125}, {"rental_uris": {"android": "https://dc.lft.to/lastmile_qr_scan", "ios": "https://dc.lft.to/lastmile_qr_scan"}, "fusion_lat": 0.0, "is_reserved": 0, "lat": 38.914743333333334, "name": "e5249e33fa8530865bbebb5986beaa0d", "bike_id": "e5249e33fa8530865bbebb5986beaa0d", "is_disabled": 0, "fusion_lon": 0.0, "type": "electric_scooter", "lon": -77.03200466666667}, {"rental_uris": {"android": "https://dc.lft.to/lastmile_qr_scan", "ios": "https://dc.lft.to/lastmile_qr_scan"}, "fusion_lat": 0.0, "is_reserved": 0, "lat": 38.84033133333333, "name": "cc1f3091c8f71363219cf46760e254cd", "bike_id": "cc1f3091c8f71363219cf46760e254cd", "is_disabled": 0, "fusion_lon": 0.0, "type": "electric_bike", "lon": -76.97617683333333}, {"rental_uris": {"android": "https://dc.lft.to/lastmile_qr_scan", "ios": "https://dc.lft.to/lastmile_qr_scan"}, "fusion_lat": 0.0, "is_reserved": 0, "lat": 38.905341166666666, "name": "14ed29160f23b7e0051ae715de0de50c", "bike_id": "14ed29160f23b7e0051ae715de0de50c", "is_disabled": 0, "fusion_lon": 0.0, "type": "electric_scooter", "lon": -77.04175333333333}, {"rental_uris": {"android": "https://dc.lft.to/lastmile_qr_scan", "ios": "https://dc.lft.to/lastmile_qr_scan"}, "fusion_lat": 0.0, "is_reserved": 0, "lat": 38.89609933333333, "name": "8dfa6ee44b7095fc4e510e023bfa0329", "bike_id": "8dfa6ee44b7095fc4e510e023bfa0329", "is_disabled": 0, "fusion_lon": 0.0, "type": "electric_scooter", "lon": -77.0276525}, {"rental_uris": {"android": "https://dc.lft.to/lastmile_qr_scan", "ios": "https://dc.lft.to/lastmile_qr_scan"}, "fusion_lat": 0.0, "is_reserved": 0, "lat": 38.93502766666667, "name": "85e9c7e22e3a2d73a75cc0d0881e4e6b", "bike_id": "85e9c7e22e3a2d73a75cc0d0881e4e6b", "is_disabled": 0, "fusion_lon": 0.0, "type": "electric_scooter", "lon": -77.020078}, {"rental_uris": {"android": "https://dc.lft.to/lastmile_qr_scan", "ios": "https://dc.lft.to/lastmile_qr_scan"}, "fusion_lat": 0.0, "is_reserved": 0, "lat": 38.89475483333333, "name": "4b5f0a415cc774b210993362fad68398", "bike_id": "4b5f0a415cc774b210993362fad68398", "is_disabled": 0, "fusion_lon": 0.0, "type": "electric_scooter", "lon": -77.02656533333334}, {"rental_uris": {"android": "https://dc.lft.to/lastmile_qr_scan", "ios": "https://dc.lft.to/lastmile_qr_scan"}, "fusion_lat": 0.0, "is_reserved": 0, "lat": 38.9335735, "name": "87cd6c23425222cad2682bd0ef3da2d8", "bike_id": "87cd6c23425222cad2682bd0ef3da2d8", "is_disabled": 0, "fusion_lon": 0.0, "type": "electric_scooter", "lon": -77.02564783333334}, {"rental_uris": {"android": "https://dc.lft.to/lastmile_qr_scan", "ios": "https://dc.lft.to/lastmile_qr_scan"}, "fusion_lat": 0.0, "is_reserved": 0, "lat": 38.926886, "name": "1713edf89c2a44fb8dd352a6f72b8e63", "bike_id": "1713edf89c2a44fb8dd352a6f72b8e63", "is_disabled": 0, "fusion_lon": 0.0, "type": "electric_scooter", "lon": -77.02259983333333}, {"rental_uris": {"android": "https://dc.lft.to/lastmile_qr_scan", "ios": "https://dc.lft.to/lastmile_qr_scan"}, "fusion_lat": 0.0, "is_reserved": 0, "lat": 38.93354883333333, "name": "a7672b7f61c4740fe768fe555e48d4de", "bike_id": "a7672b7f61c4740fe768fe555e48d4de", "is_disabled": 0, "fusion_lon": 0.0, "type": "electric_scooter", "lon": -77.05702566666666}, {"rental_uris": {"android": "https://dc.lft.to/lastmile_qr_scan", "ios": "https://dc.lft.to/lastmile_qr_scan"}, "fusion_lat": 0.0, "is_reserved": 0, "lat": 38.8381385, "name": "ab2ee3b8b1140a9cb64357e5dc460866", "bike_id": "ab2ee3b8b1140a9cb64357e5dc460866", "is_disabled": 0, "fusion_lon": 0.0, "type": "electric_bike", "lon": -77.095261}, {"rental_uris": {"android": "https://dc.lft.to/lastmile_qr_scan", "ios": "https://dc.lft.to/lastmile_qr_scan"}, "fusion_lat": 0.0, "is_reserved": 0, "lat": 38.930496, "name": "df7f2b2c83b57a491ac5beaac3831fd9", "bike_id": "df7f2b2c83b57a491ac5beaac3831fd9", "is_disabled": 0, "fusion_lon": 0.0, "type": "electric_scooter", "lon": -76.958346}, {"rental_uris": {"android": "https://dc.lft.to/lastmile_qr_scan", "ios": "https://dc.lft.to/lastmile_qr_scan"}, "fusion_lat": 0.0, "is_reserved": 0, "lat": 38.846746333333336, "name": "eb768e73875e596fbaa2301102ce330c", "bike_id": "eb768e73875e596fbaa2301102ce330c", "is_disabled": 0, "fusion_lon": 0.0, "type": "electric_bike", "lon": -77.1392395}, {"rental_uris": {"android": "https://dc.lft.to/lastmile_qr_scan", "ios": "https://dc.lft.to/lastmile_qr_scan"}, "fusion_lat": 0.0, "is_reserved": 0, "lat": 38.9214455, "name": "b451b4ea9f42399e0dc65ccb4a4d13ef", "bike_id": "b451b4ea9f42399e0dc65ccb4a4d13ef", "is_disabled": 0, "fusion_lon": 0.0, "type": "electric_scooter", "lon": -77.036588}, {"rental_uris": {"android": "https://dc.lft.to/lastmile_qr_scan", "ios": "https://dc.lft.to/lastmile_qr_scan"}, "fusion_lat": 0.0, "is_reserved": 0, "lat": 38.9041145, "name": "c5bf297868f09e98e3022d3cf3596aa1", "bike_id": "c5bf297868f09e98e3022d3cf3596aa1", "is_disabled": 0, "fusion_lon": 0.0, "type": "electric_scooter", "lon": -76.9733325}, {"rental_uris": {"android": "https://dc.lft.to/lastmile_qr_scan", "ios": "https://dc.lft.to/lastmile_qr_scan"}, "fusion_lat": 0.0, "is_reserved": 0, "lat": 38.9110875, "name": "d70dd62174edd99e762385d7d6ff9884", "bike_id": "d70dd62174edd99e762385d7d6ff9884", "is_disabled": 0, "fusion_lon": 0.0, "type": "electric_scooter", "lon": -77.04454733333333}, {"rental_uris": {"android": "https://dc.lft.to/lastmile_qr_scan", "ios": "https://dc.lft.to/lastmile_qr_scan"}, "fusion_lat": 0.0, "is_reserved": 0, "lat": 38.89829533333333, "name": "1df3612ebf0fdee7a22e3e6e0a903d63", "bike_id": "1df3612ebf0fdee7a22e3e6e0a903d63", "is_disabled": 0, "fusion_lon": 0.0, "type": "electric_scooter", "lon": -77.04907216666666}, {"rental_uris": {"android": "https://dc.lft.to/lastmile_qr_scan", "ios": "https://dc.lft.to/lastmile_qr_scan"}, "fusion_lat": 0.0, "is_reserved": 0, "lat": 38.90574866666667, "name": "2db5474078de9531c48f20790d2fcc7b", "bike_id": "2db5474078de9531c48f20790d2fcc7b", "is_disabled": 0, "fusion_lon": 0.0, "type": "electric_scooter", "lon": -77.022156}, {"rental_uris": {"android": "https://dc.lft.to/lastmile_qr_scan", "ios": "https://dc.lft.to/lastmile_qr_scan"}, "fusion_lat": 0.0, "is_reserved": 0, "lat": 38.9126535, "name": "43903de9cc71fc6bab0f5c0a7e83d92a", "bike_id": "43903de9cc71fc6bab0f5c0a7e83d92a", "is_disabled": 0, "fusion_lon": 0.0, "type": "electric_scooter", "lon": -77.04551033333334}, {"rental_uris": {"android": "https://dc.lft.to/lastmile_qr_scan", "ios": "https://dc.lft.to/lastmile_qr_scan"}, "fusion_lat": 0.0, "is_reserved": 0, "lat": 38.92081233333333, "name": "43ebd0c04bbd02addd65c833e34b8584", "bike_id": "43ebd0c04bbd02addd65c833e34b8584", "is_disabled": 0, "fusion_lon": 0.0, "type": "electric_scooter", "lon": -77.03562683333334}, {"rental_uris": {"android": "https://dc.lft.to/lastmile_qr_scan", "ios": "https://dc.lft.to/lastmile_qr_scan"}, "fusion_lat": 0.0, "is_reserved": 0, "lat": 38.876546833333336, "name": "1ae7eafd2e0a7cf3099d474bc54c9be9", "bike_id": "1ae7eafd2e0a7cf3099d474bc54c9be9", "is_disabled": 0, "fusion_lon": 0.0, "type": "electric_scooter", "lon": -76.99322266666667}, {"rental_uris": {"android": "https://dc.lft.to/lastmile_qr_scan", "ios": "https://dc.lft.to/lastmile_qr_scan"}, "fusion_lat": 0.0, "is_reserved": 0, "lat": 38.984331166666664, "name": "05c6724765bc596f63266fed135fb5e6", "bike_id": "05c6724765bc596f63266fed135fb5e6", "is_disabled": 0, "fusion_lon": 0.0, "type": "electric_scooter", "lon": -77.02673433333334}, {"rental_uris": {"android": "https://dc.lft.to/lastmile_qr_scan", "ios": "https://dc.lft.to/lastmile_qr_scan"}, "fusion_lat": 0.0, "is_reserved": 0, "lat": 38.9214085, "name": "388c4515fcb5af377b56618b083deec7", "bike_id": "388c4515fcb5af377b56618b083deec7", "is_disabled": 0, "fusion_lon": 0.0, "type": "electric_scooter", "lon": -77.018074}, {"rental_uris": {"android": "https://dc.lft.to/lastmile_qr_scan", "ios": "https://dc.lft.to/lastmile_qr_scan"}, "fusion_lat": 0.0, "is_reserved": 0, "lat": 38.8844135, "name": "d318af70f7e7668bb72e17a1a2db3765", "bike_id": "d318af70f7e7668bb72e17a1a2db3765", "is_disabled": 0, "fusion_lon": 0.0, "type": "electric_scooter", "lon": -77.00348033333333}, {"rental_uris": {"android": "https://dc.lft.to/lastmile_qr_scan", "ios": "https://dc.lft.to/lastmile_qr_scan"}, "fusion_lat": 0.0, "is_reserved": 0, "lat": 38.9197215, "name": "a100031fc513c74e360f0d84127dc046", "bike_id": "a100031fc513c74e360f0d84127dc046", "is_disabled": 0, "fusion_lon": 0.0, "type": "electric_scooter", "lon": -77.04219433333333}, {"rental_uris": {"android": "https://dc.lft.to/lastmile_qr_scan", "ios": "https://dc.lft.to/lastmile_qr_scan"}, "fusion_lat": 0.0, "is_reserved": 0, "lat": 38.89812416666667, "name": "fbad0990148cf60df811278bb9f35d7f", "bike_id": "fbad0990148cf60df811278bb9f35d7f", "is_disabled": 0, "fusion_lon": 0.0, "type": "electric_bike", "lon": -76.99070616666667}, {"rental_uris": {"android": "https://dc.lft.to/lastmile_qr_scan", "ios": "https://dc.lft.to/lastmile_qr_scan"}, "fusion_lat": 0.0, "is_reserved": 0, "lat": 38.91387316666667, "name": "ec2723952a11977d04b2305e4570c7d3", "bike_id": "ec2723952a11977d04b2305e4570c7d3", "is_disabled": 0, "fusion_lon": 0.0, "type": "electric_scooter", "lon": -76.98424266666666}, {"rental_uris": {"android": "https://dc.lft.to/lastmile_qr_scan", "ios": "https://dc.lft.to/lastmile_qr_scan"}, "fusion_lat": 0.0, "is_reserved": 0, "lat": 38.90865516666667, "name": "c1c856cb092d0b7598b88d2f1b0240f3", "bike_id": "c1c856cb092d0b7598b88d2f1b0240f3", "is_disabled": 0, "fusion_lon": 0.0, "type": "electric_scooter", "lon": -77.0036065}, {"rental_uris": {"android": "https://dc.lft.to/lastmile_qr_scan", "ios": "https://dc.lft.to/lastmile_qr_scan"}, "fusion_lat": 0.0, "is_reserved": 0, "lat": 38.915835666666666, "name": "307720d86c908dbf9088ada2ed320e29", "bike_id": "307720d86c908dbf9088ada2ed320e29", "is_disabled": 0, "fusion_lon": 0.0, "type": "electric_scooter", "lon": -77.01239283333334}, {"rental_uris": {"android": "https://dc.lft.to/lastmile_qr_scan", "ios": "https://dc.lft.to/lastmile_qr_scan"}, "fusion_lat": 0.0, "is_reserved": 0, "lat": 38.838645166666666, "name": "dad6492c25c9e2e2d13a0ebe10014fc3", "bike_id": "dad6492c25c9e2e2d13a0ebe10014fc3", "is_disabled": 0, "fusion_lon": 0.0, "type": "electric_bike", "lon": -76.99701033333334}, {"rental_uris": {"android": "https://dc.lft.to/lastmile_qr_scan", "ios": "https://dc.lft.to/lastmile_qr_scan"}, "fusion_lat": 0.0, "is_reserved": 0, "lat": 38.914194333333334, "name": "be8e53d165c16e1c278483ebf3190969", "bike_id": "be8e53d165c16e1c278483ebf3190969", "is_disabled": 0, "fusion_lon": 0.0, "type": "electric_scooter", "lon": -77.03171483333334}, {"rental_uris": {"android": "https://dc.lft.to/lastmile_qr_scan", "ios": "https://dc.lft.to/lastmile_qr_scan"}, "fusion_lat": 0.0, "is_reserved": 0, "lat": 38.8770575, "name": "2fcceb544fee5fb33f26ae2b80ab3818", "bike_id": "2fcceb544fee5fb33f26ae2b80ab3818", "is_disabled": 0, "fusion_lon": 0.0, "type": "electric_scooter", "lon": -77.01753583333333}, {"rental_uris": {"android": "https://dc.lft.to/lastmile_qr_scan", "ios": "https://dc.lft.to/lastmile_qr_scan"}, "fusion_lat": 0.0, "is_reserved": 0, "lat": 38.944801, "name": "f577590fbfba56b87e6f515021bc2bf3", "bike_id": "f577590fbfba56b87e6f515021bc2bf3", "is_disabled": 0, "fusion_lon": 0.0, "type": "electric_bike", "lon": -76.986884}, {"rental_uris": {"android": "https://dc.lft.to/lastmile_qr_scan", "ios": "https://dc.lft.to/lastmile_qr_scan"}, "fusion_lat": 0.0, "is_reserved": 0, "lat": 38.9059445, "name": "249cf7a12804e5bc2eff134908f97f8d", "bike_id": "249cf7a12804e5bc2eff134908f97f8d", "is_disabled": 0, "fusion_lon": 0.0, "type": "electric_scooter", "lon": -77.01614683333334}, {"rental_uris": {"android": "https://dc.lft.to/lastmile_qr_scan", "ios": "https://dc.lft.to/lastmile_qr_scan"}, "fusion_lat": 0.0, "is_reserved": 0, "lat": 38.925022, "name": "738b39f4f77cb7b8c0b4f725c5f9030e", "bike_id": "738b39f4f77cb7b8c0b4f725c5f9030e", "is_disabled": 0, "fusion_lon": 0.0, "type": "electric_scooter", "lon": -77.02402666666667}, {"rental_uris": {"android": "https://dc.lft.to/lastmile_qr_scan", "ios": "https://dc.lft.to/lastmile_qr_scan"}, "fusion_lat": 0.0, "is_reserved": 0, "lat": 38.94044066666667, "name": "27582ee2521aaf4437ff555a739033eb", "bike_id": "27582ee2521aaf4437ff555a739033eb", "is_disabled": 0, "fusion_lon": 0.0, "type": "electric_scooter", "lon": -77.02911916666666}, {"rental_uris": {"android": "https://dc.lft.to/lastmile_qr_scan", "ios": "https://dc.lft.to/lastmile_qr_scan"}, "fusion_lat": 0.0, "is_reserved": 0, "lat": 38.994186166666665, "name": "9350ed29af7dc30578939729cbb612e5", "bike_id": "9350ed29af7dc30578939729cbb612e5", "is_disabled": 0, "fusion_lon": 0.0, "type": "electric_bike", "lon": -77.01799633333333}, {"rental_uris": {"android": "https://dc.lft.to/lastmile_qr_scan", "ios": "https://dc.lft.to/lastmile_qr_scan"}, "fusion_lat": 0.0, "is_reserved": 0, "lat": 38.946564, "name": "5bb90bd77210c5bcb86e9e6a5d569abe", "bike_id": "5bb90bd77210c5bcb86e9e6a5d569abe", "is_disabled": 0, "fusion_lon": 0.0, "type": "electric_scooter", "lon": -77.0648325}, {"rental_uris": {"android": "https://dc.lft.to/lastmile_qr_scan", "ios": "https://dc.lft.to/lastmile_qr_scan"}, "fusion_lat": 0.0, "is_reserved": 0, "lat": 38.89472266666667, "name": "39934c78b95be8f67f139acf5d529f23", "bike_id": "39934c78b95be8f67f139acf5d529f23", "is_disabled": 0, "fusion_lon": 0.0, "type": "electric_scooter", "lon": -76.994883}, {"rental_uris": {"android": "https://dc.lft.to/lastmile_qr_scan", "ios": "https://dc.lft.to/lastmile_qr_scan"}, "fusion_lat": 0.0, "is_reserved": 0, "lat": 38.89993033333333, "name": "ae68bbff38e0abe804f82fc0e288271a", "bike_id": "ae68bbff38e0abe804f82fc0e288271a", "is_disabled": 0, "fusion_lon": 0.0, "type": "electric_scooter", "lon": -77.02240133333333}, {"rental_uris": {"android": "https://dc.lft.to/lastmile_qr_scan", "ios": "https://dc.lft.to/lastmile_qr_scan"}, "fusion_lat": 0.0, "is_reserved": 0, "lat": 38.8971145, "name": "d989d38145a50264e1fb527a28263344", "bike_id": "d989d38145a50264e1fb527a28263344", "is_disabled": 0, "fusion_lon": 0.0, "type": "electric_scooter", "lon": -77.0131325}, {"rental_uris": {"android": "https://dc.lft.to/lastmile_qr_scan", "ios": "https://dc.lft.to/lastmile_qr_scan"}, "fusion_lat": 0.0, "is_reserved": 0, "lat": 38.90965533333333, "name": "22e9c44680f60a71aab9053dd66b3c95", "bike_id": "22e9c44680f60a71aab9053dd66b3c95", "is_disabled": 0, "fusion_lon": 0.0, "type": "electric_scooter", "lon": -77.0227945}, {"rental_uris": {"android": "https://dc.lft.to/lastmile_qr_scan", "ios": "https://dc.lft.to/lastmile_qr_scan"}, "fusion_lat": 0.0, "is_reserved": 0, "lat": 38.92724033333333, "name": "13aeea03cdf26489f4a92bd7555b0c9a", "bike_id": "13aeea03cdf26489f4a92bd7555b0c9a", "is_disabled": 0, "fusion_lon": 0.0, "type": "electric_scooter", "lon": -77.0296615}, {"rental_uris": {"android": "https://dc.lft.to/lastmile_qr_scan", "ios": "https://dc.lft.to/lastmile_qr_scan"}, "fusion_lat": 0.0, "is_reserved": 0, "lat": 38.915507833333336, "name": "2c612f18528de7a516c94cf8c97107d8", "bike_id": "2c612f18528de7a516c94cf8c97107d8", "is_disabled": 0, "fusion_lon": 0.0, "type": "electric_scooter", "lon": -77.02812133333333}, {"rental_uris": {"android": "https://dc.lft.to/lastmile_qr_scan", "ios": "https://dc.lft.to/lastmile_qr_scan"}, "fusion_lat": 0.0, "is_reserved": 0, "lat": 38.9016785, "name": "f5bbec9ac2ec5d2bfa519c5c520d19e1", "bike_id": "f5bbec9ac2ec5d2bfa519c5c520d19e1", "is_disabled": 0, "fusion_lon": 0.0, "type": "electric_scooter", "lon": -76.930214}, {"rental_uris": {"android": "https://dc.lft.to/lastmile_qr_scan", "ios": "https://dc.lft.to/lastmile_qr_scan"}, "fusion_lat": 0.0, "is_reserved": 0, "lat": 38.8980385, "name": "0a725cc9d00c6f6b054467669a5f1619", "bike_id": "0a725cc9d00c6f6b054467669a5f1619", "is_disabled": 0, "fusion_lon": 0.0, "type": "electric_scooter", "lon": -77.012155}, {"rental_uris": {"android": "https://dc.lft.to/lastmile_qr_scan", "ios": "https://dc.lft.to/lastmile_qr_scan"}, "fusion_lat": 0.0, "is_reserved": 0, "lat": 38.91881633333333, "name": "91cccd9e661b4927ece87e98e6000c79", "bike_id": "91cccd9e661b4927ece87e98e6000c79", "is_disabled": 0, "fusion_lon": 0.0, "type": "electric_scooter", "lon": -77.0272175}, {"rental_uris": {"android": "https://dc.lft.to/lastmile_qr_scan", "ios": "https://dc.lft.to/lastmile_qr_scan"}, "fusion_lat": 0.0, "is_reserved": 0, "lat": 38.80732283333333, "name": "3fc7fe0949f6deec405e1e1776836902", "bike_id": "3fc7fe0949f6deec405e1e1776836902", "is_disabled": 0, "fusion_lon": 0.0, "type": "electric_bike", "lon": -76.99254316666666}, {"rental_uris": {"android": "https://dc.lft.to/lastmile_qr_scan", "ios": "https://dc.lft.to/lastmile_qr_scan"}, "fusion_lat": 0.0, "is_reserved": 0, "lat": 38.88841166666667, "name": "7514291065e13a08e5e9e0eacd89335e", "bike_id": "7514291065e13a08e5e9e0eacd89335e", "is_disabled": 0, "fusion_lon": 0.0, "type": "electric_bike", "lon": -76.95757033333334}, {"rental_uris": {"android": "https://dc.lft.to/lastmile_qr_scan", "ios": "https://dc.lft.to/lastmile_qr_scan"}, "fusion_lat": 0.0, "is_reserved": 0, "lat": 38.8799735, "name": "3823ce8576576408af12812720970ce7", "bike_id": "3823ce8576576408af12812720970ce7", "is_disabled": 0, "fusion_lon": 0.0, "type": "electric_scooter", "lon": -77.03740983333333}, {"rental_uris": {"android": "https://dc.lft.to/lastmile_qr_scan", "ios": "https://dc.lft.to/lastmile_qr_scan"}, "fusion_lat": 0.0, "is_reserved": 0, "lat": 38.93562383333333, "name": "da22d39a9e824b71dd1d8a459d2e8c89", "bike_id": "da22d39a9e824b71dd1d8a459d2e8c89", "is_disabled": 0, "fusion_lon": 0.0, "type": "electric_scooter", "lon": -77.05861683333333}, {"rental_uris": {"android": "https://dc.lft.to/lastmile_qr_scan", "ios": "https://dc.lft.to/lastmile_qr_scan"}, "fusion_lat": 0.0, "is_reserved": 0, "lat": 38.90552733333333, "name": "96037086991119d3f40847fef9afc699", "bike_id": "96037086991119d3f40847fef9afc699", "is_disabled": 0, "fusion_lon": 0.0, "type": "electric_scooter", "lon": -77.0356305}, {"rental_uris": {"android": "https://dc.lft.to/lastmile_qr_scan", "ios": "https://dc.lft.to/lastmile_qr_scan"}, "fusion_lat": 0.0, "is_reserved": 0, "lat": 38.920560333333334, "name": "c636c7d6a71ce57339cf67e2d0d582d1", "bike_id": "c636c7d6a71ce57339cf67e2d0d582d1", "is_disabled": 0, "fusion_lon": 0.0, "type": "electric_bike", "lon": -76.970732}, {"rental_uris": {"android": "https://dc.lft.to/lastmile_qr_scan", "ios": "https://dc.lft.to/lastmile_qr_scan"}, "fusion_lat": 0.0, "is_reserved": 0, "lat": 38.886901333333334, "name": "be7c3a79c781efb164ef8d8d8eddf4cb", "bike_id": "be7c3a79c781efb164ef8d8d8eddf4cb", "is_disabled": 0, "fusion_lon": 0.0, "type": "electric_scooter", "lon": -77.0137755}, {"rental_uris": {"android": "https://dc.lft.to/lastmile_qr_scan", "ios": "https://dc.lft.to/lastmile_qr_scan"}, "fusion_lat": 0.0, "is_reserved": 0, "lat": 38.92615416666666, "name": "b7af8432278ab5e199663ae6f518fb34", "bike_id": "b7af8432278ab5e199663ae6f518fb34", "is_disabled": 0, "fusion_lon": 0.0, "type": "electric_scooter", "lon": -77.02163716666666}, {"rental_uris": {"android": "https://dc.lft.to/lastmile_qr_scan", "ios": "https://dc.lft.to/lastmile_qr_scan"}, "fusion_lat": 0.0, "is_reserved": 0, "lat": 38.86377916666667, "name": "37f9577b0cc21e398d2d52cf5bfaea79", "bike_id": "37f9577b0cc21e398d2d52cf5bfaea79", "is_disabled": 0, "fusion_lon": 0.0, "type": "electric_scooter", "lon": -76.99061916666666}, {"rental_uris": {"android": "https://dc.lft.to/lastmile_qr_scan", "ios": "https://dc.lft.to/lastmile_qr_scan"}, "fusion_lat": 0.0, "is_reserved": 0, "lat": 38.8671985, "name": "d206cc08a6dd46eab2ad3c4cfddd90a4", "bike_id": "d206cc08a6dd46eab2ad3c4cfddd90a4", "is_disabled": 0, "fusion_lon": 0.0, "type": "electric_scooter", "lon": -76.98073416666666}, {"rental_uris": {"android": "https://dc.lft.to/lastmile_qr_scan", "ios": "https://dc.lft.to/lastmile_qr_scan"}, "fusion_lat": 0.0, "is_reserved": 0, "lat": 38.92749533333333, "name": "5395a2007a1c57736e30ec605d67506d", "bike_id": "5395a2007a1c57736e30ec605d67506d", "is_disabled": 0, "fusion_lon": 0.0, "type": "electric_scooter", "lon": -77.05271933333333}, {"rental_uris": {"android": "https://dc.lft.to/lastmile_qr_scan", "ios": "https://dc.lft.to/lastmile_qr_scan"}, "fusion_lat": 0.0, "is_reserved": 0, "lat": 38.875651166666664, "name": "cd6f6de0f5ea4e10ebdfbf5410b8e6bc", "bike_id": "cd6f6de0f5ea4e10ebdfbf5410b8e6bc", "is_disabled": 0, "fusion_lon": 0.0, "type": "electric_scooter", "lon": -77.00599333333334}, {"rental_uris": {"android": "https://dc.lft.to/lastmile_qr_scan", "ios": "https://dc.lft.to/lastmile_qr_scan"}, "fusion_lat": 0.0, "is_reserved": 0, "lat": 38.9123815, "name": "84d61c4695fd90e4eb7384cb732375d2", "bike_id": "84d61c4695fd90e4eb7384cb732375d2", "is_disabled": 0, "fusion_lon": 0.0, "type": "electric_scooter", "lon": -77.06919583333334}, {"rental_uris": {"android": "https://dc.lft.to/lastmile_qr_scan", "ios": "https://dc.lft.to/lastmile_qr_scan"}, "fusion_lat": 0.0, "is_reserved": 0, "lat": 38.902244, "name": "bbde29e8d328b298d2493b1791f28d81", "bike_id": "bbde29e8d328b298d2493b1791f28d81", "is_disabled": 0, "fusion_lon": 0.0, "type": "electric_scooter", "lon": -77.05125066666666}, {"rental_uris": {"android": "https://dc.lft.to/lastmile_qr_scan", "ios": "https://dc.lft.to/lastmile_qr_scan"}, "fusion_lat": 0.0, "is_reserved": 0, "lat": 38.9171875, "name": "280541e501128426e55c6eb1175cc7e5", "bike_id": "280541e501128426e55c6eb1175cc7e5", "is_disabled": 0, "fusion_lon": 0.0, "type": "electric_scooter", "lon": -77.0415805}, {"rental_uris": {"android": "https://dc.lft.to/lastmile_qr_scan", "ios": "https://dc.lft.to/lastmile_qr_scan"}, "fusion_lat": 0.0, "is_reserved": 0, "lat": 38.91070633333333, "name": "73f35adcc685c813f04ea6c0211a6f07", "bike_id": "73f35adcc685c813f04ea6c0211a6f07", "is_disabled": 0, "fusion_lon": 0.0, "type": "electric_scooter", "lon": -77.04104583333333}, {"rental_uris": {"android": "https://dc.lft.to/lastmile_qr_scan", "ios": "https://dc.lft.to/lastmile_qr_scan"}, "fusion_lat": 0.0, "is_reserved": 0, "lat": 38.91959633333333, "name": "8b276d9683903312843a5af54cb45b15", "bike_id": "8b276d9683903312843a5af54cb45b15", "is_disabled": 0, "fusion_lon": 0.0, "type": "electric_scooter", "lon": -77.04365333333334}, {"rental_uris": {"android": "https://dc.lft.to/lastmile_qr_scan", "ios": "https://dc.lft.to/lastmile_qr_scan"}, "fusion_lat": 0.0, "is_reserved": 0, "lat": 38.898734166666664, "name": "0a888c44e1701362127f730f8375edd7", "bike_id": "0a888c44e1701362127f730f8375edd7", "is_disabled": 0, "fusion_lon": 0.0, "type": "electric_scooter", "lon": -77.04588683333333}, {"rental_uris": {"android": "https://dc.lft.to/lastmile_qr_scan", "ios": "https://dc.lft.to/lastmile_qr_scan"}, "fusion_lat": 0.0, "is_reserved": 0, "lat": 38.938604166666664, "name": "0432353936bdfe8e48d3d03eb33196f1", "bike_id": "0432353936bdfe8e48d3d03eb33196f1", "is_disabled": 0, "fusion_lon": 0.0, "type": "electric_scooter", "lon": -77.02477716666667}, {"rental_uris": {"android": "https://dc.lft.to/lastmile_qr_scan", "ios": "https://dc.lft.to/lastmile_qr_scan"}, "fusion_lat": 0.0, "is_reserved": 0, "lat": 38.88537083333333, "name": "e4bc49d297791ec0d3bb920a6d8c6af4", "bike_id": "e4bc49d297791ec0d3bb920a6d8c6af4", "is_disabled": 0, "fusion_lon": 0.0, "type": "electric_scooter", "lon": -76.98060133333334}, {"rental_uris": {"android": "https://dc.lft.to/lastmile_qr_scan", "ios": "https://dc.lft.to/lastmile_qr_scan"}, "fusion_lat": 0.0, "is_reserved": 0, "lat": 38.9022135, "name": "271e825612cee94b55f86795b49807ae", "bike_id": "271e825612cee94b55f86795b49807ae", "is_disabled": 0, "fusion_lon": 0.0, "type": "electric_scooter", "lon": -77.0209045}, {"rental_uris": {"android": "https://dc.lft.to/lastmile_qr_scan", "ios": "https://dc.lft.to/lastmile_qr_scan"}, "fusion_lat": 0.0, "is_reserved": 0, "lat": 38.876515, "name": "e5f3c4788beb5a52cdffc86db0101388", "bike_id": "e5f3c4788beb5a52cdffc86db0101388", "is_disabled": 0, "fusion_lon": 0.0, "type": "electric_scooter", "lon": -77.0025615}, {"rental_uris": {"android": "https://dc.lft.to/lastmile_qr_scan", "ios": "https://dc.lft.to/lastmile_qr_scan"}, "fusion_lat": 0.0, "is_reserved": 0, "lat": 38.900456, "name": "a4d5441f56d40096f69c0d4421135eac", "bike_id": "a4d5441f56d40096f69c0d4421135eac", "is_disabled": 0, "fusion_lon": 0.0, "type": "electric_scooter", "lon": -76.9882415}, {"rental_uris": {"android": "https://dc.lft.to/lastmile_qr_scan", "ios": "https://dc.lft.to/lastmile_qr_scan"}, "fusion_lat": 0.0, "is_reserved": 0, "lat": 38.91658866666667, "name": "28b348ae99f2a61a8d9cae6b0a775d76", "bike_id": "28b348ae99f2a61a8d9cae6b0a775d76", "is_disabled": 0, "fusion_lon": 0.0, "type": "electric_scooter", "lon": -77.02474933333333}, {"rental_uris": {"android": "https://dc.lft.to/lastmile_qr_scan", "ios": "https://dc.lft.to/lastmile_qr_scan"}, "fusion_lat": 0.0, "is_reserved": 0, "lat": 38.924831833333336, "name": "cad93fdea7e49e32cf53cd7ce5d5ab18", "bike_id": "cad93fdea7e49e32cf53cd7ce5d5ab18", "is_disabled": 0, "fusion_lon": 0.0, "type": "electric_scooter", "lon": -77.035018}, {"rental_uris": {"android": "https://dc.lft.to/lastmile_qr_scan", "ios": "https://dc.lft.to/lastmile_qr_scan"}, "fusion_lat": 0.0, "is_reserved": 0, "lat": 38.91567116666667, "name": "a8deaa13a9b2709170e009b6e7a32299", "bike_id": "a8deaa13a9b2709170e009b6e7a32299", "is_disabled": 0, "fusion_lon": 0.0, "type": "electric_scooter", "lon": -77.03133666666666}, {"rental_uris": {"android": "https://dc.lft.to/lastmile_qr_scan", "ios": "https://dc.lft.to/lastmile_qr_scan"}, "fusion_lat": 0.0, "is_reserved": 0, "lat": 38.924066833333335, "name": "08299044cfd0399bc6d1175423b685d3", "bike_id": "08299044cfd0399bc6d1175423b685d3", "is_disabled": 0, "fusion_lon": 0.0, "type": "electric_scooter", "lon": -77.03658566666667}, {"rental_uris": {"android": "https://dc.lft.to/lastmile_qr_scan", "ios": "https://dc.lft.to/lastmile_qr_scan"}, "fusion_lat": 0.0, "is_reserved": 0, "lat": 38.90740383333333, "name": "6347008fbcc0f8bd85ef5684f7717bb0", "bike_id": "6347008fbcc0f8bd85ef5684f7717bb0", "is_disabled": 0, "fusion_lon": 0.0, "type": "electric_scooter", "lon": -76.93485783333334}, {"rental_uris": {"android": "https://dc.lft.to/lastmile_qr_scan", "ios": "https://dc.lft.to/lastmile_qr_scan"}, "fusion_lat": 0.0, "is_reserved": 0, "lat": 38.901648333333334, "name": "5319d818cc2e3e98ed91bea9c914472c", "bike_id": "5319d818cc2e3e98ed91bea9c914472c", "is_disabled": 0, "fusion_lon": 0.0, "type": "electric_scooter", "lon": -77.04681083333334}, {"rental_uris": {"android": "https://dc.lft.to/lastmile_qr_scan", "ios": "https://dc.lft.to/lastmile_qr_scan"}, "fusion_lat": 0.0, "is_reserved": 0, "lat": 38.91198583333333, "name": "cc810d59c34db3ae94a36065b4ba65b4", "bike_id": "cc810d59c34db3ae94a36065b4ba65b4", "is_disabled": 0, "fusion_lon": 0.0, "type": "electric_scooter", "lon": -77.03851466666667}, {"rental_uris": {"android": "https://dc.lft.to/lastmile_qr_scan", "ios": "https://dc.lft.to/lastmile_qr_scan"}, "fusion_lat": 0.0, "is_reserved": 0, "lat": 38.924079666666664, "name": "a8843b683f77d4b7d0766fa85f858112", "bike_id": "a8843b683f77d4b7d0766fa85f858112", "is_disabled": 0, "fusion_lon": 0.0, "type": "electric_scooter", "lon": -77.035349}, {"rental_uris": {"android": "https://dc.lft.to/lastmile_qr_scan", "ios": "https://dc.lft.to/lastmile_qr_scan"}, "fusion_lat": 0.0, "is_reserved": 0, "lat": 38.900273166666665, "name": "458cbb058c344063c2200a60e24c11ca", "bike_id": "458cbb058c344063c2200a60e24c11ca", "is_disabled": 0, "fusion_lon": 0.0, "type": "electric_scooter", "lon": -76.9984715}, {"rental_uris": {"android": "https://dc.lft.to/lastmile_qr_scan", "ios": "https://dc.lft.to/lastmile_qr_scan"}, "fusion_lat": 0.0, "is_reserved": 0, "lat": 38.94181283333333, "name": "a43e02946f0076f1698cf10119041525", "bike_id": "a43e02946f0076f1698cf10119041525", "is_disabled": 0, "fusion_lon": 0.0, "type": "electric_scooter", "lon": -77.031495}, {"rental_uris": {"android": "https://dc.lft.to/lastmile_qr_scan", "ios": "https://dc.lft.to/lastmile_qr_scan"}, "fusion_lat": 0.0, "is_reserved": 0, "lat": 38.922406333333335, "name": "68275a1047b49d3543b99c675aeb89e1", "bike_id": "68275a1047b49d3543b99c675aeb89e1", "is_disabled": 0, "fusion_lon": 0.0, "type": "electric_scooter", "lon": -77.0346795}, {"rental_uris": {"android": "https://dc.lft.to/lastmile_qr_scan", "ios": "https://dc.lft.to/lastmile_qr_scan"}, "fusion_lat": 0.0, "is_reserved": 0, "lat": 38.87295183333333, "name": "23dbdcf578191f7aac501ba255170d38", "bike_id": "23dbdcf578191f7aac501ba255170d38", "is_disabled": 0, "fusion_lon": 0.0, "type": "electric_scooter", "lon": -77.00230933333333}, {"rental_uris": {"android": "https://dc.lft.to/lastmile_qr_scan", "ios": "https://dc.lft.to/lastmile_qr_scan"}, "fusion_lat": 0.0, "is_reserved": 0, "lat": 38.89799083333333, "name": "489b3ca21a8bc4d6e0c74bb05760ae81", "bike_id": "489b3ca21a8bc4d6e0c74bb05760ae81", "is_disabled": 0, "fusion_lon": 0.0, "type": "electric_scooter", "lon": -77.0547835}, {"rental_uris": {"android": "https://dc.lft.to/lastmile_qr_scan", "ios": "https://dc.lft.to/lastmile_qr_scan"}, "fusion_lat": 0.0, "is_reserved": 0, "lat": 38.8819155, "name": "93160a4298f645cbd0ab45f056f48ab4", "bike_id": "93160a4298f645cbd0ab45f056f48ab4", "is_disabled": 0, "fusion_lon": 0.0, "type": "electric_scooter", "lon": -76.990276}, {"rental_uris": {"android": "https://dc.lft.to/lastmile_qr_scan", "ios": "https://dc.lft.to/lastmile_qr_scan"}, "fusion_lat": 0.0, "is_reserved": 0, "lat": 38.918464, "name": "076943eaeb7e74abbbdd23e35e6c040e", "bike_id": "076943eaeb7e74abbbdd23e35e6c040e", "is_disabled": 0, "fusion_lon": 0.0, "type": "electric_scooter", "lon": -77.02182066666667}, {"rental_uris": {"android": "https://dc.lft.to/lastmile_qr_scan", "ios": "https://dc.lft.to/lastmile_qr_scan"}, "fusion_lat": 0.0, "is_reserved": 0, "lat": 38.8985495, "name": "44dcd817ab3c1872ca87bb6055563319", "bike_id": "44dcd817ab3c1872ca87bb6055563319", "is_disabled": 0, "fusion_lon": 0.0, "type": "electric_scooter", "lon": -77.042485}, {"rental_uris": {"android": "https://dc.lft.to/lastmile_qr_scan", "ios": "https://dc.lft.to/lastmile_qr_scan"}, "fusion_lat": 0.0, "is_reserved": 0, "lat": 38.91609233333333, "name": "22563dd85a5d45fe975e7b51c7c9494f", "bike_id": "22563dd85a5d45fe975e7b51c7c9494f", "is_disabled": 0, "fusion_lon": 0.0, "type": "electric_scooter", "lon": -77.022953}, {"rental_uris": {"android": "https://dc.lft.to/lastmile_qr_scan", "ios": "https://dc.lft.to/lastmile_qr_scan"}, "fusion_lat": 0.0, "is_reserved": 0, "lat": 38.89226716666667, "name": "8e3d3e1fb01ee81dddcd8e012581bc88", "bike_id": "8e3d3e1fb01ee81dddcd8e012581bc88", "is_disabled": 0, "fusion_lon": 0.0, "type": "electric_scooter", "lon": -77.0398775}, {"rental_uris": {"android": "https://dc.lft.to/lastmile_qr_scan", "ios": "https://dc.lft.to/lastmile_qr_scan"}, "fusion_lat": 0.0, "is_reserved": 0, "lat": 38.921535, "name": "c9d8bd60b93f8e96e8f4047c737e681c", "bike_id": "c9d8bd60b93f8e96e8f4047c737e681c", "is_disabled": 0, "fusion_lon": 0.0, "type": "electric_scooter", "lon": -77.02082983333334}, {"rental_uris": {"android": "https://dc.lft.to/lastmile_qr_scan", "ios": "https://dc.lft.to/lastmile_qr_scan"}, "fusion_lat": 0.0, "is_reserved": 0, "lat": 38.90724433333333, "name": "903386ec30a619191fd79924577396c1", "bike_id": "903386ec30a619191fd79924577396c1", "is_disabled": 0, "fusion_lon": 0.0, "type": "electric_scooter", "lon": -77.02545783333333}, {"rental_uris": {"android": "https://dc.lft.to/lastmile_qr_scan", "ios": "https://dc.lft.to/lastmile_qr_scan"}, "fusion_lat": 0.0, "is_reserved": 0, "lat": 38.9230085, "name": "d1ac339e68f245a3cdf288533b2c7d14", "bike_id": "d1ac339e68f245a3cdf288533b2c7d14", "is_disabled": 0, "fusion_lon": 0.0, "type": "electric_scooter", "lon": -76.99762733333333}, {"rental_uris": {"android": "https://dc.lft.to/lastmile_qr_scan", "ios": "https://dc.lft.to/lastmile_qr_scan"}, "fusion_lat": 0.0, "is_reserved": 0, "lat": 38.975005, "name": "be4b8ee6c65d78b08ab591880aac5f19", "bike_id": "be4b8ee6c65d78b08ab591880aac5f19", "is_disabled": 0, "fusion_lon": 0.0, "type": "electric_scooter", "lon": -77.01698866666666}, {"rental_uris": {"android": "https://dc.lft.to/lastmile_qr_scan", "ios": "https://dc.lft.to/lastmile_qr_scan"}, "fusion_lat": 0.0, "is_reserved": 0, "lat": 38.89224766666667, "name": "cf16fb4c05b29ed85573d275cc9decba", "bike_id": "cf16fb4c05b29ed85573d275cc9decba", "is_disabled": 0, "fusion_lon": 0.0, "type": "electric_scooter", "lon": -77.0450305}, {"rental_uris": {"android": "https://dc.lft.to/lastmile_qr_scan", "ios": "https://dc.lft.to/lastmile_qr_scan"}, "fusion_lat": 0.0, "is_reserved": 0, "lat": 38.91332666666667, "name": "a11ca4862cfaf94d4fb93eefd256cb64", "bike_id": "a11ca4862cfaf94d4fb93eefd256cb64", "is_disabled": 0, "fusion_lon": 0.0, "type": "electric_scooter", "lon": -77.01499966666667}, {"rental_uris": {"android": "https://dc.lft.to/lastmile_qr_scan", "ios": "https://dc.lft.to/lastmile_qr_scan"}, "fusion_lat": 0.0, "is_reserved": 0, "lat": 38.879263, "name": "72003d26eabe57ebb4c2047cadd0816b", "bike_id": "72003d26eabe57ebb4c2047cadd0816b", "is_disabled": 0, "fusion_lon": 0.0, "type": "electric_scooter", "lon": -77.02157616666666}, {"rental_uris": {"android": "https://dc.lft.to/lastmile_qr_scan", "ios": "https://dc.lft.to/lastmile_qr_scan"}, "fusion_lat": 0.0, "is_reserved": 0, "lat": 38.92842183333333, "name": "83f23bbccef2806ae6383895a54027e2", "bike_id": "83f23bbccef2806ae6383895a54027e2", "is_disabled": 0, "fusion_lon": 0.0, "type": "electric_scooter", "lon": -77.01416333333333}, {"rental_uris": {"android": "https://dc.lft.to/lastmile_qr_scan", "ios": "https://dc.lft.to/lastmile_qr_scan"}, "fusion_lat": 0.0, "is_reserved": 0, "lat": 38.918830666666665, "name": "30394b5cc3ec79825ab463eae65bb8d5", "bike_id": "30394b5cc3ec79825ab463eae65bb8d5", "is_disabled": 0, "fusion_lon": 0.0, "type": "electric_bike", "lon": -76.96481166666666}, {"rental_uris": {"android": "https://dc.lft.to/lastmile_qr_scan", "ios": "https://dc.lft.to/lastmile_qr_scan"},