{"data": {"bikes": [{"rental_uris": {"android": "https://dc.lft.to/lastmile_qr_scan", "ios": "https://dc.lft.to/lastmile_qr_scan"}, "lat": 38.91123016666667, "type": "electric_scooter", "name": "b71f2e9d0bacc8609718537aa7b6560a", "fusion_lon": 0.0, "fusion_lat": 0.0, "is_reserved": 0, "bike_id": "b71f2e9d0bacc8609718537aa7b6560a", "lon": -77.03828983333334, "is_disabled": 0}, {"rental_uris": {"android": "https://dc.lft.to/lastmile_qr_scan", "ios": "https://dc.lft.to/lastmile_qr_scan"}, "lat": 38.90458433333333, "type": "electric_scooter", "name": "51e22f104fcf55b2b997c6b340924be9", "fusion_lon": 0.0, "fusion_lat": 0.0, "is_reserved": 0, "bike_id": "51e22f104fcf55b2b997c6b340924be9", "lon": -77.0346035, "is_disabled": 0}, {"rental_uris": {"android": "https://dc.lft.to/lastmile_qr_scan", "ios": "https://dc.lft.to/lastmile_qr_scan"}, "lat": 38.89267, "type": "electric_scooter", "name": "0efdd9341004d1e657a5f555056201b9", "fusion_lon": 0.0, "fusion_lat": 0.0, "is_reserved": 0, "bike_id": "0efdd9341004d1e657a5f555056201b9", "lon": -77.050272, "is_disabled": 0}, {"rental_uris": {"android": "https://dc.lft.to/lastmile_qr_scan", "ios": "https://dc.lft.to/lastmile_qr_scan"}, "lat": 38.876433666666664, "type": "electric_bike", "name": "3ecb20a41fd9dcda0ad7ef1c5f0f2eaf", "fusion_lon": 0.0, "fusion_lat": 0.0, "is_reserved": 0, "bike_id": "3ecb20a41fd9dcda0ad7ef1c5f0f2eaf", "lon": -76.93547233333334, "is_disabled": 0}, {"rental_uris": {"android": "https://dc.lft.to/lastmile_qr_scan", "ios": "https://dc.lft.to/lastmile_qr_scan"}, "lat": 38.884792833333336, "type": "electric_scooter", "name": "c008920e29b0441d9361500bad7e1b81", "fusion_lon": 0.0, "fusion_lat": 0.0, "is_reserved": 0, "bike_id": "c008920e29b0441d9361500bad7e1b81", "lon": -77.03349616666667, "is_disabled": 0}, {"rental_uris": {"android": "https://dc.lft.to/lastmile_qr_scan", "ios": "https://dc.lft.to/lastmile_qr_scan"}, "lat": 38.900276166666664, "type": "electric_scooter", "name": "6f554be34dd9abeab119de7bab33a005", "fusion_lon": 0.0, "fusion_lat": 0.0, "is_reserved": 0, "bike_id": "6f554be34dd9abeab119de7bab33a005", "lon": -77.00203766666667, "is_disabled": 0}, {"rental_uris": {"android": "https://dc.lft.to/lastmile_qr_scan", "ios": "https://dc.lft.to/lastmile_qr_scan"}, "lat": 38.926765333333336, "type": "electric_scooter", "name": "03fa0014a54825e2d5e17fcd8e9daf7e", "fusion_lon": 0.0, "fusion_lat": 0.0, "is_reserved": 0, "bike_id": "03fa0014a54825e2d5e17fcd8e9daf7e", "lon": -77.02743933333333, "is_disabled": 0}, {"rental_uris": {"android": "https://dc.lft.to/lastmile_qr_scan", "ios": "https://dc.lft.to/lastmile_qr_scan"}, "lat": 38.9080935, "type": "electric_scooter", "name": "0aa4331ca0c5ae94cfd4584394f64966", "fusion_lon": 0.0, "fusion_lat": 0.0, "is_reserved": 0, "bike_id": "0aa4331ca0c5ae94cfd4584394f64966", "lon": -77.039442, "is_disabled": 0}, {"rental_uris": {"android": "https://dc.lft.to/lastmile_qr_scan", "ios": "https://dc.lft.to/lastmile_qr_scan"}, "lat": 38.923316, "type": "electric_scooter", "name": "c6db4b80d76ab029a855748b9e1344de", "fusion_lon": 0.0, "fusion_lat": 0.0, "is_reserved": 0, "bike_id": "c6db4b80d76ab029a855748b9e1344de", "lon": -77.036818, "is_disabled": 0}, {"rental_uris": {"android": "https://dc.lft.to/lastmile_qr_scan", "ios": "https://dc.lft.to/lastmile_qr_scan"}, "lat": 38.916139333333334, "type": "electric_scooter", "name": "e28d6c4e0fcf0793bc05481f98a97fe8", "fusion_lon": 0.0, "fusion_lat": 0.0, "is_reserved": 0, "bike_id": "e28d6c4e0fcf0793bc05481f98a97fe8", "lon": -77.02391233333333, "is_disabled": 0}, {"rental_uris": {"android": "https://dc.lft.to/lastmile_qr_scan", "ios": "https://dc.lft.to/lastmile_qr_scan"}, "lat": 38.93311166666667, "type": "electric_scooter", "name": "c86b279982a72d35b230319a4c74fb64", "fusion_lon": 0.0, "fusion_lat": 0.0, "is_reserved": 0, "bike_id": "c86b279982a72d35b230319a4c74fb64", "lon": -77.03184383333334, "is_disabled": 0}, {"rental_uris": {"android": "https://dc.lft.to/lastmile_qr_scan", "ios": "https://dc.lft.to/lastmile_qr_scan"}, "lat": 38.92356366666667, "type": "electric_scooter", "name": "626b5eada7aa2fb35dcf4846a4dde88d", "fusion_lon": 0.0, "fusion_lat": 0.0, "is_reserved": 0, "bike_id": "626b5eada7aa2fb35dcf4846a4dde88d", "lon": -77.0507485, "is_disabled": 0}, {"rental_uris": {"android": "https://dc.lft.to/lastmile_qr_scan", "ios": "https://dc.lft.to/lastmile_qr_scan"}, "lat": 38.8811195, "type": "electric_scooter", "name": "dd844a4e7a017b446bb147a99dab7f2e", "fusion_lon": 0.0, "fusion_lat": 0.0, "is_reserved": 0, "bike_id": "dd844a4e7a017b446bb147a99dab7f2e", "lon": -77.0199225, "is_disabled": 0}, {"rental_uris": {"android": "https://dc.lft.to/lastmile_qr_scan", "ios": "https://dc.lft.to/lastmile_qr_scan"}, "lat": 38.906221, "type": "electric_scooter", "name": "6c7b4a5922d310ed74cb4c9d43d07891", "fusion_lon": 0.0, "fusion_lat": 0.0, "is_reserved": 0, "bike_id": "6c7b4a5922d310ed74cb4c9d43d07891", "lon": -77.06275616666667, "is_disabled": 0}, {"rental_uris": {"android": "https://dc.lft.to/lastmile_qr_scan", "ios": "https://dc.lft.to/lastmile_qr_scan"}, "lat": 38.9227435, "type": "electric_scooter", "name": "470d6592c02bcb83d7e594f25e258b4b", "fusion_lon": 0.0, "fusion_lat": 0.0, "is_reserved": 0, "bike_id": "470d6592c02bcb83d7e594f25e258b4b", "lon": -77.0212995, "is_disabled": 0}, {"rental_uris": {"android": "https://dc.lft.to/lastmile_qr_scan", "ios": "https://dc.lft.to/lastmile_qr_scan"}, "lat": 38.90848016666666, "type": "electric_scooter", "name": "4ba72f7e444e6625875f15660cbca36a", "fusion_lon": 0.0, "fusion_lat": 0.0, "is_reserved": 0, "bike_id": "4ba72f7e444e6625875f15660cbca36a", "lon": -77.03196116666666, "is_disabled": 0}, {"rental_uris": {"android": "https://dc.lft.to/lastmile_qr_scan", "ios": "https://dc.lft.to/lastmile_qr_scan"}, "lat": 38.920525166666664, "type": "electric_scooter", "name": "7bd7db1b981998f21862e797122783c4", "fusion_lon": 0.0, "fusion_lat": 0.0, "is_reserved": 0, "bike_id": "7bd7db1b981998f21862e797122783c4", "lon": -77.04191683333333, "is_disabled": 0}, {"rental_uris": {"android": "https://dc.lft.to/lastmile_qr_scan", "ios": "https://dc.lft.to/lastmile_qr_scan"}, "lat": 38.923243, "type": "electric_scooter", "name": "d37fbec82bd01a08da7e0234251687c2", "fusion_lon": 0.0, "fusion_lat": 0.0, "is_reserved": 0, "bike_id": "d37fbec82bd01a08da7e0234251687c2", "lon": -77.01959716666667, "is_disabled": 0}, {"rental_uris": {"android": "https://dc.lft.to/lastmile_qr_scan", "ios": "https://dc.lft.to/lastmile_qr_scan"}, "lat": 38.8932895, "type": "electric_scooter", "name": "cd76f99249e17390e072d4b736311f06", "fusion_lon": 0.0, "fusion_lat": 0.0, "is_reserved": 0, "bike_id": "cd76f99249e17390e072d4b736311f06", "lon": -77.02949033333333, "is_disabled": 0}, {"rental_uris": {"android": "https://dc.lft.to/lastmile_qr_scan", "ios": "https://dc.lft.to/lastmile_qr_scan"}, "lat": 38.901214833333334, "type": "electric_scooter", "name": "ae052c9f835677ccd0be860b7c315c7e", "fusion_lon": 0.0, "fusion_lat": 0.0, "is_reserved": 0, "bike_id": "ae052c9f835677ccd0be860b7c315c7e", "lon": -77.041995, "is_disabled": 0}, {"rental_uris": {"android": "https://dc.lft.to/lastmile_qr_scan", "ios": "https://dc.lft.to/lastmile_qr_scan"}, "lat": 38.927544, "type": "electric_scooter", "name": "bb28f5d1502904378274ce9ee7cb41e4", "fusion_lon": 0.0, "fusion_lat": 0.0, "is_reserved": 0, "bike_id": "bb28f5d1502904378274ce9ee7cb41e4", "lon": -77.021139, "is_disabled": 0}, {"rental_uris": {"android": "https://dc.lft.to/lastmile_qr_scan", "ios": "https://dc.lft.to/lastmile_qr_scan"}, "lat": 38.92022766666667, "type": "electric_scooter", "name": "bb393cae2273958d7bf070db7fb8bc6a", "fusion_lon": 0.0, "fusion_lat": 0.0, "is_reserved": 0, "bike_id": "bb393cae2273958d7bf070db7fb8bc6a", "lon": -77.0373025, "is_disabled": 0}, {"rental_uris": {"android": "https://dc.lft.to/lastmile_qr_scan", "ios": "https://dc.lft.to/lastmile_qr_scan"}, "lat": 38.9225785, "type": "electric_scooter", "name": "190b290d318a9a9716b2a8b66a210e55", "fusion_lon": 0.0, "fusion_lat": 0.0, "is_reserved": 0, "bike_id": "190b290d318a9a9716b2a8b66a210e55", "lon": -77.04299583333334, "is_disabled": 0}, {"rental_uris": {"android": "https://dc.lft.to/lastmile_qr_scan", "ios": "https://dc.lft.to/lastmile_qr_scan"}, "lat": 38.892261500000004, "type": "electric_scooter", "name": "53d453311dbcc30c0016057e4e302c4b", "fusion_lon": 0.0, "fusion_lat": 0.0, "is_reserved": 0, "bike_id": "53d453311dbcc30c0016057e4e302c4b", "lon": -77.0462315, "is_disabled": 0}, {"rental_uris": {"android": "https://dc.lft.to/lastmile_qr_scan", "ios": "https://dc.lft.to/lastmile_qr_scan"}, "lat": 38.957396333333335, "type": "electric_scooter", "name": "02e2472a95abc04774f1f977c46cb638", "fusion_lon": 0.0, "fusion_lat": 0.0, "is_reserved": 0, "bike_id": "02e2472a95abc04774f1f977c46cb638", "lon": -77.027531, "is_disabled": 0}, {"rental_uris": {"android": "https://dc.lft.to/lastmile_qr_scan", "ios": "https://dc.lft.to/lastmile_qr_scan"}, "lat": 38.9017025, "type": "electric_scooter", "name": "2a9227a69fef701ce4043a755712db4b", "fusion_lon": 0.0, "fusion_lat": 0.0, "is_reserved": 0, "bike_id": "2a9227a69fef701ce4043a755712db4b", "lon": -77.02209833333333, "is_disabled": 0}, {"rental_uris": {"android": "https://dc.lft.to/lastmile_qr_scan", "ios": "https://dc.lft.to/lastmile_qr_scan"}, "lat": 38.92474433333334, "type": "electric_scooter", "name": "977ed0e348924bec33cff45e5467bc61", "fusion_lon": 0.0, "fusion_lat": 0.0, "is_reserved": 0, "bike_id": "977ed0e348924bec33cff45e5467bc61", "lon": -77.03007783333334, "is_disabled": 0}, {"rental_uris": {"android": "https://dc.lft.to/lastmile_qr_scan", "ios": "https://dc.lft.to/lastmile_qr_scan"}, "lat": 38.89885966666667, "type": "electric_scooter", "name": "1bbc23f11afa7a3566ae543b097cccff", "fusion_lon": 0.0, "fusion_lat": 0.0, "is_reserved": 0, "bike_id": "1bbc23f11afa7a3566ae543b097cccff", "lon": -76.93174833333333, "is_disabled": 0}, {"rental_uris": {"android": "https://dc.lft.to/lastmile_qr_scan", "ios": "https://dc.lft.to/lastmile_qr_scan"}, "lat": 38.905484, "type": "electric_bike", "name": "2880c039c09e2a3f12451bdb9d9eef9b", "fusion_lon": 0.0, "fusion_lat": 0.0, "is_reserved": 0, "bike_id": "2880c039c09e2a3f12451bdb9d9eef9b", "lon": -77.067863, "is_disabled": 0}, {"rental_uris": {"android": "https://dc.lft.to/lastmile_qr_scan", "ios": "https://dc.lft.to/lastmile_qr_scan"}, "lat": 38.92309216666666, "type": "electric_scooter", "name": "47df3b2bd6ed5202fa26326fb28914ed", "fusion_lon": 0.0, "fusion_lat": 0.0, "is_reserved": 0, "bike_id": "47df3b2bd6ed5202fa26326fb28914ed", "lon": -77.039112, "is_disabled": 0}, {"rental_uris": {"android": "https://dc.lft.to/lastmile_qr_scan", "ios": "https://dc.lft.to/lastmile_qr_scan"}, "lat": 38.892210666666664, "type": "electric_scooter", "name": "1f9e381fb925698df54d2eb919acec1f", "fusion_lon": 0.0, "fusion_lat": 0.0, "is_reserved": 0, "bike_id": "1f9e381fb925698df54d2eb919acec1f", "lon": -77.027484, "is_disabled": 0}, {"rental_uris": {"android": "https://dc.lft.to/lastmile_qr_scan", "ios": "https://dc.lft.to/lastmile_qr_scan"}, "lat": 38.862465, "type": "electric_scooter", "name": "6d3342a55620be12496cf49e358e73a2", "fusion_lon": 0.0, "fusion_lat": 0.0, "is_reserved": 0, "bike_id": "6d3342a55620be12496cf49e358e73a2", "lon": -76.9950115, "is_disabled": 0}, {"rental_uris": {"android": "https://dc.lft.to/lastmile_qr_scan", "ios": "https://dc.lft.to/lastmile_qr_scan"}, "lat": 38.8983205, "type": "electric_scooter", "name": "dac20d7c06b9f99f71a93f1f315e937d", "fusion_lon": 0.0, "fusion_lat": 0.0, "is_reserved": 0, "bike_id": "dac20d7c06b9f99f71a93f1f315e937d", "lon": -76.94635416666667, "is_disabled": 0}, {"rental_uris": {"android": "https://dc.lft.to/lastmile_qr_scan", "ios": "https://dc.lft.to/lastmile_qr_scan"}, "lat": 38.87895916666667, "type": "electric_scooter", "name": "400831157f2eb90bcad10c7637538e3a", "fusion_lon": 0.0, "fusion_lat": 0.0, "is_reserved": 0, "bike_id": "400831157f2eb90bcad10c7637538e3a", "lon": -76.93530766666666, "is_disabled": 0}, {"rental_uris": {"android": "https://dc.lft.to/lastmile_qr_scan", "ios": "https://dc.lft.to/lastmile_qr_scan"}, "lat": 38.93042483333333, "type": "electric_scooter", "name": "fffccb25d2f32cfe72d8113298228e5a", "fusion_lon": 0.0, "fusion_lat": 0.0, "is_reserved": 0, "bike_id": "fffccb25d2f32cfe72d8113298228e5a", "lon": -77.03632783333333, "is_disabled": 0}, {"rental_uris": {"android": "https://dc.lft.to/lastmile_qr_scan", "ios": "https://dc.lft.to/lastmile_qr_scan"}, "lat": 38.9004075, "type": "electric_scooter", "name": "bd063cdcc228fe719cf9ccd6c56b26fa", "fusion_lon": 0.0, "fusion_lat": 0.0, "is_reserved": 0, "bike_id": "bd063cdcc228fe719cf9ccd6c56b26fa", "lon": -76.98819566666667, "is_disabled": 0}, {"rental_uris": {"android": "https://dc.lft.to/lastmile_qr_scan", "ios": "https://dc.lft.to/lastmile_qr_scan"}, "lat": 38.898202, "type": "electric_bike", "name": "a7663508ecf43ef6ea89e2a136312309", "fusion_lon": 0.0, "fusion_lat": 0.0, "is_reserved": 0, "bike_id": "a7663508ecf43ef6ea89e2a136312309", "lon": -77.00603016666666, "is_disabled": 0}, {"rental_uris": {"android": "https://dc.lft.to/lastmile_qr_scan", "ios": "https://dc.lft.to/lastmile_qr_scan"}, "lat": 38.902437, "type": "electric_scooter", "name": "9bb83944be86809e8e4f4e7169be224b", "fusion_lon": 0.0, "fusion_lat": 0.0, "is_reserved": 0, "bike_id": "9bb83944be86809e8e4f4e7169be224b", "lon": -77.00186933333333, "is_disabled": 0}, {"rental_uris": {"android": "https://dc.lft.to/lastmile_qr_scan", "ios": "https://dc.lft.to/lastmile_qr_scan"}, "lat": 38.912564, "type": "electric_scooter", "name": "99ac0f0dc8522b00ac732a178aa1c34f", "fusion_lon": 0.0, "fusion_lat": 0.0, "is_reserved": 0, "bike_id": "99ac0f0dc8522b00ac732a178aa1c34f", "lon": -77.04467183333334, "is_disabled": 0}, {"rental_uris": {"android": "https://dc.lft.to/lastmile_qr_scan", "ios": "https://dc.lft.to/lastmile_qr_scan"}, "lat": 38.927183166666666, "type": "electric_scooter", "name": "7debf4fda53ec3789ab8f0110a0e7424", "fusion_lon": 0.0, "fusion_lat": 0.0, "is_reserved": 0, "bike_id": "7debf4fda53ec3789ab8f0110a0e7424", "lon": -77.02086516666667, "is_disabled": 0}, {"rental_uris": {"android": "https://dc.lft.to/lastmile_qr_scan", "ios": "https://dc.lft.to/lastmile_qr_scan"}, "lat": 38.8621035, "type": "electric_scooter", "name": "6c9044b117e13c87668ce3a8f81de074", "fusion_lon": 0.0, "fusion_lat": 0.0, "is_reserved": 0, "bike_id": "6c9044b117e13c87668ce3a8f81de074", "lon": -76.99479916666667, "is_disabled": 0}, {"rental_uris": {"android": "https://dc.lft.to/lastmile_qr_scan", "ios": "https://dc.lft.to/lastmile_qr_scan"}, "lat": 38.921511333333335, "type": "electric_scooter", "name": "5f1a8b0fb91e6b03e935e733e6260f1c", "fusion_lon": 0.0, "fusion_lat": 0.0, "is_reserved": 0, "bike_id": "5f1a8b0fb91e6b03e935e733e6260f1c", "lon": -77.04220966666666, "is_disabled": 0}, {"rental_uris": {"android": "https://dc.lft.to/lastmile_qr_scan", "ios": "https://dc.lft.to/lastmile_qr_scan"}, "lat": 38.873798, "type": "electric_scooter", "name": "19cde4e131e98b60b1ce353932283fdc", "fusion_lon": 0.0, "fusion_lat": 0.0, "is_reserved": 0, "bike_id": "19cde4e131e98b60b1ce353932283fdc", "lon": -77.00072666666667, "is_disabled": 0}, {"rental_uris": {"android": "https://dc.lft.to/lastmile_qr_scan", "ios": "https://dc.lft.to/lastmile_qr_scan"}, "lat": 38.89222133333333, "type": "electric_scooter", "name": "53d6d65aaa387a71cff711aa49c2fad1", "fusion_lon": 0.0, "fusion_lat": 0.0, "is_reserved": 0, "bike_id": "53d6d65aaa387a71cff711aa49c2fad1", "lon": -77.02224133333333, "is_disabled": 0}, {"rental_uris": {"android": "https://dc.lft.to/lastmile_qr_scan", "ios": "https://dc.lft.to/lastmile_qr_scan"}, "lat": 38.89188816666667, "type": "electric_scooter", "name": "c50d9ce3b54f9f81cdcb5137029bf0f3", "fusion_lon": 0.0, "fusion_lat": 0.0, "is_reserved": 0, "bike_id": "c50d9ce3b54f9f81cdcb5137029bf0f3", "lon": -76.99850966666666, "is_disabled": 0}, {"rental_uris": {"android": "https://dc.lft.to/lastmile_qr_scan", "ios": "https://dc.lft.to/lastmile_qr_scan"}, "lat": 38.89594566666667, "type": "electric_scooter", "name": "db62b3ae9326c0f9a4af35a155f52f40", "fusion_lon": 0.0, "fusion_lat": 0.0, "is_reserved": 0, "bike_id": "db62b3ae9326c0f9a4af35a155f52f40", "lon": -77.04810366666666, "is_disabled": 0}, {"rental_uris": {"android": "https://dc.lft.to/lastmile_qr_scan", "ios": "https://dc.lft.to/lastmile_qr_scan"}, "lat": 38.89990816666667, "type": "electric_scooter", "name": "73145cdc08d5f05d2746b42f4af2e25b", "fusion_lon": 0.0, "fusion_lat": 0.0, "is_reserved": 0, "bike_id": "73145cdc08d5f05d2746b42f4af2e25b", "lon": -77.0224445, "is_disabled": 0}, {"rental_uris": {"android": "https://dc.lft.to/lastmile_qr_scan", "ios": "https://dc.lft.to/lastmile_qr_scan"}, "lat": 38.905319, "type": "electric_scooter", "name": "4d3f46532e86d7e475de4edf0dd5ce6c", "fusion_lon": 0.0, "fusion_lat": 0.0, "is_reserved": 0, "bike_id": "4d3f46532e86d7e475de4edf0dd5ce6c", "lon": -77.04755566666667, "is_disabled": 0}, {"rental_uris": {"android": "https://dc.lft.to/lastmile_qr_scan", "ios": "https://dc.lft.to/lastmile_qr_scan"}, "lat": 38.897081166666666, "type": "electric_scooter", "name": "93f9232673d497593a5e124b424362bc", "fusion_lon": 0.0, "fusion_lat": 0.0, "is_reserved": 0, "bike_id": "93f9232673d497593a5e124b424362bc", "lon": -77.02444816666667, "is_disabled": 0}, {"rental_uris": {"android": "https://dc.lft.to/lastmile_qr_scan", "ios": "https://dc.lft.to/lastmile_qr_scan"}, "lat": 39.00533166666666, "type": "electric_bike", "name": "1ea1c1b47dc91195c3b4d7f32b7fcccb", "fusion_lon": 0.0, "fusion_lat": 0.0, "is_reserved": 0, "bike_id": "1ea1c1b47dc91195c3b4d7f32b7fcccb", "lon": -77.104028, "is_disabled": 0}, {"rental_uris": {"android": "https://dc.lft.to/lastmile_qr_scan", "ios": "https://dc.lft.to/lastmile_qr_scan"}, "lat": 38.90265633333333, "type": "electric_scooter", "name": "53a6a9552f67ee6545688b8150264368", "fusion_lon": 0.0, "fusion_lat": 0.0, "is_reserved": 0, "bike_id": "53a6a9552f67ee6545688b8150264368", "lon": -77.03834283333333, "is_disabled": 0}, {"rental_uris": {"android": "https://dc.lft.to/lastmile_qr_scan", "ios": "https://dc.lft.to/lastmile_qr_scan"}, "lat": 38.920611666666666, "type": "electric_scooter", "name": "05a2e6b6a2fccdd7dba6f8d56a29f60c", "fusion_lon": 0.0, "fusion_lat": 0.0, "is_reserved": 0, "bike_id": "05a2e6b6a2fccdd7dba6f8d56a29f60c", "lon": -77.02945366666667, "is_disabled": 0}, {"rental_uris": {"android": "https://dc.lft.to/lastmile_qr_scan", "ios": "https://dc.lft.to/lastmile_qr_scan"}, "lat": 38.897229833333334, "type": "electric_scooter", "name": "b260ef5c06f2c23bcf5890470005fea0", "fusion_lon": 0.0, "fusion_lat": 0.0, "is_reserved": 0, "bike_id": "b260ef5c06f2c23bcf5890470005fea0", "lon": -77.04360966666667, "is_disabled": 0}, {"rental_uris": {"android": "https://dc.lft.to/lastmile_qr_scan", "ios": "https://dc.lft.to/lastmile_qr_scan"}, "lat": 38.902865166666665, "type": "electric_scooter", "name": "2607a2e10acb1d58666619b240b2db12", "fusion_lon": 0.0, "fusion_lat": 0.0, "is_reserved": 0, "bike_id": "2607a2e10acb1d58666619b240b2db12", "lon": -77.03882983333334, "is_disabled": 0}, {"rental_uris": {"android": "https://dc.lft.to/lastmile_qr_scan", "ios": "https://dc.lft.to/lastmile_qr_scan"}, "lat": 38.93469116666667, "type": "electric_scooter", "name": "3a0d6e2f691214d4c1ff67a09b8c7f71", "fusion_lon": 0.0, "fusion_lat": 0.0, "is_reserved": 0, "bike_id": "3a0d6e2f691214d4c1ff67a09b8c7f71", "lon": -77.02928366666667, "is_disabled": 0}, {"rental_uris": {"android": "https://dc.lft.to/lastmile_qr_scan", "ios": "https://dc.lft.to/lastmile_qr_scan"}, "lat": 38.911077166666665, "type": "electric_scooter", "name": "8163c141c7a169679b52431d37f71145", "fusion_lon": 0.0, "fusion_lat": 0.0, "is_reserved": 0, "bike_id": "8163c141c7a169679b52431d37f71145", "lon": -77.03725283333333, "is_disabled": 0}, {"rental_uris": {"android": "https://dc.lft.to/lastmile_qr_scan", "ios": "https://dc.lft.to/lastmile_qr_scan"}, "lat": 38.92958, "type": "electric_scooter", "name": "cf4c520c6fe72ffd04e35f97414d4cb3", "fusion_lon": 0.0, "fusion_lat": 0.0, "is_reserved": 0, "bike_id": "cf4c520c6fe72ffd04e35f97414d4cb3", "lon": -77.01147016666667, "is_disabled": 0}, {"rental_uris": {"android": "https://dc.lft.to/lastmile_qr_scan", "ios": "https://dc.lft.to/lastmile_qr_scan"}, "lat": 38.9133935, "type": "electric_scooter", "name": "603c852096376151ed32f0e9341570a1", "fusion_lon": 0.0, "fusion_lat": 0.0, "is_reserved": 0, "bike_id": "603c852096376151ed32f0e9341570a1", "lon": -77.02124766666667, "is_disabled": 0}, {"rental_uris": {"android": "https://dc.lft.to/lastmile_qr_scan", "ios": "https://dc.lft.to/lastmile_qr_scan"}, "lat": 38.9171045, "type": "electric_scooter", "name": "13e729e71971a6786a246f650c30f3f7", "fusion_lon": 0.0, "fusion_lat": 0.0, "is_reserved": 0, "bike_id": "13e729e71971a6786a246f650c30f3f7", "lon": -77.04004316666666, "is_disabled": 0}, {"rental_uris": {"android": "https://dc.lft.to/lastmile_qr_scan", "ios": "https://dc.lft.to/lastmile_qr_scan"}, "lat": 38.89221783333333, "type": "electric_scooter", "name": "82b6688c52db59492421e09d035b7b7b", "fusion_lon": 0.0, "fusion_lat": 0.0, "is_reserved": 0, "bike_id": "82b6688c52db59492421e09d035b7b7b", "lon": -77.04625983333334, "is_disabled": 0}, {"rental_uris": {"android": "https://dc.lft.to/lastmile_qr_scan", "ios": "https://dc.lft.to/lastmile_qr_scan"}, "lat": 38.923463166666664, "type": "electric_scooter", "name": "7939a6a6d101c34c9e58fa2cc962a9d0", "fusion_lon": 0.0, "fusion_lat": 0.0, "is_reserved": 0, "bike_id": "7939a6a6d101c34c9e58fa2cc962a9d0", "lon": -77.022574, "is_disabled": 0}, {"rental_uris": {"android": "https://dc.lft.to/lastmile_qr_scan", "ios": "https://dc.lft.to/lastmile_qr_scan"}, "lat": 38.92057033333333, "type": "electric_scooter", "name": "279a97272397af908bc825a1ba68073f", "fusion_lon": 0.0, "fusion_lat": 0.0, "is_reserved": 0, "bike_id": "279a97272397af908bc825a1ba68073f", "lon": -77.0230475, "is_disabled": 0}, {"rental_uris": {"android": "https://dc.lft.to/lastmile_qr_scan", "ios": "https://dc.lft.to/lastmile_qr_scan"}, "lat": 38.91536133333334, "type": "electric_scooter", "name": "c7097a7c1434f75559bb4881ad1648db", "fusion_lon": 0.0, "fusion_lat": 0.0, "is_reserved": 0, "bike_id": "c7097a7c1434f75559bb4881ad1648db", "lon": -77.0076785, "is_disabled": 0}, {"rental_uris": {"android": "https://dc.lft.to/lastmile_qr_scan", "ios": "https://dc.lft.to/lastmile_qr_scan"}, "lat": 38.922135, "type": "electric_scooter", "name": "c2af7fef9bed85d6b8216096d49a3ccf", "fusion_lon": 0.0, "fusion_lat": 0.0, "is_reserved": 0, "bike_id": "c2af7fef9bed85d6b8216096d49a3ccf", "lon": -77.0424065, "is_disabled": 0}, {"rental_uris": {"android": "https://dc.lft.to/lastmile_qr_scan", "ios": "https://dc.lft.to/lastmile_qr_scan"}, "lat": 38.892275833333336, "type": "electric_scooter", "name": "ad08704be57b1c6283c8c4e5d1e8d039", "fusion_lon": 0.0, "fusion_lat": 0.0, "is_reserved": 0, "bike_id": "ad08704be57b1c6283c8c4e5d1e8d039", "lon": -77.031313, "is_disabled": 0}, {"rental_uris": {"android": "https://dc.lft.to/lastmile_qr_scan", "ios": "https://dc.lft.to/lastmile_qr_scan"}, "lat": 38.910543, "type": "electric_scooter", "name": "4a741d13284cd88adcffd6a294a94598", "fusion_lon": 0.0, "fusion_lat": 0.0, "is_reserved": 0, "bike_id": "4a741d13284cd88adcffd6a294a94598", "lon": -77.05396316666666, "is_disabled": 0}, {"rental_uris": {"android": "https://dc.lft.to/lastmile_qr_scan", "ios": "https://dc.lft.to/lastmile_qr_scan"}, "lat": 38.9125755, "type": "electric_scooter", "name": "7ce8b0e1591ebc119d10619163713843", "fusion_lon": 0.0, "fusion_lat": 0.0, "is_reserved": 0, "bike_id": "7ce8b0e1591ebc119d10619163713843", "lon": -77.03874416666666, "is_disabled": 0}, {"rental_uris": {"android": "https://dc.lft.to/lastmile_qr_scan", "ios": "https://dc.lft.to/lastmile_qr_scan"}, "lat": 38.886450833333335, "type": "electric_scooter", "name": "7b4b8cf35b81dfc23cdf9a2c678e7c65", "fusion_lon": 0.0, "fusion_lat": 0.0, "is_reserved": 0, "bike_id": "7b4b8cf35b81dfc23cdf9a2c678e7c65", "lon": -77.00210783333333, "is_disabled": 0}, {"rental_uris": {"android": "https://dc.lft.to/lastmile_qr_scan", "ios": "https://dc.lft.to/lastmile_qr_scan"}, "lat": 38.870315, "type": "electric_scooter", "name": "782518469baaca1ad1fe3a4478c8f92f", "fusion_lon": 0.0, "fusion_lat": 0.0, "is_reserved": 0, "bike_id": "782518469baaca1ad1fe3a4478c8f92f", "lon": -76.98036666666667, "is_disabled": 0}, {"rental_uris": {"android": "https://dc.lft.to/lastmile_qr_scan", "ios": "https://dc.lft.to/lastmile_qr_scan"}, "lat": 39.042395166666665, "type": "electric_bike", "name": "b533b63dd05986231e17e817a0307003", "fusion_lon": 0.0, "fusion_lat": 0.0, "is_reserved": 0, "bike_id": "b533b63dd05986231e17e817a0307003", "lon": -76.99736433333334, "is_disabled": 0}, {"rental_uris": {"android": "https://dc.lft.to/lastmile_qr_scan", "ios": "https://dc.lft.to/lastmile_qr_scan"}, "lat": 38.905154, "type": "electric_scooter", "name": "f2fcf5ffb2f7e1064e6fb6910dff1a42", "fusion_lon": 0.0, "fusion_lat": 0.0, "is_reserved": 0, "bike_id": "f2fcf5ffb2f7e1064e6fb6910dff1a42", "lon": -77.06721133333333, "is_disabled": 0}, {"rental_uris": {"android": "https://dc.lft.to/lastmile_qr_scan", "ios": "https://dc.lft.to/lastmile_qr_scan"}, "lat": 38.93076, "type": "electric_scooter", "name": "ed1855e8a3a74a4f012fdf7421e85ac1", "fusion_lon": 0.0, "fusion_lat": 0.0, "is_reserved": 0, "bike_id": "ed1855e8a3a74a4f012fdf7421e85ac1", "lon": -77.02172516666667, "is_disabled": 0}, {"rental_uris": {"android": "https://dc.lft.to/lastmile_qr_scan", "ios": "https://dc.lft.to/lastmile_qr_scan"}, "lat": 38.92667466666666, "type": "electric_scooter", "name": "6e65d5bff7130bda3865d93757b436c0", "fusion_lon": 0.0, "fusion_lat": 0.0, "is_reserved": 0, "bike_id": "6e65d5bff7130bda3865d93757b436c0", "lon": -77.02284883333333, "is_disabled": 0}, {"rental_uris": {"android": "https://dc.lft.to/lastmile_qr_scan", "ios": "https://dc.lft.to/lastmile_qr_scan"}, "lat": 38.923879666666664, "type": "electric_scooter", "name": "7713654954627295ca1490879579aa1b", "fusion_lon": 0.0, "fusion_lat": 0.0, "is_reserved": 0, "bike_id": "7713654954627295ca1490879579aa1b", "lon": -77.0007155, "is_disabled": 0}, {"rental_uris": {"android": "https://dc.lft.to/lastmile_qr_scan", "ios": "https://dc.lft.to/lastmile_qr_scan"}, "lat": 38.902552166666666, "type": "electric_scooter", "name": "c108ae704dfce4f372eb8400039af496", "fusion_lon": 0.0, "fusion_lat": 0.0, "is_reserved": 0, "bike_id": "c108ae704dfce4f372eb8400039af496", "lon": -77.01766133333334, "is_disabled": 0}, {"rental_uris": {"android": "https://dc.lft.to/lastmile_qr_scan", "ios": "https://dc.lft.to/lastmile_qr_scan"}, "lat": 38.894807666666665, "type": "electric_scooter", "name": "a55e6b31ccff5c707fb4266b5fd854c5", "fusion_lon": 0.0, "fusion_lat": 0.0, "is_reserved": 0, "bike_id": "a55e6b31ccff5c707fb4266b5fd854c5", "lon": -77.02410533333334, "is_disabled": 0}, {"rental_uris": {"android": "https://dc.lft.to/lastmile_qr_scan", "ios": "https://dc.lft.to/lastmile_qr_scan"}, "lat": 38.920039333333335, "type": "electric_scooter", "name": "4ae690956ec423afd6ce203b3b7b5ad2", "fusion_lon": 0.0, "fusion_lat": 0.0, "is_reserved": 0, "bike_id": "4ae690956ec423afd6ce203b3b7b5ad2", "lon": -76.99566483333334, "is_disabled": 0}, {"rental_uris": {"android": "https://dc.lft.to/lastmile_qr_scan", "ios": "https://dc.lft.to/lastmile_qr_scan"}, "lat": 38.92155016666667, "type": "electric_scooter", "name": "e2d1ad09cbf842e2465fae8fcdbd4648", "fusion_lon": 0.0, "fusion_lat": 0.0, "is_reserved": 0, "bike_id": "e2d1ad09cbf842e2465fae8fcdbd4648", "lon": -77.02030883333333, "is_disabled": 0}, {"rental_uris": {"android": "https://dc.lft.to/lastmile_qr_scan", "ios": "https://dc.lft.to/lastmile_qr_scan"}, "lat": 38.93185583333333, "type": "electric_bike", "name": "1368cd9de7d2c092d30e3a09db3e754d", "fusion_lon": 0.0, "fusion_lat": 0.0, "is_reserved": 0, "bike_id": "1368cd9de7d2c092d30e3a09db3e754d", "lon": -77.03546066666667, "is_disabled": 0}, {"rental_uris": {"android": "https://dc.lft.to/lastmile_qr_scan", "ios": "https://dc.lft.to/lastmile_qr_scan"}, "lat": 38.913418, "type": "electric_scooter", "name": "9a72397ffafbadb8c63474ff82528e0a", "fusion_lon": 0.0, "fusion_lat": 0.0, "is_reserved": 0, "bike_id": "9a72397ffafbadb8c63474ff82528e0a", "lon": -77.02057533333333, "is_disabled": 0}, {"rental_uris": {"android": "https://dc.lft.to/lastmile_qr_scan", "ios": "https://dc.lft.to/lastmile_qr_scan"}, "lat": 38.9256015, "type": "electric_scooter", "name": "08c8c4443da95717a578656a74629149", "fusion_lon": 0.0, "fusion_lat": 0.0, "is_reserved": 0, "bike_id": "08c8c4443da95717a578656a74629149", "lon": -77.0228235, "is_disabled": 0}, {"rental_uris": {"android": "https://dc.lft.to/lastmile_qr_scan", "ios": "https://dc.lft.to/lastmile_qr_scan"}, "lat": 38.92593683333333, "type": "electric_scooter", "name": "a5257f31838e75a9b57f5ea12cd3e6a7", "fusion_lon": 0.0, "fusion_lat": 0.0, "is_reserved": 0, "bike_id": "a5257f31838e75a9b57f5ea12cd3e6a7", "lon": -77.0257025, "is_disabled": 0}, {"rental_uris": {"android": "https://dc.lft.to/lastmile_qr_scan", "ios": "https://dc.lft.to/lastmile_qr_scan"}, "lat": 38.85558833333333, "type": "electric_bike", "name": "aafa53c0793cb5187173f574983b2813", "fusion_lon": 0.0, "fusion_lat": 0.0, "is_reserved": 0, "bike_id": "aafa53c0793cb5187173f574983b2813", "lon": -77.06329516666666, "is_disabled": 0}, {"rental_uris": {"android": "https://dc.lft.to/lastmile_qr_scan", "ios": "https://dc.lft.to/lastmile_qr_scan"}, "lat": 38.923261333333336, "type": "electric_scooter", "name": "73facb65d005bd7baa87b44da97160a9", "fusion_lon": 0.0, "fusion_lat": 0.0, "is_reserved": 0, "bike_id": "73facb65d005bd7baa87b44da97160a9", "lon": -77.05685783333334, "is_disabled": 0}, {"rental_uris": {"android": "https://dc.lft.to/lastmile_qr_scan", "ios": "https://dc.lft.to/lastmile_qr_scan"}, "lat": 38.842211666666664, "type": "electric_bike", "name": "0a5331c3fdd3cf52aae3ac3ece1e61aa", "fusion_lon": 0.0, "fusion_lat": 0.0, "is_reserved": 0, "bike_id": "0a5331c3fdd3cf52aae3ac3ece1e61aa", "lon": -76.94890666666667, "is_disabled": 0}, {"rental_uris": {"android": "https://dc.lft.to/lastmile_qr_scan", "ios": "https://dc.lft.to/lastmile_qr_scan"}, "lat": 38.905299, "type": "electric_scooter", "name": "72f9515c3720b16cfd3504dda794acb0", "fusion_lon": 0.0, "fusion_lat": 0.0, "is_reserved": 0, "bike_id": "72f9515c3720b16cfd3504dda794acb0", "lon": -77.05031283333334, "is_disabled": 0}, {"rental_uris": {"android": "https://dc.lft.to/lastmile_qr_scan", "ios": "https://dc.lft.to/lastmile_qr_scan"}, "lat": 38.862466, "type": "electric_scooter", "name": "2e0b29885fe34e7dafe07bee52d2a370", "fusion_lon": 0.0, "fusion_lat": 0.0, "is_reserved": 0, "bike_id": "2e0b29885fe34e7dafe07bee52d2a370", "lon": -76.995019, "is_disabled": 0}, {"rental_uris": {"android": "https://dc.lft.to/lastmile_qr_scan", "ios": "https://dc.lft.to/lastmile_qr_scan"}, "lat": 38.90617616666667, "type": "electric_scooter", "name": "b63c6c9534f5d768a0fed6aadb3943bf", "fusion_lon": 0.0, "fusion_lat": 0.0, "is_reserved": 0, "bike_id": "b63c6c9534f5d768a0fed6aadb3943bf", "lon": -77.04355383333333, "is_disabled": 0}, {"rental_uris": {"android": "https://dc.lft.to/lastmile_qr_scan", "ios": "https://dc.lft.to/lastmile_qr_scan"}, "lat": 38.9014115, "type": "electric_scooter", "name": "f9db1ddf1618554eafe89a3eff61041e", "fusion_lon": 0.0, "fusion_lat": 0.0, "is_reserved": 0, "bike_id": "f9db1ddf1618554eafe89a3eff61041e", "lon": -77.01226716666666, "is_disabled": 0}, {"rental_uris": {"android": "https://dc.lft.to/lastmile_qr_scan", "ios": "https://dc.lft.to/lastmile_qr_scan"}, "lat": 38.85217866666667, "type": "electric_scooter", "name": "e4729c48b7dd815002bd89a34833d65d", "fusion_lon": 0.0, "fusion_lat": 0.0, "is_reserved": 0, "bike_id": "e4729c48b7dd815002bd89a34833d65d", "lon": -76.9937505, "is_disabled": 0}, {"rental_uris": {"android": "https://dc.lft.to/lastmile_qr_scan", "ios": "https://dc.lft.to/lastmile_qr_scan"}, "lat": 38.90262633333333, "type": "electric_scooter", "name": "8e5d74ae6c285f37ae202f1baec94f68", "fusion_lon": 0.0, "fusion_lat": 0.0, "is_reserved": 0, "bike_id": "8e5d74ae6c285f37ae202f1baec94f68", "lon": -77.03902333333333, "is_disabled": 0}, {"rental_uris": {"android": "https://dc.lft.to/lastmile_qr_scan", "ios": "https://dc.lft.to/lastmile_qr_scan"}, "lat": 38.90485533333333, "type": "electric_scooter", "name": "362828fdd4928d01e4c04254b9f39b1a", "fusion_lon": 0.0, "fusion_lat": 0.0, "is_reserved": 0, "bike_id": "362828fdd4928d01e4c04254b9f39b1a", "lon": -77.03474783333333, "is_disabled": 0}, {"rental_uris": {"android": "https://dc.lft.to/lastmile_qr_scan", "ios": "https://dc.lft.to/lastmile_qr_scan"}, "lat": 38.89475866666667, "type": "electric_scooter", "name": "fc72810ab7d58e0a5a335cf03b2a22d6", "fusion_lon": 0.0, "fusion_lat": 0.0, "is_reserved": 0, "bike_id": "fc72810ab7d58e0a5a335cf03b2a22d6", "lon": -77.0418185, "is_disabled": 0}, {"rental_uris": {"android": "https://dc.lft.to/lastmile_qr_scan", "ios": "https://dc.lft.to/lastmile_qr_scan"}, "lat": 38.89971283333333, "type": "electric_scooter", "name": "ca073ee4cb9a143413b6ac8f082c5ddb", "fusion_lon": 0.0, "fusion_lat": 0.0, "is_reserved": 0, "bike_id": "ca073ee4cb9a143413b6ac8f082c5ddb", "lon": -77.047243, "is_disabled": 0}, {"rental_uris": {"android": "https://dc.lft.to/lastmile_qr_scan", "ios": "https://dc.lft.to/lastmile_qr_scan"}, "lat": 38.90257166666667, "type": "electric_scooter", "name": "70f87d3902d4dc9896877fe3c997902b", "fusion_lon": 0.0, "fusion_lat": 0.0, "is_reserved": 0, "bike_id": "70f87d3902d4dc9896877fe3c997902b", "lon": -77.03847166666667, "is_disabled": 0}, {"rental_uris": {"android": "https://dc.lft.to/lastmile_qr_scan", "ios": "https://dc.lft.to/lastmile_qr_scan"}, "lat": 38.926822666666666, "type": "electric_scooter", "name": "d7ac374942290da5e622c28875a83290", "fusion_lon": 0.0, "fusion_lat": 0.0, "is_reserved": 0, "bike_id": "d7ac374942290da5e622c28875a83290", "lon": -77.02965866666666, "is_disabled": 0}, {"rental_uris": {"android": "https://dc.lft.to/lastmile_qr_scan", "ios": "https://dc.lft.to/lastmile_qr_scan"}, "lat": 38.892218666666665, "type": "electric_scooter", "name": "a59f6439b1ff7de5aa67a016e8574c5d", "fusion_lon": 0.0, "fusion_lat": 0.0, "is_reserved": 0, "bike_id": "a59f6439b1ff7de5aa67a016e8574c5d", "lon": -77.04372216666667, "is_disabled": 0}, {"rental_uris": {"android": "https://dc.lft.to/lastmile_qr_scan", "ios": "https://dc.lft.to/lastmile_qr_scan"}, "lat": 38.9055175, "type": "electric_scooter", "name": "5ecd00db59787cfb7037ef45a368a46d", "fusion_lon": 0.0, "fusion_lat": 0.0, "is_reserved": 0, "bike_id": "5ecd00db59787cfb7037ef45a368a46d", "lon": -77.034709, "is_disabled": 0}, {"rental_uris": {"android": "https://dc.lft.to/lastmile_qr_scan", "ios": "https://dc.lft.to/lastmile_qr_scan"}, "lat": 38.92390133333333, "type": "electric_scooter", "name": "6c0c1f01bf679565a4115c85a72d0d27", "fusion_lon": 0.0, "fusion_lat": 0.0, "is_reserved": 0, "bike_id": "6c0c1f01bf679565a4115c85a72d0d27", "lon": -77.02655983333334, "is_disabled": 0}, {"rental_uris": {"android": "https://dc.lft.to/lastmile_qr_scan", "ios": "https://dc.lft.to/lastmile_qr_scan"}, "lat": 38.92602683333333, "type": "electric_scooter", "name": "906e536883b4ee9351fec7dd456d3702", "fusion_lon": 0.0, "fusion_lat": 0.0, "is_reserved": 0, "bike_id": "906e536883b4ee9351fec7dd456d3702", "lon": -77.021556, "is_disabled": 0}, {"rental_uris": {"android": "https://dc.lft.to/lastmile_qr_scan", "ios": "https://dc.lft.to/lastmile_qr_scan"}, "lat": 38.8874355, "type": "electric_scooter", "name": "a98a140b51c1e03c9bbd69a12acdea99", "fusion_lon": 0.0, "fusion_lat": 0.0, "is_reserved": 0, "bike_id": "a98a140b51c1e03c9bbd69a12acdea99", "lon": -77.01535183333333, "is_disabled": 0}, {"rental_uris": {"android": "https://dc.lft.to/lastmile_qr_scan", "ios": "https://dc.lft.to/lastmile_qr_scan"}, "lat": 38.899944166666664, "type": "electric_scooter", "name": "23538360acf34776d2bd02caec0c3b2b", "fusion_lon": 0.0, "fusion_lat": 0.0, "is_reserved": 0, "bike_id": "23538360acf34776d2bd02caec0c3b2b", "lon": -77.04873983333333, "is_disabled": 0}, {"rental_uris": {"android": "https://dc.lft.to/lastmile_qr_scan", "ios": "https://dc.lft.to/lastmile_qr_scan"}, "lat": 38.9016415, "type": "electric_scooter", "name": "563414c08b8013e92a14495cb88fa44f", "fusion_lon": 0.0, "fusion_lat": 0.0, "is_reserved": 0, "bike_id": "563414c08b8013e92a14495cb88fa44f", "lon": -76.98081516666667, "is_disabled": 0}, {"rental_uris": {"android": "https://dc.lft.to/lastmile_qr_scan", "ios": "https://dc.lft.to/lastmile_qr_scan"}, "lat": 38.924473, "type": "electric_scooter", "name": "5f813775e445cfbca6b26e8a6b678679", "fusion_lon": 0.0, "fusion_lat": 0.0, "is_reserved": 0, "bike_id": "5f813775e445cfbca6b26e8a6b678679", "lon": -77.020357, "is_disabled": 0}, {"rental_uris": {"android": "https://dc.lft.to/lastmile_qr_scan", "ios": "https://dc.lft.to/lastmile_qr_scan"}, "lat": 38.80729016666667, "type": "electric_bike", "name": "2b0c974fc70a9a7dcdca3eb20fc195ef", "fusion_lon": 0.0, "fusion_lat": 0.0, "is_reserved": 0, "bike_id": "2b0c974fc70a9a7dcdca3eb20fc195ef", "lon": -76.992605, "is_disabled": 0}, {"rental_uris": {"android": "https://dc.lft.to/lastmile_qr_scan", "ios": "https://dc.lft.to/lastmile_qr_scan"}, "lat": 38.88433033333333, "type": "electric_scooter", "name": "69bd7c6c4f8068eaab90553f8e24591f", "fusion_lon": 0.0, "fusion_lat": 0.0, "is_reserved": 0, "bike_id": "69bd7c6c4f8068eaab90553f8e24591f", "lon": -76.95747066666667, "is_disabled": 0}, {"rental_uris": {"android": "https://dc.lft.to/lastmile_qr_scan", "ios": "https://dc.lft.to/lastmile_qr_scan"}, "lat": 38.88789416666667, "type": "electric_scooter", "name": "39e81fd45932fc0e45f7f30e983a339b", "fusion_lon": 0.0, "fusion_lat": 0.0, "is_reserved": 0, "bike_id": "39e81fd45932fc0e45f7f30e983a339b", "lon": -77.01600833333333, "is_disabled": 0}, {"rental_uris": {"android": "https://dc.lft.to/lastmile_qr_scan", "ios": "https://dc.lft.to/lastmile_qr_scan"}, "lat": 38.9221915, "type": "electric_scooter", "name": "c3fa469a16c45ca85ba94d294d165b14", "fusion_lon": 0.0, "fusion_lat": 0.0, "is_reserved": 0, "bike_id": "c3fa469a16c45ca85ba94d294d165b14", "lon": -77.04245266666666, "is_disabled": 0}, {"rental_uris": {"android": "https://dc.lft.to/lastmile_qr_scan", "ios": "https://dc.lft.to/lastmile_qr_scan"}, "lat": 38.893546666666666, "type": "electric_scooter", "name": "94edea67858c22c24273abc08a40eb60", "fusion_lon": 0.0, "fusion_lat": 0.0, "is_reserved": 0, "bike_id": "94edea67858c22c24273abc08a40eb60", "lon": -77.0033295, "is_disabled": 0}, {"rental_uris": {"android": "https://dc.lft.to/lastmile_qr_scan", "ios": "https://dc.lft.to/lastmile_qr_scan"}, "lat": 38.881341, "type": "electric_scooter", "name": "d779c87eb97e72b32cf93474c55e971c", "fusion_lon": 0.0, "fusion_lat": 0.0, "is_reserved": 0, "bike_id": "d779c87eb97e72b32cf93474c55e971c", "lon": -77.02268733333334, "is_disabled": 0}, {"rental_uris": {"android": "https://dc.lft.to/lastmile_qr_scan", "ios": "https://dc.lft.to/lastmile_qr_scan"}, "lat": 38.924465833333336, "type": "electric_scooter", "name": "cef03a373a9540cb3be43c3e190e3cb4", "fusion_lon": 0.0, "fusion_lat": 0.0, "is_reserved": 0, "bike_id": "cef03a373a9540cb3be43c3e190e3cb4", "lon": -77.03366, "is_disabled": 0}, {"rental_uris": {"android": "https://dc.lft.to/lastmile_qr_scan", "ios": "https://dc.lft.to/lastmile_qr_scan"}, "lat": 38.933055333333336, "type": "electric_scooter", "name": "39e99246d0603e356fa0da2ed00cecd6", "fusion_lon": 0.0, "fusion_lat": 0.0, "is_reserved": 0, "bike_id": "39e99246d0603e356fa0da2ed00cecd6", "lon": -77.03076416666667, "is_disabled": 0}, {"rental_uris": {"android": "https://dc.lft.to/lastmile_qr_scan", "ios": "https://dc.lft.to/lastmile_qr_scan"}, "lat": 38.901009, "type": "electric_scooter", "name": "6543de471044092115b3b38404eebb94", "fusion_lon": 0.0, "fusion_lat": 0.0, "is_reserved": 0, "bike_id": "6543de471044092115b3b38404eebb94", "lon": -77.03361883333334, "is_disabled": 0}, {"rental_uris": {"android": "https://dc.lft.to/lastmile_qr_scan", "ios": "https://dc.lft.to/lastmile_qr_scan"}, "lat": 38.89599416666667, "type": "electric_scooter", "name": "3ab280cc36972feda86800dd75b95070", "fusion_lon": 0.0, "fusion_lat": 0.0, "is_reserved": 0, "bike_id": "3ab280cc36972feda86800dd75b95070", "lon": -76.94830666666667, "is_disabled": 0}, {"rental_uris": {"android": "https://dc.lft.to/lastmile_qr_scan", "ios": "https://dc.lft.to/lastmile_qr_scan"}, "lat": 38.892237333333334, "type": "electric_scooter", "name": "752e7fd50253474ced966b97f3256eaa", "fusion_lon": 0.0, "fusion_lat": 0.0, "is_reserved": 0, "bike_id": "752e7fd50253474ced966b97f3256eaa", "lon": -77.04499066666666, "is_disabled": 0}, {"rental_uris": {"android": "https://dc.lft.to/lastmile_qr_scan", "ios": "https://dc.lft.to/lastmile_qr_scan"}, "lat": 38.95614833333333, "type": "electric_bike", "name": "0978d93c783fe211e704fdada66da9ab", "fusion_lon": 0.0, "fusion_lat": 0.0, "is_reserved": 0, "bike_id": "0978d93c783fe211e704fdada66da9ab", "lon": -76.96269466666666, "is_disabled": 0}, {"rental_uris": {"android": "https://dc.lft.to/lastmile_qr_scan", "ios": "https://dc.lft.to/lastmile_qr_scan"}, "lat": 38.923034333333334, "type": "electric_scooter", "name": "82cce5ef13ab4329bed65fbe1922d8f3", "fusion_lon": 0.0, "fusion_lat": 0.0, "is_reserved": 0, "bike_id": "82cce5ef13ab4329bed65fbe1922d8f3", "lon": -77.03104966666666, "is_disabled": 0}, {"rental_uris": {"android": "https://dc.lft.to/lastmile_qr_scan", "ios": "https://dc.lft.to/lastmile_qr_scan"}, "lat": 38.89855633333333, "type": "electric_bike", "name": "dcf9c266101ad491f61e51e4834b3ce7", "fusion_lon": 0.0, "fusion_lat": 0.0, "is_reserved": 0, "bike_id": "dcf9c266101ad491f61e51e4834b3ce7", "lon": -76.93187583333334, "is_disabled": 0}, {"rental_uris": {"android": "https://dc.lft.to/lastmile_qr_scan", "ios": "https://dc.lft.to/lastmile_qr_scan"}, "lat": 38.892243666666666, "type": "electric_scooter", "name": "f3f8b643073da89bd839ad7c2783f918", "fusion_lon": 0.0, "fusion_lat": 0.0, "is_reserved": 0, "bike_id": "f3f8b643073da89bd839ad7c2783f918", "lon": -77.02414166666667, "is_disabled": 0}, {"rental_uris": {"android": "https://dc.lft.to/lastmile_qr_scan", "ios": "https://dc.lft.to/lastmile_qr_scan"}, "lat": 38.94480333333333, "type": "electric_scooter", "name": "39b7392d84151a08abf2ec008cf6e012", "fusion_lon": 0.0, "fusion_lat": 0.0, "is_reserved": 0, "bike_id": "39b7392d84151a08abf2ec008cf6e012", "lon": -77.06396816666667, "is_disabled": 0}, {"rental_uris": {"android": "https://dc.lft.to/lastmile_qr_scan", "ios": "https://dc.lft.to/lastmile_qr_scan"}, "lat": 38.89038033333333, "type": "electric_scooter", "name": "a78cd2614fc476a3338055641ce32eda", "fusion_lon": 0.0, "fusion_lat": 0.0, "is_reserved": 0, "bike_id": "a78cd2614fc476a3338055641ce32eda", "lon": -77.02979266666667, "is_disabled": 0}, {"rental_uris": {"android": "https://dc.lft.to/lastmile_qr_scan", "ios": "https://dc.lft.to/lastmile_qr_scan"}, "lat": 38.8524185, "type": "electric_bike", "name": "88b60ff580abf6c08b1ea599a1acffff", "fusion_lon": 0.0, "fusion_lat": 0.0, "is_reserved": 0, "bike_id": "88b60ff580abf6c08b1ea599a1acffff", "lon": -77.1143035, "is_disabled": 0}, {"rental_uris": {"android": "https://dc.lft.to/lastmile_qr_scan", "ios": "https://dc.lft.to/lastmile_qr_scan"}, "lat": 38.92328833333333, "type": "electric_scooter", "name": "28f6959be3c6a8c210a8c54a90a5dfc6", "fusion_lon": 0.0, "fusion_lat": 0.0, "is_reserved": 0, "bike_id": "28f6959be3c6a8c210a8c54a90a5dfc6", "lon": -77.05686966666667, "is_disabled": 0}, {"rental_uris": {"android": "https://dc.lft.to/lastmile_qr_scan", "ios": "https://dc.lft.to/lastmile_qr_scan"}, "lat": 38.912639166666665, "type": "electric_scooter", "name": "b9de266391e66b415459735668c71c4e", "fusion_lon": 0.0, "fusion_lat": 0.0, "is_reserved": 0, "bike_id": "b9de266391e66b415459735668c71c4e", "lon": -77.02315466666667, "is_disabled": 0}, {"rental_uris": {"android": "https://dc.lft.to/lastmile_qr_scan", "ios": "https://dc.lft.to/lastmile_qr_scan"}, "lat": 38.9058645, "type": "electric_scooter", "name": "79391978a7882097638f4cdaea1d8e78", "fusion_lon": 0.0, "fusion_lat": 0.0, "is_reserved": 0, "bike_id": "79391978a7882097638f4cdaea1d8e78", "lon": -77.0467525, "is_disabled": 0}, {"rental_uris": {"android": "https://dc.lft.to/lastmile_qr_scan", "ios": "https://dc.lft.to/lastmile_qr_scan"}, "lat": 38.908887666666665, "type": "electric_scooter", "name": "4541dd4d0b0e820cad79dfd064c30ed6", "fusion_lon": 0.0, "fusion_lat": 0.0, "is_reserved": 0, "bike_id": "4541dd4d0b0e820cad79dfd064c30ed6", "lon": -77.06455583333333, "is_disabled": 0}, {"rental_uris": {"android": "https://dc.lft.to/lastmile_qr_scan", "ios": "https://dc.lft.to/lastmile_qr_scan"}, "lat": 38.89332566666667, "type": "electric_scooter", "name": "52811c9c0a39ee50f470a6993b3a2b9b", "fusion_lon": 0.0, "fusion_lat": 0.0, "is_reserved": 0, "bike_id": "52811c9c0a39ee50f470a6993b3a2b9b", "lon": -76.9393015, "is_disabled": 0}, {"rental_uris": {"android": "https://dc.lft.to/lastmile_qr_scan", "ios": "https://dc.lft.to/lastmile_qr_scan"}, "lat": 38.92363133333333, "type": "electric_scooter", "name": "b7488235153e0a55124424aa66b86373", "fusion_lon": 0.0, "fusion_lat": 0.0, "is_reserved": 0, "bike_id": "b7488235153e0a55124424aa66b86373", "lon": -77.051302, "is_disabled": 0}, {"rental_uris": {"android": "https://dc.lft.to/lastmile_qr_scan", "ios": "https://dc.lft.to/lastmile_qr_scan"}, "lat": 38.943002666666665, "type": "electric_scooter", "name": "d6ee7404b9450f0feeff38218e700faf", "fusion_lon": 0.0, "fusion_lat": 0.0, "is_reserved": 0, "bike_id": "d6ee7404b9450f0feeff38218e700faf", "lon": -77.07698433333333, "is_disabled": 0}, {"rental_uris": {"android": "https://dc.lft.to/lastmile_qr_scan", "ios": "https://dc.lft.to/lastmile_qr_scan"}, "lat": 38.92956866666667, "type": "electric_scooter", "name": "9b5828e0b7c8c299324926fbbe83cc37", "fusion_lon": 0.0, "fusion_lat": 0.0, "is_reserved": 0, "bike_id": "9b5828e0b7c8c299324926fbbe83cc37", "lon": -77.0114965, "is_disabled": 0}, {"rental_uris": {"android": "https://dc.lft.to/lastmile_qr_scan", "ios": "https://dc.lft.to/lastmile_qr_scan"}, "lat": 38.897374, "type": "electric_scooter", "name": "b8fa4276289b3566e7ecee93e5472ac0", "fusion_lon": 0.0, "fusion_lat": 0.0, "is_reserved": 0, "bike_id": "b8fa4276289b3566e7ecee93e5472ac0", "lon": -77.00933583333334, "is_disabled": 0}, {"rental_uris": {"android": "https://dc.lft.to/lastmile_qr_scan", "ios": "https://dc.lft.to/lastmile_qr_scan"}, "lat": 38.92895216666667, "type": "electric_scooter", "name": "dfc2eed68d81de1b2ade077d315fd009", "fusion_lon": 0.0, "fusion_lat": 0.0, "is_reserved": 0, "bike_id": "dfc2eed68d81de1b2ade077d315fd009", "lon": -76.98429583333333, "is_disabled": 0}, {"rental_uris": {"android": "https://dc.lft.to/lastmile_qr_scan", "ios": "https://dc.lft.to/lastmile_qr_scan"}, "lat": 38.8956285, "type": "electric_bike", "name": "efeaa1ab846185c55c951026afa7f0a9", "fusion_lon": 0.0, "fusion_lat": 0.0, "is_reserved": 0, "bike_id": "efeaa1ab846185c55c951026afa7f0a9", "lon": -77.12737516666667, "is_disabled": 0}, {"rental_uris": {"android": "https://dc.lft.to/lastmile_qr_scan", "ios": "https://dc.lft.to/lastmile_qr_scan"}, "lat": 38.90522966666666, "type": "electric_scooter", "name": "dbed398afa58bc5567b9cf1c555b48fc", "fusion_lon": 0.0, "fusion_lat": 0.0, "is_reserved": 0, "bike_id": "dbed398afa58bc5567b9cf1c555b48fc", "lon": -77.04137183333333, "is_disabled": 0}, {"rental_uris": {"android": "https://dc.lft.to/lastmile_qr_scan", "ios": "https://dc.lft.to/lastmile_qr_scan"}, "lat": 38.913341833333334, "type": "electric_scooter", "name": "4eaaf06f8c3afe81ce6504c02f27f554", "fusion_lon": 0.0, "fusion_lat": 0.0, "is_reserved": 0, "bike_id": "4eaaf06f8c3afe81ce6504c02f27f554", "lon": -77.045705, "is_disabled": 0}, {"rental_uris": {"android": "https://dc.lft.to/lastmile_qr_scan", "ios": "https://dc.lft.to/lastmile_qr_scan"}, "lat": 38.90763166666667, "type": "electric_scooter", "name": "944e88996849dad3b7e964fd7a37504a", "fusion_lon": 0.0, "fusion_lat": 0.0, "is_reserved": 0, "bike_id": "944e88996849dad3b7e964fd7a37504a", "lon": -77.04531516666667, "is_disabled": 0}, {"rental_uris": {"android": "https://dc.lft.to/lastmile_qr_scan", "ios": "https://dc.lft.to/lastmile_qr_scan"}, "lat": 38.905715, "type": "electric_scooter", "name": "00abe2f0c6bbcb90c224e1b8aa4b24a2", "fusion_lon": 0.0, "fusion_lat": 0.0, "is_reserved": 0, "bike_id": "00abe2f0c6bbcb90c224e1b8aa4b24a2", "lon": -77.04348583333334, "is_disabled": 0}, {"rental_uris": {"android": "https://dc.lft.to/lastmile_qr_scan", "ios": "https://dc.lft.to/lastmile_qr_scan"}, "lat": 38.94719216666667, "type": "electric_scooter", "name": "1b25959599840373e40e48821e103e08", "fusion_lon": 0.0, "fusion_lat": 0.0, "is_reserved": 0, "bike_id": "1b25959599840373e40e48821e103e08", "lon": -77.02561483333334, "is_disabled": 0}, {"rental_uris": {"android": "https://dc.lft.to/lastmile_qr_scan", "ios": "https://dc.lft.to/lastmile_qr_scan"}, "lat": 38.884858, "type": "electric_scooter", "name": "ae135c4b5028128929207f8b07353d5d", "fusion_lon": 0.0, "fusion_lat": 0.0, "is_reserved": 0, "bike_id": "ae135c4b5028128929207f8b07353d5d", "lon": -77.00706483333333, "is_disabled": 0}, {"rental_uris": {"android": "https://dc.lft.to/lastmile_qr_scan", "ios": "https://dc.lft.to/lastmile_qr_scan"}, "lat": 38.932388833333334, "type": "electric_scooter", "name": "ce09727bce22bcd06910cbba771e55e4", "fusion_lon": 0.0, "fusion_lat": 0.0, "is_reserved": 0, "bike_id": "ce09727bce22bcd06910cbba771e55e4", "lon": -76.99698516666666, "is_disabled": 0}, {"rental_uris": {"android": "https://dc.lft.to/lastmile_qr_scan", "ios": "https://dc.lft.to/lastmile_qr_scan"}, "lat": 38.91564233333333, "type": "electric_scooter", "name": "60e7d298cf76f079e50be6de535a0fb0", "fusion_lon": 0.0, "fusion_lat": 0.0, "is_reserved": 0, "bike_id": "60e7d298cf76f079e50be6de535a0fb0", "lon": -77.032048, "is_disabled": 0}, {"rental_uris": {"android": "https://dc.lft.to/lastmile_qr_scan", "ios": "https://dc.lft.to/lastmile_qr_scan"}, "lat": 38.89194333333333, "type": "electric_scooter", "name": "8047c77dbe7cdc55ece760d5b5182d11", "fusion_lon": 0.0, "fusion_lat": 0.0, "is_reserved": 0, "bike_id": "8047c77dbe7cdc55ece760d5b5182d11", "lon": -77.00298583333333, "is_disabled": 0}, {"rental_uris": {"android": "https://dc.lft.to/lastmile_qr_scan", "ios": "https://dc.lft.to/lastmile_qr_scan"}, "lat": 38.89000583333333, "type": "electric_scooter", "name": "b140f8a2502ee6750a1dba7ea1d6e970", "fusion_lon": 0.0, "fusion_lat": 0.0, "is_reserved": 0, "bike_id": "b140f8a2502ee6750a1dba7ea1d6e970", "lon": -76.93757083333334, "is_disabled": 0}, {"rental_uris": {"android": "https://dc.lft.to/lastmile_qr_scan", "ios": "https://dc.lft.to/lastmile_qr_scan"}, "lat": 38.915633, "type": "electric_scooter", "name": "30ad6754fa3c5995a56ff622c1894d2e", "fusion_lon": 0.0, "fusion_lat": 0.0, "is_reserved": 0, "bike_id": "30ad6754fa3c5995a56ff622c1894d2e", "lon": -77.03200866666667, "is_disabled": 0}, {"rental_uris": {"android": "https://dc.lft.to/lastmile_qr_scan", "ios": "https://dc.lft.to/lastmile_qr_scan"}, "lat": 38.92410866666667, "type": "electric_scooter", "name": "01b05c7c0e6d3aab70452c0638291232", "fusion_lon": 0.0, "fusion_lat": 0.0, "is_reserved": 0, "bike_id": "01b05c7c0e6d3aab70452c0638291232", "lon": -77.05065783333333, "is_disabled": 0}, {"rental_uris": {"android": "https://dc.lft.to/lastmile_qr_scan", "ios": "https://dc.lft.to/lastmile_qr_scan"}, "lat": 38.898326833333336, "type": "electric_scooter", "name": "d40323ec8031c5be2963d016093eb847", "fusion_lon": 0.0, "fusion_lat": 0.0, "is_reserved": 0, "bike_id": "d40323ec8031c5be2963d016093eb847", "lon": -76.94633733333333, "is_disabled": 0}, {"rental_uris": {"android": "https://dc.lft.to/lastmile_qr_scan", "ios": "https://dc.lft.to/lastmile_qr_scan"}, "lat": 38.902263, "type": "electric_scooter", "name": "8b745f5bb25db23a8f22ac4633c5fe2f", "fusion_lon": 0.0, "fusion_lat": 0.0, "is_reserved": 0, "bike_id": "8b745f5bb25db23a8f22ac4633c5fe2f", "lon": -77.04541316666666, "is_disabled": 0}, {"rental_uris": {"android": "https://dc.lft.to/lastmile_qr_scan", "ios": "https://dc.lft.to/lastmile_qr_scan"}, "lat": 38.903618, "type": "electric_scooter", "name": "0df795980b71f5a05dbc858b7c47f6c9", "fusion_lon": 0.0, "fusion_lat": 0.0, "is_reserved": 0, "bike_id": "0df795980b71f5a05dbc858b7c47f6c9", "lon": -77.03878533333334, "is_disabled": 0}, {"rental_uris": {"android": "https://dc.lft.to/lastmile_qr_scan", "ios": "https://dc.lft.to/lastmile_qr_scan"}, "lat": 38.896092833333334, "type": "electric_scooter", "name": "1289f32d657e47288e1607794a73519f", "fusion_lon": 0.0, "fusion_lat": 0.0, "is_reserved": 0, "bike_id": "1289f32d657e47288e1607794a73519f", "lon": -77.02417866666667, "is_disabled": 0}, {"rental_uris": {"android": "https://dc.lft.to/lastmile_qr_scan", "ios": "https://dc.lft.to/lastmile_qr_scan"}, "lat": 38.944099666666666, "type": "electric_scooter", "name": "1fc51ab52d960b4061deea8774d9ae7f", "fusion_lon": 0.0, "fusion_lat": 0.0, "is_reserved": 0, "bike_id": "1fc51ab52d960b4061deea8774d9ae7f", "lon": -77.06327183333333, "is_disabled": 0}, {"rental_uris": {"android": "https://dc.lft.to/lastmile_qr_scan", "ios": "https://dc.lft.to/lastmile_qr_scan"}, "lat": 38.891009833333335, "type": "electric_bike", "name": "e86f2d3ce6d43676d55d8d820a35b42a", "fusion_lon": 0.0, "fusion_lat": 0.0, "is_reserved": 0, "bike_id": "e86f2d3ce6d43676d55d8d820a35b42a", "lon": -77.18414033333333, "is_disabled": 0}, {"rental_uris": {"android": "https://dc.lft.to/lastmile_qr_scan", "ios": "https://dc.lft.to/lastmile_qr_scan"}, "lat": 38.9324815, "type": "electric_scooter", "name": "293d09bb9a70208f2308ba0c7d20b722", "fusion_lon": 0.0, "fusion_lat": 0.0, "is_reserved": 0, "bike_id": "293d09bb9a70208f2308ba0c7d20b722", "lon": -77.03274716666667, "is_disabled": 0}, {"rental_uris": {"android": "https://dc.lft.to/lastmile_qr_scan", "ios": "https://dc.lft.to/lastmile_qr_scan"}, "lat": 38.90259133333333, "type": "electric_scooter", "name": "3e1d3393157e466e2421f273bd9b8838", "fusion_lon": 0.0, "fusion_lat": 0.0, "is_reserved": 0, "bike_id": "3e1d3393157e466e2421f273bd9b8838", "lon": -77.03907133333334, "is_disabled": 0}, {"rental_uris": {"android": "https://dc.lft.to/lastmile_qr_scan", "ios": "https://dc.lft.to/lastmile_qr_scan"}, "lat": 38.898245833333334, "type": "electric_scooter", "name": "c7ac5e9d5c6c286765b9c2cb792044db", "fusion_lon": 0.0, "fusion_lat": 0.0, "is_reserved": 0, "bike_id": "c7ac5e9d5c6c286765b9c2cb792044db", "lon": -77.04817433333334, "is_disabled": 0}, {"rental_uris": {"android": "https://dc.lft.to/lastmile_qr_scan", "ios": "https://dc.lft.to/lastmile_qr_scan"}, "lat": 39.084923333333336, "type": "electric_bike", "name": "3da0d0cb09c254bea6768321ef8036a8", "fusion_lon": 0.0, "fusion_lat": 0.0, "is_reserved": 0, "bike_id": "3da0d0cb09c254bea6768321ef8036a8", "lon": -76.95048266666667, "is_disabled": 0}, {"rental_uris": {"android": "https://dc.lft.to/lastmile_qr_scan", "ios": "https://dc.lft.to/lastmile_qr_scan"}, "lat": 38.90550566666667, "type": "electric_scooter", "name": "675cce52ddcab2384ac6c5247bc1c139", "fusion_lon": 0.0, "fusion_lat": 0.0, "is_reserved": 0, "bike_id": "675cce52ddcab2384ac6c5247bc1c139", "lon": -77.00950933333333, "is_disabled": 0}, {"rental_uris": {"android": "https://dc.lft.to/lastmile_qr_scan", "ios": "https://dc.lft.to/lastmile_qr_scan"}, "lat": 38.900486, "type": "electric_scooter", "name": "e91d27db64b20ca5770ab21d200d44fc", "fusion_lon": 0.0, "fusion_lat": 0.0, "is_reserved": 0, "bike_id": "e91d27db64b20ca5770ab21d200d44fc", "lon": -77.00744066666667, "is_disabled": 0}, {"rental_uris": {"android": "https://dc.lft.to/lastmile_qr_scan", "ios": "https://dc.lft.to/lastmile_qr_scan"}, "lat": 38.91985433333333, "type": "electric_scooter", "name": "0e375752dfa5257335cddfe34411bec2", "fusion_lon": 0.0, "fusion_lat": 0.0, "is_reserved": 0, "bike_id": "0e375752dfa5257335cddfe34411bec2", "lon": -77.03247633333334, "is_disabled": 0}, {"rental_uris": {"android": "https://dc.lft.to/lastmile_qr_scan", "ios": "https://dc.lft.to/lastmile_qr_scan"}, "lat": 38.90198433333333, "type": "electric_scooter", "name": "39de530a54fa268cc775135a8a259654", "fusion_lon": 0.0, "fusion_lat": 0.0, "is_reserved": 0, "bike_id": "39de530a54fa268cc775135a8a259654", "lon": -77.0589065, "is_disabled": 0}, {"rental_uris": {"android": "https://dc.lft.to/lastmile_qr_scan", "ios": "https://dc.lft.to/lastmile_qr_scan"}, "lat": 38.923558666666665, "type": "electric_scooter", "name": "a6c215341b1c2c3837dd824a114eab98", "fusion_lon": 0.0, "fusion_lat": 0.0, "is_reserved": 0, "bike_id": "a6c215341b1c2c3837dd824a114eab98", "lon": -77.05072383333334, "is_disabled": 0}, {"rental_uris": {"android": "https://dc.lft.to/lastmile_qr_scan", "ios": "https://dc.lft.to/lastmile_qr_scan"}, "lat": 38.9070305, "type": "electric_scooter", "name": "0756827e310b8637d5dd89c6744220a6", "fusion_lon": 0.0, "fusion_lat": 0.0, "is_reserved": 0, "bike_id": "0756827e310b8637d5dd89c6744220a6", "lon": -76.9870075, "is_disabled": 0}, {"rental_uris": {"android": "https://dc.lft.to/lastmile_qr_scan", "ios": "https://dc.lft.to/lastmile_qr_scan"}, "lat": 38.93397566666667, "type": "electric_scooter", "name": "256ce2d4eafbc44839390961157b7053", "fusion_lon": 0.0, "fusion_lat": 0.0, "is_reserved": 0, "bike_id": "256ce2d4eafbc44839390961157b7053", "lon": -77.04140716666667, "is_disabled": 0}, {"rental_uris": {"android": "https://dc.lft.to/lastmile_qr_scan", "ios": "https://dc.lft.to/lastmile_qr_scan"}, "lat": 38.89884283333333, "type": "electric_scooter", "name": "24c6770d21466c7967392b77dcb1d0e1", "fusion_lon": 0.0, "fusion_lat": 0.0, "is_reserved": 0, "bike_id": "24c6770d21466c7967392b77dcb1d0e1", "lon": -77.04865033333333, "is_disabled": 0}, {"rental_uris": {"android": "https://dc.lft.to/lastmile_qr_scan", "ios": "https://dc.lft.to/lastmile_qr_scan"}, "lat": 38.89700366666667, "type": "electric_scooter", "name": "7bf46360c945a27f1932bbe46ae045a7", "fusion_lon": 0.0, "fusion_lat": 0.0, "is_reserved": 0, "bike_id": "7bf46360c945a27f1932bbe46ae045a7", "lon": -77.03219, "is_disabled": 0}, {"rental_uris": {"android": "https://dc.lft.to/lastmile_qr_scan", "ios": "https://dc.lft.to/lastmile_qr_scan"}, "lat": 38.92126, "type": "electric_scooter", "name": "8d9185e09647050d1aefa51e9786d68a", "fusion_lon": 0.0, "fusion_lat": 0.0, "is_reserved": 0, "bike_id": "8d9185e09647050d1aefa51e9786d68a", "lon": -77.01794016666666, "is_disabled": 0}, {"rental_uris": {"android": "https://dc.lft.to/lastmile_qr_scan", "ios": "https://dc.lft.to/lastmile_qr_scan"}, "lat": 38.9038855, "type": "electric_scooter", "name": "8d81748300e32e9aa12812c1088f08b6", "fusion_lon": 0.0, "fusion_lat": 0.0, "is_reserved": 0, "bike_id": "8d81748300e32e9aa12812c1088f08b6", "lon": -77.04752433333333, "is_disabled": 0}, {"rental_uris": {"android": "https://dc.lft.to/lastmile_qr_scan", "ios": "https://dc.lft.to/lastmile_qr_scan"}, "lat": 38.897543, "type": "electric_scooter", "name": "03e43e1f9bac3aa785dfbd057146e0bf", "fusion_lon": 0.0, "fusion_lat": 0.0, "is_reserved": 0, "bike_id": "03e43e1f9bac3aa785dfbd057146e0bf", "lon": -77.0095515, "is_disabled": 0}, {"rental_uris": {"android": "https://dc.lft.to/lastmile_qr_scan", "ios": "https://dc.lft.to/lastmile_qr_scan"}, "lat": 38.91530983333333, "type": "electric_scooter", "name": "801909807469c1ab30ef8adc76ad84db", "fusion_lon": 0.0, "fusion_lat": 0.0, "is_reserved": 0, "bike_id": "801909807469c1ab30ef8adc76ad84db", "lon": -77.03200766666667, "is_disabled": 0}, {"rental_uris": {"android": "https://dc.lft.to/lastmile_qr_scan", "ios": "https://dc.lft.to/lastmile_qr_scan"}, "lat": 38.918298166666666, "type": "electric_scooter", "name": "472b604199b34cbb5a21d0e18b2da5d0", "fusion_lon": 0.0, "fusion_lat": 0.0, "is_reserved": 0, "bike_id": "472b604199b34cbb5a21d0e18b2da5d0", "lon": -77.0531345, "is_disabled": 0}, {"rental_uris": {"android": "https://dc.lft.to/lastmile_qr_scan", "ios": "https://dc.lft.to/lastmile_qr_scan"}, "lat": 38.901627833333336, "type": "electric_scooter", "name": "6ad44f388e2df29c2007b501b13e278b", "fusion_lon": 0.0, "fusion_lat": 0.0, "is_reserved": 0, "bike_id": "6ad44f388e2df29c2007b501b13e278b", "lon": -77.022098, "is_disabled": 0}, {"rental_uris": {"android": "https://dc.lft.to/lastmile_qr_scan", "ios": "https://dc.lft.to/lastmile_qr_scan"}, "lat": 38.8778, "type": "electric_scooter", "name": "c0ef4cc54902bfda756a0e5f6b16c578", "fusion_lon": 0.0, "fusion_lat": 0.0, "is_reserved": 0, "bike_id": "c0ef4cc54902bfda756a0e5f6b16c578", "lon": -77.0021005, "is_disabled": 0}, {"rental_uris": {"android": "https://dc.lft.to/lastmile_qr_scan", "ios": "https://dc.lft.to/lastmile_qr_scan"}, "lat": 38.879331666666666, "type": "electric_scooter", "name": "8400e02297e941a0ed5ba98c7f4324df", "fusion_lon": 0.0, "fusion_lat": 0.0, "is_reserved": 0, "bike_id": "8400e02297e941a0ed5ba98c7f4324df", "lon": -77.02375083333334, "is_disabled": 0}, {"rental_uris": {"android": "https://dc.lft.to/lastmile_qr_scan", "ios": "https://dc.lft.to/lastmile_qr_scan"}, "lat": 38.8386525, "type": "electric_bike", "name": "80da6cb4d151f29414af2c713b6f86e9", "fusion_lon": 0.0, "fusion_lat": 0.0, "is_reserved": 0, "bike_id": "80da6cb4d151f29414af2c713b6f86e9", "lon": -76.99486316666666, "is_disabled": 0}, {"rental_uris": {"android": "https://dc.lft.to/lastmile_qr_scan", "ios": "https://dc.lft.to/lastmile_qr_scan"}, "lat": 38.928886166666665, "type": "electric_scooter", "name": "eefe0627cb075a794d54ed2352f95ee3", "fusion_lon": 0.0, "fusion_lat": 0.0, "is_reserved": 0, "bike_id": "eefe0627cb075a794d54ed2352f95ee3", "lon": -77.0330615, "is_disabled": 0}, {"rental_uris": {"android": "https://dc.lft.to/lastmile_qr_scan", "ios": "https://dc.lft.to/lastmile_qr_scan"}, "lat": 38.8633785, "type": "electric_bike", "name": "b5c5f3561fcc0b11959020c9f2c91aa9", "fusion_lon": 0.0, "fusion_lat": 0.0, "is_reserved": 0, "bike_id": "b5c5f3561fcc0b11959020c9f2c91aa9", "lon": -76.98716466666667, "is_disabled": 0}, {"rental_uris": {"android": "https://dc.lft.to/lastmile_qr_scan", "ios": "https://dc.lft.to/lastmile_qr_scan"}, "lat": 38.904119, "type": "electric_scooter", "name": "4840c94068f09e005fa80a0d2d6941cf", "fusion_lon": 0.0, "fusion_lat": 0.0, "is_reserved": 0, "bike_id": "4840c94068f09e005fa80a0d2d6941cf", "lon": -77.04645516666666, "is_disabled": 0}, {"rental_uris": {"android": "https://dc.lft.to/lastmile_qr_scan", "ios": "https://dc.lft.to/lastmile_qr_scan"}, "lat": 38.962258, "type": "electric_scooter", "name": "9bb12cdfde11bee07d40941b15afb2d2", "fusion_lon": 0.0, "fusion_lat": 0.0, "is_reserved": 0, "bike_id": "9bb12cdfde11bee07d40941b15afb2d2", "lon": -77.01358, "is_disabled": 0}, {"rental_uris": {"android": "https://dc.lft.to/lastmile_qr_scan", "ios": "https://dc.lft.to/lastmile_qr_scan"}, "lat": 38.80481866666667, "type": "electric_bike", "name": "06f0166b12d1b70940878668944874b0", "fusion_lon": 0.0, "fusion_lat": 0.0, "is_reserved": 0, "bike_id": "06f0166b12d1b70940878668944874b0", "lon": -76.99108616666666, "is_disabled": 0}, {"rental_uris": {"android": "https://dc.lft.to/lastmile_qr_scan", "ios": "https://dc.lft.to/lastmile_qr_scan"}, "lat": 38.92809866666666, "type": "electric_scooter", "name": "a17613ae8ab0afa85413aeadcaa0f29b", "fusion_lon": 0.0, "fusion_lat": 0.0, "is_reserved": 0, "bike_id": "a17613ae8ab0afa85413aeadcaa0f29b", "lon": -77.01563833333333, "is_disabled": 0}, {"rental_uris": {"android": "https://dc.lft.to/lastmile_qr_scan", "ios": "https://dc.lft.to/lastmile_qr_scan"}, "lat": 38.905471166666665, "type": "electric_scooter", "name": "f2733a3e5e447d35e95fb1e29a9cda1d", "fusion_lon": 0.0, "fusion_lat": 0.0, "is_reserved": 0, "bike_id": "f2733a3e5e447d35e95fb1e29a9cda1d", "lon": -77.007135, "is_disabled": 0}, {"rental_uris": {"android": "https://dc.lft.to/lastmile_qr_scan", "ios": "https://dc.lft.to/lastmile_qr_scan"}, "lat": 38.78462316666667, "type": "electric_bike", "name": "6dc003331f516022c5190b8e6248dd5c", "fusion_lon": 0.0, "fusion_lat": 0.0, "is_reserved": 0, "bike_id": "6dc003331f516022c5190b8e6248dd5c", "lon": -77.05438866666667, "is_disabled": 0}, {"rental_uris": {"android": "https://dc.lft.to/lastmile_qr_scan", "ios": "https://dc.lft.to/lastmile_qr_scan"}, "lat": 38.93113733333333, "type": "electric_scooter", "name": "8e3adcc05466377c8dcbfb06bb8f2a47", "fusion_lon": 0.0, "fusion_lat": 0.0, "is_reserved": 0, "bike_id": "8e3adcc05466377c8dcbfb06bb8f2a47", "lon": -77.02127933333334, "is_disabled": 0}, {"rental_uris": {"android": "https://dc.lft.to/lastmile_qr_scan", "ios": "https://dc.lft.to/lastmile_qr_scan"}, "lat": 38.95698133333333, "type": "electric_bike", "name": "96f04b87fff08a00744ac924e216c54d", "fusion_lon": 0.0, "fusion_lat": 0.0, "is_reserved": 0, "bike_id": "96f04b87fff08a00744ac924e216c54d", "lon": -76.97385966666667, "is_disabled": 0}, {"rental_uris": {"android": "https://dc.lft.to/lastmile_qr_scan", "ios": "https://dc.lft.to/lastmile_qr_scan"}, "lat": 38.9001165, "type": "electric_scooter", "name": "c0fb85acdcd5f42a9a6986f8354587ab", "fusion_lon": 0.0, "fusion_lat": 0.0, "is_reserved": 0, "bike_id": "c0fb85acdcd5f42a9a6986f8354587ab", "lon": -76.99848083333333, "is_disabled": 0}, {"rental_uris": {"android": "https://dc.lft.to/lastmile_qr_scan", "ios": "https://dc.lft.to/lastmile_qr_scan"}, "lat": 38.887366, "type": "electric_scooter", "name": "f60c11ceb346fbb47602f18d28e167e6", "fusion_lon": 0.0, "fusion_lat": 0.0, "is_reserved": 0, "bike_id": "f60c11ceb346fbb47602f18d28e167e6", "lon": -77.01528716666667, "is_disabled": 0}, {"rental_uris": {"android": "https://dc.lft.to/lastmile_qr_scan", "ios": "https://dc.lft.to/lastmile_qr_scan"}, "lat": 38.9170885, "type": "electric_scooter", "name": "87f01fd3231dffde1d456d50babeacf7", "fusion_lon": 0.0, "fusion_lat": 0.0, "is_reserved": 0, "bike_id": "87f01fd3231dffde1d456d50babeacf7", "lon": -77.03199183333334, "is_disabled": 0}, {"rental_uris": {"android": "https://dc.lft.to/lastmile_qr_scan", "ios": "https://dc.lft.to/lastmile_qr_scan"}, "lat": 39.0746505, "type": "electric_bike", "name": "082cbc2b0ce1bda2bbf25dc79075a43c", "fusion_lon": 0.0, "fusion_lat": 0.0, "is_reserved": 0, "bike_id": "082cbc2b0ce1bda2bbf25dc79075a43c", "lon": -77.11522433333333, "is_disabled": 0}, {"rental_uris": {"android": "https://dc.lft.to/lastmile_qr_scan", "ios": "https://dc.lft.to/lastmile_qr_scan"}, "lat": 38.90364733333333, "type": "electric_scooter", "name": "8aa1ba46eb160681c0b902049ca483b2", "fusion_lon": 0.0, "fusion_lat": 0.0, "is_reserved": 0, "bike_id": "8aa1ba46eb160681c0b902049ca483b2", "lon": -77.03582683333333, "is_disabled": 0}, {"rental_uris": {"android": "https://dc.lft.to/lastmile_qr_scan", "ios": "https://dc.lft.to/lastmile_qr_scan"}, "lat": 38.90035683333333, "type": "electric_scooter", "name": "15e0b6954fe6b12f30a43960550ae61e", "fusion_lon": 0.0, "fusion_lat": 0.0, "is_reserved": 0, "bike_id": "15e0b6954fe6b12f30a43960550ae61e", "lon": -76.98833083333334, "is_disabled": 0}, {"rental_uris": {"android": "https://dc.lft.to/lastmile_qr_scan", "ios": "https://dc.lft.to/lastmile_qr_scan"}, "lat": 38.91709483333333, "type": "electric_scooter", "name": "9f1655e0cbf15f301e8cd1bce87eaa33", "fusion_lon": 0.0, "fusion_lat": 0.0, "is_reserved": 0, "bike_id": "9f1655e0cbf15f301e8cd1bce87eaa33", "lon": -77.03867533333333, "is_disabled": 0}, {"rental_uris": {"android": "https://dc.lft.to/lastmile_qr_scan", "ios": "https://dc.lft.to/lastmile_qr_scan"}, "lat": 38.913227666666664, "type": "electric_scooter", "name": "12da565eff5c647c566ba8488fd129d6", "fusion_lon": 0.0, "fusion_lat": 0.0, "is_reserved": 0, "bike_id": "12da565eff5c647c566ba8488fd129d6", "lon": -77.045371, "is_disabled": 0}, {"rental_uris": {"android": "https://dc.lft.to/lastmile_qr_scan", "ios": "https://dc.lft.to/lastmile_qr_scan"}, "lat": 38.915767833333334, "type": "electric_scooter", "name": "4621466e794808043b4da15a96e7cdf5", "fusion_lon": 0.0, "fusion_lat": 0.0, "is_reserved": 0, "bike_id": "4621466e794808043b4da15a96e7cdf5", "lon": -77.01233633333334, "is_disabled": 0}, {"rental_uris": {"android": "https://dc.lft.to/lastmile_qr_scan", "ios": "https://dc.lft.to/lastmile_qr_scan"}, "lat": 38.85586766666667, "type": "electric_bike", "name": "24e6e93a47a8f5b3fe284502a7d14113", "fusion_lon": 0.0, "fusion_lat": 0.0, "is_reserved": 0, "bike_id": "24e6e93a47a8f5b3fe284502a7d14113", "lon": -76.97278316666667, "is_disabled": 0}, {"rental_uris": {"android": "https://dc.lft.to/lastmile_qr_scan", "ios": "https://dc.lft.to/lastmile_qr_scan"}, "lat": 38.8148635, "type": "electric_bike", "name": "6e1dc2861f4efb8f7f8e249fb167de4d", "fusion_lon": 0.0, "fusion_lat": 0.0, "is_reserved": 0, "bike_id": "6e1dc2861f4efb8f7f8e249fb167de4d", "lon": -77.04531333333334, "is_disabled": 0}, {"rental_uris": {"android": "https://dc.lft.to/lastmile_qr_scan", "ios": "https://dc.lft.to/lastmile_qr_scan"}, "lat": 38.897274833333334, "type": "electric_scooter", "name": "649fafc2c378e9a205a2fbb084889ff6", "fusion_lon": 0.0, "fusion_lat": 0.0, "is_reserved": 0, "bike_id": "649fafc2c378e9a205a2fbb084889ff6", "lon": -76.99514166666667, "is_disabled": 0}, {"rental_uris": {"android": "https://dc.lft.to/lastmile_qr_scan", "ios": "https://dc.lft.to/lastmile_qr_scan"}, "lat": 38.892243666666666, "type": "electric_scooter", "name": "5918e3f9a65383258e279e7e46557b00", "fusion_lon": 0.0, "fusion_lat": 0.0, "is_reserved": 0, "bike_id": "5918e3f9a65383258e279e7e46557b00", "lon": -77.0450115, "is_disabled": 0}, {"rental_uris": {"android": "https://dc.lft.to/lastmile_qr_scan", "ios": "https://dc.lft.to/lastmile_qr_scan"}, "lat": 38.92306883333333, "type": "electric_scooter", "name": "8aad7789f5a1e1748bd0678b3adb0780", "fusion_lon": 0.0, "fusion_lat": 0.0, "is_reserved": 0, "bike_id": "8aad7789f5a1e1748bd0678b3adb0780", "lon": -77.04218416666667, "is_disabled": 0}, {"rental_uris": {"android": "https://dc.lft.to/lastmile_qr_scan", "ios": "https://dc.lft.to/lastmile_qr_scan"}, "lat": 38.95784533333333, "type": "electric_scooter", "name": "89742c90c8395757a9038540279395c1", "fusion_lon": 0.0, "fusion_lat": 0.0, "is_reserved": 0, "bike_id": "89742c90c8395757a9038540279395c1", "lon": -77.028346, "is_disabled": 0}, {"rental_uris": {"android": "https://dc.lft.to/lastmile_qr_scan", "ios": "https://dc.lft.to/lastmile_qr_scan"}, "lat": 38.934626333333334, "type": "electric_scooter", "name": "57d2507d01ba0704c129460cdfcd3fe1", "fusion_lon": 0.0, "fusion_lat": 0.0, "is_reserved": 0, "bike_id": "57d2507d01ba0704c129460cdfcd3fe1", "lon": -77.05812733333333, "is_disabled": 0}, {"rental_uris": {"android": "https://dc.lft.to/lastmile_qr_scan", "ios": "https://dc.lft.to/lastmile_qr_scan"}, "lat": 38.9015875, "type": "electric_scooter", "name": "926c0ecf998267354b7d9e7a73baa2d9", "fusion_lon": 0.0, "fusion_lat": 0.0, "is_reserved": 0, "bike_id": "926c0ecf998267354b7d9e7a73baa2d9", "lon": -77.03400183333333, "is_disabled": 0}, {"rental_uris": {"android": "https://dc.lft.to/lastmile_qr_scan", "ios": "https://dc.lft.to/lastmile_qr_scan"}, "lat": 38.90338083333333, "type": "electric_scooter", "name": "90252b751889578c8676a89aa03a71c2", "fusion_lon": 0.0, "fusion_lat": 0.0, "is_reserved": 0, "bike_id": "90252b751889578c8676a89aa03a71c2", "lon": -77.03762066666667, "is_disabled": 0}, {"rental_uris": {"android": "https://dc.lft.to/lastmile_qr_scan", "ios": "https://dc.lft.to/lastmile_qr_scan"}, "lat": 38.8922015, "type": "electric_scooter", "name": "a1310c1b7151c8142b23e7cc13bfd811", "fusion_lon": 0.0, "fusion_lat": 0.0, "is_reserved": 0, "bike_id": "a1310c1b7151c8142b23e7cc13bfd811", "lon": -77.021673, "is_disabled": 0}, {"rental_uris": {"android": "https://dc.lft.to/lastmile_qr_scan", "ios": "https://dc.lft.to/lastmile_qr_scan"}, "lat": 38.91712016666666, "type": "electric_scooter", "name": "c2855be99af51b9160a946f3975540c3", "fusion_lon": 0.0, "fusion_lat": 0.0, "is_reserved": 0, "bike_id": "c2855be99af51b9160a946f3975540c3", "lon": -77.03862416666666, "is_disabled": 0}, {"rental_uris": {"android": "https://dc.lft.to/lastmile_qr_scan", "ios": "https://dc.lft.to/lastmile_qr_scan"}, "lat": 38.9056835, "type": "electric_scooter", "name": "f534d168ada807542c624e28b69b6a13", "fusion_lon": 0.0, "fusion_lat": 0.0, "is_reserved": 0, "bike_id": "f534d168ada807542c624e28b69b6a13", "lon": -77.03442716666666, "is_disabled": 0}, {"rental_uris": {"android": "https://dc.lft.to/lastmile_qr_scan", "ios": "https://dc.lft.to/lastmile_qr_scan"}, "lat": 38.9293125, "type": "electric_scooter", "name": "2fd22ce57fe43e5d4b99398525c5c98c", "fusion_lon": 0.0, "fusion_lat": 0.0, "is_reserved": 0, "bike_id": "2fd22ce57fe43e5d4b99398525c5c98c", "lon": -77.00670683333334, "is_disabled": 0}, {"rental_uris": {"android": "https://dc.lft.to/lastmile_qr_scan", "ios": "https://dc.lft.to/lastmile_qr_scan"}, "lat": 38.92690483333333, "type": "electric_scooter", "name": "83235564d8372f481c0ac8c1ae37448b", "fusion_lon": 0.0, "fusion_lat": 0.0, "is_reserved": 0, "bike_id": "83235564d8372f481c0ac8c1ae37448b", "lon": -77.0150625, "is_disabled": 0}, {"rental_uris": {"android": "https://dc.lft.to/lastmile_qr_scan", "ios": "https://dc.lft.to/lastmile_qr_scan"}, "lat": 38.887100333333336, "type": "electric_scooter", "name": "9cedef208e73f954a0285ee8d7fe51db", "fusion_lon": 0.0, "fusion_lat": 0.0, "is_reserved": 0, "bike_id": "9cedef208e73f954a0285ee8d7fe51db", "lon": -76.9833945, "is_disabled": 0}, {"rental_uris": {"android": "https://dc.lft.to/lastmile_qr_scan", "ios": "https://dc.lft.to/lastmile_qr_scan"}, "lat": 38.904521, "type": "electric_scooter", "name": "71c9cbc1efcbeab4e1b1e1639ba43541", "fusion_lon": 0.0, "fusion_lat": 0.0, "is_reserved": 0, "bike_id": "71c9cbc1efcbeab4e1b1e1639ba43541", "lon": -77.0189825, "is_disabled": 0}, {"rental_uris": {"android": "https://dc.lft.to/lastmile_qr_scan", "ios": "https://dc.lft.to/lastmile_qr_scan"}, "lat": 38.905531, "type": "electric_scooter", "name": "44a788ee0022f5f870a482575cbde2f7", "fusion_lon": 0.0, "fusion_lat": 0.0, "is_reserved": 0, "bike_id": "44a788ee0022f5f870a482575cbde2f7", "lon": -77.00597216666667, "is_disabled": 0}, {"rental_uris": {"android": "https://dc.lft.to/lastmile_qr_scan", "ios": "https://dc.lft.to/lastmile_qr_scan"}, "lat": 38.92051683333333, "type": "electric_scooter", "name": "b1dfb55b0f0500aa4548a96c676e6431", "fusion_lon": 0.0, "fusion_lat": 0.0, "is_reserved": 0, "bike_id": "b1dfb55b0f0500aa4548a96c676e6431", "lon": -77.04188966666666, "is_disabled": 0}, {"rental_uris": {"android": "https://dc.lft.to/lastmile_qr_scan", "ios": "https://dc.lft.to/lastmile_qr_scan"}, "lat": 38.92609816666667, "type": "electric_scooter", "name": "925e2d88075ff8aadf2a5343cfe98ab1", "fusion_lon": 0.0, "fusion_lat": 0.0, "is_reserved": 0, "bike_id": "925e2d88075ff8aadf2a5343cfe98ab1", "lon": -77.02161533333333, "is_disabled": 0}, {"rental_uris": {"android": "https://dc.lft.to/lastmile_qr_scan", "ios": "https://dc.lft.to/lastmile_qr_scan"}, "lat": 38.936975333333336, "type": "electric_scooter", "name": "d32fa5368511129dad15f028fd1ed230", "fusion_lon": 0.0, "fusion_lat": 0.0, "is_reserved": 0, "bike_id": "d32fa5368511129dad15f028fd1ed230", "lon": -77.023992, "is_disabled": 0}, {"rental_uris": {"android": "https://dc.lft.to/lastmile_qr_scan", "ios": "https://dc.lft.to/lastmile_qr_scan"}, "lat": 38.9257665, "type": "electric_scooter", "name": "bd89cc0d2351d3899fcdf9b9ecffd5ad", "fusion_lon": 0.0, "fusion_lat": 0.0, "is_reserved": 0, "bike_id": "bd89cc0d2351d3899fcdf9b9ecffd5ad", "lon": -77.02759616666667, "is_disabled": 0}, {"rental_uris": {"android": "https://dc.lft.to/lastmile_qr_scan", "ios": "https://dc.lft.to/lastmile_qr_scan"}, "lat": 38.896427833333334, "type": "electric_scooter", "name": "a6009890318ba2d495e5589d3e5be0be", "fusion_lon": 0.0, "fusion_lat": 0.0, "is_reserved": 0, "bike_id": "a6009890318ba2d495e5589d3e5be0be", "lon": -77.0465385, "is_disabled": 0}, {"rental_uris": {"android": "https://dc.lft.to/lastmile_qr_scan", "ios": "https://dc.lft.to/lastmile_qr_scan"}, "lat": 38.904063666666666, "type": "electric_scooter", "name": "51e31e786f0f226b21a65425ff34a509", "fusion_lon": 0.0, "fusion_lat": 0.0, "is_reserved": 0, "bike_id": "51e31e786f0f226b21a65425ff34a509", "lon": -77.03430883333333, "is_disabled": 0}, {"rental_uris": {"android": "https://dc.lft.to/lastmile_qr_scan", "ios": "https://dc.lft.to/lastmile_qr_scan"}, "lat": 38.89668666666667, "type": "electric_bike", "name": "2ca2f03c7819f9bfc402b957e15f9546", "fusion_lon": 0.0, "fusion_lat": 0.0, "is_reserved": 0, "bike_id": "2ca2f03c7819f9bfc402b957e15f9546", "lon": -76.981647, "is_disabled": 0}, {"rental_uris": {"android": "https://dc.lft.to/lastmile_qr_scan", "ios": "https://dc.lft.to/lastmile_qr_scan"}, "lat": 38.94109, "type": "electric_scooter", "name": "936c55fd50e172c074c4e8d7bf8c163a", "fusion_lon": 0.0, "fusion_lat": 0.0, "is_reserved": 0, "bike_id": "936c55fd50e172c074c4e8d7bf8c163a", "lon": -77.061392, "is_disabled": 0}, {"rental_uris": {"android": "https://dc.lft.to/lastmile_qr_scan", "ios": "https://dc.lft.to/lastmile_qr_scan"}, "lat": 38.893643833333336, "type": "electric_scooter", "name": "b3d3d2461e7e04f2f8b14346ba569288", "fusion_lon": 0.0, "fusion_lat": 0.0, "is_reserved": 0, "bike_id": "b3d3d2461e7e04f2f8b14346ba569288", "lon": -77.00340433333334, "is_disabled": 0}, {"rental_uris": {"android": "https://dc.lft.to/lastmile_qr_scan", "ios": "https://dc.lft.to/lastmile_qr_scan"}, "lat": 38.900025, "type": "electric_scooter", "name": "f22424fc4cc96f55ab48ba2b0bce1ce4", "fusion_lon": 0.0, "fusion_lat": 0.0, "is_reserved": 0, "bike_id": "f22424fc4cc96f55ab48ba2b0bce1ce4", "lon": -77.048848, "is_disabled": 0}, {"rental_uris": {"android": "https://dc.lft.to/lastmile_qr_scan", "ios": "https://dc.lft.to/lastmile_qr_scan"}, "lat": 38.923317, "type": "electric_scooter", "name": "bdd5c2aa17761b3dae81a821140b0289", "fusion_lon": 0.0, "fusion_lat": 0.0, "is_reserved": 0, "bike_id": "bdd5c2aa17761b3dae81a821140b0289", "lon": -77.019066, "is_disabled": 0}, {"rental_uris": {"android": "https://dc.lft.to/lastmile_qr_scan", "ios": "https://dc.lft.to/lastmile_qr_scan"}, "lat": 38.934615, "type": "electric_scooter", "name": "cafa872d18bd34beaa196c9167c425fd", "fusion_lon": 0.0, "fusion_lat": 0.0, "is_reserved": 0, "bike_id": "cafa872d18bd34beaa196c9167c425fd", "lon": -77.058088, "is_disabled": 0}, {"rental_uris": {"android": "https://dc.lft.to/lastmile_qr_scan", "ios": "https://dc.lft.to/lastmile_qr_scan"}, "lat": 38.9205775, "type": "electric_scooter", "name": "7fe344840fe723cdb0aa62da62f73cd8", "fusion_lon": 0.0, "fusion_lat": 0.0, "is_reserved": 0, "bike_id": "7fe344840fe723cdb0aa62da62f73cd8", "lon": -77.02539133333333, "is_disabled": 0}, {"rental_uris": {"android": "https://dc.lft.to/lastmile_qr_scan", "ios": "https://dc.lft.to/lastmile_qr_scan"}, "lat": 38.87578166666667, "type": "electric_bike", "name": "b44442ee8f883d5576e477689b9f5f74", "fusion_lon": 0.0, "fusion_lat": 0.0, "is_reserved": 0, "bike_id": "b44442ee8f883d5576e477689b9f5f74", "lon": -77.23411466666667, "is_disabled": 0}, {"rental_uris": {"android": "https://dc.lft.to/lastmile_qr_scan", "ios": "https://dc.lft.to/lastmile_qr_scan"}, "lat": 38.8950915, "type": "electric_scooter", "name": "6f228f6128b5f49bdd235bcbe3fb865f", "fusion_lon": 0.0, "fusion_lat": 0.0, "is_reserved": 0, "bike_id": "6f228f6128b5f49bdd235bcbe3fb865f", "lon": -76.94888216666666, "is_disabled": 0}, {"rental_uris": {"android": "https://dc.lft.to/lastmile_qr_scan", "ios": "https://dc.lft.to/lastmile_qr_scan"}, "lat": 38.924894, "type": "electric_scooter", "name": "b2f97d4bfd37a4ee9bac51d694549a66", "fusion_lon": 0.0, "fusion_lat": 0.0, "is_reserved": 0, "bike_id": "b2f97d4bfd37a4ee9bac51d694549a66", "lon": -77.0521755, "is_disabled": 0}, {"rental_uris": {"android": "https://dc.lft.to/lastmile_qr_scan", "ios": "https://dc.lft.to/lastmile_qr_scan"}, "lat": 38.89817683333333, "type": "electric_scooter", "name": "eb4e894fc39e73d27e08a20716849b14", "fusion_lon": 0.0, "fusion_lat": 0.0, "is_reserved": 0, "bike_id": "eb4e894fc39e73d27e08a20716849b14", "lon": -77.0297715, "is_disabled": 0}, {"rental_uris": {"android": "https://dc.lft.to/lastmile_qr_scan", "ios": "https://dc.lft.to/lastmile_qr_scan"}, "lat": 38.880356666666664, "type": "electric_scooter", "name": "ed532c30e18761d9e5c694ab086d5718", "fusion_lon": 0.0, "fusion_lat": 0.0, "is_reserved": 0, "bike_id": "ed532c30e18761d9e5c694ab086d5718", "lon": -76.927261, "is_disabled": 0}, {"rental_uris": {"android": "https://dc.lft.to/lastmile_qr_scan", "ios": "https://dc.lft.to/lastmile_qr_scan"}, "lat": 38.895233833333336, "type": "electric_scooter", "name": "4cb5262baf1fb2597afeee712e618702", "fusion_lon": 0.0, "fusion_lat": 0.0, "is_reserved": 0, "bike_id": "4cb5262baf1fb2597afeee712e618702", "lon": -77.011204, "is_disabled": 0}, {"rental_uris": {"android": "https://dc.lft.to/lastmile_qr_scan", "ios": "https://dc.lft.to/lastmile_qr_scan"}, "lat": 38.89236783333333, "type": "electric_scooter", "name": "c47641731b40781b8456fee08250133c", "fusion_lon": 0.0, "fusion_lat": 0.0, "is_reserved": 0, "bike_id": "c47641731b40781b8456fee08250133c", "lon": -77.03186533333333, "is_disabled": 0}, {"rental_uris": {"android": "https://dc.lft.to/lastmile_qr_scan", "ios": "https://dc.lft.to/lastmile_qr_scan"}, "lat": 38.90399933333333, "type": "electric_scooter", "name": "c196f77c4549f7928876a8516669aa48", "fusion_lon": 0.0, "fusion_lat": 0.0, "is_reserved": 0, "bike_id": "c196f77c4549f7928876a8516669aa48", "lon": -77.0436375, "is_disabled": 0}, {"rental_uris": {"android": "https://dc.lft.to/lastmile_qr_scan", "ios": "https://dc.lft.to/lastmile_qr_scan"}, "lat": 38.9425425, "type": "electric_scooter", "name": "f38e4bead3fd33fd636e434d8d942901", "fusion_lon": 0.0, "fusion_lat": 0.0, "is_reserved": 0, "bike_id": "f38e4bead3fd33fd636e434d8d942901", "lon": -77.0413645, "is_disabled": 0}, {"rental_uris": {"android": "https://dc.lft.to/lastmile_qr_scan", "ios": "https://dc.lft.to/lastmile_qr_scan"}, "lat": 38.88989333333333, "type": "electric_scooter", "name": "aa2a8ba11740b5b2fd4da0dbe04e99ec", "fusion_lon": 0.0, "fusion_lat": 0.0, "is_reserved": 0, "bike_id": "aa2a8ba11740b5b2fd4da0dbe04e99ec", "lon": -77.003439, "is_disabled": 0}, {"rental_uris": {"android": "https://dc.lft.to/lastmile_qr_scan", "ios": "https://dc.lft.to/lastmile_qr_scan"}, "lat": 38.9223635, "type": "electric_scooter", "name": "0633eddf8b884482d17ba75c3adee4fc", "fusion_lon": 0.0, "fusion_lat": 0.0, "is_reserved": 0, "bike_id": "0633eddf8b884482d17ba75c3adee4fc", "lon": -77.04250516666667, "is_disabled": 0}, {"rental_uris": {"android": "https://dc.lft.to/lastmile_qr_scan", "ios": "https://dc.lft.to/lastmile_qr_scan"}, "lat": 38.867381, "type": "electric_scooter", "name": "03d4afe3bf433aa174e473c9e1ba5652", "fusion_lon": 0.0, "fusion_lat": 0.0, "is_reserved": 0, "bike_id": "03d4afe3bf433aa174e473c9e1ba5652", "lon": -77.0137835, "is_disabled": 0}, {"rental_uris": {"android": "https://dc.lft.to/lastmile_qr_scan", "ios": "https://dc.lft.to/lastmile_qr_scan"}, "lat": 38.90020033333333, "type": "electric_scooter", "name": "dc7e979ea7f189973d8f93d3429b9a70", "fusion_lon": 0.0, "fusion_lat": 0.0, "is_reserved": 0, "bike_id": "dc7e979ea7f189973d8f93d3429b9a70", "lon": -76.99832533333333, "is_disabled": 0}, {"rental_uris": {"android": "https://dc.lft.to/lastmile_qr_scan", "ios": "https://dc.lft.to/lastmile_qr_scan"}, "lat": 38.91548383333333, "type": "electric_scooter", "name": "e7e8e33b9d0154eaa8a69d818a6ec2b8", "fusion_lon": 0.0, "fusion_lat": 0.0, "is_reserved": 0, "bike_id": "e7e8e33b9d0154eaa8a69d818a6ec2b8", "lon": -77.02049766666667, "is_disabled": 0}, {"rental_uris": {"android": "https://dc.lft.to/lastmile_qr_scan", "ios": "https://dc.lft.to/lastmile_qr_scan"}, "lat": 38.917067, "type": "electric_scooter", "name": "8e200e453e3446bb4e4d711a16cc0452", "fusion_lon": 0.0, "fusion_lat": 0.0, "is_reserved": 0, "bike_id": "8e200e453e3446bb4e4d711a16cc0452", "lon": -77.01136766666667, "is_disabled": 0}, {"rental_uris": {"android": "https://dc.lft.to/lastmile_qr_scan", "ios": "https://dc.lft.to/lastmile_qr_scan"}, "lat": 38.98022066666667, "type": "electric_bike", "name": "7eb215a7177a0bbb64b4ef387c61c29e", "fusion_lon": 0.0, "fusion_lat": 0.0, "is_reserved": 0, "bike_id": "7eb215a7177a0bbb64b4ef387c61c29e", "lon": -76.94236716666667, "is_disabled": 0}, {"rental_uris": {"android": "https://dc.lft.to/lastmile_qr_scan", "ios": "https://dc.lft.to/lastmile_qr_scan"}, "lat": 38.892701333333335, "type": "electric_scooter", "name": "b32be21f75fa7d41cddd1e53d32f99e6", "fusion_lon": 0.0, "fusion_lat": 0.0, "is_reserved": 0, "bike_id": "b32be21f75fa7d41cddd1e53d32f99e6", "lon": -77.00355733333333, "is_disabled": 0}, {"rental_uris": {"android": "https://dc.lft.to/lastmile_qr_scan", "ios": "https://dc.lft.to/lastmile_qr_scan"}, "lat": 38.89211366666667, "type": "electric_scooter", "name": "1e2d4a3b6ee3e840407762b4e0c80fb3", "fusion_lon": 0.0, "fusion_lat": 0.0, "is_reserved": 0, "bike_id": "1e2d4a3b6ee3e840407762b4e0c80fb3", "lon": -76.979599, "is_disabled": 0}, {"rental_uris": {"android": "https://dc.lft.to/lastmile_qr_scan", "ios": "https://dc.lft.to/lastmile_qr_scan"}, "lat": 38.915079666666664, "type": "electric_scooter", "name": "16289a5084916d7ea73e2eea4004255c", "fusion_lon": 0.0, "fusion_lat": 0.0, "is_reserved": 0, "bike_id": "16289a5084916d7ea73e2eea4004255c", "lon": -77.0218805, "is_disabled": 0}, {"rental_uris": {"android": "https://dc.lft.to/lastmile_qr_scan", "ios": "https://dc.lft.to/lastmile_qr_scan"}, "lat": 38.91869533333333, "type": "electric_scooter", "name": "9b467a1da10c2426fa9889e72a010ce5", "fusion_lon": 0.0, "fusion_lat": 0.0, "is_reserved": 0, "bike_id": "9b467a1da10c2426fa9889e72a010ce5", "lon": -77.04477566666667, "is_disabled": 0}, {"rental_uris": {"android": "https://dc.lft.to/lastmile_qr_scan", "ios": "https://dc.lft.to/lastmile_qr_scan"}, "lat": 38.90513416666667, "type": "electric_scooter", "name": "1b4651a0b941cb66fa65ed576a0fe02b", "fusion_lon": 0.0, "fusion_lat": 0.0, "is_reserved": 0, "bike_id": "1b4651a0b941cb66fa65ed576a0fe02b", "lon": -77.0345395, "is_disabled": 0}, {"rental_uris": {"android": "https://dc.lft.to/lastmile_qr_scan", "ios": "https://dc.lft.to/lastmile_qr_scan"}, "lat": 38.886311, "type": "electric_scooter", "name": "190e7882bb9e54fc76208787d2395eee", "fusion_lon": 0.0, "fusion_lat": 0.0, "is_reserved": 0, "bike_id": "190e7882bb9e54fc76208787d2395eee", "lon": -77.02203516666667, "is_disabled": 0}, {"rental_uris": {"android": "https://dc.lft.to/lastmile_qr_scan", "ios": "https://dc.lft.to/lastmile_qr_scan"}, "lat": 38.92872216666667, "type": "electric_scooter", "name": "01230de9442983669e31e9eae392bcd6", "fusion_lon": 0.0, "fusion_lat": 0.0, "is_reserved": 0, "bike_id": "01230de9442983669e31e9eae392bcd6", "lon": -77.0122825, "is_disabled": 0}, {"rental_uris": {"android": "https://dc.lft.to/lastmile_qr_scan", "ios": "https://dc.lft.to/lastmile_qr_scan"}, "lat": 38.87178, "type": "electric_bike", "name": "3bd84413931c9128eda98d6ee4ac6091", "fusion_lon": 0.0, "fusion_lat": 0.0, "is_reserved": 0, "bike_id": "3bd84413931c9128eda98d6ee4ac6091", "lon": -77.23393633333333, "is_disabled": 0}, {"rental_uris": {"android": "https://dc.lft.to/lastmile_qr_scan", "ios": "https://dc.lft.to/lastmile_qr_scan"}, "lat": 38.953699, "type": "electric_scooter", "name": "fef3f39080f061cfa672637e72381b72", "fusion_lon": 0.0, "fusion_lat": 0.0, "is_reserved": 0, "bike_id": "fef3f39080f061cfa672637e72381b72", "lon": -76.99162016666666, "is_disabled": 0}, {"rental_uris": {"android": "https://dc.lft.to/lastmile_qr_scan", "ios": "https://dc.lft.to/lastmile_qr_scan"}, "lat": 38.9237495, "type": "electric_scooter", "name": "e77c777e09e4335f809ff4127aed5a5e", "fusion_lon": 0.0, "fusion_lat": 0.0, "is_reserved": 0, "bike_id": "e77c777e09e4335f809ff4127aed5a5e", "lon": -77.03064283333333, "is_disabled": 0}, {"rental_uris": {"android": "https://dc.lft.to/lastmile_qr_scan", "ios": "https://dc.lft.to/lastmile_qr_scan"}, "lat": 38.942584, "type": "electric_scooter", "name": "e12e993a812f5e7cb7abbf847e3f7b55", "fusion_lon": 0.0, "fusion_lat": 0.0, "is_reserved": 0, "bike_id": "e12e993a812f5e7cb7abbf847e3f7b55", "lon": -77.0284215, "is_disabled": 0}, {"rental_uris": {"android": "https://dc.lft.to/lastmile_qr_scan", "ios": "https://dc.lft.to/lastmile_qr_scan"}, "lat": 38.93350133333333, "type": "electric_scooter", "name": "6f03a7c38f242de1495e94be515ff381", "fusion_lon": 0.0, "fusion_lat": 0.0, "is_reserved": 0, "bike_id": "6f03a7c38f242de1495e94be515ff381", "lon": -76.99435166666666, "is_disabled": 0}, {"rental_uris": {"android": "https://dc.lft.to/lastmile_qr_scan", "ios": "https://dc.lft.to/lastmile_qr_scan"}, "lat": 38.923179833333336, "type": "electric_scooter", "name": "21e062e83d5554da60db4370d1ecca32", "fusion_lon": 0.0, "fusion_lat": 0.0, "is_reserved": 0, "bike_id": "21e062e83d5554da60db4370d1ecca32", "lon": -77.01955, "is_disabled": 0}, {"rental_uris": {"android": "https://dc.lft.to/lastmile_qr_scan", "ios": "https://dc.lft.to/lastmile_qr_scan"}, "lat": 38.892275833333336, "type": "electric_scooter", "name": "d19e94c2c2d3205283e528fac04cbf90", "fusion_lon": 0.0, "fusion_lat": 0.0, "is_reserved": 0, "bike_id": "d19e94c2c2d3205283e528fac04cbf90", "lon": -77.02416666666667, "is_disabled": 0}, {"rental_uris": {"android": "https://dc.lft.to/lastmile_qr_scan", "ios": "https://dc.lft.to/lastmile_qr_scan"}, "lat": 38.8870115, "type": "electric_scooter", "name": "83aba1b214a97c73e2a786c6f5855eb7", "fusion_lon": 0.0, "fusion_lat": 0.0, "is_reserved": 0, "bike_id": "83aba1b214a97c73e2a786c6f5855eb7", "lon": -77.02181, "is_disabled": 0}, {"rental_uris": {"android": "https://dc.lft.to/lastmile_qr_scan", "ios": "https://dc.lft.to/lastmile_qr_scan"}, "lat": 38.9026805, "type": "electric_scooter", "name": "f7807ab8da60bb32f9a663b60f0af5ab", "fusion_lon": 0.0, "fusion_lat": 0.0, "is_reserved": 0, "bike_id": "f7807ab8da60bb32f9a663b60f0af5ab", "lon": -77.03843333333333, "is_disabled": 0}, {"rental_uris": {"android": "https://dc.lft.to/lastmile_qr_scan", "ios": "https://dc.lft.to/lastmile_qr_scan"}, "lat": 38.893935166666665, "type": "electric_scooter", "name": "d3ad98ffca529583a59134fbe21900fb", "fusion_lon": 0.0, "fusion_lat": 0.0, "is_reserved": 0, "bike_id": "d3ad98ffca529583a59134fbe21900fb", "lon": -77.0465885, "is_disabled": 0}, {"rental_uris": {"android": "https://dc.lft.to/lastmile_qr_scan", "ios": "https://dc.lft.to/lastmile_qr_scan"}, "lat": 38.927249333333336, "type": "electric_scooter", "name": "98b8a9cb00402fed24aae6d7fe093fab", "fusion_lon": 0.0, "fusion_lat": 0.0, "is_reserved": 0, "bike_id": "98b8a9cb00402fed24aae6d7fe093fab", "lon": -77.051434, "is_disabled": 0}, {"rental_uris": {"android": "https://dc.lft.to/lastmile_qr_scan", "ios": "https://dc.lft.to/lastmile_qr_scan"}, "lat": 38.904267833333336, "type": "electric_scooter", "name": "d81c7830d1d4d897c35fcf2d6503d46a", "fusion_lon": 0.0, "fusion_lat": 0.0, "is_reserved": 0, "bike_id": "d81c7830d1d4d897c35fcf2d6503d46a", "lon": -77.04645533333333, "is_disabled": 0}, {"rental_uris": {"android": "https://dc.lft.to/lastmile_qr_scan", "ios": "https://dc.lft.to/lastmile_qr_scan"}, "lat": 38.92635716666667, "type": "electric_scooter", "name": "62a67ae0f26d748196b0f37c121a8a1a", "fusion_lon": 0.0, "fusion_lat": 0.0, "is_reserved": 0, "bike_id": "62a67ae0f26d748196b0f37c121a8a1a", "lon": -77.03705666666667, "is_disabled": 0}, {"rental_uris": {"android": "https://dc.lft.to/lastmile_qr_scan", "ios": "https://dc.lft.to/lastmile_qr_scan"}, "lat": 38.876696333333335, "type": "electric_scooter", "name": "96780a54c4a754641a8c1e9589f3175a", "fusion_lon": 0.0, "fusion_lat": 0.0, "is_reserved": 0, "bike_id": "96780a54c4a754641a8c1e9589f3175a", "lon": -77.01981416666666, "is_disabled": 0}, {"rental_uris": {"android": "https://dc.lft.to/lastmile_qr_scan", "ios": "https://dc.lft.to/lastmile_qr_scan"}, "lat": 38.91676433333333, "type": "electric_scooter", "name": "5ff9754950d0a6630cf6cfba5a8a41db", "fusion_lon": 0.0, "fusion_lat": 0.0, "is_reserved": 0, "bike_id": "5ff9754950d0a6630cf6cfba5a8a41db", "lon": -77.02969866666666, "is_disabled": 0}, {"rental_uris": {"android": "https://dc.lft.to/lastmile_qr_scan", "ios": "https://dc.lft.to/lastmile_qr_scan"}, "lat": 38.9102935, "type": "electric_scooter", "name": "ab5d4fe5da490cb6568eb35908411c80", "fusion_lon": 0.0, "fusion_lat": 0.0, "is_reserved": 0, "bike_id": "ab5d4fe5da490cb6568eb35908411c80", "lon": -76.99341216666667, "is_disabled": 0}, {"rental_uris": {"android": "https://dc.lft.to/lastmile_qr_scan", "ios": "https://dc.lft.to/lastmile_qr_scan"}, "lat": 38.890716, "type": "electric_bike", "name": "2146d58d5e70f91dadf4b858cc17a1df", "fusion_lon": 0.0, "fusion_lat": 0.0, "is_reserved": 0, "bike_id": "2146d58d5e70f91dadf4b858cc17a1df", "lon": -76.954971, "is_disabled": 0}, {"rental_uris": {"android": "https://dc.lft.to/lastmile_qr_scan", "ios": "https://dc.lft.to/lastmile_qr_scan"}, "lat": 38.92798, "type": "electric_scooter", "name": "ae346fd0ac574266559dbc976adf9898", "fusion_lon": 0.0, "fusion_lat": 0.0, "is_reserved": 0, "bike_id": "ae346fd0ac574266559dbc976adf9898", "lon": -77.02974783333333, "is_disabled": 0}, {"rental_uris": {"android": "https://dc.lft.to/lastmile_qr_scan", "ios": "https://dc.lft.to/lastmile_qr_scan"}, "lat": 38.88702083333333, "type": "electric_scooter", "name": "29707481b161c684a0e6298bba2803de", "fusion_lon": 0.0, "fusion_lat": 0.0, "is_reserved": 0, "bike_id": "29707481b161c684a0e6298bba2803de", "lon": -77.0217985, "is_disabled": 0}, {"rental_uris": {"android": "https://dc.lft.to/lastmile_qr_scan", "ios": "https://dc.lft.to/lastmile_qr_scan"}, "lat": 38.931938333333335, "type": "electric_scooter", "name": "5c6da04fd8b526268e64d1fc66479d30", "fusion_lon": 0.0, "fusion_lat": 0.0, "is_reserved": 0, "bike_id": "5c6da04fd8b526268e64d1fc66479d30", "lon": -77.01864766666667, "is_disabled": 0}, {"rental_uris": {"android": "https://dc.lft.to/lastmile_qr_scan", "ios": "https://dc.lft.to/lastmile_qr_scan"}, "lat": 38.90713933333333, "type": "electric_scooter", "name": "3ce3ee8488fbf8fb5de2722eddeafe47", "fusion_lon": 0.0, "fusion_lat": 0.0, "is_reserved": 0, "bike_id": "3ce3ee8488fbf8fb5de2722eddeafe47", "lon": -77.04053, "is_disabled": 0}, {"rental_uris": {"android": "https://dc.lft.to/lastmile_qr_scan", "ios": "https://dc.lft.to/lastmile_qr_scan"}, "lat": 38.908417166666666, "type": "electric_scooter", "name": "9282205838b55adae14079c715a24af0", "fusion_lon": 0.0, "fusion_lat": 0.0, "is_reserved": 0, "bike_id": "9282205838b55adae14079c715a24af0", "lon": -77.00222383333333, "is_disabled": 0}, {"rental_uris": {"android": "https://dc.lft.to/lastmile_qr_scan", "ios": "https://dc.lft.to/lastmile_qr_scan"}, "lat": 38.923283, "type": "electric_scooter", "name": "3c755388eb213cc326b55424d05f9ced", "fusion_lon": 0.0, "fusion_lat": 0.0, "is_reserved": 0, "bike_id": "3c755388eb213cc326b55424d05f9ced", "lon": -77.02064016666667, "is_disabled": 0}, {"rental_uris": {"android": "https://dc.lft.to/lastmile_qr_scan", "ios": "https://dc.lft.to/lastmile_qr_scan"}, "lat": 38.9056285, "type": "electric_scooter", "name": "bdf321560e4e58182b3e366623b44fe5", "fusion_lon": 0.0, "fusion_lat": 0.0, "is_reserved": 0, "bike_id": "bdf321560e4e58182b3e366623b44fe5", "lon": -77.0347335, "is_disabled": 0}, {"rental_uris": {"android": "https://dc.lft.to/lastmile_qr_scan", "ios": "https://dc.lft.to/lastmile_qr_scan"}, "lat": 38.875870166666665, "type": "electric_scooter", "name": "59e9aed2e0dd634ab288068f09a45d0b", "fusion_lon": 0.0, "fusion_lat": 0.0, "is_reserved": 0, "bike_id": "59e9aed2e0dd634ab288068f09a45d0b", "lon": -77.00075283333334, "is_disabled": 0}, {"rental_uris": {"android": "https://dc.lft.to/lastmile_qr_scan", "ios": "https://dc.lft.to/lastmile_qr_scan"}, "lat": 38.883282333333334, "type": "electric_scooter", "name": "89063eb6ac625e24ec1c4fb7637db163", "fusion_lon": 0.0, "fusion_lat": 0.0, "is_reserved": 0, "bike_id": "89063eb6ac625e24ec1c4fb7637db163", "lon": -77.01375283333333, "is_disabled": 0}, {"rental_uris": {"android": "https://dc.lft.to/lastmile_qr_scan", "ios": "https://dc.lft.to/lastmile_qr_scan"}, "lat": 38.9140285, "type": "electric_scooter", "name": "57fca9823b87ae9abdbddc70ae5acf82", "fusion_lon": 0.0, "fusion_lat": 0.0, "is_reserved": 0, "bike_id": "57fca9823b87ae9abdbddc70ae5acf82", "lon": -77.032626, "is_disabled": 0}, {"rental_uris": {"android": "https://dc.lft.to/lastmile_qr_scan", "ios": "https://dc.lft.to/lastmile_qr_scan"}, "lat": 38.883919, "type": "electric_scooter", "name": "24cd5fcc2eba8f7b7822ca96e83f70c5", "fusion_lon": 0.0, "fusion_lat": 0.0, "is_reserved": 0, "bike_id": "24cd5fcc2eba8f7b7822ca96e83f70c5", "lon": -76.99509066666667, "is_disabled": 0}, {"rental_uris": {"android": "https://dc.lft.to/lastmile_qr_scan", "ios": "https://dc.lft.to/lastmile_qr_scan"}, "lat": 38.895974333333335, "type": "electric_scooter", "name": "2adad9aaa7a44b9c372b356147851678", "fusion_lon": 0.0, "fusion_lat": 0.0, "is_reserved": 0, "bike_id": "2adad9aaa7a44b9c372b356147851678", "lon": -77.02738433333333, "is_disabled": 0}, {"rental_uris": {"android": "https://dc.lft.to/lastmile_qr_scan", "ios": "https://dc.lft.to/lastmile_qr_scan"}, "lat": 38.951052, "type": "electric_scooter", "name": "c9402f65e9f996b39272dd15d0a7f62c", "fusion_lon": 0.0, "fusion_lat": 0.0, "is_reserved": 0, "bike_id": "c9402f65e9f996b39272dd15d0a7f62c", "lon": -77.01577033333334, "is_disabled": 0}, {"rental_uris": {"android": "https://dc.lft.to/lastmile_qr_scan", "ios": "https://dc.lft.to/lastmile_qr_scan"}, "lat": 38.92435733333333, "type": "electric_scooter", "name": "d8fbd854e8767e60e621cd2f27089842", "fusion_lon": 0.0, "fusion_lat": 0.0, "is_reserved": 0, "bike_id": "d8fbd854e8767e60e621cd2f27089842", "lon": -77.03403216666666, "is_disabled": 0}, {"rental_uris": {"android": "https://dc.lft.to/lastmile_qr_scan", "ios": "https://dc.lft.to/lastmile_qr_scan"}, "lat": 38.96045, "type": "electric_scooter", "name": "edb95cec82b7b2ae4a5a866e980d115b", "fusion_lon": 0.0, "fusion_lat": 0.0, "is_reserved": 0, "bike_id": "edb95cec82b7b2ae4a5a866e980d115b", "lon": -77.00511883333333, "is_disabled": 0}, {"rental_uris": {"android": "https://dc.lft.to/lastmile_qr_scan", "ios": "https://dc.lft.to/lastmile_qr_scan"}, "lat": 38.923597, "type": "electric_scooter", "name": "859b07e695707cb15e1ed9f4d054f547", "fusion_lon": 0.0, "fusion_lat": 0.0, "is_reserved": 0, "bike_id": "859b07e695707cb15e1ed9f4d054f547", "lon": -77.05132866666666, "is_disabled": 0}, {"rental_uris": {"android": "https://dc.lft.to/lastmile_qr_scan", "ios": "https://dc.lft.to/lastmile_qr_scan"}, "lat": 38.93050933333333, "type": "electric_scooter", "name": "1b2df9b68f7c29dc7714f7de0e7a66fe", "fusion_lon": 0.0, "fusion_lat": 0.0, "is_reserved": 0, "bike_id": "1b2df9b68f7c29dc7714f7de0e7a66fe", "lon": -77.0433225, "is_disabled": 0}, {"rental_uris": {"android": "https://dc.lft.to/lastmile_qr_scan", "ios": "https://dc.lft.to/lastmile_qr_scan"}, "lat": 38.90415633333333, "type": "electric_scooter", "name": "0efe125e7cf45c03e7e9b1f3b37fc03f", "fusion_lon": 0.0, "fusion_lat": 0.0, "is_reserved": 0, "bike_id": "0efe125e7cf45c03e7e9b1f3b37fc03f", "lon": -77.0250915, "is_disabled": 0}, {"rental_uris": {"android": "https://dc.lft.to/lastmile_qr_scan", "ios": "https://dc.lft.to/lastmile_qr_scan"}, "lat": 38.90107016666666, "type": "electric_scooter", "name": "953721f04ca05c1d1ec839de270fc2a6", "fusion_lon": 0.0, "fusion_lat": 0.0, "is_reserved": 0, "bike_id": "953721f04ca05c1d1ec839de270fc2a6", "lon": -77.0175435, "is_disabled": 0}, {"rental_uris": {"android": "https://dc.lft.to/lastmile_qr_scan", "ios": "https://dc.lft.to/lastmile_qr_scan"}, "lat": 38.924396, "type": "electric_scooter", "name": "62541d1653a27a71025d2c2fdb5bacce", "fusion_lon": 0.0, "fusion_lat": 0.0, "is_reserved": 0, "bike_id": "62541d1653a27a71025d2c2fdb5bacce", "lon": -77.02153883333334, "is_disabled": 0}, {"rental_uris": {"android": "https://dc.lft.to/lastmile_qr_scan", "ios": "https://dc.lft.to/lastmile_qr_scan"},