{"data": {"bikes": [{"rental_uris": {"ios": "https://dc.lft.to/lastmile_qr_scan", "android": "https://dc.lft.to/lastmile_qr_scan"}, "lon": -77.03282383333334, "type": "electric_scooter", "fusion_lat": 0.0, "lat": 38.932059333333335, "name": "14f4f2a78e42287bdb3580f3cbf4fcac", "fusion_lon": 0.0, "bike_id": "14f4f2a78e42287bdb3580f3cbf4fcac", "is_disabled": 0, "is_reserved": 0}, {"rental_uris": {"ios": "https://dc.lft.to/lastmile_qr_scan", "android": "https://dc.lft.to/lastmile_qr_scan"}, "lon": -77.043413, "type": "electric_scooter", "fusion_lat": 0.0, "lat": 38.9083465, "name": "4bcaed274838cdb43bcc6a30b62d06c4", "fusion_lon": 0.0, "bike_id": "4bcaed274838cdb43bcc6a30b62d06c4", "is_disabled": 0, "is_reserved": 0}, {"rental_uris": {"ios": "https://dc.lft.to/lastmile_qr_scan", "android": "https://dc.lft.to/lastmile_qr_scan"}, "lon": -77.03181016666667, "type": "electric_scooter", "fusion_lat": 0.0, "lat": 38.89389933333333, "name": "934eb1ce64e746dfdaa8acee8690a287", "fusion_lon": 0.0, "bike_id": "934eb1ce64e746dfdaa8acee8690a287", "is_disabled": 0, "is_reserved": 0}, {"rental_uris": {"ios": "https://dc.lft.to/lastmile_qr_scan", "android": "https://dc.lft.to/lastmile_qr_scan"}, "lon": -77.04270783333334, "type": "electric_scooter", "fusion_lat": 0.0, "lat": 38.9341025, "name": "95fd09a4507437b40aafc12a3c66de71", "fusion_lon": 0.0, "bike_id": "95fd09a4507437b40aafc12a3c66de71", "is_disabled": 0, "is_reserved": 0}, {"rental_uris": {"ios": "https://dc.lft.to/lastmile_qr_scan", "android": "https://dc.lft.to/lastmile_qr_scan"}, "lon": -77.07166333333333, "type": "electric_scooter", "fusion_lat": 0.0, "lat": 38.907425, "name": "a8e5750b1f3b42c050081ab203540ed9", "fusion_lon": 0.0, "bike_id": "a8e5750b1f3b42c050081ab203540ed9", "is_disabled": 0, "is_reserved": 0}, {"rental_uris": {"ios": "https://dc.lft.to/lastmile_qr_scan", "android": "https://dc.lft.to/lastmile_qr_scan"}, "lon": -77.0034665, "type": "electric_scooter", "fusion_lat": 0.0, "lat": 38.895299, "name": "cf894b1a6b7dee6310b14c05eaee6fc3", "fusion_lon": 0.0, "bike_id": "cf894b1a6b7dee6310b14c05eaee6fc3", "is_disabled": 0, "is_reserved": 0}, {"rental_uris": {"ios": "https://dc.lft.to/lastmile_qr_scan", "android": "https://dc.lft.to/lastmile_qr_scan"}, "lon": -76.94627983333334, "type": "electric_bike", "fusion_lat": 0.0, "lat": 38.946229, "name": "c129077b9b0583f87131f22433c10494", "fusion_lon": 0.0, "bike_id": "c129077b9b0583f87131f22433c10494", "is_disabled": 0, "is_reserved": 0}, {"rental_uris": {"ios": "https://dc.lft.to/lastmile_qr_scan", "android": "https://dc.lft.to/lastmile_qr_scan"}, "lon": -77.00574916666666, "type": "electric_scooter", "fusion_lat": 0.0, "lat": 38.905696666666664, "name": "303e277b6201045c9d34b12782a5c61d", "fusion_lon": 0.0, "bike_id": "303e277b6201045c9d34b12782a5c61d", "is_disabled": 0, "is_reserved": 0}, {"rental_uris": {"ios": "https://dc.lft.to/lastmile_qr_scan", "android": "https://dc.lft.to/lastmile_qr_scan"}, "lon": -77.05078683333333, "type": "electric_scooter", "fusion_lat": 0.0, "lat": 38.896081, "name": "9bc7752d48e63016c3c52807c742ece8", "fusion_lon": 0.0, "bike_id": "9bc7752d48e63016c3c52807c742ece8", "is_disabled": 0, "is_reserved": 0}, {"rental_uris": {"ios": "https://dc.lft.to/lastmile_qr_scan", "android": "https://dc.lft.to/lastmile_qr_scan"}, "lon": -77.04647166666666, "type": "electric_scooter", "fusion_lat": 0.0, "lat": 38.91571583333333, "name": "86deafc2ed33d6c61f3fda0b87a38095", "fusion_lon": 0.0, "bike_id": "86deafc2ed33d6c61f3fda0b87a38095", "is_disabled": 0, "is_reserved": 0}, {"rental_uris": {"ios": "https://dc.lft.to/lastmile_qr_scan", "android": "https://dc.lft.to/lastmile_qr_scan"}, "lon": -77.0220605, "type": "electric_scooter", "fusion_lat": 0.0, "lat": 38.908332, "name": "ca8a8a9fac8a18b0306b6bb6556fbf26", "fusion_lon": 0.0, "bike_id": "ca8a8a9fac8a18b0306b6bb6556fbf26", "is_disabled": 0, "is_reserved": 0}, {"rental_uris": {"ios": "https://dc.lft.to/lastmile_qr_scan", "android": "https://dc.lft.to/lastmile_qr_scan"}, "lon": -76.97209033333333, "type": "electric_scooter", "fusion_lat": 0.0, "lat": 38.85494, "name": "233b848be7164d5c218790a70acdf1ba", "fusion_lon": 0.0, "bike_id": "233b848be7164d5c218790a70acdf1ba", "is_disabled": 0, "is_reserved": 0}, {"rental_uris": {"ios": "https://dc.lft.to/lastmile_qr_scan", "android": "https://dc.lft.to/lastmile_qr_scan"}, "lon": -76.99889583333334, "type": "electric_scooter", "fusion_lat": 0.0, "lat": 38.9075475, "name": "b4f927b4df05007be53f7f5f702ac315", "fusion_lon": 0.0, "bike_id": "b4f927b4df05007be53f7f5f702ac315", "is_disabled": 0, "is_reserved": 0}, {"rental_uris": {"ios": "https://dc.lft.to/lastmile_qr_scan", "android": "https://dc.lft.to/lastmile_qr_scan"}, "lon": -77.05162, "type": "electric_scooter", "fusion_lat": 0.0, "lat": 38.90582633333333, "name": "591da4ba5007a0ea9f792c2e96e878f7", "fusion_lon": 0.0, "bike_id": "591da4ba5007a0ea9f792c2e96e878f7", "is_disabled": 0, "is_reserved": 0}, {"rental_uris": {"ios": "https://dc.lft.to/lastmile_qr_scan", "android": "https://dc.lft.to/lastmile_qr_scan"}, "lon": -77.03252666666667, "type": "electric_scooter", "fusion_lat": 0.0, "lat": 38.933779666666666, "name": "18cea108afa59d0e6c7c4ab05d5bafa3", "fusion_lon": 0.0, "bike_id": "18cea108afa59d0e6c7c4ab05d5bafa3", "is_disabled": 0, "is_reserved": 0}, {"rental_uris": {"ios": "https://dc.lft.to/lastmile_qr_scan", "android": "https://dc.lft.to/lastmile_qr_scan"}, "lon": -77.03849616666666, "type": "electric_scooter", "fusion_lat": 0.0, "lat": 38.915384833333334, "name": "0b1a203a054dacee26898b928a4c87db", "fusion_lon": 0.0, "bike_id": "0b1a203a054dacee26898b928a4c87db", "is_disabled": 0, "is_reserved": 0}, {"rental_uris": {"ios": "https://dc.lft.to/lastmile_qr_scan", "android": "https://dc.lft.to/lastmile_qr_scan"}, "lon": -76.95540283333334, "type": "electric_scooter", "fusion_lat": 0.0, "lat": 38.887628, "name": "781a138aaea681747fd2ab4d3bc1f2b8", "fusion_lon": 0.0, "bike_id": "781a138aaea681747fd2ab4d3bc1f2b8", "is_disabled": 0, "is_reserved": 0}, {"rental_uris": {"ios": "https://dc.lft.to/lastmile_qr_scan", "android": "https://dc.lft.to/lastmile_qr_scan"}, "lon": -77.0347945, "type": "electric_scooter", "fusion_lat": 0.0, "lat": 38.907594, "name": "190c449ce9dcbfc310ff18c13e69dd64", "fusion_lon": 0.0, "bike_id": "190c449ce9dcbfc310ff18c13e69dd64", "is_disabled": 0, "is_reserved": 0}, {"rental_uris": {"ios": "https://dc.lft.to/lastmile_qr_scan", "android": "https://dc.lft.to/lastmile_qr_scan"}, "lon": -77.036383, "type": "electric_scooter", "fusion_lat": 0.0, "lat": 38.93715683333333, "name": "b85df0ea4e805e8fba1094b6d01ea2ff", "fusion_lon": 0.0, "bike_id": "b85df0ea4e805e8fba1094b6d01ea2ff", "is_disabled": 0, "is_reserved": 0}, {"rental_uris": {"ios": "https://dc.lft.to/lastmile_qr_scan", "android": "https://dc.lft.to/lastmile_qr_scan"}, "lon": -77.0400285, "type": "electric_scooter", "fusion_lat": 0.0, "lat": 38.900113166666664, "name": "863952301ae7a8eb4d48efd8118e7010", "fusion_lon": 0.0, "bike_id": "863952301ae7a8eb4d48efd8118e7010", "is_disabled": 0, "is_reserved": 0}, {"rental_uris": {"ios": "https://dc.lft.to/lastmile_qr_scan", "android": "https://dc.lft.to/lastmile_qr_scan"}, "lon": -77.01746466666667, "type": "electric_scooter", "fusion_lat": 0.0, "lat": 38.90559433333333, "name": "bce4aa000f08d947d840b69c944c458f", "fusion_lon": 0.0, "bike_id": "bce4aa000f08d947d840b69c944c458f", "is_disabled": 0, "is_reserved": 0}, {"rental_uris": {"ios": "https://dc.lft.to/lastmile_qr_scan", "android": "https://dc.lft.to/lastmile_qr_scan"}, "lon": -76.97819716666666, "type": "electric_scooter", "fusion_lat": 0.0, "lat": 38.895198666666666, "name": "dbbf5a6b509b16440649098cc226a5e4", "fusion_lon": 0.0, "bike_id": "dbbf5a6b509b16440649098cc226a5e4", "is_disabled": 0, "is_reserved": 0}, {"rental_uris": {"ios": "https://dc.lft.to/lastmile_qr_scan", "android": "https://dc.lft.to/lastmile_qr_scan"}, "lon": -76.990196, "type": "electric_scooter", "fusion_lat": 0.0, "lat": 38.858666666666664, "name": "53a0526bd2fade1eb83ae7b146b32129", "fusion_lon": 0.0, "bike_id": "53a0526bd2fade1eb83ae7b146b32129", "is_disabled": 0, "is_reserved": 0}, {"rental_uris": {"ios": "https://dc.lft.to/lastmile_qr_scan", "android": "https://dc.lft.to/lastmile_qr_scan"}, "lon": -77.02585733333333, "type": "electric_scooter", "fusion_lat": 0.0, "lat": 38.92035683333334, "name": "19e04368253e7d6599998a42438495ab", "fusion_lon": 0.0, "bike_id": "19e04368253e7d6599998a42438495ab", "is_disabled": 0, "is_reserved": 0}, {"rental_uris": {"ios": "https://dc.lft.to/lastmile_qr_scan", "android": "https://dc.lft.to/lastmile_qr_scan"}, "lon": -77.01861666666667, "type": "electric_scooter", "fusion_lat": 0.0, "lat": 38.89265283333334, "name": "f657cba13808804d61c2462f8eb0fb5f", "fusion_lon": 0.0, "bike_id": "f657cba13808804d61c2462f8eb0fb5f", "is_disabled": 0, "is_reserved": 0}, {"rental_uris": {"ios": "https://dc.lft.to/lastmile_qr_scan", "android": "https://dc.lft.to/lastmile_qr_scan"}, "lon": -77.02285633333334, "type": "electric_scooter", "fusion_lat": 0.0, "lat": 38.878443833333336, "name": "6faf5973e8364ceace7019687054b6e9", "fusion_lon": 0.0, "bike_id": "6faf5973e8364ceace7019687054b6e9", "is_disabled": 0, "is_reserved": 0}, {"rental_uris": {"ios": "https://dc.lft.to/lastmile_qr_scan", "android": "https://dc.lft.to/lastmile_qr_scan"}, "lon": -77.03619983333333, "type": "electric_scooter", "fusion_lat": 0.0, "lat": 38.9373885, "name": "3d39cae73657eceacf0d769c2360a1b6", "fusion_lon": 0.0, "bike_id": "3d39cae73657eceacf0d769c2360a1b6", "is_disabled": 0, "is_reserved": 0}, {"rental_uris": {"ios": "https://dc.lft.to/lastmile_qr_scan", "android": "https://dc.lft.to/lastmile_qr_scan"}, "lon": -77.02544533333334, "type": "electric_scooter", "fusion_lat": 0.0, "lat": 38.892187666666665, "name": "721093f6b822dfe0112f8f09d98cf156", "fusion_lon": 0.0, "bike_id": "721093f6b822dfe0112f8f09d98cf156", "is_disabled": 0, "is_reserved": 0}, {"rental_uris": {"ios": "https://dc.lft.to/lastmile_qr_scan", "android": "https://dc.lft.to/lastmile_qr_scan"}, "lon": -77.00262616666667, "type": "electric_bike", "fusion_lat": 0.0, "lat": 38.9118495, "name": "a8631684e08b79fa2b00fae71b8a43dc", "fusion_lon": 0.0, "bike_id": "a8631684e08b79fa2b00fae71b8a43dc", "is_disabled": 0, "is_reserved": 0}, {"rental_uris": {"ios": "https://dc.lft.to/lastmile_qr_scan", "android": "https://dc.lft.to/lastmile_qr_scan"}, "lon": -77.032028, "type": "electric_scooter", "fusion_lat": 0.0, "lat": 38.91697166666667, "name": "fc2e45e29a7d2d9f2c3822556167029d", "fusion_lon": 0.0, "bike_id": "fc2e45e29a7d2d9f2c3822556167029d", "is_disabled": 0, "is_reserved": 0}, {"rental_uris": {"ios": "https://dc.lft.to/lastmile_qr_scan", "android": "https://dc.lft.to/lastmile_qr_scan"}, "lon": -77.03320133333334, "type": "electric_scooter", "fusion_lat": 0.0, "lat": 38.90152333333333, "name": "c215611a0c168af21d12f236cb37cc10", "fusion_lon": 0.0, "bike_id": "c215611a0c168af21d12f236cb37cc10", "is_disabled": 0, "is_reserved": 0}, {"rental_uris": {"ios": "https://dc.lft.to/lastmile_qr_scan", "android": "https://dc.lft.to/lastmile_qr_scan"}, "lon": -77.06353966666667, "type": "electric_scooter", "fusion_lat": 0.0, "lat": 38.944477, "name": "cc167ec0af27c04f572aacc78893d129", "fusion_lon": 0.0, "bike_id": "cc167ec0af27c04f572aacc78893d129", "is_disabled": 0, "is_reserved": 0}, {"rental_uris": {"ios": "https://dc.lft.to/lastmile_qr_scan", "android": "https://dc.lft.to/lastmile_qr_scan"}, "lon": -77.182957, "type": "electric_bike", "fusion_lat": 0.0, "lat": 38.883375666666666, "name": "adc9cfaf9c661330b6646761d72a1c61", "fusion_lon": 0.0, "bike_id": "adc9cfaf9c661330b6646761d72a1c61", "is_disabled": 0, "is_reserved": 0}, {"rental_uris": {"ios": "https://dc.lft.to/lastmile_qr_scan", "android": "https://dc.lft.to/lastmile_qr_scan"}, "lon": -77.03869, "type": "electric_scooter", "fusion_lat": 0.0, "lat": 38.90808666666667, "name": "25ae8b096f2ca65bc5f386360d9d5b6f", "fusion_lon": 0.0, "bike_id": "25ae8b096f2ca65bc5f386360d9d5b6f", "is_disabled": 0, "is_reserved": 0}, {"rental_uris": {"ios": "https://dc.lft.to/lastmile_qr_scan", "android": "https://dc.lft.to/lastmile_qr_scan"}, "lon": -77.0638355, "type": "electric_scooter", "fusion_lat": 0.0, "lat": 38.90500183333333, "name": "3877c173908c6aa2dec79fda873914d6", "fusion_lon": 0.0, "bike_id": "3877c173908c6aa2dec79fda873914d6", "is_disabled": 0, "is_reserved": 0}, {"rental_uris": {"ios": "https://dc.lft.to/lastmile_qr_scan", "android": "https://dc.lft.to/lastmile_qr_scan"}, "lon": -77.03910116666667, "type": "electric_scooter", "fusion_lat": 0.0, "lat": 38.918378, "name": "35cf6cbaafb78d14256217122c9db3ab", "fusion_lon": 0.0, "bike_id": "35cf6cbaafb78d14256217122c9db3ab", "is_disabled": 0, "is_reserved": 0}, {"rental_uris": {"ios": "https://dc.lft.to/lastmile_qr_scan", "android": "https://dc.lft.to/lastmile_qr_scan"}, "lon": -77.00027816666666, "type": "electric_scooter", "fusion_lat": 0.0, "lat": 38.9080155, "name": "8cb47a2fd0762a0734809627739dd84c", "fusion_lon": 0.0, "bike_id": "8cb47a2fd0762a0734809627739dd84c", "is_disabled": 0, "is_reserved": 0}, {"rental_uris": {"ios": "https://dc.lft.to/lastmile_qr_scan", "android": "https://dc.lft.to/lastmile_qr_scan"}, "lon": -77.01369383333333, "type": "electric_scooter", "fusion_lat": 0.0, "lat": 38.928564333333334, "name": "9c21772957022c15c1855094ac9bf6c9", "fusion_lon": 0.0, "bike_id": "9c21772957022c15c1855094ac9bf6c9", "is_disabled": 0, "is_reserved": 0}, {"rental_uris": {"ios": "https://dc.lft.to/lastmile_qr_scan", "android": "https://dc.lft.to/lastmile_qr_scan"}, "lon": -77.036059, "type": "electric_scooter", "fusion_lat": 0.0, "lat": 38.9348985, "name": "af64e16dbcb193074e72b1c0aff6876d", "fusion_lon": 0.0, "bike_id": "af64e16dbcb193074e72b1c0aff6876d", "is_disabled": 0, "is_reserved": 0}, {"rental_uris": {"ios": "https://dc.lft.to/lastmile_qr_scan", "android": "https://dc.lft.to/lastmile_qr_scan"}, "lon": -77.04549366666667, "type": "electric_scooter", "fusion_lat": 0.0, "lat": 38.934087, "name": "7fef71c959f882e5ae66746d3a3069e0", "fusion_lon": 0.0, "bike_id": "7fef71c959f882e5ae66746d3a3069e0", "is_disabled": 0, "is_reserved": 0}, {"rental_uris": {"ios": "https://dc.lft.to/lastmile_qr_scan", "android": "https://dc.lft.to/lastmile_qr_scan"}, "lon": -77.02005066666666, "type": "electric_scooter", "fusion_lat": 0.0, "lat": 38.91311916666667, "name": "2f2cca6aa2bc1a802fb0c9d634f9cddd", "fusion_lon": 0.0, "bike_id": "2f2cca6aa2bc1a802fb0c9d634f9cddd", "is_disabled": 0, "is_reserved": 0}, {"rental_uris": {"ios": "https://dc.lft.to/lastmile_qr_scan", "android": "https://dc.lft.to/lastmile_qr_scan"}, "lon": -77.00611533333333, "type": "electric_scooter", "fusion_lat": 0.0, "lat": 38.90261433333333, "name": "6aad629df7168e76ed6b687cd5298374", "fusion_lon": 0.0, "bike_id": "6aad629df7168e76ed6b687cd5298374", "is_disabled": 0, "is_reserved": 0}, {"rental_uris": {"ios": "https://dc.lft.to/lastmile_qr_scan", "android": "https://dc.lft.to/lastmile_qr_scan"}, "lon": -76.98969616666666, "type": "electric_scooter", "fusion_lat": 0.0, "lat": 38.902444333333335, "name": "6551695edc57ad4fa29b136c26a4352f", "fusion_lon": 0.0, "bike_id": "6551695edc57ad4fa29b136c26a4352f", "is_disabled": 0, "is_reserved": 0}, {"rental_uris": {"ios": "https://dc.lft.to/lastmile_qr_scan", "android": "https://dc.lft.to/lastmile_qr_scan"}, "lon": -77.02710533333334, "type": "electric_scooter", "fusion_lat": 0.0, "lat": 38.94997633333333, "name": "7dcac39dd54a8432bba1cef465551127", "fusion_lon": 0.0, "bike_id": "7dcac39dd54a8432bba1cef465551127", "is_disabled": 0, "is_reserved": 0}, {"rental_uris": {"ios": "https://dc.lft.to/lastmile_qr_scan", "android": "https://dc.lft.to/lastmile_qr_scan"}, "lon": -77.0395715, "type": "electric_scooter", "fusion_lat": 0.0, "lat": 38.892482333333334, "name": "b579555c9c056b129a7abec576be6edc", "fusion_lon": 0.0, "bike_id": "b579555c9c056b129a7abec576be6edc", "is_disabled": 0, "is_reserved": 0}, {"rental_uris": {"ios": "https://dc.lft.to/lastmile_qr_scan", "android": "https://dc.lft.to/lastmile_qr_scan"}, "lon": -77.03130933333334, "type": "electric_scooter", "fusion_lat": 0.0, "lat": 38.90663283333333, "name": "787c1939e0755030eca9490170995049", "fusion_lon": 0.0, "bike_id": "787c1939e0755030eca9490170995049", "is_disabled": 0, "is_reserved": 0}, {"rental_uris": {"ios": "https://dc.lft.to/lastmile_qr_scan", "android": "https://dc.lft.to/lastmile_qr_scan"}, "lon": -76.946389, "type": "electric_scooter", "fusion_lat": 0.0, "lat": 38.8983305, "name": "4c66e9f5ec33f1e13b4a31ac0544256c", "fusion_lon": 0.0, "bike_id": "4c66e9f5ec33f1e13b4a31ac0544256c", "is_disabled": 0, "is_reserved": 0}, {"rental_uris": {"ios": "https://dc.lft.to/lastmile_qr_scan", "android": "https://dc.lft.to/lastmile_qr_scan"}, "lon": -77.02383316666666, "type": "electric_scooter", "fusion_lat": 0.0, "lat": 38.900201333333335, "name": "20a716cef82093e4f0414990470cb4a7", "fusion_lon": 0.0, "bike_id": "20a716cef82093e4f0414990470cb4a7", "is_disabled": 0, "is_reserved": 0}, {"rental_uris": {"ios": "https://dc.lft.to/lastmile_qr_scan", "android": "https://dc.lft.to/lastmile_qr_scan"}, "lon": -77.03196816666667, "type": "electric_scooter", "fusion_lat": 0.0, "lat": 38.91845516666667, "name": "bd68ce104dcc619822aab0760f61fb65", "fusion_lon": 0.0, "bike_id": "bd68ce104dcc619822aab0760f61fb65", "is_disabled": 0, "is_reserved": 0}, {"rental_uris": {"ios": "https://dc.lft.to/lastmile_qr_scan", "android": "https://dc.lft.to/lastmile_qr_scan"}, "lon": -77.0435695, "type": "electric_scooter", "fusion_lat": 0.0, "lat": 38.9111425, "name": "1d370287d8df412c2f14cc3e43b1fd6e", "fusion_lon": 0.0, "bike_id": "1d370287d8df412c2f14cc3e43b1fd6e", "is_disabled": 0, "is_reserved": 0}, {"rental_uris": {"ios": "https://dc.lft.to/lastmile_qr_scan", "android": "https://dc.lft.to/lastmile_qr_scan"}, "lon": -77.02621783333333, "type": "electric_scooter", "fusion_lat": 0.0, "lat": 38.92916016666667, "name": "06aaa9d1afe3a3886f4c4c2bf7c6f506", "fusion_lon": 0.0, "bike_id": "06aaa9d1afe3a3886f4c4c2bf7c6f506", "is_disabled": 0, "is_reserved": 0}, {"rental_uris": {"ios": "https://dc.lft.to/lastmile_qr_scan", "android": "https://dc.lft.to/lastmile_qr_scan"}, "lon": -77.03078816666667, "type": "electric_scooter", "fusion_lat": 0.0, "lat": 38.911791, "name": "94842609920f1e4fa8d4a635f5423d77", "fusion_lon": 0.0, "bike_id": "94842609920f1e4fa8d4a635f5423d77", "is_disabled": 0, "is_reserved": 0}, {"rental_uris": {"ios": "https://dc.lft.to/lastmile_qr_scan", "android": "https://dc.lft.to/lastmile_qr_scan"}, "lon": -77.05752666666666, "type": "electric_scooter", "fusion_lat": 0.0, "lat": 38.934185, "name": "aaf1403e7fc540025aa5dc7e486c8e1e", "fusion_lon": 0.0, "bike_id": "aaf1403e7fc540025aa5dc7e486c8e1e", "is_disabled": 0, "is_reserved": 0}, {"rental_uris": {"ios": "https://dc.lft.to/lastmile_qr_scan", "android": "https://dc.lft.to/lastmile_qr_scan"}, "lon": -77.037494, "type": "electric_scooter", "fusion_lat": 0.0, "lat": 38.925783, "name": "22cedf5a2f5025f70f7ecc3e6a77afe0", "fusion_lon": 0.0, "bike_id": "22cedf5a2f5025f70f7ecc3e6a77afe0", "is_disabled": 0, "is_reserved": 0}, {"rental_uris": {"ios": "https://dc.lft.to/lastmile_qr_scan", "android": "https://dc.lft.to/lastmile_qr_scan"}, "lon": -77.03331033333333, "type": "electric_scooter", "fusion_lat": 0.0, "lat": 38.887760166666666, "name": "5db8a7ad4392f2e96d9d8fec6d4176cf", "fusion_lon": 0.0, "bike_id": "5db8a7ad4392f2e96d9d8fec6d4176cf", "is_disabled": 0, "is_reserved": 0}, {"rental_uris": {"ios": "https://dc.lft.to/lastmile_qr_scan", "android": "https://dc.lft.to/lastmile_qr_scan"}, "lon": -77.04817766666666, "type": "electric_scooter", "fusion_lat": 0.0, "lat": 38.90391266666666, "name": "4c297c1e2d05f26302c4a1f23a7a87de", "fusion_lon": 0.0, "bike_id": "4c297c1e2d05f26302c4a1f23a7a87de", "is_disabled": 0, "is_reserved": 0}, {"rental_uris": {"ios": "https://dc.lft.to/lastmile_qr_scan", "android": "https://dc.lft.to/lastmile_qr_scan"}, "lon": -77.04595666666667, "type": "electric_scooter", "fusion_lat": 0.0, "lat": 38.917239, "name": "4b036ac1cd4a3e85e9e9fc892aff2236", "fusion_lon": 0.0, "bike_id": "4b036ac1cd4a3e85e9e9fc892aff2236", "is_disabled": 0, "is_reserved": 0}, {"rental_uris": {"ios": "https://dc.lft.to/lastmile_qr_scan", "android": "https://dc.lft.to/lastmile_qr_scan"}, "lon": -77.03855283333333, "type": "electric_scooter", "fusion_lat": 0.0, "lat": 38.9153995, "name": "ecc26f8d3d41c515a9a7907744dfe636", "fusion_lon": 0.0, "bike_id": "ecc26f8d3d41c515a9a7907744dfe636", "is_disabled": 0, "is_reserved": 0}, {"rental_uris": {"ios": "https://dc.lft.to/lastmile_qr_scan", "android": "https://dc.lft.to/lastmile_qr_scan"}, "lon": -76.99916716666667, "type": "electric_scooter", "fusion_lat": 0.0, "lat": 38.9095005, "name": "7dc034da6ba3c7f8d78f05029fddbaff", "fusion_lon": 0.0, "bike_id": "7dc034da6ba3c7f8d78f05029fddbaff", "is_disabled": 0, "is_reserved": 0}, {"rental_uris": {"ios": "https://dc.lft.to/lastmile_qr_scan", "android": "https://dc.lft.to/lastmile_qr_scan"}, "lon": -77.11525483333334, "type": "electric_bike", "fusion_lat": 0.0, "lat": 38.854904833333336, "name": "2d63f94c11368f3f83a05cd3d6d943e2", "fusion_lon": 0.0, "bike_id": "2d63f94c11368f3f83a05cd3d6d943e2", "is_disabled": 0, "is_reserved": 0}, {"rental_uris": {"ios": "https://dc.lft.to/lastmile_qr_scan", "android": "https://dc.lft.to/lastmile_qr_scan"}, "lon": -77.03994, "type": "electric_scooter", "fusion_lat": 0.0, "lat": 38.900362, "name": "4d19de026858eac9d16fc4255ee53438", "fusion_lon": 0.0, "bike_id": "4d19de026858eac9d16fc4255ee53438", "is_disabled": 0, "is_reserved": 0}, {"rental_uris": {"ios": "https://dc.lft.to/lastmile_qr_scan", "android": "https://dc.lft.to/lastmile_qr_scan"}, "lon": -77.036442, "type": "electric_scooter", "fusion_lat": 0.0, "lat": 38.91734816666666, "name": "056fa143c620b773f34c488e797cb6d6", "fusion_lon": 0.0, "bike_id": "056fa143c620b773f34c488e797cb6d6", "is_disabled": 0, "is_reserved": 0}, {"rental_uris": {"ios": "https://dc.lft.to/lastmile_qr_scan", "android": "https://dc.lft.to/lastmile_qr_scan"}, "lon": -77.00743666666666, "type": "electric_scooter", "fusion_lat": 0.0, "lat": 38.95520166666667, "name": "a5750bbd4d1207d1f183ec51f448e327", "fusion_lon": 0.0, "bike_id": "a5750bbd4d1207d1f183ec51f448e327", "is_disabled": 0, "is_reserved": 0}, {"rental_uris": {"ios": "https://dc.lft.to/lastmile_qr_scan", "android": "https://dc.lft.to/lastmile_qr_scan"}, "lon": -77.0235375, "type": "electric_scooter", "fusion_lat": 0.0, "lat": 38.922767666666665, "name": "0ddc463eaa3ef0b8268f38beecc57c91", "fusion_lon": 0.0, "bike_id": "0ddc463eaa3ef0b8268f38beecc57c91", "is_disabled": 0, "is_reserved": 0}, {"rental_uris": {"ios": "https://dc.lft.to/lastmile_qr_scan", "android": "https://dc.lft.to/lastmile_qr_scan"}, "lon": -77.03232783333333, "type": "electric_scooter", "fusion_lat": 0.0, "lat": 38.9192855, "name": "702902c81ed8ab15a0b97d82e9fcd943", "fusion_lon": 0.0, "bike_id": "702902c81ed8ab15a0b97d82e9fcd943", "is_disabled": 0, "is_reserved": 0}, {"rental_uris": {"ios": "https://dc.lft.to/lastmile_qr_scan", "android": "https://dc.lft.to/lastmile_qr_scan"}, "lon": -77.021486, "type": "electric_scooter", "fusion_lat": 0.0, "lat": 38.909731, "name": "06ef82ebc895a1922c156869ca551f2a", "fusion_lon": 0.0, "bike_id": "06ef82ebc895a1922c156869ca551f2a", "is_disabled": 0, "is_reserved": 0}, {"rental_uris": {"ios": "https://dc.lft.to/lastmile_qr_scan", "android": "https://dc.lft.to/lastmile_qr_scan"}, "lon": -77.0021405, "type": "electric_scooter", "fusion_lat": 0.0, "lat": 38.902185, "name": "dcdb60aaa3c05ba07d9eb478b076a74f", "fusion_lon": 0.0, "bike_id": "dcdb60aaa3c05ba07d9eb478b076a74f", "is_disabled": 0, "is_reserved": 0}, {"rental_uris": {"ios": "https://dc.lft.to/lastmile_qr_scan", "android": "https://dc.lft.to/lastmile_qr_scan"}, "lon": -77.06784566666667, "type": "electric_scooter", "fusion_lat": 0.0, "lat": 38.95205883333333, "name": "a34ad9dd49805b0da6e466be89cece74", "fusion_lon": 0.0, "bike_id": "a34ad9dd49805b0da6e466be89cece74", "is_disabled": 0, "is_reserved": 0}, {"rental_uris": {"ios": "https://dc.lft.to/lastmile_qr_scan", "android": "https://dc.lft.to/lastmile_qr_scan"}, "lon": -77.036445, "type": "electric_scooter", "fusion_lat": 0.0, "lat": 38.9173505, "name": "668f602ac1314ad1fe730bafee0acf94", "fusion_lon": 0.0, "bike_id": "668f602ac1314ad1fe730bafee0acf94", "is_disabled": 0, "is_reserved": 0}, {"rental_uris": {"ios": "https://dc.lft.to/lastmile_qr_scan", "android": "https://dc.lft.to/lastmile_qr_scan"}, "lon": -77.14124566666666, "type": "electric_bike", "fusion_lat": 0.0, "lat": 38.816016166666664, "name": "b75ec99f56194b5f2850c7f9228b47c8", "fusion_lon": 0.0, "bike_id": "b75ec99f56194b5f2850c7f9228b47c8", "is_disabled": 0, "is_reserved": 0}, {"rental_uris": {"ios": "https://dc.lft.to/lastmile_qr_scan", "android": "https://dc.lft.to/lastmile_qr_scan"}, "lon": -77.03181966666666, "type": "electric_scooter", "fusion_lat": 0.0, "lat": 38.911223166666666, "name": "905b9df93cf4404566a5f984f23c0263", "fusion_lon": 0.0, "bike_id": "905b9df93cf4404566a5f984f23c0263", "is_disabled": 0, "is_reserved": 0}, {"rental_uris": {"ios": "https://dc.lft.to/lastmile_qr_scan", "android": "https://dc.lft.to/lastmile_qr_scan"}, "lon": -76.99594966666666, "type": "electric_scooter", "fusion_lat": 0.0, "lat": 38.9223005, "name": "bc5f097a7d98c7528266000257fed807", "fusion_lon": 0.0, "bike_id": "bc5f097a7d98c7528266000257fed807", "is_disabled": 0, "is_reserved": 0}, {"rental_uris": {"ios": "https://dc.lft.to/lastmile_qr_scan", "android": "https://dc.lft.to/lastmile_qr_scan"}, "lon": -77.00034433333333, "type": "electric_scooter", "fusion_lat": 0.0, "lat": 38.87384433333333, "name": "bd0419f5639cec7a1f4482813b64a8db", "fusion_lon": 0.0, "bike_id": "bd0419f5639cec7a1f4482813b64a8db", "is_disabled": 0, "is_reserved": 0}, {"rental_uris": {"ios": "https://dc.lft.to/lastmile_qr_scan", "android": "https://dc.lft.to/lastmile_qr_scan"}, "lon": -77.00271966666666, "type": "electric_bike", "fusion_lat": 0.0, "lat": 38.95217066666667, "name": "a1fba5d90538f3af9c9167ebc8e5b540", "fusion_lon": 0.0, "bike_id": "a1fba5d90538f3af9c9167ebc8e5b540", "is_disabled": 0, "is_reserved": 0}, {"rental_uris": {"ios": "https://dc.lft.to/lastmile_qr_scan", "android": "https://dc.lft.to/lastmile_qr_scan"}, "lon": -77.02364516666667, "type": "electric_scooter", "fusion_lat": 0.0, "lat": 38.92066116666667, "name": "93b90756b24515fe962aadeae000e781", "fusion_lon": 0.0, "bike_id": "93b90756b24515fe962aadeae000e781", "is_disabled": 0, "is_reserved": 0}, {"rental_uris": {"ios": "https://dc.lft.to/lastmile_qr_scan", "android": "https://dc.lft.to/lastmile_qr_scan"}, "lon": -77.05326066666667, "type": "electric_scooter", "fusion_lat": 0.0, "lat": 38.9023275, "name": "eb5e45a4566ef61d4cb3de627cbe54f2", "fusion_lon": 0.0, "bike_id": "eb5e45a4566ef61d4cb3de627cbe54f2", "is_disabled": 0, "is_reserved": 0}, {"rental_uris": {"ios": "https://dc.lft.to/lastmile_qr_scan", "android": "https://dc.lft.to/lastmile_qr_scan"}, "lon": -77.03934016666666, "type": "electric_scooter", "fusion_lat": 0.0, "lat": 38.917612166666665, "name": "e3ce91ae6901a740e16eed764e700d58", "fusion_lon": 0.0, "bike_id": "e3ce91ae6901a740e16eed764e700d58", "is_disabled": 0, "is_reserved": 0}, {"rental_uris": {"ios": "https://dc.lft.to/lastmile_qr_scan", "android": "https://dc.lft.to/lastmile_qr_scan"}, "lon": -77.0057725, "type": "electric_scooter", "fusion_lat": 0.0, "lat": 38.905689, "name": "7b6a5820453c3c88f1ae9da8fbb0c665", "fusion_lon": 0.0, "bike_id": "7b6a5820453c3c88f1ae9da8fbb0c665", "is_disabled": 0, "is_reserved": 0}, {"rental_uris": {"ios": "https://dc.lft.to/lastmile_qr_scan", "android": "https://dc.lft.to/lastmile_qr_scan"}, "lon": -77.0276255, "type": "electric_scooter", "fusion_lat": 0.0, "lat": 38.892005, "name": "2cdf41b97ac8add9703b9fb0e5393f10", "fusion_lon": 0.0, "bike_id": "2cdf41b97ac8add9703b9fb0e5393f10", "is_disabled": 0, "is_reserved": 0}, {"rental_uris": {"ios": "https://dc.lft.to/lastmile_qr_scan", "android": "https://dc.lft.to/lastmile_qr_scan"}, "lon": -77.00584233333333, "type": "electric_scooter", "fusion_lat": 0.0, "lat": 38.874162166666665, "name": "3686fc0f5763d943e549608ec4aab95e", "fusion_lon": 0.0, "bike_id": "3686fc0f5763d943e549608ec4aab95e", "is_disabled": 0, "is_reserved": 0}, {"rental_uris": {"ios": "https://dc.lft.to/lastmile_qr_scan", "android": "https://dc.lft.to/lastmile_qr_scan"}, "lon": -77.02372066666666, "type": "electric_scooter", "fusion_lat": 0.0, "lat": 38.89847066666667, "name": "e7945694958c4055656f6f56350691db", "fusion_lon": 0.0, "bike_id": "e7945694958c4055656f6f56350691db", "is_disabled": 0, "is_reserved": 0}, {"rental_uris": {"ios": "https://dc.lft.to/lastmile_qr_scan", "android": "https://dc.lft.to/lastmile_qr_scan"}, "lon": -77.03275866666667, "type": "electric_scooter", "fusion_lat": 0.0, "lat": 38.919239, "name": "a9debe040dcf076a2d186c16e4daa4db", "fusion_lon": 0.0, "bike_id": "a9debe040dcf076a2d186c16e4daa4db", "is_disabled": 0, "is_reserved": 0}, {"rental_uris": {"ios": "https://dc.lft.to/lastmile_qr_scan", "android": "https://dc.lft.to/lastmile_qr_scan"}, "lon": -77.04189516666666, "type": "electric_scooter", "fusion_lat": 0.0, "lat": 38.90547733333333, "name": "b809aace468179e355d6a3bf4a44e555", "fusion_lon": 0.0, "bike_id": "b809aace468179e355d6a3bf4a44e555", "is_disabled": 0, "is_reserved": 0}, {"rental_uris": {"ios": "https://dc.lft.to/lastmile_qr_scan", "android": "https://dc.lft.to/lastmile_qr_scan"}, "lon": -77.02451433333333, "type": "electric_scooter", "fusion_lat": 0.0, "lat": 38.93746733333333, "name": "317b5e9da89e4bc756dafcaf7de62a86", "fusion_lon": 0.0, "bike_id": "317b5e9da89e4bc756dafcaf7de62a86", "is_disabled": 0, "is_reserved": 0}, {"rental_uris": {"ios": "https://dc.lft.to/lastmile_qr_scan", "android": "https://dc.lft.to/lastmile_qr_scan"}, "lon": -77.04178383333333, "type": "electric_scooter", "fusion_lat": 0.0, "lat": 38.9031875, "name": "ac755dd6f48f09f32f27ca09825626db", "fusion_lon": 0.0, "bike_id": "ac755dd6f48f09f32f27ca09825626db", "is_disabled": 0, "is_reserved": 0}, {"rental_uris": {"ios": "https://dc.lft.to/lastmile_qr_scan", "android": "https://dc.lft.to/lastmile_qr_scan"}, "lon": -77.02531966666666, "type": "electric_scooter", "fusion_lat": 0.0, "lat": 38.9181905, "name": "3f1974eed8c5032a5cb77626fc342fa6", "fusion_lon": 0.0, "bike_id": "3f1974eed8c5032a5cb77626fc342fa6", "is_disabled": 0, "is_reserved": 0}, {"rental_uris": {"ios": "https://dc.lft.to/lastmile_qr_scan", "android": "https://dc.lft.to/lastmile_qr_scan"}, "lon": -77.041736, "type": "electric_scooter", "fusion_lat": 0.0, "lat": 38.91928716666666, "name": "1e34b604a6cb176510653a321286ccf2", "fusion_lon": 0.0, "bike_id": "1e34b604a6cb176510653a321286ccf2", "is_disabled": 0, "is_reserved": 0}, {"rental_uris": {"ios": "https://dc.lft.to/lastmile_qr_scan", "android": "https://dc.lft.to/lastmile_qr_scan"}, "lon": -76.95754983333333, "type": "electric_scooter", "fusion_lat": 0.0, "lat": 38.88423683333333, "name": "25686dca9d3659e7506581a1e999a342", "fusion_lon": 0.0, "bike_id": "25686dca9d3659e7506581a1e999a342", "is_disabled": 0, "is_reserved": 0}, {"rental_uris": {"ios": "https://dc.lft.to/lastmile_qr_scan", "android": "https://dc.lft.to/lastmile_qr_scan"}, "lon": -77.02993283333333, "type": "electric_scooter", "fusion_lat": 0.0, "lat": 38.910197833333335, "name": "dd732daa4ab23f18823316ae494fc4c3", "fusion_lon": 0.0, "bike_id": "dd732daa4ab23f18823316ae494fc4c3", "is_disabled": 0, "is_reserved": 0}, {"rental_uris": {"ios": "https://dc.lft.to/lastmile_qr_scan", "android": "https://dc.lft.to/lastmile_qr_scan"}, "lon": -77.0236125, "type": "electric_scooter", "fusion_lat": 0.0, "lat": 38.92505166666667, "name": "43dd82fa18c4702df49bdc27f933f12e", "fusion_lon": 0.0, "bike_id": "43dd82fa18c4702df49bdc27f933f12e", "is_disabled": 0, "is_reserved": 0}, {"rental_uris": {"ios": "https://dc.lft.to/lastmile_qr_scan", "android": "https://dc.lft.to/lastmile_qr_scan"}, "lon": -77.01387716666666, "type": "electric_scooter", "fusion_lat": 0.0, "lat": 38.92825466666667, "name": "176d8c69367a60adca1763673b93c0b6", "fusion_lon": 0.0, "bike_id": "176d8c69367a60adca1763673b93c0b6", "is_disabled": 0, "is_reserved": 0}, {"rental_uris": {"ios": "https://dc.lft.to/lastmile_qr_scan", "android": "https://dc.lft.to/lastmile_qr_scan"}, "lon": -77.15268683333333, "type": "electric_bike", "fusion_lat": 0.0, "lat": 39.10566266666667, "name": "6885822ac569011dd9a81fb62cf46fa3", "fusion_lon": 0.0, "bike_id": "6885822ac569011dd9a81fb62cf46fa3", "is_disabled": 0, "is_reserved": 0}, {"rental_uris": {"ios": "https://dc.lft.to/lastmile_qr_scan", "android": "https://dc.lft.to/lastmile_qr_scan"}, "lon": -77.002651, "type": "electric_scooter", "fusion_lat": 0.0, "lat": 38.8773815, "name": "437e82d5c351cc033447222c66e1a508", "fusion_lon": 0.0, "bike_id": "437e82d5c351cc033447222c66e1a508", "is_disabled": 0, "is_reserved": 0}, {"rental_uris": {"ios": "https://dc.lft.to/lastmile_qr_scan", "android": "https://dc.lft.to/lastmile_qr_scan"}, "lon": -77.0241715, "type": "electric_scooter", "fusion_lat": 0.0, "lat": 38.9170785, "name": "5df78fba6a630abc1f4dac8b274377f5", "fusion_lon": 0.0, "bike_id": "5df78fba6a630abc1f4dac8b274377f5", "is_disabled": 0, "is_reserved": 0}, {"rental_uris": {"ios": "https://dc.lft.to/lastmile_qr_scan", "android": "https://dc.lft.to/lastmile_qr_scan"}, "lon": -76.98326766666666, "type": "electric_scooter", "fusion_lat": 0.0, "lat": 38.861704833333334, "name": "af41d0255d8c8b177757b1f1ab9f13a8", "fusion_lon": 0.0, "bike_id": "af41d0255d8c8b177757b1f1ab9f13a8", "is_disabled": 0, "is_reserved": 0}, {"rental_uris": {"ios": "https://dc.lft.to/lastmile_qr_scan", "android": "https://dc.lft.to/lastmile_qr_scan"}, "lon": -76.95679916666667, "type": "electric_bike", "fusion_lat": 0.0, "lat": 38.947280166666665, "name": "397bc8dc7b9bf138b3dffec82991f8f7", "fusion_lon": 0.0, "bike_id": "397bc8dc7b9bf138b3dffec82991f8f7", "is_disabled": 0, "is_reserved": 0}, {"rental_uris": {"ios": "https://dc.lft.to/lastmile_qr_scan", "android": "https://dc.lft.to/lastmile_qr_scan"}, "lon": -77.04365433333334, "type": "electric_scooter", "fusion_lat": 0.0, "lat": 38.892213, "name": "d2f9265992fbc69bb79c6efa7435e75e", "fusion_lon": 0.0, "bike_id": "d2f9265992fbc69bb79c6efa7435e75e", "is_disabled": 0, "is_reserved": 0}, {"rental_uris": {"ios": "https://dc.lft.to/lastmile_qr_scan", "android": "https://dc.lft.to/lastmile_qr_scan"}, "lon": -77.03842883333333, "type": "electric_scooter", "fusion_lat": 0.0, "lat": 38.907511666666664, "name": "eac09dd20ee2ee2bad92b87e598aae8a", "fusion_lon": 0.0, "bike_id": "eac09dd20ee2ee2bad92b87e598aae8a", "is_disabled": 0, "is_reserved": 0}, {"rental_uris": {"ios": "https://dc.lft.to/lastmile_qr_scan", "android": "https://dc.lft.to/lastmile_qr_scan"}, "lon": -77.038654, "type": "electric_scooter", "fusion_lat": 0.0, "lat": 38.91563333333333, "name": "0ea19923e0c5db02e2f8f9c9d24ce743", "fusion_lon": 0.0, "bike_id": "0ea19923e0c5db02e2f8f9c9d24ce743", "is_disabled": 0, "is_reserved": 0}, {"rental_uris": {"ios": "https://dc.lft.to/lastmile_qr_scan", "android": "https://dc.lft.to/lastmile_qr_scan"}, "lon": -77.02951166666666, "type": "electric_scooter", "fusion_lat": 0.0, "lat": 38.9172075, "name": "ee6f344afe714030531a6b7b272ecef1", "fusion_lon": 0.0, "bike_id": "ee6f344afe714030531a6b7b272ecef1", "is_disabled": 0, "is_reserved": 0}, {"rental_uris": {"ios": "https://dc.lft.to/lastmile_qr_scan", "android": "https://dc.lft.to/lastmile_qr_scan"}, "lon": -77.0201895, "type": "electric_bike", "fusion_lat": 0.0, "lat": 38.937214166666664, "name": "5563792ad170f1313c15599563604457", "fusion_lon": 0.0, "bike_id": "5563792ad170f1313c15599563604457", "is_disabled": 0, "is_reserved": 0}, {"rental_uris": {"ios": "https://dc.lft.to/lastmile_qr_scan", "android": "https://dc.lft.to/lastmile_qr_scan"}, "lon": -76.974135, "type": "electric_scooter", "fusion_lat": 0.0, "lat": 38.902265, "name": "d44f7aa451d0b367b4e366135d580be2", "fusion_lon": 0.0, "bike_id": "d44f7aa451d0b367b4e366135d580be2", "is_disabled": 0, "is_reserved": 0}, {"rental_uris": {"ios": "https://dc.lft.to/lastmile_qr_scan", "android": "https://dc.lft.to/lastmile_qr_scan"}, "lon": -77.0365905, "type": "electric_scooter", "fusion_lat": 0.0, "lat": 38.9027715, "name": "e1559c34d6c4592d9d1f081585fd34a4", "fusion_lon": 0.0, "bike_id": "e1559c34d6c4592d9d1f081585fd34a4", "is_disabled": 0, "is_reserved": 0}, {"rental_uris": {"ios": "https://dc.lft.to/lastmile_qr_scan", "android": "https://dc.lft.to/lastmile_qr_scan"}, "lon": -77.0804785, "type": "electric_bike", "fusion_lat": 0.0, "lat": 38.84845283333333, "name": "8868c0732b20538a34f269b7fc8d0308", "fusion_lon": 0.0, "bike_id": "8868c0732b20538a34f269b7fc8d0308", "is_disabled": 0, "is_reserved": 0}, {"rental_uris": {"ios": "https://dc.lft.to/lastmile_qr_scan", "android": "https://dc.lft.to/lastmile_qr_scan"}, "lon": -77.03420633333333, "type": "electric_scooter", "fusion_lat": 0.0, "lat": 38.92426233333333, "name": "d41eb08eed760556c4c75686c74fba0f", "fusion_lon": 0.0, "bike_id": "d41eb08eed760556c4c75686c74fba0f", "is_disabled": 0, "is_reserved": 0}, {"rental_uris": {"ios": "https://dc.lft.to/lastmile_qr_scan", "android": "https://dc.lft.to/lastmile_qr_scan"}, "lon": -77.0470195, "type": "electric_scooter", "fusion_lat": 0.0, "lat": 38.90247733333333, "name": "a4861c43c2c7d964a1ea5417f7aa1bf4", "fusion_lon": 0.0, "bike_id": "a4861c43c2c7d964a1ea5417f7aa1bf4", "is_disabled": 0, "is_reserved": 0}, {"rental_uris": {"ios": "https://dc.lft.to/lastmile_qr_scan", "android": "https://dc.lft.to/lastmile_qr_scan"}, "lon": -76.98607566666666, "type": "electric_scooter", "fusion_lat": 0.0, "lat": 38.8783515, "name": "eca57993595e17b5216603462878496f", "fusion_lon": 0.0, "bike_id": "eca57993595e17b5216603462878496f", "is_disabled": 0, "is_reserved": 0}, {"rental_uris": {"ios": "https://dc.lft.to/lastmile_qr_scan", "android": "https://dc.lft.to/lastmile_qr_scan"}, "lon": -77.01113016666666, "type": "electric_scooter", "fusion_lat": 0.0, "lat": 38.8709245, "name": "5f78bda2a1a2109bb0edfa694f95b252", "fusion_lon": 0.0, "bike_id": "5f78bda2a1a2109bb0edfa694f95b252", "is_disabled": 0, "is_reserved": 0}, {"rental_uris": {"ios": "https://dc.lft.to/lastmile_qr_scan", "android": "https://dc.lft.to/lastmile_qr_scan"}, "lon": -76.92848, "type": "electric_scooter", "fusion_lat": 0.0, "lat": 38.8835975, "name": "59fa3590393c8e6b36ff785cf2658fc5", "fusion_lon": 0.0, "bike_id": "59fa3590393c8e6b36ff785cf2658fc5", "is_disabled": 0, "is_reserved": 0}, {"rental_uris": {"ios": "https://dc.lft.to/lastmile_qr_scan", "android": "https://dc.lft.to/lastmile_qr_scan"}, "lon": -77.00334133333334, "type": "electric_bike", "fusion_lat": 0.0, "lat": 38.876574166666664, "name": "b752322cf71bb4a17a1a6eeda2e15777", "fusion_lon": 0.0, "bike_id": "b752322cf71bb4a17a1a6eeda2e15777", "is_disabled": 0, "is_reserved": 0}, {"rental_uris": {"ios": "https://dc.lft.to/lastmile_qr_scan", "android": "https://dc.lft.to/lastmile_qr_scan"}, "lon": -76.92880633333333, "type": "electric_scooter", "fusion_lat": 0.0, "lat": 38.88443866666667, "name": "5d892da3a17aa313db5ccf022fdcc2bb", "fusion_lon": 0.0, "bike_id": "5d892da3a17aa313db5ccf022fdcc2bb", "is_disabled": 0, "is_reserved": 0}, {"rental_uris": {"ios": "https://dc.lft.to/lastmile_qr_scan", "android": "https://dc.lft.to/lastmile_qr_scan"}, "lon": -76.9945985, "type": "electric_scooter", "fusion_lat": 0.0, "lat": 38.8516215, "name": "ba6002a93e39da4b1747310d898dccc5", "fusion_lon": 0.0, "bike_id": "ba6002a93e39da4b1747310d898dccc5", "is_disabled": 0, "is_reserved": 0}, {"rental_uris": {"ios": "https://dc.lft.to/lastmile_qr_scan", "android": "https://dc.lft.to/lastmile_qr_scan"}, "lon": -77.035751, "type": "electric_scooter", "fusion_lat": 0.0, "lat": 38.939749666666664, "name": "e1d40b8a31897e7b160c4fee5c270985", "fusion_lon": 0.0, "bike_id": "e1d40b8a31897e7b160c4fee5c270985", "is_disabled": 0, "is_reserved": 0}, {"rental_uris": {"ios": "https://dc.lft.to/lastmile_qr_scan", "android": "https://dc.lft.to/lastmile_qr_scan"}, "lon": -76.93160866666666, "type": "electric_scooter", "fusion_lat": 0.0, "lat": 38.89875416666667, "name": "d65a1186ed28929710d76e31bc4788ee", "fusion_lon": 0.0, "bike_id": "d65a1186ed28929710d76e31bc4788ee", "is_disabled": 0, "is_reserved": 0}, {"rental_uris": {"ios": "https://dc.lft.to/lastmile_qr_scan", "android": "https://dc.lft.to/lastmile_qr_scan"}, "lon": -77.04828133333334, "type": "electric_scooter", "fusion_lat": 0.0, "lat": 38.90958216666667, "name": "ece245c53930d9d87cf93a5d7dcde475", "fusion_lon": 0.0, "bike_id": "ece245c53930d9d87cf93a5d7dcde475", "is_disabled": 0, "is_reserved": 0}, {"rental_uris": {"ios": "https://dc.lft.to/lastmile_qr_scan", "android": "https://dc.lft.to/lastmile_qr_scan"}, "lon": -76.98748666666667, "type": "electric_scooter", "fusion_lat": 0.0, "lat": 38.910166, "name": "d8de58f91efc9ee197eecfda0b1f9af8", "fusion_lon": 0.0, "bike_id": "d8de58f91efc9ee197eecfda0b1f9af8", "is_disabled": 0, "is_reserved": 0}, {"rental_uris": {"ios": "https://dc.lft.to/lastmile_qr_scan", "android": "https://dc.lft.to/lastmile_qr_scan"}, "lon": -76.94848266666666, "type": "electric_scooter", "fusion_lat": 0.0, "lat": 38.88409166666667, "name": "70d766bf59da62a2e85bee1ef5c51459", "fusion_lon": 0.0, "bike_id": "70d766bf59da62a2e85bee1ef5c51459", "is_disabled": 0, "is_reserved": 0}, {"rental_uris": {"ios": "https://dc.lft.to/lastmile_qr_scan", "android": "https://dc.lft.to/lastmile_qr_scan"}, "lon": -77.034706, "type": "electric_scooter", "fusion_lat": 0.0, "lat": 38.923494166666664, "name": "a2f111b7a02634fe31537d0171f74282", "fusion_lon": 0.0, "bike_id": "a2f111b7a02634fe31537d0171f74282", "is_disabled": 0, "is_reserved": 0}, {"rental_uris": {"ios": "https://dc.lft.to/lastmile_qr_scan", "android": "https://dc.lft.to/lastmile_qr_scan"}, "lon": -77.00603233333334, "type": "electric_scooter", "fusion_lat": 0.0, "lat": 38.8849015, "name": "85a589a7ca3d60f24e493f8368112e14", "fusion_lon": 0.0, "bike_id": "85a589a7ca3d60f24e493f8368112e14", "is_disabled": 0, "is_reserved": 0}, {"rental_uris": {"ios": "https://dc.lft.to/lastmile_qr_scan", "android": "https://dc.lft.to/lastmile_qr_scan"}, "lon": -77.047894, "type": "electric_scooter", "fusion_lat": 0.0, "lat": 38.8995615, "name": "335b7c3140ef4ad9126b6bacb6e0b666", "fusion_lon": 0.0, "bike_id": "335b7c3140ef4ad9126b6bacb6e0b666", "is_disabled": 0, "is_reserved": 0}, {"rental_uris": {"ios": "https://dc.lft.to/lastmile_qr_scan", "android": "https://dc.lft.to/lastmile_qr_scan"}, "lon": -77.02178283333333, "type": "electric_scooter", "fusion_lat": 0.0, "lat": 38.8803935, "name": "97fd1bf5df4f1d830bab808add9d9f79", "fusion_lon": 0.0, "bike_id": "97fd1bf5df4f1d830bab808add9d9f79", "is_disabled": 0, "is_reserved": 0}, {"rental_uris": {"ios": "https://dc.lft.to/lastmile_qr_scan", "android": "https://dc.lft.to/lastmile_qr_scan"}, "lon": -77.0146075, "type": "electric_bike", "fusion_lat": 0.0, "lat": 38.872049833333335, "name": "7928da17de3a1039dd540fded04304f4", "fusion_lon": 0.0, "bike_id": "7928da17de3a1039dd540fded04304f4", "is_disabled": 0, "is_reserved": 0}, {"rental_uris": {"ios": "https://dc.lft.to/lastmile_qr_scan", "android": "https://dc.lft.to/lastmile_qr_scan"}, "lon": -76.973106, "type": "electric_scooter", "fusion_lat": 0.0, "lat": 38.919850833333335, "name": "91f56d6cdf5e602b18c6750690849b9a", "fusion_lon": 0.0, "bike_id": "91f56d6cdf5e602b18c6750690849b9a", "is_disabled": 0, "is_reserved": 0}, {"rental_uris": {"ios": "https://dc.lft.to/lastmile_qr_scan", "android": "https://dc.lft.to/lastmile_qr_scan"}, "lon": -77.02492216666667, "type": "electric_scooter", "fusion_lat": 0.0, "lat": 38.91939883333333, "name": "dff415614b1ceef8509da80ce5c6a597", "fusion_lon": 0.0, "bike_id": "dff415614b1ceef8509da80ce5c6a597", "is_disabled": 0, "is_reserved": 0}, {"rental_uris": {"ios": "https://dc.lft.to/lastmile_qr_scan", "android": "https://dc.lft.to/lastmile_qr_scan"}, "lon": -77.07104833333334, "type": "electric_bike", "fusion_lat": 0.0, "lat": 38.914488666666664, "name": "54e165de93d02c29d80bf9150200624b", "fusion_lon": 0.0, "bike_id": "54e165de93d02c29d80bf9150200624b", "is_disabled": 0, "is_reserved": 0}, {"rental_uris": {"ios": "https://dc.lft.to/lastmile_qr_scan", "android": "https://dc.lft.to/lastmile_qr_scan"}, "lon": -77.03841466666667, "type": "electric_scooter", "fusion_lat": 0.0, "lat": 38.90749483333333, "name": "cd565ffb7377c1b647d2a2b20200b313", "fusion_lon": 0.0, "bike_id": "cd565ffb7377c1b647d2a2b20200b313", "is_disabled": 0, "is_reserved": 0}, {"rental_uris": {"ios": "https://dc.lft.to/lastmile_qr_scan", "android": "https://dc.lft.to/lastmile_qr_scan"}, "lon": -77.04685383333333, "type": "electric_scooter", "fusion_lat": 0.0, "lat": 38.8922115, "name": "95349fc62e56d565b992dc4bf7515e69", "fusion_lon": 0.0, "bike_id": "95349fc62e56d565b992dc4bf7515e69", "is_disabled": 0, "is_reserved": 0}, {"rental_uris": {"ios": "https://dc.lft.to/lastmile_qr_scan", "android": "https://dc.lft.to/lastmile_qr_scan"}, "lon": -77.02544466666667, "type": "electric_scooter", "fusion_lat": 0.0, "lat": 38.9240685, "name": "e6635df6727fc7d67dab50d10d610a0e", "fusion_lon": 0.0, "bike_id": "e6635df6727fc7d67dab50d10d610a0e", "is_disabled": 0, "is_reserved": 0}, {"rental_uris": {"ios": "https://dc.lft.to/lastmile_qr_scan", "android": "https://dc.lft.to/lastmile_qr_scan"}, "lon": -77.07723183333333, "type": "electric_scooter", "fusion_lat": 0.0, "lat": 38.9470755, "name": "623430e2427925b43079a8fc50cc1b7f", "fusion_lon": 0.0, "bike_id": "623430e2427925b43079a8fc50cc1b7f", "is_disabled": 0, "is_reserved": 0}, {"rental_uris": {"ios": "https://dc.lft.to/lastmile_qr_scan", "android": "https://dc.lft.to/lastmile_qr_scan"}, "lon": -77.02779416666667, "type": "electric_scooter", "fusion_lat": 0.0, "lat": 38.953815666666664, "name": "df64240e35f3a4ff455c032fbcd8f5e6", "fusion_lon": 0.0, "bike_id": "df64240e35f3a4ff455c032fbcd8f5e6", "is_disabled": 0, "is_reserved": 0}, {"rental_uris": {"ios": "https://dc.lft.to/lastmile_qr_scan", "android": "https://dc.lft.to/lastmile_qr_scan"}, "lon": -77.0320655, "type": "electric_scooter", "fusion_lat": 0.0, "lat": 38.92005833333333, "name": "1a222f25816f04a8fa8ea13ac2f5f133", "fusion_lon": 0.0, "bike_id": "1a222f25816f04a8fa8ea13ac2f5f133", "is_disabled": 0, "is_reserved": 0}, {"rental_uris": {"ios": "https://dc.lft.to/lastmile_qr_scan", "android": "https://dc.lft.to/lastmile_qr_scan"}, "lon": -76.98096216666667, "type": "electric_bike", "fusion_lat": 0.0, "lat": 38.88134483333333, "name": "40ecb5e3ca01cb5a14ffff83842e386a", "fusion_lon": 0.0, "bike_id": "40ecb5e3ca01cb5a14ffff83842e386a", "is_disabled": 0, "is_reserved": 0}, {"rental_uris": {"ios": "https://dc.lft.to/lastmile_qr_scan", "android": "https://dc.lft.to/lastmile_qr_scan"}, "lon": -77.04155966666667, "type": "electric_scooter", "fusion_lat": 0.0, "lat": 38.91914716666667, "name": "9ac038d6f1d1ee8f879514aa5d4d796b", "fusion_lon": 0.0, "bike_id": "9ac038d6f1d1ee8f879514aa5d4d796b", "is_disabled": 0, "is_reserved": 0}, {"rental_uris": {"ios": "https://dc.lft.to/lastmile_qr_scan", "android": "https://dc.lft.to/lastmile_qr_scan"}, "lon": -77.02566583333333, "type": "electric_scooter", "fusion_lat": 0.0, "lat": 38.92535066666667, "name": "2f25e6c39db6212accb98c946faa8e02", "fusion_lon": 0.0, "bike_id": "2f25e6c39db6212accb98c946faa8e02", "is_disabled": 0, "is_reserved": 0}, {"rental_uris": {"ios": "https://dc.lft.to/lastmile_qr_scan", "android": "https://dc.lft.to/lastmile_qr_scan"}, "lon": -77.01862166666666, "type": "electric_scooter", "fusion_lat": 0.0, "lat": 38.91967416666667, "name": "a3bbc39803aba665bb50b0e8c0ac7fc2", "fusion_lon": 0.0, "bike_id": "a3bbc39803aba665bb50b0e8c0ac7fc2", "is_disabled": 0, "is_reserved": 0}, {"rental_uris": {"ios": "https://dc.lft.to/lastmile_qr_scan", "android": "https://dc.lft.to/lastmile_qr_scan"}, "lon": -77.027284, "type": "electric_scooter", "fusion_lat": 0.0, "lat": 38.924794166666665, "name": "9d3a0a2a607258a0c8347015fb1cb92e", "fusion_lon": 0.0, "bike_id": "9d3a0a2a607258a0c8347015fb1cb92e", "is_disabled": 0, "is_reserved": 0}, {"rental_uris": {"ios": "https://dc.lft.to/lastmile_qr_scan", "android": "https://dc.lft.to/lastmile_qr_scan"}, "lon": -77.02729, "type": "electric_scooter", "fusion_lat": 0.0, "lat": 38.92479983333333, "name": "8bceca691465d7ab0c4c6b39bc124e45", "fusion_lon": 0.0, "bike_id": "8bceca691465d7ab0c4c6b39bc124e45", "is_disabled": 0, "is_reserved": 0}, {"rental_uris": {"ios": "https://dc.lft.to/lastmile_qr_scan", "android": "https://dc.lft.to/lastmile_qr_scan"}, "lon": -77.0438495, "type": "electric_scooter", "fusion_lat": 0.0, "lat": 38.91784633333333, "name": "68d129d4dbe4c1a2876e54ba6ba8743a", "fusion_lon": 0.0, "bike_id": "68d129d4dbe4c1a2876e54ba6ba8743a", "is_disabled": 0, "is_reserved": 0}, {"rental_uris": {"ios": "https://dc.lft.to/lastmile_qr_scan", "android": "https://dc.lft.to/lastmile_qr_scan"}, "lon": -77.03322916666667, "type": "electric_scooter", "fusion_lat": 0.0, "lat": 38.9004585, "name": "fcc6368a830fc51ac68b4b07b9ba6d35", "fusion_lon": 0.0, "bike_id": "fcc6368a830fc51ac68b4b07b9ba6d35", "is_disabled": 0, "is_reserved": 0}, {"rental_uris": {"ios": "https://dc.lft.to/lastmile_qr_scan", "android": "https://dc.lft.to/lastmile_qr_scan"}, "lon": -77.0464585, "type": "electric_bike", "fusion_lat": 0.0, "lat": 38.85210683333333, "name": "771a78196080370b79ae2ef95246a6c3", "fusion_lon": 0.0, "bike_id": "771a78196080370b79ae2ef95246a6c3", "is_disabled": 0, "is_reserved": 0}, {"rental_uris": {"ios": "https://dc.lft.to/lastmile_qr_scan", "android": "https://dc.lft.to/lastmile_qr_scan"}, "lon": -76.94728983333333, "type": "electric_scooter", "fusion_lat": 0.0, "lat": 38.896777166666666, "name": "f8f424913af1a34037c7543ece160188", "fusion_lon": 0.0, "bike_id": "f8f424913af1a34037c7543ece160188", "is_disabled": 0, "is_reserved": 0}, {"rental_uris": {"ios": "https://dc.lft.to/lastmile_qr_scan", "android": "https://dc.lft.to/lastmile_qr_scan"}, "lon": -76.99847483333333, "type": "electric_scooter", "fusion_lat": 0.0, "lat": 38.90003466666667, "name": "fa34012af1b45709e19888f80aeec937", "fusion_lon": 0.0, "bike_id": "fa34012af1b45709e19888f80aeec937", "is_disabled": 0, "is_reserved": 0}, {"rental_uris": {"ios": "https://dc.lft.to/lastmile_qr_scan", "android": "https://dc.lft.to/lastmile_qr_scan"}, "lon": -77.0416995, "type": "electric_scooter", "fusion_lat": 0.0, "lat": 38.905638833333335, "name": "10af13d280db7a9412a6e30988ae72bb", "fusion_lon": 0.0, "bike_id": "10af13d280db7a9412a6e30988ae72bb", "is_disabled": 0, "is_reserved": 0}, {"rental_uris": {"ios": "https://dc.lft.to/lastmile_qr_scan", "android": "https://dc.lft.to/lastmile_qr_scan"}, "lon": -77.04190266666667, "type": "electric_scooter", "fusion_lat": 0.0, "lat": 38.926235, "name": "b8ccef6c24b3b4140810236c8582d3df", "fusion_lon": 0.0, "bike_id": "b8ccef6c24b3b4140810236c8582d3df", "is_disabled": 0, "is_reserved": 0}, {"rental_uris": {"ios": "https://dc.lft.to/lastmile_qr_scan", "android": "https://dc.lft.to/lastmile_qr_scan"}, "lon": -77.05565283333334, "type": "electric_scooter", "fusion_lat": 0.0, "lat": 38.9092415, "name": "ceb18c33744e084fd628af465ada5030", "fusion_lon": 0.0, "bike_id": "ceb18c33744e084fd628af465ada5030", "is_disabled": 0, "is_reserved": 0}, {"rental_uris": {"ios": "https://dc.lft.to/lastmile_qr_scan", "android": "https://dc.lft.to/lastmile_qr_scan"}, "lon": -77.03352866666667, "type": "electric_scooter", "fusion_lat": 0.0, "lat": 38.884994, "name": "3f103497e7a33f8719291dba357f537e", "fusion_lon": 0.0, "bike_id": "3f103497e7a33f8719291dba357f537e", "is_disabled": 0, "is_reserved": 0}, {"rental_uris": {"ios": "https://dc.lft.to/lastmile_qr_scan", "android": "https://dc.lft.to/lastmile_qr_scan"}, "lon": -77.107142, "type": "electric_bike", "fusion_lat": 0.0, "lat": 38.8553765, "name": "258b0530c9ee138e5a181d10aa69c4a6", "fusion_lon": 0.0, "bike_id": "258b0530c9ee138e5a181d10aa69c4a6", "is_disabled": 0, "is_reserved": 0}, {"rental_uris": {"ios": "https://dc.lft.to/lastmile_qr_scan", "android": "https://dc.lft.to/lastmile_qr_scan"}, "lon": -77.04175783333334, "type": "electric_scooter", "fusion_lat": 0.0, "lat": 38.9053945, "name": "07b3220ef0e8263f5f94aeb7d8f617d6", "fusion_lon": 0.0, "bike_id": "07b3220ef0e8263f5f94aeb7d8f617d6", "is_disabled": 0, "is_reserved": 0}, {"rental_uris": {"ios": "https://dc.lft.to/lastmile_qr_scan", "android": "https://dc.lft.to/lastmile_qr_scan"}, "lon": -77.03176966666666, "type": "electric_scooter", "fusion_lat": 0.0, "lat": 38.9126425, "name": "422548560b21227ef28a66058b73dcc2", "fusion_lon": 0.0, "bike_id": "422548560b21227ef28a66058b73dcc2", "is_disabled": 0, "is_reserved": 0}, {"rental_uris": {"ios": "https://dc.lft.to/lastmile_qr_scan", "android": "https://dc.lft.to/lastmile_qr_scan"}, "lon": -76.99516783333334, "type": "electric_scooter", "fusion_lat": 0.0, "lat": 38.894843333333334, "name": "86597a296da5de39efab0c3585adb3aa", "fusion_lon": 0.0, "bike_id": "86597a296da5de39efab0c3585adb3aa", "is_disabled": 0, "is_reserved": 0}, {"rental_uris": {"ios": "https://dc.lft.to/lastmile_qr_scan", "android": "https://dc.lft.to/lastmile_qr_scan"}, "lon": -77.03651633333334, "type": "electric_scooter", "fusion_lat": 0.0, "lat": 38.90798933333333, "name": "2e23686f1ca9f853f6e4cf10fb3a3ca2", "fusion_lon": 0.0, "bike_id": "2e23686f1ca9f853f6e4cf10fb3a3ca2", "is_disabled": 0, "is_reserved": 0}, {"rental_uris": {"ios": "https://dc.lft.to/lastmile_qr_scan", "android": "https://dc.lft.to/lastmile_qr_scan"}, "lon": -77.03288016666667, "type": "electric_scooter", "fusion_lat": 0.0, "lat": 38.938805, "name": "f0e060765dee459999fa9a7ac6f39a24", "fusion_lon": 0.0, "bike_id": "f0e060765dee459999fa9a7ac6f39a24", "is_disabled": 0, "is_reserved": 0}, {"rental_uris": {"ios": "https://dc.lft.to/lastmile_qr_scan", "android": "https://dc.lft.to/lastmile_qr_scan"}, "lon": -77.02957966666666, "type": "electric_scooter", "fusion_lat": 0.0, "lat": 38.91719833333333, "name": "32cca0ae26334db58300ed94a6cd2cbd", "fusion_lon": 0.0, "bike_id": "32cca0ae26334db58300ed94a6cd2cbd", "is_disabled": 0, "is_reserved": 0}, {"rental_uris": {"ios": "https://dc.lft.to/lastmile_qr_scan", "android": "https://dc.lft.to/lastmile_qr_scan"}, "lon": -77.015064, "type": "electric_scooter", "fusion_lat": 0.0, "lat": 38.907197333333336, "name": "0b9c7c1d9965aab89949a9e0e3c23059", "fusion_lon": 0.0, "bike_id": "0b9c7c1d9965aab89949a9e0e3c23059", "is_disabled": 0, "is_reserved": 0}, {"rental_uris": {"ios": "https://dc.lft.to/lastmile_qr_scan", "android": "https://dc.lft.to/lastmile_qr_scan"}, "lon": -77.06923283333333, "type": "electric_bike", "fusion_lat": 0.0, "lat": 38.909782166666666, "name": "42df636d0ab384ce1eb56408bc25f35f", "fusion_lon": 0.0, "bike_id": "42df636d0ab384ce1eb56408bc25f35f", "is_disabled": 0, "is_reserved": 0}, {"rental_uris": {"ios": "https://dc.lft.to/lastmile_qr_scan", "android": "https://dc.lft.to/lastmile_qr_scan"}, "lon": -77.01510283333333, "type": "electric_scooter", "fusion_lat": 0.0, "lat": 38.8873265, "name": "4f8690438e07f5178d2a3e213005392b", "fusion_lon": 0.0, "bike_id": "4f8690438e07f5178d2a3e213005392b", "is_disabled": 0, "is_reserved": 0}, {"rental_uris": {"ios": "https://dc.lft.to/lastmile_qr_scan", "android": "https://dc.lft.to/lastmile_qr_scan"}, "lon": -76.98842066666667, "type": "electric_scooter", "fusion_lat": 0.0, "lat": 38.89289, "name": "83884b9862cbec7313f739bc22d312c1", "fusion_lon": 0.0, "bike_id": "83884b9862cbec7313f739bc22d312c1", "is_disabled": 0, "is_reserved": 0}, {"rental_uris": {"ios": "https://dc.lft.to/lastmile_qr_scan", "android": "https://dc.lft.to/lastmile_qr_scan"}, "lon": -77.03200616666666, "type": "electric_scooter", "fusion_lat": 0.0, "lat": 38.91144033333333, "name": "13382bc69c7cf494407e2ced4c21fbd9", "fusion_lon": 0.0, "bike_id": "13382bc69c7cf494407e2ced4c21fbd9", "is_disabled": 0, "is_reserved": 0}, {"rental_uris": {"ios": "https://dc.lft.to/lastmile_qr_scan", "android": "https://dc.lft.to/lastmile_qr_scan"}, "lon": -77.00734183333333, "type": "electric_scooter", "fusion_lat": 0.0, "lat": 38.87921633333333, "name": "11fb517501e9a7e8fa91aedc8c9bdd53", "fusion_lon": 0.0, "bike_id": "11fb517501e9a7e8fa91aedc8c9bdd53", "is_disabled": 0, "is_reserved": 0}, {"rental_uris": {"ios": "https://dc.lft.to/lastmile_qr_scan", "android": "https://dc.lft.to/lastmile_qr_scan"}, "lon": -76.9951805, "type": "electric_scooter", "fusion_lat": 0.0, "lat": 38.8948225, "name": "72fdf59fb537e1c14fa6293a957974f2", "fusion_lon": 0.0, "bike_id": "72fdf59fb537e1c14fa6293a957974f2", "is_disabled": 0, "is_reserved": 0}, {"rental_uris": {"ios": "https://dc.lft.to/lastmile_qr_scan", "android": "https://dc.lft.to/lastmile_qr_scan"}, "lon": -76.99695266666667, "type": "electric_scooter", "fusion_lat": 0.0, "lat": 38.90070566666667, "name": "a9051922b1fcc78c509c5b657fc45316", "fusion_lon": 0.0, "bike_id": "a9051922b1fcc78c509c5b657fc45316", "is_disabled": 0, "is_reserved": 0}, {"rental_uris": {"ios": "https://dc.lft.to/lastmile_qr_scan", "android": "https://dc.lft.to/lastmile_qr_scan"}, "lon": -76.93229883333333, "type": "electric_bike", "fusion_lat": 0.0, "lat": 38.865945333333336, "name": "fe0609d3f6c47b2fbf59988099dea52f", "fusion_lon": 0.0, "bike_id": "fe0609d3f6c47b2fbf59988099dea52f", "is_disabled": 0, "is_reserved": 0}, {"rental_uris": {"ios": "https://dc.lft.to/lastmile_qr_scan", "android": "https://dc.lft.to/lastmile_qr_scan"}, "lon": -76.94213016666667, "type": "electric_scooter", "fusion_lat": 0.0, "lat": 38.89668916666667, "name": "8fa2e10feb09885075b38437413b63fb", "fusion_lon": 0.0, "bike_id": "8fa2e10feb09885075b38437413b63fb", "is_disabled": 0, "is_reserved": 0}, {"rental_uris": {"ios": "https://dc.lft.to/lastmile_qr_scan", "android": "https://dc.lft.to/lastmile_qr_scan"}, "lon": -77.03419033333333, "type": "electric_scooter", "fusion_lat": 0.0, "lat": 38.91919083333333, "name": "64481595a9f5a7b5176db3aaa9b5c0cb", "fusion_lon": 0.0, "bike_id": "64481595a9f5a7b5176db3aaa9b5c0cb", "is_disabled": 0, "is_reserved": 0}, {"rental_uris": {"ios": "https://dc.lft.to/lastmile_qr_scan", "android": "https://dc.lft.to/lastmile_qr_scan"}, "lon": -77.129619, "type": "electric_bike", "fusion_lat": 0.0, "lat": 38.852178, "name": "8747766bcc85addbba193c51de645cb4", "fusion_lon": 0.0, "bike_id": "8747766bcc85addbba193c51de645cb4", "is_disabled": 0, "is_reserved": 0}, {"rental_uris": {"ios": "https://dc.lft.to/lastmile_qr_scan", "android": "https://dc.lft.to/lastmile_qr_scan"}, "lon": -76.97291816666667, "type": "electric_scooter", "fusion_lat": 0.0, "lat": 38.903365, "name": "101e4ddff11294fd1863f4b46ff365ee", "fusion_lon": 0.0, "bike_id": "101e4ddff11294fd1863f4b46ff365ee", "is_disabled": 0, "is_reserved": 0}, {"rental_uris": {"ios": "https://dc.lft.to/lastmile_qr_scan", "android": "https://dc.lft.to/lastmile_qr_scan"}, "lon": -77.0260215, "type": "electric_scooter", "fusion_lat": 0.0, "lat": 38.92656616666667, "name": "d25143b9e375ee2b161ef6fbbba7c496", "fusion_lon": 0.0, "bike_id": "d25143b9e375ee2b161ef6fbbba7c496", "is_disabled": 0, "is_reserved": 0}, {"rental_uris": {"ios": "https://dc.lft.to/lastmile_qr_scan", "android": "https://dc.lft.to/lastmile_qr_scan"}, "lon": -77.09206633333334, "type": "electric_scooter", "fusion_lat": 0.0, "lat": 38.94130366666667, "name": "8910d974ca2f17635a6e18568b862f3f", "fusion_lon": 0.0, "bike_id": "8910d974ca2f17635a6e18568b862f3f", "is_disabled": 0, "is_reserved": 0}, {"rental_uris": {"ios": "https://dc.lft.to/lastmile_qr_scan", "android": "https://dc.lft.to/lastmile_qr_scan"}, "lon": -77.0033545, "type": "electric_scooter", "fusion_lat": 0.0, "lat": 38.893544166666665, "name": "33bf7bb2c944107fda7bf006a0b8948b", "fusion_lon": 0.0, "bike_id": "33bf7bb2c944107fda7bf006a0b8948b", "is_disabled": 0, "is_reserved": 0}, {"rental_uris": {"ios": "https://dc.lft.to/lastmile_qr_scan", "android": "https://dc.lft.to/lastmile_qr_scan"}, "lon": -77.05476183333333, "type": "electric_scooter", "fusion_lat": 0.0, "lat": 38.893881, "name": "1800a51482d0495c96cf67673ba24ee6", "fusion_lon": 0.0, "bike_id": "1800a51482d0495c96cf67673ba24ee6", "is_disabled": 0, "is_reserved": 0}, {"rental_uris": {"ios": "https://dc.lft.to/lastmile_qr_scan", "android": "https://dc.lft.to/lastmile_qr_scan"}, "lon": -77.04554183333333, "type": "electric_scooter", "fusion_lat": 0.0, "lat": 38.8922415, "name": "5e9b27c9d343dd7dfb17260cb5acc360", "fusion_lon": 0.0, "bike_id": "5e9b27c9d343dd7dfb17260cb5acc360", "is_disabled": 0, "is_reserved": 0}, {"rental_uris": {"ios": "https://dc.lft.to/lastmile_qr_scan", "android": "https://dc.lft.to/lastmile_qr_scan"}, "lon": -77.05323916666667, "type": "electric_scooter", "fusion_lat": 0.0, "lat": 38.90647383333334, "name": "60d9da9982d1f326209c397df37fe81b", "fusion_lon": 0.0, "bike_id": "60d9da9982d1f326209c397df37fe81b", "is_disabled": 0, "is_reserved": 0}, {"rental_uris": {"ios": "https://dc.lft.to/lastmile_qr_scan", "android": "https://dc.lft.to/lastmile_qr_scan"}, "lon": -77.00783183333333, "type": "electric_bike", "fusion_lat": 0.0, "lat": 38.87857966666667, "name": "ff42333d07967018f0fe45c58dcd84de", "fusion_lon": 0.0, "bike_id": "ff42333d07967018f0fe45c58dcd84de", "is_disabled": 0, "is_reserved": 0}, {"rental_uris": {"ios": "https://dc.lft.to/lastmile_qr_scan", "android": "https://dc.lft.to/lastmile_qr_scan"}, "lon": -77.01984016666667, "type": "electric_bike", "fusion_lat": 0.0, "lat": 38.89969583333333, "name": "3e556018b47ad19d9e752cff9e6aa0e1", "fusion_lon": 0.0, "bike_id": "3e556018b47ad19d9e752cff9e6aa0e1", "is_disabled": 0, "is_reserved": 0}, {"rental_uris": {"ios": "https://dc.lft.to/lastmile_qr_scan", "android": "https://dc.lft.to/lastmile_qr_scan"}, "lon": -77.0136075, "type": "electric_scooter", "fusion_lat": 0.0, "lat": 38.9162795, "name": "d98ad56af88ccdd4535d336b6ef49252", "fusion_lon": 0.0, "bike_id": "d98ad56af88ccdd4535d336b6ef49252", "is_disabled": 0, "is_reserved": 0}, {"rental_uris": {"ios": "https://dc.lft.to/lastmile_qr_scan", "android": "https://dc.lft.to/lastmile_qr_scan"}, "lon": -77.052287, "type": "electric_scooter", "fusion_lat": 0.0, "lat": 38.92496166666667, "name": "e4e3401a286a38037100f682f026df5c", "fusion_lon": 0.0, "bike_id": "e4e3401a286a38037100f682f026df5c", "is_disabled": 0, "is_reserved": 0}, {"rental_uris": {"ios": "https://dc.lft.to/lastmile_qr_scan", "android": "https://dc.lft.to/lastmile_qr_scan"}, "lon": -77.0049235, "type": "electric_scooter", "fusion_lat": 0.0, "lat": 38.878847666666665, "name": "3bfb9c6050d4ae3a64a1fe25e1128fba", "fusion_lon": 0.0, "bike_id": "3bfb9c6050d4ae3a64a1fe25e1128fba", "is_disabled": 0, "is_reserved": 0}, {"rental_uris": {"ios": "https://dc.lft.to/lastmile_qr_scan", "android": "https://dc.lft.to/lastmile_qr_scan"}, "lon": -77.00353816666667, "type": "electric_scooter", "fusion_lat": 0.0, "lat": 38.892517833333336, "name": "8cd9f866b298fa894c706305fba5b2ce", "fusion_lon": 0.0, "bike_id": "8cd9f866b298fa894c706305fba5b2ce", "is_disabled": 0, "is_reserved": 0}, {"rental_uris": {"ios": "https://dc.lft.to/lastmile_qr_scan", "android": "https://dc.lft.to/lastmile_qr_scan"}, "lon": -76.98642766666667, "type": "electric_scooter", "fusion_lat": 0.0, "lat": 38.90015533333333, "name": "f63c2d222292e1378b851aabca3cba66", "fusion_lon": 0.0, "bike_id": "f63c2d222292e1378b851aabca3cba66", "is_disabled": 0, "is_reserved": 0}, {"rental_uris": {"ios": "https://dc.lft.to/lastmile_qr_scan", "android": "https://dc.lft.to/lastmile_qr_scan"}, "lon": -77.04126766666667, "type": "electric_scooter", "fusion_lat": 0.0, "lat": 38.93400916666667, "name": "d03d53625cbd8953228b4814a20060a2", "fusion_lon": 0.0, "bike_id": "d03d53625cbd8953228b4814a20060a2", "is_disabled": 0, "is_reserved": 0}, {"rental_uris": {"ios": "https://dc.lft.to/lastmile_qr_scan", "android": "https://dc.lft.to/lastmile_qr_scan"}, "lon": -76.93176166666667, "type": "electric_scooter", "fusion_lat": 0.0, "lat": 38.89882933333333, "name": "b7b6a36ae242e63e0392ff8d074f6cb9", "fusion_lon": 0.0, "bike_id": "b7b6a36ae242e63e0392ff8d074f6cb9", "is_disabled": 0, "is_reserved": 0}, {"rental_uris": {"ios": "https://dc.lft.to/lastmile_qr_scan", "android": "https://dc.lft.to/lastmile_qr_scan"}, "lon": -77.0318115, "type": "electric_scooter", "fusion_lat": 0.0, "lat": 38.91923933333333, "name": "566eb53637dd52a06e56a5f7df2c4ea0", "fusion_lon": 0.0, "bike_id": "566eb53637dd52a06e56a5f7df2c4ea0", "is_disabled": 0, "is_reserved": 0}, {"rental_uris": {"ios": "https://dc.lft.to/lastmile_qr_scan", "android": "https://dc.lft.to/lastmile_qr_scan"}, "lon": -76.9948605, "type": "electric_scooter", "fusion_lat": 0.0, "lat": 38.862340833333334, "name": "c4923e0751790f2db9b32b00ba8f3708", "fusion_lon": 0.0, "bike_id": "c4923e0751790f2db9b32b00ba8f3708", "is_disabled": 0, "is_reserved": 0}, {"rental_uris": {"ios": "https://dc.lft.to/lastmile_qr_scan", "android": "https://dc.lft.to/lastmile_qr_scan"}, "lon": -76.99810733333334, "type": "electric_scooter", "fusion_lat": 0.0, "lat": 38.9002585, "name": "87a37720313145b837d6f6a85c56e7aa", "fusion_lon": 0.0, "bike_id": "87a37720313145b837d6f6a85c56e7aa", "is_disabled": 0, "is_reserved": 0}, {"rental_uris": {"ios": "https://dc.lft.to/lastmile_qr_scan", "android": "https://dc.lft.to/lastmile_qr_scan"}, "lon": -77.02844066666667, "type": "electric_scooter", "fusion_lat": 0.0, "lat": 38.942630666666666, "name": "4b007035e3ff5676c5b03ed132cb7e8e", "fusion_lon": 0.0, "bike_id": "4b007035e3ff5676c5b03ed132cb7e8e", "is_disabled": 0, "is_reserved": 0}, {"rental_uris": {"ios": "https://dc.lft.to/lastmile_qr_scan", "android": "https://dc.lft.to/lastmile_qr_scan"}, "lon": -77.00724933333333, "type": "electric_scooter", "fusion_lat": 0.0, "lat": 38.88489283333333, "name": "1dc4bc1ed2824c61747430b7bb17e6aa", "fusion_lon": 0.0, "bike_id": "1dc4bc1ed2824c61747430b7bb17e6aa", "is_disabled": 0, "is_reserved": 0}, {"rental_uris": {"ios": "https://dc.lft.to/lastmile_qr_scan", "android": "https://dc.lft.to/lastmile_qr_scan"}, "lon": -77.353148, "type": "electric_bike", "fusion_lat": 0.0, "lat": 38.95002083333333, "name": "8a2f39cddf9a34305c5ee8defb693603", "fusion_lon": 0.0, "bike_id": "8a2f39cddf9a34305c5ee8defb693603", "is_disabled": 0, "is_reserved": 0}, {"rental_uris": {"ios": "https://dc.lft.to/lastmile_qr_scan", "android": "https://dc.lft.to/lastmile_qr_scan"}, "lon": -77.03324016666667, "type": "electric_scooter", "fusion_lat": 0.0, "lat": 38.90161366666667, "name": "a64ac5d7032c272e94cc12f2899ad169", "fusion_lon": 0.0, "bike_id": "a64ac5d7032c272e94cc12f2899ad169", "is_disabled": 0, "is_reserved": 0}, {"rental_uris": {"ios": "https://dc.lft.to/lastmile_qr_scan", "android": "https://dc.lft.to/lastmile_qr_scan"}, "lon": -77.04752916666666, "type": "electric_scooter", "fusion_lat": 0.0, "lat": 38.917758, "name": "c8a1bd91193823c9a8102ed4f03ddb4f", "fusion_lon": 0.0, "bike_id": "c8a1bd91193823c9a8102ed4f03ddb4f", "is_disabled": 0, "is_reserved": 0}, {"rental_uris": {"ios": "https://dc.lft.to/lastmile_qr_scan", "android": "https://dc.lft.to/lastmile_qr_scan"}, "lon": -76.977476, "type": "electric_scooter", "fusion_lat": 0.0, "lat": 38.90010566666667, "name": "4798b77493b7968e83d33ad4333e9266", "fusion_lon": 0.0, "bike_id": "4798b77493b7968e83d33ad4333e9266", "is_disabled": 0, "is_reserved": 0}, {"rental_uris": {"ios": "https://dc.lft.to/lastmile_qr_scan", "android": "https://dc.lft.to/lastmile_qr_scan"}, "lon": -76.87826916666667, "type": "electric_bike", "fusion_lat": 0.0, "lat": 38.9922825, "name": "7efbf8fcc1d2f16460a11e6ed477dfd7", "fusion_lon": 0.0, "bike_id": "7efbf8fcc1d2f16460a11e6ed477dfd7", "is_disabled": 0, "is_reserved": 0}, {"rental_uris": {"ios": "https://dc.lft.to/lastmile_qr_scan", "android": "https://dc.lft.to/lastmile_qr_scan"}, "lon": -77.10708716666667, "type": "electric_bike", "fusion_lat": 0.0, "lat": 38.85541933333333, "name": "8a74dda51b7f23d95772dad15aba9658", "fusion_lon": 0.0, "bike_id": "8a74dda51b7f23d95772dad15aba9658", "is_disabled": 0, "is_reserved": 0}, {"rental_uris": {"ios": "https://dc.lft.to/lastmile_qr_scan", "android": "https://dc.lft.to/lastmile_qr_scan"}, "lon": -77.03786733333334, "type": "electric_scooter", "fusion_lat": 0.0, "lat": 38.92621316666666, "name": "e894c3ae08d0d2e96d6b0c993a34571e", "fusion_lon": 0.0, "bike_id": "e894c3ae08d0d2e96d6b0c993a34571e", "is_disabled": 0, "is_reserved": 0}, {"rental_uris": {"ios": "https://dc.lft.to/lastmile_qr_scan", "android": "https://dc.lft.to/lastmile_qr_scan"}, "lon": -76.94635516666666, "type": "electric_scooter", "fusion_lat": 0.0, "lat": 38.89833316666667, "name": "851de91221fbf1505d528410135c8711", "fusion_lon": 0.0, "bike_id": "851de91221fbf1505d528410135c8711", "is_disabled": 0, "is_reserved": 0}, {"rental_uris": {"ios": "https://dc.lft.to/lastmile_qr_scan", "android": "https://dc.lft.to/lastmile_qr_scan"}, "lon": -76.97615583333334, "type": "electric_scooter", "fusion_lat": 0.0, "lat": 38.903833666666664, "name": "21247c346dcce2cb5d30abe8bc0dd2b0", "fusion_lon": 0.0, "bike_id": "21247c346dcce2cb5d30abe8bc0dd2b0", "is_disabled": 0, "is_reserved": 0}, {"rental_uris": {"ios": "https://dc.lft.to/lastmile_qr_scan", "android": "https://dc.lft.to/lastmile_qr_scan"}, "lon": -77.03837966666667, "type": "electric_scooter", "fusion_lat": 0.0, "lat": 38.92176583333333, "name": "5db06dfeda8260e196636e61af07be39", "fusion_lon": 0.0, "bike_id": "5db06dfeda8260e196636e61af07be39", "is_disabled": 0, "is_reserved": 0}, {"rental_uris": {"ios": "https://dc.lft.to/lastmile_qr_scan", "android": "https://dc.lft.to/lastmile_qr_scan"}, "lon": -76.9576185, "type": "electric_bike", "fusion_lat": 0.0, "lat": 38.884168, "name": "ecc92fdf673c4db77ef1a9fe98eed3b1", "fusion_lon": 0.0, "bike_id": "ecc92fdf673c4db77ef1a9fe98eed3b1", "is_disabled": 0, "is_reserved": 0}, {"rental_uris": {"ios": "https://dc.lft.to/lastmile_qr_scan", "android": "https://dc.lft.to/lastmile_qr_scan"}, "lon": -76.94949133333333, "type": "electric_scooter", "fusion_lat": 0.0, "lat": 38.8837775, "name": "580c37c779670ba9c14022a041f057c1", "fusion_lon": 0.0, "bike_id": "580c37c779670ba9c14022a041f057c1", "is_disabled": 0, "is_reserved": 0}, {"rental_uris": {"ios": "https://dc.lft.to/lastmile_qr_scan", "android": "https://dc.lft.to/lastmile_qr_scan"}, "lon": -77.04811383333333, "type": "electric_scooter", "fusion_lat": 0.0, "lat": 38.91642133333333, "name": "ce234a5bb9c324d28e51012384a51306", "fusion_lon": 0.0, "bike_id": "ce234a5bb9c324d28e51012384a51306", "is_disabled": 0, "is_reserved": 0}, {"rental_uris": {"ios": "https://dc.lft.to/lastmile_qr_scan", "android": "https://dc.lft.to/lastmile_qr_scan"}, "lon": -77.0248755, "type": "electric_scooter", "fusion_lat": 0.0, "lat": 38.901762, "name": "a3ff15627bf992fd6c41c1dcc7017660", "fusion_lon": 0.0, "bike_id": "a3ff15627bf992fd6c41c1dcc7017660", "is_disabled": 0, "is_reserved": 0}, {"rental_uris": {"ios": "https://dc.lft.to/lastmile_qr_scan", "android": "https://dc.lft.to/lastmile_qr_scan"}, "lon": -77.02164066666667, "type": "electric_scooter", "fusion_lat": 0.0, "lat": 38.897269, "name": "fc508fc49f417f819468600a0765119f", "fusion_lon": 0.0, "bike_id": "fc508fc49f417f819468600a0765119f", "is_disabled": 0, "is_reserved": 0}, {"rental_uris": {"ios": "https://dc.lft.to/lastmile_qr_scan", "android": "https://dc.lft.to/lastmile_qr_scan"}, "lon": -77.05063833333334, "type": "electric_scooter", "fusion_lat": 0.0, "lat": 38.905458833333334, "name": "a8bebc31b58c611dffb2373193a2916a", "fusion_lon": 0.0, "bike_id": "a8bebc31b58c611dffb2373193a2916a", "is_disabled": 0, "is_reserved": 0}, {"rental_uris": {"ios": "https://dc.lft.to/lastmile_qr_scan", "android": "https://dc.lft.to/lastmile_qr_scan"}, "lon": -77.02990716666666, "type": "electric_bike", "fusion_lat": 0.0, "lat": 38.90026833333334, "name": "16fcb1ecde35d041988d052026543159", "fusion_lon": 0.0, "bike_id": "16fcb1ecde35d041988d052026543159", "is_disabled": 0, "is_reserved": 0}, {"rental_uris": {"ios": "https://dc.lft.to/lastmile_qr_scan", "android": "https://dc.lft.to/lastmile_qr_scan"}, "lon": -77.03838366666666, "type": "electric_scooter", "fusion_lat": 0.0, "lat": 38.9217655, "name": "a3d45aad7a5a8d6a84f6febe6e721563", "fusion_lon": 0.0, "bike_id": "a3d45aad7a5a8d6a84f6febe6e721563", "is_disabled": 0, "is_reserved": 0}, {"rental_uris": {"ios": "https://dc.lft.to/lastmile_qr_scan", "android": "https://dc.lft.to/lastmile_qr_scan"}, "lon": -76.95738183333333, "type": "electric_scooter", "fusion_lat": 0.0, "lat": 38.89218266666666, "name": "041a500d163d261791283ffce47c2f64", "fusion_lon": 0.0, "bike_id": "041a500d163d261791283ffce47c2f64", "is_disabled": 0, "is_reserved": 0}, {"rental_uris": {"ios": "https://dc.lft.to/lastmile_qr_scan", "android": "https://dc.lft.to/lastmile_qr_scan"}, "lon": -77.0378405, "type": "electric_bike", "fusion_lat": 0.0, "lat": 38.99672983333333, "name": "f80d25f2434cfea68e8680d3ee5fd527", "fusion_lon": 0.0, "bike_id": "f80d25f2434cfea68e8680d3ee5fd527", "is_disabled": 0, "is_reserved": 0}, {"rental_uris": {"ios": "https://dc.lft.to/lastmile_qr_scan", "android": "https://dc.lft.to/lastmile_qr_scan"}, "lon": -77.01885983333334, "type": "electric_scooter", "fusion_lat": 0.0, "lat": 38.906134333333334, "name": "5141952d2dceae886bd856510c50ecc3", "fusion_lon": 0.0, "bike_id": "5141952d2dceae886bd856510c50ecc3", "is_disabled": 0, "is_reserved": 0}, {"rental_uris": {"ios": "https://dc.lft.to/lastmile_qr_scan", "android": "https://dc.lft.to/lastmile_qr_scan"}, "lon": -77.05006566666667, "type": "electric_scooter", "fusion_lat": 0.0, "lat": 38.892294, "name": "e60973109870336a5602c34053951b4d", "fusion_lon": 0.0, "bike_id": "e60973109870336a5602c34053951b4d", "is_disabled": 0, "is_reserved": 0}, {"rental_uris": {"ios": "https://dc.lft.to/lastmile_qr_scan", "android": "https://dc.lft.to/lastmile_qr_scan"}, "lon": -77.01536566666667, "type": "electric_scooter", "fusion_lat": 0.0, "lat": 38.88738883333333, "name": "b3b1d0ba0292daeb781047c29b373d47", "fusion_lon": 0.0, "bike_id": "b3b1d0ba0292daeb781047c29b373d47", "is_disabled": 0, "is_reserved": 0}, {"rental_uris": {"ios": "https://dc.lft.to/lastmile_qr_scan", "android": "https://dc.lft.to/lastmile_qr_scan"}, "lon": -77.04301266666667, "type": "electric_scooter", "fusion_lat": 0.0, "lat": 38.9072335, "name": "42afe72a5fcaf666d89b0eb735e6ab09", "fusion_lon": 0.0, "bike_id": "42afe72a5fcaf666d89b0eb735e6ab09", "is_disabled": 0, "is_reserved": 0}, {"rental_uris": {"ios": "https://dc.lft.to/lastmile_qr_scan", "android": "https://dc.lft.to/lastmile_qr_scan"}, "lon": -77.040338, "type": "electric_scooter", "fusion_lat": 0.0, "lat": 38.9243135, "name": "80e052da91d1c4def1afe8b4cb30667c", "fusion_lon": 0.0, "bike_id": "80e052da91d1c4def1afe8b4cb30667c", "is_disabled": 0, "is_reserved": 0}, {"rental_uris": {"ios": "https://dc.lft.to/lastmile_qr_scan", "android": "https://dc.lft.to/lastmile_qr_scan"}, "lon": -77.0135585, "type": "electric_scooter", "fusion_lat": 0.0, "lat": 38.919783, "name": "b202ba5abeae843a7b1048c982060525", "fusion_lon": 0.0, "bike_id": "b202ba5abeae843a7b1048c982060525", "is_disabled": 0, "is_reserved": 0}, {"rental_uris": {"ios": "https://dc.lft.to/lastmile_qr_scan", "android": "https://dc.lft.to/lastmile_qr_scan"}, "lon": -77.13181183333333, "type": "electric_bike", "fusion_lat": 0.0, "lat": 38.86905133333333, "name": "b0377a6fc9c2827358255e351902440b", "fusion_lon": 0.0, "bike_id": "b0377a6fc9c2827358255e351902440b", "is_disabled": 0, "is_reserved": 0}, {"rental_uris": {"ios": "https://dc.lft.to/lastmile_qr_scan", "android": "https://dc.lft.to/lastmile_qr_scan"}, "lon": -77.0326805, "type": "electric_scooter", "fusion_lat": 0.0, "lat": 38.919856333333335, "name": "88cd1e8fb88461009431d6027dec65f4", "fusion_lon": 0.0, "bike_id": "88cd1e8fb88461009431d6027dec65f4", "is_disabled": 0, "is_reserved": 0}, {"rental_uris": {"ios": "https://dc.lft.to/lastmile_qr_scan", "android": "https://dc.lft.to/lastmile_qr_scan"}, "lon": -77.03343566666666, "type": "electric_scooter", "fusion_lat": 0.0, "lat": 38.903336, "name": "08588d7f1120cc8890fef0cde813f848", "fusion_lon": 0.0, "bike_id": "08588d7f1120cc8890fef0cde813f848", "is_disabled": 0, "is_reserved": 0}, {"rental_uris": {"ios": "https://dc.lft.to/lastmile_qr_scan", "android": "https://dc.lft.to/lastmile_qr_scan"}, "lon": -77.02502816666667, "type": "electric_scooter", "fusion_lat": 0.0, "lat": 38.880261, "name": "12a52f44be4600af20a131864047a9e8", "fusion_lon": 0.0, "bike_id": "12a52f44be4600af20a131864047a9e8", "is_disabled": 0, "is_reserved": 0}, {"rental_uris": {"ios": "https://dc.lft.to/lastmile_qr_scan", "android": "https://dc.lft.to/lastmile_qr_scan"}, "lon": -77.03945266666666, "type": "electric_scooter", "fusion_lat": 0.0, "lat": 38.93146316666667, "name": "6da830900bddee5406bd430ac0c730c4", "fusion_lon": 0.0, "bike_id": "6da830900bddee5406bd430ac0c730c4", "is_disabled": 0, "is_reserved": 0}, {"rental_uris": {"ios": "https://dc.lft.to/lastmile_qr_scan", "android": "https://dc.lft.to/lastmile_qr_scan"}, "lon": -77.03033116666667, "type": "electric_scooter", "fusion_lat": 0.0, "lat": 38.89726816666666, "name": "62be22ef3953097ca79b3af219a1e475", "fusion_lon": 0.0, "bike_id": "62be22ef3953097ca79b3af219a1e475", "is_disabled": 0, "is_reserved": 0}, {"rental_uris": {"ios": "https://dc.lft.to/lastmile_qr_scan", "android": "https://dc.lft.to/lastmile_qr_scan"}, "lon": -76.9773365, "type": "electric_scooter", "fusion_lat": 0.0, "lat": 38.872865833333336, "name": "0a49f600a600ee85d058a77afd50b5da", "fusion_lon": 0.0, "bike_id": "0a49f600a600ee85d058a77afd50b5da", "is_disabled": 0, "is_reserved": 0}, {"rental_uris": {"ios": "https://dc.lft.to/lastmile_qr_scan", "android": "https://dc.lft.to/lastmile_qr_scan"}, "lon": -77.02202916666667, "type": "electric_scooter", "fusion_lat": 0.0, "lat": 38.8976605, "name": "ca021680b7b4464f270cb7e494c1abdd", "fusion_lon": 0.0, "bike_id": "ca021680b7b4464f270cb7e494c1abdd", "is_disabled": 0, "is_reserved": 0}, {"rental_uris": {"ios": "https://dc.lft.to/lastmile_qr_scan", "android": "https://dc.lft.to/lastmile_qr_scan"}, "lon": -77.0006405, "type": "electric_scooter", "fusion_lat": 0.0, "lat": 38.900473833333336, "name": "d93bf004904d11adc27597ba7fc0e696", "fusion_lon": 0.0, "bike_id": "d93bf004904d11adc27597ba7fc0e696", "is_disabled": 0, "is_reserved": 0}, {"rental_uris": {"ios": "https://dc.lft.to/lastmile_qr_scan", "android": "https://dc.lft.to/lastmile_qr_scan"}, "lon": -76.9655155, "type": "electric_bike", "fusion_lat": 0.0, "lat": 38.950979333333336, "name": "0ef561d3d9274af9e224784b66210199", "fusion_lon": 0.0, "bike_id": "0ef561d3d9274af9e224784b66210199", "is_disabled": 0, "is_reserved": 0}, {"rental_uris": {"ios": "https://dc.lft.to/lastmile_qr_scan", "android": "https://dc.lft.to/lastmile_qr_scan"}, "lon": -77.00265833333333, "type": "electric_scooter", "fusion_lat": 0.0, "lat": 38.87741666666667, "name": "c85b767d0b32524e604f7e55831c263a", "fusion_lon": 0.0, "bike_id": "c85b767d0b32524e604f7e55831c263a", "is_disabled": 0, "is_reserved": 0}, {"rental_uris": {"ios": "https://dc.lft.to/lastmile_qr_scan", "android": "https://dc.lft.to/lastmile_qr_scan"}, "lon": -77.013784, "type": "electric_scooter", "fusion_lat": 0.0, "lat": 38.9284085, "name": "4857d80f6a289491038388d1231dcd06", "fusion_lon": 0.0, "bike_id": "4857d80f6a289491038388d1231dcd06", "is_disabled": 0, "is_reserved": 0}, {"rental_uris": {"ios": "https://dc.lft.to/lastmile_qr_scan", "android": "https://dc.lft.to/lastmile_qr_scan"}, "lon": -77.051503, "type": "electric_scooter", "fusion_lat": 0.0, "lat": 38.89769583333333, "name": "8c82726cf75a4ae00c5e8e28d83a0cf2", "fusion_lon": 0.0, "bike_id": "8c82726cf75a4ae00c5e8e28d83a0cf2", "is_disabled": 0, "is_reserved": 0}, {"rental_uris": {"ios": "https://dc.lft.to/lastmile_qr_scan", "android": "https://dc.lft.to/lastmile_qr_scan"}, "lon": -77.02952916666666, "type": "electric_scooter", "fusion_lat": 0.0, "lat": 38.90497533333333, "name": "12257256ee711a63b82bd90cd160105e", "fusion_lon": 0.0, "bike_id": "12257256ee711a63b82bd90cd160105e", "is_disabled": 0, "is_reserved": 0}, {"rental_uris": {"ios": "https://dc.lft.to/lastmile_qr_scan", "android": "https://dc.lft.to/lastmile_qr_scan"}, "lon": -77.04951333333334, "type": "electric_scooter", "fusion_lat": 0.0, "lat": 38.8965295, "name": "9ef7aeeaa58c17ac936cded367ed1456", "fusion_lon": 0.0, "bike_id": "9ef7aeeaa58c17ac936cded367ed1456", "is_disabled": 0, "is_reserved": 0}, {"rental_uris": {"ios": "https://dc.lft.to/lastmile_qr_scan", "android": "https://dc.lft.to/lastmile_qr_scan"}, "lon": -77.12741683333333, "type": "electric_bike", "fusion_lat": 0.0, "lat": 38.88823766666667, "name": "5232fcdac53049645dce6f84c0875055", "fusion_lon": 0.0, "bike_id": "5232fcdac53049645dce6f84c0875055", "is_disabled": 0, "is_reserved": 0}, {"rental_uris": {"ios": "https://dc.lft.to/lastmile_qr_scan", "android": "https://dc.lft.to/lastmile_qr_scan"}, "lon": -77.04041883333333, "type": "electric_scooter", "fusion_lat": 0.0, "lat": 38.92564133333333, "name": "fd0459d94e9a2e3bad81d7ba99767174", "fusion_lon": 0.0, "bike_id": "fd0459d94e9a2e3bad81d7ba99767174", "is_disabled": 0, "is_reserved": 0}, {"rental_uris": {"ios": "https://dc.lft.to/lastmile_qr_scan", "android": "https://dc.lft.to/lastmile_qr_scan"}, "lon": -77.031966, "type": "electric_scooter", "fusion_lat": 0.0, "lat": 38.91994, "name": "1f1ab76d318e58902fa467e3be288fc1", "fusion_lon": 0.0, "bike_id": "1f1ab76d318e58902fa467e3be288fc1", "is_disabled": 0, "is_reserved": 0}, {"rental_uris": {"ios": "https://dc.lft.to/lastmile_qr_scan", "android": "https://dc.lft.to/lastmile_qr_scan"}, "lon": -77.01860283333333, "type": "electric_scooter", "fusion_lat": 0.0, "lat": 38.90286066666667, "name": "d1ef1eaab0a1d5661d444fe39a8a15fb", "fusion_lon": 0.0, "bike_id": "d1ef1eaab0a1d5661d444fe39a8a15fb", "is_disabled": 0, "is_reserved": 0}, {"rental_uris": {"ios": "https://dc.lft.to/lastmile_qr_scan", "android": "https://dc.lft.to/lastmile_qr_scan"}, "lon": -77.03267333333334, "type": "electric_scooter", "fusion_lat": 0.0, "lat": 38.914048666666666, "name": "abbd4369eeb2076eb4885c9ce2960fe0", "fusion_lon": 0.0, "bike_id": "abbd4369eeb2076eb4885c9ce2960fe0", "is_disabled": 0, "is_reserved": 0}, {"rental_uris": {"ios": "https://dc.lft.to/lastmile_qr_scan", "android": "https://dc.lft.to/lastmile_qr_scan"}, "lon": -77.03177033333333, "type": "electric_scooter", "fusion_lat": 0.0, "lat": 38.919196166666666, "name": "93abf6e1fab27d36703f46bed4ef59ab", "fusion_lon": 0.0, "bike_id": "93abf6e1fab27d36703f46bed4ef59ab", "is_disabled": 0, "is_reserved": 0}, {"rental_uris": {"ios": "https://dc.lft.to/lastmile_qr_scan", "android": "https://dc.lft.to/lastmile_qr_scan"}, "lon": -77.029754, "type": "electric_scooter", "fusion_lat": 0.0, "lat": 38.90773516666667, "name": "8831a4c9905ae4c888dde45cd1ef4aa6", "fusion_lon": 0.0, "bike_id": "8831a4c9905ae4c888dde45cd1ef4aa6", "is_disabled": 0, "is_reserved": 0}, {"rental_uris": {"ios": "https://dc.lft.to/lastmile_qr_scan", "android": "https://dc.lft.to/lastmile_qr_scan"}, "lon": -77.026654, "type": "electric_scooter", "fusion_lat": 0.0, "lat": 38.9325055, "name": "5cc8ed9d48f820e5012948009571f10a", "fusion_lon": 0.0, "bike_id": "5cc8ed9d48f820e5012948009571f10a", "is_disabled": 0, "is_reserved": 0}, {"rental_uris": {"ios": "https://dc.lft.to/lastmile_qr_scan", "android": "https://dc.lft.to/lastmile_qr_scan"}, "lon": -76.93810683333334, "type": "electric_scooter", "fusion_lat": 0.0, "lat": 38.9130615, "name": "dddc043656d6b624ed6e127c200158ff", "fusion_lon": 0.0, "bike_id": "dddc043656d6b624ed6e127c200158ff", "is_disabled": 0, "is_reserved": 0}, {"rental_uris": {"ios": "https://dc.lft.to/lastmile_qr_scan", "android": "https://dc.lft.to/lastmile_qr_scan"}, "lon": -77.02838383333334, "type": "electric_scooter", "fusion_lat": 0.0, "lat": 38.887678666666666, "name": "867fbfebe33f3db009565ed1d80772b2", "fusion_lon": 0.0, "bike_id": "867fbfebe33f3db009565ed1d80772b2", "is_disabled": 0, "is_reserved": 0}, {"rental_uris": {"ios": "https://dc.lft.to/lastmile_qr_scan", "android": "https://dc.lft.to/lastmile_qr_scan"}, "lon": -77.03169366666667, "type": "electric_scooter", "fusion_lat": 0.0, "lat": 38.89605866666667, "name": "5adaea58b1631083b6a5f8b73b0dab35", "fusion_lon": 0.0, "bike_id": "5adaea58b1631083b6a5f8b73b0dab35", "is_disabled": 0, "is_reserved": 0}, {"rental_uris": {"ios": "https://dc.lft.to/lastmile_qr_scan", "android": "https://dc.lft.to/lastmile_qr_scan"}, "lon": -77.06165783333333, "type": "electric_scooter", "fusion_lat": 0.0, "lat": 38.942248666666664, "name": "8da28643301042ff4648c7cbbc85c51f", "fusion_lon": 0.0, "bike_id": "8da28643301042ff4648c7cbbc85c51f", "is_disabled": 0, "is_reserved": 0}, {"rental_uris": {"ios": "https://dc.lft.to/lastmile_qr_scan", "android": "https://dc.lft.to/lastmile_qr_scan"}, "lon": -77.032383, "type": "electric_scooter", "fusion_lat": 0.0, "lat": 38.909675666666665, "name": "531012649b660d6cd0ba7ac5802096e1", "fusion_lon": 0.0, "bike_id": "531012649b660d6cd0ba7ac5802096e1", "is_disabled": 0, "is_reserved": 0}, {"rental_uris": {"ios": "https://dc.lft.to/lastmile_qr_scan", "android": "https://dc.lft.to/lastmile_qr_scan"}, "lon": -76.9877845, "type": "electric_scooter", "fusion_lat": 0.0, "lat": 38.91172733333333, "name": "7d8aba9c9c497e2753a5ef342736a8c4", "fusion_lon": 0.0, "bike_id": "7d8aba9c9c497e2753a5ef342736a8c4", "is_disabled": 0, "is_reserved": 0}, {"rental_uris": {"ios": "https://dc.lft.to/lastmile_qr_scan", "android": "https://dc.lft.to/lastmile_qr_scan"}, "lon": -76.97890033333333, "type": "electric_scooter", "fusion_lat": 0.0, "lat": 38.91671766666666, "name": "b5a170744265c6e7e496a9f0196e49e7", "fusion_lon": 0.0, "bike_id": "b5a170744265c6e7e496a9f0196e49e7", "is_disabled": 0, "is_reserved": 0}, {"rental_uris": {"ios": "https://dc.lft.to/lastmile_qr_scan", "android": "https://dc.lft.to/lastmile_qr_scan"}, "lon": -76.9373955, "type": "electric_scooter", "fusion_lat": 0.0, "lat": 38.890155166666666, "name": "a5226ea06d1cc88dfe8ca8f096ecde71", "fusion_lon": 0.0, "bike_id": "a5226ea06d1cc88dfe8ca8f096ecde71", "is_disabled": 0, "is_reserved": 0}, {"rental_uris": {"ios": "https://dc.lft.to/lastmile_qr_scan", "android": "https://dc.lft.to/lastmile_qr_scan"}, "lon": -77.03790166666667, "type": "electric_scooter", "fusion_lat": 0.0, "lat": 38.93023433333333, "name": "97a911173ee8f0966d945f78ec0966e8", "fusion_lon": 0.0, "bike_id": "97a911173ee8f0966d945f78ec0966e8", "is_disabled": 0, "is_reserved": 0}, {"rental_uris": {"ios": "https://dc.lft.to/lastmile_qr_scan", "android": "https://dc.lft.to/lastmile_qr_scan"}, "lon": -76.93178016666667, "type": "electric_scooter", "fusion_lat": 0.0, "lat": 38.898829, "name": "2965461e4d441fe65edaf3f99fe07419", "fusion_lon": 0.0, "bike_id": "2965461e4d441fe65edaf3f99fe07419", "is_disabled": 0, "is_reserved": 0}, {"rental_uris": {"ios": "https://dc.lft.to/lastmile_qr_scan", "android": "https://dc.lft.to/lastmile_qr_scan"}, "lon": -77.03935383333334, "type": "electric_scooter", "fusion_lat": 0.0, "lat": 38.898439333333336, "name": "27abca366d9ae790e7e0c2154f2a2575", "fusion_lon": 0.0, "bike_id": "27abca366d9ae790e7e0c2154f2a2575", "is_disabled": 0, "is_reserved": 0}, {"rental_uris": {"ios": "https://dc.lft.to/lastmile_qr_scan", "android": "https://dc.lft.to/lastmile_qr_scan"}, "lon": -77.04215433333333, "type": "electric_scooter", "fusion_lat": 0.0, "lat": 38.91488366666667, "name": "16c582ce1d0f9c5041d32375a5211af4", "fusion_lon": 0.0, "bike_id": "16c582ce1d0f9c5041d32375a5211af4", "is_disabled": 0, "is_reserved": 0}, {"rental_uris": {"ios": "https://dc.lft.to/lastmile_qr_scan", "android": "https://dc.lft.to/lastmile_qr_scan"}, "lon": -77.04647733333333, "type": "electric_scooter", "fusion_lat": 0.0, "lat": 38.915731666666666, "name": "f406ab7777a6315f2768b117374a71d7", "fusion_lon": 0.0, "bike_id": "f406ab7777a6315f2768b117374a71d7", "is_disabled": 0, "is_reserved": 0}, {"rental_uris": {"ios": "https://dc.lft.to/lastmile_qr_scan", "android": "https://dc.lft.to/lastmile_qr_scan"}, "lon": -77.01606, "type": "electric_scooter", "fusion_lat": 0.0, "lat": 38.91127616666667, "name": "c5138026f5e9390bf989ca919813408d", "fusion_lon": 0.0, "bike_id": "c5138026f5e9390bf989ca919813408d", "is_disabled": 0, "is_reserved": 0}, {"rental_uris": {"ios": "https://dc.lft.to/lastmile_qr_scan", "android": "https://dc.lft.to/lastmile_qr_scan"}, "lon": -76.93741633333333, "type": "electric_scooter", "fusion_lat": 0.0, "lat": 38.8901815, "name": "292b47c5e73de71ccc0454d95d955a6e", "fusion_lon": 0.0, "bike_id": "292b47c5e73de71ccc0454d95d955a6e", "is_disabled": 0, "is_reserved": 0}, {"rental_uris": {"ios": "https://dc.lft.to/lastmile_qr_scan", "android": "https://dc.lft.to/lastmile_qr_scan"}, "lon": -77.03095133333333, "type": "electric_scooter", "fusion_lat": 0.0, "lat": 38.900167833333334, "name": "247a368f95d2e197249f1830b7598f60", "fusion_lon": 0.0, "bike_id": "247a368f95d2e197249f1830b7598f60", "is_disabled": 0, "is_reserved": 0}, {"rental_uris": {"ios": "https://dc.lft.to/lastmile_qr_scan", "android": "https://dc.lft.to/lastmile_qr_scan"}, "lon": -77.0793915, "type": "electric_scooter", "fusion_lat": 0.0, "lat": 38.9486, "name": "316aa3adc2cad56d1d6084f90b0b7b65", "fusion_lon": 0.0, "bike_id": "316aa3adc2cad56d1d6084f90b0b7b65", "is_disabled": 0, "is_reserved": 0}, {"rental_uris": {"ios": "https://dc.lft.to/lastmile_qr_scan", "android": "https://dc.lft.to/lastmile_qr_scan"}, "lon": -77.02833683333333, "type": "electric_scooter", "fusion_lat": 0.0, "lat": 38.93240483333334, "name": "32ad842574844cfaf141a676b35036fd", "fusion_lon": 0.0, "bike_id": "32ad842574844cfaf141a676b35036fd", "is_disabled": 0, "is_reserved": 0}, {"rental_uris": {"ios": "https://dc.lft.to/lastmile_qr_scan", "android": "https://dc.lft.to/lastmile_qr_scan"}, "lon": -76.9299855, "type": "electric_bike", "fusion_lat": 0.0, "lat": 38.887934, "name": "f01d15f7547e0ef2e29a44dfce6e6a23", "fusion_lon": 0.0, "bike_id": "f01d15f7547e0ef2e29a44dfce6e6a23", "is_disabled": 0, "is_reserved": 0}, {"rental_uris": {"ios": "https://dc.lft.to/lastmile_qr_scan", "android": "https://dc.lft.to/lastmile_qr_scan"}, "lon": -77.05283783333333, "type": "electric_scooter", "fusion_lat": 0.0, "lat": 38.91012583333333, "name": "28079e26431e19ac7d4f4de9d20c50ac", "fusion_lon": 0.0, "bike_id": "28079e26431e19ac7d4f4de9d20c50ac", "is_disabled": 0, "is_reserved": 0}, {"rental_uris": {"ios": "https://dc.lft.to/lastmile_qr_scan", "android": "https://dc.lft.to/lastmile_qr_scan"}, "lon": -77.0491665, "type": "electric_scooter", "fusion_lat": 0.0, "lat": 38.90075183333333, "name": "7681ee58e0895c206266021e74af4f15", "fusion_lon": 0.0, "bike_id": "7681ee58e0895c206266021e74af4f15", "is_disabled": 0, "is_reserved": 0}, {"rental_uris": {"ios": "https://dc.lft.to/lastmile_qr_scan", "android": "https://dc.lft.to/lastmile_qr_scan"}, "lon": -77.0071875, "type": "electric_scooter", "fusion_lat": 0.0, "lat": 38.913450166666664, "name": "0a3c15377e176b6fb54b550306d656d5", "fusion_lon": 0.0, "bike_id": "0a3c15377e176b6fb54b550306d656d5", "is_disabled": 0, "is_reserved": 0}, {"rental_uris": {"ios": "https://dc.lft.to/lastmile_qr_scan", "android": "https://dc.lft.to/lastmile_qr_scan"}, "lon": -77.00189416666667, "type": "electric_scooter", "fusion_lat": 0.0, "lat": 38.90828283333333, "name": "67cc27024687128fe2be42e9e1b6c112", "fusion_lon": 0.0, "bike_id": "67cc27024687128fe2be42e9e1b6c112", "is_disabled": 0, "is_reserved": 0}, {"rental_uris": {"ios": "https://dc.lft.to/lastmile_qr_scan", "android": "https://dc.lft.to/lastmile_qr_scan"}, "lon": -77.019024, "type": "electric_scooter", "fusion_lat": 0.0, "lat": 38.905553166666664, "name": "39275eb212a8387a0aebd84032624807", "fusion_lon": 0.0, "bike_id": "39275eb212a8387a0aebd84032624807", "is_disabled": 0, "is_reserved": 0}, {"rental_uris": {"ios": "https://dc.lft.to/lastmile_qr_scan", "android": "https://dc.lft.to/lastmile_qr_scan"}, "lon": -77.01596166666667, "type": "electric_scooter", "fusion_lat": 0.0, "lat": 38.89621416666667, "name": "fc80ab323352c0f57c3c83521e333e78", "fusion_lon": 0.0, "bike_id": "fc80ab323352c0f57c3c83521e333e78", "is_disabled": 0, "is_reserved": 0}, {"rental_uris": {"ios": "https://dc.lft.to/lastmile_qr_scan", "android": "https://dc.lft.to/lastmile_qr_scan"}, "lon": -77.02621783333333, "type": "electric_scooter", "fusion_lat": 0.0, "lat": 38.91912766666667, "name": "22971e33c56a22f29bade235a77c03a2", "fusion_lon": 0.0, "bike_id": "22971e33c56a22f29bade235a77c03a2", "is_disabled": 0, "is_reserved": 0}, {"rental_uris": {"ios": "https://dc.lft.to/lastmile_qr_scan", "android": "https://dc.lft.to/lastmile_qr_scan"}, "lon": -76.99549183333333, "type": "electric_scooter", "fusion_lat": 0.0, "lat": 38.90027716666667, "name": "018e7a6637cf0ddead15a45d0ac8bbf6", "fusion_lon": 0.0, "bike_id": "018e7a6637cf0ddead15a45d0ac8bbf6", "is_disabled": 0, "is_reserved": 0}, {"rental_uris": {"ios": "https://dc.lft.to/lastmile_qr_scan", "android": "https://dc.lft.to/lastmile_qr_scan"}, "lon": -77.03353166666666, "type": "electric_scooter", "fusion_lat": 0.0, "lat": 38.88508433333333, "name": "1d124229e71d39c9bbb2b01316fdddb2", "fusion_lon": 0.0, "bike_id": "1d124229e71d39c9bbb2b01316fdddb2", "is_disabled": 0, "is_reserved": 0}, {"rental_uris": {"ios": "https://dc.lft.to/lastmile_qr_scan", "android": "https://dc.lft.to/lastmile_qr_scan"}, "lon": -77.00673916666666, "type": "electric_scooter", "fusion_lat": 0.0, "lat": 38.874833, "name": "69bd2d065c3897784b28443dbf0d1093", "fusion_lon": 0.0, "bike_id": "69bd2d065c3897784b28443dbf0d1093", "is_disabled": 0, "is_reserved": 0}, {"rental_uris": {"ios": "https://dc.lft.to/lastmile_qr_scan", "android": "https://dc.lft.to/lastmile_qr_scan"}, "lon": -77.02978433333334, "type": "electric_scooter", "fusion_lat": 0.0, "lat": 38.962306, "name": "df2f000b34dd45e69a33b221df304f87", "fusion_lon": 0.0, "bike_id": "df2f000b34dd45e69a33b221df304f87", "is_disabled": 0, "is_reserved": 0}, {"rental_uris": {"ios": "https://dc.lft.to/lastmile_qr_scan", "android": "https://dc.lft.to/lastmile_qr_scan"}, "lon": -77.17849483333333, "type": "electric_bike", "fusion_lat": 0.0, "lat": 39.0889895, "name": "d27e5ceb00dd3881174e12554879866e", "fusion_lon": 0.0, "bike_id": "d27e5ceb00dd3881174e12554879866e", "is_disabled": 0, "is_reserved": 0}, {"rental_uris": {"ios": "https://dc.lft.to/lastmile_qr_scan", "android": "https://dc.lft.to/lastmile_qr_scan"}, "lon": -77.04422233333334, "type": "electric_scooter", "fusion_lat": 0.0, "lat": 38.89222066666667, "name": "d74f2020498dcf0fc00359f3c2a1d92d", "fusion_lon": 0.0, "bike_id": "d74f2020498dcf0fc00359f3c2a1d92d", "is_disabled": 0, "is_reserved": 0}, {"rental_uris": {"ios": "https://dc.lft.to/lastmile_qr_scan", "android": "https://dc.lft.to/lastmile_qr_scan"}, "lon": -77.04108033333333, "type": "electric_scooter", "fusion_lat": 0.0, "lat": 38.91852566666667, "name": "90b868c330e22dbc63981321a0dc8636", "fusion_lon": 0.0, "bike_id": "90b868c330e22dbc63981321a0dc8636", "is_disabled": 0, "is_reserved": 0}, {"rental_uris": {"ios": "https://dc.lft.to/lastmile_qr_scan", "android": "https://dc.lft.to/lastmile_qr_scan"}, "lon": -77.03831183333334, "type": "electric_scooter", "fusion_lat": 0.0, "lat": 38.911054166666666, "name": "1c5de4bc685d521ed1e7ce485b0a996b", "fusion_lon": 0.0, "bike_id": "1c5de4bc685d521ed1e7ce485b0a996b", "is_disabled": 0, "is_reserved": 0}, {"rental_uris": {"ios": "https://dc.lft.to/lastmile_qr_scan", "android": "https://dc.lft.to/lastmile_qr_scan"}, "lon": -77.08536666666667, "type": "electric_bike", "fusion_lat": 0.0, "lat": 38.8561985, "name": "a337fbae4e375db90da86bcb029ff55b", "fusion_lon": 0.0, "bike_id": "a337fbae4e375db90da86bcb029ff55b", "is_disabled": 0, "is_reserved": 0}, {"rental_uris": {"ios": "https://dc.lft.to/lastmile_qr_scan", "android": "https://dc.lft.to/lastmile_qr_scan"}, "lon": -77.00724916666667, "type": "electric_scooter", "fusion_lat": 0.0, "lat": 38.88489666666667, "name": "36d0d1b6b0e7baed1614a895cec3dee0", "fusion_lon": 0.0, "bike_id": "36d0d1b6b0e7baed1614a895cec3dee0", "is_disabled": 0, "is_reserved": 0}, {"rental_uris": {"ios": "https://dc.lft.to/lastmile_qr_scan", "android": "https://dc.lft.to/lastmile_qr_scan"}, "lon": -77.03193816666666, "type": "electric_scooter", "fusion_lat": 0.0, "lat": 38.9307105, "name": "26cefd5a3a6ddbe298805f9e12ab4807", "fusion_lon": 0.0, "bike_id": "26cefd5a3a6ddbe298805f9e12ab4807", "is_disabled": 0, "is_reserved": 0}, {"rental_uris": {"ios": "https://dc.lft.to/lastmile_qr_scan", "android": "https://dc.lft.to/lastmile_qr_scan"}, "lon": -77.03464883333334, "type": "electric_scooter", "fusion_lat": 0.0, "lat": 38.93452966666667, "name": "6625698ba71345895194e486e2e3846e", "fusion_lon": 0.0, "bike_id": "6625698ba71345895194e486e2e3846e", "is_disabled": 0, "is_reserved": 0}, {"rental_uris": {"ios": "https://dc.lft.to/lastmile_qr_scan", "android": "https://dc.lft.to/lastmile_qr_scan"}, "lon": -76.93618533333333, "type": "electric_bike", "fusion_lat": 0.0, "lat": 38.970508333333335, "name": "c7570159d7efe79152ef233bca3a8708", "fusion_lon": 0.0, "bike_id": "c7570159d7efe79152ef233bca3a8708", "is_disabled": 0, "is_reserved": 0}, {"rental_uris": {"ios": "https://dc.lft.to/lastmile_qr_scan", "android": "https://dc.lft.to/lastmile_qr_scan"}, "lon": -77.00781266666667, "type": "electric_scooter", "fusion_lat": 0.0, "lat": 38.870833833333336, "name": "636a989c44b0d308192b45cb5c854d02", "fusion_lon": 0.0, "bike_id": "636a989c44b0d308192b45cb5c854d02", "is_disabled": 0, "is_reserved": 0}, {"rental_uris": {"ios": "https://dc.lft.to/lastmile_qr_scan", "android": "https://dc.lft.to/lastmile_qr_scan"}, "lon": -77.0790535, "type": "electric_bike", "fusion_lat": 0.0, "lat": 38.83933833333333, "name": "70417b4310a50153bb536d811a51f2f2", "fusion_lon": 0.0, "bike_id": "70417b4310a50153bb536d811a51f2f2", "is_disabled": 0, "is_reserved": 0}, {"rental_uris": {"ios": "https://dc.lft.to/lastmile_qr_scan", "android": "https://dc.lft.to/lastmile_qr_scan"}, "lon": -77.02352583333334, "type": "electric_scooter", "fusion_lat": 0.0, "lat": 38.933811666666664, "name": "d6bec37e0f899919461cab2640193757", "fusion_lon": 0.0, "bike_id": "d6bec37e0f899919461cab2640193757", "is_disabled": 0, "is_reserved": 0}, {"rental_uris": {"ios": "https://dc.lft.to/lastmile_qr_scan", "android": "https://dc.lft.to/lastmile_qr_scan"}, "lon": -77.01222733333333, "type": "electric_scooter", "fusion_lat": 0.0, "lat": 38.913133, "name": "23149612c3642d0feeed12cca4e6800e", "fusion_lon": 0.0, "bike_id": "23149612c3642d0feeed12cca4e6800e", "is_disabled": 0, "is_reserved": 0}, {"rental_uris": {"ios": "https://dc.lft.to/lastmile_qr_scan", "android": "https://dc.lft.to/lastmile_qr_scan"}, "lon": -77.11437416666666, "type": "electric_bike", "fusion_lat": 0.0, "lat": 38.843164, "name": "9f5e556bc2131baaee4b5dd20773c3c0", "fusion_lon": 0.0, "bike_id": "9f5e556bc2131baaee4b5dd20773c3c0", "is_disabled": 0, "is_reserved": 0}, {"rental_uris": {"ios": "https://dc.lft.to/lastmile_qr_scan", "android": "https://dc.lft.to/lastmile_qr_scan"}, "lon": -77.0508705, "type": "electric_bike", "fusion_lat": 0.0, "lat": 38.81328283333333, "name": "2644e0e13bd8886c66b2bc6ed52ca314", "fusion_lon": 0.0, "bike_id": "2644e0e13bd8886c66b2bc6ed52ca314", "is_disabled": 0, "is_reserved": 0}, {"rental_uris": {"ios": "https://dc.lft.to/lastmile_qr_scan", "android": "https://dc.lft.to/lastmile_qr_scan"}, "lon": -77.0144025, "type": "electric_scooter", "fusion_lat": 0.0, "lat": 38.91962383333333, "name": "d237bcc56ae6a31253b2148a9e7d782b", "fusion_lon": 0.0, "bike_id": "d237bcc56ae6a31253b2148a9e7d782b", "is_disabled": 0, "is_reserved": 0}, {"rental_uris": {"ios": "https://dc.lft.to/lastmile_qr_scan", "android": "https://dc.lft.to/lastmile_qr_scan"}, "lon": -77.02977283333334, "type": "electric_scooter", "fusion_lat": 0.0, "lat": 38.8956785, "name": "f1a9b7188b504160537d6d74cd07f4f8", "fusion_lon": 0.0, "bike_id": "f1a9b7188b504160537d6d74cd07f4f8", "is_disabled": 0, "is_reserved": 0}, {"rental_uris": {"ios": "https://dc.lft.to/lastmile_qr_scan", "android": "https://dc.lft.to/lastmile_qr_scan"},