{"data": {"bikes": [{"is_disabled": 0, "fusion_lon": 0.0, "fusion_lat": 0.0, "lat": 38.9077595, "type": "electric_scooter", "lon": -77.03184666666667, "bike_id": "a169bc50296bda0efd6694174c3627b5", "rental_uris": {"android": "https://dc.lft.to/lastmile_qr_scan", "ios": "https://dc.lft.to/lastmile_qr_scan"}, "name": "a169bc50296bda0efd6694174c3627b5", "is_reserved": 0}, {"is_disabled": 0, "fusion_lon": 0.0, "fusion_lat": 0.0, "lat": 38.902669, "type": "electric_scooter", "lon": -77.053286, "bike_id": "cbcdf23cecd1b4e52e18c45fe6fba3a1", "rental_uris": {"android": "https://dc.lft.to/lastmile_qr_scan", "ios": "https://dc.lft.to/lastmile_qr_scan"}, "name": "cbcdf23cecd1b4e52e18c45fe6fba3a1", "is_reserved": 0}, {"is_disabled": 0, "fusion_lon": 0.0, "fusion_lat": 0.0, "lat": 38.9112115, "type": "electric_scooter", "lon": -77.05933116666667, "bike_id": "16a8787b5585ad4627d4e772eaae9c8e", "rental_uris": {"android": "https://dc.lft.to/lastmile_qr_scan", "ios": "https://dc.lft.to/lastmile_qr_scan"}, "name": "16a8787b5585ad4627d4e772eaae9c8e", "is_reserved": 0}, {"is_disabled": 0, "fusion_lon": 0.0, "fusion_lat": 0.0, "lat": 38.896793833333334, "type": "electric_scooter", "lon": -77.01162166666667, "bike_id": "db0d0bbfdde7c129721479ade29b0b6f", "rental_uris": {"android": "https://dc.lft.to/lastmile_qr_scan", "ios": "https://dc.lft.to/lastmile_qr_scan"}, "name": "db0d0bbfdde7c129721479ade29b0b6f", "is_reserved": 0}, {"is_disabled": 0, "fusion_lon": 0.0, "fusion_lat": 0.0, "lat": 38.872921166666664, "type": "electric_scooter", "lon": -77.00987083333334, "bike_id": "e13bb2e2b4261ef3ece132282b4fbe50", "rental_uris": {"android": "https://dc.lft.to/lastmile_qr_scan", "ios": "https://dc.lft.to/lastmile_qr_scan"}, "name": "e13bb2e2b4261ef3ece132282b4fbe50", "is_reserved": 0}, {"is_disabled": 0, "fusion_lon": 0.0, "fusion_lat": 0.0, "lat": 38.88484316666667, "type": "electric_scooter", "lon": -76.92971883333334, "bike_id": "d592477e302ce454d18139be25207fb8", "rental_uris": {"android": "https://dc.lft.to/lastmile_qr_scan", "ios": "https://dc.lft.to/lastmile_qr_scan"}, "name": "d592477e302ce454d18139be25207fb8", "is_reserved": 0}, {"is_disabled": 0, "fusion_lon": 0.0, "fusion_lat": 0.0, "lat": 38.895701833333334, "type": "electric_scooter", "lon": -77.021567, "bike_id": "7cd903d0b55b80f9bab26b707aa0d6e6", "rental_uris": {"android": "https://dc.lft.to/lastmile_qr_scan", "ios": "https://dc.lft.to/lastmile_qr_scan"}, "name": "7cd903d0b55b80f9bab26b707aa0d6e6", "is_reserved": 0}, {"is_disabled": 0, "fusion_lon": 0.0, "fusion_lat": 0.0, "lat": 38.921602, "type": "electric_scooter", "lon": -77.03408166666667, "bike_id": "204e9dabb204295a4937cb517108c559", "rental_uris": {"android": "https://dc.lft.to/lastmile_qr_scan", "ios": "https://dc.lft.to/lastmile_qr_scan"}, "name": "204e9dabb204295a4937cb517108c559", "is_reserved": 0}, {"is_disabled": 0, "fusion_lon": 0.0, "fusion_lat": 0.0, "lat": 39.00791066666667, "type": "electric_bike", "lon": -76.99570366666667, "bike_id": "6675d4bccf84801f1459a32337555c02", "rental_uris": {"android": "https://dc.lft.to/lastmile_qr_scan", "ios": "https://dc.lft.to/lastmile_qr_scan"}, "name": "6675d4bccf84801f1459a32337555c02", "is_reserved": 0}, {"is_disabled": 0, "fusion_lon": 0.0, "fusion_lat": 0.0, "lat": 38.91724266666667, "type": "electric_scooter", "lon": -77.0299245, "bike_id": "1c51afe2a851e29911fb855d86eeb6fd", "rental_uris": {"android": "https://dc.lft.to/lastmile_qr_scan", "ios": "https://dc.lft.to/lastmile_qr_scan"}, "name": "1c51afe2a851e29911fb855d86eeb6fd", "is_reserved": 0}, {"is_disabled": 0, "fusion_lon": 0.0, "fusion_lat": 0.0, "lat": 38.834332, "type": "electric_bike", "lon": -77.103513, "bike_id": "95f2717014ab5e3840215683d2316f2f", "rental_uris": {"android": "https://dc.lft.to/lastmile_qr_scan", "ios": "https://dc.lft.to/lastmile_qr_scan"}, "name": "95f2717014ab5e3840215683d2316f2f", "is_reserved": 0}, {"is_disabled": 0, "fusion_lon": 0.0, "fusion_lat": 0.0, "lat": 38.90277183333333, "type": "electric_scooter", "lon": -77.01741366666667, "bike_id": "ac0a663d241d70b9f8c57b0cec45a725", "rental_uris": {"android": "https://dc.lft.to/lastmile_qr_scan", "ios": "https://dc.lft.to/lastmile_qr_scan"}, "name": "ac0a663d241d70b9f8c57b0cec45a725", "is_reserved": 0}, {"is_disabled": 0, "fusion_lon": 0.0, "fusion_lat": 0.0, "lat": 38.939611, "type": "electric_scooter", "lon": -77.03260766666666, "bike_id": "08981eedff494b49955c1eeabb1f6b21", "rental_uris": {"android": "https://dc.lft.to/lastmile_qr_scan", "ios": "https://dc.lft.to/lastmile_qr_scan"}, "name": "08981eedff494b49955c1eeabb1f6b21", "is_reserved": 0}, {"is_disabled": 0, "fusion_lon": 0.0, "fusion_lat": 0.0, "lat": 38.90075983333333, "type": "electric_scooter", "lon": -77.0491485, "bike_id": "56644b9bcba8ef3bdbb643d549e0eb5b", "rental_uris": {"android": "https://dc.lft.to/lastmile_qr_scan", "ios": "https://dc.lft.to/lastmile_qr_scan"}, "name": "56644b9bcba8ef3bdbb643d549e0eb5b", "is_reserved": 0}, {"is_disabled": 0, "fusion_lon": 0.0, "fusion_lat": 0.0, "lat": 38.90638933333334, "type": "electric_scooter", "lon": -77.04526633333333, "bike_id": "f9bd9d0bb36eb4cff8e0bc5fcd6cab52", "rental_uris": {"android": "https://dc.lft.to/lastmile_qr_scan", "ios": "https://dc.lft.to/lastmile_qr_scan"}, "name": "f9bd9d0bb36eb4cff8e0bc5fcd6cab52", "is_reserved": 0}, {"is_disabled": 0, "fusion_lon": 0.0, "fusion_lat": 0.0, "lat": 38.905128500000004, "type": "electric_scooter", "lon": -76.98254633333333, "bike_id": "1bc454cbe783bc17bfc38f0599d22561", "rental_uris": {"android": "https://dc.lft.to/lastmile_qr_scan", "ios": "https://dc.lft.to/lastmile_qr_scan"}, "name": "1bc454cbe783bc17bfc38f0599d22561", "is_reserved": 0}, {"is_disabled": 0, "fusion_lon": 0.0, "fusion_lat": 0.0, "lat": 38.911052, "type": "electric_scooter", "lon": -77.03553166666667, "bike_id": "9fd208badb22388d90ee2d117ca8e9a9", "rental_uris": {"android": "https://dc.lft.to/lastmile_qr_scan", "ios": "https://dc.lft.to/lastmile_qr_scan"}, "name": "9fd208badb22388d90ee2d117ca8e9a9", "is_reserved": 0}, {"is_disabled": 0, "fusion_lon": 0.0, "fusion_lat": 0.0, "lat": 38.91693566666667, "type": "electric_scooter", "lon": -77.0259655, "bike_id": "a0f93c5a37edf3cd8d98e4c095fc1fae", "rental_uris": {"android": "https://dc.lft.to/lastmile_qr_scan", "ios": "https://dc.lft.to/lastmile_qr_scan"}, "name": "a0f93c5a37edf3cd8d98e4c095fc1fae", "is_reserved": 0}, {"is_disabled": 0, "fusion_lon": 0.0, "fusion_lat": 0.0, "lat": 38.896493166666666, "type": "electric_scooter", "lon": -77.0092235, "bike_id": "200db709e539e10bef94c92ce3f69228", "rental_uris": {"android": "https://dc.lft.to/lastmile_qr_scan", "ios": "https://dc.lft.to/lastmile_qr_scan"}, "name": "200db709e539e10bef94c92ce3f69228", "is_reserved": 0}, {"is_disabled": 0, "fusion_lon": 0.0, "fusion_lat": 0.0, "lat": 38.8984155, "type": "electric_scooter", "lon": -77.00726566666667, "bike_id": "b5c8080d54c78f1776cd8359c6b49b50", "rental_uris": {"android": "https://dc.lft.to/lastmile_qr_scan", "ios": "https://dc.lft.to/lastmile_qr_scan"}, "name": "b5c8080d54c78f1776cd8359c6b49b50", "is_reserved": 0}, {"is_disabled": 0, "fusion_lon": 0.0, "fusion_lat": 0.0, "lat": 38.900341, "type": "electric_scooter", "lon": -77.012056, "bike_id": "6a5f55a15c2eff583bfea04763886587", "rental_uris": {"android": "https://dc.lft.to/lastmile_qr_scan", "ios": "https://dc.lft.to/lastmile_qr_scan"}, "name": "6a5f55a15c2eff583bfea04763886587", "is_reserved": 0}, {"is_disabled": 0, "fusion_lon": 0.0, "fusion_lat": 0.0, "lat": 38.98137966666667, "type": "electric_bike", "lon": -77.00772016666667, "bike_id": "e1f279b944e5ba4c763f6d7ca52dd62b", "rental_uris": {"android": "https://dc.lft.to/lastmile_qr_scan", "ios": "https://dc.lft.to/lastmile_qr_scan"}, "name": "e1f279b944e5ba4c763f6d7ca52dd62b", "is_reserved": 0}, {"is_disabled": 0, "fusion_lon": 0.0, "fusion_lat": 0.0, "lat": 38.914145500000004, "type": "electric_scooter", "lon": -77.03581916666667, "bike_id": "d57fede3cc9a0a4aa3f75f34f57adb16", "rental_uris": {"android": "https://dc.lft.to/lastmile_qr_scan", "ios": "https://dc.lft.to/lastmile_qr_scan"}, "name": "d57fede3cc9a0a4aa3f75f34f57adb16", "is_reserved": 0}, {"is_disabled": 0, "fusion_lon": 0.0, "fusion_lat": 0.0, "lat": 38.863504166666665, "type": "electric_scooter", "lon": -76.99062166666667, "bike_id": "ac0c2ab2c8bdedb05e5f3e8e79dd1978", "rental_uris": {"android": "https://dc.lft.to/lastmile_qr_scan", "ios": "https://dc.lft.to/lastmile_qr_scan"}, "name": "ac0c2ab2c8bdedb05e5f3e8e79dd1978", "is_reserved": 0}, {"is_disabled": 0, "fusion_lon": 0.0, "fusion_lat": 0.0, "lat": 38.90578083333333, "type": "electric_scooter", "lon": -77.05136016666667, "bike_id": "fc1dd7a9ccbba9600b5e9535537e2ca9", "rental_uris": {"android": "https://dc.lft.to/lastmile_qr_scan", "ios": "https://dc.lft.to/lastmile_qr_scan"}, "name": "fc1dd7a9ccbba9600b5e9535537e2ca9", "is_reserved": 0}, {"is_disabled": 0, "fusion_lon": 0.0, "fusion_lat": 0.0, "lat": 38.89924933333333, "type": "electric_scooter", "lon": -77.03909566666667, "bike_id": "a9efd947e9cc50f55652da8d37bd8397", "rental_uris": {"android": "https://dc.lft.to/lastmile_qr_scan", "ios": "https://dc.lft.to/lastmile_qr_scan"}, "name": "a9efd947e9cc50f55652da8d37bd8397", "is_reserved": 0}, {"is_disabled": 0, "fusion_lon": 0.0, "fusion_lat": 0.0, "lat": 38.9354755, "type": "electric_scooter", "lon": -77.05807266666666, "bike_id": "904a5af8d2b804cb7c801cb6763163a2", "rental_uris": {"android": "https://dc.lft.to/lastmile_qr_scan", "ios": "https://dc.lft.to/lastmile_qr_scan"}, "name": "904a5af8d2b804cb7c801cb6763163a2", "is_reserved": 0}, {"is_disabled": 0, "fusion_lon": 0.0, "fusion_lat": 0.0, "lat": 38.877758666666665, "type": "electric_scooter", "lon": -77.01435166666667, "bike_id": "d32d09e3ee28dfc988194a4009fa0c1b", "rental_uris": {"android": "https://dc.lft.to/lastmile_qr_scan", "ios": "https://dc.lft.to/lastmile_qr_scan"}, "name": "d32d09e3ee28dfc988194a4009fa0c1b", "is_reserved": 0}, {"is_disabled": 0, "fusion_lon": 0.0, "fusion_lat": 0.0, "lat": 38.848949166666664, "type": "electric_scooter", "lon": -77.00522916666667, "bike_id": "e9bc0cc4574d9f92b7613e5c4162b51a", "rental_uris": {"android": "https://dc.lft.to/lastmile_qr_scan", "ios": "https://dc.lft.to/lastmile_qr_scan"}, "name": "e9bc0cc4574d9f92b7613e5c4162b51a", "is_reserved": 0}, {"is_disabled": 0, "fusion_lon": 0.0, "fusion_lat": 0.0, "lat": 38.91346716666666, "type": "electric_scooter", "lon": -77.04179816666667, "bike_id": "24daa44ddce0163c8be31ac30f6f1d1d", "rental_uris": {"android": "https://dc.lft.to/lastmile_qr_scan", "ios": "https://dc.lft.to/lastmile_qr_scan"}, "name": "24daa44ddce0163c8be31ac30f6f1d1d", "is_reserved": 0}, {"is_disabled": 0, "fusion_lon": 0.0, "fusion_lat": 0.0, "lat": 38.87931233333333, "type": "electric_scooter", "lon": -77.00549316666667, "bike_id": "4bfc8d8d3ed4250fe8e19522b372f36b", "rental_uris": {"android": "https://dc.lft.to/lastmile_qr_scan", "ios": "https://dc.lft.to/lastmile_qr_scan"}, "name": "4bfc8d8d3ed4250fe8e19522b372f36b", "is_reserved": 0}, {"is_disabled": 0, "fusion_lon": 0.0, "fusion_lat": 0.0, "lat": 38.892602833333335, "type": "electric_scooter", "lon": -76.94157183333333, "bike_id": "2ed10eb289365d528a8ea94d586a738d", "rental_uris": {"android": "https://dc.lft.to/lastmile_qr_scan", "ios": "https://dc.lft.to/lastmile_qr_scan"}, "name": "2ed10eb289365d528a8ea94d586a738d", "is_reserved": 0}, {"is_disabled": 0, "fusion_lon": 0.0, "fusion_lat": 0.0, "lat": 38.908247, "type": "electric_scooter", "lon": -77.0335575, "bike_id": "052909a989a5ef4431f086bc22e993a5", "rental_uris": {"android": "https://dc.lft.to/lastmile_qr_scan", "ios": "https://dc.lft.to/lastmile_qr_scan"}, "name": "052909a989a5ef4431f086bc22e993a5", "is_reserved": 0}, {"is_disabled": 0, "fusion_lon": 0.0, "fusion_lat": 0.0, "lat": 38.9094565, "type": "electric_scooter", "lon": -77.01531433333334, "bike_id": "de7e9ca5f8f8b5ff95c2c4f5bf779674", "rental_uris": {"android": "https://dc.lft.to/lastmile_qr_scan", "ios": "https://dc.lft.to/lastmile_qr_scan"}, "name": "de7e9ca5f8f8b5ff95c2c4f5bf779674", "is_reserved": 0}, {"is_disabled": 0, "fusion_lon": 0.0, "fusion_lat": 0.0, "lat": 38.898517, "type": "electric_bike", "lon": -76.9319205, "bike_id": "33b22f5cf098da33446f5841401e63dd", "rental_uris": {"android": "https://dc.lft.to/lastmile_qr_scan", "ios": "https://dc.lft.to/lastmile_qr_scan"}, "name": "33b22f5cf098da33446f5841401e63dd", "is_reserved": 0}, {"is_disabled": 0, "fusion_lon": 0.0, "fusion_lat": 0.0, "lat": 38.906497, "type": "electric_scooter", "lon": -77.02528383333333, "bike_id": "5ee8c5fec672d1be0b5c4be1af435606", "rental_uris": {"android": "https://dc.lft.to/lastmile_qr_scan", "ios": "https://dc.lft.to/lastmile_qr_scan"}, "name": "5ee8c5fec672d1be0b5c4be1af435606", "is_reserved": 0}, {"is_disabled": 0, "fusion_lon": 0.0, "fusion_lat": 0.0, "lat": 38.92379783333333, "type": "electric_scooter", "lon": -77.0276555, "bike_id": "2d1e84fb8458c99c8a53787ea101a151", "rental_uris": {"android": "https://dc.lft.to/lastmile_qr_scan", "ios": "https://dc.lft.to/lastmile_qr_scan"}, "name": "2d1e84fb8458c99c8a53787ea101a151", "is_reserved": 0}, {"is_disabled": 0, "fusion_lon": 0.0, "fusion_lat": 0.0, "lat": 38.883488666666665, "type": "electric_scooter", "lon": -76.927838, "bike_id": "722c2e975345c0b2280c5b06321524e8", "rental_uris": {"android": "https://dc.lft.to/lastmile_qr_scan", "ios": "https://dc.lft.to/lastmile_qr_scan"}, "name": "722c2e975345c0b2280c5b06321524e8", "is_reserved": 0}, {"is_disabled": 0, "fusion_lon": 0.0, "fusion_lat": 0.0, "lat": 38.927084, "type": "electric_scooter", "lon": -77.02327866666667, "bike_id": "a93f8eb610c73ccd4c1655519dbb1cb3", "rental_uris": {"android": "https://dc.lft.to/lastmile_qr_scan", "ios": "https://dc.lft.to/lastmile_qr_scan"}, "name": "a93f8eb610c73ccd4c1655519dbb1cb3", "is_reserved": 0}, {"is_disabled": 0, "fusion_lon": 0.0, "fusion_lat": 0.0, "lat": 38.90044183333333, "type": "electric_scooter", "lon": -76.9227325, "bike_id": "52cc107e268d1ddccf61932df6469645", "rental_uris": {"android": "https://dc.lft.to/lastmile_qr_scan", "ios": "https://dc.lft.to/lastmile_qr_scan"}, "name": "52cc107e268d1ddccf61932df6469645", "is_reserved": 0}, {"is_disabled": 0, "fusion_lon": 0.0, "fusion_lat": 0.0, "lat": 38.92732, "type": "electric_scooter", "lon": -77.02248483333334, "bike_id": "f94fea9a35246c9d9353274432c252cc", "rental_uris": {"android": "https://dc.lft.to/lastmile_qr_scan", "ios": "https://dc.lft.to/lastmile_qr_scan"}, "name": "f94fea9a35246c9d9353274432c252cc", "is_reserved": 0}, {"is_disabled": 0, "fusion_lon": 0.0, "fusion_lat": 0.0, "lat": 38.93675183333333, "type": "electric_scooter", "lon": -77.02425866666667, "bike_id": "e966be199d97b17444fbaccb8f65174a", "rental_uris": {"android": "https://dc.lft.to/lastmile_qr_scan", "ios": "https://dc.lft.to/lastmile_qr_scan"}, "name": "e966be199d97b17444fbaccb8f65174a", "is_reserved": 0}, {"is_disabled": 0, "fusion_lon": 0.0, "fusion_lat": 0.0, "lat": 38.893705, "type": "electric_scooter", "lon": -76.950004, "bike_id": "f5c221af25b13ef15bed03c46cfe43bd", "rental_uris": {"android": "https://dc.lft.to/lastmile_qr_scan", "ios": "https://dc.lft.to/lastmile_qr_scan"}, "name": "f5c221af25b13ef15bed03c46cfe43bd", "is_reserved": 0}, {"is_disabled": 0, "fusion_lon": 0.0, "fusion_lat": 0.0, "lat": 38.890424333333335, "type": "electric_scooter", "lon": -76.952467, "bike_id": "f572172b06ff414b5c475246647903f0", "rental_uris": {"android": "https://dc.lft.to/lastmile_qr_scan", "ios": "https://dc.lft.to/lastmile_qr_scan"}, "name": "f572172b06ff414b5c475246647903f0", "is_reserved": 0}, {"is_disabled": 0, "fusion_lon": 0.0, "fusion_lat": 0.0, "lat": 38.861334166666666, "type": "electric_scooter", "lon": -76.98525783333334, "bike_id": "0ca63390afafc46cc2698864953e1b68", "rental_uris": {"android": "https://dc.lft.to/lastmile_qr_scan", "ios": "https://dc.lft.to/lastmile_qr_scan"}, "name": "0ca63390afafc46cc2698864953e1b68", "is_reserved": 0}, {"is_disabled": 0, "fusion_lon": 0.0, "fusion_lat": 0.0, "lat": 38.93626833333333, "type": "electric_scooter", "lon": -77.05901133333333, "bike_id": "63778db55ff6c6a18184085ccbacac9d", "rental_uris": {"android": "https://dc.lft.to/lastmile_qr_scan", "ios": "https://dc.lft.to/lastmile_qr_scan"}, "name": "63778db55ff6c6a18184085ccbacac9d", "is_reserved": 0}, {"is_disabled": 0, "fusion_lon": 0.0, "fusion_lat": 0.0, "lat": 38.911979, "type": "electric_scooter", "lon": -77.03509166666667, "bike_id": "f6dce7b132d84d0ac8d8cd072e536d53", "rental_uris": {"android": "https://dc.lft.to/lastmile_qr_scan", "ios": "https://dc.lft.to/lastmile_qr_scan"}, "name": "f6dce7b132d84d0ac8d8cd072e536d53", "is_reserved": 0}, {"is_disabled": 0, "fusion_lon": 0.0, "fusion_lat": 0.0, "lat": 38.896756833333335, "type": "electric_scooter", "lon": -76.997887, "bike_id": "c6f08fdc91746304e9ef8ba6136cdb8b", "rental_uris": {"android": "https://dc.lft.to/lastmile_qr_scan", "ios": "https://dc.lft.to/lastmile_qr_scan"}, "name": "c6f08fdc91746304e9ef8ba6136cdb8b", "is_reserved": 0}, {"is_disabled": 0, "fusion_lon": 0.0, "fusion_lat": 0.0, "lat": 38.89730183333333, "type": "electric_scooter", "lon": -77.049425, "bike_id": "e2aca726d260415b99929a0c14dd8a6b", "rental_uris": {"android": "https://dc.lft.to/lastmile_qr_scan", "ios": "https://dc.lft.to/lastmile_qr_scan"}, "name": "e2aca726d260415b99929a0c14dd8a6b", "is_reserved": 0}, {"is_disabled": 0, "fusion_lon": 0.0, "fusion_lat": 0.0, "lat": 38.9282845, "type": "electric_scooter", "lon": -77.0141595, "bike_id": "60a2829dc8100cdbb34dee3e0f112a56", "rental_uris": {"android": "https://dc.lft.to/lastmile_qr_scan", "ios": "https://dc.lft.to/lastmile_qr_scan"}, "name": "60a2829dc8100cdbb34dee3e0f112a56", "is_reserved": 0}, {"is_disabled": 0, "fusion_lon": 0.0, "fusion_lat": 0.0, "lat": 38.90140566666667, "type": "electric_scooter", "lon": -77.02933833333333, "bike_id": "f3ac0705f3a7da6441d802d239e58b49", "rental_uris": {"android": "https://dc.lft.to/lastmile_qr_scan", "ios": "https://dc.lft.to/lastmile_qr_scan"}, "name": "f3ac0705f3a7da6441d802d239e58b49", "is_reserved": 0}, {"is_disabled": 0, "fusion_lon": 0.0, "fusion_lat": 0.0, "lat": 38.93471866666667, "type": "electric_scooter", "lon": -77.072275, "bike_id": "455711ce45b96614e34e6ba2f010946f", "rental_uris": {"android": "https://dc.lft.to/lastmile_qr_scan", "ios": "https://dc.lft.to/lastmile_qr_scan"}, "name": "455711ce45b96614e34e6ba2f010946f", "is_reserved": 0}, {"is_disabled": 0, "fusion_lon": 0.0, "fusion_lat": 0.0, "lat": 38.895059833333335, "type": "electric_scooter", "lon": -77.01110333333334, "bike_id": "26d245c03b6c14ba43692f549e7bf927", "rental_uris": {"android": "https://dc.lft.to/lastmile_qr_scan", "ios": "https://dc.lft.to/lastmile_qr_scan"}, "name": "26d245c03b6c14ba43692f549e7bf927", "is_reserved": 0}, {"is_disabled": 0, "fusion_lon": 0.0, "fusion_lat": 0.0, "lat": 38.8429405, "type": "electric_scooter", "lon": -76.9994825, "bike_id": "6c0cb43c7fecca76c8d92730e2138118", "rental_uris": {"android": "https://dc.lft.to/lastmile_qr_scan", "ios": "https://dc.lft.to/lastmile_qr_scan"}, "name": "6c0cb43c7fecca76c8d92730e2138118", "is_reserved": 0}, {"is_disabled": 0, "fusion_lon": 0.0, "fusion_lat": 0.0, "lat": 39.09942, "type": "electric_bike", "lon": -77.18788083333334, "bike_id": "5d79c6d9f0aad2d3e74f224a576e2295", "rental_uris": {"android": "https://dc.lft.to/lastmile_qr_scan", "ios": "https://dc.lft.to/lastmile_qr_scan"}, "name": "5d79c6d9f0aad2d3e74f224a576e2295", "is_reserved": 0}, {"is_disabled": 0, "fusion_lon": 0.0, "fusion_lat": 0.0, "lat": 38.9079715, "type": "electric_scooter", "lon": -77.04984533333334, "bike_id": "f46a49de93c526bba30222384851e3fb", "rental_uris": {"android": "https://dc.lft.to/lastmile_qr_scan", "ios": "https://dc.lft.to/lastmile_qr_scan"}, "name": "f46a49de93c526bba30222384851e3fb", "is_reserved": 0}, {"is_disabled": 0, "fusion_lon": 0.0, "fusion_lat": 0.0, "lat": 38.897462, "type": "electric_scooter", "lon": -77.02840366666666, "bike_id": "896b3c6b905bb906af1fda01890e6fe9", "rental_uris": {"android": "https://dc.lft.to/lastmile_qr_scan", "ios": "https://dc.lft.to/lastmile_qr_scan"}, "name": "896b3c6b905bb906af1fda01890e6fe9", "is_reserved": 0}, {"is_disabled": 0, "fusion_lon": 0.0, "fusion_lat": 0.0, "lat": 38.921611166666665, "type": "electric_scooter", "lon": -77.03384416666667, "bike_id": "7e92ed14ea42c01dd6ff99e52265c69f", "rental_uris": {"android": "https://dc.lft.to/lastmile_qr_scan", "ios": "https://dc.lft.to/lastmile_qr_scan"}, "name": "7e92ed14ea42c01dd6ff99e52265c69f", "is_reserved": 0}, {"is_disabled": 0, "fusion_lon": 0.0, "fusion_lat": 0.0, "lat": 38.93503116666667, "type": "electric_bike", "lon": -76.94958766666667, "bike_id": "f6762dd056eb79a8bd5562b143d3f750", "rental_uris": {"android": "https://dc.lft.to/lastmile_qr_scan", "ios": "https://dc.lft.to/lastmile_qr_scan"}, "name": "f6762dd056eb79a8bd5562b143d3f750", "is_reserved": 0}, {"is_disabled": 0, "fusion_lon": 0.0, "fusion_lat": 0.0, "lat": 38.89462133333333, "type": "electric_scooter", "lon": -76.99491483333334, "bike_id": "0fb0803acddd24ef69b9ce7618f0c0da", "rental_uris": {"android": "https://dc.lft.to/lastmile_qr_scan", "ios": "https://dc.lft.to/lastmile_qr_scan"}, "name": "0fb0803acddd24ef69b9ce7618f0c0da", "is_reserved": 0}, {"is_disabled": 0, "fusion_lon": 0.0, "fusion_lat": 0.0, "lat": 38.9073935, "type": "electric_scooter", "lon": -77.02991333333334, "bike_id": "83c3307f51cb2e9a6ff3fc53ea1c5757", "rental_uris": {"android": "https://dc.lft.to/lastmile_qr_scan", "ios": "https://dc.lft.to/lastmile_qr_scan"}, "name": "83c3307f51cb2e9a6ff3fc53ea1c5757", "is_reserved": 0}, {"is_disabled": 0, "fusion_lon": 0.0, "fusion_lat": 0.0, "lat": 38.886305, "type": "electric_scooter", "lon": -76.99849916666666, "bike_id": "7e4accc0a0a3143420c16285f659b891", "rental_uris": {"android": "https://dc.lft.to/lastmile_qr_scan", "ios": "https://dc.lft.to/lastmile_qr_scan"}, "name": "7e4accc0a0a3143420c16285f659b891", "is_reserved": 0}, {"is_disabled": 0, "fusion_lon": 0.0, "fusion_lat": 0.0, "lat": 38.838125, "type": "electric_scooter", "lon": -77.004336, "bike_id": "bf87b83c9b073f689be0e46e7dc8154a", "rental_uris": {"android": "https://dc.lft.to/lastmile_qr_scan", "ios": "https://dc.lft.to/lastmile_qr_scan"}, "name": "bf87b83c9b073f689be0e46e7dc8154a", "is_reserved": 0}, {"is_disabled": 0, "fusion_lon": 0.0, "fusion_lat": 0.0, "lat": 38.87342066666667, "type": "electric_bike", "lon": -77.01858066666667, "bike_id": "e3cb28f32f480d07335de1e41125d1a4", "rental_uris": {"android": "https://dc.lft.to/lastmile_qr_scan", "ios": "https://dc.lft.to/lastmile_qr_scan"}, "name": "e3cb28f32f480d07335de1e41125d1a4", "is_reserved": 0}, {"is_disabled": 0, "fusion_lon": 0.0, "fusion_lat": 0.0, "lat": 38.90774416666667, "type": "electric_scooter", "lon": -77.04090116666667, "bike_id": "4e80ca109741f2eb7ef609e38f09ca5a", "rental_uris": {"android": "https://dc.lft.to/lastmile_qr_scan", "ios": "https://dc.lft.to/lastmile_qr_scan"}, "name": "4e80ca109741f2eb7ef609e38f09ca5a", "is_reserved": 0}, {"is_disabled": 0, "fusion_lon": 0.0, "fusion_lat": 0.0, "lat": 38.950878833333334, "type": "electric_bike", "lon": -76.96559583333334, "bike_id": "4973a994dec72a832bc535a095849dfa", "rental_uris": {"android": "https://dc.lft.to/lastmile_qr_scan", "ios": "https://dc.lft.to/lastmile_qr_scan"}, "name": "4973a994dec72a832bc535a095849dfa", "is_reserved": 0}, {"is_disabled": 0, "fusion_lon": 0.0, "fusion_lat": 0.0, "lat": 38.91253233333333, "type": "electric_scooter", "lon": -77.009315, "bike_id": "7a9ffc62570f23197586d8571f43d8e0", "rental_uris": {"android": "https://dc.lft.to/lastmile_qr_scan", "ios": "https://dc.lft.to/lastmile_qr_scan"}, "name": "7a9ffc62570f23197586d8571f43d8e0", "is_reserved": 0}, {"is_disabled": 0, "fusion_lon": 0.0, "fusion_lat": 0.0, "lat": 38.91123433333333, "type": "electric_scooter", "lon": -77.04211133333334, "bike_id": "cdb24962dbf33b0558aa2836781ee0fc", "rental_uris": {"android": "https://dc.lft.to/lastmile_qr_scan", "ios": "https://dc.lft.to/lastmile_qr_scan"}, "name": "cdb24962dbf33b0558aa2836781ee0fc", "is_reserved": 0}, {"is_disabled": 0, "fusion_lon": 0.0, "fusion_lat": 0.0, "lat": 38.89842683333333, "type": "electric_scooter", "lon": -76.9463925, "bike_id": "8acfa1ded14314ed623f828ef6b7950a", "rental_uris": {"android": "https://dc.lft.to/lastmile_qr_scan", "ios": "https://dc.lft.to/lastmile_qr_scan"}, "name": "8acfa1ded14314ed623f828ef6b7950a", "is_reserved": 0}, {"is_disabled": 0, "fusion_lon": 0.0, "fusion_lat": 0.0, "lat": 38.9031265, "type": "electric_scooter", "lon": -76.98242933333333, "bike_id": "4007357c1cf9733b862229a50635bcbe", "rental_uris": {"android": "https://dc.lft.to/lastmile_qr_scan", "ios": "https://dc.lft.to/lastmile_qr_scan"}, "name": "4007357c1cf9733b862229a50635bcbe", "is_reserved": 0}, {"is_disabled": 0, "fusion_lon": 0.0, "fusion_lat": 0.0, "lat": 38.927915166666665, "type": "electric_scooter", "lon": -77.03151183333334, "bike_id": "d85fa7eaaaed50ad73188485f84d0373", "rental_uris": {"android": "https://dc.lft.to/lastmile_qr_scan", "ios": "https://dc.lft.to/lastmile_qr_scan"}, "name": "d85fa7eaaaed50ad73188485f84d0373", "is_reserved": 0}, {"is_disabled": 0, "fusion_lon": 0.0, "fusion_lat": 0.0, "lat": 38.9177245, "type": "electric_scooter", "lon": -77.04755316666666, "bike_id": "26bd25962a6caec3b28b3d8a5496d7be", "rental_uris": {"android": "https://dc.lft.to/lastmile_qr_scan", "ios": "https://dc.lft.to/lastmile_qr_scan"}, "name": "26bd25962a6caec3b28b3d8a5496d7be", "is_reserved": 0}, {"is_disabled": 0, "fusion_lon": 0.0, "fusion_lat": 0.0, "lat": 38.972590833333335, "type": "electric_bike", "lon": -76.99169033333334, "bike_id": "a67b54ea35fd2d6b54a632540ab06584", "rental_uris": {"android": "https://dc.lft.to/lastmile_qr_scan", "ios": "https://dc.lft.to/lastmile_qr_scan"}, "name": "a67b54ea35fd2d6b54a632540ab06584", "is_reserved": 0}, {"is_disabled": 0, "fusion_lon": 0.0, "fusion_lat": 0.0, "lat": 38.897567, "type": "electric_scooter", "lon": -77.010083, "bike_id": "a078eac1aaa76984a9f1e320784b0092", "rental_uris": {"android": "https://dc.lft.to/lastmile_qr_scan", "ios": "https://dc.lft.to/lastmile_qr_scan"}, "name": "a078eac1aaa76984a9f1e320784b0092", "is_reserved": 0}, {"is_disabled": 0, "fusion_lon": 0.0, "fusion_lat": 0.0, "lat": 38.9346575, "type": "electric_scooter", "lon": -77.06882233333333, "bike_id": "538ec7553c197258ae9480e51535a014", "rental_uris": {"android": "https://dc.lft.to/lastmile_qr_scan", "ios": "https://dc.lft.to/lastmile_qr_scan"}, "name": "538ec7553c197258ae9480e51535a014", "is_reserved": 0}, {"is_disabled": 0, "fusion_lon": 0.0, "fusion_lat": 0.0, "lat": 38.894409333333336, "type": "electric_scooter", "lon": -77.01108316666667, "bike_id": "5a92b3aa5e51bcb9dbd0d65ca944f86d", "rental_uris": {"android": "https://dc.lft.to/lastmile_qr_scan", "ios": "https://dc.lft.to/lastmile_qr_scan"}, "name": "5a92b3aa5e51bcb9dbd0d65ca944f86d", "is_reserved": 0}, {"is_disabled": 0, "fusion_lon": 0.0, "fusion_lat": 0.0, "lat": 38.83936333333333, "type": "electric_bike", "lon": -77.07899533333334, "bike_id": "c6e74b9c64b605d7b23f1f32d02c3baa", "rental_uris": {"android": "https://dc.lft.to/lastmile_qr_scan", "ios": "https://dc.lft.to/lastmile_qr_scan"}, "name": "c6e74b9c64b605d7b23f1f32d02c3baa", "is_reserved": 0}, {"is_disabled": 0, "fusion_lon": 0.0, "fusion_lat": 0.0, "lat": 38.9037695, "type": "electric_scooter", "lon": -77.0163475, "bike_id": "e5cfb5ff55aaf44145198a892d41b07d", "rental_uris": {"android": "https://dc.lft.to/lastmile_qr_scan", "ios": "https://dc.lft.to/lastmile_qr_scan"}, "name": "e5cfb5ff55aaf44145198a892d41b07d", "is_reserved": 0}, {"is_disabled": 0, "fusion_lon": 0.0, "fusion_lat": 0.0, "lat": 38.919207, "type": "electric_scooter", "lon": -77.0339425, "bike_id": "83080e769d7add7081565d8b9226fdd0", "rental_uris": {"android": "https://dc.lft.to/lastmile_qr_scan", "ios": "https://dc.lft.to/lastmile_qr_scan"}, "name": "83080e769d7add7081565d8b9226fdd0", "is_reserved": 0}, {"is_disabled": 0, "fusion_lon": 0.0, "fusion_lat": 0.0, "lat": 38.895031, "type": "electric_scooter", "lon": -77.01100383333333, "bike_id": "b541993941e68828c99d2597d951f8ad", "rental_uris": {"android": "https://dc.lft.to/lastmile_qr_scan", "ios": "https://dc.lft.to/lastmile_qr_scan"}, "name": "b541993941e68828c99d2597d951f8ad", "is_reserved": 0}, {"is_disabled": 0, "fusion_lon": 0.0, "fusion_lat": 0.0, "lat": 38.900037833333336, "type": "electric_scooter", "lon": -77.0397395, "bike_id": "5c36ad52a510f23b4eac7798b901d659", "rental_uris": {"android": "https://dc.lft.to/lastmile_qr_scan", "ios": "https://dc.lft.to/lastmile_qr_scan"}, "name": "5c36ad52a510f23b4eac7798b901d659", "is_reserved": 0}, {"is_disabled": 0, "fusion_lon": 0.0, "fusion_lat": 0.0, "lat": 38.90573, "type": "electric_scooter", "lon": -77.046853, "bike_id": "b327d4abc945c5ea609ce1bc66c674e4", "rental_uris": {"android": "https://dc.lft.to/lastmile_qr_scan", "ios": "https://dc.lft.to/lastmile_qr_scan"}, "name": "b327d4abc945c5ea609ce1bc66c674e4", "is_reserved": 0}, {"is_disabled": 0, "fusion_lon": 0.0, "fusion_lat": 0.0, "lat": 38.9307505, "type": "electric_scooter", "lon": -77.05819933333333, "bike_id": "7ab6afb1e8e076dcf34094e1e4d5ab4f", "rental_uris": {"android": "https://dc.lft.to/lastmile_qr_scan", "ios": "https://dc.lft.to/lastmile_qr_scan"}, "name": "7ab6afb1e8e076dcf34094e1e4d5ab4f", "is_reserved": 0}, {"is_disabled": 0, "fusion_lon": 0.0, "fusion_lat": 0.0, "lat": 38.906673166666664, "type": "electric_scooter", "lon": -77.0270135, "bike_id": "c39b70230532eca0707ae0c7c91c07f4", "rental_uris": {"android": "https://dc.lft.to/lastmile_qr_scan", "ios": "https://dc.lft.to/lastmile_qr_scan"}, "name": "c39b70230532eca0707ae0c7c91c07f4", "is_reserved": 0}, {"is_disabled": 0, "fusion_lon": 0.0, "fusion_lat": 0.0, "lat": 38.88048966666667, "type": "electric_scooter", "lon": -77.00372066666667, "bike_id": "843631c887c5ea39037ede74f45e3184", "rental_uris": {"android": "https://dc.lft.to/lastmile_qr_scan", "ios": "https://dc.lft.to/lastmile_qr_scan"}, "name": "843631c887c5ea39037ede74f45e3184", "is_reserved": 0}, {"is_disabled": 0, "fusion_lon": 0.0, "fusion_lat": 0.0, "lat": 38.949199166666666, "type": "electric_scooter", "lon": -77.02304516666666, "bike_id": "8fb5279933d6112a169d93bfc308457f", "rental_uris": {"android": "https://dc.lft.to/lastmile_qr_scan", "ios": "https://dc.lft.to/lastmile_qr_scan"}, "name": "8fb5279933d6112a169d93bfc308457f", "is_reserved": 0}, {"is_disabled": 0, "fusion_lon": 0.0, "fusion_lat": 0.0, "lat": 38.896685166666664, "type": "electric_scooter", "lon": -77.011764, "bike_id": "4270b982d45913d30d566dac8410ad9d", "rental_uris": {"android": "https://dc.lft.to/lastmile_qr_scan", "ios": "https://dc.lft.to/lastmile_qr_scan"}, "name": "4270b982d45913d30d566dac8410ad9d", "is_reserved": 0}, {"is_disabled": 0, "fusion_lon": 0.0, "fusion_lat": 0.0, "lat": 38.91173583333333, "type": "electric_bike", "lon": -77.01146216666666, "bike_id": "8427d98eaf058e76c9d0f5eacb952a33", "rental_uris": {"android": "https://dc.lft.to/lastmile_qr_scan", "ios": "https://dc.lft.to/lastmile_qr_scan"}, "name": "8427d98eaf058e76c9d0f5eacb952a33", "is_reserved": 0}, {"is_disabled": 0, "fusion_lon": 0.0, "fusion_lat": 0.0, "lat": 38.9084715, "type": "electric_scooter", "lon": -77.06349333333333, "bike_id": "05dc2f73f7ba359a9284f0529943173c", "rental_uris": {"android": "https://dc.lft.to/lastmile_qr_scan", "ios": "https://dc.lft.to/lastmile_qr_scan"}, "name": "05dc2f73f7ba359a9284f0529943173c", "is_reserved": 0}, {"is_disabled": 0, "fusion_lon": 0.0, "fusion_lat": 0.0, "lat": 38.91786183333333, "type": "electric_scooter", "lon": -77.04362716666667, "bike_id": "31a3e34c860ad5ec5830abc79426646a", "rental_uris": {"android": "https://dc.lft.to/lastmile_qr_scan", "ios": "https://dc.lft.to/lastmile_qr_scan"}, "name": "31a3e34c860ad5ec5830abc79426646a", "is_reserved": 0}, {"is_disabled": 0, "fusion_lon": 0.0, "fusion_lat": 0.0, "lat": 38.90943716666666, "type": "electric_scooter", "lon": -77.0344765, "bike_id": "8a1f19b4a871c888812bb38a133088a3", "rental_uris": {"android": "https://dc.lft.to/lastmile_qr_scan", "ios": "https://dc.lft.to/lastmile_qr_scan"}, "name": "8a1f19b4a871c888812bb38a133088a3", "is_reserved": 0}, {"is_disabled": 0, "fusion_lon": 0.0, "fusion_lat": 0.0, "lat": 38.92348766666667, "type": "electric_bike", "lon": -76.99254933333333, "bike_id": "43da96000160f1902bbf55a0b5b39951", "rental_uris": {"android": "https://dc.lft.to/lastmile_qr_scan", "ios": "https://dc.lft.to/lastmile_qr_scan"}, "name": "43da96000160f1902bbf55a0b5b39951", "is_reserved": 0}, {"is_disabled": 0, "fusion_lon": 0.0, "fusion_lat": 0.0, "lat": 38.99070066666667, "type": "electric_bike", "lon": -77.023817, "bike_id": "b7e51e3ee9b11c03b3ad5084eda64c78", "rental_uris": {"android": "https://dc.lft.to/lastmile_qr_scan", "ios": "https://dc.lft.to/lastmile_qr_scan"}, "name": "b7e51e3ee9b11c03b3ad5084eda64c78", "is_reserved": 0}, {"is_disabled": 0, "fusion_lon": 0.0, "fusion_lat": 0.0, "lat": 38.90149566666667, "type": "electric_scooter", "lon": -77.03982933333333, "bike_id": "8c3ed535ce44c194473f80520baa12c7", "rental_uris": {"android": "https://dc.lft.to/lastmile_qr_scan", "ios": "https://dc.lft.to/lastmile_qr_scan"}, "name": "8c3ed535ce44c194473f80520baa12c7", "is_reserved": 0}, {"is_disabled": 0, "fusion_lon": 0.0, "fusion_lat": 0.0, "lat": 38.88138466666667, "type": "electric_scooter", "lon": -77.020799, "bike_id": "f52a4164d2a9886ee64caee9677e2894", "rental_uris": {"android": "https://dc.lft.to/lastmile_qr_scan", "ios": "https://dc.lft.to/lastmile_qr_scan"}, "name": "f52a4164d2a9886ee64caee9677e2894", "is_reserved": 0}, {"is_disabled": 0, "fusion_lon": 0.0, "fusion_lat": 0.0, "lat": 38.90732916666666, "type": "electric_scooter", "lon": -77.02252766666666, "bike_id": "62795ee807275c9b375fba96588f7c5b", "rental_uris": {"android": "https://dc.lft.to/lastmile_qr_scan", "ios": "https://dc.lft.to/lastmile_qr_scan"}, "name": "62795ee807275c9b375fba96588f7c5b", "is_reserved": 0}, {"is_disabled": 0, "fusion_lon": 0.0, "fusion_lat": 0.0, "lat": 38.921421333333335, "type": "electric_scooter", "lon": -77.00918516666667, "bike_id": "bc911219ec60a6c29288b01ed44bda79", "rental_uris": {"android": "https://dc.lft.to/lastmile_qr_scan", "ios": "https://dc.lft.to/lastmile_qr_scan"}, "name": "bc911219ec60a6c29288b01ed44bda79", "is_reserved": 0}, {"is_disabled": 0, "fusion_lon": 0.0, "fusion_lat": 0.0, "lat": 38.86465166666667, "type": "electric_scooter", "lon": -76.99610383333334, "bike_id": "bfa3114584c77515fd0bd9760b58c52a", "rental_uris": {"android": "https://dc.lft.to/lastmile_qr_scan", "ios": "https://dc.lft.to/lastmile_qr_scan"}, "name": "bfa3114584c77515fd0bd9760b58c52a", "is_reserved": 0}, {"is_disabled": 0, "fusion_lon": 0.0, "fusion_lat": 0.0, "lat": 38.92915216666667, "type": "electric_scooter", "lon": -77.021445, "bike_id": "8fa7b182d9c089794f42a66710993f36", "rental_uris": {"android": "https://dc.lft.to/lastmile_qr_scan", "ios": "https://dc.lft.to/lastmile_qr_scan"}, "name": "8fa7b182d9c089794f42a66710993f36", "is_reserved": 0}, {"is_disabled": 0, "fusion_lon": 0.0, "fusion_lat": 0.0, "lat": 38.87496733333333, "type": "electric_scooter", "lon": -76.997959, "bike_id": "b5df3e9f452efcd2512d310803981e2c", "rental_uris": {"android": "https://dc.lft.to/lastmile_qr_scan", "ios": "https://dc.lft.to/lastmile_qr_scan"}, "name": "b5df3e9f452efcd2512d310803981e2c", "is_reserved": 0}, {"is_disabled": 0, "fusion_lon": 0.0, "fusion_lat": 0.0, "lat": 38.90730633333333, "type": "electric_scooter", "lon": -77.02416616666666, "bike_id": "5c9fcb465569266eeabfbb13f76fdc4f", "rental_uris": {"android": "https://dc.lft.to/lastmile_qr_scan", "ios": "https://dc.lft.to/lastmile_qr_scan"}, "name": "5c9fcb465569266eeabfbb13f76fdc4f", "is_reserved": 0}, {"is_disabled": 0, "fusion_lon": 0.0, "fusion_lat": 0.0, "lat": 38.919146166666664, "type": "electric_scooter", "lon": -77.04454483333333, "bike_id": "268f51055076ff3cd5fed147463f2cb1", "rental_uris": {"android": "https://dc.lft.to/lastmile_qr_scan", "ios": "https://dc.lft.to/lastmile_qr_scan"}, "name": "268f51055076ff3cd5fed147463f2cb1", "is_reserved": 0}, {"is_disabled": 0, "fusion_lon": 0.0, "fusion_lat": 0.0, "lat": 38.93098616666666, "type": "electric_scooter", "lon": -77.02454166666666, "bike_id": "9fca88e6077e4748244e556eb44e00f0", "rental_uris": {"android": "https://dc.lft.to/lastmile_qr_scan", "ios": "https://dc.lft.to/lastmile_qr_scan"}, "name": "9fca88e6077e4748244e556eb44e00f0", "is_reserved": 0}, {"is_disabled": 0, "fusion_lon": 0.0, "fusion_lat": 0.0, "lat": 38.8872465, "type": "electric_scooter", "lon": -77.02206583333333, "bike_id": "a681c1d09afca7954d946f71a2db1f55", "rental_uris": {"android": "https://dc.lft.to/lastmile_qr_scan", "ios": "https://dc.lft.to/lastmile_qr_scan"}, "name": "a681c1d09afca7954d946f71a2db1f55", "is_reserved": 0}, {"is_disabled": 0, "fusion_lon": 0.0, "fusion_lat": 0.0, "lat": 38.91350466666667, "type": "electric_scooter", "lon": -77.0422945, "bike_id": "c9308f3307848b3623459ae8e41a6f65", "rental_uris": {"android": "https://dc.lft.to/lastmile_qr_scan", "ios": "https://dc.lft.to/lastmile_qr_scan"}, "name": "c9308f3307848b3623459ae8e41a6f65", "is_reserved": 0}, {"is_disabled": 0, "fusion_lon": 0.0, "fusion_lat": 0.0, "lat": 38.902553, "type": "electric_scooter", "lon": -77.000179, "bike_id": "22a5f752405a4fd0c4b62cdb0337687a", "rental_uris": {"android": "https://dc.lft.to/lastmile_qr_scan", "ios": "https://dc.lft.to/lastmile_qr_scan"}, "name": "22a5f752405a4fd0c4b62cdb0337687a", "is_reserved": 0}, {"is_disabled": 0, "fusion_lon": 0.0, "fusion_lat": 0.0, "lat": 38.9370485, "type": "electric_scooter", "lon": -77.06103116666667, "bike_id": "1a002db039b0bcf88e1966037d8c1c2e", "rental_uris": {"android": "https://dc.lft.to/lastmile_qr_scan", "ios": "https://dc.lft.to/lastmile_qr_scan"}, "name": "1a002db039b0bcf88e1966037d8c1c2e", "is_reserved": 0}, {"is_disabled": 0, "fusion_lon": 0.0, "fusion_lat": 0.0, "lat": 38.898311666666665, "type": "electric_scooter", "lon": -77.0432795, "bike_id": "e55d8defd397b8520c417ba090644cf5", "rental_uris": {"android": "https://dc.lft.to/lastmile_qr_scan", "ios": "https://dc.lft.to/lastmile_qr_scan"}, "name": "e55d8defd397b8520c417ba090644cf5", "is_reserved": 0}, {"is_disabled": 0, "fusion_lon": 0.0, "fusion_lat": 0.0, "lat": 38.86351783333333, "type": "electric_scooter", "lon": -76.99062, "bike_id": "38c8381254e2bc7bd95955651d10a85d", "rental_uris": {"android": "https://dc.lft.to/lastmile_qr_scan", "ios": "https://dc.lft.to/lastmile_qr_scan"}, "name": "38c8381254e2bc7bd95955651d10a85d", "is_reserved": 0}, {"is_disabled": 0, "fusion_lon": 0.0, "fusion_lat": 0.0, "lat": 38.920125666666664, "type": "electric_scooter", "lon": -77.0185965, "bike_id": "3b121eb1942b8662e0ba73c2dcfefcbd", "rental_uris": {"android": "https://dc.lft.to/lastmile_qr_scan", "ios": "https://dc.lft.to/lastmile_qr_scan"}, "name": "3b121eb1942b8662e0ba73c2dcfefcbd", "is_reserved": 0}, {"is_disabled": 0, "fusion_lon": 0.0, "fusion_lat": 0.0, "lat": 38.90185316666667, "type": "electric_scooter", "lon": -77.05013416666667, "bike_id": "169339a97a795a276e850ae2dc399e6d", "rental_uris": {"android": "https://dc.lft.to/lastmile_qr_scan", "ios": "https://dc.lft.to/lastmile_qr_scan"}, "name": "169339a97a795a276e850ae2dc399e6d", "is_reserved": 0}, {"is_disabled": 0, "fusion_lon": 0.0, "fusion_lat": 0.0, "lat": 38.905765333333335, "type": "electric_scooter", "lon": -77.04863466666667, "bike_id": "32a52011d1f4fa8a4a644de5e7a32c67", "rental_uris": {"android": "https://dc.lft.to/lastmile_qr_scan", "ios": "https://dc.lft.to/lastmile_qr_scan"}, "name": "32a52011d1f4fa8a4a644de5e7a32c67", "is_reserved": 0}, {"is_disabled": 0, "fusion_lon": 0.0, "fusion_lat": 0.0, "lat": 38.98827133333333, "type": "electric_bike", "lon": -76.987546, "bike_id": "46d031119e7d006debcd885b35b71c2c", "rental_uris": {"android": "https://dc.lft.to/lastmile_qr_scan", "ios": "https://dc.lft.to/lastmile_qr_scan"}, "name": "46d031119e7d006debcd885b35b71c2c", "is_reserved": 0}, {"is_disabled": 0, "fusion_lon": 0.0, "fusion_lat": 0.0, "lat": 38.909585666666665, "type": "electric_scooter", "lon": -77.02280083333333, "bike_id": "0c043ae5b9d71f9b356fadfd749bb14e", "rental_uris": {"android": "https://dc.lft.to/lastmile_qr_scan", "ios": "https://dc.lft.to/lastmile_qr_scan"}, "name": "0c043ae5b9d71f9b356fadfd749bb14e", "is_reserved": 0}, {"is_disabled": 0, "fusion_lon": 0.0, "fusion_lat": 0.0, "lat": 38.92022433333333, "type": "electric_scooter", "lon": -77.03890833333334, "bike_id": "3ccb7b6c1a2de637621716532af8f22d", "rental_uris": {"android": "https://dc.lft.to/lastmile_qr_scan", "ios": "https://dc.lft.to/lastmile_qr_scan"}, "name": "3ccb7b6c1a2de637621716532af8f22d", "is_reserved": 0}, {"is_disabled": 0, "fusion_lon": 0.0, "fusion_lat": 0.0, "lat": 38.907031833333335, "type": "electric_scooter", "lon": -77.02704116666666, "bike_id": "0f45eb39807ef01ba0f315f970056a2e", "rental_uris": {"android": "https://dc.lft.to/lastmile_qr_scan", "ios": "https://dc.lft.to/lastmile_qr_scan"}, "name": "0f45eb39807ef01ba0f315f970056a2e", "is_reserved": 0}, {"is_disabled": 0, "fusion_lon": 0.0, "fusion_lat": 0.0, "lat": 38.93099866666667, "type": "electric_scooter", "lon": -77.02450666666667, "bike_id": "45aee477003bf67e8bb4f4ec722db03c", "rental_uris": {"android": "https://dc.lft.to/lastmile_qr_scan", "ios": "https://dc.lft.to/lastmile_qr_scan"}, "name": "45aee477003bf67e8bb4f4ec722db03c", "is_reserved": 0}, {"is_disabled": 0, "fusion_lon": 0.0, "fusion_lat": 0.0, "lat": 38.92033983333334, "type": "electric_scooter", "lon": -77.02585866666666, "bike_id": "d8465894e66da695776c0c5793ed0a94", "rental_uris": {"android": "https://dc.lft.to/lastmile_qr_scan", "ios": "https://dc.lft.to/lastmile_qr_scan"}, "name": "d8465894e66da695776c0c5793ed0a94", "is_reserved": 0}, {"is_disabled": 0, "fusion_lon": 0.0, "fusion_lat": 0.0, "lat": 38.87938716666667, "type": "electric_scooter", "lon": -77.013494, "bike_id": "a1349628dc9929bc13ec9a84fb419097", "rental_uris": {"android": "https://dc.lft.to/lastmile_qr_scan", "ios": "https://dc.lft.to/lastmile_qr_scan"}, "name": "a1349628dc9929bc13ec9a84fb419097", "is_reserved": 0}, {"is_disabled": 0, "fusion_lon": 0.0, "fusion_lat": 0.0, "lat": 38.8851215, "type": "electric_scooter", "lon": -76.99847233333334, "bike_id": "5765745c85857d9bf540dc631dc58a89", "rental_uris": {"android": "https://dc.lft.to/lastmile_qr_scan", "ios": "https://dc.lft.to/lastmile_qr_scan"}, "name": "5765745c85857d9bf540dc631dc58a89", "is_reserved": 0}, {"is_disabled": 0, "fusion_lon": 0.0, "fusion_lat": 0.0, "lat": 38.919892833333336, "type": "electric_bike", "lon": -76.9731855, "bike_id": "19ff7236ff80df7d95fb354633aa95ae", "rental_uris": {"android": "https://dc.lft.to/lastmile_qr_scan", "ios": "https://dc.lft.to/lastmile_qr_scan"}, "name": "19ff7236ff80df7d95fb354633aa95ae", "is_reserved": 0}, {"is_disabled": 0, "fusion_lon": 0.0, "fusion_lat": 0.0, "lat": 38.9175905, "type": "electric_scooter", "lon": -77.03591233333333, "bike_id": "2c32419b17006e4288dd22e751f4ae6d", "rental_uris": {"android": "https://dc.lft.to/lastmile_qr_scan", "ios": "https://dc.lft.to/lastmile_qr_scan"}, "name": "2c32419b17006e4288dd22e751f4ae6d", "is_reserved": 0}, {"is_disabled": 0, "fusion_lon": 0.0, "fusion_lat": 0.0, "lat": 38.933717666666666, "type": "electric_scooter", "lon": -77.072568, "bike_id": "6ee3d771fbe5bb0cc80aa8e229fe4feb", "rental_uris": {"android": "https://dc.lft.to/lastmile_qr_scan", "ios": "https://dc.lft.to/lastmile_qr_scan"}, "name": "6ee3d771fbe5bb0cc80aa8e229fe4feb", "is_reserved": 0}, {"is_disabled": 0, "fusion_lon": 0.0, "fusion_lat": 0.0, "lat": 38.91591, "type": "electric_bike", "lon": -76.97148416666667, "bike_id": "14d16abe5182040e46c4d74b8efb5624", "rental_uris": {"android": "https://dc.lft.to/lastmile_qr_scan", "ios": "https://dc.lft.to/lastmile_qr_scan"}, "name": "14d16abe5182040e46c4d74b8efb5624", "is_reserved": 0}, {"is_disabled": 0, "fusion_lon": 0.0, "fusion_lat": 0.0, "lat": 38.918545333333334, "type": "electric_scooter", "lon": -77.03191183333334, "bike_id": "3feaf333ef9a275cec96b4a0632061b5", "rental_uris": {"android": "https://dc.lft.to/lastmile_qr_scan", "ios": "https://dc.lft.to/lastmile_qr_scan"}, "name": "3feaf333ef9a275cec96b4a0632061b5", "is_reserved": 0}, {"is_disabled": 0, "fusion_lon": 0.0, "fusion_lat": 0.0, "lat": 38.922846666666665, "type": "electric_bike", "lon": -76.99775866666667, "bike_id": "bb18f62a027a491d559b80c89cfa16e8", "rental_uris": {"android": "https://dc.lft.to/lastmile_qr_scan", "ios": "https://dc.lft.to/lastmile_qr_scan"}, "name": "bb18f62a027a491d559b80c89cfa16e8", "is_reserved": 0}, {"is_disabled": 0, "fusion_lon": 0.0, "fusion_lat": 0.0, "lat": 38.911069499999996, "type": "electric_scooter", "lon": -77.0033775, "bike_id": "44e2dea51188f1582e21f5afb8c60d36", "rental_uris": {"android": "https://dc.lft.to/lastmile_qr_scan", "ios": "https://dc.lft.to/lastmile_qr_scan"}, "name": "44e2dea51188f1582e21f5afb8c60d36", "is_reserved": 0}, {"is_disabled": 0, "fusion_lon": 0.0, "fusion_lat": 0.0, "lat": 38.975394666666666, "type": "electric_bike", "lon": -76.9953225, "bike_id": "8355167c2b1d1b78f5b452e4957cce0f", "rental_uris": {"android": "https://dc.lft.to/lastmile_qr_scan", "ios": "https://dc.lft.to/lastmile_qr_scan"}, "name": "8355167c2b1d1b78f5b452e4957cce0f", "is_reserved": 0}, {"is_disabled": 0, "fusion_lon": 0.0, "fusion_lat": 0.0, "lat": 38.90840683333333, "type": "electric_scooter", "lon": -77.02690883333334, "bike_id": "618e2483044bcd984742a63f661a5d8b", "rental_uris": {"android": "https://dc.lft.to/lastmile_qr_scan", "ios": "https://dc.lft.to/lastmile_qr_scan"}, "name": "618e2483044bcd984742a63f661a5d8b", "is_reserved": 0}, {"is_disabled": 0, "fusion_lon": 0.0, "fusion_lat": 0.0, "lat": 38.922813833333336, "type": "electric_scooter", "lon": -77.042261, "bike_id": "c3b18a02ae102820db895990ce882f0e", "rental_uris": {"android": "https://dc.lft.to/lastmile_qr_scan", "ios": "https://dc.lft.to/lastmile_qr_scan"}, "name": "c3b18a02ae102820db895990ce882f0e", "is_reserved": 0}, {"is_disabled": 0, "fusion_lon": 0.0, "fusion_lat": 0.0, "lat": 38.869077833333336, "type": "electric_bike", "lon": -77.1318265, "bike_id": "f4319ba2b3d6f201bf2941a3ec7532a5", "rental_uris": {"android": "https://dc.lft.to/lastmile_qr_scan", "ios": "https://dc.lft.to/lastmile_qr_scan"}, "name": "f4319ba2b3d6f201bf2941a3ec7532a5", "is_reserved": 0}, {"is_disabled": 0, "fusion_lon": 0.0, "fusion_lat": 0.0, "lat": 38.90577583333334, "type": "electric_scooter", "lon": -77.00396183333334, "bike_id": "4c97cd2b30dc0b1a1d51d929e4925c6d", "rental_uris": {"android": "https://dc.lft.to/lastmile_qr_scan", "ios": "https://dc.lft.to/lastmile_qr_scan"}, "name": "4c97cd2b30dc0b1a1d51d929e4925c6d", "is_reserved": 0}, {"is_disabled": 0, "fusion_lon": 0.0, "fusion_lat": 0.0, "lat": 38.935882666666664, "type": "electric_bike", "lon": -77.08244683333334, "bike_id": "559f85b0d90e28e9f2774db913f752eb", "rental_uris": {"android": "https://dc.lft.to/lastmile_qr_scan", "ios": "https://dc.lft.to/lastmile_qr_scan"}, "name": "559f85b0d90e28e9f2774db913f752eb", "is_reserved": 0}, {"is_disabled": 0, "fusion_lon": 0.0, "fusion_lat": 0.0, "lat": 38.9349375, "type": "electric_scooter", "lon": -77.03438016666666, "bike_id": "d82e28a1a5c9960b20495668fe38b399", "rental_uris": {"android": "https://dc.lft.to/lastmile_qr_scan", "ios": "https://dc.lft.to/lastmile_qr_scan"}, "name": "d82e28a1a5c9960b20495668fe38b399", "is_reserved": 0}, {"is_disabled": 0, "fusion_lon": 0.0, "fusion_lat": 0.0, "lat": 38.91268633333333, "type": "electric_scooter", "lon": -77.022206, "bike_id": "65707ce0cbb26cd165a961e74c594cdd", "rental_uris": {"android": "https://dc.lft.to/lastmile_qr_scan", "ios": "https://dc.lft.to/lastmile_qr_scan"}, "name": "65707ce0cbb26cd165a961e74c594cdd", "is_reserved": 0}, {"is_disabled": 0, "fusion_lon": 0.0, "fusion_lat": 0.0, "lat": 38.93544516666667, "type": "electric_scooter", "lon": -77.0221945, "bike_id": "1fa2532faf6bd9ec195d6a0c9675602a", "rental_uris": {"android": "https://dc.lft.to/lastmile_qr_scan", "ios": "https://dc.lft.to/lastmile_qr_scan"}, "name": "1fa2532faf6bd9ec195d6a0c9675602a", "is_reserved": 0}, {"is_disabled": 0, "fusion_lon": 0.0, "fusion_lat": 0.0, "lat": 38.9038955, "type": "electric_scooter", "lon": -77.03277116666666, "bike_id": "dfae1b05e1640a93d9d2ffaaae9beeb1", "rental_uris": {"android": "https://dc.lft.to/lastmile_qr_scan", "ios": "https://dc.lft.to/lastmile_qr_scan"}, "name": "dfae1b05e1640a93d9d2ffaaae9beeb1", "is_reserved": 0}, {"is_disabled": 0, "fusion_lon": 0.0, "fusion_lat": 0.0, "lat": 38.896317833333335, "type": "electric_scooter", "lon": -77.009039, "bike_id": "632266f003e3a60d78579991e61af72d", "rental_uris": {"android": "https://dc.lft.to/lastmile_qr_scan", "ios": "https://dc.lft.to/lastmile_qr_scan"}, "name": "632266f003e3a60d78579991e61af72d", "is_reserved": 0}, {"is_disabled": 0, "fusion_lon": 0.0, "fusion_lat": 0.0, "lat": 38.92460466666667, "type": "electric_scooter", "lon": -77.02967716666667, "bike_id": "aae46e9f792c0838688e5d32e1396e96", "rental_uris": {"android": "https://dc.lft.to/lastmile_qr_scan", "ios": "https://dc.lft.to/lastmile_qr_scan"}, "name": "aae46e9f792c0838688e5d32e1396e96", "is_reserved": 0}, {"is_disabled": 0, "fusion_lon": 0.0, "fusion_lat": 0.0, "lat": 38.89741683333333, "type": "electric_scooter", "lon": -77.02174116666667, "bike_id": "16ff9690be79e9c0f5eb1c9df960e65e", "rental_uris": {"android": "https://dc.lft.to/lastmile_qr_scan", "ios": "https://dc.lft.to/lastmile_qr_scan"}, "name": "16ff9690be79e9c0f5eb1c9df960e65e", "is_reserved": 0}, {"is_disabled": 0, "fusion_lon": 0.0, "fusion_lat": 0.0, "lat": 38.929988333333334, "type": "electric_scooter", "lon": -77.02210316666667, "bike_id": "048db909554cb38a7b67130d3345f002", "rental_uris": {"android": "https://dc.lft.to/lastmile_qr_scan", "ios": "https://dc.lft.to/lastmile_qr_scan"}, "name": "048db909554cb38a7b67130d3345f002", "is_reserved": 0}, {"is_disabled": 0, "fusion_lon": 0.0, "fusion_lat": 0.0, "lat": 38.9170795, "type": "electric_scooter", "lon": -77.02618283333334, "bike_id": "6dee4e0bf2557ee3903cbf1842c39f4b", "rental_uris": {"android": "https://dc.lft.to/lastmile_qr_scan", "ios": "https://dc.lft.to/lastmile_qr_scan"}, "name": "6dee4e0bf2557ee3903cbf1842c39f4b", "is_reserved": 0}, {"is_disabled": 0, "fusion_lon": 0.0, "fusion_lat": 0.0, "lat": 38.905684666666666, "type": "electric_scooter", "lon": -77.02466016666666, "bike_id": "e5c350c90d094589b1b45f2dfcaf5f37", "rental_uris": {"android": "https://dc.lft.to/lastmile_qr_scan", "ios": "https://dc.lft.to/lastmile_qr_scan"}, "name": "e5c350c90d094589b1b45f2dfcaf5f37", "is_reserved": 0}, {"is_disabled": 0, "fusion_lon": 0.0, "fusion_lat": 0.0, "lat": 38.92843283333333, "type": "electric_scooter", "lon": -77.056254, "bike_id": "bddc7d210ccaecf3985d5f6bc9a7b415", "rental_uris": {"android": "https://dc.lft.to/lastmile_qr_scan", "ios": "https://dc.lft.to/lastmile_qr_scan"}, "name": "bddc7d210ccaecf3985d5f6bc9a7b415", "is_reserved": 0}, {"is_disabled": 0, "fusion_lon": 0.0, "fusion_lat": 0.0, "lat": 38.904819, "type": "electric_scooter", "lon": -77.02723816666666, "bike_id": "d3e2d16737cf9fd68bb8805d1a5e69c6", "rental_uris": {"android": "https://dc.lft.to/lastmile_qr_scan", "ios": "https://dc.lft.to/lastmile_qr_scan"}, "name": "d3e2d16737cf9fd68bb8805d1a5e69c6", "is_reserved": 0}, {"is_disabled": 0, "fusion_lon": 0.0, "fusion_lat": 0.0, "lat": 38.918612333333336, "type": "electric_bike", "lon": -76.96088833333333, "bike_id": "e8484c63a3f661534166ba248ce7dea2", "rental_uris": {"android": "https://dc.lft.to/lastmile_qr_scan", "ios": "https://dc.lft.to/lastmile_qr_scan"}, "name": "e8484c63a3f661534166ba248ce7dea2", "is_reserved": 0}, {"is_disabled": 0, "fusion_lon": 0.0, "fusion_lat": 0.0, "lat": 38.91787633333333, "type": "electric_scooter", "lon": -77.03454216666667, "bike_id": "f58dab6d64e094be2802117761171c80", "rental_uris": {"android": "https://dc.lft.to/lastmile_qr_scan", "ios": "https://dc.lft.to/lastmile_qr_scan"}, "name": "f58dab6d64e094be2802117761171c80", "is_reserved": 0}, {"is_disabled": 0, "fusion_lon": 0.0, "fusion_lat": 0.0, "lat": 38.929605333333335, "type": "electric_scooter", "lon": -77.023266, "bike_id": "f3ef3096701fac6e5a4e76b261ee7d43", "rental_uris": {"android": "https://dc.lft.to/lastmile_qr_scan", "ios": "https://dc.lft.to/lastmile_qr_scan"}, "name": "f3ef3096701fac6e5a4e76b261ee7d43", "is_reserved": 0}, {"is_disabled": 0, "fusion_lon": 0.0, "fusion_lat": 0.0, "lat": 38.927523666666666, "type": "electric_scooter", "lon": -77.02538766666666, "bike_id": "fee0cfc6e9670b0f06d7feb132ff6d20", "rental_uris": {"android": "https://dc.lft.to/lastmile_qr_scan", "ios": "https://dc.lft.to/lastmile_qr_scan"}, "name": "fee0cfc6e9670b0f06d7feb132ff6d20", "is_reserved": 0}, {"is_disabled": 0, "fusion_lon": 0.0, "fusion_lat": 0.0, "lat": 38.91498266666667, "type": "electric_scooter", "lon": -76.98357166666666, "bike_id": "c49f644012d5e516379d29cd130b173e", "rental_uris": {"android": "https://dc.lft.to/lastmile_qr_scan", "ios": "https://dc.lft.to/lastmile_qr_scan"}, "name": "c49f644012d5e516379d29cd130b173e", "is_reserved": 0}, {"is_disabled": 0, "fusion_lon": 0.0, "fusion_lat": 0.0, "lat": 38.917076, "type": "electric_scooter", "lon": -77.04299916666666, "bike_id": "75123aba9b3c035dc5354debe6840d6b", "rental_uris": {"android": "https://dc.lft.to/lastmile_qr_scan", "ios": "https://dc.lft.to/lastmile_qr_scan"}, "name": "75123aba9b3c035dc5354debe6840d6b", "is_reserved": 0}, {"is_disabled": 0, "fusion_lon": 0.0, "fusion_lat": 0.0, "lat": 38.90767133333333, "type": "electric_scooter", "lon": -77.063158, "bike_id": "3222629e944a54bd58415857c423ea8f", "rental_uris": {"android": "https://dc.lft.to/lastmile_qr_scan", "ios": "https://dc.lft.to/lastmile_qr_scan"}, "name": "3222629e944a54bd58415857c423ea8f", "is_reserved": 0}, {"is_disabled": 0, "fusion_lon": 0.0, "fusion_lat": 0.0, "lat": 38.9092815, "type": "electric_bike", "lon": -77.06124183333333, "bike_id": "fe49594f65f8a7e252b1a5c8060b7a4b", "rental_uris": {"android": "https://dc.lft.to/lastmile_qr_scan", "ios": "https://dc.lft.to/lastmile_qr_scan"}, "name": "fe49594f65f8a7e252b1a5c8060b7a4b", "is_reserved": 0}, {"is_disabled": 0, "fusion_lon": 0.0, "fusion_lat": 0.0, "lat": 38.852107833333335, "type": "electric_bike", "lon": -77.10129383333333, "bike_id": "c550e8371a0b0f5f32b6b3f0656e4403", "rental_uris": {"android": "https://dc.lft.to/lastmile_qr_scan", "ios": "https://dc.lft.to/lastmile_qr_scan"}, "name": "c550e8371a0b0f5f32b6b3f0656e4403", "is_reserved": 0}, {"is_disabled": 0, "fusion_lon": 0.0, "fusion_lat": 0.0, "lat": 38.932758166666666, "type": "electric_scooter", "lon": -76.97423216666667, "bike_id": "dcac6c8717231724ad4c75811187380c", "rental_uris": {"android": "https://dc.lft.to/lastmile_qr_scan", "ios": "https://dc.lft.to/lastmile_qr_scan"}, "name": "dcac6c8717231724ad4c75811187380c", "is_reserved": 0}, {"is_disabled": 0, "fusion_lon": 0.0, "fusion_lat": 0.0, "lat": 38.92755183333333, "type": "electric_scooter", "lon": -77.005974, "bike_id": "30f9e1bc7c56d32abc29a82ac46f4378", "rental_uris": {"android": "https://dc.lft.to/lastmile_qr_scan", "ios": "https://dc.lft.to/lastmile_qr_scan"}, "name": "30f9e1bc7c56d32abc29a82ac46f4378", "is_reserved": 0}, {"is_disabled": 0, "fusion_lon": 0.0, "fusion_lat": 0.0, "lat": 38.905115333333335, "type": "electric_bike", "lon": -76.981279, "bike_id": "ea9a22ee70bd28d1dd782b0aa027f677", "rental_uris": {"android": "https://dc.lft.to/lastmile_qr_scan", "ios": "https://dc.lft.to/lastmile_qr_scan"}, "name": "ea9a22ee70bd28d1dd782b0aa027f677", "is_reserved": 0}, {"is_disabled": 0, "fusion_lon": 0.0, "fusion_lat": 0.0, "lat": 38.90266183333333, "type": "electric_scooter", "lon": -77.00213616666667, "bike_id": "1ff41fa7e32e10668f2e1665d55ac601", "rental_uris": {"android": "https://dc.lft.to/lastmile_qr_scan", "ios": "https://dc.lft.to/lastmile_qr_scan"}, "name": "1ff41fa7e32e10668f2e1665d55ac601", "is_reserved": 0}, {"is_disabled": 0, "fusion_lon": 0.0, "fusion_lat": 0.0, "lat": 38.92851016666667, "type": "electric_scooter", "lon": -77.014303, "bike_id": "1cee6376ea53328e43607d7876449c0c", "rental_uris": {"android": "https://dc.lft.to/lastmile_qr_scan", "ios": "https://dc.lft.to/lastmile_qr_scan"}, "name": "1cee6376ea53328e43607d7876449c0c", "is_reserved": 0}, {"is_disabled": 0, "fusion_lon": 0.0, "fusion_lat": 0.0, "lat": 38.937829666666666, "type": "electric_scooter", "lon": -77.02308366666666, "bike_id": "f93096d506e5c3097a0bd083445bb999", "rental_uris": {"android": "https://dc.lft.to/lastmile_qr_scan", "ios": "https://dc.lft.to/lastmile_qr_scan"}, "name": "f93096d506e5c3097a0bd083445bb999", "is_reserved": 0}, {"is_disabled": 0, "fusion_lon": 0.0, "fusion_lat": 0.0, "lat": 38.863550833333335, "type": "electric_scooter", "lon": -76.99067333333333, "bike_id": "cc8a183f09072cb128c3edb071676011", "rental_uris": {"android": "https://dc.lft.to/lastmile_qr_scan", "ios": "https://dc.lft.to/lastmile_qr_scan"}, "name": "cc8a183f09072cb128c3edb071676011", "is_reserved": 0}, {"is_disabled": 0, "fusion_lon": 0.0, "fusion_lat": 0.0, "lat": 38.905401, "type": "electric_scooter", "lon": -77.05004633333333, "bike_id": "a277b550e6d3245fb5e0f1bdf8d76cd1", "rental_uris": {"android": "https://dc.lft.to/lastmile_qr_scan", "ios": "https://dc.lft.to/lastmile_qr_scan"}, "name": "a277b550e6d3245fb5e0f1bdf8d76cd1", "is_reserved": 0}, {"is_disabled": 0, "fusion_lon": 0.0, "fusion_lat": 0.0, "lat": 38.911219333333335, "type": "electric_scooter", "lon": -77.04211366666667, "bike_id": "f7a3c61609b7d4792f44e7685a5890aa", "rental_uris": {"android": "https://dc.lft.to/lastmile_qr_scan", "ios": "https://dc.lft.to/lastmile_qr_scan"}, "name": "f7a3c61609b7d4792f44e7685a5890aa", "is_reserved": 0}, {"is_disabled": 0, "fusion_lon": 0.0, "fusion_lat": 0.0, "lat": 38.8858045, "type": "electric_scooter", "lon": -77.01980666666667, "bike_id": "ed33fe77c956f3dbf645399bc30688be", "rental_uris": {"android": "https://dc.lft.to/lastmile_qr_scan", "ios": "https://dc.lft.to/lastmile_qr_scan"}, "name": "ed33fe77c956f3dbf645399bc30688be", "is_reserved": 0}, {"is_disabled": 0, "fusion_lon": 0.0, "fusion_lat": 0.0, "lat": 38.90091433333333, "type": "electric_scooter", "lon": -77.04878066666667, "bike_id": "6087b6855c255a668669233624197473", "rental_uris": {"android": "https://dc.lft.to/lastmile_qr_scan", "ios": "https://dc.lft.to/lastmile_qr_scan"}, "name": "6087b6855c255a668669233624197473", "is_reserved": 0}, {"is_disabled": 0, "fusion_lon": 0.0, "fusion_lat": 0.0, "lat": 38.90779116666667, "type": "electric_scooter", "lon": -77.03193733333333, "bike_id": "69e11a55c790cfeeba28f6e53cb35cb7", "rental_uris": {"android": "https://dc.lft.to/lastmile_qr_scan", "ios": "https://dc.lft.to/lastmile_qr_scan"}, "name": "69e11a55c790cfeeba28f6e53cb35cb7", "is_reserved": 0}, {"is_disabled": 0, "fusion_lon": 0.0, "fusion_lat": 0.0, "lat": 38.990596, "type": "electric_bike", "lon": -77.1002795, "bike_id": "03b343530375f8f231ca45fc657dee70", "rental_uris": {"android": "https://dc.lft.to/lastmile_qr_scan", "ios": "https://dc.lft.to/lastmile_qr_scan"}, "name": "03b343530375f8f231ca45fc657dee70", "is_reserved": 0}, {"is_disabled": 0, "fusion_lon": 0.0, "fusion_lat": 0.0, "lat": 38.99091583333333, "type": "electric_bike", "lon": -76.8749725, "bike_id": "4454bfce3cc0f5b070f585ff97890539", "rental_uris": {"android": "https://dc.lft.to/lastmile_qr_scan", "ios": "https://dc.lft.to/lastmile_qr_scan"}, "name": "4454bfce3cc0f5b070f585ff97890539", "is_reserved": 0}, {"is_disabled": 0, "fusion_lon": 0.0, "fusion_lat": 0.0, "lat": 38.877918, "type": "electric_scooter", "lon": -77.01367516666667, "bike_id": "c09ebec7b92f3017de4149cb5542a5c1", "rental_uris": {"android": "https://dc.lft.to/lastmile_qr_scan", "ios": "https://dc.lft.to/lastmile_qr_scan"}, "name": "c09ebec7b92f3017de4149cb5542a5c1", "is_reserved": 0}, {"is_disabled": 0, "fusion_lon": 0.0, "fusion_lat": 0.0, "lat": 38.867221, "type": "electric_scooter", "lon": -76.97920416666666, "bike_id": "0a6e4bebd3603c36a2165bea61535328", "rental_uris": {"android": "https://dc.lft.to/lastmile_qr_scan", "ios": "https://dc.lft.to/lastmile_qr_scan"}, "name": "0a6e4bebd3603c36a2165bea61535328", "is_reserved": 0}, {"is_disabled": 0, "fusion_lon": 0.0, "fusion_lat": 0.0, "lat": 38.95740333333333, "type": "electric_scooter", "lon": -77.02426216666667, "bike_id": "eb6a1a177c7b17dace7df0f7400272b6", "rental_uris": {"android": "https://dc.lft.to/lastmile_qr_scan", "ios": "https://dc.lft.to/lastmile_qr_scan"}, "name": "eb6a1a177c7b17dace7df0f7400272b6", "is_reserved": 0}, {"is_disabled": 0, "fusion_lon": 0.0, "fusion_lat": 0.0, "lat": 38.92994733333333, "type": "electric_scooter", "lon": -77.03642266666667, "bike_id": "c5f37b319310227343154cc1e365eaf2", "rental_uris": {"android": "https://dc.lft.to/lastmile_qr_scan", "ios": "https://dc.lft.to/lastmile_qr_scan"}, "name": "c5f37b319310227343154cc1e365eaf2", "is_reserved": 0}, {"is_disabled": 0, "fusion_lon": 0.0, "fusion_lat": 0.0, "lat": 38.9333765, "type": "electric_scooter", "lon": -77.0413755, "bike_id": "120773b52200b3ff9cb582d57ef98e8d", "rental_uris": {"android": "https://dc.lft.to/lastmile_qr_scan", "ios": "https://dc.lft.to/lastmile_qr_scan"}, "name": "120773b52200b3ff9cb582d57ef98e8d", "is_reserved": 0}, {"is_disabled": 0, "fusion_lon": 0.0, "fusion_lat": 0.0, "lat": 38.928687333333336, "type": "electric_scooter", "lon": -76.990286, "bike_id": "b349482d23f4ce3aabb387705a401deb", "rental_uris": {"android": "https://dc.lft.to/lastmile_qr_scan", "ios": "https://dc.lft.to/lastmile_qr_scan"}, "name": "b349482d23f4ce3aabb387705a401deb", "is_reserved": 0}, {"is_disabled": 0, "fusion_lon": 0.0, "fusion_lat": 0.0, "lat": 38.928266666666666, "type": "electric_scooter", "lon": -77.02263433333333, "bike_id": "ee719363e264d8ce185483fc3a52b595", "rental_uris": {"android": "https://dc.lft.to/lastmile_qr_scan", "ios": "https://dc.lft.to/lastmile_qr_scan"}, "name": "ee719363e264d8ce185483fc3a52b595", "is_reserved": 0}, {"is_disabled": 0, "fusion_lon": 0.0, "fusion_lat": 0.0, "lat": 38.913403333333335, "type": "electric_scooter", "lon": -77.05220666666666, "bike_id": "2a49bb4761b40074585ab03c5a319960", "rental_uris": {"android": "https://dc.lft.to/lastmile_qr_scan", "ios": "https://dc.lft.to/lastmile_qr_scan"}, "name": "2a49bb4761b40074585ab03c5a319960", "is_reserved": 0}, {"is_disabled": 0, "fusion_lon": 0.0, "fusion_lat": 0.0, "lat": 38.9273625, "type": "electric_bike", "lon": -76.993642, "bike_id": "a87ac8f535188646ac61a28edb396fe9", "rental_uris": {"android": "https://dc.lft.to/lastmile_qr_scan", "ios": "https://dc.lft.to/lastmile_qr_scan"}, "name": "a87ac8f535188646ac61a28edb396fe9", "is_reserved": 0}, {"is_disabled": 0, "fusion_lon": 0.0, "fusion_lat": 0.0, "lat": 38.9847495, "type": "electric_scooter", "lon": -77.02649283333334, "bike_id": "eddbf1e99fba0b4f63f409065a413d87", "rental_uris": {"android": "https://dc.lft.to/lastmile_qr_scan", "ios": "https://dc.lft.to/lastmile_qr_scan"}, "name": "eddbf1e99fba0b4f63f409065a413d87", "is_reserved": 0}, {"is_disabled": 0, "fusion_lon": 0.0, "fusion_lat": 0.0, "lat": 38.89360883333333, "type": "electric_scooter", "lon": -76.93989483333333, "bike_id": "6fe1b42a506994fae492002d960dd24d", "rental_uris": {"android": "https://dc.lft.to/lastmile_qr_scan", "ios": "https://dc.lft.to/lastmile_qr_scan"}, "name": "6fe1b42a506994fae492002d960dd24d", "is_reserved": 0}, {"is_disabled": 0, "fusion_lon": 0.0, "fusion_lat": 0.0, "lat": 38.934185166666666, "type": "electric_scooter", "lon": -77.02449483333334, "bike_id": "9c83f1d596bd28f39f805dff1c5e065f", "rental_uris": {"android": "https://dc.lft.to/lastmile_qr_scan", "ios": "https://dc.lft.to/lastmile_qr_scan"}, "name": "9c83f1d596bd28f39f805dff1c5e065f", "is_reserved": 0}, {"is_disabled": 0, "fusion_lon": 0.0, "fusion_lat": 0.0, "lat": 38.9097175, "type": "electric_scooter", "lon": -77.03873, "bike_id": "5be1b1e1dc1bca542a77bde20476217d", "rental_uris": {"android": "https://dc.lft.to/lastmile_qr_scan", "ios": "https://dc.lft.to/lastmile_qr_scan"}, "name": "5be1b1e1dc1bca542a77bde20476217d", "is_reserved": 0}, {"is_disabled": 0, "fusion_lon": 0.0, "fusion_lat": 0.0, "lat": 38.911268666666665, "type": "electric_scooter", "lon": -77.041807, "bike_id": "699c489f78f06aafc594d8bbb442d164", "rental_uris": {"android": "https://dc.lft.to/lastmile_qr_scan", "ios": "https://dc.lft.to/lastmile_qr_scan"}, "name": "699c489f78f06aafc594d8bbb442d164", "is_reserved": 0}, {"is_disabled": 0, "fusion_lon": 0.0, "fusion_lat": 0.0, "lat": 38.84289883333334, "type": "electric_scooter", "lon": -76.999504, "bike_id": "ccb1c22439099d3d322dc4666c2a2581", "rental_uris": {"android": "https://dc.lft.to/lastmile_qr_scan", "ios": "https://dc.lft.to/lastmile_qr_scan"}, "name": "ccb1c22439099d3d322dc4666c2a2581", "is_reserved": 0}, {"is_disabled": 0, "fusion_lon": 0.0, "fusion_lat": 0.0, "lat": 38.90838566666667, "type": "electric_scooter", "lon": -76.9969965, "bike_id": "0b6ac1e0bf444604f648084fad94e1a3", "rental_uris": {"android": "https://dc.lft.to/lastmile_qr_scan", "ios": "https://dc.lft.to/lastmile_qr_scan"}, "name": "0b6ac1e0bf444604f648084fad94e1a3", "is_reserved": 0}, {"is_disabled": 0, "fusion_lon": 0.0, "fusion_lat": 0.0, "lat": 38.92091383333333, "type": "electric_scooter", "lon": -77.03161016666667, "bike_id": "50ffb080296b9b6f886e34c2f736eb38", "rental_uris": {"android": "https://dc.lft.to/lastmile_qr_scan", "ios": "https://dc.lft.to/lastmile_qr_scan"}, "name": "50ffb080296b9b6f886e34c2f736eb38", "is_reserved": 0}, {"is_disabled": 0, "fusion_lon": 0.0, "fusion_lat": 0.0, "lat": 38.900073666666664, "type": "electric_scooter", "lon": -76.9968535, "bike_id": "6207997f253a03ed7ae8c45e396a13f1", "rental_uris": {"android": "https://dc.lft.to/lastmile_qr_scan", "ios": "https://dc.lft.to/lastmile_qr_scan"}, "name": "6207997f253a03ed7ae8c45e396a13f1", "is_reserved": 0}, {"is_disabled": 0, "fusion_lon": 0.0, "fusion_lat": 0.0, "lat": 38.900597833333336, "type": "electric_scooter", "lon": -76.986846, "bike_id": "94abf809d821ef618f69b5656dc59b0f", "rental_uris": {"android": "https://dc.lft.to/lastmile_qr_scan", "ios": "https://dc.lft.to/lastmile_qr_scan"}, "name": "94abf809d821ef618f69b5656dc59b0f", "is_reserved": 0}, {"is_disabled": 0, "fusion_lon": 0.0, "fusion_lat": 0.0, "lat": 38.91382316666667, "type": "electric_scooter", "lon": -77.02972833333334, "bike_id": "a13aa664868c2fcdb203b14c94b760cb", "rental_uris": {"android": "https://dc.lft.to/lastmile_qr_scan", "ios": "https://dc.lft.to/lastmile_qr_scan"}, "name": "a13aa664868c2fcdb203b14c94b760cb", "is_reserved": 0}, {"is_disabled": 0, "fusion_lon": 0.0, "fusion_lat": 0.0, "lat": 38.887040999999996, "type": "electric_scooter", "lon": -76.953633, "bike_id": "a6cc66aa98d8da914c7276908e992ceb", "rental_uris": {"android": "https://dc.lft.to/lastmile_qr_scan", "ios": "https://dc.lft.to/lastmile_qr_scan"}, "name": "a6cc66aa98d8da914c7276908e992ceb", "is_reserved": 0}, {"is_disabled": 0, "fusion_lon": 0.0, "fusion_lat": 0.0, "lat": 38.876724, "type": "electric_bike", "lon": -77.014448, "bike_id": "2a0ae3f5ecb3ac150f7e962cb1ff08cb", "rental_uris": {"android": "https://dc.lft.to/lastmile_qr_scan", "ios": "https://dc.lft.to/lastmile_qr_scan"}, "name": "2a0ae3f5ecb3ac150f7e962cb1ff08cb", "is_reserved": 0}, {"is_disabled": 0, "fusion_lon": 0.0, "fusion_lat": 0.0, "lat": 39.058086, "type": "electric_bike", "lon": -77.12629266666667, "bike_id": "500c219746ceeaf62a6f680e1c442035", "rental_uris": {"android": "https://dc.lft.to/lastmile_qr_scan", "ios": "https://dc.lft.to/lastmile_qr_scan"}, "name": "500c219746ceeaf62a6f680e1c442035", "is_reserved": 0}, {"is_disabled": 0, "fusion_lon": 0.0, "fusion_lat": 0.0, "lat": 38.90377733333333, "type": "electric_scooter", "lon": -77.0255415, "bike_id": "794c5b5dbf797b6942822ae607616826", "rental_uris": {"android": "https://dc.lft.to/lastmile_qr_scan", "ios": "https://dc.lft.to/lastmile_qr_scan"}, "name": "794c5b5dbf797b6942822ae607616826", "is_reserved": 0}, {"is_disabled": 0, "fusion_lon": 0.0, "fusion_lat": 0.0, "lat": 38.905108, "type": "electric_scooter", "lon": -77.02605133333333, "bike_id": "93ada7c7908b6fde71f9ecacd15db79b", "rental_uris": {"android": "https://dc.lft.to/lastmile_qr_scan", "ios": "https://dc.lft.to/lastmile_qr_scan"}, "name": "93ada7c7908b6fde71f9ecacd15db79b", "is_reserved": 0}, {"is_disabled": 0, "fusion_lon": 0.0, "fusion_lat": 0.0, "lat": 38.92296066666667, "type": "electric_scooter", "lon": -77.04015, "bike_id": "e018e02bccd772619e2c9ab44095b470", "rental_uris": {"android": "https://dc.lft.to/lastmile_qr_scan", "ios": "https://dc.lft.to/lastmile_qr_scan"}, "name": "e018e02bccd772619e2c9ab44095b470", "is_reserved": 0}, {"is_disabled": 0, "fusion_lon": 0.0, "fusion_lat": 0.0, "lat": 38.88754733333333, "type": "electric_scooter", "lon": -77.0338445, "bike_id": "9b4db6891ef92c08965bf129c8ad158f", "rental_uris": {"android": "https://dc.lft.to/lastmile_qr_scan", "ios": "https://dc.lft.to/lastmile_qr_scan"}, "name": "9b4db6891ef92c08965bf129c8ad158f", "is_reserved": 0}, {"is_disabled": 0, "fusion_lon": 0.0, "fusion_lat": 0.0, "lat": 38.9186155, "type": "electric_scooter", "lon": -77.03510316666667, "bike_id": "7bf39b4363e35dc7c82820d8c9f4b158", "rental_uris": {"android": "https://dc.lft.to/lastmile_qr_scan", "ios": "https://dc.lft.to/lastmile_qr_scan"}, "name": "7bf39b4363e35dc7c82820d8c9f4b158", "is_reserved": 0}, {"is_disabled": 0, "fusion_lon": 0.0, "fusion_lat": 0.0, "lat": 38.94153816666667, "type": "electric_bike", "lon": -77.0019695, "bike_id": "7c88f97401280aa9b34e05878845e330", "rental_uris": {"android": "https://dc.lft.to/lastmile_qr_scan", "ios": "https://dc.lft.to/lastmile_qr_scan"}, "name": "7c88f97401280aa9b34e05878845e330", "is_reserved": 0}, {"is_disabled": 0, "fusion_lon": 0.0, "fusion_lat": 0.0, "lat": 38.907591833333335, "type": "electric_scooter", "lon": -77.03590416666667, "bike_id": "9b7a21717eb184ce54940923482f0c41", "rental_uris": {"android": "https://dc.lft.to/lastmile_qr_scan", "ios": "https://dc.lft.to/lastmile_qr_scan"}, "name": "9b7a21717eb184ce54940923482f0c41", "is_reserved": 0}, {"is_disabled": 0, "fusion_lon": 0.0, "fusion_lat": 0.0, "lat": 38.9248125, "type": "electric_scooter", "lon": -77.02714466666667, "bike_id": "90ea8e165807bb84a1667df2484b4237", "rental_uris": {"android": "https://dc.lft.to/lastmile_qr_scan", "ios": "https://dc.lft.to/lastmile_qr_scan"}, "name": "90ea8e165807bb84a1667df2484b4237", "is_reserved": 0}, {"is_disabled": 0, "fusion_lon": 0.0, "fusion_lat": 0.0, "lat": 38.91578533333333, "type": "electric_scooter", "lon": -76.98108416666666, "bike_id": "9471a5a4a5742dc641af2f96a0709445", "rental_uris": {"android": "https://dc.lft.to/lastmile_qr_scan", "ios": "https://dc.lft.to/lastmile_qr_scan"}, "name": "9471a5a4a5742dc641af2f96a0709445", "is_reserved": 0}, {"is_disabled": 0, "fusion_lon": 0.0, "fusion_lat": 0.0, "lat": 38.96759633333333, "type": "electric_bike", "lon": -77.091556, "bike_id": "6dabab7df5594562fe39ed511f06bf0d", "rental_uris": {"android": "https://dc.lft.to/lastmile_qr_scan", "ios": "https://dc.lft.to/lastmile_qr_scan"}, "name": "6dabab7df5594562fe39ed511f06bf0d", "is_reserved": 0}, {"is_disabled": 0, "fusion_lon": 0.0, "fusion_lat": 0.0, "lat": 38.85808383333333, "type": "electric_scooter", "lon": -76.9865445, "bike_id": "15f786555e4658867b62aef417d1afe1", "rental_uris": {"android": "https://dc.lft.to/lastmile_qr_scan", "ios": "https://dc.lft.to/lastmile_qr_scan"}, "name": "15f786555e4658867b62aef417d1afe1", "is_reserved": 0}, {"is_disabled": 0, "fusion_lon": 0.0, "fusion_lat": 0.0, "lat": 38.841993333333335, "type": "electric_bike", "lon": -77.10687916666667, "bike_id": "f0c47726ae32f282406cd3dbc0608576", "rental_uris": {"android": "https://dc.lft.to/lastmile_qr_scan", "ios": "https://dc.lft.to/lastmile_qr_scan"}, "name": "f0c47726ae32f282406cd3dbc0608576", "is_reserved": 0}, {"is_disabled": 0, "fusion_lon": 0.0, "fusion_lat": 0.0, "lat": 38.92839016666667, "type": "electric_scooter", "lon": -77.014019, "bike_id": "11c1be6abe0d9c0866007524d10102bb", "rental_uris": {"android": "https://dc.lft.to/lastmile_qr_scan", "ios": "https://dc.lft.to/lastmile_qr_scan"}, "name": "11c1be6abe0d9c0866007524d10102bb", "is_reserved": 0}, {"is_disabled": 0, "fusion_lon": 0.0, "fusion_lat": 0.0, "lat": 38.99893, "type": "electric_bike", "lon": -77.02877316666667, "bike_id": "92fc54e4043ecc4123b92a5016246a48", "rental_uris": {"android": "https://dc.lft.to/lastmile_qr_scan", "ios": "https://dc.lft.to/lastmile_qr_scan"}, "name": "92fc54e4043ecc4123b92a5016246a48", "is_reserved": 0}, {"is_disabled": 0, "fusion_lon": 0.0, "fusion_lat": 0.0, "lat": 38.86320283333333, "type": "electric_scooter", "lon": -76.99042233333333, "bike_id": "4655f2b0122e9746958fdcfe7095c943", "rental_uris": {"android": "https://dc.lft.to/lastmile_qr_scan", "ios": "https://dc.lft.to/lastmile_qr_scan"}, "name": "4655f2b0122e9746958fdcfe7095c943", "is_reserved": 0}, {"is_disabled": 0, "fusion_lon": 0.0, "fusion_lat": 0.0, "lat": 38.92487933333334, "type": "electric_scooter", "lon": -77.03493383333333, "bike_id": "ab449eb762874e319aee59cb212acc8f", "rental_uris": {"android": "https://dc.lft.to/lastmile_qr_scan", "ios": "https://dc.lft.to/lastmile_qr_scan"}, "name": "ab449eb762874e319aee59cb212acc8f", "is_reserved": 0}, {"is_disabled": 0, "fusion_lon": 0.0, "fusion_lat": 0.0, "lat": 38.91711933333333, "type": "electric_scooter", "lon": -77.03477233333334, "bike_id": "f58fca66eead5af8f1a6e8feab3b8060", "rental_uris": {"android": "https://dc.lft.to/lastmile_qr_scan", "ios": "https://dc.lft.to/lastmile_qr_scan"}, "name": "f58fca66eead5af8f1a6e8feab3b8060", "is_reserved": 0}, {"is_disabled": 0, "fusion_lon": 0.0, "fusion_lat": 0.0, "lat": 38.919585166666664, "type": "electric_scooter", "lon": -77.02365316666666, "bike_id": "bb9f65053108abca5064e560b5bdace6", "rental_uris": {"android": "https://dc.lft.to/lastmile_qr_scan", "ios": "https://dc.lft.to/lastmile_qr_scan"}, "name": "bb9f65053108abca5064e560b5bdace6", "is_reserved": 0}, {"is_disabled": 0, "fusion_lon": 0.0, "fusion_lat": 0.0, "lat": 38.84599083333333, "type": "electric_bike", "lon": -76.96886983333333, "bike_id": "496df965e97ab568ea5fb21dfe73245f", "rental_uris": {"android": "https://dc.lft.to/lastmile_qr_scan", "ios": "https://dc.lft.to/lastmile_qr_scan"}, "name": "496df965e97ab568ea5fb21dfe73245f", "is_reserved": 0}, {"is_disabled": 0, "fusion_lon": 0.0, "fusion_lat": 0.0, "lat": 38.90033733333333, "type": "electric_scooter", "lon": -77.03391133333334, "bike_id": "022383af67ad850f37f521cd360a1ede", "rental_uris": {"android": "https://dc.lft.to/lastmile_qr_scan", "ios": "https://dc.lft.to/lastmile_qr_scan"}, "name": "022383af67ad850f37f521cd360a1ede", "is_reserved": 0}, {"is_disabled": 0, "fusion_lon": 0.0, "fusion_lat": 0.0, "lat": 38.9171075, "type": "electric_scooter", "lon": -77.02620233333333, "bike_id": "9f6d7757206e8289211711a539ad8799", "rental_uris": {"android": "https://dc.lft.to/lastmile_qr_scan", "ios": "https://dc.lft.to/lastmile_qr_scan"}, "name": "9f6d7757206e8289211711a539ad8799", "is_reserved": 0}, {"is_disabled": 0, "fusion_lon": 0.0, "fusion_lat": 0.0, "lat": 38.91743366666667, "type": "electric_scooter", "lon": -77.04401433333334, "bike_id": "beb1b904eb4bfe9916c753ea148feec2", "rental_uris": {"android": "https://dc.lft.to/lastmile_qr_scan", "ios": "https://dc.lft.to/lastmile_qr_scan"}, "name": "beb1b904eb4bfe9916c753ea148feec2", "is_reserved": 0}, {"is_disabled": 0, "fusion_lon": 0.0, "fusion_lat": 0.0, "lat": 38.87192433333333, "type": "electric_scooter", "lon": -76.97823916666667, "bike_id": "c0db469f4126c2eab10212a7b997d19f", "rental_uris": {"android": "https://dc.lft.to/lastmile_qr_scan", "ios": "https://dc.lft.to/lastmile_qr_scan"}, "name": "c0db469f4126c2eab10212a7b997d19f", "is_reserved": 0}, {"is_disabled": 0, "fusion_lon": 0.0, "fusion_lat": 0.0, "lat": 38.90590666666667, "type": "electric_scooter", "lon": -77.06914983333333, "bike_id": "7751d37c4e28d7c28b5ec4a0650822a3", "rental_uris": {"android": "https://dc.lft.to/lastmile_qr_scan", "ios": "https://dc.lft.to/lastmile_qr_scan"}, "name": "7751d37c4e28d7c28b5ec4a0650822a3", "is_reserved": 0}, {"is_disabled": 0, "fusion_lon": 0.0, "fusion_lat": 0.0, "lat": 38.96139633333333, "type": "electric_scooter", "lon": -77.02806283333334, "bike_id": "fc6a7fc85f6f42f7204a69fc30cd6ef7", "rental_uris": {"android": "https://dc.lft.to/lastmile_qr_scan", "ios": "https://dc.lft.to/lastmile_qr_scan"}, "name": "fc6a7fc85f6f42f7204a69fc30cd6ef7", "is_reserved": 0}, {"is_disabled": 0, "fusion_lon": 0.0, "fusion_lat": 0.0, "lat": 38.92435666666667, "type": "electric_bike", "lon": -76.90761516666667, "bike_id": "55a6dc2f46ebd5e56000de92cefd7511", "rental_uris": {"android": "https://dc.lft.to/lastmile_qr_scan", "ios": "https://dc.lft.to/lastmile_qr_scan"}, "name": "55a6dc2f46ebd5e56000de92cefd7511", "is_reserved": 0}, {"is_disabled": 0, "fusion_lon": 0.0, "fusion_lat": 0.0, "lat": 38.889193166666665, "type": "electric_scooter", "lon": -76.98012583333333, "bike_id": "ae5d6282ce021c943cf660983aed2402", "rental_uris": {"android": "https://dc.lft.to/lastmile_qr_scan", "ios": "https://dc.lft.to/lastmile_qr_scan"}, "name": "ae5d6282ce021c943cf660983aed2402", "is_reserved": 0}, {"is_disabled": 0, "fusion_lon": 0.0, "fusion_lat": 0.0, "lat": 38.90801883333334, "type": "electric_scooter", "lon": -77.00121916666667, "bike_id": "b44d9b6c41960e295f9ef5709f3cc62f", "rental_uris": {"android": "https://dc.lft.to/lastmile_qr_scan", "ios": "https://dc.lft.to/lastmile_qr_scan"}, "name": "b44d9b6c41960e295f9ef5709f3cc62f", "is_reserved": 0}, {"is_disabled": 0, "fusion_lon": 0.0, "fusion_lat": 0.0, "lat": 38.913016666666664, "type": "electric_scooter", "lon": -77.031804, "bike_id": "0c5e8c81fd59cc6d05b12a12cfd23db1", "rental_uris": {"android": "https://dc.lft.to/lastmile_qr_scan", "ios": "https://dc.lft.to/lastmile_qr_scan"}, "name": "0c5e8c81fd59cc6d05b12a12cfd23db1", "is_reserved": 0}, {"is_disabled": 0, "fusion_lon": 0.0, "fusion_lat": 0.0, "lat": 38.905452833333335, "type": "electric_scooter", "lon": -77.05011783333333, "bike_id": "c01ccf1a13a7167de3109e5b0fbe7c11", "rental_uris": {"android": "https://dc.lft.to/lastmile_qr_scan", "ios": "https://dc.lft.to/lastmile_qr_scan"}, "name": "c01ccf1a13a7167de3109e5b0fbe7c11", "is_reserved": 0}, {"is_disabled": 0, "fusion_lon": 0.0, "fusion_lat": 0.0, "lat": 38.92230416666666, "type": "electric_scooter", "lon": -77.03318216666666, "bike_id": "f69e28c673c65865581ecf6139b01e53", "rental_uris": {"android": "https://dc.lft.to/lastmile_qr_scan", "ios": "https://dc.lft.to/lastmile_qr_scan"}, "name": "f69e28c673c65865581ecf6139b01e53", "is_reserved": 0}, {"is_disabled": 0, "fusion_lon": 0.0, "fusion_lat": 0.0, "lat": 38.936587333333335, "type": "electric_scooter", "lon": -77.05931466666667, "bike_id": "51b89d6af93e719439c086dbf305a424", "rental_uris": {"android": "https://dc.lft.to/lastmile_qr_scan", "ios": "https://dc.lft.to/lastmile_qr_scan"}, "name": "51b89d6af93e719439c086dbf305a424", "is_reserved": 0}, {"is_disabled": 0, "fusion_lon": 0.0, "fusion_lat": 0.0, "lat": 38.930355, "type": "electric_bike", "lon": -77.08272733333334, "bike_id": "6b3de3b94582ce6ad7aa73b52dbf6208", "rental_uris": {"android": "https://dc.lft.to/lastmile_qr_scan", "ios": "https://dc.lft.to/lastmile_qr_scan"}, "name": "6b3de3b94582ce6ad7aa73b52dbf6208", "is_reserved": 0}, {"is_disabled": 0, "fusion_lon": 0.0, "fusion_lat": 0.0, "lat": 38.855000833333335, "type": "electric_bike", "lon": -77.120375, "bike_id": "1fce00a63abfcf3ae0a9ff75eb3ac228", "rental_uris": {"android": "https://dc.lft.to/lastmile_qr_scan", "ios": "https://dc.lft.to/lastmile_qr_scan"}, "name": "1fce00a63abfcf3ae0a9ff75eb3ac228", "is_reserved": 0}, {"is_disabled": 0, "fusion_lon": 0.0, "fusion_lat": 0.0, "lat": 38.883756, "type": "electric_scooter", "lon": -77.0242465, "bike_id": "a41461996d025bb5a324aa7aacdae311", "rental_uris": {"android": "https://dc.lft.to/lastmile_qr_scan", "ios": "https://dc.lft.to/lastmile_qr_scan"}, "name": "a41461996d025bb5a324aa7aacdae311", "is_reserved": 0}, {"is_disabled": 0, "fusion_lon": 0.0, "fusion_lat": 0.0, "lat": 38.91710233333333, "type": "electric_scooter", "lon": -77.02883916666667, "bike_id": "e6b6504215008f80b8a6acd48fc89e89", "rental_uris": {"android": "https://dc.lft.to/lastmile_qr_scan", "ios": "https://dc.lft.to/lastmile_qr_scan"}, "name": "e6b6504215008f80b8a6acd48fc89e89", "is_reserved": 0}, {"is_disabled": 0, "fusion_lon": 0.0, "fusion_lat": 0.0, "lat": 38.922082, "type": "electric_scooter", "lon": -77.04243583333333, "bike_id": "1e730d6918b71a31e5d3e96add9059e8", "rental_uris": {"android": "https://dc.lft.to/lastmile_qr_scan", "ios": "https://dc.lft.to/lastmile_qr_scan"}, "name": "1e730d6918b71a31e5d3e96add9059e8", "is_reserved": 0}, {"is_disabled": 0, "fusion_lon": 0.0, "fusion_lat": 0.0, "lat": 38.897481, "type": "electric_scooter", "lon": -77.02183716666667, "bike_id": "08f003d5d20fe8081a1777211101b789", "rental_uris": {"android": "https://dc.lft.to/lastmile_qr_scan", "ios": "https://dc.lft.to/lastmile_qr_scan"}, "name": "08f003d5d20fe8081a1777211101b789", "is_reserved": 0}, {"is_disabled": 0, "fusion_lon": 0.0, "fusion_lat": 0.0, "lat": 38.90735683333333, "type": "electric_scooter", "lon": -77.00757583333333, "bike_id": "886ff844f2632ea925489e9445706441", "rental_uris": {"android": "https://dc.lft.to/lastmile_qr_scan", "ios": "https://dc.lft.to/lastmile_qr_scan"}, "name": "886ff844f2632ea925489e9445706441", "is_reserved": 0}, {"is_disabled": 0, "fusion_lon": 0.0, "fusion_lat": 0.0, "lat": 38.91267533333333, "type": "electric_scooter", "lon": -77.01068766666667, "bike_id": "ac82797d82048a1191ff8085087a13e2", "rental_uris": {"android": "https://dc.lft.to/lastmile_qr_scan", "ios": "https://dc.lft.to/lastmile_qr_scan"}, "name": "ac82797d82048a1191ff8085087a13e2", "is_reserved": 0}, {"is_disabled": 0, "fusion_lon": 0.0, "fusion_lat": 0.0, "lat": 38.919517, "type": "electric_scooter", "lon": -77.01385583333334, "bike_id": "b94006d1e2c2b23ac3d1b39116bcf7f3", "rental_uris": {"android": "https://dc.lft.to/lastmile_qr_scan", "ios": "https://dc.lft.to/lastmile_qr_scan"}, "name": "b94006d1e2c2b23ac3d1b39116bcf7f3", "is_reserved": 0}, {"is_disabled": 0, "fusion_lon": 0.0, "fusion_lat": 0.0, "lat": 38.9094905, "type": "electric_scooter", "lon": -77.02185033333333, "bike_id": "27346fc7a0bc704df09e904605f9bdf5", "rental_uris": {"android": "https://dc.lft.to/lastmile_qr_scan", "ios": "https://dc.lft.to/lastmile_qr_scan"}, "name": "27346fc7a0bc704df09e904605f9bdf5", "is_reserved": 0}, {"is_disabled": 0, "fusion_lon": 0.0, "fusion_lat": 0.0, "lat": 38.9104565, "type": "electric_scooter", "lon": -77.062, "bike_id": "cdb6d2fbe4b6ac6b633e540d2e93128d", "rental_uris": {"android": "https://dc.lft.to/lastmile_qr_scan", "ios": "https://dc.lft.to/lastmile_qr_scan"}, "name": "cdb6d2fbe4b6ac6b633e540d2e93128d", "is_reserved": 0}, {"is_disabled": 0, "fusion_lon": 0.0, "fusion_lat": 0.0, "lat": 38.934797333333336, "type": "electric_scooter", "lon": -77.02406583333334, "bike_id": "220f647d29cb73d8968c963719e1f607", "rental_uris": {"android": "https://dc.lft.to/lastmile_qr_scan", "ios": "https://dc.lft.to/lastmile_qr_scan"}, "name": "220f647d29cb73d8968c963719e1f607", "is_reserved": 0}, {"is_disabled": 0, "fusion_lon": 0.0, "fusion_lat": 0.0, "lat": 38.88741016666667, "type": "electric_scooter", "lon": -77.01534166666667, "bike_id": "7c47e9fac8d94a2adf7dff579e2176fe", "rental_uris": {"android": "https://dc.lft.to/lastmile_qr_scan", "ios": "https://dc.lft.to/lastmile_qr_scan"}, "name": "7c47e9fac8d94a2adf7dff579e2176fe", "is_reserved": 0}, {"is_disabled": 0, "fusion_lon": 0.0, "fusion_lat": 0.0, "lat": 38.80298616666666, "type": "electric_bike", "lon": -77.03987, "bike_id": "488553d41565e879ef361b411d733174", "rental_uris": {"android": "https://dc.lft.to/lastmile_qr_scan", "ios": "https://dc.lft.to/lastmile_qr_scan"}, "name": "488553d41565e879ef361b411d733174", "is_reserved": 0}, {"is_disabled": 0, "fusion_lon": 0.0, "fusion_lat": 0.0, "lat": 38.917388333333335, "type": "electric_scooter", "lon": -77.00883716666667, "bike_id": "a930ae2484a6cb543737ac394fac730e", "rental_uris": {"android": "https://dc.lft.to/lastmile_qr_scan", "ios": "https://dc.lft.to/lastmile_qr_scan"}, "name": "a930ae2484a6cb543737ac394fac730e", "is_reserved": 0}, {"is_disabled": 0, "fusion_lon": 0.0, "fusion_lat": 0.0, "lat": 38.936046833333336, "type": "electric_scooter", "lon": -77.055874, "bike_id": "582d98d7e47e153b56e1a62493a5d7f3", "rental_uris": {"android": "https://dc.lft.to/lastmile_qr_scan", "ios": "https://dc.lft.to/lastmile_qr_scan"}, "name": "582d98d7e47e153b56e1a62493a5d7f3", "is_reserved": 0}, {"is_disabled": 0, "fusion_lon": 0.0, "fusion_lat": 0.0, "lat": 38.918111833333334, "type": "electric_scooter", "lon": -77.031843, "bike_id": "7d80e41921ed0d9d87edd67562284ff2", "rental_uris": {"android": "https://dc.lft.to/lastmile_qr_scan", "ios": "https://dc.lft.to/lastmile_qr_scan"}, "name": "7d80e41921ed0d9d87edd67562284ff2", "is_reserved": 0}, {"is_disabled": 0, "fusion_lon": 0.0, "fusion_lat": 0.0, "lat": 38.853242, "type": "electric_bike", "lon": -77.05334716666667, "bike_id": "4bb03bd862cc86d8939d54e2300006c6", "rental_uris": {"android": "https://dc.lft.to/lastmile_qr_scan", "ios": "https://dc.lft.to/lastmile_qr_scan"}, "name": "4bb03bd862cc86d8939d54e2300006c6", "is_reserved": 0}, {"is_disabled": 0, "fusion_lon": 0.0, "fusion_lat": 0.0, "lat": 38.9073185, "type": "electric_scooter", "lon": -77.029631, "bike_id": "464b7797208f9533c62206b79c726659", "rental_uris": {"android": "https://dc.lft.to/lastmile_qr_scan", "ios": "https://dc.lft.to/lastmile_qr_scan"}, "name": "464b7797208f9533c62206b79c726659", "is_reserved": 0}, {"is_disabled": 0, "fusion_lon": 0.0, "fusion_lat": 0.0, "lat": 38.921108333333336, "type": "electric_scooter", "lon": -77.01762283333333, "bike_id": "35498f848df211ca8c54a9750dbb595d", "rental_uris": {"android": "https://dc.lft.to/lastmile_qr_scan", "ios": "https://dc.lft.to/lastmile_qr_scan"}, "name": "35498f848df211ca8c54a9750dbb595d", "is_reserved": 0}, {"is_disabled": 0, "fusion_lon": 0.0, "fusion_lat": 0.0, "lat": 38.93960916666666, "type": "electric_bike", "lon": -77.3609325, "bike_id": "663627cfab229eee13695c258749720a", "rental_uris": {"android": "https://dc.lft.to/lastmile_qr_scan", "ios": "https://dc.lft.to/lastmile_qr_scan"}, "name": "663627cfab229eee13695c258749720a", "is_reserved": 0}, {"is_disabled": 0, "fusion_lon": 0.0, "fusion_lat": 0.0, "lat": 38.92575933333333, "type": "electric_scooter", "lon": -77.08055933333333, "bike_id": "a5afa1b0849a375fcbb5a943f1f3761f", "rental_uris": {"android": "https://dc.lft.to/lastmile_qr_scan", "ios": "https://dc.lft.to/lastmile_qr_scan"}, "name": "a5afa1b0849a375fcbb5a943f1f3761f", "is_reserved": 0}, {"is_disabled": 0, "fusion_lon": 0.0, "fusion_lat": 0.0, "lat": 38.87758433333333, "type": "electric_bike", "lon": -76.97994866666667, "bike_id": "b33bd4e726a40e3fe710b80850df5fdb", "rental_uris": {"android": "https://dc.lft.to/lastmile_qr_scan", "ios": "https://dc.lft.to/lastmile_qr_scan"}, "name": "b33bd4e726a40e3fe710b80850df5fdb", "is_reserved": 0}, {"is_disabled": 0, "fusion_lon": 0.0, "fusion_lat": 0.0, "lat": 38.924616666666665, "type": "electric_scooter", "lon": -77.078625, "bike_id": "dfa21fad87dcad896b3eab480960aa6f", "rental_uris": {"android": "https://dc.lft.to/lastmile_qr_scan", "ios": "https://dc.lft.to/lastmile_qr_scan"}, "name": "dfa21fad87dcad896b3eab480960aa6f", "is_reserved": 0}, {"is_disabled": 0, "fusion_lon": 0.0, "fusion_lat": 0.0, "lat": 38.90593066666667, "type": "electric_scooter", "lon": -77.05592316666667, "bike_id": "7abca1b9f95161de1586bf99c5bf6ad5", "rental_uris": {"android": "https://dc.lft.to/lastmile_qr_scan", "ios": "https://dc.lft.to/lastmile_qr_scan"}, "name": "7abca1b9f95161de1586bf99c5bf6ad5", "is_reserved": 0}, {"is_disabled": 0, "fusion_lon": 0.0, "fusion_lat": 0.0, "lat": 38.922797333333335, "type": "electric_scooter", "lon": -77.0446345, "bike_id": "a751d5b22f4bf325911a528d0799fb7c", "rental_uris": {"android": "https://dc.lft.to/lastmile_qr_scan", "ios": "https://dc.lft.to/lastmile_qr_scan"}, "name": "a751d5b22f4bf325911a528d0799fb7c", "is_reserved": 0}, {"is_disabled": 0, "fusion_lon": 0.0, "fusion_lat": 0.0, "lat": 38.90285466666667, "type": "electric_scooter", "lon": -77.04881383333333, "bike_id": "56237d44a37384316078ddfddd8dc215", "rental_uris": {"android": "https://dc.lft.to/lastmile_qr_scan", "ios": "https://dc.lft.to/lastmile_qr_scan"}, "name": "56237d44a37384316078ddfddd8dc215", "is_reserved": 0}, {"is_disabled": 0, "fusion_lon": 0.0, "fusion_lat": 0.0, "lat": 38.91460033333333, "type": "electric_scooter", "lon": -76.984473, "bike_id": "f706a99245871ca88eeaa5363b465f38", "rental_uris": {"android": "https://dc.lft.to/lastmile_qr_scan", "ios": "https://dc.lft.to/lastmile_qr_scan"}, "name": "f706a99245871ca88eeaa5363b465f38", "is_reserved": 0}, {"is_disabled": 0, "fusion_lon": 0.0, "fusion_lat": 0.0, "lat": 38.94073433333333, "type": "electric_scooter", "lon": -77.0288165, "bike_id": "d1e4e31a40db11dd56cf97f5fab4495b", "rental_uris": {"android": "https://dc.lft.to/lastmile_qr_scan", "ios": "https://dc.lft.to/lastmile_qr_scan"}, "name": "d1e4e31a40db11dd56cf97f5fab4495b", "is_reserved": 0}, {"is_disabled": 0, "fusion_lon": 0.0, "fusion_lat": 0.0, "lat": 38.89524216666667, "type": "electric_scooter", "lon": -77.04846733333333, "bike_id": "a45237094cd7af09b1be46bb7a4fd748", "rental_uris": {"android": "https://dc.lft.to/lastmile_qr_scan", "ios": "https://dc.lft.to/lastmile_qr_scan"}, "name": "a45237094cd7af09b1be46bb7a4fd748", "is_reserved": 0}, {"is_disabled": 0, "fusion_lon": 0.0, "fusion_lat": 0.0, "lat": 38.90441916666666, "type": "electric_scooter", "lon": -77.02403333333334, "bike_id": "93b844d59da8a5cf3d8cb85ce46a9c53", "rental_uris": {"android": "https://dc.lft.to/lastmile_qr_scan", "ios": "https://dc.lft.to/lastmile_qr_scan"}, "name": "93b844d59da8a5cf3d8cb85ce46a9c53", "is_reserved": 0}, {"is_disabled": 0, "fusion_lon": 0.0, "fusion_lat": 0.0, "lat": 38.852790166666665, "type": "electric_bike", "lon": -76.98150133333333, "bike_id": "94853fd2b3f6af9b3cac0f3929edf2ba", "rental_uris": {"android": "https://dc.lft.to/lastmile_qr_scan", "ios": "https://dc.lft.to/lastmile_qr_scan"}, "name": "94853fd2b3f6af9b3cac0f3929edf2ba", "is_reserved": 0}, {"is_disabled": 0, "fusion_lon": 0.0, "fusion_lat": 0.0, "lat": 38.857868, "type": "electric_bike", "lon": -76.987584, "bike_id": "a6e9d3495ebff68ebced910930807853", "rental_uris": {"android": "https://dc.lft.to/lastmile_qr_scan", "ios": "https://dc.lft.to/lastmile_qr_scan"}, "name": "a6e9d3495ebff68ebced910930807853", "is_reserved": 0}, {"is_disabled": 0, "fusion_lon": 0.0, "fusion_lat": 0.0, "lat": 38.904725666666664, "type": "electric_bike", "lon": -76.9294795, "bike_id": "207bf8355c6847351e8bb9886e53b99a", "rental_uris": {"android": "https://dc.lft.to/lastmile_qr_scan", "ios": "https://dc.lft.to/lastmile_qr_scan"}, "name": "207bf8355c6847351e8bb9886e53b99a", "is_reserved": 0}, {"is_disabled": 0, "fusion_lon": 0.0, "fusion_lat": 0.0, "lat": 38.911199833333335, "type": "electric_scooter", "lon": -77.04214183333333, "bike_id": "13399bbc3a09882f2db07f449fce08f3", "rental_uris": {"android": "https://dc.lft.to/lastmile_qr_scan", "ios": "https://dc.lft.to/lastmile_qr_scan"}, "name": "13399bbc3a09882f2db07f449fce08f3", "is_reserved": 0}, {"is_disabled": 0, "fusion_lon": 0.0, "fusion_lat": 0.0, "lat": 38.94332433333334, "type": "electric_bike", "lon": -77.01478333333333, "bike_id": "1f90140e7abaae6a7900da1da23503fd", "rental_uris": {"android": "https://dc.lft.to/lastmile_qr_scan", "ios": "https://dc.lft.to/lastmile_qr_scan"}, "name": "1f90140e7abaae6a7900da1da23503fd", "is_reserved": 0}, {"is_disabled": 0, "fusion_lon": 0.0, "fusion_lat": 0.0, "lat": 38.90003216666667, "type": "electric_scooter", "lon": -77.03355766666667, "bike_id": "0bc1b8666e062492283527a9f3073261", "rental_uris": {"android": "https://dc.lft.to/lastmile_qr_scan", "ios": "https://dc.lft.to/lastmile_qr_scan"}, "name": "0bc1b8666e062492283527a9f3073261", "is_reserved": 0}, {"is_disabled": 0, "fusion_lon": 0.0, "fusion_lat": 0.0, "lat": 38.921303, "type": "electric_scooter", "lon": -77.04431983333333, "bike_id": "653e504e158f5711039f94f6193144e9", "rental_uris": {"android": "https://dc.lft.to/lastmile_qr_scan", "ios": "https://dc.lft.to/lastmile_qr_scan"}, "name": "653e504e158f5711039f94f6193144e9", "is_reserved": 0}, {"is_disabled": 0, "fusion_lon": 0.0, "fusion_lat": 0.0, "lat": 38.921248, "type": "electric_scooter", "lon": -77.04403133333334, "bike_id": "e4dd46a2277e18cb2c5416831502dc01", "rental_uris": {"android": "https://dc.lft.to/lastmile_qr_scan", "ios": "https://dc.lft.to/lastmile_qr_scan"}, "name": "e4dd46a2277e18cb2c5416831502dc01", "is_reserved": 0}, {"is_disabled": 0, "fusion_lon": 0.0, "fusion_lat": 0.0, "lat": 38.89235466666667, "type": "electric_scooter", "lon": -77.043659, "bike_id": "d5a6d94c3840ecfc194362147960fb30", "rental_uris": {"android": "https://dc.lft.to/lastmile_qr_scan", "ios": "https://dc.lft.to/lastmile_qr_scan"}, "name": "d5a6d94c3840ecfc194362147960fb30", "is_reserved": 0}, {"is_disabled": 0, "fusion_lon": 0.0, "fusion_lat": 0.0, "lat": 38.9036575, "type": "electric_scooter", "lon": -77.03201116666666, "bike_id": "95816f384b4b87a0e3fc9548b78bcaa5", "rental_uris": {"android": "https://dc.lft.to/lastmile_qr_scan", "ios": "https://dc.lft.to/lastmile_qr_scan"}, "name": "95816f384b4b87a0e3fc9548b78bcaa5", "is_reserved": 0}, {"is_disabled": 0, "fusion_lon": 0.0, "fusion_lat": 0.0, "lat": 38.947028, "type": "electric_scooter", "lon": -77.01936166666667, "bike_id": "b1b43a0d57ee551d8862572e32594477", "rental_uris": {"android": "https://dc.lft.to/lastmile_qr_scan", "ios": "https://dc.lft.to/lastmile_qr_scan"}, "name": "b1b43a0d57ee551d8862572e32594477", "is_reserved": 0}, {"is_disabled": 0, "fusion_lon": 0.0, "fusion_lat": 0.0, "lat": 38.88470783333333, "type": "electric_scooter", "lon": -76.95225816666667, "bike_id": "86e276d095f2dc969c787198a255df27", "rental_uris": {"android": "https://dc.lft.to/lastmile_qr_scan", "ios": "https://dc.lft.to/lastmile_qr_scan"}, "name": "86e276d095f2dc969c787198a255df27", "is_reserved": 0}, {"is_disabled": 0, "fusion_lon": 0.0, "fusion_lat": 0.0, "lat": 38.926710666666665, "type": "electric_scooter", "lon": -77.10309283333333, "bike_id": "dcd6cf71f81b779d200f31e70d49b631", "rental_uris": {"android": "https://dc.lft.to/lastmile_qr_scan", "ios": "https://dc.lft.to/lastmile_qr_scan"}, "name": "dcd6cf71f81b779d200f31e70d49b631", "is_reserved": 0}, {"is_disabled": 0, "fusion_lon": 0.0, "fusion_lat": 0.0, "lat": 38.907267, "type": "electric_scooter", "lon": -77.034403, "bike_id": "4405c731f5f7438c59bbb1dfd8240930", "rental_uris": {"android": "https://dc.lft.to/lastmile_qr_scan", "ios": "https://dc.lft.to/lastmile_qr_scan"}, "name": "4405c731f5f7438c59bbb1dfd8240930", "is_reserved": 0}, {"is_disabled": 0, "fusion_lon": 0.0, "fusion_lat": 0.0, "lat": 38.91957083333333, "type": "electric_scooter", "lon": -77.02713416666667, "bike_id": "9b88e6c830f964830391d68b75d24c46", "rental_uris": {"android": "https://dc.lft.to/lastmile_qr_scan", "ios": "https://dc.lft.to/lastmile_qr_scan"}, "name": "9b88e6c830f964830391d68b75d24c46", "is_reserved": 0}, {"is_disabled": 0, "fusion_lon": 0.0, "fusion_lat": 0.0, "lat": 38.91035216666667, "type": "electric_scooter", "lon": -76.99341016666666, "bike_id": "399547c9a9c2b9ae1a4a5d958ce37d9f", "rental_uris": {"android": "https://dc.lft.to/lastmile_qr_scan", "ios": "https://dc.lft.to/lastmile_qr_scan"}, "name": "399547c9a9c2b9ae1a4a5d958ce37d9f", "is_reserved": 0}, {"is_disabled": 0, "fusion_lon": 0.0, "fusion_lat": 0.0, "lat": 38.906106, "type": "electric_scooter", "lon": -77.0572155, "bike_id": "99d76639939cd77cbe9aa9b61fba5ce3", "rental_uris": {"android": "https://dc.lft.to/lastmile_qr_scan", "ios": "https://dc.lft.to/lastmile_qr_scan"}, "name": "99d76639939cd77cbe9aa9b61fba5ce3", "is_reserved": 0}, {"is_disabled": 0, "fusion_lon": 0.0, "fusion_lat": 0.0, "lat": 38.92170516666667, "type": "electric_scooter", "lon": -77.055256, "bike_id": "27d0e832309cb182213ccf381e4f1574", "rental_uris": {"android": "https://dc.lft.to/lastmile_qr_scan", "ios": "https://dc.lft.to/lastmile_qr_scan"}, "name": "27d0e832309cb182213ccf381e4f1574", "is_reserved": 0}, {"is_disabled": 0, "fusion_lon": 0.0, "fusion_lat": 0.0, "lat": 38.92389583333333, "type": "electric_scooter", "lon": -77.02963883333334, "bike_id": "349debc11292c8f21da334eb56e1c3df", "rental_uris": {"android": "https://dc.lft.to/lastmile_qr_scan", "ios": "https://dc.lft.to/lastmile_qr_scan"}, "name": "349debc11292c8f21da334eb56e1c3df", "is_reserved": 0}, {"is_disabled": 0, "fusion_lon": 0.0, "fusion_lat": 0.0, "lat": 38.9108145, "type": "electric_scooter", "lon": -77.015084, "bike_id": "aa857d80dd432383652b6af31ff425f4", "rental_uris": {"android": "https://dc.lft.to/lastmile_qr_scan", "ios": "https://dc.lft.to/lastmile_qr_scan"}, "name": "aa857d80dd432383652b6af31ff425f4", "is_reserved": 0}, {"is_disabled": 0, "fusion_lon": 0.0, "fusion_lat": 0.0, "lat": 38.92232, "type": "electric_scooter", "lon": -76.97535383333333, "bike_id": "b2d14b14aa903a3d98d16fa0e2d03ab8", "rental_uris": {"android": "https://dc.lft.to/lastmile_qr_scan", "ios": "https://dc.lft.to/lastmile_qr_scan"}, "name": "b2d14b14aa903a3d98d16fa0e2d03ab8", "is_reserved": 0}, {"is_disabled": 0, "fusion_lon": 0.0, "fusion_lat": 0.0, "lat": 38.900796, "type": "electric_scooter", "lon": -77.04938783333333, "bike_id": "031e19036350325e149e125d16ef9497", "rental_uris": {"android": "https://dc.lft.to/lastmile_qr_scan", "ios": "https://dc.lft.to/lastmile_qr_scan"}, "name": "031e19036350325e149e125d16ef9497", "is_reserved": 0}, {"is_disabled": 0, "fusion_lon": 0.0, "fusion_lat": 0.0, "lat": 38.9051625, "type": "electric_scooter", "lon": -77.02976616666666, "bike_id": "b9dd712ab7494f72c4913207d80f288b", "rental_uris": {"android": "https://dc.lft.to/lastmile_qr_scan", "ios": "https://dc.lft.to/lastmile_qr_scan"}, "name": "b9dd712ab7494f72c4913207d80f288b", "is_reserved": 0}, {"is_disabled": 0, "fusion_lon": 0.0, "fusion_lat": 0.0, "lat": 38.9068465, "type": "electric_scooter", "lon": -77.02694166666667, "bike_id": "5def3dbacc841d25d23265190117d59a", "rental_uris": {"android": "https://dc.lft.to/lastmile_qr_scan", "ios": "https://dc.lft.to/lastmile_qr_scan"}, "name": "5def3dbacc841d25d23265190117d59a", "is_reserved": 0}, {"is_disabled": 0, "fusion_lon": 0.0, "fusion_lat": 0.0, "lat": 38.9009195, "type": "electric_scooter", "lon": -77.04994583333334, "bike_id": "4febed6c7e8e1803fa6c2c0190029f98", "rental_uris": {"android": "https://dc.lft.to/lastmile_qr_scan", "ios": "https://dc.lft.to/lastmile_qr_scan"}, "name": "4febed6c7e8e1803fa6c2c0190029f98", "is_reserved": 0}, {"is_disabled": 0, "fusion_lon": 0.0, "fusion_lat": 0.0, "lat": 38.916795666666665, "type": "electric_scooter", "lon": -77.02714516666667, "bike_id": "4f2876051fec8a4b33684b8769c78651", "rental_uris": {"android": "https://dc.lft.to/lastmile_qr_scan", "ios": "https://dc.lft.to/lastmile_qr_scan"}, "name": "4f2876051fec8a4b33684b8769c78651", "is_reserved": 0}, {"is_disabled": 0, "fusion_lon": 0.0, "fusion_lat": 0.0, "lat": 38.90839166666667, "type": "electric_scooter", "lon": -76.99699783333334, "bike_id": "d89973df64cf5a5b3a845068ad05f3e6", "rental_uris": {"android": "https://dc.lft.to/lastmile_qr_scan", "ios": "https://dc.lft.to/lastmile_qr_scan"}, "name": "d89973df64cf5a5b3a845068ad05f3e6", "is_reserved": 0}, {"is_disabled": 0, "fusion_lon": 0.0, "fusion_lat": 0.0, "lat": 38.9003505, "type": "electric_scooter", "lon": -77.00199016666667, "bike_id": "54d5bddd088357a0aaee21eef4e4f329", "rental_uris": {"android": "https://dc.lft.to/lastmile_qr_scan", "ios": "https://dc.lft.to/lastmile_qr_scan"}, "name": "54d5bddd088357a0aaee21eef4e4f329", "is_reserved": 0},