{"data": {"bikes": [{"bike_id": "adbbbb90b8a28d722cd1aaa571b37d8d", "type": "electric_scooter", "is_disabled": 0, "lat": 38.876310333333336, "rental_uris": {"ios": "https://dc.lft.to/lastmile_qr_scan", "android": "https://dc.lft.to/lastmile_qr_scan"}, "is_reserved": 0, "fusion_lon": 0.0, "fusion_lat": 0.0, "lon": -76.96529066666666, "name": "adbbbb90b8a28d722cd1aaa571b37d8d"}, {"bike_id": "95fd67fd8b5975dacd7e40d8feefe316", "type": "electric_scooter", "is_disabled": 0, "lat": 38.90914016666667, "rental_uris": {"ios": "https://dc.lft.to/lastmile_qr_scan", "android": "https://dc.lft.to/lastmile_qr_scan"}, "is_reserved": 0, "fusion_lon": 0.0, "fusion_lat": 0.0, "lon": -76.98423333333334, "name": "95fd67fd8b5975dacd7e40d8feefe316"}, {"bike_id": "d97cf30211d8c69d19d17761b481bcdd", "type": "electric_scooter", "is_disabled": 0, "lat": 38.9205045, "rental_uris": {"ios": "https://dc.lft.to/lastmile_qr_scan", "android": "https://dc.lft.to/lastmile_qr_scan"}, "is_reserved": 0, "fusion_lon": 0.0, "fusion_lat": 0.0, "lon": -77.01735216666667, "name": "d97cf30211d8c69d19d17761b481bcdd"}, {"bike_id": "9a3f06b23d81fcf1f351eedadf10f55b", "type": "electric_scooter", "is_disabled": 0, "lat": 38.93323383333333, "rental_uris": {"ios": "https://dc.lft.to/lastmile_qr_scan", "android": "https://dc.lft.to/lastmile_qr_scan"}, "is_reserved": 0, "fusion_lon": 0.0, "fusion_lat": 0.0, "lon": -77.03260166666666, "name": "9a3f06b23d81fcf1f351eedadf10f55b"}, {"bike_id": "9b0f2487a2901dec5701590dea62db3e", "type": "electric_scooter", "is_disabled": 0, "lat": 38.92486783333333, "rental_uris": {"ios": "https://dc.lft.to/lastmile_qr_scan", "android": "https://dc.lft.to/lastmile_qr_scan"}, "is_reserved": 0, "fusion_lon": 0.0, "fusion_lat": 0.0, "lon": -77.05765033333333, "name": "9b0f2487a2901dec5701590dea62db3e"}, {"bike_id": "99c614f712169c811565957447d78943", "type": "electric_scooter", "is_disabled": 0, "lat": 38.908697333333336, "rental_uris": {"ios": "https://dc.lft.to/lastmile_qr_scan", "android": "https://dc.lft.to/lastmile_qr_scan"}, "is_reserved": 0, "fusion_lon": 0.0, "fusion_lat": 0.0, "lon": -77.02686333333334, "name": "99c614f712169c811565957447d78943"}, {"bike_id": "5cf7bb660a3b6a3dc814955fe0cd70fe", "type": "electric_scooter", "is_disabled": 0, "lat": 38.893206166666666, "rental_uris": {"ios": "https://dc.lft.to/lastmile_qr_scan", "android": "https://dc.lft.to/lastmile_qr_scan"}, "is_reserved": 0, "fusion_lon": 0.0, "fusion_lat": 0.0, "lon": -76.93979366666667, "name": "5cf7bb660a3b6a3dc814955fe0cd70fe"}, {"bike_id": "addf390ec35e6cd4769a1fc951646884", "type": "electric_scooter", "is_disabled": 0, "lat": 38.921959, "rental_uris": {"ios": "https://dc.lft.to/lastmile_qr_scan", "android": "https://dc.lft.to/lastmile_qr_scan"}, "is_reserved": 0, "fusion_lon": 0.0, "fusion_lat": 0.0, "lon": -77.04010416666667, "name": "addf390ec35e6cd4769a1fc951646884"}, {"bike_id": "c0185ab486ced1803706a7324c3bac67", "type": "electric_scooter", "is_disabled": 0, "lat": 38.877211333333335, "rental_uris": {"ios": "https://dc.lft.to/lastmile_qr_scan", "android": "https://dc.lft.to/lastmile_qr_scan"}, "is_reserved": 0, "fusion_lon": 0.0, "fusion_lat": 0.0, "lon": -77.01758516666666, "name": "c0185ab486ced1803706a7324c3bac67"}, {"bike_id": "23c804bb78eb3af89d47eb126dd6428c", "type": "electric_scooter", "is_disabled": 0, "lat": 38.915911333333334, "rental_uris": {"ios": "https://dc.lft.to/lastmile_qr_scan", "android": "https://dc.lft.to/lastmile_qr_scan"}, "is_reserved": 0, "fusion_lon": 0.0, "fusion_lat": 0.0, "lon": -77.04524083333334, "name": "23c804bb78eb3af89d47eb126dd6428c"}, {"bike_id": "402f2def66b7914c935576fe3296f823", "type": "electric_scooter", "is_disabled": 0, "lat": 38.89875033333333, "rental_uris": {"ios": "https://dc.lft.to/lastmile_qr_scan", "android": "https://dc.lft.to/lastmile_qr_scan"}, "is_reserved": 0, "fusion_lon": 0.0, "fusion_lat": 0.0, "lon": -76.9318635, "name": "402f2def66b7914c935576fe3296f823"}, {"bike_id": "7e62b8353ef128c82860a0422e756573", "type": "electric_scooter", "is_disabled": 0, "lat": 38.9126755, "rental_uris": {"ios": "https://dc.lft.to/lastmile_qr_scan", "android": "https://dc.lft.to/lastmile_qr_scan"}, "is_reserved": 0, "fusion_lon": 0.0, "fusion_lat": 0.0, "lon": -77.01764383333334, "name": "7e62b8353ef128c82860a0422e756573"}, {"bike_id": "b93845c44e52089a416bc5261fe597eb", "type": "electric_scooter", "is_disabled": 0, "lat": 38.912691, "rental_uris": {"ios": "https://dc.lft.to/lastmile_qr_scan", "android": "https://dc.lft.to/lastmile_qr_scan"}, "is_reserved": 0, "fusion_lon": 0.0, "fusion_lat": 0.0, "lon": -77.02211333333334, "name": "b93845c44e52089a416bc5261fe597eb"}, {"bike_id": "d1940e6c2e5ba5b0b0ac6e0056c5f17f", "type": "electric_scooter", "is_disabled": 0, "lat": 38.9180145, "rental_uris": {"ios": "https://dc.lft.to/lastmile_qr_scan", "android": "https://dc.lft.to/lastmile_qr_scan"}, "is_reserved": 0, "fusion_lon": 0.0, "fusion_lat": 0.0, "lon": -77.03442833333334, "name": "d1940e6c2e5ba5b0b0ac6e0056c5f17f"}, {"bike_id": "6fe9fe5c125ae5be4f930abc076ceba0", "type": "electric_scooter", "is_disabled": 0, "lat": 38.93248633333333, "rental_uris": {"ios": "https://dc.lft.to/lastmile_qr_scan", "android": "https://dc.lft.to/lastmile_qr_scan"}, "is_reserved": 0, "fusion_lon": 0.0, "fusion_lat": 0.0, "lon": -77.02003966666666, "name": "6fe9fe5c125ae5be4f930abc076ceba0"}, {"bike_id": "63a87bba443a117890081d9aecd6089d", "type": "electric_bike", "is_disabled": 0, "lat": 39.055025, "rental_uris": {"ios": "https://dc.lft.to/lastmile_qr_scan", "android": "https://dc.lft.to/lastmile_qr_scan"}, "is_reserved": 0, "fusion_lon": 0.0, "fusion_lat": 0.0, "lon": -77.04653566666667, "name": "63a87bba443a117890081d9aecd6089d"}, {"bike_id": "9ab5009652cc435fa6464426d482df0e", "type": "electric_scooter", "is_disabled": 0, "lat": 38.926157833333335, "rental_uris": {"ios": "https://dc.lft.to/lastmile_qr_scan", "android": "https://dc.lft.to/lastmile_qr_scan"}, "is_reserved": 0, "fusion_lon": 0.0, "fusion_lat": 0.0, "lon": -77.0216155, "name": "9ab5009652cc435fa6464426d482df0e"}, {"bike_id": "fc99e02f31ae9c3315e38f5cd08c3b13", "type": "electric_scooter", "is_disabled": 0, "lat": 38.9352065, "rental_uris": {"ios": "https://dc.lft.to/lastmile_qr_scan", "android": "https://dc.lft.to/lastmile_qr_scan"}, "is_reserved": 0, "fusion_lon": 0.0, "fusion_lat": 0.0, "lon": -77.03081633333333, "name": "fc99e02f31ae9c3315e38f5cd08c3b13"}, {"bike_id": "23278831eb6fa939d9236e7ca1915ed1", "type": "electric_scooter", "is_disabled": 0, "lat": 38.90279566666667, "rental_uris": {"ios": "https://dc.lft.to/lastmile_qr_scan", "android": "https://dc.lft.to/lastmile_qr_scan"}, "is_reserved": 0, "fusion_lon": 0.0, "fusion_lat": 0.0, "lon": -77.0580375, "name": "23278831eb6fa939d9236e7ca1915ed1"}, {"bike_id": "dc0ac39d65d4ea542b759423e4bf1cc2", "type": "electric_scooter", "is_disabled": 0, "lat": 38.90266916666667, "rental_uris": {"ios": "https://dc.lft.to/lastmile_qr_scan", "android": "https://dc.lft.to/lastmile_qr_scan"}, "is_reserved": 0, "fusion_lon": 0.0, "fusion_lat": 0.0, "lon": -77.0338515, "name": "dc0ac39d65d4ea542b759423e4bf1cc2"}, {"bike_id": "a2045995c51dee6f8b0cbcf171eafcff", "type": "electric_scooter", "is_disabled": 0, "lat": 38.87073933333333, "rental_uris": {"ios": "https://dc.lft.to/lastmile_qr_scan", "android": "https://dc.lft.to/lastmile_qr_scan"}, "is_reserved": 0, "fusion_lon": 0.0, "fusion_lat": 0.0, "lon": -76.98131933333333, "name": "a2045995c51dee6f8b0cbcf171eafcff"}, {"bike_id": "5bff7463b8a486d6117c706828cedaf6", "type": "electric_bike", "is_disabled": 0, "lat": 38.92965866666667, "rental_uris": {"ios": "https://dc.lft.to/lastmile_qr_scan", "android": "https://dc.lft.to/lastmile_qr_scan"}, "is_reserved": 0, "fusion_lon": 0.0, "fusion_lat": 0.0, "lon": -77.18562783333333, "name": "5bff7463b8a486d6117c706828cedaf6"}, {"bike_id": "e60ba831486552fbf089c430953cc6e4", "type": "electric_scooter", "is_disabled": 0, "lat": 38.921528, "rental_uris": {"ios": "https://dc.lft.to/lastmile_qr_scan", "android": "https://dc.lft.to/lastmile_qr_scan"}, "is_reserved": 0, "fusion_lon": 0.0, "fusion_lat": 0.0, "lon": -77.03869283333333, "name": "e60ba831486552fbf089c430953cc6e4"}, {"bike_id": "3310f810199cd774c9e27712ee6262dd", "type": "electric_scooter", "is_disabled": 0, "lat": 38.93955916666667, "rental_uris": {"ios": "https://dc.lft.to/lastmile_qr_scan", "android": "https://dc.lft.to/lastmile_qr_scan"}, "is_reserved": 0, "fusion_lon": 0.0, "fusion_lat": 0.0, "lon": -77.036654, "name": "3310f810199cd774c9e27712ee6262dd"}, {"bike_id": "67b93bea5947b8590edd08d96ed4b651", "type": "electric_scooter", "is_disabled": 0, "lat": 38.9332265, "rental_uris": {"ios": "https://dc.lft.to/lastmile_qr_scan", "android": "https://dc.lft.to/lastmile_qr_scan"}, "is_reserved": 0, "fusion_lon": 0.0, "fusion_lat": 0.0, "lon": -77.07224416666666, "name": "67b93bea5947b8590edd08d96ed4b651"}, {"bike_id": "cee31543aa12b65829f7a214a80a9c3e", "type": "electric_scooter", "is_disabled": 0, "lat": 38.911555666666665, "rental_uris": {"ios": "https://dc.lft.to/lastmile_qr_scan", "android": "https://dc.lft.to/lastmile_qr_scan"}, "is_reserved": 0, "fusion_lon": 0.0, "fusion_lat": 0.0, "lon": -77.02286633333334, "name": "cee31543aa12b65829f7a214a80a9c3e"}, {"bike_id": "22960b58c3516f9c8523a8cc9eea70ec", "type": "electric_scooter", "is_disabled": 0, "lat": 38.9006725, "rental_uris": {"ios": "https://dc.lft.to/lastmile_qr_scan", "android": "https://dc.lft.to/lastmile_qr_scan"}, "is_reserved": 0, "fusion_lon": 0.0, "fusion_lat": 0.0, "lon": -76.92743783333333, "name": "22960b58c3516f9c8523a8cc9eea70ec"}, {"bike_id": "72953987050eff2e8190cac786890318", "type": "electric_scooter", "is_disabled": 0, "lat": 38.9640825, "rental_uris": {"ios": "https://dc.lft.to/lastmile_qr_scan", "android": "https://dc.lft.to/lastmile_qr_scan"}, "is_reserved": 0, "fusion_lon": 0.0, "fusion_lat": 0.0, "lon": -77.027654, "name": "72953987050eff2e8190cac786890318"}, {"bike_id": "45d7f9c6aff3ff076249c8470e23e9b4", "type": "electric_bike", "is_disabled": 0, "lat": 39.026859333333334, "rental_uris": {"ios": "https://dc.lft.to/lastmile_qr_scan", "android": "https://dc.lft.to/lastmile_qr_scan"}, "is_reserved": 0, "fusion_lon": 0.0, "fusion_lat": 0.0, "lon": -77.02601633333333, "name": "45d7f9c6aff3ff076249c8470e23e9b4"}, {"bike_id": "1fbd46bd5a4928923388f3131f86dfcf", "type": "electric_scooter", "is_disabled": 0, "lat": 38.90018633333333, "rental_uris": {"ios": "https://dc.lft.to/lastmile_qr_scan", "android": "https://dc.lft.to/lastmile_qr_scan"}, "is_reserved": 0, "fusion_lon": 0.0, "fusion_lat": 0.0, "lon": -77.0241545, "name": "1fbd46bd5a4928923388f3131f86dfcf"}, {"bike_id": "1dc84dd816cb3c62fe778e105aaa009b", "type": "electric_scooter", "is_disabled": 0, "lat": 38.8763205, "rental_uris": {"ios": "https://dc.lft.to/lastmile_qr_scan", "android": "https://dc.lft.to/lastmile_qr_scan"}, "is_reserved": 0, "fusion_lon": 0.0, "fusion_lat": 0.0, "lon": -76.9652505, "name": "1dc84dd816cb3c62fe778e105aaa009b"}, {"bike_id": "bde2f1eebc935dd23332c87925d80c2f", "type": "electric_scooter", "is_disabled": 0, "lat": 38.9026525, "rental_uris": {"ios": "https://dc.lft.to/lastmile_qr_scan", "android": "https://dc.lft.to/lastmile_qr_scan"}, "is_reserved": 0, "fusion_lon": 0.0, "fusion_lat": 0.0, "lon": -77.00214033333333, "name": "bde2f1eebc935dd23332c87925d80c2f"}, {"bike_id": "0e127d628ad1287e9952df627516a27b", "type": "electric_scooter", "is_disabled": 0, "lat": 38.90049166666667, "rental_uris": {"ios": "https://dc.lft.to/lastmile_qr_scan", "android": "https://dc.lft.to/lastmile_qr_scan"}, "is_reserved": 0, "fusion_lon": 0.0, "fusion_lat": 0.0, "lon": -77.01320433333333, "name": "0e127d628ad1287e9952df627516a27b"}, {"bike_id": "86accf8ee52691beea2afcef941a71d4", "type": "electric_scooter", "is_disabled": 0, "lat": 38.906297333333335, "rental_uris": {"ios": "https://dc.lft.to/lastmile_qr_scan", "android": "https://dc.lft.to/lastmile_qr_scan"}, "is_reserved": 0, "fusion_lon": 0.0, "fusion_lat": 0.0, "lon": -77.05556966666667, "name": "86accf8ee52691beea2afcef941a71d4"}, {"bike_id": "0aa7ba3f72f97e9c1792bdcb2359b891", "type": "electric_scooter", "is_disabled": 0, "lat": 38.9238245, "rental_uris": {"ios": "https://dc.lft.to/lastmile_qr_scan", "android": "https://dc.lft.to/lastmile_qr_scan"}, "is_reserved": 0, "fusion_lon": 0.0, "fusion_lat": 0.0, "lon": -77.04132266666667, "name": "0aa7ba3f72f97e9c1792bdcb2359b891"}, {"bike_id": "9cf8f4e0accb658985198b3167caed17", "type": "electric_scooter", "is_disabled": 0, "lat": 38.917541, "rental_uris": {"ios": "https://dc.lft.to/lastmile_qr_scan", "android": "https://dc.lft.to/lastmile_qr_scan"}, "is_reserved": 0, "fusion_lon": 0.0, "fusion_lat": 0.0, "lon": -77.02285583333334, "name": "9cf8f4e0accb658985198b3167caed17"}, {"bike_id": "91d61f2793377b02b27e430c848cb980", "type": "electric_scooter", "is_disabled": 0, "lat": 38.918663, "rental_uris": {"ios": "https://dc.lft.to/lastmile_qr_scan", "android": "https://dc.lft.to/lastmile_qr_scan"}, "is_reserved": 0, "fusion_lon": 0.0, "fusion_lat": 0.0, "lon": -77.07033116666666, "name": "91d61f2793377b02b27e430c848cb980"}, {"bike_id": "392bb28891e3d5091aa6b6fdaf190377", "type": "electric_scooter", "is_disabled": 0, "lat": 38.90792016666666, "rental_uris": {"ios": "https://dc.lft.to/lastmile_qr_scan", "android": "https://dc.lft.to/lastmile_qr_scan"}, "is_reserved": 0, "fusion_lon": 0.0, "fusion_lat": 0.0, "lon": -77.038126, "name": "392bb28891e3d5091aa6b6fdaf190377"}, {"bike_id": "d9b93015adc2afe9c4ee5865f48d54ef", "type": "electric_scooter", "is_disabled": 0, "lat": 38.91851066666667, "rental_uris": {"ios": "https://dc.lft.to/lastmile_qr_scan", "android": "https://dc.lft.to/lastmile_qr_scan"}, "is_reserved": 0, "fusion_lon": 0.0, "fusion_lat": 0.0, "lon": -77.03881233333334, "name": "d9b93015adc2afe9c4ee5865f48d54ef"}, {"bike_id": "a013a6e8f7a250eea3e80a44f43cedcb", "type": "electric_scooter", "is_disabled": 0, "lat": 38.91339716666667, "rental_uris": {"ios": "https://dc.lft.to/lastmile_qr_scan", "android": "https://dc.lft.to/lastmile_qr_scan"}, "is_reserved": 0, "fusion_lon": 0.0, "fusion_lat": 0.0, "lon": -77.045433, "name": "a013a6e8f7a250eea3e80a44f43cedcb"}, {"bike_id": "2e97d32214efa469300d441ea94f9578", "type": "electric_scooter", "is_disabled": 0, "lat": 38.863771666666665, "rental_uris": {"ios": "https://dc.lft.to/lastmile_qr_scan", "android": "https://dc.lft.to/lastmile_qr_scan"}, "is_reserved": 0, "fusion_lon": 0.0, "fusion_lat": 0.0, "lon": -76.990632, "name": "2e97d32214efa469300d441ea94f9578"}, {"bike_id": "e988231ac4a8f632955132a5de3a2c80", "type": "electric_scooter", "is_disabled": 0, "lat": 38.898454666666666, "rental_uris": {"ios": "https://dc.lft.to/lastmile_qr_scan", "android": "https://dc.lft.to/lastmile_qr_scan"}, "is_reserved": 0, "fusion_lon": 0.0, "fusion_lat": 0.0, "lon": -76.946336, "name": "e988231ac4a8f632955132a5de3a2c80"}, {"bike_id": "fa6907b5f669e3e261c23c757eab4a07", "type": "electric_scooter", "is_disabled": 0, "lat": 38.8641725, "rental_uris": {"ios": "https://dc.lft.to/lastmile_qr_scan", "android": "https://dc.lft.to/lastmile_qr_scan"}, "is_reserved": 0, "fusion_lon": 0.0, "fusion_lat": 0.0, "lon": -76.98044716666666, "name": "fa6907b5f669e3e261c23c757eab4a07"}, {"bike_id": "e049901580be58835297b6f72e52764a", "type": "electric_scooter", "is_disabled": 0, "lat": 38.866884, "rental_uris": {"ios": "https://dc.lft.to/lastmile_qr_scan", "android": "https://dc.lft.to/lastmile_qr_scan"}, "is_reserved": 0, "fusion_lon": 0.0, "fusion_lat": 0.0, "lon": -76.98561233333334, "name": "e049901580be58835297b6f72e52764a"}, {"bike_id": "055dacc469325d94e6141d50acf916b9", "type": "electric_scooter", "is_disabled": 0, "lat": 38.8838375, "rental_uris": {"ios": "https://dc.lft.to/lastmile_qr_scan", "android": "https://dc.lft.to/lastmile_qr_scan"}, "is_reserved": 0, "fusion_lon": 0.0, "fusion_lat": 0.0, "lon": -77.02628733333333, "name": "055dacc469325d94e6141d50acf916b9"}, {"bike_id": "c5b5172dd00d5ed5be631ae35ced3495", "type": "electric_scooter", "is_disabled": 0, "lat": 38.9201865, "rental_uris": {"ios": "https://dc.lft.to/lastmile_qr_scan", "android": "https://dc.lft.to/lastmile_qr_scan"}, "is_reserved": 0, "fusion_lon": 0.0, "fusion_lat": 0.0, "lon": -77.03124116666666, "name": "c5b5172dd00d5ed5be631ae35ced3495"}, {"bike_id": "ccd0bf3a5650eec0c7ec6a9b8f676743", "type": "electric_scooter", "is_disabled": 0, "lat": 38.902732, "rental_uris": {"ios": "https://dc.lft.to/lastmile_qr_scan", "android": "https://dc.lft.to/lastmile_qr_scan"}, "is_reserved": 0, "fusion_lon": 0.0, "fusion_lat": 0.0, "lon": -77.0397265, "name": "ccd0bf3a5650eec0c7ec6a9b8f676743"}, {"bike_id": "eb4cd8fb004ccba61684e78fda9bd576", "type": "electric_scooter", "is_disabled": 0, "lat": 38.919307, "rental_uris": {"ios": "https://dc.lft.to/lastmile_qr_scan", "android": "https://dc.lft.to/lastmile_qr_scan"}, "is_reserved": 0, "fusion_lon": 0.0, "fusion_lat": 0.0, "lon": -77.04246, "name": "eb4cd8fb004ccba61684e78fda9bd576"}, {"bike_id": "26265a71fc564fc80a52ad0a0d1d0945", "type": "electric_scooter", "is_disabled": 0, "lat": 38.9084825, "rental_uris": {"ios": "https://dc.lft.to/lastmile_qr_scan", "android": "https://dc.lft.to/lastmile_qr_scan"}, "is_reserved": 0, "fusion_lon": 0.0, "fusion_lat": 0.0, "lon": -76.997994, "name": "26265a71fc564fc80a52ad0a0d1d0945"}, {"bike_id": "4da8a507c67d4c9d9f50a4ceba2047e1", "type": "electric_scooter", "is_disabled": 0, "lat": 38.903922333333334, "rental_uris": {"ios": "https://dc.lft.to/lastmile_qr_scan", "android": "https://dc.lft.to/lastmile_qr_scan"}, "is_reserved": 0, "fusion_lon": 0.0, "fusion_lat": 0.0, "lon": -76.98204966666667, "name": "4da8a507c67d4c9d9f50a4ceba2047e1"}, {"bike_id": "01ab6332530fe83707394e9972df3e22", "type": "electric_scooter", "is_disabled": 0, "lat": 38.93275233333333, "rental_uris": {"ios": "https://dc.lft.to/lastmile_qr_scan", "android": "https://dc.lft.to/lastmile_qr_scan"}, "is_reserved": 0, "fusion_lon": 0.0, "fusion_lat": 0.0, "lon": -77.045318, "name": "01ab6332530fe83707394e9972df3e22"}, {"bike_id": "88064ee9733bf389191d97b0ea01a109", "type": "electric_bike", "is_disabled": 0, "lat": 38.837884333333335, "rental_uris": {"ios": "https://dc.lft.to/lastmile_qr_scan", "android": "https://dc.lft.to/lastmile_qr_scan"}, "is_reserved": 0, "fusion_lon": 0.0, "fusion_lat": 0.0, "lon": -77.093478, "name": "88064ee9733bf389191d97b0ea01a109"}, {"bike_id": "4ace2b3821202af60ddd597510e54fb9", "type": "electric_scooter", "is_disabled": 0, "lat": 38.900831833333335, "rental_uris": {"ios": "https://dc.lft.to/lastmile_qr_scan", "android": "https://dc.lft.to/lastmile_qr_scan"}, "is_reserved": 0, "fusion_lon": 0.0, "fusion_lat": 0.0, "lon": -77.00923183333333, "name": "4ace2b3821202af60ddd597510e54fb9"}, {"bike_id": "95165b67c30781a4e119360648d23743", "type": "electric_scooter", "is_disabled": 0, "lat": 38.8922125, "rental_uris": {"ios": "https://dc.lft.to/lastmile_qr_scan", "android": "https://dc.lft.to/lastmile_qr_scan"}, "is_reserved": 0, "fusion_lon": 0.0, "fusion_lat": 0.0, "lon": -77.04867416666667, "name": "95165b67c30781a4e119360648d23743"}, {"bike_id": "d1b03574638ff84dfcc8fb29b1a8e7db", "type": "electric_bike", "is_disabled": 0, "lat": 38.8730565, "rental_uris": {"ios": "https://dc.lft.to/lastmile_qr_scan", "android": "https://dc.lft.to/lastmile_qr_scan"}, "is_reserved": 0, "fusion_lon": 0.0, "fusion_lat": 0.0, "lon": -77.13926666666667, "name": "d1b03574638ff84dfcc8fb29b1a8e7db"}, {"bike_id": "6bdb47fb0c0cffc0605a94a7201886a7", "type": "electric_scooter", "is_disabled": 0, "lat": 38.92400833333333, "rental_uris": {"ios": "https://dc.lft.to/lastmile_qr_scan", "android": "https://dc.lft.to/lastmile_qr_scan"}, "is_reserved": 0, "fusion_lon": 0.0, "fusion_lat": 0.0, "lon": -76.99365666666667, "name": "6bdb47fb0c0cffc0605a94a7201886a7"}, {"bike_id": "2b16f8533bc4c3f90369d82b827f2bae", "type": "electric_scooter", "is_disabled": 0, "lat": 38.92253066666667, "rental_uris": {"ios": "https://dc.lft.to/lastmile_qr_scan", "android": "https://dc.lft.to/lastmile_qr_scan"}, "is_reserved": 0, "fusion_lon": 0.0, "fusion_lat": 0.0, "lon": -77.03890833333334, "name": "2b16f8533bc4c3f90369d82b827f2bae"}, {"bike_id": "dfadacaa6c3402c1a3c8aa9d386d83a2", "type": "electric_scooter", "is_disabled": 0, "lat": 38.9193655, "rental_uris": {"ios": "https://dc.lft.to/lastmile_qr_scan", "android": "https://dc.lft.to/lastmile_qr_scan"}, "is_reserved": 0, "fusion_lon": 0.0, "fusion_lat": 0.0, "lon": -77.013938, "name": "dfadacaa6c3402c1a3c8aa9d386d83a2"}, {"bike_id": "b6207ac90f30d49efa4217d9f190c595", "type": "electric_scooter", "is_disabled": 0, "lat": 38.877987, "rental_uris": {"ios": "https://dc.lft.to/lastmile_qr_scan", "android": "https://dc.lft.to/lastmile_qr_scan"}, "is_reserved": 0, "fusion_lon": 0.0, "fusion_lat": 0.0, "lon": -77.01742683333333, "name": "b6207ac90f30d49efa4217d9f190c595"}, {"bike_id": "7b13fc950f74015d031763849fb6c81c", "type": "electric_scooter", "is_disabled": 0, "lat": 38.942096166666666, "rental_uris": {"ios": "https://dc.lft.to/lastmile_qr_scan", "android": "https://dc.lft.to/lastmile_qr_scan"}, "is_reserved": 0, "fusion_lon": 0.0, "fusion_lat": 0.0, "lon": -77.01738766666666, "name": "7b13fc950f74015d031763849fb6c81c"}, {"bike_id": "426df96a881b4f71d708e83efc6c39b4", "type": "electric_scooter", "is_disabled": 0, "lat": 38.900075, "rental_uris": {"ios": "https://dc.lft.to/lastmile_qr_scan", "android": "https://dc.lft.to/lastmile_qr_scan"}, "is_reserved": 0, "fusion_lon": 0.0, "fusion_lat": 0.0, "lon": -77.00198833333333, "name": "426df96a881b4f71d708e83efc6c39b4"}, {"bike_id": "18ec8dbe031b1f52b0e89c91557985fd", "type": "electric_scooter", "is_disabled": 0, "lat": 38.905543, "rental_uris": {"ios": "https://dc.lft.to/lastmile_qr_scan", "android": "https://dc.lft.to/lastmile_qr_scan"}, "is_reserved": 0, "fusion_lon": 0.0, "fusion_lat": 0.0, "lon": -77.00598766666667, "name": "18ec8dbe031b1f52b0e89c91557985fd"}, {"bike_id": "3eb3847305fe30e477b4412c6f28039a", "type": "electric_scooter", "is_disabled": 0, "lat": 38.919118166666664, "rental_uris": {"ios": "https://dc.lft.to/lastmile_qr_scan", "android": "https://dc.lft.to/lastmile_qr_scan"}, "is_reserved": 0, "fusion_lon": 0.0, "fusion_lat": 0.0, "lon": -77.03446116666667, "name": "3eb3847305fe30e477b4412c6f28039a"}, {"bike_id": "3e4c63e4af66ea1c3bf7492a9abec3c9", "type": "electric_scooter", "is_disabled": 0, "lat": 38.916355833333334, "rental_uris": {"ios": "https://dc.lft.to/lastmile_qr_scan", "android": "https://dc.lft.to/lastmile_qr_scan"}, "is_reserved": 0, "fusion_lon": 0.0, "fusion_lat": 0.0, "lon": -77.02548716666666, "name": "3e4c63e4af66ea1c3bf7492a9abec3c9"}, {"bike_id": "fa85a33a1dab546ccb579c36de5995e9", "type": "electric_scooter", "is_disabled": 0, "lat": 38.90263083333333, "rental_uris": {"ios": "https://dc.lft.to/lastmile_qr_scan", "android": "https://dc.lft.to/lastmile_qr_scan"}, "is_reserved": 0, "fusion_lon": 0.0, "fusion_lat": 0.0, "lon": -77.04377766666667, "name": "fa85a33a1dab546ccb579c36de5995e9"}, {"bike_id": "c0fb134a3f01ee47bdbfc5601631dfc1", "type": "electric_scooter", "is_disabled": 0, "lat": 38.90826783333333, "rental_uris": {"ios": "https://dc.lft.to/lastmile_qr_scan", "android": "https://dc.lft.to/lastmile_qr_scan"}, "is_reserved": 0, "fusion_lon": 0.0, "fusion_lat": 0.0, "lon": -77.001128, "name": "c0fb134a3f01ee47bdbfc5601631dfc1"}, {"bike_id": "a2f74a6cc5b8b470a1abe22bab38cafc", "type": "electric_bike", "is_disabled": 0, "lat": 38.874835833333336, "rental_uris": {"ios": "https://dc.lft.to/lastmile_qr_scan", "android": "https://dc.lft.to/lastmile_qr_scan"}, "is_reserved": 0, "fusion_lon": 0.0, "fusion_lat": 0.0, "lon": -76.96525783333334, "name": "a2f74a6cc5b8b470a1abe22bab38cafc"}, {"bike_id": "8348e14b00343ad1503b9b67e95549f8", "type": "electric_scooter", "is_disabled": 0, "lat": 38.87348166666666, "rental_uris": {"ios": "https://dc.lft.to/lastmile_qr_scan", "android": "https://dc.lft.to/lastmile_qr_scan"}, "is_reserved": 0, "fusion_lon": 0.0, "fusion_lat": 0.0, "lon": -77.000617, "name": "8348e14b00343ad1503b9b67e95549f8"}, {"bike_id": "cb4c16dd4862496982364a3ff444326f", "type": "electric_scooter", "is_disabled": 0, "lat": 38.8932525, "rental_uris": {"ios": "https://dc.lft.to/lastmile_qr_scan", "android": "https://dc.lft.to/lastmile_qr_scan"}, "is_reserved": 0, "fusion_lon": 0.0, "fusion_lat": 0.0, "lon": -77.04876566666667, "name": "cb4c16dd4862496982364a3ff444326f"}, {"bike_id": "2399a84c0a0ab3df0f3e7fd04fc10a17", "type": "electric_scooter", "is_disabled": 0, "lat": 38.931878166666664, "rental_uris": {"ios": "https://dc.lft.to/lastmile_qr_scan", "android": "https://dc.lft.to/lastmile_qr_scan"}, "is_reserved": 0, "fusion_lon": 0.0, "fusion_lat": 0.0, "lon": -77.02022183333334, "name": "2399a84c0a0ab3df0f3e7fd04fc10a17"}, {"bike_id": "b2ca64c8e91f95f05995a4d84fce7c69", "type": "electric_scooter", "is_disabled": 0, "lat": 38.90390883333333, "rental_uris": {"ios": "https://dc.lft.to/lastmile_qr_scan", "android": "https://dc.lft.to/lastmile_qr_scan"}, "is_reserved": 0, "fusion_lon": 0.0, "fusion_lat": 0.0, "lon": -77.06510183333333, "name": "b2ca64c8e91f95f05995a4d84fce7c69"}, {"bike_id": "757af122f450aaabd5c15c28aa09b5ed", "type": "electric_scooter", "is_disabled": 0, "lat": 38.89349333333333, "rental_uris": {"ios": "https://dc.lft.to/lastmile_qr_scan", "android": "https://dc.lft.to/lastmile_qr_scan"}, "is_reserved": 0, "fusion_lon": 0.0, "fusion_lat": 0.0, "lon": -76.98091583333333, "name": "757af122f450aaabd5c15c28aa09b5ed"}, {"bike_id": "b8974733d0a71d2ef2e37180d0f53e83", "type": "electric_scooter", "is_disabled": 0, "lat": 38.94293533333333, "rental_uris": {"ios": "https://dc.lft.to/lastmile_qr_scan", "android": "https://dc.lft.to/lastmile_qr_scan"}, "is_reserved": 0, "fusion_lon": 0.0, "fusion_lat": 0.0, "lon": -77.00489016666667, "name": "b8974733d0a71d2ef2e37180d0f53e83"}, {"bike_id": "7eb8c9d6168ef752ed40e3c089d9140d", "type": "electric_scooter", "is_disabled": 0, "lat": 38.910176, "rental_uris": {"ios": "https://dc.lft.to/lastmile_qr_scan", "android": "https://dc.lft.to/lastmile_qr_scan"}, "is_reserved": 0, "fusion_lon": 0.0, "fusion_lat": 0.0, "lon": -77.05271466666666, "name": "7eb8c9d6168ef752ed40e3c089d9140d"}, {"bike_id": "acb1b7a67e188092b8e643bcb8e1bc38", "type": "electric_bike", "is_disabled": 0, "lat": 38.81335116666666, "rental_uris": {"ios": "https://dc.lft.to/lastmile_qr_scan", "android": "https://dc.lft.to/lastmile_qr_scan"}, "is_reserved": 0, "fusion_lon": 0.0, "fusion_lat": 0.0, "lon": -77.0509185, "name": "acb1b7a67e188092b8e643bcb8e1bc38"}, {"bike_id": "b80ede012ee22134b7d2b272f983922c", "type": "electric_scooter", "is_disabled": 0, "lat": 38.91605033333333, "rental_uris": {"ios": "https://dc.lft.to/lastmile_qr_scan", "android": "https://dc.lft.to/lastmile_qr_scan"}, "is_reserved": 0, "fusion_lon": 0.0, "fusion_lat": 0.0, "lon": -77.01548066666666, "name": "b80ede012ee22134b7d2b272f983922c"}, {"bike_id": "2778cbd64817247fbb1db4ab0cda8cc9", "type": "electric_scooter", "is_disabled": 0, "lat": 38.843178333333334, "rental_uris": {"ios": "https://dc.lft.to/lastmile_qr_scan", "android": "https://dc.lft.to/lastmile_qr_scan"}, "is_reserved": 0, "fusion_lon": 0.0, "fusion_lat": 0.0, "lon": -76.99930083333334, "name": "2778cbd64817247fbb1db4ab0cda8cc9"}, {"bike_id": "55b8b9c957329c8932931d921775801e", "type": "electric_scooter", "is_disabled": 0, "lat": 38.904999, "rental_uris": {"ios": "https://dc.lft.to/lastmile_qr_scan", "android": "https://dc.lft.to/lastmile_qr_scan"}, "is_reserved": 0, "fusion_lon": 0.0, "fusion_lat": 0.0, "lon": -77.060127, "name": "55b8b9c957329c8932931d921775801e"}, {"bike_id": "0409f51605f5caee453dad1c505a115f", "type": "electric_scooter", "is_disabled": 0, "lat": 38.894988, "rental_uris": {"ios": "https://dc.lft.to/lastmile_qr_scan", "android": "https://dc.lft.to/lastmile_qr_scan"}, "is_reserved": 0, "fusion_lon": 0.0, "fusion_lat": 0.0, "lon": -76.98839033333333, "name": "0409f51605f5caee453dad1c505a115f"}, {"bike_id": "85e5a15de751cc1cc740077310f23241", "type": "electric_bike", "is_disabled": 0, "lat": 38.8651775, "rental_uris": {"ios": "https://dc.lft.to/lastmile_qr_scan", "android": "https://dc.lft.to/lastmile_qr_scan"}, "is_reserved": 0, "fusion_lon": 0.0, "fusion_lat": 0.0, "lon": -76.9734145, "name": "85e5a15de751cc1cc740077310f23241"}, {"bike_id": "5bde773d0a9bcce7b34e8813e6454abc", "type": "electric_scooter", "is_disabled": 0, "lat": 38.8888405, "rental_uris": {"ios": "https://dc.lft.to/lastmile_qr_scan", "android": "https://dc.lft.to/lastmile_qr_scan"}, "is_reserved": 0, "fusion_lon": 0.0, "fusion_lat": 0.0, "lon": -76.99031633333334, "name": "5bde773d0a9bcce7b34e8813e6454abc"}, {"bike_id": "38060e23d207e3852247720b064a9c8d", "type": "electric_scooter", "is_disabled": 0, "lat": 38.917130666666665, "rental_uris": {"ios": "https://dc.lft.to/lastmile_qr_scan", "android": "https://dc.lft.to/lastmile_qr_scan"}, "is_reserved": 0, "fusion_lon": 0.0, "fusion_lat": 0.0, "lon": -77.031133, "name": "38060e23d207e3852247720b064a9c8d"}, {"bike_id": "ac90dcfa733290c2f335e0ce3d4ddf18", "type": "electric_scooter", "is_disabled": 0, "lat": 38.89231266666667, "rental_uris": {"ios": "https://dc.lft.to/lastmile_qr_scan", "android": "https://dc.lft.to/lastmile_qr_scan"}, "is_reserved": 0, "fusion_lon": 0.0, "fusion_lat": 0.0, "lon": -77.04994216666667, "name": "ac90dcfa733290c2f335e0ce3d4ddf18"}, {"bike_id": "2cec9733dd568124a2aa6e961bb41a28", "type": "electric_scooter", "is_disabled": 0, "lat": 38.9199525, "rental_uris": {"ios": "https://dc.lft.to/lastmile_qr_scan", "android": "https://dc.lft.to/lastmile_qr_scan"}, "is_reserved": 0, "fusion_lon": 0.0, "fusion_lat": 0.0, "lon": -77.02393783333333, "name": "2cec9733dd568124a2aa6e961bb41a28"}, {"bike_id": "befa115f96d26aeb7c728dc47dff2ed3", "type": "electric_bike", "is_disabled": 0, "lat": 38.9909135, "rental_uris": {"ios": "https://dc.lft.to/lastmile_qr_scan", "android": "https://dc.lft.to/lastmile_qr_scan"}, "is_reserved": 0, "fusion_lon": 0.0, "fusion_lat": 0.0, "lon": -76.8749625, "name": "befa115f96d26aeb7c728dc47dff2ed3"}, {"bike_id": "3117e120d5508a9539117f8e3cc695cb", "type": "electric_scooter", "is_disabled": 0, "lat": 38.909675166666666, "rental_uris": {"ios": "https://dc.lft.to/lastmile_qr_scan", "android": "https://dc.lft.to/lastmile_qr_scan"}, "is_reserved": 0, "fusion_lon": 0.0, "fusion_lat": 0.0, "lon": -77.02304816666667, "name": "3117e120d5508a9539117f8e3cc695cb"}, {"bike_id": "17fbfbb6009a1a3ee92e19de142b7272", "type": "electric_scooter", "is_disabled": 0, "lat": 38.9275585, "rental_uris": {"ios": "https://dc.lft.to/lastmile_qr_scan", "android": "https://dc.lft.to/lastmile_qr_scan"}, "is_reserved": 0, "fusion_lon": 0.0, "fusion_lat": 0.0, "lon": -77.032716, "name": "17fbfbb6009a1a3ee92e19de142b7272"}, {"bike_id": "0e2f9967cfe89098f9a08e37cd1c2f30", "type": "electric_scooter", "is_disabled": 0, "lat": 38.92076333333333, "rental_uris": {"ios": "https://dc.lft.to/lastmile_qr_scan", "android": "https://dc.lft.to/lastmile_qr_scan"}, "is_reserved": 0, "fusion_lon": 0.0, "fusion_lat": 0.0, "lon": -77.025065, "name": "0e2f9967cfe89098f9a08e37cd1c2f30"}, {"bike_id": "ae37ac91326e63603185cdc652b4d587", "type": "electric_scooter", "is_disabled": 0, "lat": 38.89729716666667, "rental_uris": {"ios": "https://dc.lft.to/lastmile_qr_scan", "android": "https://dc.lft.to/lastmile_qr_scan"}, "is_reserved": 0, "fusion_lon": 0.0, "fusion_lat": 0.0, "lon": -77.003675, "name": "ae37ac91326e63603185cdc652b4d587"}, {"bike_id": "2fe800cf7196eb19b9bc310d5b209b3f", "type": "electric_scooter", "is_disabled": 0, "lat": 38.9008505, "rental_uris": {"ios": "https://dc.lft.to/lastmile_qr_scan", "android": "https://dc.lft.to/lastmile_qr_scan"}, "is_reserved": 0, "fusion_lon": 0.0, "fusion_lat": 0.0, "lon": -77.04753416666667, "name": "2fe800cf7196eb19b9bc310d5b209b3f"}, {"bike_id": "c65d3b94074af8c3db176fe21a877c2b", "type": "electric_bike", "is_disabled": 0, "lat": 39.013706166666665, "rental_uris": {"ios": "https://dc.lft.to/lastmile_qr_scan", "android": "https://dc.lft.to/lastmile_qr_scan"}, "is_reserved": 0, "fusion_lon": 0.0, "fusion_lat": 0.0, "lon": -76.921352, "name": "c65d3b94074af8c3db176fe21a877c2b"}, {"bike_id": "7dd1ff9027583a6f402b54c1b18856e9", "type": "electric_scooter", "is_disabled": 0, "lat": 38.918000166666666, "rental_uris": {"ios": "https://dc.lft.to/lastmile_qr_scan", "android": "https://dc.lft.to/lastmile_qr_scan"}, "is_reserved": 0, "fusion_lon": 0.0, "fusion_lat": 0.0, "lon": -77.02334866666666, "name": "7dd1ff9027583a6f402b54c1b18856e9"}, {"bike_id": "a26cab9043f24809f02047417114b3fa", "type": "electric_scooter", "is_disabled": 0, "lat": 38.918416, "rental_uris": {"ios": "https://dc.lft.to/lastmile_qr_scan", "android": "https://dc.lft.to/lastmile_qr_scan"}, "is_reserved": 0, "fusion_lon": 0.0, "fusion_lat": 0.0, "lon": -77.03183666666666, "name": "a26cab9043f24809f02047417114b3fa"}, {"bike_id": "3a119676cfbd1b9a08ac810b8d6f5915", "type": "electric_scooter", "is_disabled": 0, "lat": 38.9168135, "rental_uris": {"ios": "https://dc.lft.to/lastmile_qr_scan", "android": "https://dc.lft.to/lastmile_qr_scan"}, "is_reserved": 0, "fusion_lon": 0.0, "fusion_lat": 0.0, "lon": -77.02944466666666, "name": "3a119676cfbd1b9a08ac810b8d6f5915"}, {"bike_id": "05ea4af42eec5e438fa10bcce3f7b353", "type": "electric_scooter", "is_disabled": 0, "lat": 38.92076616666667, "rental_uris": {"ios": "https://dc.lft.to/lastmile_qr_scan", "android": "https://dc.lft.to/lastmile_qr_scan"}, "is_reserved": 0, "fusion_lon": 0.0, "fusion_lat": 0.0, "lon": -77.02373466666667, "name": "05ea4af42eec5e438fa10bcce3f7b353"}, {"bike_id": "b65f9f393959143392edd9d7a9586d68", "type": "electric_scooter", "is_disabled": 0, "lat": 38.92123016666667, "rental_uris": {"ios": "https://dc.lft.to/lastmile_qr_scan", "android": "https://dc.lft.to/lastmile_qr_scan"}, "is_reserved": 0, "fusion_lon": 0.0, "fusion_lat": 0.0, "lon": -77.03657466666667, "name": "b65f9f393959143392edd9d7a9586d68"}, {"bike_id": "13217b6fab23fa1e4abca0bff4661873", "type": "electric_scooter", "is_disabled": 0, "lat": 38.907873, "rental_uris": {"ios": "https://dc.lft.to/lastmile_qr_scan", "android": "https://dc.lft.to/lastmile_qr_scan"}, "is_reserved": 0, "fusion_lon": 0.0, "fusion_lat": 0.0, "lon": -77.0386135, "name": "13217b6fab23fa1e4abca0bff4661873"}, {"bike_id": "d4449d045e3a099854e1bb70a1fd2813", "type": "electric_scooter", "is_disabled": 0, "lat": 38.8962605, "rental_uris": {"ios": "https://dc.lft.to/lastmile_qr_scan", "android": "https://dc.lft.to/lastmile_qr_scan"}, "is_reserved": 0, "fusion_lon": 0.0, "fusion_lat": 0.0, "lon": -77.03293016666667, "name": "d4449d045e3a099854e1bb70a1fd2813"}, {"bike_id": "36d2a9f875d512290656fd6b614bde2d", "type": "electric_bike", "is_disabled": 0, "lat": 38.956436833333335, "rental_uris": {"ios": "https://dc.lft.to/lastmile_qr_scan", "android": "https://dc.lft.to/lastmile_qr_scan"}, "is_reserved": 0, "fusion_lon": 0.0, "fusion_lat": 0.0, "lon": -76.99794816666666, "name": "36d2a9f875d512290656fd6b614bde2d"}, {"bike_id": "27c6bc9622b0a83fcb2986788189e1e6", "type": "electric_scooter", "is_disabled": 0, "lat": 38.91639033333333, "rental_uris": {"ios": "https://dc.lft.to/lastmile_qr_scan", "android": "https://dc.lft.to/lastmile_qr_scan"}, "is_reserved": 0, "fusion_lon": 0.0, "fusion_lat": 0.0, "lon": -77.01081816666667, "name": "27c6bc9622b0a83fcb2986788189e1e6"}, {"bike_id": "0f2f898f2200b5a58e52e858aa4ea599", "type": "electric_scooter", "is_disabled": 0, "lat": 38.919225833333336, "rental_uris": {"ios": "https://dc.lft.to/lastmile_qr_scan", "android": "https://dc.lft.to/lastmile_qr_scan"}, "is_reserved": 0, "fusion_lon": 0.0, "fusion_lat": 0.0, "lon": -77.03392316666667, "name": "0f2f898f2200b5a58e52e858aa4ea599"}, {"bike_id": "f7ccccbfea00e2af74ebf9c248842766", "type": "electric_scooter", "is_disabled": 0, "lat": 38.90846166666667, "rental_uris": {"ios": "https://dc.lft.to/lastmile_qr_scan", "android": "https://dc.lft.to/lastmile_qr_scan"}, "is_reserved": 0, "fusion_lon": 0.0, "fusion_lat": 0.0, "lon": -77.022415, "name": "f7ccccbfea00e2af74ebf9c248842766"}, {"bike_id": "1872ec56bac164e2bae19ab23b64988c", "type": "electric_scooter", "is_disabled": 0, "lat": 38.91998, "rental_uris": {"ios": "https://dc.lft.to/lastmile_qr_scan", "android": "https://dc.lft.to/lastmile_qr_scan"}, "is_reserved": 0, "fusion_lon": 0.0, "fusion_lat": 0.0, "lon": -77.01801866666666, "name": "1872ec56bac164e2bae19ab23b64988c"}, {"bike_id": "d0b6dc06d29d9987af9dd0cd29757a1a", "type": "electric_scooter", "is_disabled": 0, "lat": 38.92449333333333, "rental_uris": {"ios": "https://dc.lft.to/lastmile_qr_scan", "android": "https://dc.lft.to/lastmile_qr_scan"}, "is_reserved": 0, "fusion_lon": 0.0, "fusion_lat": 0.0, "lon": -77.04411383333333, "name": "d0b6dc06d29d9987af9dd0cd29757a1a"}, {"bike_id": "c1df05762cff4297dd52d6a6bc152ac4", "type": "electric_scooter", "is_disabled": 0, "lat": 38.919339666666666, "rental_uris": {"ios": "https://dc.lft.to/lastmile_qr_scan", "android": "https://dc.lft.to/lastmile_qr_scan"}, "is_reserved": 0, "fusion_lon": 0.0, "fusion_lat": 0.0, "lon": -77.073816, "name": "c1df05762cff4297dd52d6a6bc152ac4"}, {"bike_id": "9a2bc670fa393c0d8c4edd0de114b123", "type": "electric_scooter", "is_disabled": 0, "lat": 38.90965583333333, "rental_uris": {"ios": "https://dc.lft.to/lastmile_qr_scan", "android": "https://dc.lft.to/lastmile_qr_scan"}, "is_reserved": 0, "fusion_lon": 0.0, "fusion_lat": 0.0, "lon": -77.02313333333333, "name": "9a2bc670fa393c0d8c4edd0de114b123"}, {"bike_id": "85fda85c5c68a5268855af0660101762", "type": "electric_scooter", "is_disabled": 0, "lat": 38.93318216666667, "rental_uris": {"ios": "https://dc.lft.to/lastmile_qr_scan", "android": "https://dc.lft.to/lastmile_qr_scan"}, "is_reserved": 0, "fusion_lon": 0.0, "fusion_lat": 0.0, "lon": -77.03441066666667, "name": "85fda85c5c68a5268855af0660101762"}, {"bike_id": "748c790bad673dfab63eaa0a67edd8f7", "type": "electric_scooter", "is_disabled": 0, "lat": 38.915593666666666, "rental_uris": {"ios": "https://dc.lft.to/lastmile_qr_scan", "android": "https://dc.lft.to/lastmile_qr_scan"}, "is_reserved": 0, "fusion_lon": 0.0, "fusion_lat": 0.0, "lon": -77.02337683333333, "name": "748c790bad673dfab63eaa0a67edd8f7"}, {"bike_id": "aa0d5fed79a43a30acebffdba460aebd", "type": "electric_scooter", "is_disabled": 0, "lat": 38.91630083333333, "rental_uris": {"ios": "https://dc.lft.to/lastmile_qr_scan", "android": "https://dc.lft.to/lastmile_qr_scan"}, "is_reserved": 0, "fusion_lon": 0.0, "fusion_lat": 0.0, "lon": -77.03192516666667, "name": "aa0d5fed79a43a30acebffdba460aebd"}, {"bike_id": "daa866053b31b5125231ba9841ddae5d", "type": "electric_scooter", "is_disabled": 0, "lat": 38.9269005, "rental_uris": {"ios": "https://dc.lft.to/lastmile_qr_scan", "android": "https://dc.lft.to/lastmile_qr_scan"}, "is_reserved": 0, "fusion_lon": 0.0, "fusion_lat": 0.0, "lon": -77.0278375, "name": "daa866053b31b5125231ba9841ddae5d"}, {"bike_id": "445d6036b2df92dcab5d81b370c86a1f", "type": "electric_scooter", "is_disabled": 0, "lat": 38.914169, "rental_uris": {"ios": "https://dc.lft.to/lastmile_qr_scan", "android": "https://dc.lft.to/lastmile_qr_scan"}, "is_reserved": 0, "fusion_lon": 0.0, "fusion_lat": 0.0, "lon": -77.04467966666667, "name": "445d6036b2df92dcab5d81b370c86a1f"}, {"bike_id": "737c2a0b659a7fc3cd662e0eb2ff6042", "type": "electric_scooter", "is_disabled": 0, "lat": 38.91008033333333, "rental_uris": {"ios": "https://dc.lft.to/lastmile_qr_scan", "android": "https://dc.lft.to/lastmile_qr_scan"}, "is_reserved": 0, "fusion_lon": 0.0, "fusion_lat": 0.0, "lon": -77.0344365, "name": "737c2a0b659a7fc3cd662e0eb2ff6042"}, {"bike_id": "ed4be961fbadd64076fe924fee914a0c", "type": "electric_scooter", "is_disabled": 0, "lat": 38.8843775, "rental_uris": {"ios": "https://dc.lft.to/lastmile_qr_scan", "android": "https://dc.lft.to/lastmile_qr_scan"}, "is_reserved": 0, "fusion_lon": 0.0, "fusion_lat": 0.0, "lon": -76.957483, "name": "ed4be961fbadd64076fe924fee914a0c"}, {"bike_id": "6eb3b356a481d2db6cc68017c3d81fe7", "type": "electric_scooter", "is_disabled": 0, "lat": 38.931109, "rental_uris": {"ios": "https://dc.lft.to/lastmile_qr_scan", "android": "https://dc.lft.to/lastmile_qr_scan"}, "is_reserved": 0, "fusion_lon": 0.0, "fusion_lat": 0.0, "lon": -77.03811733333333, "name": "6eb3b356a481d2db6cc68017c3d81fe7"}, {"bike_id": "626ad8b248ce9142d6ac6fd57c3cff29", "type": "electric_bike", "is_disabled": 0, "lat": 38.8694095, "rental_uris": {"ios": "https://dc.lft.to/lastmile_qr_scan", "android": "https://dc.lft.to/lastmile_qr_scan"}, "is_reserved": 0, "fusion_lon": 0.0, "fusion_lat": 0.0, "lon": -77.09468266666667, "name": "626ad8b248ce9142d6ac6fd57c3cff29"}, {"bike_id": "3a4a8c5b8a50efc5961a60fe849d0122", "type": "electric_scooter", "is_disabled": 0, "lat": 38.93653666666667, "rental_uris": {"ios": "https://dc.lft.to/lastmile_qr_scan", "android": "https://dc.lft.to/lastmile_qr_scan"}, "is_reserved": 0, "fusion_lon": 0.0, "fusion_lat": 0.0, "lon": -77.02637616666667, "name": "3a4a8c5b8a50efc5961a60fe849d0122"}, {"bike_id": "fb2eb914cea21e81bb7dde2b9983490c", "type": "electric_scooter", "is_disabled": 0, "lat": 38.95736133333333, "rental_uris": {"ios": "https://dc.lft.to/lastmile_qr_scan", "android": "https://dc.lft.to/lastmile_qr_scan"}, "is_reserved": 0, "fusion_lon": 0.0, "fusion_lat": 0.0, "lon": -77.02419083333334, "name": "fb2eb914cea21e81bb7dde2b9983490c"}, {"bike_id": "0e1ea58acd3ba54a05c40eeaa621b1de", "type": "electric_scooter", "is_disabled": 0, "lat": 38.914471666666664, "rental_uris": {"ios": "https://dc.lft.to/lastmile_qr_scan", "android": "https://dc.lft.to/lastmile_qr_scan"}, "is_reserved": 0, "fusion_lon": 0.0, "fusion_lat": 0.0, "lon": -77.022854, "name": "0e1ea58acd3ba54a05c40eeaa621b1de"}, {"bike_id": "ec3cbbc4d6a8a3869ddb8011c8a7c273", "type": "electric_scooter", "is_disabled": 0, "lat": 38.930677, "rental_uris": {"ios": "https://dc.lft.to/lastmile_qr_scan", "android": "https://dc.lft.to/lastmile_qr_scan"}, "is_reserved": 0, "fusion_lon": 0.0, "fusion_lat": 0.0, "lon": -77.02977583333333, "name": "ec3cbbc4d6a8a3869ddb8011c8a7c273"}, {"bike_id": "9467b43fa61d01f8856667bf952a766f", "type": "electric_scooter", "is_disabled": 0, "lat": 38.888498166666665, "rental_uris": {"ios": "https://dc.lft.to/lastmile_qr_scan", "android": "https://dc.lft.to/lastmile_qr_scan"}, "is_reserved": 0, "fusion_lon": 0.0, "fusion_lat": 0.0, "lon": -76.926816, "name": "9467b43fa61d01f8856667bf952a766f"}, {"bike_id": "942e81f8a01983d5d76ee13729dc2acb", "type": "electric_scooter", "is_disabled": 0, "lat": 38.883953, "rental_uris": {"ios": "https://dc.lft.to/lastmile_qr_scan", "android": "https://dc.lft.to/lastmile_qr_scan"}, "is_reserved": 0, "fusion_lon": 0.0, "fusion_lat": 0.0, "lon": -76.995498, "name": "942e81f8a01983d5d76ee13729dc2acb"}, {"bike_id": "e21e1ed2bdf7b8d1736ec7ebd390f663", "type": "electric_scooter", "is_disabled": 0, "lat": 38.86695566666667, "rental_uris": {"ios": "https://dc.lft.to/lastmile_qr_scan", "android": "https://dc.lft.to/lastmile_qr_scan"}, "is_reserved": 0, "fusion_lon": 0.0, "fusion_lat": 0.0, "lon": -76.9870885, "name": "e21e1ed2bdf7b8d1736ec7ebd390f663"}, {"bike_id": "fcb4d5a6625fe4600cc7c61fae7625b8", "type": "electric_scooter", "is_disabled": 0, "lat": 38.918035, "rental_uris": {"ios": "https://dc.lft.to/lastmile_qr_scan", "android": "https://dc.lft.to/lastmile_qr_scan"}, "is_reserved": 0, "fusion_lon": 0.0, "fusion_lat": 0.0, "lon": -77.0344075, "name": "fcb4d5a6625fe4600cc7c61fae7625b8"}, {"bike_id": "8d0d6da0b25b769f77a4daa6170428fe", "type": "electric_bike", "is_disabled": 0, "lat": 38.8619655, "rental_uris": {"ios": "https://dc.lft.to/lastmile_qr_scan", "android": "https://dc.lft.to/lastmile_qr_scan"}, "is_reserved": 0, "fusion_lon": 0.0, "fusion_lat": 0.0, "lon": -76.94799133333333, "name": "8d0d6da0b25b769f77a4daa6170428fe"}, {"bike_id": "d4552a23a8d16cb90980603b2e1497bd", "type": "electric_scooter", "is_disabled": 0, "lat": 38.89624233333333, "rental_uris": {"ios": "https://dc.lft.to/lastmile_qr_scan", "android": "https://dc.lft.to/lastmile_qr_scan"}, "is_reserved": 0, "fusion_lon": 0.0, "fusion_lat": 0.0, "lon": -76.98571716666666, "name": "d4552a23a8d16cb90980603b2e1497bd"}, {"bike_id": "604dc835d1a73dda0961c19de53db199", "type": "electric_scooter", "is_disabled": 0, "lat": 38.900095666666665, "rental_uris": {"ios": "https://dc.lft.to/lastmile_qr_scan", "android": "https://dc.lft.to/lastmile_qr_scan"}, "is_reserved": 0, "fusion_lon": 0.0, "fusion_lat": 0.0, "lon": -77.045027, "name": "604dc835d1a73dda0961c19de53db199"}, {"bike_id": "c00c4a78722401bd7e40397ecad63493", "type": "electric_scooter", "is_disabled": 0, "lat": 38.901408833333335, "rental_uris": {"ios": "https://dc.lft.to/lastmile_qr_scan", "android": "https://dc.lft.to/lastmile_qr_scan"}, "is_reserved": 0, "fusion_lon": 0.0, "fusion_lat": 0.0, "lon": -77.00856733333333, "name": "c00c4a78722401bd7e40397ecad63493"}, {"bike_id": "79d93e65c2453c043ae292d3a71384e7", "type": "electric_scooter", "is_disabled": 0, "lat": 38.9509705, "rental_uris": {"ios": "https://dc.lft.to/lastmile_qr_scan", "android": "https://dc.lft.to/lastmile_qr_scan"}, "is_reserved": 0, "fusion_lon": 0.0, "fusion_lat": 0.0, "lon": -77.02960866666666, "name": "79d93e65c2453c043ae292d3a71384e7"}, {"bike_id": "2b47b1ebf10ca051a7e309a628b4c50f", "type": "electric_scooter", "is_disabled": 0, "lat": 38.946199666666665, "rental_uris": {"ios": "https://dc.lft.to/lastmile_qr_scan", "android": "https://dc.lft.to/lastmile_qr_scan"}, "is_reserved": 0, "fusion_lon": 0.0, "fusion_lat": 0.0, "lon": -77.02650566666667, "name": "2b47b1ebf10ca051a7e309a628b4c50f"}, {"bike_id": "0eaa63a45c53508722deaaf412cf39ac", "type": "electric_scooter", "is_disabled": 0, "lat": 38.905526, "rental_uris": {"ios": "https://dc.lft.to/lastmile_qr_scan", "android": "https://dc.lft.to/lastmile_qr_scan"}, "is_reserved": 0, "fusion_lon": 0.0, "fusion_lat": 0.0, "lon": -77.0418585, "name": "0eaa63a45c53508722deaaf412cf39ac"}, {"bike_id": "07529acdd1f02c9aca2327d03bfbdf1d", "type": "electric_scooter", "is_disabled": 0, "lat": 38.9118455, "rental_uris": {"ios": "https://dc.lft.to/lastmile_qr_scan", "android": "https://dc.lft.to/lastmile_qr_scan"}, "is_reserved": 0, "fusion_lon": 0.0, "fusion_lat": 0.0, "lon": -77.04570333333334, "name": "07529acdd1f02c9aca2327d03bfbdf1d"}, {"bike_id": "fbaaf0b9a45b55ac84a9633f2fa969b7", "type": "electric_scooter", "is_disabled": 0, "lat": 38.923547, "rental_uris": {"ios": "https://dc.lft.to/lastmile_qr_scan", "android": "https://dc.lft.to/lastmile_qr_scan"}, "is_reserved": 0, "fusion_lon": 0.0, "fusion_lat": 0.0, "lon": -77.0415155, "name": "fbaaf0b9a45b55ac84a9633f2fa969b7"}, {"bike_id": "0c5fb5590ad772ab27c524108e60609d", "type": "electric_scooter", "is_disabled": 0, "lat": 38.9040055, "rental_uris": {"ios": "https://dc.lft.to/lastmile_qr_scan", "android": "https://dc.lft.to/lastmile_qr_scan"}, "is_reserved": 0, "fusion_lon": 0.0, "fusion_lat": 0.0, "lon": -77.00564783333333, "name": "0c5fb5590ad772ab27c524108e60609d"}, {"bike_id": "946238a6ec3a2d8fdd3a09db2dc51bfe", "type": "electric_scooter", "is_disabled": 0, "lat": 38.905112833333334, "rental_uris": {"ios": "https://dc.lft.to/lastmile_qr_scan", "android": "https://dc.lft.to/lastmile_qr_scan"}, "is_reserved": 0, "fusion_lon": 0.0, "fusion_lat": 0.0, "lon": -77.06200883333334, "name": "946238a6ec3a2d8fdd3a09db2dc51bfe"}, {"bike_id": "0bbd4b04b5528c100e9f87669c35e01d", "type": "electric_scooter", "is_disabled": 0, "lat": 38.920297833333336, "rental_uris": {"ios": "https://dc.lft.to/lastmile_qr_scan", "android": "https://dc.lft.to/lastmile_qr_scan"}, "is_reserved": 0, "fusion_lon": 0.0, "fusion_lat": 0.0, "lon": -77.0316705, "name": "0bbd4b04b5528c100e9f87669c35e01d"}, {"bike_id": "53cd3da029837b835ad9aa7f7b5a0804", "type": "electric_scooter", "is_disabled": 0, "lat": 38.8987705, "rental_uris": {"ios": "https://dc.lft.to/lastmile_qr_scan", "android": "https://dc.lft.to/lastmile_qr_scan"}, "is_reserved": 0, "fusion_lon": 0.0, "fusion_lat": 0.0, "lon": -76.93185483333333, "name": "53cd3da029837b835ad9aa7f7b5a0804"}, {"bike_id": "a6bf3842947f022280c5ba5050798f0c", "type": "electric_scooter", "is_disabled": 0, "lat": 38.93104183333333, "rental_uris": {"ios": "https://dc.lft.to/lastmile_qr_scan", "android": "https://dc.lft.to/lastmile_qr_scan"}, "is_reserved": 0, "fusion_lon": 0.0, "fusion_lat": 0.0, "lon": -77.02668116666666, "name": "a6bf3842947f022280c5ba5050798f0c"}, {"bike_id": "4ed67f77a1f55b2d346ba87da3bb1506", "type": "electric_scooter", "is_disabled": 0, "lat": 38.909449, "rental_uris": {"ios": "https://dc.lft.to/lastmile_qr_scan", "android": "https://dc.lft.to/lastmile_qr_scan"}, "is_reserved": 0, "fusion_lon": 0.0, "fusion_lat": 0.0, "lon": -77.0344645, "name": "4ed67f77a1f55b2d346ba87da3bb1506"}, {"bike_id": "4363ffd1c48c522d1c1eda4971455544", "type": "electric_scooter", "is_disabled": 0, "lat": 38.90730516666667, "rental_uris": {"ios": "https://dc.lft.to/lastmile_qr_scan", "android": "https://dc.lft.to/lastmile_qr_scan"}, "is_reserved": 0, "fusion_lon": 0.0, "fusion_lat": 0.0, "lon": -77.029747, "name": "4363ffd1c48c522d1c1eda4971455544"}, {"bike_id": "0fcb6eb3ecdcc88e0e39fa78d82d2724", "type": "electric_scooter", "is_disabled": 0, "lat": 38.918809333333336, "rental_uris": {"ios": "https://dc.lft.to/lastmile_qr_scan", "android": "https://dc.lft.to/lastmile_qr_scan"}, "is_reserved": 0, "fusion_lon": 0.0, "fusion_lat": 0.0, "lon": -77.02950816666667, "name": "0fcb6eb3ecdcc88e0e39fa78d82d2724"}, {"bike_id": "afa7d978ba8ec77cb1dd2c90fbd3cad9", "type": "electric_bike", "is_disabled": 0, "lat": 38.92445283333333, "rental_uris": {"ios": "https://dc.lft.to/lastmile_qr_scan", "android": "https://dc.lft.to/lastmile_qr_scan"}, "is_reserved": 0, "fusion_lon": 0.0, "fusion_lat": 0.0, "lon": -77.22566433333333, "name": "afa7d978ba8ec77cb1dd2c90fbd3cad9"}, {"bike_id": "5ab40daaab7cb1f5af499103ce95d130", "type": "electric_scooter", "is_disabled": 0, "lat": 38.92461816666667, "rental_uris": {"ios": "https://dc.lft.to/lastmile_qr_scan", "android": "https://dc.lft.to/lastmile_qr_scan"}, "is_reserved": 0, "fusion_lon": 0.0, "fusion_lat": 0.0, "lon": -77.02965316666666, "name": "5ab40daaab7cb1f5af499103ce95d130"}, {"bike_id": "b8fae29a8e40692452c5396ab54d98ac", "type": "electric_scooter", "is_disabled": 0, "lat": 38.90438833333333, "rental_uris": {"ios": "https://dc.lft.to/lastmile_qr_scan", "android": "https://dc.lft.to/lastmile_qr_scan"}, "is_reserved": 0, "fusion_lon": 0.0, "fusion_lat": 0.0, "lon": -77.03468266666667, "name": "b8fae29a8e40692452c5396ab54d98ac"}, {"bike_id": "eb8e7a23bb1b7a6e733a6c87ddf6ee12", "type": "electric_scooter", "is_disabled": 0, "lat": 38.93478666666667, "rental_uris": {"ios": "https://dc.lft.to/lastmile_qr_scan", "android": "https://dc.lft.to/lastmile_qr_scan"}, "is_reserved": 0, "fusion_lon": 0.0, "fusion_lat": 0.0, "lon": -77.02614333333334, "name": "eb8e7a23bb1b7a6e733a6c87ddf6ee12"}, {"bike_id": "5944b1814dfebfb5903f89769210ae50", "type": "electric_scooter", "is_disabled": 0, "lat": 38.9167985, "rental_uris": {"ios": "https://dc.lft.to/lastmile_qr_scan", "android": "https://dc.lft.to/lastmile_qr_scan"}, "is_reserved": 0, "fusion_lon": 0.0, "fusion_lat": 0.0, "lon": -77.02975216666667, "name": "5944b1814dfebfb5903f89769210ae50"}, {"bike_id": "8d96664a156893bf3897a2c726c4ec72", "type": "electric_bike", "is_disabled": 0, "lat": 38.8367315, "rental_uris": {"ios": "https://dc.lft.to/lastmile_qr_scan", "android": "https://dc.lft.to/lastmile_qr_scan"}, "is_reserved": 0, "fusion_lon": 0.0, "fusion_lat": 0.0, "lon": -76.99360566666667, "name": "8d96664a156893bf3897a2c726c4ec72"}, {"bike_id": "d9150eb82d596784e51136f7aacd3fdd", "type": "electric_scooter", "is_disabled": 0, "lat": 38.93540983333333, "rental_uris": {"ios": "https://dc.lft.to/lastmile_qr_scan", "android": "https://dc.lft.to/lastmile_qr_scan"}, "is_reserved": 0, "fusion_lon": 0.0, "fusion_lat": 0.0, "lon": -77.0583045, "name": "d9150eb82d596784e51136f7aacd3fdd"}, {"bike_id": "242e934a883483275c9071a13ddd592a", "type": "electric_scooter", "is_disabled": 0, "lat": 38.912473166666665, "rental_uris": {"ios": "https://dc.lft.to/lastmile_qr_scan", "android": "https://dc.lft.to/lastmile_qr_scan"}, "is_reserved": 0, "fusion_lon": 0.0, "fusion_lat": 0.0, "lon": -77.03857483333333, "name": "242e934a883483275c9071a13ddd592a"}, {"bike_id": "cddff6cb4308f023be32a9f80f4341d2", "type": "electric_scooter", "is_disabled": 0, "lat": 38.906454, "rental_uris": {"ios": "https://dc.lft.to/lastmile_qr_scan", "android": "https://dc.lft.to/lastmile_qr_scan"}, "is_reserved": 0, "fusion_lon": 0.0, "fusion_lat": 0.0, "lon": -77.017306, "name": "cddff6cb4308f023be32a9f80f4341d2"}, {"bike_id": "0bfedac153228967deff95d402809e89", "type": "electric_scooter", "is_disabled": 0, "lat": 38.900817, "rental_uris": {"ios": "https://dc.lft.to/lastmile_qr_scan", "android": "https://dc.lft.to/lastmile_qr_scan"}, "is_reserved": 0, "fusion_lon": 0.0, "fusion_lat": 0.0, "lon": -77.03067, "name": "0bfedac153228967deff95d402809e89"}, {"bike_id": "f30d5c6c8c41329f72848a90aba844a0", "type": "electric_scooter", "is_disabled": 0, "lat": 38.899380666666666, "rental_uris": {"ios": "https://dc.lft.to/lastmile_qr_scan", "android": "https://dc.lft.to/lastmile_qr_scan"}, "is_reserved": 0, "fusion_lon": 0.0, "fusion_lat": 0.0, "lon": -77.047777, "name": "f30d5c6c8c41329f72848a90aba844a0"}, {"bike_id": "1bf317c5985c97bf12ab7eac3f33b66f", "type": "electric_scooter", "is_disabled": 0, "lat": 38.902673166666666, "rental_uris": {"ios": "https://dc.lft.to/lastmile_qr_scan", "android": "https://dc.lft.to/lastmile_qr_scan"}, "is_reserved": 0, "fusion_lon": 0.0, "fusion_lat": 0.0, "lon": -77.03385383333334, "name": "1bf317c5985c97bf12ab7eac3f33b66f"}, {"bike_id": "71818a54fcb6d5dd1b1ba18b43160050", "type": "electric_scooter", "is_disabled": 0, "lat": 38.91405116666667, "rental_uris": {"ios": "https://dc.lft.to/lastmile_qr_scan", "android": "https://dc.lft.to/lastmile_qr_scan"}, "is_reserved": 0, "fusion_lon": 0.0, "fusion_lat": 0.0, "lon": -77.03147333333334, "name": "71818a54fcb6d5dd1b1ba18b43160050"}, {"bike_id": "427ecb4c896438196fdca7aef67c8b49", "type": "electric_scooter", "is_disabled": 0, "lat": 38.87678433333333, "rental_uris": {"ios": "https://dc.lft.to/lastmile_qr_scan", "android": "https://dc.lft.to/lastmile_qr_scan"}, "is_reserved": 0, "fusion_lon": 0.0, "fusion_lat": 0.0, "lon": -77.01791416666667, "name": "427ecb4c896438196fdca7aef67c8b49"}, {"bike_id": "d488313859e9a9e0fe67cbd99136931d", "type": "electric_bike", "is_disabled": 0, "lat": 38.79984816666666, "rental_uris": {"ios": "https://dc.lft.to/lastmile_qr_scan", "android": "https://dc.lft.to/lastmile_qr_scan"}, "is_reserved": 0, "fusion_lon": 0.0, "fusion_lat": 0.0, "lon": -77.12975233333333, "name": "d488313859e9a9e0fe67cbd99136931d"}, {"bike_id": "81d6a7393a3e724bc14d56637ad89d9d", "type": "electric_scooter", "is_disabled": 0, "lat": 38.92241033333333, "rental_uris": {"ios": "https://dc.lft.to/lastmile_qr_scan", "android": "https://dc.lft.to/lastmile_qr_scan"}, "is_reserved": 0, "fusion_lon": 0.0, "fusion_lat": 0.0, "lon": -77.02951466666667, "name": "81d6a7393a3e724bc14d56637ad89d9d"}, {"bike_id": "776a7ed999c98bfd4892debd633492a4", "type": "electric_scooter", "is_disabled": 0, "lat": 38.91571716666667, "rental_uris": {"ios": "https://dc.lft.to/lastmile_qr_scan", "android": "https://dc.lft.to/lastmile_qr_scan"}, "is_reserved": 0, "fusion_lon": 0.0, "fusion_lat": 0.0, "lon": -77.03468733333334, "name": "776a7ed999c98bfd4892debd633492a4"}, {"bike_id": "002cab26db77e7200d4cec50a6f23706", "type": "electric_scooter", "is_disabled": 0, "lat": 38.901156, "rental_uris": {"ios": "https://dc.lft.to/lastmile_qr_scan", "android": "https://dc.lft.to/lastmile_qr_scan"}, "is_reserved": 0, "fusion_lon": 0.0, "fusion_lat": 0.0, "lon": -77.049954, "name": "002cab26db77e7200d4cec50a6f23706"}, {"bike_id": "fc9207db99b597bfb870963a09c0426d", "type": "electric_scooter", "is_disabled": 0, "lat": 38.918221833333334, "rental_uris": {"ios": "https://dc.lft.to/lastmile_qr_scan", "android": "https://dc.lft.to/lastmile_qr_scan"}, "is_reserved": 0, "fusion_lon": 0.0, "fusion_lat": 0.0, "lon": -77.01023, "name": "fc9207db99b597bfb870963a09c0426d"}, {"bike_id": "902f0b8a76a87f7304cb5ec8b90eea90", "type": "electric_scooter", "is_disabled": 0, "lat": 38.907571833333336, "rental_uris": {"ios": "https://dc.lft.to/lastmile_qr_scan", "android": "https://dc.lft.to/lastmile_qr_scan"}, "is_reserved": 0, "fusion_lon": 0.0, "fusion_lat": 0.0, "lon": -77.031843, "name": "902f0b8a76a87f7304cb5ec8b90eea90"}, {"bike_id": "f4841c78df9a584a2ef66a922b340816", "type": "electric_scooter", "is_disabled": 0, "lat": 38.862399833333335, "rental_uris": {"ios": "https://dc.lft.to/lastmile_qr_scan", "android": "https://dc.lft.to/lastmile_qr_scan"}, "is_reserved": 0, "fusion_lon": 0.0, "fusion_lat": 0.0, "lon": -76.9951785, "name": "f4841c78df9a584a2ef66a922b340816"}, {"bike_id": "dd522e1dc7ad56ec791de87a8992de3a", "type": "electric_scooter", "is_disabled": 0, "lat": 38.92800066666667, "rental_uris": {"ios": "https://dc.lft.to/lastmile_qr_scan", "android": "https://dc.lft.to/lastmile_qr_scan"}, "is_reserved": 0, "fusion_lon": 0.0, "fusion_lat": 0.0, "lon": -77.04352066666667, "name": "dd522e1dc7ad56ec791de87a8992de3a"}, {"bike_id": "3a7a4b0ba3330519bb33c4878a31e78d", "type": "electric_scooter", "is_disabled": 0, "lat": 38.8932265, "rental_uris": {"ios": "https://dc.lft.to/lastmile_qr_scan", "android": "https://dc.lft.to/lastmile_qr_scan"}, "is_reserved": 0, "fusion_lon": 0.0, "fusion_lat": 0.0, "lon": -77.048761, "name": "3a7a4b0ba3330519bb33c4878a31e78d"}, {"bike_id": "a3ce636148355abd4ad1a0a58600616f", "type": "electric_scooter", "is_disabled": 0, "lat": 38.92839633333333, "rental_uris": {"ios": "https://dc.lft.to/lastmile_qr_scan", "android": "https://dc.lft.to/lastmile_qr_scan"}, "is_reserved": 0, "fusion_lon": 0.0, "fusion_lat": 0.0, "lon": -77.0275415, "name": "a3ce636148355abd4ad1a0a58600616f"}, {"bike_id": "2d5e9d73da9ab684e28388ba450e090d", "type": "electric_scooter", "is_disabled": 0, "lat": 38.93637533333333, "rental_uris": {"ios": "https://dc.lft.to/lastmile_qr_scan", "android": "https://dc.lft.to/lastmile_qr_scan"}, "is_reserved": 0, "fusion_lon": 0.0, "fusion_lat": 0.0, "lon": -77.05885016666667, "name": "2d5e9d73da9ab684e28388ba450e090d"}, {"bike_id": "af5862d2c4c73a00a0d8259f7bd5fd0e", "type": "electric_bike", "is_disabled": 0, "lat": 38.9523225, "rental_uris": {"ios": "https://dc.lft.to/lastmile_qr_scan", "android": "https://dc.lft.to/lastmile_qr_scan"}, "is_reserved": 0, "fusion_lon": 0.0, "fusion_lat": 0.0, "lon": -77.00238716666667, "name": "af5862d2c4c73a00a0d8259f7bd5fd0e"}, {"bike_id": "002c1722a6fdd74f48d5780faf651418", "type": "electric_scooter", "is_disabled": 0, "lat": 38.92337766666667, "rental_uris": {"ios": "https://dc.lft.to/lastmile_qr_scan", "android": "https://dc.lft.to/lastmile_qr_scan"}, "is_reserved": 0, "fusion_lon": 0.0, "fusion_lat": 0.0, "lon": -77.0018885, "name": "002c1722a6fdd74f48d5780faf651418"}, {"bike_id": "f0c70e227d37d77bd9b26b42f77e112b", "type": "electric_scooter", "is_disabled": 0, "lat": 38.88934533333333, "rental_uris": {"ios": "https://dc.lft.to/lastmile_qr_scan", "android": "https://dc.lft.to/lastmile_qr_scan"}, "is_reserved": 0, "fusion_lon": 0.0, "fusion_lat": 0.0, "lon": -77.015073, "name": "f0c70e227d37d77bd9b26b42f77e112b"}, {"bike_id": "3e1f3ab6a792220717eab712bc6d85b3", "type": "electric_bike", "is_disabled": 0, "lat": 38.80415983333333, "rental_uris": {"ios": "https://dc.lft.to/lastmile_qr_scan", "android": "https://dc.lft.to/lastmile_qr_scan"}, "is_reserved": 0, "fusion_lon": 0.0, "fusion_lat": 0.0, "lon": -77.055542, "name": "3e1f3ab6a792220717eab712bc6d85b3"}, {"bike_id": "a38f7c35591cebc15f15a047f71d7c70", "type": "electric_scooter", "is_disabled": 0, "lat": 38.922891166666666, "rental_uris": {"ios": "https://dc.lft.to/lastmile_qr_scan", "android": "https://dc.lft.to/lastmile_qr_scan"}, "is_reserved": 0, "fusion_lon": 0.0, "fusion_lat": 0.0, "lon": -77.02964933333334, "name": "a38f7c35591cebc15f15a047f71d7c70"}, {"bike_id": "f74a132d74ed4b564830b0c4359c8b8c", "type": "electric_scooter", "is_disabled": 0, "lat": 38.911035, "rental_uris": {"ios": "https://dc.lft.to/lastmile_qr_scan", "android": "https://dc.lft.to/lastmile_qr_scan"}, "is_reserved": 0, "fusion_lon": 0.0, "fusion_lat": 0.0, "lon": -77.04203016666666, "name": "f74a132d74ed4b564830b0c4359c8b8c"}, {"bike_id": "5ed4e07e084a7c08b41e29b1711e14b9", "type": "electric_scooter", "is_disabled": 0, "lat": 38.905545000000004, "rental_uris": {"ios": "https://dc.lft.to/lastmile_qr_scan", "android": "https://dc.lft.to/lastmile_qr_scan"}, "is_reserved": 0, "fusion_lon": 0.0, "fusion_lat": 0.0, "lon": -76.99621766666667, "name": "5ed4e07e084a7c08b41e29b1711e14b9"}, {"bike_id": "5a669199ff873df6ce3b3b04cc686fae", "type": "electric_scooter", "is_disabled": 0, "lat": 38.922609, "rental_uris": {"ios": "https://dc.lft.to/lastmile_qr_scan", "android": "https://dc.lft.to/lastmile_qr_scan"}, "is_reserved": 0, "fusion_lon": 0.0, "fusion_lat": 0.0, "lon": -77.0385695, "name": "5a669199ff873df6ce3b3b04cc686fae"}, {"bike_id": "3ac437b24d1e7d1c1ef868533b4f2391", "type": "electric_scooter", "is_disabled": 0, "lat": 38.90502466666667, "rental_uris": {"ios": "https://dc.lft.to/lastmile_qr_scan", "android": "https://dc.lft.to/lastmile_qr_scan"}, "is_reserved": 0, "fusion_lon": 0.0, "fusion_lat": 0.0, "lon": -77.02005966666667, "name": "3ac437b24d1e7d1c1ef868533b4f2391"}, {"bike_id": "3ef4400ef1fdba0771e5634bc19eadbe", "type": "electric_scooter", "is_disabled": 0, "lat": 38.918102833333336, "rental_uris": {"ios": "https://dc.lft.to/lastmile_qr_scan", "android": "https://dc.lft.to/lastmile_qr_scan"}, "is_reserved": 0, "fusion_lon": 0.0, "fusion_lat": 0.0, "lon": -77.03197, "name": "3ef4400ef1fdba0771e5634bc19eadbe"}, {"bike_id": "7c5887b8576ff39e53a10df1d757531b", "type": "electric_scooter", "is_disabled": 0, "lat": 38.92269683333333, "rental_uris": {"ios": "https://dc.lft.to/lastmile_qr_scan", "android": "https://dc.lft.to/lastmile_qr_scan"}, "is_reserved": 0, "fusion_lon": 0.0, "fusion_lat": 0.0, "lon": -76.99445233333333, "name": "7c5887b8576ff39e53a10df1d757531b"}, {"bike_id": "75e7efc0bae2f751882adb315edfc09b", "type": "electric_bike", "is_disabled": 0, "lat": 38.937023333333336, "rental_uris": {"ios": "https://dc.lft.to/lastmile_qr_scan", "android": "https://dc.lft.to/lastmile_qr_scan"}, "is_reserved": 0, "fusion_lon": 0.0, "fusion_lat": 0.0, "lon": -77.0212145, "name": "75e7efc0bae2f751882adb315edfc09b"}, {"bike_id": "c36ffb461efb118e09fea010e526fe09", "type": "electric_scooter", "is_disabled": 0, "lat": 38.8843545, "rental_uris": {"ios": "https://dc.lft.to/lastmile_qr_scan", "android": "https://dc.lft.to/lastmile_qr_scan"}, "is_reserved": 0, "fusion_lon": 0.0, "fusion_lat": 0.0, "lon": -76.9575745, "name": "c36ffb461efb118e09fea010e526fe09"}, {"bike_id": "0a91222b0d36ba601309800c5dd8d917", "type": "electric_scooter", "is_disabled": 0, "lat": 38.895466166666665, "rental_uris": {"ios": "https://dc.lft.to/lastmile_qr_scan", "android": "https://dc.lft.to/lastmile_qr_scan"}, "is_reserved": 0, "fusion_lon": 0.0, "fusion_lat": 0.0, "lon": -77.0111385, "name": "0a91222b0d36ba601309800c5dd8d917"}, {"bike_id": "dde5d9263abe499f40efafbfc94cb6b5", "type": "electric_scooter", "is_disabled": 0, "lat": 38.909486333333334, "rental_uris": {"ios": "https://dc.lft.to/lastmile_qr_scan", "android": "https://dc.lft.to/lastmile_qr_scan"}, "is_reserved": 0, "fusion_lon": 0.0, "fusion_lat": 0.0, "lon": -77.03444616666667, "name": "dde5d9263abe499f40efafbfc94cb6b5"}, {"bike_id": "de15b6bc9feca54bc7f0eaa58c349ae9", "type": "electric_bike", "is_disabled": 0, "lat": 38.8070865, "rental_uris": {"ios": "https://dc.lft.to/lastmile_qr_scan", "android": "https://dc.lft.to/lastmile_qr_scan"}, "is_reserved": 0, "fusion_lon": 0.0, "fusion_lat": 0.0, "lon": -77.06173866666667, "name": "de15b6bc9feca54bc7f0eaa58c349ae9"}, {"bike_id": "db5cd0bdf074a68eb25f8384b7b67b0c", "type": "electric_scooter", "is_disabled": 0, "lat": 38.879201, "rental_uris": {"ios": "https://dc.lft.to/lastmile_qr_scan", "android": "https://dc.lft.to/lastmile_qr_scan"}, "is_reserved": 0, "fusion_lon": 0.0, "fusion_lat": 0.0, "lon": -77.00884416666666, "name": "db5cd0bdf074a68eb25f8384b7b67b0c"}, {"bike_id": "1608847ac5926be812c3415c3a6c5466", "type": "electric_scooter", "is_disabled": 0, "lat": 38.93761666666666, "rental_uris": {"ios": "https://dc.lft.to/lastmile_qr_scan", "android": "https://dc.lft.to/lastmile_qr_scan"}, "is_reserved": 0, "fusion_lon": 0.0, "fusion_lat": 0.0, "lon": -77.02476066666667, "name": "1608847ac5926be812c3415c3a6c5466"}, {"bike_id": "66983cd8bf4fb6157bd5fe2444d3028c", "type": "electric_scooter", "is_disabled": 0, "lat": 38.93135083333333, "rental_uris": {"ios": "https://dc.lft.to/lastmile_qr_scan", "android": "https://dc.lft.to/lastmile_qr_scan"}, "is_reserved": 0, "fusion_lon": 0.0, "fusion_lat": 0.0, "lon": -77.02799816666666, "name": "66983cd8bf4fb6157bd5fe2444d3028c"}, {"bike_id": "b6c50bfd91363ccc3aff10ee2721a5ce", "type": "electric_scooter", "is_disabled": 0, "lat": 38.901254, "rental_uris": {"ios": "https://dc.lft.to/lastmile_qr_scan", "android": "https://dc.lft.to/lastmile_qr_scan"}, "is_reserved": 0, "fusion_lon": 0.0, "fusion_lat": 0.0, "lon": -76.92953, "name": "b6c50bfd91363ccc3aff10ee2721a5ce"}, {"bike_id": "6e97d1bf2cf25d596e4a57058db56dd3", "type": "electric_scooter", "is_disabled": 0, "lat": 38.91711383333333, "rental_uris": {"ios": "https://dc.lft.to/lastmile_qr_scan", "android": "https://dc.lft.to/lastmile_qr_scan"}, "is_reserved": 0, "fusion_lon": 0.0, "fusion_lat": 0.0, "lon": -77.03459283333333, "name": "6e97d1bf2cf25d596e4a57058db56dd3"}, {"bike_id": "ed13f2045002563f139f95be1a39b08a", "type": "electric_scooter", "is_disabled": 0, "lat": 38.90277366666667, "rental_uris": {"ios": "https://dc.lft.to/lastmile_qr_scan", "android": "https://dc.lft.to/lastmile_qr_scan"}, "is_reserved": 0, "fusion_lon": 0.0, "fusion_lat": 0.0, "lon": -77.00329833333333, "name": "ed13f2045002563f139f95be1a39b08a"}, {"bike_id": "e52b7df7a14f367264cbfb3d23a697eb", "type": "electric_bike", "is_disabled": 0, "lat": 38.974046333333334, "rental_uris": {"ios": "https://dc.lft.to/lastmile_qr_scan", "android": "https://dc.lft.to/lastmile_qr_scan"}, "is_reserved": 0, "fusion_lon": 0.0, "fusion_lat": 0.0, "lon": -77.064477, "name": "e52b7df7a14f367264cbfb3d23a697eb"}, {"bike_id": "760a501e83b9eb5a0062b7fc448955ce", "type": "electric_scooter", "is_disabled": 0, "lat": 38.92336433333333, "rental_uris": {"ios": "https://dc.lft.to/lastmile_qr_scan", "android": "https://dc.lft.to/lastmile_qr_scan"}, "is_reserved": 0, "fusion_lon": 0.0, "fusion_lat": 0.0, "lon": -77.03788133333333, "name": "760a501e83b9eb5a0062b7fc448955ce"}, {"bike_id": "9440aeb9e259b8b115e6cab451ad60e9", "type": "electric_scooter", "is_disabled": 0, "lat": 38.9245515, "rental_uris": {"ios": "https://dc.lft.to/lastmile_qr_scan", "android": "https://dc.lft.to/lastmile_qr_scan"}, "is_reserved": 0, "fusion_lon": 0.0, "fusion_lat": 0.0, "lon": -77.02405966666667, "name": "9440aeb9e259b8b115e6cab451ad60e9"}, {"bike_id": "3b8dd640a6b30b1be6b2c0f580e32f7f", "type": "electric_scooter", "is_disabled": 0, "lat": 38.87332883333333, "rental_uris": {"ios": "https://dc.lft.to/lastmile_qr_scan", "android": "https://dc.lft.to/lastmile_qr_scan"}, "is_reserved": 0, "fusion_lon": 0.0, "fusion_lat": 0.0, "lon": -76.96781466666667, "name": "3b8dd640a6b30b1be6b2c0f580e32f7f"}, {"bike_id": "36b57f050079a22d79c7cb8fbc3ea691", "type": "electric_scooter", "is_disabled": 0, "lat": 38.87722383333333, "rental_uris": {"ios": "https://dc.lft.to/lastmile_qr_scan", "android": "https://dc.lft.to/lastmile_qr_scan"}, "is_reserved": 0, "fusion_lon": 0.0, "fusion_lat": 0.0, "lon": -77.02015066666667, "name": "36b57f050079a22d79c7cb8fbc3ea691"}, {"bike_id": "b0d1baeafa66efaef62d6de53a7456c2", "type": "electric_scooter", "is_disabled": 0, "lat": 38.9290255, "rental_uris": {"ios": "https://dc.lft.to/lastmile_qr_scan", "android": "https://dc.lft.to/lastmile_qr_scan"}, "is_reserved": 0, "fusion_lon": 0.0, "fusion_lat": 0.0, "lon": -77.05457933333334, "name": "b0d1baeafa66efaef62d6de53a7456c2"}, {"bike_id": "a97d3e92e45854aa4b1c2902f18e9478", "type": "electric_scooter", "is_disabled": 0, "lat": 38.95629816666667, "rental_uris": {"ios": "https://dc.lft.to/lastmile_qr_scan", "android": "https://dc.lft.to/lastmile_qr_scan"}, "is_reserved": 0, "fusion_lon": 0.0, "fusion_lat": 0.0, "lon": -77.03617633333333, "name": "a97d3e92e45854aa4b1c2902f18e9478"}, {"bike_id": "e2847cdf10cca79e77358846689353ca", "type": "electric_scooter", "is_disabled": 0, "lat": 38.9523645, "rental_uris": {"ios": "https://dc.lft.to/lastmile_qr_scan", "android": "https://dc.lft.to/lastmile_qr_scan"}, "is_reserved": 0, "fusion_lon": 0.0, "fusion_lat": 0.0, "lon": -77.00954616666667, "name": "e2847cdf10cca79e77358846689353ca"}, {"bike_id": "2a2e6a08cbc66a20d916bbf5746c1198", "type": "electric_scooter", "is_disabled": 0, "lat": 38.90077083333333, "rental_uris": {"ios": "https://dc.lft.to/lastmile_qr_scan", "android": "https://dc.lft.to/lastmile_qr_scan"}, "is_reserved": 0, "fusion_lon": 0.0, "fusion_lat": 0.0, "lon": -77.05014283333334, "name": "2a2e6a08cbc66a20d916bbf5746c1198"}, {"bike_id": "fb9b3e891e28c3348d5104f2c58e68f5", "type": "electric_scooter", "is_disabled": 0, "lat": 38.90746566666667, "rental_uris": {"ios": "https://dc.lft.to/lastmile_qr_scan", "android": "https://dc.lft.to/lastmile_qr_scan"}, "is_reserved": 0, "fusion_lon": 0.0, "fusion_lat": 0.0, "lon": -77.00758866666666, "name": "fb9b3e891e28c3348d5104f2c58e68f5"}, {"bike_id": "1ec449aeea29b6c85b80c73711a06925", "type": "electric_scooter", "is_disabled": 0, "lat": 38.91421, "rental_uris": {"ios": "https://dc.lft.to/lastmile_qr_scan", "android": "https://dc.lft.to/lastmile_qr_scan"}, "is_reserved": 0, "fusion_lon": 0.0, "fusion_lat": 0.0, "lon": -77.0218385, "name": "1ec449aeea29b6c85b80c73711a06925"}, {"bike_id": "a36ef08d2cc51f58e1e1a3a90ebb77c0", "type": "electric_scooter", "is_disabled": 0, "lat": 38.920169333333334, "rental_uris": {"ios": "https://dc.lft.to/lastmile_qr_scan", "android": "https://dc.lft.to/lastmile_qr_scan"}, "is_reserved": 0, "fusion_lon": 0.0, "fusion_lat": 0.0, "lon": -77.01791416666667, "name": "a36ef08d2cc51f58e1e1a3a90ebb77c0"}, {"bike_id": "07fa6c0ff50874dbd13367a68ab7893f", "type": "electric_scooter", "is_disabled": 0, "lat": 38.9233595, "rental_uris": {"ios": "https://dc.lft.to/lastmile_qr_scan", "android": "https://dc.lft.to/lastmile_qr_scan"}, "is_reserved": 0, "fusion_lon": 0.0, "fusion_lat": 0.0, "lon": -77.0461755, "name": "07fa6c0ff50874dbd13367a68ab7893f"}, {"bike_id": "bfa61963f5dd5573cb4e371974e5b57d", "type": "electric_scooter", "is_disabled": 0, "lat": 38.908572166666666, "rental_uris": {"ios": "https://dc.lft.to/lastmile_qr_scan", "android": "https://dc.lft.to/lastmile_qr_scan"}, "is_reserved": 0, "fusion_lon": 0.0, "fusion_lat": 0.0, "lon": -76.99967266666667, "name": "bfa61963f5dd5573cb4e371974e5b57d"}, {"bike_id": "9b01f03a42028df2977c79b5574e2c87", "type": "electric_scooter", "is_disabled": 0, "lat": 38.905650333333334, "rental_uris": {"ios": "https://dc.lft.to/lastmile_qr_scan", "android": "https://dc.lft.to/lastmile_qr_scan"}, "is_reserved": 0, "fusion_lon": 0.0, "fusion_lat": 0.0, "lon": -77.03819833333333, "name": "9b01f03a42028df2977c79b5574e2c87"}, {"bike_id": "5f4ff91af14f2c12ffc21ddb91b312d6", "type": "electric_scooter", "is_disabled": 0, "lat": 38.86004716666667, "rental_uris": {"ios": "https://dc.lft.to/lastmile_qr_scan", "android": "https://dc.lft.to/lastmile_qr_scan"}, "is_reserved": 0, "fusion_lon": 0.0, "fusion_lat": 0.0, "lon": -76.98520166666667, "name": "5f4ff91af14f2c12ffc21ddb91b312d6"}, {"bike_id": "830247f01232bd4447b0ee35f692f442", "type": "electric_scooter", "is_disabled": 0, "lat": 38.918284166666666, "rental_uris": {"ios": "https://dc.lft.to/lastmile_qr_scan", "android": "https://dc.lft.to/lastmile_qr_scan"}, "is_reserved": 0, "fusion_lon": 0.0, "fusion_lat": 0.0, "lon": -77.04940583333334, "name": "830247f01232bd4447b0ee35f692f442"}, {"bike_id": "815a414c37df81fa5d4949cbe0121f02", "type": "electric_scooter", "is_disabled": 0, "lat": 38.8919485, "rental_uris": {"ios": "https://dc.lft.to/lastmile_qr_scan", "android": "https://dc.lft.to/lastmile_qr_scan"}, "is_reserved": 0, "fusion_lon": 0.0, "fusion_lat": 0.0, "lon": -77.02980866666667, "name": "815a414c37df81fa5d4949cbe0121f02"}, {"bike_id": "8cdeb29efeadd4cc8d89c8024ea0b7c8", "type": "electric_scooter", "is_disabled": 0, "lat": 38.905893, "rental_uris": {"ios": "https://dc.lft.to/lastmile_qr_scan", "android": "https://dc.lft.to/lastmile_qr_scan"}, "is_reserved": 0, "fusion_lon": 0.0, "fusion_lat": 0.0, "lon": -77.07014, "name": "8cdeb29efeadd4cc8d89c8024ea0b7c8"}, {"bike_id": "80206bf06fb6e73960bd8a45fe47798c", "type": "electric_scooter", "is_disabled": 0, "lat": 38.908579333333336, "rental_uris": {"ios": "https://dc.lft.to/lastmile_qr_scan", "android": "https://dc.lft.to/lastmile_qr_scan"}, "is_reserved": 0, "fusion_lon": 0.0, "fusion_lat": 0.0, "lon": -77.0032705, "name": "80206bf06fb6e73960bd8a45fe47798c"}, {"bike_id": "735596164a0751c43ca18cde2c9b7949", "type": "electric_scooter", "is_disabled": 0, "lat": 38.919231333333336, "rental_uris": {"ios": "https://dc.lft.to/lastmile_qr_scan", "android": "https://dc.lft.to/lastmile_qr_scan"}, "is_reserved": 0, "fusion_lon": 0.0, "fusion_lat": 0.0, "lon": -77.0462625, "name": "735596164a0751c43ca18cde2c9b7949"}, {"bike_id": "e71eb2fac276253204896704e9860926", "type": "electric_bike", "is_disabled": 0, "lat": 38.89743516666667, "rental_uris": {"ios": "https://dc.lft.to/lastmile_qr_scan", "android": "https://dc.lft.to/lastmile_qr_scan"}, "is_reserved": 0, "fusion_lon": 0.0, "fusion_lat": 0.0, "lon": -76.92046666666667, "name": "e71eb2fac276253204896704e9860926"}, {"bike_id": "05248db7191caee33592f7314cb1dd15", "type": "electric_scooter", "is_disabled": 0, "lat": 38.91698616666667, "rental_uris": {"ios": "https://dc.lft.to/lastmile_qr_scan", "android": "https://dc.lft.to/lastmile_qr_scan"}, "is_reserved": 0, "fusion_lon": 0.0, "fusion_lat": 0.0, "lon": -77.037423, "name": "05248db7191caee33592f7314cb1dd15"}, {"bike_id": "f3eb4adc9ff6dc21130b2d55c542da16", "type": "electric_scooter", "is_disabled": 0, "lat": 38.96128383333333, "rental_uris": {"ios": "https://dc.lft.to/lastmile_qr_scan", "android": "https://dc.lft.to/lastmile_qr_scan"}, "is_reserved": 0, "fusion_lon": 0.0, "fusion_lat": 0.0, "lon": -77.00967583333333, "name": "f3eb4adc9ff6dc21130b2d55c542da16"}, {"bike_id": "8dc5dfb6a52df02e9f58ad781e50fa9b", "type": "electric_scooter", "is_disabled": 0, "lat": 38.91923083333333, "rental_uris": {"ios": "https://dc.lft.to/lastmile_qr_scan", "android": "https://dc.lft.to/lastmile_qr_scan"}, "is_reserved": 0, "fusion_lon": 0.0, "fusion_lat": 0.0, "lon": -77.03365566666666, "name": "8dc5dfb6a52df02e9f58ad781e50fa9b"}, {"bike_id": "051b8ffdb1d2e785f3fb12e8e1e9b202", "type": "electric_scooter", "is_disabled": 0, "lat": 38.92659466666667, "rental_uris": {"ios": "https://dc.lft.to/lastmile_qr_scan", "android": "https://dc.lft.to/lastmile_qr_scan"}, "is_reserved": 0, "fusion_lon": 0.0, "fusion_lat": 0.0, "lon": -77.03731683333334, "name": "051b8ffdb1d2e785f3fb12e8e1e9b202"}, {"bike_id": "838d304b31e2353f341581bf3ff23ba3", "type": "electric_scooter", "is_disabled": 0, "lat": 38.921509, "rental_uris": {"ios": "https://dc.lft.to/lastmile_qr_scan", "android": "https://dc.lft.to/lastmile_qr_scan"}, "is_reserved": 0, "fusion_lon": 0.0, "fusion_lat": 0.0, "lon": -77.038707, "name": "838d304b31e2353f341581bf3ff23ba3"}, {"bike_id": "ab43efe9af0f5435fccdfca9b2501be7", "type": "electric_bike", "is_disabled": 0, "lat": 38.83610766666666, "rental_uris": {"ios": "https://dc.lft.to/lastmile_qr_scan", "android": "https://dc.lft.to/lastmile_qr_scan"}, "is_reserved": 0, "fusion_lon": 0.0, "fusion_lat": 0.0, "lon": -77.00382683333333, "name": "ab43efe9af0f5435fccdfca9b2501be7"}, {"bike_id": "6b9f6fabac30b407a7a59215560af79e", "type": "electric_bike", "is_disabled": 0, "lat": 38.8593845, "rental_uris": {"ios": "https://dc.lft.to/lastmile_qr_scan", "android": "https://dc.lft.to/lastmile_qr_scan"}, "is_reserved": 0, "fusion_lon": 0.0, "fusion_lat": 0.0, "lon": -77.1182995, "name": "6b9f6fabac30b407a7a59215560af79e"}, {"bike_id": "2e40d56037af55ec81c7710efadcd197", "type": "electric_bike", "is_disabled": 0, "lat": 38.823699500000004, "rental_uris": {"ios": "https://dc.lft.to/lastmile_qr_scan", "android": "https://dc.lft.to/lastmile_qr_scan"}, "is_reserved": 0, "fusion_lon": 0.0, "fusion_lat": 0.0, "lon": -77.00219483333333, "name": "2e40d56037af55ec81c7710efadcd197"}, {"bike_id": "97112c1e09690ef848bb3f04e5ce607c", "type": "electric_scooter", "is_disabled": 0, "lat": 38.932159666666664, "rental_uris": {"ios": "https://dc.lft.to/lastmile_qr_scan", "android": "https://dc.lft.to/lastmile_qr_scan"}, "is_reserved": 0, "fusion_lon": 0.0, "fusion_lat": 0.0, "lon": -77.03676983333334, "name": "97112c1e09690ef848bb3f04e5ce607c"}, {"bike_id": "96c8cf6e5b57f35982ccdf2990e25c09", "type": "electric_bike", "is_disabled": 0, "lat": 38.898104833333335, "rental_uris": {"ios": "https://dc.lft.to/lastmile_qr_scan", "android": "https://dc.lft.to/lastmile_qr_scan"}, "is_reserved": 0, "fusion_lon": 0.0, "fusion_lat": 0.0, "lon": -76.99068083333333, "name": "96c8cf6e5b57f35982ccdf2990e25c09"}, {"bike_id": "7f0a8bcec6fa3d81a3cfe92a6057fb49", "type": "electric_scooter", "is_disabled": 0, "lat": 38.92080983333334, "rental_uris": {"ios": "https://dc.lft.to/lastmile_qr_scan", "android": "https://dc.lft.to/lastmile_qr_scan"}, "is_reserved": 0, "fusion_lon": 0.0, "fusion_lat": 0.0, "lon": -77.004527, "name": "7f0a8bcec6fa3d81a3cfe92a6057fb49"}, {"bike_id": "f284f4b3efb40782e82410551ba310ef", "type": "electric_scooter", "is_disabled": 0, "lat": 38.905833666666666, "rental_uris": {"ios": "https://dc.lft.to/lastmile_qr_scan", "android": "https://dc.lft.to/lastmile_qr_scan"}, "is_reserved": 0, "fusion_lon": 0.0, "fusion_lat": 0.0, "lon": -77.06803333333333, "name": "f284f4b3efb40782e82410551ba310ef"}, {"bike_id": "017d682383df48a825613ce3c7c91874", "type": "electric_scooter", "is_disabled": 0, "lat": 38.892351166666664, "rental_uris": {"ios": "https://dc.lft.to/lastmile_qr_scan", "android": "https://dc.lft.to/lastmile_qr_scan"}, "is_reserved": 0, "fusion_lon": 0.0, "fusion_lat": 0.0, "lon": -77.02383233333333, "name": "017d682383df48a825613ce3c7c91874"}, {"bike_id": "946e1b267890d548ff0d318de5e76209", "type": "electric_scooter", "is_disabled": 0, "lat": 38.92234666666667, "rental_uris": {"ios": "https://dc.lft.to/lastmile_qr_scan", "android": "https://dc.lft.to/lastmile_qr_scan"}, "is_reserved": 0, "fusion_lon": 0.0, "fusion_lat": 0.0, "lon": -77.04721583333334, "name": "946e1b267890d548ff0d318de5e76209"}, {"bike_id": "f8a8f96957a841dfeba26cacb143836c", "type": "electric_scooter", "is_disabled": 0, "lat": 38.90659766666667, "rental_uris": {"ios": "https://dc.lft.to/lastmile_qr_scan", "android": "https://dc.lft.to/lastmile_qr_scan"}, "is_reserved": 0, "fusion_lon": 0.0, "fusion_lat": 0.0, "lon": -77.00925683333334, "name": "f8a8f96957a841dfeba26cacb143836c"}, {"bike_id": "33a0d9ab56f8ce99e0db0b4d60bd8e66", "type": "electric_bike", "is_disabled": 0, "lat": 39.0373065, "rental_uris": {"ios": "https://dc.lft.to/lastmile_qr_scan", "android": "https://dc.lft.to/lastmile_qr_scan"}, "is_reserved": 0, "fusion_lon": 0.0, "fusion_lat": 0.0, "lon": -77.05479766666667, "name": "33a0d9ab56f8ce99e0db0b4d60bd8e66"}, {"bike_id": "27a8c7fc461d559c275b76d4ca50efc1", "type": "electric_scooter", "is_disabled": 0, "lat": 38.905390833333335, "rental_uris": {"ios": "https://dc.lft.to/lastmile_qr_scan", "android": "https://dc.lft.to/lastmile_qr_scan"}, "is_reserved": 0, "fusion_lon": 0.0, "fusion_lat": 0.0, "lon": -77.06896516666667, "name": "27a8c7fc461d559c275b76d4ca50efc1"}, {"bike_id": "bb1fcd518ba3ab452e8ae711e4568eb3", "type": "electric_scooter", "is_disabled": 0, "lat": 38.907612, "rental_uris": {"ios": "https://dc.lft.to/lastmile_qr_scan", "android": "https://dc.lft.to/lastmile_qr_scan"}, "is_reserved": 0, "fusion_lon": 0.0, "fusion_lat": 0.0, "lon": -77.043351, "name": "bb1fcd518ba3ab452e8ae711e4568eb3"}, {"bike_id": "1a73f0c06ea15142e8fdf525b46a1222", "type": "electric_bike", "is_disabled": 0, "lat": 38.90829433333333, "rental_uris": {"ios": "https://dc.lft.to/lastmile_qr_scan", "android": "https://dc.lft.to/lastmile_qr_scan"}, "is_reserved": 0, "fusion_lon": 0.0, "fusion_lat": 0.0, "lon": -76.941591, "name": "1a73f0c06ea15142e8fdf525b46a1222"}, {"bike_id": "ef228a7dfda960ffb58967a3d887df57", "type": "electric_bike", "is_disabled": 0, "lat": 39.054955, "rental_uris": {"ios": "https://dc.lft.to/lastmile_qr_scan", "android": "https://dc.lft.to/lastmile_qr_scan"}, "is_reserved": 0, "fusion_lon": 0.0, "fusion_lat": 0.0, "lon": -77.11789616666667, "name": "ef228a7dfda960ffb58967a3d887df57"}, {"bike_id": "0903bb185e22d1e47faa7c4a3d25285f", "type": "electric_scooter", "is_disabled": 0, "lat": 38.923828666666665, "rental_uris": {"ios": "https://dc.lft.to/lastmile_qr_scan", "android": "https://dc.lft.to/lastmile_qr_scan"}, "is_reserved": 0, "fusion_lon": 0.0, "fusion_lat": 0.0, "lon": -77.02763033333333, "name": "0903bb185e22d1e47faa7c4a3d25285f"}, {"bike_id": "46bf513fb94e03855716c27182b7e873", "type": "electric_scooter", "is_disabled": 0, "lat": 38.92880783333333, "rental_uris": {"ios": "https://dc.lft.to/lastmile_qr_scan", "android": "https://dc.lft.to/lastmile_qr_scan"}, "is_reserved": 0, "fusion_lon": 0.0, "fusion_lat": 0.0, "lon": -77.01365983333334, "name": "46bf513fb94e03855716c27182b7e873"}, {"bike_id": "e2a0766c651c45a850a9f7fa536d9239", "type": "electric_scooter", "is_disabled": 0, "lat": 38.90397383333333, "rental_uris": {"ios": "https://dc.lft.to/lastmile_qr_scan", "android": "https://dc.lft.to/lastmile_qr_scan"}, "is_reserved": 0, "fusion_lon": 0.0, "fusion_lat": 0.0, "lon": -77.0055915, "name": "e2a0766c651c45a850a9f7fa536d9239"}, {"bike_id": "a77584ff6922fc22fa0b787195e5c0f4", "type": "electric_scooter", "is_disabled": 0, "lat": 38.94201283333334, "rental_uris": {"ios": "https://dc.lft.to/lastmile_qr_scan", "android": "https://dc.lft.to/lastmile_qr_scan"}, "is_reserved": 0, "fusion_lon": 0.0, "fusion_lat": 0.0, "lon": -77.02349583333333, "name": "a77584ff6922fc22fa0b787195e5c0f4"}, {"bike_id": "d5d24c36d8ffb19a19ce0766fb716277", "type": "electric_scooter", "is_disabled": 0, "lat": 38.93620133333334, "rental_uris": {"ios": "https://dc.lft.to/lastmile_qr_scan", "android": "https://dc.lft.to/lastmile_qr_scan"}, "is_reserved": 0, "fusion_lon": 0.0, "fusion_lat": 0.0, "lon": -77.06759233333334, "name": "d5d24c36d8ffb19a19ce0766fb716277"}, {"bike_id": "e6242f30e6fed2519e3bb1eaf6c3e81c", "type": "electric_scooter", "is_disabled": 0, "lat": 38.90958216666667, "rental_uris": {"ios": "https://dc.lft.to/lastmile_qr_scan", "android": "https://dc.lft.to/lastmile_qr_scan"}, "is_reserved": 0, "fusion_lon": 0.0, "fusion_lat": 0.0, "lon": -77.03372416666667, "name": "e6242f30e6fed2519e3bb1eaf6c3e81c"}, {"bike_id": "c7fb25185176681bac830e4f1b424e73", "type": "electric_scooter", "is_disabled": 0, "lat": 38.90728816666667, "rental_uris": {"ios": "https://dc.lft.to/lastmile_qr_scan", "android": "https://dc.lft.to/lastmile_qr_scan"}, "is_reserved": 0, "fusion_lon": 0.0, "fusion_lat": 0.0, "lon": -77.02976166666667, "name": "c7fb25185176681bac830e4f1b424e73"}, {"bike_id": "0b6a40d1be000c096cd8053e7ee2d3f5", "type": "electric_scooter", "is_disabled": 0, "lat": 38.94486533333333, "rental_uris": {"ios": "https://dc.lft.to/lastmile_qr_scan", "android": "https://dc.lft.to/lastmile_qr_scan"}, "is_reserved": 0, "fusion_lon": 0.0, "fusion_lat": 0.0, "lon": -77.0637385, "name": "0b6a40d1be000c096cd8053e7ee2d3f5"}, {"bike_id": "d70a3fe8ef77884360c03e9aff58b606", "type": "electric_scooter", "is_disabled": 0, "lat": 38.9053405, "rental_uris": {"ios": "https://dc.lft.to/lastmile_qr_scan", "android": "https://dc.lft.to/lastmile_qr_scan"}, "is_reserved": 0, "fusion_lon": 0.0, "fusion_lat": 0.0, "lon": -77.005785, "name": "d70a3fe8ef77884360c03e9aff58b606"}, {"bike_id": "69d64448555406cb9f157dc100a09706", "type": "electric_scooter", "is_disabled": 0, "lat": 38.90310816666667, "rental_uris": {"ios": "https://dc.lft.to/lastmile_qr_scan", "android": "https://dc.lft.to/lastmile_qr_scan"}, "is_reserved": 0, "fusion_lon": 0.0, "fusion_lat": 0.0, "lon": -76.983581, "name": "69d64448555406cb9f157dc100a09706"}, {"bike_id": "a17548c39ca8b6475591be3740504922", "type": "electric_scooter", "is_disabled": 0, "lat": 38.916966, "rental_uris": {"ios": "https://dc.lft.to/lastmile_qr_scan", "android": "https://dc.lft.to/lastmile_qr_scan"}, "is_reserved": 0, "fusion_lon": 0.0, "fusion_lat": 0.0, "lon": -77.0321815, "name": "a17548c39ca8b6475591be3740504922"}, {"bike_id": "1f23b04429be4741fd3bda3e06d4431c", "type": "electric_scooter", "is_disabled": 0, "lat": 38.907729333333336, "rental_uris": {"ios": "https://dc.lft.to/lastmile_qr_scan", "android": "https://dc.lft.to/lastmile_qr_scan"}, "is_reserved": 0, "fusion_lon": 0.0, "fusion_lat": 0.0, "lon": -77.012202, "name": "1f23b04429be4741fd3bda3e06d4431c"}, {"bike_id": "39fc25f501e59cc68dac4344a9349f57", "type": "electric_scooter", "is_disabled": 0, "lat": 38.925830166666664, "rental_uris": {"ios": "https://dc.lft.to/lastmile_qr_scan", "android": "https://dc.lft.to/lastmile_qr_scan"}, "is_reserved": 0, "fusion_lon": 0.0, "fusion_lat": 0.0, "lon": -77.03921666666666, "name": "39fc25f501e59cc68dac4344a9349f57"}, {"bike_id": "d7ace6cde9eb8044acf885c5d91d3a1b", "type": "electric_scooter", "is_disabled": 0, "lat": 38.9361175, "rental_uris": {"ios": "https://dc.lft.to/lastmile_qr_scan", "android": "https://dc.lft.to/lastmile_qr_scan"}, "is_reserved": 0, "fusion_lon": 0.0, "fusion_lat": 0.0, "lon": -77.03810183333333, "name": "d7ace6cde9eb8044acf885c5d91d3a1b"}, {"bike_id": "68629b8ae8261b99d5157e615ab17350", "type": "electric_bike", "is_disabled": 0, "lat": 38.873015, "rental_uris": {"ios": "https://dc.lft.to/lastmile_qr_scan", "android": "https://dc.lft.to/lastmile_qr_scan"}, "is_reserved": 0, "fusion_lon": 0.0, "fusion_lat": 0.0, "lon": -77.13919583333333, "name": "68629b8ae8261b99d5157e615ab17350"}, {"bike_id": "79c7d3003afe94a2108a362ef03add65", "type": "electric_scooter", "is_disabled": 0, "lat": 38.867730333333334, "rental_uris": {"ios": "https://dc.lft.to/lastmile_qr_scan", "android": "https://dc.lft.to/lastmile_qr_scan"}, "is_reserved": 0, "fusion_lon": 0.0, "fusion_lat": 0.0, "lon": -76.98842766666667, "name": "79c7d3003afe94a2108a362ef03add65"}, {"bike_id": "6a37261d6bd1373a5ffc05dada349cfb", "type": "electric_scooter", "is_disabled": 0, "lat": 38.95008166666667, "rental_uris": {"ios": "https://dc.lft.to/lastmile_qr_scan", "android": "https://dc.lft.to/lastmile_qr_scan"}, "is_reserved": 0, "fusion_lon": 0.0, "fusion_lat": 0.0, "lon": -77.0155725, "name": "6a37261d6bd1373a5ffc05dada349cfb"}, {"bike_id": "695d142dde3ff774c1bde2e4c55a49e6", "type": "electric_scooter", "is_disabled": 0, "lat": 38.90226216666667, "rental_uris": {"ios": "https://dc.lft.to/lastmile_qr_scan", "android": "https://dc.lft.to/lastmile_qr_scan"}, "is_reserved": 0, "fusion_lon": 0.0, "fusion_lat": 0.0, "lon": -77.04148566666667, "name": "695d142dde3ff774c1bde2e4c55a49e6"}, {"bike_id": "b8fbdec5232dfd89ec5d78f28f7fb783", "type": "electric_scooter", "is_disabled": 0, "lat": 38.90718483333333, "rental_uris": {"ios": "https://dc.lft.to/lastmile_qr_scan", "android": "https://dc.lft.to/lastmile_qr_scan"}, "is_reserved": 0, "fusion_lon": 0.0, "fusion_lat": 0.0, "lon": -77.04803333333334, "name": "b8fbdec5232dfd89ec5d78f28f7fb783"}, {"bike_id": "8a16b390608d009e3f9cbfa458876f58", "type": "electric_scooter", "is_disabled": 0, "lat": 38.8624115, "rental_uris": {"ios": "https://dc.lft.to/lastmile_qr_scan", "android": "https://dc.lft.to/lastmile_qr_scan"}, "is_reserved": 0, "fusion_lon": 0.0, "fusion_lat": 0.0, "lon": -76.99494516666667, "name": "8a16b390608d009e3f9cbfa458876f58"}, {"bike_id": "60cbe4bc57ab3b4ce1120ae9896015b9", "type": "electric_scooter", "is_disabled": 0, "lat": 38.892596833333336, "rental_uris": {"ios": "https://dc.lft.to/lastmile_qr_scan", "android": "https://dc.lft.to/lastmile_qr_scan"}, "is_reserved": 0, "fusion_lon": 0.0, "fusion_lat": 0.0, "lon": -77.003504, "name": "60cbe4bc57ab3b4ce1120ae9896015b9"}, {"bike_id": "2874a6dd70216f3f833ba0688c2dd9fe", "type": "electric_scooter", "is_disabled": 0, "lat": 38.902664, "rental_uris": {"ios": "https://dc.lft.to/lastmile_qr_scan", "android": "https://dc.lft.to/lastmile_qr_scan"}, "is_reserved": 0, "fusion_lon": 0.0, "fusion_lat": 0.0, "lon": -77.01763416666667, "name": "2874a6dd70216f3f833ba0688c2dd9fe"}, {"bike_id": "a68d3bb681cada8261c8715077bb4de3", "type": "electric_scooter", "is_disabled": 0, "lat": 38.95662383333333, "rental_uris": {"ios": "https://dc.lft.to/lastmile_qr_scan", "android": "https://dc.lft.to/lastmile_qr_scan"}, "is_reserved": 0, "fusion_lon": 0.0, "fusion_lat": 0.0, "lon": -77.0240025, "name": "a68d3bb681cada8261c8715077bb4de3"}, {"bike_id": "f48f092614747898f5c19824f9a0af23", "type": "electric_scooter", "is_disabled": 0, "lat": 38.9141175, "rental_uris": {"ios": "https://dc.lft.to/lastmile_qr_scan", "android": "https://dc.lft.to/lastmile_qr_scan"}, "is_reserved": 0, "fusion_lon": 0.0, "fusion_lat": 0.0, "lon": -77.02424116666667, "name": "f48f092614747898f5c19824f9a0af23"}, {"bike_id": "ee97968296fd9d8d21dd2d1d9e6b9ad6", "type": "electric_scooter", "is_disabled": 0, "lat": 38.90133216666667, "rental_uris": {"ios": "https://dc.lft.to/lastmile_qr_scan", "android": "https://dc.lft.to/lastmile_qr_scan"}, "is_reserved": 0, "fusion_lon": 0.0, "fusion_lat": 0.0, "lon": -77.01838416666666, "name": "ee97968296fd9d8d21dd2d1d9e6b9ad6"}, {"bike_id": "7f05c73900fce5cd39e5a262753880d7", "type": "electric_scooter", "is_disabled": 0, "lat": 38.89011, "rental_uris": {"ios": "https://dc.lft.to/lastmile_qr_scan", "android": "https://dc.lft.to/lastmile_qr_scan"}, "is_reserved": 0, "fusion_lon": 0.0, "fusion_lat": 0.0, "lon": -76.93747533333334, "name": "7f05c73900fce5cd39e5a262753880d7"}, {"bike_id": "cb62caf2371ad296a9720b765267405c", "type": "electric_scooter", "is_disabled": 0, "lat": 38.90449733333333, "rental_uris": {"ios": "https://dc.lft.to/lastmile_qr_scan", "android": "https://dc.lft.to/lastmile_qr_scan"}, "is_reserved": 0, "fusion_lon": 0.0, "fusion_lat": 0.0, "lon": -77.03470516666667, "name": "cb62caf2371ad296a9720b765267405c"}, {"bike_id": "1af7b2cfa21ef70ba12e32c771151746", "type": "electric_scooter", "is_disabled": 0, "lat": 38.8788135, "rental_uris": {"ios": "https://dc.lft.to/lastmile_qr_scan", "android": "https://dc.lft.to/lastmile_qr_scan"}, "is_reserved": 0, "fusion_lon": 0.0, "fusion_lat": 0.0, "lon": -77.02307483333334, "name": "1af7b2cfa21ef70ba12e32c771151746"}, {"bike_id": "ccdb527521a2fddcad10a6bbbdba9018", "type": "electric_scooter", "is_disabled": 0, "lat": 38.9232145, "rental_uris": {"ios": "https://dc.lft.to/lastmile_qr_scan", "android": "https://dc.lft.to/lastmile_qr_scan"}, "is_reserved": 0, "fusion_lon": 0.0, "fusion_lat": 0.0, "lon": -77.039053, "name": "ccdb527521a2fddcad10a6bbbdba9018"}, {"bike_id": "3a1a653066bc919663f3063a66052693", "type": "electric_scooter", "is_disabled": 0, "lat": 38.911114166666664, "rental_uris": {"ios": "https://dc.lft.to/lastmile_qr_scan", "android": "https://dc.lft.to/lastmile_qr_scan"}, "is_reserved": 0, "fusion_lon": 0.0, "fusion_lat": 0.0, "lon": -77.02134566666666, "name": "3a1a653066bc919663f3063a66052693"}, {"bike_id": "a49a9f6f9e7a6c271d9b7035161d284d", "type": "electric_scooter", "is_disabled": 0, "lat": 38.88628966666667, "rental_uris": {"ios": "https://dc.lft.to/lastmile_qr_scan", "android": "https://dc.lft.to/lastmile_qr_scan"}, "is_reserved": 0, "fusion_lon": 0.0, "fusion_lat": 0.0, "lon": -76.99611216666666, "name": "a49a9f6f9e7a6c271d9b7035161d284d"}, {"bike_id": "4c648a0fede4b75afd5bab4b5158e993", "type": "electric_scooter", "is_disabled": 0, "lat": 38.909770333333334, "rental_uris": {"ios": "https://dc.lft.to/lastmile_qr_scan", "android": "https://dc.lft.to/lastmile_qr_scan"}, "is_reserved": 0, "fusion_lon": 0.0, "fusion_lat": 0.0, "lon": -77.03193033333334, "name": "4c648a0fede4b75afd5bab4b5158e993"}, {"bike_id": "12b5403976d0aa7ff800daca51dccd95", "type": "electric_scooter", "is_disabled": 0, "lat": 38.8923515, "rental_uris": {"ios": "https://dc.lft.to/lastmile_qr_scan", "android": "https://dc.lft.to/lastmile_qr_scan"}, "is_reserved": 0, "fusion_lon": 0.0, "fusion_lat": 0.0, "lon": -77.02382266666666, "name": "12b5403976d0aa7ff800daca51dccd95"}, {"bike_id": "e79eb7493d9080054ff780ade82442ae", "type": "electric_scooter", "is_disabled": 0, "lat": 38.91108466666667, "rental_uris": {"ios": "https://dc.lft.to/lastmile_qr_scan", "android": "https://dc.lft.to/lastmile_qr_scan"}, "is_reserved": 0, "fusion_lon": 0.0, "fusion_lat": 0.0, "lon": -77.0383115, "name": "e79eb7493d9080054ff780ade82442ae"}, {"bike_id": "055f189e71dcf90bc979d7b687ba0dfa", "type": "electric_scooter", "is_disabled": 0, "lat": 38.898449666666664, "rental_uris": {"ios": "https://dc.lft.to/lastmile_qr_scan", "android": "https://dc.lft.to/lastmile_qr_scan"}, "is_reserved": 0, "fusion_lon": 0.0, "fusion_lat": 0.0, "lon": -76.9463525, "name": "055f189e71dcf90bc979d7b687ba0dfa"}, {"bike_id": "62e3a6fe3bdf3aae200c4cf105c2cd84", "type": "electric_scooter", "is_disabled": 0, "lat": 38.87939766666667, "rental_uris": {"ios": "https://dc.lft.to/lastmile_qr_scan", "android": "https://dc.lft.to/lastmile_qr_scan"}, "is_reserved": 0, "fusion_lon": 0.0, "fusion_lat": 0.0, "lon": -77.0154045, "name": "62e3a6fe3bdf3aae200c4cf105c2cd84"}, {"bike_id": "d78a45c1c2587a5ce4b3ffb755e3d932", "type": "electric_scooter", "is_disabled": 0, "lat": 38.90013416666667, "rental_uris": {"ios": "https://dc.lft.to/lastmile_qr_scan", "android": "https://dc.lft.to/lastmile_qr_scan"}, "is_reserved": 0, "fusion_lon": 0.0, "fusion_lat": 0.0, "lon": -77.01266083333333, "name": "d78a45c1c2587a5ce4b3ffb755e3d932"}, {"bike_id": "5df58c49a0a74459164f943a5186699e", "type": "electric_scooter", "is_disabled": 0, "lat": 38.923557, "rental_uris": {"ios": "https://dc.lft.to/lastmile_qr_scan", "android": "https://dc.lft.to/lastmile_qr_scan"}, "is_reserved": 0, "fusion_lon": 0.0, "fusion_lat": 0.0, "lon": -77.05428116666667, "name": "5df58c49a0a74459164f943a5186699e"}, {"bike_id": "452ce46e293e4a7d30151b89aa2e6c97", "type": "electric_scooter", "is_disabled": 0, "lat": 38.90199366666667, "rental_uris": {"ios": "https://dc.lft.to/lastmile_qr_scan", "android": "https://dc.lft.to/lastmile_qr_scan"}, "is_reserved": 0, "fusion_lon": 0.0, "fusion_lat": 0.0, "lon": -76.98841766666666, "name": "452ce46e293e4a7d30151b89aa2e6c97"}, {"bike_id": "998451570fd92e2732b58f6d3194aa07", "type": "electric_scooter", "is_disabled": 0, "lat": 38.91362766666666, "rental_uris": {"ios": "https://dc.lft.to/lastmile_qr_scan", "android": "https://dc.lft.to/lastmile_qr_scan"}, "is_reserved": 0, "fusion_lon": 0.0, "fusion_lat": 0.0, "lon": -77.0456295, "name": "998451570fd92e2732b58f6d3194aa07"}, {"bike_id": "d094da47aa0cef3274204e1f47cb2ef4", "type": "electric_scooter", "is_disabled": 0, "lat": 38.926054, "rental_uris": {"ios": "https://dc.lft.to/lastmile_qr_scan", "android": "https://dc.lft.to/lastmile_qr_scan"}, "is_reserved": 0, "fusion_lon": 0.0, "fusion_lat": 0.0, "lon": -77.02156283333333, "name": "d094da47aa0cef3274204e1f47cb2ef4"}, {"bike_id": "31b574640583042a7889e2b1796bfc8a", "type": "electric_scooter", "is_disabled": 0, "lat": 38.940720666666664, "rental_uris": {"ios": "https://dc.lft.to/lastmile_qr_scan", "android": "https://dc.lft.to/lastmile_qr_scan"}, "is_reserved": 0, "fusion_lon": 0.0, "fusion_lat": 0.0, "lon": -77.05254116666667, "name": "31b574640583042a7889e2b1796bfc8a"}, {"bike_id": "4e2c03a5f2431ff5da6409239d79dcc6", "type": "electric_scooter", "is_disabled": 0, "lat": 38.90436833333333, "rental_uris": {"ios": "https://dc.lft.to/lastmile_qr_scan", "android": "https://dc.lft.to/lastmile_qr_scan"}, "is_reserved": 0, "fusion_lon": 0.0, "fusion_lat": 0.0, "lon": -77.028874, "name": "4e2c03a5f2431ff5da6409239d79dcc6"}, {"bike_id": "2669a6239a1fcc6c401afc244d83ca17", "type": "electric_scooter", "is_disabled": 0, "lat": 38.92543633333333, "rental_uris": {"ios": "https://dc.lft.to/lastmile_qr_scan", "android": "https://dc.lft.to/lastmile_qr_scan"}, "is_reserved": 0, "fusion_lon": 0.0, "fusion_lat": 0.0, "lon": -77.02969916666666, "name": "2669a6239a1fcc6c401afc244d83ca17"}, {"bike_id": "fe5821f255f14ab140e907e0c89251bb", "type": "electric_scooter", "is_disabled": 0, "lat": 38.92348466666667, "rental_uris": {"ios": "https://dc.lft.to/lastmile_qr_scan", "android": "https://dc.lft.to/lastmile_qr_scan"}, "is_reserved": 0, "fusion_lon": 0.0, "fusion_lat": 0.0, "lon": -77.024277, "name": "fe5821f255f14ab140e907e0c89251bb"}, {"bike_id": "c57858f0e64752e6b129e1a35455497b", "type": "electric_scooter", "is_disabled": 0, "lat": 38.889195, "rental_uris": {"ios": "https://dc.lft.to/lastmile_qr_scan", "android": "https://dc.lft.to/lastmile_qr_scan"}, "is_reserved": 0, "fusion_lon": 0.0, "fusion_lat": 0.0, "lon": -76.9913075, "name": "c57858f0e64752e6b129e1a35455497b"}, {"bike_id": "82fd970a240e25de61c56bb0e748eaf7", "type": "electric_scooter", "is_disabled": 0, "lat": 38.909791, "rental_uris": {"ios": "https://dc.lft.to/lastmile_qr_scan", "android": "https://dc.lft.to/lastmile_qr_scan"}, "is_reserved": 0, "fusion_lon": 0.0, "fusion_lat": 0.0, "lon": -77.03183116666666, "name": "82fd970a240e25de61c56bb0e748eaf7"}, {"bike_id": "810f2bfbb43682bd5713febecd0c23e3", "type": "electric_scooter", "is_disabled": 0, "lat": 38.928725166666666, "rental_uris": {"ios": "https://dc.lft.to/lastmile_qr_scan", "android": "https://dc.lft.to/lastmile_qr_scan"}, "is_reserved": 0, "fusion_lon": 0.0, "fusion_lat": 0.0, "lon": -77.0321815, "name": "810f2bfbb43682bd5713febecd0c23e3"}, {"bike_id": "1f0294bfa67c96fd97ab326c9ef465fb", "type": "electric_scooter", "is_disabled": 0, "lat": 38.9254315, "rental_uris": {"ios": "https://dc.lft.to/lastmile_qr_scan", "android": "https://dc.lft.to/lastmile_qr_scan"}, "is_reserved": 0, "fusion_lon": 0.0, "fusion_lat": 0.0, "lon": -77.041255, "name": "1f0294bfa67c96fd97ab326c9ef465fb"}, {"bike_id": "f80bbbe660e7f11e4221b20379ffe9c2", "type": "electric_scooter", "is_disabled": 0, "lat": 38.8989005, "rental_uris": {"ios": "https://dc.lft.to/lastmile_qr_scan", "android": "https://dc.lft.to/lastmile_qr_scan"}, "is_reserved": 0, "fusion_lon": 0.0, "fusion_lat": 0.0, "lon": -76.9769675, "name": "f80bbbe660e7f11e4221b20379ffe9c2"}, {"bike_id": "19e81ffc0a93117db631af948d39f387", "type": "electric_scooter", "is_disabled": 0, "lat": 38.906063833333334, "rental_uris": {"ios": "https://dc.lft.to/lastmile_qr_scan", "android": "https://dc.lft.to/lastmile_qr_scan"}, "is_reserved": 0, "fusion_lon": 0.0, "fusion_lat": 0.0, "lon": -77.02110266666666, "name": "19e81ffc0a93117db631af948d39f387"}, {"bike_id": "15d05b5de4f0d08d79ea0d46627a6f69", "type": "electric_scooter", "is_disabled": 0, "lat": 38.90885683333333, "rental_uris": {"ios": "https://dc.lft.to/lastmile_qr_scan", "android": "https://dc.lft.to/lastmile_qr_scan"}, "is_reserved": 0, "fusion_lon": 0.0, "fusion_lat": 0.0, "lon": -77.04424533333334, "name": "15d05b5de4f0d08d79ea0d46627a6f69"}, {"bike_id": "f3d5b703653c70d2a77b494a16ce3e3b", "type": "electric_scooter", "is_disabled": 0, "lat": 38.913402833333336, "rental_uris": {"ios": "https://dc.lft.to/lastmile_qr_scan", "android": "https://dc.lft.to/lastmile_qr_scan"}, "is_reserved": 0, "fusion_lon": 0.0, "fusion_lat": 0.0, "lon": -77.03172116666667, "name": "f3d5b703653c70d2a77b494a16ce3e3b"}, {"bike_id": "468c8cc25988ccea2bc788cdf5f07c83", "type": "electric_scooter", "is_disabled": 0, "lat": 38.915693, "rental_uris": {"ios": "https://dc.lft.to/lastmile_qr_scan", "android": "https://dc.lft.to/lastmile_qr_scan"},