{"data": {"bikes": [{"is_disabled": 0, "fusion_lon": 0.0, "fusion_lat": 0.0, "lat": 38.9288685, "type": "electric_scooter", "lon": -77.023115, "bike_id": "efe4c3fae50ce373183480e2a271149c", "rental_uris": {"android": "https://dc.lft.to/lastmile_qr_scan", "ios": "https://dc.lft.to/lastmile_qr_scan"}, "name": "efe4c3fae50ce373183480e2a271149c", "is_reserved": 0}, {"is_disabled": 0, "fusion_lon": 0.0, "fusion_lat": 0.0, "lat": 39.03000016666667, "type": "electric_bike", "lon": -77.10656433333334, "bike_id": "92aad7e4af7bdfc552f6d04a2c87f2d0", "rental_uris": {"android": "https://dc.lft.to/lastmile_qr_scan", "ios": "https://dc.lft.to/lastmile_qr_scan"}, "name": "92aad7e4af7bdfc552f6d04a2c87f2d0", "is_reserved": 0}, {"is_disabled": 0, "fusion_lon": 0.0, "fusion_lat": 0.0, "lat": 38.9644805, "type": "electric_bike", "lon": -76.97725533333333, "bike_id": "15af06ac14503de417fe4d8d7cd9009d", "rental_uris": {"android": "https://dc.lft.to/lastmile_qr_scan", "ios": "https://dc.lft.to/lastmile_qr_scan"}, "name": "15af06ac14503de417fe4d8d7cd9009d", "is_reserved": 0}, {"is_disabled": 0, "fusion_lon": 0.0, "fusion_lat": 0.0, "lat": 38.942719, "type": "electric_scooter", "lon": -77.032578, "bike_id": "3fcfa44f20b2d9e7a97e340e40bebed5", "rental_uris": {"android": "https://dc.lft.to/lastmile_qr_scan", "ios": "https://dc.lft.to/lastmile_qr_scan"}, "name": "3fcfa44f20b2d9e7a97e340e40bebed5", "is_reserved": 0}, {"is_disabled": 0, "fusion_lon": 0.0, "fusion_lat": 0.0, "lat": 38.88760933333333, "type": "electric_scooter", "lon": -77.01621633333333, "bike_id": "9fadc7d0c41aa52735027bf11d454c5b", "rental_uris": {"android": "https://dc.lft.to/lastmile_qr_scan", "ios": "https://dc.lft.to/lastmile_qr_scan"}, "name": "9fadc7d0c41aa52735027bf11d454c5b", "is_reserved": 0}, {"is_disabled": 0, "fusion_lon": 0.0, "fusion_lat": 0.0, "lat": 38.934159, "type": "electric_bike", "lon": -77.02511066666666, "bike_id": "ff407048684f2bdd30b6daaa34a8c5b3", "rental_uris": {"android": "https://dc.lft.to/lastmile_qr_scan", "ios": "https://dc.lft.to/lastmile_qr_scan"}, "name": "ff407048684f2bdd30b6daaa34a8c5b3", "is_reserved": 0}, {"is_disabled": 0, "fusion_lon": 0.0, "fusion_lat": 0.0, "lat": 38.858494, "type": "electric_bike", "lon": -77.09753166666667, "bike_id": "3af9ef88f613deaf6e1a12ac4672b92c", "rental_uris": {"android": "https://dc.lft.to/lastmile_qr_scan", "ios": "https://dc.lft.to/lastmile_qr_scan"}, "name": "3af9ef88f613deaf6e1a12ac4672b92c", "is_reserved": 0}, {"is_disabled": 0, "fusion_lon": 0.0, "fusion_lat": 0.0, "lat": 38.865943, "type": "electric_bike", "lon": -76.974512, "bike_id": "a1ac40c766b75526f926737a0f5aecf3", "rental_uris": {"android": "https://dc.lft.to/lastmile_qr_scan", "ios": "https://dc.lft.to/lastmile_qr_scan"}, "name": "a1ac40c766b75526f926737a0f5aecf3", "is_reserved": 0}, {"is_disabled": 0, "fusion_lon": 0.0, "fusion_lat": 0.0, "lat": 38.84289783333333, "type": "electric_scooter", "lon": -76.99950216666667, "bike_id": "36cc2c028fae810aac7368fbdb584056", "rental_uris": {"android": "https://dc.lft.to/lastmile_qr_scan", "ios": "https://dc.lft.to/lastmile_qr_scan"}, "name": "36cc2c028fae810aac7368fbdb584056", "is_reserved": 0}, {"is_disabled": 0, "fusion_lon": 0.0, "fusion_lat": 0.0, "lat": 38.940461166666665, "type": "electric_scooter", "lon": -77.02487866666667, "bike_id": "918ac2aecfb47aba7ed8c5ab01c9270a", "rental_uris": {"android": "https://dc.lft.to/lastmile_qr_scan", "ios": "https://dc.lft.to/lastmile_qr_scan"}, "name": "918ac2aecfb47aba7ed8c5ab01c9270a", "is_reserved": 0}, {"is_disabled": 0, "fusion_lon": 0.0, "fusion_lat": 0.0, "lat": 38.92032433333333, "type": "electric_scooter", "lon": -77.03124766666667, "bike_id": "b4530cdc4211a8ee2dadcec4de3b09cd", "rental_uris": {"android": "https://dc.lft.to/lastmile_qr_scan", "ios": "https://dc.lft.to/lastmile_qr_scan"}, "name": "b4530cdc4211a8ee2dadcec4de3b09cd", "is_reserved": 0}, {"is_disabled": 0, "fusion_lon": 0.0, "fusion_lat": 0.0, "lat": 38.8991075, "type": "electric_scooter", "lon": -76.93395666666666, "bike_id": "2400e2debdecc592c0c7ee4810f2d39f", "rental_uris": {"android": "https://dc.lft.to/lastmile_qr_scan", "ios": "https://dc.lft.to/lastmile_qr_scan"}, "name": "2400e2debdecc592c0c7ee4810f2d39f", "is_reserved": 0}, {"is_disabled": 0, "fusion_lon": 0.0, "fusion_lat": 0.0, "lat": 38.89949216666667, "type": "electric_scooter", "lon": -77.052115, "bike_id": "f9a134150f7bf14c252f94ab45795242", "rental_uris": {"android": "https://dc.lft.to/lastmile_qr_scan", "ios": "https://dc.lft.to/lastmile_qr_scan"}, "name": "f9a134150f7bf14c252f94ab45795242", "is_reserved": 0}, {"is_disabled": 0, "fusion_lon": 0.0, "fusion_lat": 0.0, "lat": 38.930577, "type": "electric_scooter", "lon": -77.02658733333334, "bike_id": "8fc535800a490833a8c4f4397efc2dfc", "rental_uris": {"android": "https://dc.lft.to/lastmile_qr_scan", "ios": "https://dc.lft.to/lastmile_qr_scan"}, "name": "8fc535800a490833a8c4f4397efc2dfc", "is_reserved": 0}, {"is_disabled": 0, "fusion_lon": 0.0, "fusion_lat": 0.0, "lat": 38.9704815, "type": "electric_bike", "lon": -77.03086833333333, "bike_id": "864675444a0a9ebb2f8810052b05db4e", "rental_uris": {"android": "https://dc.lft.to/lastmile_qr_scan", "ios": "https://dc.lft.to/lastmile_qr_scan"}, "name": "864675444a0a9ebb2f8810052b05db4e", "is_reserved": 0}, {"is_disabled": 0, "fusion_lon": 0.0, "fusion_lat": 0.0, "lat": 38.848405, "type": "electric_bike", "lon": -77.08055566666667, "bike_id": "9faab7f4289d8e6c2108bc999f15734b", "rental_uris": {"android": "https://dc.lft.to/lastmile_qr_scan", "ios": "https://dc.lft.to/lastmile_qr_scan"}, "name": "9faab7f4289d8e6c2108bc999f15734b", "is_reserved": 0}, {"is_disabled": 0, "fusion_lon": 0.0, "fusion_lat": 0.0, "lat": 38.92993466666667, "type": "electric_scooter", "lon": -77.02183133333334, "bike_id": "9f301503bdeaf0df42f32cdf4311d128", "rental_uris": {"android": "https://dc.lft.to/lastmile_qr_scan", "ios": "https://dc.lft.to/lastmile_qr_scan"}, "name": "9f301503bdeaf0df42f32cdf4311d128", "is_reserved": 0}, {"is_disabled": 0, "fusion_lon": 0.0, "fusion_lat": 0.0, "lat": 38.9233415, "type": "electric_scooter", "lon": -77.03612233333334, "bike_id": "b41e9235c56ac268be470981ec60da60", "rental_uris": {"android": "https://dc.lft.to/lastmile_qr_scan", "ios": "https://dc.lft.to/lastmile_qr_scan"}, "name": "b41e9235c56ac268be470981ec60da60", "is_reserved": 0}, {"is_disabled": 0, "fusion_lon": 0.0, "fusion_lat": 0.0, "lat": 38.917680833333335, "type": "electric_scooter", "lon": -77.0234595, "bike_id": "c3815a645cf27b750e4ec0bdc96b864f", "rental_uris": {"android": "https://dc.lft.to/lastmile_qr_scan", "ios": "https://dc.lft.to/lastmile_qr_scan"}, "name": "c3815a645cf27b750e4ec0bdc96b864f", "is_reserved": 0}, {"is_disabled": 0, "fusion_lon": 0.0, "fusion_lat": 0.0, "lat": 38.907044666666664, "type": "electric_scooter", "lon": -77.026958, "bike_id": "b54b431be90c82ff6ca788a130939328", "rental_uris": {"android": "https://dc.lft.to/lastmile_qr_scan", "ios": "https://dc.lft.to/lastmile_qr_scan"}, "name": "b54b431be90c82ff6ca788a130939328", "is_reserved": 0}, {"is_disabled": 0, "fusion_lon": 0.0, "fusion_lat": 0.0, "lat": 38.9146135, "type": "electric_scooter", "lon": -77.02812366666667, "bike_id": "253f5b3aeed1a2fa6d8021fa6aafccd6", "rental_uris": {"android": "https://dc.lft.to/lastmile_qr_scan", "ios": "https://dc.lft.to/lastmile_qr_scan"}, "name": "253f5b3aeed1a2fa6d8021fa6aafccd6", "is_reserved": 0}, {"is_disabled": 0, "fusion_lon": 0.0, "fusion_lat": 0.0, "lat": 38.933989833333335, "type": "electric_scooter", "lon": -77.02737383333333, "bike_id": "ee496d9125959ef7df15d742dc6a3370", "rental_uris": {"android": "https://dc.lft.to/lastmile_qr_scan", "ios": "https://dc.lft.to/lastmile_qr_scan"}, "name": "ee496d9125959ef7df15d742dc6a3370", "is_reserved": 0}, {"is_disabled": 0, "fusion_lon": 0.0, "fusion_lat": 0.0, "lat": 38.90242766666667, "type": "electric_bike", "lon": -76.9701555, "bike_id": "67077586a23beb2f0d6530b7c28e78de", "rental_uris": {"android": "https://dc.lft.to/lastmile_qr_scan", "ios": "https://dc.lft.to/lastmile_qr_scan"}, "name": "67077586a23beb2f0d6530b7c28e78de", "is_reserved": 0}, {"is_disabled": 0, "fusion_lon": 0.0, "fusion_lat": 0.0, "lat": 38.89513433333333, "type": "electric_scooter", "lon": -77.02823933333333, "bike_id": "8600a83ccabd60e7429b15c996921812", "rental_uris": {"android": "https://dc.lft.to/lastmile_qr_scan", "ios": "https://dc.lft.to/lastmile_qr_scan"}, "name": "8600a83ccabd60e7429b15c996921812", "is_reserved": 0}, {"is_disabled": 0, "fusion_lon": 0.0, "fusion_lat": 0.0, "lat": 38.90061816666667, "type": "electric_scooter", "lon": -77.0345045, "bike_id": "acbdd0e7cbfd4cdac1907cfd5a4300c1", "rental_uris": {"android": "https://dc.lft.to/lastmile_qr_scan", "ios": "https://dc.lft.to/lastmile_qr_scan"}, "name": "acbdd0e7cbfd4cdac1907cfd5a4300c1", "is_reserved": 0}, {"is_disabled": 0, "fusion_lon": 0.0, "fusion_lat": 0.0, "lat": 38.89696, "type": "electric_scooter", "lon": -76.9471735, "bike_id": "0850185a3966009c3f1711e43e67f2c7", "rental_uris": {"android": "https://dc.lft.to/lastmile_qr_scan", "ios": "https://dc.lft.to/lastmile_qr_scan"}, "name": "0850185a3966009c3f1711e43e67f2c7", "is_reserved": 0}, {"is_disabled": 0, "fusion_lon": 0.0, "fusion_lat": 0.0, "lat": 38.8849245, "type": "electric_scooter", "lon": -77.022058, "bike_id": "9b454eb4f8f26600aa0fc296828a7f9d", "rental_uris": {"android": "https://dc.lft.to/lastmile_qr_scan", "ios": "https://dc.lft.to/lastmile_qr_scan"}, "name": "9b454eb4f8f26600aa0fc296828a7f9d", "is_reserved": 0}, {"is_disabled": 0, "fusion_lon": 0.0, "fusion_lat": 0.0, "lat": 38.905520833333334, "type": "electric_scooter", "lon": -77.02706633333334, "bike_id": "41118c272f889a3bd239f59b787e239d", "rental_uris": {"android": "https://dc.lft.to/lastmile_qr_scan", "ios": "https://dc.lft.to/lastmile_qr_scan"}, "name": "41118c272f889a3bd239f59b787e239d", "is_reserved": 0}, {"is_disabled": 0, "fusion_lon": 0.0, "fusion_lat": 0.0, "lat": 38.888669666666665, "type": "electric_scooter", "lon": -77.04004683333334, "bike_id": "740fb88d7f6f8094074b7828d3efa280", "rental_uris": {"android": "https://dc.lft.to/lastmile_qr_scan", "ios": "https://dc.lft.to/lastmile_qr_scan"}, "name": "740fb88d7f6f8094074b7828d3efa280", "is_reserved": 0}, {"is_disabled": 0, "fusion_lon": 0.0, "fusion_lat": 0.0, "lat": 38.92873616666667, "type": "electric_scooter", "lon": -77.014258, "bike_id": "f8108afaf796743af9bbca6787b1a1f9", "rental_uris": {"android": "https://dc.lft.to/lastmile_qr_scan", "ios": "https://dc.lft.to/lastmile_qr_scan"}, "name": "f8108afaf796743af9bbca6787b1a1f9", "is_reserved": 0}, {"is_disabled": 0, "fusion_lon": 0.0, "fusion_lat": 0.0, "lat": 38.9183805, "type": "electric_scooter", "lon": -77.07214683333333, "bike_id": "41903f7f4ef70c831edd733cd869c968", "rental_uris": {"android": "https://dc.lft.to/lastmile_qr_scan", "ios": "https://dc.lft.to/lastmile_qr_scan"}, "name": "41903f7f4ef70c831edd733cd869c968", "is_reserved": 0}, {"is_disabled": 0, "fusion_lon": 0.0, "fusion_lat": 0.0, "lat": 38.912706, "type": "electric_scooter", "lon": -77.022252, "bike_id": "03b1b88d31e97fa2d0de7aeb6f0ade48", "rental_uris": {"android": "https://dc.lft.to/lastmile_qr_scan", "ios": "https://dc.lft.to/lastmile_qr_scan"}, "name": "03b1b88d31e97fa2d0de7aeb6f0ade48", "is_reserved": 0}, {"is_disabled": 0, "fusion_lon": 0.0, "fusion_lat": 0.0, "lat": 38.905993, "type": "electric_scooter", "lon": -77.0571235, "bike_id": "b04545ad7018c6d25d8eb498ea41aaf2", "rental_uris": {"android": "https://dc.lft.to/lastmile_qr_scan", "ios": "https://dc.lft.to/lastmile_qr_scan"}, "name": "b04545ad7018c6d25d8eb498ea41aaf2", "is_reserved": 0}, {"is_disabled": 0, "fusion_lon": 0.0, "fusion_lat": 0.0, "lat": 38.92450633333333, "type": "electric_scooter", "lon": -77.05079583333334, "bike_id": "10035dd3b5d53e15a610400b3f0343d7", "rental_uris": {"android": "https://dc.lft.to/lastmile_qr_scan", "ios": "https://dc.lft.to/lastmile_qr_scan"}, "name": "10035dd3b5d53e15a610400b3f0343d7", "is_reserved": 0}, {"is_disabled": 0, "fusion_lon": 0.0, "fusion_lat": 0.0, "lat": 38.92539433333334, "type": "electric_scooter", "lon": -77.07659233333334, "bike_id": "7d9982860cafc82591e43fc8f2112e13", "rental_uris": {"android": "https://dc.lft.to/lastmile_qr_scan", "ios": "https://dc.lft.to/lastmile_qr_scan"}, "name": "7d9982860cafc82591e43fc8f2112e13", "is_reserved": 0}, {"is_disabled": 0, "fusion_lon": 0.0, "fusion_lat": 0.0, "lat": 38.88354483333333, "type": "electric_scooter", "lon": -76.98559666666667, "bike_id": "89d4209998106286b18a431f755aa275", "rental_uris": {"android": "https://dc.lft.to/lastmile_qr_scan", "ios": "https://dc.lft.to/lastmile_qr_scan"}, "name": "89d4209998106286b18a431f755aa275", "is_reserved": 0}, {"is_disabled": 0, "fusion_lon": 0.0, "fusion_lat": 0.0, "lat": 38.908614, "type": "electric_scooter", "lon": -77.04618433333333, "bike_id": "f911705ea8dc24130c51194537d9bb43", "rental_uris": {"android": "https://dc.lft.to/lastmile_qr_scan", "ios": "https://dc.lft.to/lastmile_qr_scan"}, "name": "f911705ea8dc24130c51194537d9bb43", "is_reserved": 0}, {"is_disabled": 0, "fusion_lon": 0.0, "fusion_lat": 0.0, "lat": 38.917995833333336, "type": "electric_scooter", "lon": -77.03445266666667, "bike_id": "f7f66f49f0fae6103f1be49682db6ac0", "rental_uris": {"android": "https://dc.lft.to/lastmile_qr_scan", "ios": "https://dc.lft.to/lastmile_qr_scan"}, "name": "f7f66f49f0fae6103f1be49682db6ac0", "is_reserved": 0}, {"is_disabled": 0, "fusion_lon": 0.0, "fusion_lat": 0.0, "lat": 38.9134325, "type": "electric_scooter", "lon": -77.04245966666667, "bike_id": "4d3efc4ad75825224881b35616f7a882", "rental_uris": {"android": "https://dc.lft.to/lastmile_qr_scan", "ios": "https://dc.lft.to/lastmile_qr_scan"}, "name": "4d3efc4ad75825224881b35616f7a882", "is_reserved": 0}, {"is_disabled": 0, "fusion_lon": 0.0, "fusion_lat": 0.0, "lat": 38.893925333333335, "type": "electric_scooter", "lon": -76.94991783333333, "bike_id": "716d834fb90fbb2d04294593d9afd947", "rental_uris": {"android": "https://dc.lft.to/lastmile_qr_scan", "ios": "https://dc.lft.to/lastmile_qr_scan"}, "name": "716d834fb90fbb2d04294593d9afd947", "is_reserved": 0}, {"is_disabled": 0, "fusion_lon": 0.0, "fusion_lat": 0.0, "lat": 38.91198633333333, "type": "electric_scooter", "lon": -77.0371655, "bike_id": "a9ac8ca93aed34d1c1d12cb6d0613bc7", "rental_uris": {"android": "https://dc.lft.to/lastmile_qr_scan", "ios": "https://dc.lft.to/lastmile_qr_scan"}, "name": "a9ac8ca93aed34d1c1d12cb6d0613bc7", "is_reserved": 0}, {"is_disabled": 0, "fusion_lon": 0.0, "fusion_lat": 0.0, "lat": 38.92577083333333, "type": "electric_scooter", "lon": -77.03216083333334, "bike_id": "2c9859a74a266360eaa4775d8fc33c70", "rental_uris": {"android": "https://dc.lft.to/lastmile_qr_scan", "ios": "https://dc.lft.to/lastmile_qr_scan"}, "name": "2c9859a74a266360eaa4775d8fc33c70", "is_reserved": 0}, {"is_disabled": 0, "fusion_lon": 0.0, "fusion_lat": 0.0, "lat": 38.9084475, "type": "electric_scooter", "lon": -77.02052216666667, "bike_id": "bbe5b225a8627f71998dc8ecfa67acea", "rental_uris": {"android": "https://dc.lft.to/lastmile_qr_scan", "ios": "https://dc.lft.to/lastmile_qr_scan"}, "name": "bbe5b225a8627f71998dc8ecfa67acea", "is_reserved": 0}, {"is_disabled": 0, "fusion_lon": 0.0, "fusion_lat": 0.0, "lat": 38.905308, "type": "electric_scooter", "lon": -77.067926, "bike_id": "d581d224e10b48eb0a71efd14333344f", "rental_uris": {"android": "https://dc.lft.to/lastmile_qr_scan", "ios": "https://dc.lft.to/lastmile_qr_scan"}, "name": "d581d224e10b48eb0a71efd14333344f", "is_reserved": 0}, {"is_disabled": 0, "fusion_lon": 0.0, "fusion_lat": 0.0, "lat": 38.905530666666664, "type": "electric_scooter", "lon": -77.04340183333333, "bike_id": "ebd3c3dc2403391975bbc4fb666f168d", "rental_uris": {"android": "https://dc.lft.to/lastmile_qr_scan", "ios": "https://dc.lft.to/lastmile_qr_scan"}, "name": "ebd3c3dc2403391975bbc4fb666f168d", "is_reserved": 0}, {"is_disabled": 0, "fusion_lon": 0.0, "fusion_lat": 0.0, "lat": 38.914114, "type": "electric_scooter", "lon": -77.0256325, "bike_id": "b7572b9417059aa01ee16720bc0ce234", "rental_uris": {"android": "https://dc.lft.to/lastmile_qr_scan", "ios": "https://dc.lft.to/lastmile_qr_scan"}, "name": "b7572b9417059aa01ee16720bc0ce234", "is_reserved": 0}, {"is_disabled": 0, "fusion_lon": 0.0, "fusion_lat": 0.0, "lat": 38.91408533333333, "type": "electric_scooter", "lon": -77.043224, "bike_id": "f9efd7fbbc1c099bc989f9692cd0341c", "rental_uris": {"android": "https://dc.lft.to/lastmile_qr_scan", "ios": "https://dc.lft.to/lastmile_qr_scan"}, "name": "f9efd7fbbc1c099bc989f9692cd0341c", "is_reserved": 0}, {"is_disabled": 0, "fusion_lon": 0.0, "fusion_lat": 0.0, "lat": 38.9419775, "type": "electric_scooter", "lon": -77.02577183333334, "bike_id": "5d0ad7de7f1d81a533aef06bf707fa0f", "rental_uris": {"android": "https://dc.lft.to/lastmile_qr_scan", "ios": "https://dc.lft.to/lastmile_qr_scan"}, "name": "5d0ad7de7f1d81a533aef06bf707fa0f", "is_reserved": 0}, {"is_disabled": 0, "fusion_lon": 0.0, "fusion_lat": 0.0, "lat": 38.94984683333333, "type": "electric_scooter", "lon": -77.0675925, "bike_id": "59418ab22486f870a08f159689292955", "rental_uris": {"android": "https://dc.lft.to/lastmile_qr_scan", "ios": "https://dc.lft.to/lastmile_qr_scan"}, "name": "59418ab22486f870a08f159689292955", "is_reserved": 0}, {"is_disabled": 0, "fusion_lon": 0.0, "fusion_lat": 0.0, "lat": 38.933225166666666, "type": "electric_scooter", "lon": -77.02930716666667, "bike_id": "e6b0e0e6597a7bd6c0f7d4c1d27f30d2", "rental_uris": {"android": "https://dc.lft.to/lastmile_qr_scan", "ios": "https://dc.lft.to/lastmile_qr_scan"}, "name": "e6b0e0e6597a7bd6c0f7d4c1d27f30d2", "is_reserved": 0}, {"is_disabled": 0, "fusion_lon": 0.0, "fusion_lat": 0.0, "lat": 38.968297166666666, "type": "electric_scooter", "lon": -77.015134, "bike_id": "a365a742d3db556bc917cb11acdc068d", "rental_uris": {"android": "https://dc.lft.to/lastmile_qr_scan", "ios": "https://dc.lft.to/lastmile_qr_scan"}, "name": "a365a742d3db556bc917cb11acdc068d", "is_reserved": 0}, {"is_disabled": 0, "fusion_lon": 0.0, "fusion_lat": 0.0, "lat": 38.924114, "type": "electric_scooter", "lon": -77.05166583333333, "bike_id": "75cb6eb192ccab5095b4b645ea3392ca", "rental_uris": {"android": "https://dc.lft.to/lastmile_qr_scan", "ios": "https://dc.lft.to/lastmile_qr_scan"}, "name": "75cb6eb192ccab5095b4b645ea3392ca", "is_reserved": 0}, {"is_disabled": 0, "fusion_lon": 0.0, "fusion_lat": 0.0, "lat": 38.905867, "type": "electric_scooter", "lon": -77.0242425, "bike_id": "bba3b9d338ff2ee630d2da40626901d2", "rental_uris": {"android": "https://dc.lft.to/lastmile_qr_scan", "ios": "https://dc.lft.to/lastmile_qr_scan"}, "name": "bba3b9d338ff2ee630d2da40626901d2", "is_reserved": 0}, {"is_disabled": 0, "fusion_lon": 0.0, "fusion_lat": 0.0, "lat": 38.93527566666667, "type": "electric_scooter", "lon": -77.020695, "bike_id": "abad03dd1edfc35b4adbc33ac94a729e", "rental_uris": {"android": "https://dc.lft.to/lastmile_qr_scan", "ios": "https://dc.lft.to/lastmile_qr_scan"}, "name": "abad03dd1edfc35b4adbc33ac94a729e", "is_reserved": 0}, {"is_disabled": 0, "fusion_lon": 0.0, "fusion_lat": 0.0, "lat": 38.9192505, "type": "electric_scooter", "lon": -77.02407383333333, "bike_id": "a4f2b5f9a6c518d67961d4d6de28ac32", "rental_uris": {"android": "https://dc.lft.to/lastmile_qr_scan", "ios": "https://dc.lft.to/lastmile_qr_scan"}, "name": "a4f2b5f9a6c518d67961d4d6de28ac32", "is_reserved": 0}, {"is_disabled": 0, "fusion_lon": 0.0, "fusion_lat": 0.0, "lat": 38.999993833333335, "type": "electric_bike", "lon": -76.91808033333334, "bike_id": "7723c9d7979d89be0870aaf9e1655261", "rental_uris": {"android": "https://dc.lft.to/lastmile_qr_scan", "ios": "https://dc.lft.to/lastmile_qr_scan"}, "name": "7723c9d7979d89be0870aaf9e1655261", "is_reserved": 0}, {"is_disabled": 0, "fusion_lon": 0.0, "fusion_lat": 0.0, "lat": 38.92456266666667, "type": "electric_scooter", "lon": -76.99904516666666, "bike_id": "b3e8a4ad01775e21d43b6a895509e605", "rental_uris": {"android": "https://dc.lft.to/lastmile_qr_scan", "ios": "https://dc.lft.to/lastmile_qr_scan"}, "name": "b3e8a4ad01775e21d43b6a895509e605", "is_reserved": 0}, {"is_disabled": 0, "fusion_lon": 0.0, "fusion_lat": 0.0, "lat": 38.89734133333333, "type": "electric_scooter", "lon": -77.04801366666666, "bike_id": "dee80a8c935453daacf80fdbdc7fdf94", "rental_uris": {"android": "https://dc.lft.to/lastmile_qr_scan", "ios": "https://dc.lft.to/lastmile_qr_scan"}, "name": "dee80a8c935453daacf80fdbdc7fdf94", "is_reserved": 0}, {"is_disabled": 0, "fusion_lon": 0.0, "fusion_lat": 0.0, "lat": 38.902756833333335, "type": "electric_scooter", "lon": -77.03453816666666, "bike_id": "28fd40ba411e49b019126fe328dab9f7", "rental_uris": {"android": "https://dc.lft.to/lastmile_qr_scan", "ios": "https://dc.lft.to/lastmile_qr_scan"}, "name": "28fd40ba411e49b019126fe328dab9f7", "is_reserved": 0}, {"is_disabled": 0, "fusion_lon": 0.0, "fusion_lat": 0.0, "lat": 38.919216, "type": "electric_scooter", "lon": -77.02403333333334, "bike_id": "828b9e62f812246b63dc086d8b497a91", "rental_uris": {"android": "https://dc.lft.to/lastmile_qr_scan", "ios": "https://dc.lft.to/lastmile_qr_scan"}, "name": "828b9e62f812246b63dc086d8b497a91", "is_reserved": 0}, {"is_disabled": 0, "fusion_lon": 0.0, "fusion_lat": 0.0, "lat": 38.91617166666666, "type": "electric_scooter", "lon": -77.04597816666667, "bike_id": "5a66f465cd237294942e01e4f0b8cf15", "rental_uris": {"android": "https://dc.lft.to/lastmile_qr_scan", "ios": "https://dc.lft.to/lastmile_qr_scan"}, "name": "5a66f465cd237294942e01e4f0b8cf15", "is_reserved": 0}, {"is_disabled": 0, "fusion_lon": 0.0, "fusion_lat": 0.0, "lat": 38.91630333333333, "type": "electric_bike", "lon": -77.01355083333333, "bike_id": "fc66277307d99068acf210cfe1201b74", "rental_uris": {"android": "https://dc.lft.to/lastmile_qr_scan", "ios": "https://dc.lft.to/lastmile_qr_scan"}, "name": "fc66277307d99068acf210cfe1201b74", "is_reserved": 0}, {"is_disabled": 0, "fusion_lon": 0.0, "fusion_lat": 0.0, "lat": 38.88069933333333, "type": "electric_scooter", "lon": -77.01655983333333, "bike_id": "53ffdb4a3cb07992b7a36c7bc0be57b2", "rental_uris": {"android": "https://dc.lft.to/lastmile_qr_scan", "ios": "https://dc.lft.to/lastmile_qr_scan"}, "name": "53ffdb4a3cb07992b7a36c7bc0be57b2", "is_reserved": 0}, {"is_disabled": 0, "fusion_lon": 0.0, "fusion_lat": 0.0, "lat": 38.873068833333335, "type": "electric_bike", "lon": -76.971032, "bike_id": "cc4c690fc447b8ff59bf72ba2b4a896c", "rental_uris": {"android": "https://dc.lft.to/lastmile_qr_scan", "ios": "https://dc.lft.to/lastmile_qr_scan"}, "name": "cc4c690fc447b8ff59bf72ba2b4a896c", "is_reserved": 0}, {"is_disabled": 0, "fusion_lon": 0.0, "fusion_lat": 0.0, "lat": 38.95374666666667, "type": "electric_scooter", "lon": -77.025567, "bike_id": "72b8beaa4a7aae26d47d510dbf203e37", "rental_uris": {"android": "https://dc.lft.to/lastmile_qr_scan", "ios": "https://dc.lft.to/lastmile_qr_scan"}, "name": "72b8beaa4a7aae26d47d510dbf203e37", "is_reserved": 0}, {"is_disabled": 0, "fusion_lon": 0.0, "fusion_lat": 0.0, "lat": 38.92247066666667, "type": "electric_scooter", "lon": -77.03085483333334, "bike_id": "7f27cb768a0a58a513ab17c7df48f5d5", "rental_uris": {"android": "https://dc.lft.to/lastmile_qr_scan", "ios": "https://dc.lft.to/lastmile_qr_scan"}, "name": "7f27cb768a0a58a513ab17c7df48f5d5", "is_reserved": 0}, {"is_disabled": 0, "fusion_lon": 0.0, "fusion_lat": 0.0, "lat": 38.903770333333334, "type": "electric_scooter", "lon": -77.03179583333333, "bike_id": "35951ed742f8cbc7027770f9ad1c966b", "rental_uris": {"android": "https://dc.lft.to/lastmile_qr_scan", "ios": "https://dc.lft.to/lastmile_qr_scan"}, "name": "35951ed742f8cbc7027770f9ad1c966b", "is_reserved": 0}, {"is_disabled": 0, "fusion_lon": 0.0, "fusion_lat": 0.0, "lat": 38.9181995, "type": "electric_scooter", "lon": -77.032514, "bike_id": "9005d203bfbdb22056ad5ee411009182", "rental_uris": {"android": "https://dc.lft.to/lastmile_qr_scan", "ios": "https://dc.lft.to/lastmile_qr_scan"}, "name": "9005d203bfbdb22056ad5ee411009182", "is_reserved": 0}, {"is_disabled": 0, "fusion_lon": 0.0, "fusion_lat": 0.0, "lat": 38.95396, "type": "electric_scooter", "lon": -77.027591, "bike_id": "17397576fc79ea351fb98590c075e01c", "rental_uris": {"android": "https://dc.lft.to/lastmile_qr_scan", "ios": "https://dc.lft.to/lastmile_qr_scan"}, "name": "17397576fc79ea351fb98590c075e01c", "is_reserved": 0}, {"is_disabled": 0, "fusion_lon": 0.0, "fusion_lat": 0.0, "lat": 38.96497316666667, "type": "electric_scooter", "lon": -77.0248135, "bike_id": "379ef21b3cc573d19530525ee1ebf544", "rental_uris": {"android": "https://dc.lft.to/lastmile_qr_scan", "ios": "https://dc.lft.to/lastmile_qr_scan"}, "name": "379ef21b3cc573d19530525ee1ebf544", "is_reserved": 0}, {"is_disabled": 0, "fusion_lon": 0.0, "fusion_lat": 0.0, "lat": 38.8922155, "type": "electric_scooter", "lon": -77.03341066666667, "bike_id": "e22d4b3d5dd9a011d3b628adfa666b84", "rental_uris": {"android": "https://dc.lft.to/lastmile_qr_scan", "ios": "https://dc.lft.to/lastmile_qr_scan"}, "name": "e22d4b3d5dd9a011d3b628adfa666b84", "is_reserved": 0}, {"is_disabled": 0, "fusion_lon": 0.0, "fusion_lat": 0.0, "lat": 38.9376465, "type": "electric_scooter", "lon": -77.03085783333333, "bike_id": "4a9eae85251030293184dcf38f230086", "rental_uris": {"android": "https://dc.lft.to/lastmile_qr_scan", "ios": "https://dc.lft.to/lastmile_qr_scan"}, "name": "4a9eae85251030293184dcf38f230086", "is_reserved": 0}, {"is_disabled": 0, "fusion_lon": 0.0, "fusion_lat": 0.0, "lat": 38.93010316666667, "type": "electric_scooter", "lon": -77.078498, "bike_id": "0678dce24ffd5c370b4f74bcd6ae5133", "rental_uris": {"android": "https://dc.lft.to/lastmile_qr_scan", "ios": "https://dc.lft.to/lastmile_qr_scan"}, "name": "0678dce24ffd5c370b4f74bcd6ae5133", "is_reserved": 0}, {"is_disabled": 0, "fusion_lon": 0.0, "fusion_lat": 0.0, "lat": 38.924188, "type": "electric_scooter", "lon": -77.04166933333333, "bike_id": "add58684568888806204356a4616cabd", "rental_uris": {"android": "https://dc.lft.to/lastmile_qr_scan", "ios": "https://dc.lft.to/lastmile_qr_scan"}, "name": "add58684568888806204356a4616cabd", "is_reserved": 0}, {"is_disabled": 0, "fusion_lon": 0.0, "fusion_lat": 0.0, "lat": 38.85842916666667, "type": "electric_bike", "lon": -76.99287816666667, "bike_id": "02336fe7c4f1259cd540d4bd5c927c2c", "rental_uris": {"android": "https://dc.lft.to/lastmile_qr_scan", "ios": "https://dc.lft.to/lastmile_qr_scan"}, "name": "02336fe7c4f1259cd540d4bd5c927c2c", "is_reserved": 0}, {"is_disabled": 0, "fusion_lon": 0.0, "fusion_lat": 0.0, "lat": 38.907176, "type": "electric_scooter", "lon": -77.03848083333334, "bike_id": "175bbf83de565611002b3b56b0c5fd99", "rental_uris": {"android": "https://dc.lft.to/lastmile_qr_scan", "ios": "https://dc.lft.to/lastmile_qr_scan"}, "name": "175bbf83de565611002b3b56b0c5fd99", "is_reserved": 0}, {"is_disabled": 0, "fusion_lon": 0.0, "fusion_lat": 0.0, "lat": 38.908346333333334, "type": "electric_scooter", "lon": -77.00223916666667, "bike_id": "1d0f995f1d3a5ff70aa6f2e26aa0dfbf", "rental_uris": {"android": "https://dc.lft.to/lastmile_qr_scan", "ios": "https://dc.lft.to/lastmile_qr_scan"}, "name": "1d0f995f1d3a5ff70aa6f2e26aa0dfbf", "is_reserved": 0}, {"is_disabled": 0, "fusion_lon": 0.0, "fusion_lat": 0.0, "lat": 38.87983966666667, "type": "electric_bike", "lon": -76.91598116666667, "bike_id": "718f294e841c77e3577561c73a0e2596", "rental_uris": {"android": "https://dc.lft.to/lastmile_qr_scan", "ios": "https://dc.lft.to/lastmile_qr_scan"}, "name": "718f294e841c77e3577561c73a0e2596", "is_reserved": 0}, {"is_disabled": 0, "fusion_lon": 0.0, "fusion_lat": 0.0, "lat": 38.9038245, "type": "electric_scooter", "lon": -77.0501625, "bike_id": "7044f2fbc34374bfac9e673be17e1582", "rental_uris": {"android": "https://dc.lft.to/lastmile_qr_scan", "ios": "https://dc.lft.to/lastmile_qr_scan"}, "name": "7044f2fbc34374bfac9e673be17e1582", "is_reserved": 0}, {"is_disabled": 0, "fusion_lon": 0.0, "fusion_lat": 0.0, "lat": 38.96642833333333, "type": "electric_bike", "lon": -76.93024766666667, "bike_id": "7c7444a1cfc2a60be0c44fb7759b794a", "rental_uris": {"android": "https://dc.lft.to/lastmile_qr_scan", "ios": "https://dc.lft.to/lastmile_qr_scan"}, "name": "7c7444a1cfc2a60be0c44fb7759b794a", "is_reserved": 0}, {"is_disabled": 0, "fusion_lon": 0.0, "fusion_lat": 0.0, "lat": 38.911742, "type": "electric_scooter", "lon": -77.00462633333333, "bike_id": "cf1ebe067eded648885dd3d0186d0359", "rental_uris": {"android": "https://dc.lft.to/lastmile_qr_scan", "ios": "https://dc.lft.to/lastmile_qr_scan"}, "name": "cf1ebe067eded648885dd3d0186d0359", "is_reserved": 0}, {"is_disabled": 0, "fusion_lon": 0.0, "fusion_lat": 0.0, "lat": 38.89371216666667, "type": "electric_scooter", "lon": -76.978141, "bike_id": "4e9d5c9e5db54cbfe7d40a0800aa8f98", "rental_uris": {"android": "https://dc.lft.to/lastmile_qr_scan", "ios": "https://dc.lft.to/lastmile_qr_scan"}, "name": "4e9d5c9e5db54cbfe7d40a0800aa8f98", "is_reserved": 0}, {"is_disabled": 0, "fusion_lon": 0.0, "fusion_lat": 0.0, "lat": 38.89309016666667, "type": "electric_scooter", "lon": -77.02205366666666, "bike_id": "859b71982e7f3647367ec44b525e325e", "rental_uris": {"android": "https://dc.lft.to/lastmile_qr_scan", "ios": "https://dc.lft.to/lastmile_qr_scan"}, "name": "859b71982e7f3647367ec44b525e325e", "is_reserved": 0}, {"is_disabled": 0, "fusion_lon": 0.0, "fusion_lat": 0.0, "lat": 38.916545166666666, "type": "electric_scooter", "lon": -77.04656166666666, "bike_id": "9bdba90691eeed99a08dbccbf83037ca", "rental_uris": {"android": "https://dc.lft.to/lastmile_qr_scan", "ios": "https://dc.lft.to/lastmile_qr_scan"}, "name": "9bdba90691eeed99a08dbccbf83037ca", "is_reserved": 0}, {"is_disabled": 0, "fusion_lon": 0.0, "fusion_lat": 0.0, "lat": 38.9054175, "type": "electric_scooter", "lon": -77.05044083333334, "bike_id": "cad6a59219567aa6ec9e25ca2b0c24bb", "rental_uris": {"android": "https://dc.lft.to/lastmile_qr_scan", "ios": "https://dc.lft.to/lastmile_qr_scan"}, "name": "cad6a59219567aa6ec9e25ca2b0c24bb", "is_reserved": 0}, {"is_disabled": 0, "fusion_lon": 0.0, "fusion_lat": 0.0, "lat": 38.885239, "type": "electric_scooter", "lon": -76.998022, "bike_id": "9bd6a8e5b76b4bb4898e028ce7beb62e", "rental_uris": {"android": "https://dc.lft.to/lastmile_qr_scan", "ios": "https://dc.lft.to/lastmile_qr_scan"}, "name": "9bd6a8e5b76b4bb4898e028ce7beb62e", "is_reserved": 0}, {"is_disabled": 0, "fusion_lon": 0.0, "fusion_lat": 0.0, "lat": 38.916898333333336, "type": "electric_scooter", "lon": -77.02601366666667, "bike_id": "51b6c6c1c0f41c308cd37d6bf2b55791", "rental_uris": {"android": "https://dc.lft.to/lastmile_qr_scan", "ios": "https://dc.lft.to/lastmile_qr_scan"}, "name": "51b6c6c1c0f41c308cd37d6bf2b55791", "is_reserved": 0}, {"is_disabled": 0, "fusion_lon": 0.0, "fusion_lat": 0.0, "lat": 38.960412, "type": "electric_bike", "lon": -76.92717166666667, "bike_id": "22c46196dc9f98392d9bc3c4e5e3a5fe", "rental_uris": {"android": "https://dc.lft.to/lastmile_qr_scan", "ios": "https://dc.lft.to/lastmile_qr_scan"}, "name": "22c46196dc9f98392d9bc3c4e5e3a5fe", "is_reserved": 0}, {"is_disabled": 0, "fusion_lon": 0.0, "fusion_lat": 0.0, "lat": 38.85869866666667, "type": "electric_scooter", "lon": -76.99026783333333, "bike_id": "540f7c073a4fc7a9189d073747cc7728", "rental_uris": {"android": "https://dc.lft.to/lastmile_qr_scan", "ios": "https://dc.lft.to/lastmile_qr_scan"}, "name": "540f7c073a4fc7a9189d073747cc7728", "is_reserved": 0}, {"is_disabled": 0, "fusion_lon": 0.0, "fusion_lat": 0.0, "lat": 38.9309675, "type": "electric_scooter", "lon": -77.038158, "bike_id": "831ada214f120ba89bb5f757f8206337", "rental_uris": {"android": "https://dc.lft.to/lastmile_qr_scan", "ios": "https://dc.lft.to/lastmile_qr_scan"}, "name": "831ada214f120ba89bb5f757f8206337", "is_reserved": 0}, {"is_disabled": 0, "fusion_lon": 0.0, "fusion_lat": 0.0, "lat": 38.90691233333333, "type": "electric_scooter", "lon": -77.06315266666667, "bike_id": "827eabb7bdaff7711d0344601887cfeb", "rental_uris": {"android": "https://dc.lft.to/lastmile_qr_scan", "ios": "https://dc.lft.to/lastmile_qr_scan"}, "name": "827eabb7bdaff7711d0344601887cfeb", "is_reserved": 0}, {"is_disabled": 0, "fusion_lon": 0.0, "fusion_lat": 0.0, "lat": 38.907574, "type": "electric_scooter", "lon": -77.032143, "bike_id": "bc49c973421fa9be6bf1a9f00fba8f86", "rental_uris": {"android": "https://dc.lft.to/lastmile_qr_scan", "ios": "https://dc.lft.to/lastmile_qr_scan"}, "name": "bc49c973421fa9be6bf1a9f00fba8f86", "is_reserved": 0}, {"is_disabled": 0, "fusion_lon": 0.0, "fusion_lat": 0.0, "lat": 38.89744366666667, "type": "electric_scooter", "lon": -77.02883933333334, "bike_id": "1fccf8564d61c9cb6adb0b186b429189", "rental_uris": {"android": "https://dc.lft.to/lastmile_qr_scan", "ios": "https://dc.lft.to/lastmile_qr_scan"}, "name": "1fccf8564d61c9cb6adb0b186b429189", "is_reserved": 0}, {"is_disabled": 0, "fusion_lon": 0.0, "fusion_lat": 0.0, "lat": 38.95881216666667, "type": "electric_bike", "lon": -76.92508716666667, "bike_id": "f6b83f379ba8b9276eb10cdde86f4599", "rental_uris": {"android": "https://dc.lft.to/lastmile_qr_scan", "ios": "https://dc.lft.to/lastmile_qr_scan"}, "name": "f6b83f379ba8b9276eb10cdde86f4599", "is_reserved": 0}, {"is_disabled": 0, "fusion_lon": 0.0, "fusion_lat": 0.0, "lat": 38.89755983333333, "type": "electric_scooter", "lon": -77.02522566666667, "bike_id": "7a950680040485944be74628aa92725d", "rental_uris": {"android": "https://dc.lft.to/lastmile_qr_scan", "ios": "https://dc.lft.to/lastmile_qr_scan"}, "name": "7a950680040485944be74628aa92725d", "is_reserved": 0}, {"is_disabled": 0, "fusion_lon": 0.0, "fusion_lat": 0.0, "lat": 38.88598133333333, "type": "electric_scooter", "lon": -77.022099, "bike_id": "3eb087c76255fb7af1674052f55dc8c5", "rental_uris": {"android": "https://dc.lft.to/lastmile_qr_scan", "ios": "https://dc.lft.to/lastmile_qr_scan"}, "name": "3eb087c76255fb7af1674052f55dc8c5", "is_reserved": 0}, {"is_disabled": 0, "fusion_lon": 0.0, "fusion_lat": 0.0, "lat": 38.8919085, "type": "electric_scooter", "lon": -76.98837733333333, "bike_id": "aa043d846ba62618877cc784796de203", "rental_uris": {"android": "https://dc.lft.to/lastmile_qr_scan", "ios": "https://dc.lft.to/lastmile_qr_scan"}, "name": "aa043d846ba62618877cc784796de203", "is_reserved": 0}, {"is_disabled": 0, "fusion_lon": 0.0, "fusion_lat": 0.0, "lat": 38.90013866666666, "type": "electric_scooter", "lon": -77.02629216666666, "bike_id": "8a97ea987660e603b7d7e35bdc384b87", "rental_uris": {"android": "https://dc.lft.to/lastmile_qr_scan", "ios": "https://dc.lft.to/lastmile_qr_scan"}, "name": "8a97ea987660e603b7d7e35bdc384b87", "is_reserved": 0}, {"is_disabled": 0, "fusion_lon": 0.0, "fusion_lat": 0.0, "lat": 38.905224833333335, "type": "electric_scooter", "lon": -77.0321645, "bike_id": "868babd14ced2a16bbcabcc8a341c9fe", "rental_uris": {"android": "https://dc.lft.to/lastmile_qr_scan", "ios": "https://dc.lft.to/lastmile_qr_scan"}, "name": "868babd14ced2a16bbcabcc8a341c9fe", "is_reserved": 0}, {"is_disabled": 0, "fusion_lon": 0.0, "fusion_lat": 0.0, "lat": 38.935072, "type": "electric_scooter", "lon": -77.024173, "bike_id": "8a7d529f8c94e3e999ef235001f88814", "rental_uris": {"android": "https://dc.lft.to/lastmile_qr_scan", "ios": "https://dc.lft.to/lastmile_qr_scan"}, "name": "8a7d529f8c94e3e999ef235001f88814", "is_reserved": 0}, {"is_disabled": 0, "fusion_lon": 0.0, "fusion_lat": 0.0, "lat": 38.91325633333334, "type": "electric_scooter", "lon": -77.032539, "bike_id": "929a6e9a5e90917e3f02cdb1a6a0dcea", "rental_uris": {"android": "https://dc.lft.to/lastmile_qr_scan", "ios": "https://dc.lft.to/lastmile_qr_scan"}, "name": "929a6e9a5e90917e3f02cdb1a6a0dcea", "is_reserved": 0}, {"is_disabled": 0, "fusion_lon": 0.0, "fusion_lat": 0.0, "lat": 38.9056105, "type": "electric_scooter", "lon": -77.03430283333333, "bike_id": "ba514350db00d213a955c50b97bda345", "rental_uris": {"android": "https://dc.lft.to/lastmile_qr_scan", "ios": "https://dc.lft.to/lastmile_qr_scan"}, "name": "ba514350db00d213a955c50b97bda345", "is_reserved": 0}, {"is_disabled": 0, "fusion_lon": 0.0, "fusion_lat": 0.0, "lat": 38.90959483333334, "type": "electric_scooter", "lon": -77.02382683333333, "bike_id": "498dbbb8918303009d92bd14c1956b97", "rental_uris": {"android": "https://dc.lft.to/lastmile_qr_scan", "ios": "https://dc.lft.to/lastmile_qr_scan"}, "name": "498dbbb8918303009d92bd14c1956b97", "is_reserved": 0}, {"is_disabled": 0, "fusion_lon": 0.0, "fusion_lat": 0.0, "lat": 38.9053125, "type": "electric_scooter", "lon": -77.06531016666666, "bike_id": "8ca052c873f4aa45eebb5e2a098d118a", "rental_uris": {"android": "https://dc.lft.to/lastmile_qr_scan", "ios": "https://dc.lft.to/lastmile_qr_scan"}, "name": "8ca052c873f4aa45eebb5e2a098d118a", "is_reserved": 0}, {"is_disabled": 0, "fusion_lon": 0.0, "fusion_lat": 0.0, "lat": 38.918940666666664, "type": "electric_scooter", "lon": -77.07118733333333, "bike_id": "6895dea95e0ced66807fe395a6dd59a4", "rental_uris": {"android": "https://dc.lft.to/lastmile_qr_scan", "ios": "https://dc.lft.to/lastmile_qr_scan"}, "name": "6895dea95e0ced66807fe395a6dd59a4", "is_reserved": 0}, {"is_disabled": 0, "fusion_lon": 0.0, "fusion_lat": 0.0, "lat": 38.8102695, "type": "electric_bike", "lon": -77.08441516666667, "bike_id": "5ea96d69c991f8d466a86a9c2e0b8a28", "rental_uris": {"android": "https://dc.lft.to/lastmile_qr_scan", "ios": "https://dc.lft.to/lastmile_qr_scan"}, "name": "5ea96d69c991f8d466a86a9c2e0b8a28", "is_reserved": 0}, {"is_disabled": 0, "fusion_lon": 0.0, "fusion_lat": 0.0, "lat": 38.942981, "type": "electric_scooter", "lon": -77.02762683333333, "bike_id": "73f11eafaaf1e558d30e41e326496853", "rental_uris": {"android": "https://dc.lft.to/lastmile_qr_scan", "ios": "https://dc.lft.to/lastmile_qr_scan"}, "name": "73f11eafaaf1e558d30e41e326496853", "is_reserved": 0}, {"is_disabled": 0, "fusion_lon": 0.0, "fusion_lat": 0.0, "lat": 38.92581466666667, "type": "electric_scooter", "lon": -77.0321095, "bike_id": "53fc5245a34df370ae11dffb0dcf44a9", "rental_uris": {"android": "https://dc.lft.to/lastmile_qr_scan", "ios": "https://dc.lft.to/lastmile_qr_scan"}, "name": "53fc5245a34df370ae11dffb0dcf44a9", "is_reserved": 0}, {"is_disabled": 0, "fusion_lon": 0.0, "fusion_lat": 0.0, "lat": 38.894124, "type": "electric_scooter", "lon": -77.010855, "bike_id": "43d2812439d0c9cabc05ea3800e850ca", "rental_uris": {"android": "https://dc.lft.to/lastmile_qr_scan", "ios": "https://dc.lft.to/lastmile_qr_scan"}, "name": "43d2812439d0c9cabc05ea3800e850ca", "is_reserved": 0}, {"is_disabled": 0, "fusion_lon": 0.0, "fusion_lat": 0.0, "lat": 38.92071466666667, "type": "electric_scooter", "lon": -77.043786, "bike_id": "f9d0afdd8586dd13461fb39e83bd4046", "rental_uris": {"android": "https://dc.lft.to/lastmile_qr_scan", "ios": "https://dc.lft.to/lastmile_qr_scan"}, "name": "f9d0afdd8586dd13461fb39e83bd4046", "is_reserved": 0}, {"is_disabled": 0, "fusion_lon": 0.0, "fusion_lat": 0.0, "lat": 38.91932933333333, "type": "electric_bike", "lon": -76.9750495, "bike_id": "b9c634902c414df425697380f0e729c6", "rental_uris": {"android": "https://dc.lft.to/lastmile_qr_scan", "ios": "https://dc.lft.to/lastmile_qr_scan"}, "name": "b9c634902c414df425697380f0e729c6", "is_reserved": 0}, {"is_disabled": 0, "fusion_lon": 0.0, "fusion_lat": 0.0, "lat": 38.923350666666664, "type": "electric_scooter", "lon": -77.04187783333333, "bike_id": "395a1ae3c8517d13be5c41666188c763", "rental_uris": {"android": "https://dc.lft.to/lastmile_qr_scan", "ios": "https://dc.lft.to/lastmile_qr_scan"}, "name": "395a1ae3c8517d13be5c41666188c763", "is_reserved": 0}, {"is_disabled": 0, "fusion_lon": 0.0, "fusion_lat": 0.0, "lat": 38.869537333333334, "type": "electric_scooter", "lon": -76.96026483333333, "bike_id": "9a156757ed030b265eb52f15af2333d4", "rental_uris": {"android": "https://dc.lft.to/lastmile_qr_scan", "ios": "https://dc.lft.to/lastmile_qr_scan"}, "name": "9a156757ed030b265eb52f15af2333d4", "is_reserved": 0}, {"is_disabled": 0, "fusion_lon": 0.0, "fusion_lat": 0.0, "lat": 38.89999066666667, "type": "electric_scooter", "lon": -77.03343783333334, "bike_id": "24eb7083d6a0758ad13d4161474b239a", "rental_uris": {"android": "https://dc.lft.to/lastmile_qr_scan", "ios": "https://dc.lft.to/lastmile_qr_scan"}, "name": "24eb7083d6a0758ad13d4161474b239a", "is_reserved": 0}, {"is_disabled": 0, "fusion_lon": 0.0, "fusion_lat": 0.0, "lat": 39.000161166666665, "type": "electric_bike", "lon": -76.87284633333333, "bike_id": "c6b400b5cefe7f564fd806e6cfbd200d", "rental_uris": {"android": "https://dc.lft.to/lastmile_qr_scan", "ios": "https://dc.lft.to/lastmile_qr_scan"}, "name": "c6b400b5cefe7f564fd806e6cfbd200d", "is_reserved": 0}, {"is_disabled": 0, "fusion_lon": 0.0, "fusion_lat": 0.0, "lat": 38.90576166666666, "type": "electric_scooter", "lon": -77.02206383333333, "bike_id": "f1cd00e39f3f56aa810193b7c4dabba3", "rental_uris": {"android": "https://dc.lft.to/lastmile_qr_scan", "ios": "https://dc.lft.to/lastmile_qr_scan"}, "name": "f1cd00e39f3f56aa810193b7c4dabba3", "is_reserved": 0}, {"is_disabled": 0, "fusion_lon": 0.0, "fusion_lat": 0.0, "lat": 38.9128675, "type": "electric_scooter", "lon": -77.0207255, "bike_id": "3d979bc7ff6c4559232bee47bd06f09e", "rental_uris": {"android": "https://dc.lft.to/lastmile_qr_scan", "ios": "https://dc.lft.to/lastmile_qr_scan"}, "name": "3d979bc7ff6c4559232bee47bd06f09e", "is_reserved": 0}, {"is_disabled": 0, "fusion_lon": 0.0, "fusion_lat": 0.0, "lat": 38.9082445, "type": "electric_scooter", "lon": -77.043578, "bike_id": "277566b0813cbe5ef9be5b596dfd9df2", "rental_uris": {"android": "https://dc.lft.to/lastmile_qr_scan", "ios": "https://dc.lft.to/lastmile_qr_scan"}, "name": "277566b0813cbe5ef9be5b596dfd9df2", "is_reserved": 0}, {"is_disabled": 0, "fusion_lon": 0.0, "fusion_lat": 0.0, "lat": 38.828743833333334, "type": "electric_bike", "lon": -77.11222716666667, "bike_id": "8f2dc97fc2f8f603b5d4f30768492ce9", "rental_uris": {"android": "https://dc.lft.to/lastmile_qr_scan", "ios": "https://dc.lft.to/lastmile_qr_scan"}, "name": "8f2dc97fc2f8f603b5d4f30768492ce9", "is_reserved": 0}, {"is_disabled": 0, "fusion_lon": 0.0, "fusion_lat": 0.0, "lat": 38.92481016666667, "type": "electric_scooter", "lon": -77.0271365, "bike_id": "223d4c948a9a25cd02e3e6e7e8f47dd6", "rental_uris": {"android": "https://dc.lft.to/lastmile_qr_scan", "ios": "https://dc.lft.to/lastmile_qr_scan"}, "name": "223d4c948a9a25cd02e3e6e7e8f47dd6", "is_reserved": 0}, {"is_disabled": 0, "fusion_lon": 0.0, "fusion_lat": 0.0, "lat": 38.90848366666667, "type": "electric_scooter", "lon": -77.00375083333333, "bike_id": "c8b27a0709943d19b970eda930359688", "rental_uris": {"android": "https://dc.lft.to/lastmile_qr_scan", "ios": "https://dc.lft.to/lastmile_qr_scan"}, "name": "c8b27a0709943d19b970eda930359688", "is_reserved": 0}, {"is_disabled": 0, "fusion_lon": 0.0, "fusion_lat": 0.0, "lat": 38.90597433333333, "type": "electric_scooter", "lon": -77.073123, "bike_id": "e0833bd68d4dcba770f9d4db4e5bbb97", "rental_uris": {"android": "https://dc.lft.to/lastmile_qr_scan", "ios": "https://dc.lft.to/lastmile_qr_scan"}, "name": "e0833bd68d4dcba770f9d4db4e5bbb97", "is_reserved": 0}, {"is_disabled": 0, "fusion_lon": 0.0, "fusion_lat": 0.0, "lat": 38.919935833333334, "type": "electric_scooter", "lon": -77.0329135, "bike_id": "b7bea3091e2f9d0c3ae09bd6aed1255e", "rental_uris": {"android": "https://dc.lft.to/lastmile_qr_scan", "ios": "https://dc.lft.to/lastmile_qr_scan"}, "name": "b7bea3091e2f9d0c3ae09bd6aed1255e", "is_reserved": 0}, {"is_disabled": 0, "fusion_lon": 0.0, "fusion_lat": 0.0, "lat": 38.8520485, "type": "electric_bike", "lon": -77.12760083333333, "bike_id": "3708efee5f3a4e0d0e1eb7ce77315046", "rental_uris": {"android": "https://dc.lft.to/lastmile_qr_scan", "ios": "https://dc.lft.to/lastmile_qr_scan"}, "name": "3708efee5f3a4e0d0e1eb7ce77315046", "is_reserved": 0}, {"is_disabled": 0, "fusion_lon": 0.0, "fusion_lat": 0.0, "lat": 38.91108633333333, "type": "electric_scooter", "lon": -77.04500816666666, "bike_id": "ccc20b4d16ac2a570038bd3f056e52eb", "rental_uris": {"android": "https://dc.lft.to/lastmile_qr_scan", "ios": "https://dc.lft.to/lastmile_qr_scan"}, "name": "ccc20b4d16ac2a570038bd3f056e52eb", "is_reserved": 0}, {"is_disabled": 0, "fusion_lon": 0.0, "fusion_lat": 0.0, "lat": 38.89250833333333, "type": "electric_scooter", "lon": -76.998507, "bike_id": "62025adfc0c84eb0a274c815e5719487", "rental_uris": {"android": "https://dc.lft.to/lastmile_qr_scan", "ios": "https://dc.lft.to/lastmile_qr_scan"}, "name": "62025adfc0c84eb0a274c815e5719487", "is_reserved": 0}, {"is_disabled": 0, "fusion_lon": 0.0, "fusion_lat": 0.0, "lat": 38.86596216666667, "type": "electric_bike", "lon": -76.932182, "bike_id": "947256bc1b6b41e563a04a0deb2cc044", "rental_uris": {"android": "https://dc.lft.to/lastmile_qr_scan", "ios": "https://dc.lft.to/lastmile_qr_scan"}, "name": "947256bc1b6b41e563a04a0deb2cc044", "is_reserved": 0}, {"is_disabled": 0, "fusion_lon": 0.0, "fusion_lat": 0.0, "lat": 38.90295016666666, "type": "electric_scooter", "lon": -77.05072866666667, "bike_id": "6218e07d6299279fde0eae062023f141", "rental_uris": {"android": "https://dc.lft.to/lastmile_qr_scan", "ios": "https://dc.lft.to/lastmile_qr_scan"}, "name": "6218e07d6299279fde0eae062023f141", "is_reserved": 0}, {"is_disabled": 0, "fusion_lon": 0.0, "fusion_lat": 0.0, "lat": 38.926863833333336, "type": "electric_scooter", "lon": -77.03770383333334, "bike_id": "6cb3c17a169e9ec13288c775bdb2a664", "rental_uris": {"android": "https://dc.lft.to/lastmile_qr_scan", "ios": "https://dc.lft.to/lastmile_qr_scan"}, "name": "6cb3c17a169e9ec13288c775bdb2a664", "is_reserved": 0}, {"is_disabled": 0, "fusion_lon": 0.0, "fusion_lat": 0.0, "lat": 38.944868, "type": "electric_bike", "lon": -77.00673633333334, "bike_id": "56d18ac77e55ccd65e9298eb0a3f76b7", "rental_uris": {"android": "https://dc.lft.to/lastmile_qr_scan", "ios": "https://dc.lft.to/lastmile_qr_scan"}, "name": "56d18ac77e55ccd65e9298eb0a3f76b7", "is_reserved": 0}, {"is_disabled": 0, "fusion_lon": 0.0, "fusion_lat": 0.0, "lat": 38.93606033333333, "type": "electric_scooter", "lon": -77.05862733333333, "bike_id": "e9085506ec6e6cc576d6cf21702b6a42", "rental_uris": {"android": "https://dc.lft.to/lastmile_qr_scan", "ios": "https://dc.lft.to/lastmile_qr_scan"}, "name": "e9085506ec6e6cc576d6cf21702b6a42", "is_reserved": 0}, {"is_disabled": 0, "fusion_lon": 0.0, "fusion_lat": 0.0, "lat": 38.91690083333334, "type": "electric_scooter", "lon": -77.0259725, "bike_id": "61b6d098a5881ea94e8f514d26a8e22c", "rental_uris": {"android": "https://dc.lft.to/lastmile_qr_scan", "ios": "https://dc.lft.to/lastmile_qr_scan"}, "name": "61b6d098a5881ea94e8f514d26a8e22c", "is_reserved": 0}, {"is_disabled": 0, "fusion_lon": 0.0, "fusion_lat": 0.0, "lat": 38.897468833333335, "type": "electric_scooter", "lon": -77.05112633333333, "bike_id": "c707e17f3264d0e086eed568792ae486", "rental_uris": {"android": "https://dc.lft.to/lastmile_qr_scan", "ios": "https://dc.lft.to/lastmile_qr_scan"}, "name": "c707e17f3264d0e086eed568792ae486", "is_reserved": 0}, {"is_disabled": 0, "fusion_lon": 0.0, "fusion_lat": 0.0, "lat": 38.9141825, "type": "electric_scooter", "lon": -77.0142955, "bike_id": "78defb3ef6705065daffd0149611755a", "rental_uris": {"android": "https://dc.lft.to/lastmile_qr_scan", "ios": "https://dc.lft.to/lastmile_qr_scan"}, "name": "78defb3ef6705065daffd0149611755a", "is_reserved": 0}, {"is_disabled": 0, "fusion_lon": 0.0, "fusion_lat": 0.0, "lat": 38.9169575, "type": "electric_scooter", "lon": -77.00648566666666, "bike_id": "4abc4903a75d0fbafd072a0a1d094516", "rental_uris": {"android": "https://dc.lft.to/lastmile_qr_scan", "ios": "https://dc.lft.to/lastmile_qr_scan"}, "name": "4abc4903a75d0fbafd072a0a1d094516", "is_reserved": 0}, {"is_disabled": 0, "fusion_lon": 0.0, "fusion_lat": 0.0, "lat": 38.9057785, "type": "electric_scooter", "lon": -77.02604116666667, "bike_id": "3c01cc40a19413315d0a0aadd1e17dad", "rental_uris": {"android": "https://dc.lft.to/lastmile_qr_scan", "ios": "https://dc.lft.to/lastmile_qr_scan"}, "name": "3c01cc40a19413315d0a0aadd1e17dad", "is_reserved": 0}, {"is_disabled": 0, "fusion_lon": 0.0, "fusion_lat": 0.0, "lat": 38.906469, "type": "electric_scooter", "lon": -77.025335, "bike_id": "4cf293568a6d30de0e08ac5ea6d74419", "rental_uris": {"android": "https://dc.lft.to/lastmile_qr_scan", "ios": "https://dc.lft.to/lastmile_qr_scan"}, "name": "4cf293568a6d30de0e08ac5ea6d74419", "is_reserved": 0}, {"is_disabled": 0, "fusion_lon": 0.0, "fusion_lat": 0.0, "lat": 38.913801666666664, "type": "electric_scooter", "lon": -77.0297105, "bike_id": "e026fdfab9698974d3d445a3d6e5e554", "rental_uris": {"android": "https://dc.lft.to/lastmile_qr_scan", "ios": "https://dc.lft.to/lastmile_qr_scan"}, "name": "e026fdfab9698974d3d445a3d6e5e554", "is_reserved": 0}, {"is_disabled": 0, "fusion_lon": 0.0, "fusion_lat": 0.0, "lat": 38.923812833333336, "type": "electric_scooter", "lon": -77.02761766666667, "bike_id": "f45ba438012f9a64bed22a3d56b751ea", "rental_uris": {"android": "https://dc.lft.to/lastmile_qr_scan", "ios": "https://dc.lft.to/lastmile_qr_scan"}, "name": "f45ba438012f9a64bed22a3d56b751ea", "is_reserved": 0}, {"is_disabled": 0, "fusion_lon": 0.0, "fusion_lat": 0.0, "lat": 38.88350833333333, "type": "electric_scooter", "lon": -76.92789566666667, "bike_id": "08fc598092880a38bf3a7763eff2ad42", "rental_uris": {"android": "https://dc.lft.to/lastmile_qr_scan", "ios": "https://dc.lft.to/lastmile_qr_scan"}, "name": "08fc598092880a38bf3a7763eff2ad42", "is_reserved": 0}, {"is_disabled": 0, "fusion_lon": 0.0, "fusion_lat": 0.0, "lat": 38.8793195, "type": "electric_scooter", "lon": -77.00548733333333, "bike_id": "297cd21ddcfec600e250b80672215dd0", "rental_uris": {"android": "https://dc.lft.to/lastmile_qr_scan", "ios": "https://dc.lft.to/lastmile_qr_scan"}, "name": "297cd21ddcfec600e250b80672215dd0", "is_reserved": 0}, {"is_disabled": 0, "fusion_lon": 0.0, "fusion_lat": 0.0, "lat": 38.892613833333336, "type": "electric_scooter", "lon": -76.94160266666667, "bike_id": "84a96fc9add7788180b588f254585faf", "rental_uris": {"android": "https://dc.lft.to/lastmile_qr_scan", "ios": "https://dc.lft.to/lastmile_qr_scan"}, "name": "84a96fc9add7788180b588f254585faf", "is_reserved": 0}, {"is_disabled": 0, "fusion_lon": 0.0, "fusion_lat": 0.0, "lat": 38.8984955, "type": "electric_bike", "lon": -76.93192183333333, "bike_id": "6853d915bb5857f7c22e7346d607ce46", "rental_uris": {"android": "https://dc.lft.to/lastmile_qr_scan", "ios": "https://dc.lft.to/lastmile_qr_scan"}, "name": "6853d915bb5857f7c22e7346d607ce46", "is_reserved": 0}, {"is_disabled": 0, "fusion_lon": 0.0, "fusion_lat": 0.0, "lat": 38.908183333333334, "type": "electric_scooter", "lon": -77.03349283333333, "bike_id": "10bd57c5f0b20b9a5b8c45f146a349ba", "rental_uris": {"android": "https://dc.lft.to/lastmile_qr_scan", "ios": "https://dc.lft.to/lastmile_qr_scan"}, "name": "10bd57c5f0b20b9a5b8c45f146a349ba", "is_reserved": 0}, {"is_disabled": 0, "fusion_lon": 0.0, "fusion_lat": 0.0, "lat": 38.909478166666666, "type": "electric_scooter", "lon": -77.01528716666667, "bike_id": "edca2d8fe2d89b7476acd6918b5812aa", "rental_uris": {"android": "https://dc.lft.to/lastmile_qr_scan", "ios": "https://dc.lft.to/lastmile_qr_scan"}, "name": "edca2d8fe2d89b7476acd6918b5812aa", "is_reserved": 0}, {"is_disabled": 0, "fusion_lon": 0.0, "fusion_lat": 0.0, "lat": 38.96263166666667, "type": "electric_scooter", "lon": -77.028992, "bike_id": "f1cc2c78e9ecf47950cdf2f657a6094d", "rental_uris": {"android": "https://dc.lft.to/lastmile_qr_scan", "ios": "https://dc.lft.to/lastmile_qr_scan"}, "name": "f1cc2c78e9ecf47950cdf2f657a6094d", "is_reserved": 0}, {"is_disabled": 0, "fusion_lon": 0.0, "fusion_lat": 0.0, "lat": 38.8983325, "type": "electric_scooter", "lon": -76.94633116666667, "bike_id": "699607f7b63493f6793eaa1a508f9cd6", "rental_uris": {"android": "https://dc.lft.to/lastmile_qr_scan", "ios": "https://dc.lft.to/lastmile_qr_scan"}, "name": "699607f7b63493f6793eaa1a508f9cd6", "is_reserved": 0}, {"is_disabled": 0, "fusion_lon": 0.0, "fusion_lat": 0.0, "lat": 38.885337, "type": "electric_scooter", "lon": -76.92705216666667, "bike_id": "1670f17622a96da29949c7a17ec0c379", "rental_uris": {"android": "https://dc.lft.to/lastmile_qr_scan", "ios": "https://dc.lft.to/lastmile_qr_scan"}, "name": "1670f17622a96da29949c7a17ec0c379", "is_reserved": 0}, {"is_disabled": 0, "fusion_lon": 0.0, "fusion_lat": 0.0, "lat": 38.8278325, "type": "electric_bike", "lon": -77.1108065, "bike_id": "5f1b3d272ea41b9f0c0d86c8874eab96", "rental_uris": {"android": "https://dc.lft.to/lastmile_qr_scan", "ios": "https://dc.lft.to/lastmile_qr_scan"}, "name": "5f1b3d272ea41b9f0c0d86c8874eab96", "is_reserved": 0}, {"is_disabled": 0, "fusion_lon": 0.0, "fusion_lat": 0.0, "lat": 38.90789266666667, "type": "electric_scooter", "lon": -77.0305305, "bike_id": "de53952ab3e15224da0df398ad23664c", "rental_uris": {"android": "https://dc.lft.to/lastmile_qr_scan", "ios": "https://dc.lft.to/lastmile_qr_scan"}, "name": "de53952ab3e15224da0df398ad23664c", "is_reserved": 0}, {"is_disabled": 0, "fusion_lon": 0.0, "fusion_lat": 0.0, "lat": 38.91808966666667, "type": "electric_scooter", "lon": -77.03635616666666, "bike_id": "83a7760360a070e5bfcca1fb0672b610", "rental_uris": {"android": "https://dc.lft.to/lastmile_qr_scan", "ios": "https://dc.lft.to/lastmile_qr_scan"}, "name": "83a7760360a070e5bfcca1fb0672b610", "is_reserved": 0}, {"is_disabled": 0, "fusion_lon": 0.0, "fusion_lat": 0.0, "lat": 38.9396395, "type": "electric_scooter", "lon": -77.03283916666666, "bike_id": "a6e9da8980aff884b0749f04c432c0f9", "rental_uris": {"android": "https://dc.lft.to/lastmile_qr_scan", "ios": "https://dc.lft.to/lastmile_qr_scan"}, "name": "a6e9da8980aff884b0749f04c432c0f9", "is_reserved": 0}, {"is_disabled": 0, "fusion_lon": 0.0, "fusion_lat": 0.0, "lat": 38.905358666666665, "type": "electric_scooter", "lon": -77.05645916666667, "bike_id": "40d1780659e56a51e77798f2d7c939d8", "rental_uris": {"android": "https://dc.lft.to/lastmile_qr_scan", "ios": "https://dc.lft.to/lastmile_qr_scan"}, "name": "40d1780659e56a51e77798f2d7c939d8", "is_reserved": 0}, {"is_disabled": 0, "fusion_lon": 0.0, "fusion_lat": 0.0, "lat": 38.923641833333335, "type": "electric_scooter", "lon": -77.050406, "bike_id": "fdaf12e10382e7b9c4a45383ddbfa81b", "rental_uris": {"android": "https://dc.lft.to/lastmile_qr_scan", "ios": "https://dc.lft.to/lastmile_qr_scan"}, "name": "fdaf12e10382e7b9c4a45383ddbfa81b", "is_reserved": 0}, {"is_disabled": 0, "fusion_lon": 0.0, "fusion_lat": 0.0, "lat": 38.90479083333334, "type": "electric_bike", "lon": -76.9505945, "bike_id": "fc788478ca43f531fbeb4a1d972bf45b", "rental_uris": {"android": "https://dc.lft.to/lastmile_qr_scan", "ios": "https://dc.lft.to/lastmile_qr_scan"}, "name": "fc788478ca43f531fbeb4a1d972bf45b", "is_reserved": 0}, {"is_disabled": 0, "fusion_lon": 0.0, "fusion_lat": 0.0, "lat": 38.912621, "type": "electric_scooter", "lon": -77.02557766666666, "bike_id": "a11681fddcb7206ebbb180af835e106f", "rental_uris": {"android": "https://dc.lft.to/lastmile_qr_scan", "ios": "https://dc.lft.to/lastmile_qr_scan"}, "name": "a11681fddcb7206ebbb180af835e106f", "is_reserved": 0}, {"is_disabled": 0, "fusion_lon": 0.0, "fusion_lat": 0.0, "lat": 38.930294, "type": "electric_scooter", "lon": -77.03455016666666, "bike_id": "4002a5c87f59202f8bf1845a7fbfa9cb", "rental_uris": {"android": "https://dc.lft.to/lastmile_qr_scan", "ios": "https://dc.lft.to/lastmile_qr_scan"}, "name": "4002a5c87f59202f8bf1845a7fbfa9cb", "is_reserved": 0}, {"is_disabled": 0, "fusion_lon": 0.0, "fusion_lat": 0.0, "lat": 38.92369, "type": "electric_scooter", "lon": -77.03020516666666, "bike_id": "06e8b21b875f135402e91613537f9993", "rental_uris": {"android": "https://dc.lft.to/lastmile_qr_scan", "ios": "https://dc.lft.to/lastmile_qr_scan"}, "name": "06e8b21b875f135402e91613537f9993", "is_reserved": 0}, {"is_disabled": 0, "fusion_lon": 0.0, "fusion_lat": 0.0, "lat": 38.9260385, "type": "electric_scooter", "lon": -77.02156233333334, "bike_id": "25be481a1ed3dacf821bb6cccd608f75", "rental_uris": {"android": "https://dc.lft.to/lastmile_qr_scan", "ios": "https://dc.lft.to/lastmile_qr_scan"}, "name": "25be481a1ed3dacf821bb6cccd608f75", "is_reserved": 0}, {"is_disabled": 0, "fusion_lon": 0.0, "fusion_lat": 0.0, "lat": 38.91193466666667, "type": "electric_scooter", "lon": -77.04173616666667, "bike_id": "187d0cfd0334d523def4c9334dcf7735", "rental_uris": {"android": "https://dc.lft.to/lastmile_qr_scan", "ios": "https://dc.lft.to/lastmile_qr_scan"}, "name": "187d0cfd0334d523def4c9334dcf7735", "is_reserved": 0}, {"is_disabled": 0, "fusion_lon": 0.0, "fusion_lat": 0.0, "lat": 38.88385, "type": "electric_scooter", "lon": -77.017131, "bike_id": "395ee152fc31978d8b717ea631681e71", "rental_uris": {"android": "https://dc.lft.to/lastmile_qr_scan", "ios": "https://dc.lft.to/lastmile_qr_scan"}, "name": "395ee152fc31978d8b717ea631681e71", "is_reserved": 0}, {"is_disabled": 0, "fusion_lon": 0.0, "fusion_lat": 0.0, "lat": 38.928576, "type": "electric_scooter", "lon": -77.01411366666666, "bike_id": "e3ea84e066ed065c9166901f687f4b6e", "rental_uris": {"android": "https://dc.lft.to/lastmile_qr_scan", "ios": "https://dc.lft.to/lastmile_qr_scan"}, "name": "e3ea84e066ed065c9166901f687f4b6e", "is_reserved": 0}, {"is_disabled": 0, "fusion_lon": 0.0, "fusion_lat": 0.0, "lat": 38.934918, "type": "electric_scooter", "lon": -77.02609516666666, "bike_id": "e4c1f95ee7ca9eee69f87f377d61005e", "rental_uris": {"android": "https://dc.lft.to/lastmile_qr_scan", "ios": "https://dc.lft.to/lastmile_qr_scan"}, "name": "e4c1f95ee7ca9eee69f87f377d61005e", "is_reserved": 0}, {"is_disabled": 0, "fusion_lon": 0.0, "fusion_lat": 0.0, "lat": 38.923696666666665, "type": "electric_scooter", "lon": -77.02814583333334, "bike_id": "a81ae45bcf0b4d40efd1fd505f8135c5", "rental_uris": {"android": "https://dc.lft.to/lastmile_qr_scan", "ios": "https://dc.lft.to/lastmile_qr_scan"}, "name": "a81ae45bcf0b4d40efd1fd505f8135c5", "is_reserved": 0}, {"is_disabled": 0, "fusion_lon": 0.0, "fusion_lat": 0.0, "lat": 38.859195, "type": "electric_scooter", "lon": -76.98783866666666, "bike_id": "9b61ce6244f4e5ee441082fa4f31b531", "rental_uris": {"android": "https://dc.lft.to/lastmile_qr_scan", "ios": "https://dc.lft.to/lastmile_qr_scan"}, "name": "9b61ce6244f4e5ee441082fa4f31b531", "is_reserved": 0}, {"is_disabled": 0, "fusion_lon": 0.0, "fusion_lat": 0.0, "lat": 38.923131166666664, "type": "electric_scooter", "lon": -77.04516016666666, "bike_id": "55ad3484ef262cf88e37fc4a0e8188a1", "rental_uris": {"android": "https://dc.lft.to/lastmile_qr_scan", "ios": "https://dc.lft.to/lastmile_qr_scan"}, "name": "55ad3484ef262cf88e37fc4a0e8188a1", "is_reserved": 0}, {"is_disabled": 0, "fusion_lon": 0.0, "fusion_lat": 0.0, "lat": 38.92048966666667, "type": "electric_scooter", "lon": -77.02611816666666, "bike_id": "c8351d3f77adf7a66f622718832ac952", "rental_uris": {"android": "https://dc.lft.to/lastmile_qr_scan", "ios": "https://dc.lft.to/lastmile_qr_scan"}, "name": "c8351d3f77adf7a66f622718832ac952", "is_reserved": 0}, {"is_disabled": 0, "fusion_lon": 0.0, "fusion_lat": 0.0, "lat": 38.92218716666667, "type": "electric_scooter", "lon": -77.0433615, "bike_id": "57488f456ccaa48d00e847fd5fec4e72", "rental_uris": {"android": "https://dc.lft.to/lastmile_qr_scan", "ios": "https://dc.lft.to/lastmile_qr_scan"}, "name": "57488f456ccaa48d00e847fd5fec4e72", "is_reserved": 0}, {"is_disabled": 0, "fusion_lon": 0.0, "fusion_lat": 0.0, "lat": 38.90473166666666, "type": "electric_scooter", "lon": -77.02724683333334, "bike_id": "1a66dc2352976ce6f4be8fa2da9b8bf2", "rental_uris": {"android": "https://dc.lft.to/lastmile_qr_scan", "ios": "https://dc.lft.to/lastmile_qr_scan"}, "name": "1a66dc2352976ce6f4be8fa2da9b8bf2", "is_reserved": 0}, {"is_disabled": 0, "fusion_lon": 0.0, "fusion_lat": 0.0, "lat": 39.038809666666666, "type": "electric_bike", "lon": -77.10908333333333, "bike_id": "a661c9ded893e6191404ecff1170ac1d", "rental_uris": {"android": "https://dc.lft.to/lastmile_qr_scan", "ios": "https://dc.lft.to/lastmile_qr_scan"}, "name": "a661c9ded893e6191404ecff1170ac1d", "is_reserved": 0}, {"is_disabled": 0, "fusion_lon": 0.0, "fusion_lat": 0.0, "lat": 38.91116183333333, "type": "electric_scooter", "lon": -77.044311, "bike_id": "a901ecac72a729be53aa62cda98c8e80", "rental_uris": {"android": "https://dc.lft.to/lastmile_qr_scan", "ios": "https://dc.lft.to/lastmile_qr_scan"}, "name": "a901ecac72a729be53aa62cda98c8e80", "is_reserved": 0}, {"is_disabled": 0, "fusion_lon": 0.0, "fusion_lat": 0.0, "lat": 38.892937833333335, "type": "electric_bike", "lon": -77.00142833333334, "bike_id": "62d29fbc48dfa33462884d6a6c4b3752", "rental_uris": {"android": "https://dc.lft.to/lastmile_qr_scan", "ios": "https://dc.lft.to/lastmile_qr_scan"}, "name": "62d29fbc48dfa33462884d6a6c4b3752", "is_reserved": 0}, {"is_disabled": 0, "fusion_lon": 0.0, "fusion_lat": 0.0, "lat": 38.88575866666667, "type": "electric_scooter", "lon": -76.919074, "bike_id": "fc895b52c3574af44b521f37a1bf51c9", "rental_uris": {"android": "https://dc.lft.to/lastmile_qr_scan", "ios": "https://dc.lft.to/lastmile_qr_scan"}, "name": "fc895b52c3574af44b521f37a1bf51c9", "is_reserved": 0}, {"is_disabled": 0, "fusion_lon": 0.0, "fusion_lat": 0.0, "lat": 38.95621533333333, "type": "electric_scooter", "lon": -77.02788933333333, "bike_id": "d62fe5b4fa2a379ce80cf54fadced54a", "rental_uris": {"android": "https://dc.lft.to/lastmile_qr_scan", "ios": "https://dc.lft.to/lastmile_qr_scan"}, "name": "d62fe5b4fa2a379ce80cf54fadced54a", "is_reserved": 0}, {"is_disabled": 0, "fusion_lon": 0.0, "fusion_lat": 0.0, "lat": 38.86198316666667, "type": "electric_bike", "lon": -77.05687333333333, "bike_id": "ddf421c332b46f684420ab2c7f8428bf", "rental_uris": {"android": "https://dc.lft.to/lastmile_qr_scan", "ios": "https://dc.lft.to/lastmile_qr_scan"}, "name": "ddf421c332b46f684420ab2c7f8428bf", "is_reserved": 0}, {"is_disabled": 0, "fusion_lon": 0.0, "fusion_lat": 0.0, "lat": 38.9366705, "type": "electric_bike", "lon": -76.952098, "bike_id": "19771952d8088afd208742957f39babb", "rental_uris": {"android": "https://dc.lft.to/lastmile_qr_scan", "ios": "https://dc.lft.to/lastmile_qr_scan"}, "name": "19771952d8088afd208742957f39babb", "is_reserved": 0}, {"is_disabled": 0, "fusion_lon": 0.0, "fusion_lat": 0.0, "lat": 38.8706915, "type": "electric_bike", "lon": -77.11060783333333, "bike_id": "42a69a8f387177075bca44712fbe1f8e", "rental_uris": {"android": "https://dc.lft.to/lastmile_qr_scan", "ios": "https://dc.lft.to/lastmile_qr_scan"}, "name": "42a69a8f387177075bca44712fbe1f8e", "is_reserved": 0}, {"is_disabled": 0, "fusion_lon": 0.0, "fusion_lat": 0.0, "lat": 38.95321716666667, "type": "electric_scooter", "lon": -77.06848583333333, "bike_id": "52bfe9148eab2d448e04c638b11eb648", "rental_uris": {"android": "https://dc.lft.to/lastmile_qr_scan", "ios": "https://dc.lft.to/lastmile_qr_scan"}, "name": "52bfe9148eab2d448e04c638b11eb648", "is_reserved": 0}, {"is_disabled": 0, "fusion_lon": 0.0, "fusion_lat": 0.0, "lat": 38.9356605, "type": "electric_bike", "lon": -77.08273383333334, "bike_id": "b218e99d4457cc7f5bbc2d7294019102", "rental_uris": {"android": "https://dc.lft.to/lastmile_qr_scan", "ios": "https://dc.lft.to/lastmile_qr_scan"}, "name": "b218e99d4457cc7f5bbc2d7294019102", "is_reserved": 0}, {"is_disabled": 0, "fusion_lon": 0.0, "fusion_lat": 0.0, "lat": 38.975387166666664, "type": "electric_bike", "lon": -76.99529783333334, "bike_id": "68aabeb241446d2e54d8352104a17aaf", "rental_uris": {"android": "https://dc.lft.to/lastmile_qr_scan", "ios": "https://dc.lft.to/lastmile_qr_scan"}, "name": "68aabeb241446d2e54d8352104a17aaf", "is_reserved": 0}, {"is_disabled": 0, "fusion_lon": 0.0, "fusion_lat": 0.0, "lat": 38.86909416666667, "type": "electric_bike", "lon": -77.13184916666667, "bike_id": "cfa7e5dd03da768154df50947cccd866", "rental_uris": {"android": "https://dc.lft.to/lastmile_qr_scan", "ios": "https://dc.lft.to/lastmile_qr_scan"}, "name": "cfa7e5dd03da768154df50947cccd866", "is_reserved": 0}, {"is_disabled": 0, "fusion_lon": 0.0, "fusion_lat": 0.0, "lat": 38.910939166666665, "type": "electric_scooter", "lon": -77.00340566666667, "bike_id": "881bdee597520846c282f26f7e68c96b", "rental_uris": {"android": "https://dc.lft.to/lastmile_qr_scan", "ios": "https://dc.lft.to/lastmile_qr_scan"}, "name": "881bdee597520846c282f26f7e68c96b", "is_reserved": 0}, {"is_disabled": 0, "fusion_lon": 0.0, "fusion_lat": 0.0, "lat": 38.908376, "type": "electric_scooter", "lon": -77.0269365, "bike_id": "87de7d083a07a046a58a13b78c259c3c", "rental_uris": {"android": "https://dc.lft.to/lastmile_qr_scan", "ios": "https://dc.lft.to/lastmile_qr_scan"}, "name": "87de7d083a07a046a58a13b78c259c3c", "is_reserved": 0}, {"is_disabled": 0, "fusion_lon": 0.0, "fusion_lat": 0.0, "lat": 38.922876, "type": "electric_scooter", "lon": -77.04232316666666, "bike_id": "4d4a10ceb82a3db64411596bf40164e7", "rental_uris": {"android": "https://dc.lft.to/lastmile_qr_scan", "ios": "https://dc.lft.to/lastmile_qr_scan"}, "name": "4d4a10ceb82a3db64411596bf40164e7", "is_reserved": 0}, {"is_disabled": 0, "fusion_lon": 0.0, "fusion_lat": 0.0, "lat": 38.91271183333333, "type": "electric_scooter", "lon": -77.0222255, "bike_id": "de3842a85411edc1bf9491692166602a", "rental_uris": {"android": "https://dc.lft.to/lastmile_qr_scan", "ios": "https://dc.lft.to/lastmile_qr_scan"}, "name": "de3842a85411edc1bf9491692166602a", "is_reserved": 0}, {"is_disabled": 0, "fusion_lon": 0.0, "fusion_lat": 0.0, "lat": 38.900301, "type": "electric_scooter", "lon": -77.00205233333334, "bike_id": "b6e82b7dba3c21edbe2192b63de0233f", "rental_uris": {"android": "https://dc.lft.to/lastmile_qr_scan", "ios": "https://dc.lft.to/lastmile_qr_scan"}, "name": "b6e82b7dba3c21edbe2192b63de0233f", "is_reserved": 0}, {"is_disabled": 0, "fusion_lon": 0.0, "fusion_lat": 0.0, "lat": 38.9012625, "type": "electric_scooter", "lon": -77.01970516666667, "bike_id": "e25568e52ef378efbb82cd8218ed9349", "rental_uris": {"android": "https://dc.lft.to/lastmile_qr_scan", "ios": "https://dc.lft.to/lastmile_qr_scan"}, "name": "e25568e52ef378efbb82cd8218ed9349", "is_reserved": 0}, {"is_disabled": 0, "fusion_lon": 0.0, "fusion_lat": 0.0, "lat": 38.93496533333333, "type": "electric_scooter", "lon": -77.03438433333334, "bike_id": "2ec16397c239310bdb2b869b018023cd", "rental_uris": {"android": "https://dc.lft.to/lastmile_qr_scan", "ios": "https://dc.lft.to/lastmile_qr_scan"}, "name": "2ec16397c239310bdb2b869b018023cd", "is_reserved": 0}, {"is_disabled": 0, "fusion_lon": 0.0, "fusion_lat": 0.0, "lat": 38.935432666666664, "type": "electric_scooter", "lon": -77.02227383333333, "bike_id": "e853e6ecdef1929fbb872c63697c2163", "rental_uris": {"android": "https://dc.lft.to/lastmile_qr_scan", "ios": "https://dc.lft.to/lastmile_qr_scan"}, "name": "e853e6ecdef1929fbb872c63697c2163", "is_reserved": 0}, {"is_disabled": 0, "fusion_lon": 0.0, "fusion_lat": 0.0, "lat": 38.90397516666667, "type": "electric_scooter", "lon": -77.0327425, "bike_id": "27a4e66d690e45d21cd22904bbf0e925", "rental_uris": {"android": "https://dc.lft.to/lastmile_qr_scan", "ios": "https://dc.lft.to/lastmile_qr_scan"}, "name": "27a4e66d690e45d21cd22904bbf0e925", "is_reserved": 0}, {"is_disabled": 0, "fusion_lon": 0.0, "fusion_lat": 0.0, "lat": 38.896282666666664, "type": "electric_scooter", "lon": -77.00889933333333, "bike_id": "f609ce0686506145d37fc910bab70c19", "rental_uris": {"android": "https://dc.lft.to/lastmile_qr_scan", "ios": "https://dc.lft.to/lastmile_qr_scan"}, "name": "f609ce0686506145d37fc910bab70c19", "is_reserved": 0}, {"is_disabled": 0, "fusion_lon": 0.0, "fusion_lat": 0.0, "lat": 38.924588666666665, "type": "electric_scooter", "lon": -77.029598, "bike_id": "32a366e88a118f22995c27c98eabb0ad", "rental_uris": {"android": "https://dc.lft.to/lastmile_qr_scan", "ios": "https://dc.lft.to/lastmile_qr_scan"}, "name": "32a366e88a118f22995c27c98eabb0ad", "is_reserved": 0}, {"is_disabled": 0, "fusion_lon": 0.0, "fusion_lat": 0.0, "lat": 38.919958333333334, "type": "electric_bike", "lon": -76.97315066666667, "bike_id": "5a90b52b45f64c15547b0422e095adda", "rental_uris": {"android": "https://dc.lft.to/lastmile_qr_scan", "ios": "https://dc.lft.to/lastmile_qr_scan"}, "name": "5a90b52b45f64c15547b0422e095adda", "is_reserved": 0}, {"is_disabled": 0, "fusion_lon": 0.0, "fusion_lat": 0.0, "lat": 38.897365666666666, "type": "electric_scooter", "lon": -77.02166766666667, "bike_id": "c45637b3d37b8e09ed0859371138f53e", "rental_uris": {"android": "https://dc.lft.to/lastmile_qr_scan", "ios": "https://dc.lft.to/lastmile_qr_scan"}, "name": "c45637b3d37b8e09ed0859371138f53e", "is_reserved": 0}, {"is_disabled": 0, "fusion_lon": 0.0, "fusion_lat": 0.0, "lat": 38.978395166666665, "type": "electric_bike", "lon": -77.09127683333334, "bike_id": "49898f4b119f5c6f6f5c09e1fc918ba5", "rental_uris": {"android": "https://dc.lft.to/lastmile_qr_scan", "ios": "https://dc.lft.to/lastmile_qr_scan"}, "name": "49898f4b119f5c6f6f5c09e1fc918ba5", "is_reserved": 0}, {"is_disabled": 0, "fusion_lon": 0.0, "fusion_lat": 0.0, "lat": 38.933775833333335, "type": "electric_scooter", "lon": -77.07256516666666, "bike_id": "475bf6ac4e5105176a4ac0bd251b87b1", "rental_uris": {"android": "https://dc.lft.to/lastmile_qr_scan", "ios": "https://dc.lft.to/lastmile_qr_scan"}, "name": "475bf6ac4e5105176a4ac0bd251b87b1", "is_reserved": 0}, {"is_disabled": 0, "fusion_lon": 0.0, "fusion_lat": 0.0, "lat": 38.91763666666667, "type": "electric_scooter", "lon": -77.03595666666666, "bike_id": "cc767def588bfe259f917f33cc94a968", "rental_uris": {"android": "https://dc.lft.to/lastmile_qr_scan", "ios": "https://dc.lft.to/lastmile_qr_scan"}, "name": "cc767def588bfe259f917f33cc94a968", "is_reserved": 0}, {"is_disabled": 0, "fusion_lon": 0.0, "fusion_lat": 0.0, "lat": 38.916018333333334, "type": "electric_bike", "lon": -76.97158583333334, "bike_id": "1970d5ec8e97e7ea781cf42fbe666a38", "rental_uris": {"android": "https://dc.lft.to/lastmile_qr_scan", "ios": "https://dc.lft.to/lastmile_qr_scan"}, "name": "1970d5ec8e97e7ea781cf42fbe666a38", "is_reserved": 0}, {"is_disabled": 0, "fusion_lon": 0.0, "fusion_lat": 0.0, "lat": 38.92285833333333, "type": "electric_bike", "lon": -76.9976315, "bike_id": "05c1e1f38baf580cf2955a479d9e4fd7", "rental_uris": {"android": "https://dc.lft.to/lastmile_qr_scan", "ios": "https://dc.lft.to/lastmile_qr_scan"}, "name": "05c1e1f38baf580cf2955a479d9e4fd7", "is_reserved": 0}, {"is_disabled": 0, "fusion_lon": 0.0, "fusion_lat": 0.0, "lat": 38.918515, "type": "electric_scooter", "lon": -77.03212333333333, "bike_id": "39703654c88af0d341f3e4977f930c95", "rental_uris": {"android": "https://dc.lft.to/lastmile_qr_scan", "ios": "https://dc.lft.to/lastmile_qr_scan"}, "name": "39703654c88af0d341f3e4977f930c95", "is_reserved": 0}, {"is_disabled": 0, "fusion_lon": 0.0, "fusion_lat": 0.0, "lat": 38.93001733333333, "type": "electric_scooter", "lon": -77.02209316666666, "bike_id": "2e0ec3a52d34e0601632965c5ec5086b", "rental_uris": {"android": "https://dc.lft.to/lastmile_qr_scan", "ios": "https://dc.lft.to/lastmile_qr_scan"}, "name": "2e0ec3a52d34e0601632965c5ec5086b", "is_reserved": 0}, {"is_disabled": 0, "fusion_lon": 0.0, "fusion_lat": 0.0, "lat": 38.926399333333336, "type": "electric_scooter", "lon": -77.04264116666667, "bike_id": "7d153d163a5e4690aa98a7155d0472ad", "rental_uris": {"android": "https://dc.lft.to/lastmile_qr_scan", "ios": "https://dc.lft.to/lastmile_qr_scan"}, "name": "7d153d163a5e4690aa98a7155d0472ad", "is_reserved": 0}, {"is_disabled": 0, "fusion_lon": 0.0, "fusion_lat": 0.0, "lat": 38.905028, "type": "electric_scooter", "lon": -77.029481, "bike_id": "69dd7f383c9b581035616e5568c1fad8", "rental_uris": {"android": "https://dc.lft.to/lastmile_qr_scan", "ios": "https://dc.lft.to/lastmile_qr_scan"}, "name": "69dd7f383c9b581035616e5568c1fad8", "is_reserved": 0}, {"is_disabled": 0, "fusion_lon": 0.0, "fusion_lat": 0.0, "lat": 38.90667416666667, "type": "electric_scooter", "lon": -77.027183, "bike_id": "fe10e7369aa165a594d19ad857903d3b", "rental_uris": {"android": "https://dc.lft.to/lastmile_qr_scan", "ios": "https://dc.lft.to/lastmile_qr_scan"}, "name": "fe10e7369aa165a594d19ad857903d3b", "is_reserved": 0}, {"is_disabled": 0, "fusion_lon": 0.0, "fusion_lat": 0.0, "lat": 38.844227333333336, "type": "electric_scooter", "lon": -76.99780633333333, "bike_id": "83f74e60f329c12b94b776c010725565", "rental_uris": {"android": "https://dc.lft.to/lastmile_qr_scan", "ios": "https://dc.lft.to/lastmile_qr_scan"}, "name": "83f74e60f329c12b94b776c010725565", "is_reserved": 0}, {"is_disabled": 0, "fusion_lon": 0.0, "fusion_lat": 0.0, "lat": 38.913034, "type": "electric_scooter", "lon": -77.0467175, "bike_id": "f98adea428f11c29c59bda92920a2824", "rental_uris": {"android": "https://dc.lft.to/lastmile_qr_scan", "ios": "https://dc.lft.to/lastmile_qr_scan"}, "name": "f98adea428f11c29c59bda92920a2824", "is_reserved": 0}, {"is_disabled": 0, "fusion_lon": 0.0, "fusion_lat": 0.0, "lat": 38.895004, "type": "electric_scooter", "lon": -76.94879933333333, "bike_id": "66b53c751dfbdddf16ec2533680efd9a", "rental_uris": {"android": "https://dc.lft.to/lastmile_qr_scan", "ios": "https://dc.lft.to/lastmile_qr_scan"}, "name": "66b53c751dfbdddf16ec2533680efd9a", "is_reserved": 0}, {"is_disabled": 0, "fusion_lon": 0.0, "fusion_lat": 0.0, "lat": 38.893568333333334, "type": "electric_scooter", "lon": -77.02182666666667, "bike_id": "124e8bfd44eb6f9ac82afe3b95cf82c6", "rental_uris": {"android": "https://dc.lft.to/lastmile_qr_scan", "ios": "https://dc.lft.to/lastmile_qr_scan"}, "name": "124e8bfd44eb6f9ac82afe3b95cf82c6", "is_reserved": 0}, {"is_disabled": 0, "fusion_lon": 0.0, "fusion_lat": 0.0, "lat": 38.91988683333334, "type": "electric_scooter", "lon": -77.03294783333334, "bike_id": "1b08def8421ae8f512f4941b2d265183", "rental_uris": {"android": "https://dc.lft.to/lastmile_qr_scan", "ios": "https://dc.lft.to/lastmile_qr_scan"}, "name": "1b08def8421ae8f512f4941b2d265183", "is_reserved": 0}, {"is_disabled": 0, "fusion_lon": 0.0, "fusion_lat": 0.0, "lat": 38.946068833333335, "type": "electric_scooter", "lon": -77.03463966666666, "bike_id": "b5514ec2e837a2a812736be8a4b73509", "rental_uris": {"android": "https://dc.lft.to/lastmile_qr_scan", "ios": "https://dc.lft.to/lastmile_qr_scan"}, "name": "b5514ec2e837a2a812736be8a4b73509", "is_reserved": 0}, {"is_disabled": 0, "fusion_lon": 0.0, "fusion_lat": 0.0, "lat": 38.921464666666665, "type": "electric_scooter", "lon": -77.03506316666666, "bike_id": "a6ee93831fa1d0e3e1db995461f95985", "rental_uris": {"android": "https://dc.lft.to/lastmile_qr_scan", "ios": "https://dc.lft.to/lastmile_qr_scan"}, "name": "a6ee93831fa1d0e3e1db995461f95985", "is_reserved": 0}, {"is_disabled": 0, "fusion_lon": 0.0, "fusion_lat": 0.0, "lat": 38.91804583333333, "type": "electric_scooter", "lon": -77.02446433333333, "bike_id": "45c62099087df991a3c196eb7b62d6c8", "rental_uris": {"android": "https://dc.lft.to/lastmile_qr_scan", "ios": "https://dc.lft.to/lastmile_qr_scan"}, "name": "45c62099087df991a3c196eb7b62d6c8", "is_reserved": 0}, {"is_disabled": 0, "fusion_lon": 0.0, "fusion_lat": 0.0, "lat": 38.908755166666666, "type": "electric_scooter", "lon": -77.002796, "bike_id": "bb2e2bf0791a234ac69d0ad304a87201", "rental_uris": {"android": "https://dc.lft.to/lastmile_qr_scan", "ios": "https://dc.lft.to/lastmile_qr_scan"}, "name": "bb2e2bf0791a234ac69d0ad304a87201", "is_reserved": 0}, {"is_disabled": 0, "fusion_lon": 0.0, "fusion_lat": 0.0, "lat": 38.863402, "type": "electric_scooter", "lon": -76.98260666666667, "bike_id": "4184681b11b25f02e64dcced0ffb4680", "rental_uris": {"android": "https://dc.lft.to/lastmile_qr_scan", "ios": "https://dc.lft.to/lastmile_qr_scan"}, "name": "4184681b11b25f02e64dcced0ffb4680", "is_reserved": 0}, {"is_disabled": 0, "fusion_lon": 0.0, "fusion_lat": 0.0, "lat": 38.887254, "type": "electric_scooter", "lon": -77.02200216666667, "bike_id": "860fe15813e43e34259f84daf22fec99", "rental_uris": {"android": "https://dc.lft.to/lastmile_qr_scan", "ios": "https://dc.lft.to/lastmile_qr_scan"}, "name": "860fe15813e43e34259f84daf22fec99", "is_reserved": 0}, {"is_disabled": 0, "fusion_lon": 0.0, "fusion_lat": 0.0, "lat": 38.9203025, "type": "electric_scooter", "lon": -77.02586133333334, "bike_id": "c5578d5670b15f87173c789e8a2ad96f", "rental_uris": {"android": "https://dc.lft.to/lastmile_qr_scan", "ios": "https://dc.lft.to/lastmile_qr_scan"}, "name": "c5578d5670b15f87173c789e8a2ad96f", "is_reserved": 0}, {"is_disabled": 0, "fusion_lon": 0.0, "fusion_lat": 0.0, "lat": 38.91804783333333, "type": "electric_scooter", "lon": -77.02685983333333, "bike_id": "284fbf56e33e3cfc25032a0d2c61432b", "rental_uris": {"android": "https://dc.lft.to/lastmile_qr_scan", "ios": "https://dc.lft.to/lastmile_qr_scan"}, "name": "284fbf56e33e3cfc25032a0d2c61432b", "is_reserved": 0}, {"is_disabled": 0, "fusion_lon": 0.0, "fusion_lat": 0.0, "lat": 38.956298333333336, "type": "electric_scooter", "lon": -77.02459933333333, "bike_id": "fae92871eff297edc86d5903c9727a54", "rental_uris": {"android": "https://dc.lft.to/lastmile_qr_scan", "ios": "https://dc.lft.to/lastmile_qr_scan"}, "name": "fae92871eff297edc86d5903c9727a54", "is_reserved": 0}, {"is_disabled": 0, "fusion_lon": 0.0, "fusion_lat": 0.0, "lat": 38.92439683333333, "type": "electric_scooter", "lon": -77.040338, "bike_id": "7c7422851900c1af482ba525a56fc39f", "rental_uris": {"android": "https://dc.lft.to/lastmile_qr_scan", "ios": "https://dc.lft.to/lastmile_qr_scan"}, "name": "7c7422851900c1af482ba525a56fc39f", "is_reserved": 0}, {"is_disabled": 0, "fusion_lon": 0.0, "fusion_lat": 0.0, "lat": 38.91608766666667, "type": "electric_scooter", "lon": -77.0233615, "bike_id": "25f0617d515a17072830750e79b2824e", "rental_uris": {"android": "https://dc.lft.to/lastmile_qr_scan", "ios": "https://dc.lft.to/lastmile_qr_scan"}, "name": "25f0617d515a17072830750e79b2824e", "is_reserved": 0}, {"is_disabled": 0, "fusion_lon": 0.0, "fusion_lat": 0.0, "lat": 38.916348, "type": "electric_scooter", "lon": -77.0462255, "bike_id": "a80b56280510d83d6eb54f167974e0c2", "rental_uris": {"android": "https://dc.lft.to/lastmile_qr_scan", "ios": "https://dc.lft.to/lastmile_qr_scan"}, "name": "a80b56280510d83d6eb54f167974e0c2", "is_reserved": 0}, {"is_disabled": 0, "fusion_lon": 0.0, "fusion_lat": 0.0, "lat": 39.11504033333333, "type": "electric_bike", "lon": -77.19550116666667, "bike_id": "cd4e1fe8ae8d06f46c078b484d2ad90c", "rental_uris": {"android": "https://dc.lft.to/lastmile_qr_scan", "ios": "https://dc.lft.to/lastmile_qr_scan"}, "name": "cd4e1fe8ae8d06f46c078b484d2ad90c", "is_reserved": 0}, {"is_disabled": 0, "fusion_lon": 0.0, "fusion_lat": 0.0, "lat": 38.99251016666667, "type": "electric_bike", "lon": -77.04999016666666, "bike_id": "279d3439e07fc29dd501b93655fbbd95", "rental_uris": {"android": "https://dc.lft.to/lastmile_qr_scan", "ios": "https://dc.lft.to/lastmile_qr_scan"}, "name": "279d3439e07fc29dd501b93655fbbd95", "is_reserved": 0}, {"is_disabled": 0, "fusion_lon": 0.0, "fusion_lat": 0.0, "lat": 38.838094166666664, "type": "electric_scooter", "lon": -77.004374, "bike_id": "884c52abdf02aee98ddfcb738e9eb23a", "rental_uris": {"android": "https://dc.lft.to/lastmile_qr_scan", "ios": "https://dc.lft.to/lastmile_qr_scan"}, "name": "884c52abdf02aee98ddfcb738e9eb23a", "is_reserved": 0}, {"is_disabled": 0, "fusion_lon": 0.0, "fusion_lat": 0.0, "lat": 38.990825666666666, "type": "electric_bike", "lon": -77.0017765, "bike_id": "fc47f1e1acab88f7553f973b77a64c05", "rental_uris": {"android": "https://dc.lft.to/lastmile_qr_scan", "ios": "https://dc.lft.to/lastmile_qr_scan"}, "name": "fc47f1e1acab88f7553f973b77a64c05", "is_reserved": 0}, {"is_disabled": 0, "fusion_lon": 0.0, "fusion_lat": 0.0, "lat": 38.8571205, "type": "electric_bike", "lon": -76.98113066666667, "bike_id": "d2467c977f7198d226955370f325f9da", "rental_uris": {"android": "https://dc.lft.to/lastmile_qr_scan", "ios": "https://dc.lft.to/lastmile_qr_scan"}, "name": "d2467c977f7198d226955370f325f9da", "is_reserved": 0}, {"is_disabled": 0, "fusion_lon": 0.0, "fusion_lat": 0.0, "lat": 38.94304283333334, "type": "electric_scooter", "lon": -77.02350666666666, "bike_id": "e31c4b00fa4c7647e881b61d57b84b4b", "rental_uris": {"android": "https://dc.lft.to/lastmile_qr_scan", "ios": "https://dc.lft.to/lastmile_qr_scan"}, "name": "e31c4b00fa4c7647e881b61d57b84b4b", "is_reserved": 0}, {"is_disabled": 0, "fusion_lon": 0.0, "fusion_lat": 0.0, "lat": 38.83117983333333, "type": "electric_bike", "lon": -77.04327116666667, "bike_id": "2950802d7274416dcfb0423bc7d3d541", "rental_uris": {"android": "https://dc.lft.to/lastmile_qr_scan", "ios": "https://dc.lft.to/lastmile_qr_scan"}, "name": "2950802d7274416dcfb0423bc7d3d541", "is_reserved": 0}, {"is_disabled": 0, "fusion_lon": 0.0, "fusion_lat": 0.0, "lat": 38.938737, "type": "electric_scooter", "lon": -77.03327666666667, "bike_id": "80bef93024674371762ab459225ee3d0", "rental_uris": {"android": "https://dc.lft.to/lastmile_qr_scan", "ios": "https://dc.lft.to/lastmile_qr_scan"}, "name": "80bef93024674371762ab459225ee3d0", "is_reserved": 0}, {"is_disabled": 0, "fusion_lon": 0.0, "fusion_lat": 0.0, "lat": 38.930456666666664, "type": "electric_scooter", "lon": -77.00416966666667, "bike_id": "fb6234c26d3bb0d7da0f68cb09047af7", "rental_uris": {"android": "https://dc.lft.to/lastmile_qr_scan", "ios": "https://dc.lft.to/lastmile_qr_scan"}, "name": "fb6234c26d3bb0d7da0f68cb09047af7", "is_reserved": 0}, {"is_disabled": 0, "fusion_lon": 0.0, "fusion_lat": 0.0, "lat": 38.87895416666667, "type": "electric_scooter", "lon": -76.93521733333333, "bike_id": "78c6cf7865c58e51c2bf6f8d7098e5c0", "rental_uris": {"android": "https://dc.lft.to/lastmile_qr_scan", "ios": "https://dc.lft.to/lastmile_qr_scan"}, "name": "78c6cf7865c58e51c2bf6f8d7098e5c0", "is_reserved": 0}, {"is_disabled": 0, "fusion_lon": 0.0, "fusion_lat": 0.0, "lat": 38.9130165, "type": "electric_scooter", "lon": -77.03829916666666, "bike_id": "356bee9fd309567211e4b08f2711b0b0", "rental_uris": {"android": "https://dc.lft.to/lastmile_qr_scan", "ios": "https://dc.lft.to/lastmile_qr_scan"}, "name": "356bee9fd309567211e4b08f2711b0b0", "is_reserved": 0}, {"is_disabled": 0, "fusion_lon": 0.0, "fusion_lat": 0.0, "lat": 38.8996805, "type": "electric_scooter", "lon": -77.05142966666666, "bike_id": "f5435f2c7a906296909ef8ca0a37a4e3", "rental_uris": {"android": "https://dc.lft.to/lastmile_qr_scan", "ios": "https://dc.lft.to/lastmile_qr_scan"}, "name": "f5435f2c7a906296909ef8ca0a37a4e3", "is_reserved": 0}, {"is_disabled": 0, "fusion_lon": 0.0, "fusion_lat": 0.0, "lat": 38.912675166666666, "type": "electric_scooter", "lon": -77.03870716666667, "bike_id": "8ea231f2e7cb888a36345534850b0fff", "rental_uris": {"android": "https://dc.lft.to/lastmile_qr_scan", "ios": "https://dc.lft.to/lastmile_qr_scan"}, "name": "8ea231f2e7cb888a36345534850b0fff", "is_reserved": 0}, {"is_disabled": 0, "fusion_lon": 0.0, "fusion_lat": 0.0, "lat": 38.936049, "type": "electric_scooter", "lon": -77.058623, "bike_id": "5d6f31ffcddb7e39f8ef282426c4dc21", "rental_uris": {"android": "https://dc.lft.to/lastmile_qr_scan", "ios": "https://dc.lft.to/lastmile_qr_scan"}, "name": "5d6f31ffcddb7e39f8ef282426c4dc21", "is_reserved": 0}, {"is_disabled": 0, "fusion_lon": 0.0, "fusion_lat": 0.0, "lat": 38.885912833333336, "type": "electric_scooter", "lon": -77.01764166666666, "bike_id": "9ce710cd53ef8d22a72e8049e29c8a7d", "rental_uris": {"android": "https://dc.lft.to/lastmile_qr_scan", "ios": "https://dc.lft.to/lastmile_qr_scan"}, "name": "9ce710cd53ef8d22a72e8049e29c8a7d", "is_reserved": 0}, {"is_disabled": 0, "fusion_lon": 0.0, "fusion_lat": 0.0, "lat": 38.923313666666665, "type": "electric_scooter", "lon": -77.04184183333334, "bike_id": "d6d5ecff0556d5847c3c906a877ad6b2", "rental_uris": {"android": "https://dc.lft.to/lastmile_qr_scan", "ios": "https://dc.lft.to/lastmile_qr_scan"}, "name": "d6d5ecff0556d5847c3c906a877ad6b2", "is_reserved": 0}, {"is_disabled": 0, "fusion_lon": 0.0, "fusion_lat": 0.0, "lat": 38.877082, "type": "electric_scooter", "lon": -77.00508616666667, "bike_id": "332c4d4863629bf20e05150f28ef7ce0", "rental_uris": {"android": "https://dc.lft.to/lastmile_qr_scan", "ios": "https://dc.lft.to/lastmile_qr_scan"}, "name": "332c4d4863629bf20e05150f28ef7ce0", "is_reserved": 0}, {"is_disabled": 0, "fusion_lon": 0.0, "fusion_lat": 0.0, "lat": 38.900622, "type": "electric_scooter", "lon": -76.9338635, "bike_id": "201225956818709c7b68eb22d5f70a0e", "rental_uris": {"android": "https://dc.lft.to/lastmile_qr_scan", "ios": "https://dc.lft.to/lastmile_qr_scan"}, "name": "201225956818709c7b68eb22d5f70a0e", "is_reserved": 0}, {"is_disabled": 0, "fusion_lon": 0.0, "fusion_lat": 0.0, "lat": 38.91916166666667, "type": "electric_scooter", "lon": -77.03429083333333, "bike_id": "0af8267248bcb6f383980dd4bfce79aa", "rental_uris": {"android": "https://dc.lft.to/lastmile_qr_scan", "ios": "https://dc.lft.to/lastmile_qr_scan"}, "name": "0af8267248bcb6f383980dd4bfce79aa", "is_reserved": 0}, {"is_disabled": 0, "fusion_lon": 0.0, "fusion_lat": 0.0, "lat": 38.920758166666666, "type": "electric_scooter", "lon": -77.01798566666666, "bike_id": "3eb6adf0ffd0230b937e54e1b424f944", "rental_uris": {"android": "https://dc.lft.to/lastmile_qr_scan", "ios": "https://dc.lft.to/lastmile_qr_scan"}, "name": "3eb6adf0ffd0230b937e54e1b424f944", "is_reserved": 0}, {"is_disabled": 0, "fusion_lon": 0.0, "fusion_lat": 0.0, "lat": 38.86582, "type": "electric_scooter", "lon": -76.99039133333333, "bike_id": "a8da5570762abf45f4e3a3434d367272", "rental_uris": {"android": "https://dc.lft.to/lastmile_qr_scan", "ios": "https://dc.lft.to/lastmile_qr_scan"}, "name": "a8da5570762abf45f4e3a3434d367272", "is_reserved": 0}, {"is_disabled": 0, "fusion_lon": 0.0, "fusion_lat": 0.0, "lat": 38.905333166666665, "type": "electric_scooter", "lon": -77.04668366666667, "bike_id": "58c3a2fa1788473c2dfe0961f4527f86", "rental_uris": {"android": "https://dc.lft.to/lastmile_qr_scan", "ios": "https://dc.lft.to/lastmile_qr_scan"}, "name": "58c3a2fa1788473c2dfe0961f4527f86", "is_reserved": 0}, {"is_disabled": 0, "fusion_lon": 0.0, "fusion_lat": 0.0, "lat": 38.9191835, "type": "electric_scooter", "lon": -77.03425766666666, "bike_id": "848bbc25b7e4ed86f2903b07ec14b95b", "rental_uris": {"android": "https://dc.lft.to/lastmile_qr_scan", "ios": "https://dc.lft.to/lastmile_qr_scan"}, "name": "848bbc25b7e4ed86f2903b07ec14b95b", "is_reserved": 0}, {"is_disabled": 0, "fusion_lon": 0.0, "fusion_lat": 0.0, "lat": 38.90177933333333, "type": "electric_scooter", "lon": -76.92826383333333, "bike_id": "e20e67eae17966801ee68018f1bd1e20", "rental_uris": {"android": "https://dc.lft.to/lastmile_qr_scan", "ios": "https://dc.lft.to/lastmile_qr_scan"}, "name": "e20e67eae17966801ee68018f1bd1e20", "is_reserved": 0}, {"is_disabled": 0, "fusion_lon": 0.0, "fusion_lat": 0.0, "lat": 38.931004, "type": "electric_scooter", "lon": -77.0348335, "bike_id": "cf891028b8a02c90d86e77f54af6f937", "rental_uris": {"android": "https://dc.lft.to/lastmile_qr_scan", "ios": "https://dc.lft.to/lastmile_qr_scan"}, "name": "cf891028b8a02c90d86e77f54af6f937", "is_reserved": 0}, {"is_disabled": 0, "fusion_lon": 0.0, "fusion_lat": 0.0, "lat": 38.887170833333336, "type": "electric_scooter", "lon": -77.02828833333334, "bike_id": "af7a4f68e3353186a9bff45459b4453e", "rental_uris": {"android": "https://dc.lft.to/lastmile_qr_scan", "ios": "https://dc.lft.to/lastmile_qr_scan"}, "name": "af7a4f68e3353186a9bff45459b4453e", "is_reserved": 0}, {"is_disabled": 0, "fusion_lon": 0.0, "fusion_lat": 0.0, "lat": 38.932048333333334, "type": "electric_scooter", "lon": -77.036674, "bike_id": "b8586338fc1bacf2ebed268476db1453", "rental_uris": {"android": "https://dc.lft.to/lastmile_qr_scan", "ios": "https://dc.lft.to/lastmile_qr_scan"}, "name": "b8586338fc1bacf2ebed268476db1453", "is_reserved": 0}, {"is_disabled": 0, "fusion_lon": 0.0, "fusion_lat": 0.0, "lat": 38.89618, "type": "electric_scooter", "lon": -76.9963625, "bike_id": "39d912b2cda5fe7daad5551d8c50de02", "rental_uris": {"android": "https://dc.lft.to/lastmile_qr_scan", "ios": "https://dc.lft.to/lastmile_qr_scan"}, "name": "39d912b2cda5fe7daad5551d8c50de02", "is_reserved": 0}, {"is_disabled": 0, "fusion_lon": 0.0, "fusion_lat": 0.0, "lat": 38.91871233333333, "type": "electric_bike", "lon": -76.96126683333334, "bike_id": "3801b495a08b25f5ec8723919385c4f6", "rental_uris": {"android": "https://dc.lft.to/lastmile_qr_scan", "ios": "https://dc.lft.to/lastmile_qr_scan"}, "name": "3801b495a08b25f5ec8723919385c4f6", "is_reserved": 0}, {"is_disabled": 0, "fusion_lon": 0.0, "fusion_lat": 0.0, "lat": 38.912781833333334, "type": "electric_scooter", "lon": -77.01397133333333, "bike_id": "414292818a86ca6955f04f5e33ca565b", "rental_uris": {"android": "https://dc.lft.to/lastmile_qr_scan", "ios": "https://dc.lft.to/lastmile_qr_scan"}, "name": "414292818a86ca6955f04f5e33ca565b", "is_reserved": 0}, {"is_disabled": 0, "fusion_lon": 0.0, "fusion_lat": 0.0, "lat": 38.918820833333335, "type": "electric_scooter", "lon": -77.04420383333333, "bike_id": "524adacc9802547ea235be716f85dbb2", "rental_uris": {"android": "https://dc.lft.to/lastmile_qr_scan", "ios": "https://dc.lft.to/lastmile_qr_scan"}, "name": "524adacc9802547ea235be716f85dbb2", "is_reserved": 0}, {"is_disabled": 0, "fusion_lon": 0.0, "fusion_lat": 0.0, "lat": 38.90806716666667, "type": "electric_scooter", "lon": -77.03388866666667, "bike_id": "2d4f6c604ae5184affba1f6b54d747f1", "rental_uris": {"android": "https://dc.lft.to/lastmile_qr_scan", "ios": "https://dc.lft.to/lastmile_qr_scan"}, "name": "2d4f6c604ae5184affba1f6b54d747f1", "is_reserved": 0}, {"is_disabled": 0, "fusion_lon": 0.0, "fusion_lat": 0.0, "lat": 38.94785816666667, "type": "electric_scooter", "lon": -77.092788, "bike_id": "5aa91d7cc223e57462d5448e278a097e", "rental_uris": {"android": "https://dc.lft.to/lastmile_qr_scan", "ios": "https://dc.lft.to/lastmile_qr_scan"}, "name": "5aa91d7cc223e57462d5448e278a097e", "is_reserved": 0}, {"is_disabled": 0, "fusion_lon": 0.0, "fusion_lat": 0.0, "lat": 38.90521966666667, "type": "electric_scooter", "lon": -77.051551, "bike_id": "1c141f896e0a607e74cdf3a203daa5b8", "rental_uris": {"android": "https://dc.lft.to/lastmile_qr_scan", "ios": "https://dc.lft.to/lastmile_qr_scan"}, "name": "1c141f896e0a607e74cdf3a203daa5b8", "is_reserved": 0}, {"is_disabled": 0, "fusion_lon": 0.0, "fusion_lat": 0.0, "lat": 38.95632033333333, "type": "electric_scooter", "lon": -77.02983116666667, "bike_id": "955e37c4f69eb1de0b071eebf9b862e3", "rental_uris": {"android": "https://dc.lft.to/lastmile_qr_scan", "ios": "https://dc.lft.to/lastmile_qr_scan"}, "name": "955e37c4f69eb1de0b071eebf9b862e3", "is_reserved": 0}, {"is_disabled": 0, "fusion_lon": 0.0, "fusion_lat": 0.0, "lat": 38.8815135, "type": "electric_scooter", "lon": -77.00866183333333, "bike_id": "9b2135ccddfaab0d82ffb618bd63461e", "rental_uris": {"android": "https://dc.lft.to/lastmile_qr_scan", "ios": "https://dc.lft.to/lastmile_qr_scan"}, "name": "9b2135ccddfaab0d82ffb618bd63461e", "is_reserved": 0}, {"is_disabled": 0, "fusion_lon": 0.0, "fusion_lat": 0.0, "lat": 38.85980416666666, "type": "electric_scooter", "lon": -76.98419833333334, "bike_id": "ec6a35cbd86e824ee7308b6310f1aee9", "rental_uris": {"android": "https://dc.lft.to/lastmile_qr_scan", "ios": "https://dc.lft.to/lastmile_qr_scan"}, "name": "ec6a35cbd86e824ee7308b6310f1aee9", "is_reserved": 0}, {"is_disabled": 0, "fusion_lon": 0.0, "fusion_lat": 0.0, "lat": 38.92737283333334, "type": "electric_bike", "lon": -76.99368116666666, "bike_id": "e1ad23334732063d81883ddf853fe011", "rental_uris": {"android": "https://dc.lft.to/lastmile_qr_scan", "ios": "https://dc.lft.to/lastmile_qr_scan"}, "name": "e1ad23334732063d81883ddf853fe011", "is_reserved": 0}, {"is_disabled": 0, "fusion_lon": 0.0, "fusion_lat": 0.0, "lat": 38.85064716666667, "type": "electric_bike", "lon": -76.97330666666667, "bike_id": "a53f1240120c45b06894d415344689fd", "rental_uris": {"android": "https://dc.lft.to/lastmile_qr_scan", "ios": "https://dc.lft.to/lastmile_qr_scan"}, "name": "a53f1240120c45b06894d415344689fd", "is_reserved": 0}, {"is_disabled": 0, "fusion_lon": 0.0, "fusion_lat": 0.0, "lat": 38.919038666666665, "type": "electric_scooter", "lon": -77.0275975, "bike_id": "e298fc6a7a5ab4f211fdaca85a285b4e", "rental_uris": {"android": "https://dc.lft.to/lastmile_qr_scan", "ios": "https://dc.lft.to/lastmile_qr_scan"}, "name": "e298fc6a7a5ab4f211fdaca85a285b4e", "is_reserved": 0}, {"is_disabled": 0, "fusion_lon": 0.0, "fusion_lat": 0.0, "lat": 38.924838, "type": "electric_scooter", "lon": -77.02713283333334, "bike_id": "b0d52f4964f4011fe795f3065d7649b2", "rental_uris": {"android": "https://dc.lft.to/lastmile_qr_scan", "ios": "https://dc.lft.to/lastmile_qr_scan"}, "name": "b0d52f4964f4011fe795f3065d7649b2", "is_reserved": 0}, {"is_disabled": 0, "fusion_lon": 0.0, "fusion_lat": 0.0, "lat": 38.91804233333333, "type": "electric_scooter", "lon": -77.035577, "bike_id": "ee08a88a58ff70964a5f6bb8bd471048", "rental_uris": {"android": "https://dc.lft.to/lastmile_qr_scan", "ios": "https://dc.lft.to/lastmile_qr_scan"}, "name": "ee08a88a58ff70964a5f6bb8bd471048", "is_reserved": 0}, {"is_disabled": 0, "fusion_lon": 0.0, "fusion_lat": 0.0, "lat": 38.90497233333333, "type": "electric_scooter", "lon": -77.02955716666666, "bike_id": "2b31a9a27450fd6be19dd6cf3703dece", "rental_uris": {"android": "https://dc.lft.to/lastmile_qr_scan", "ios": "https://dc.lft.to/lastmile_qr_scan"}, "name": "2b31a9a27450fd6be19dd6cf3703dece", "is_reserved": 0}, {"is_disabled": 0, "fusion_lon": 0.0, "fusion_lat": 0.0, "lat": 38.92792933333333, "type": "electric_scooter", "lon": -77.02295066666667, "bike_id": "695de630d70968ead33faf6c886780a5", "rental_uris": {"android": "https://dc.lft.to/lastmile_qr_scan", "ios": "https://dc.lft.to/lastmile_qr_scan"}, "name": "695de630d70968ead33faf6c886780a5", "is_reserved": 0}, {"is_disabled": 0, "fusion_lon": 0.0, "fusion_lat": 0.0, "lat": 38.89505416666667, "type": "electric_scooter", "lon": -77.01606366666667, "bike_id": "89dd69f874f8efec98e589a7afb7c10e", "rental_uris": {"android": "https://dc.lft.to/lastmile_qr_scan", "ios": "https://dc.lft.to/lastmile_qr_scan"}, "name": "89dd69f874f8efec98e589a7afb7c10e", "is_reserved": 0}, {"is_disabled": 0, "fusion_lon": 0.0, "fusion_lat": 0.0, "lat": 38.84594, "type": "electric_bike", "lon": -76.96888666666666, "bike_id": "26ba1553fa8f6563c548a8cf482b1350", "rental_uris": {"android": "https://dc.lft.to/lastmile_qr_scan", "ios": "https://dc.lft.to/lastmile_qr_scan"}, "name": "26ba1553fa8f6563c548a8cf482b1350", "is_reserved": 0}, {"is_disabled": 0, "fusion_lon": 0.0, "fusion_lat": 0.0, "lat": 38.899095333333335, "type": "electric_scooter", "lon": -76.93392966666667, "bike_id": "e17bc5b7406da550bccb0fd5dd782e3c", "rental_uris": {"android": "https://dc.lft.to/lastmile_qr_scan", "ios": "https://dc.lft.to/lastmile_qr_scan"}, "name": "e17bc5b7406da550bccb0fd5dd782e3c", "is_reserved": 0}, {"is_disabled": 0, "fusion_lon": 0.0, "fusion_lat": 0.0, "lat": 38.911098833333334, "type": "electric_scooter", "lon": -77.0382935, "bike_id": "03ec647b6e63a77176dc5bcaa31fe2a2", "rental_uris": {"android": "https://dc.lft.to/lastmile_qr_scan", "ios": "https://dc.lft.to/lastmile_qr_scan"}, "name": "03ec647b6e63a77176dc5bcaa31fe2a2", "is_reserved": 0}, {"is_disabled": 0, "fusion_lon": 0.0, "fusion_lat": 0.0, "lat": 38.927480333333335, "type": "electric_scooter", "lon": -77.07590333333333, "bike_id": "ef58437902d3b72892b97a39516de33a", "rental_uris": {"android": "https://dc.lft.to/lastmile_qr_scan", "ios": "https://dc.lft.to/lastmile_qr_scan"}, "name": "ef58437902d3b72892b97a39516de33a", "is_reserved": 0}, {"is_disabled": 0, "fusion_lon": 0.0, "fusion_lat": 0.0, "lat": 38.95962866666667, "type": "electric_scooter", "lon": -77.0211915, "bike_id": "4b427f289bd3fa1acdbb17724678cb39", "rental_uris": {"android": "https://dc.lft.to/lastmile_qr_scan", "ios": "https://dc.lft.to/lastmile_qr_scan"}, "name": "4b427f289bd3fa1acdbb17724678cb39", "is_reserved": 0}, {"is_disabled": 0, "fusion_lon": 0.0, "fusion_lat": 0.0, "lat": 38.92122416666667, "type": "electric_scooter", "lon": -77.0121285, "bike_id": "8b457d454b22e9d78dc8178e873e46c9", "rental_uris": {"android": "https://dc.lft.to/lastmile_qr_scan", "ios": "https://dc.lft.to/lastmile_qr_scan"}, "name": "8b457d454b22e9d78dc8178e873e46c9", "is_reserved": 0}, {"is_disabled": 0, "fusion_lon": 0.0, "fusion_lat": 0.0, "lat": 38.90752783333333, "type": "electric_scooter", "lon": -77.03590733333333, "bike_id": "ecf8cfadeececfda616209f249012789", "rental_uris": {"android": "https://dc.lft.to/lastmile_qr_scan", "ios": "https://dc.lft.to/lastmile_qr_scan"}, "name": "ecf8cfadeececfda616209f249012789", "is_reserved": 0}, {"is_disabled": 0, "fusion_lon": 0.0, "fusion_lat": 0.0, "lat": 38.9562935, "type": "electric_scooter", "lon": -77.02981033333333, "bike_id": "c4d94b5f56e676942acb1f8fc1e0dd1e", "rental_uris": {"android": "https://dc.lft.to/lastmile_qr_scan", "ios": "https://dc.lft.to/lastmile_qr_scan"}, "name": "c4d94b5f56e676942acb1f8fc1e0dd1e", "is_reserved": 0}, {"is_disabled": 0, "fusion_lon": 0.0, "fusion_lat": 0.0, "lat": 38.883807166666664, "type": "electric_bike", "lon": -77.03098616666666, "bike_id": "416052c94bfc4bb5c240939e39a50e96", "rental_uris": {"android": "https://dc.lft.to/lastmile_qr_scan", "ios": "https://dc.lft.to/lastmile_qr_scan"}, "name": "416052c94bfc4bb5c240939e39a50e96", "is_reserved": 0}, {"is_disabled": 0, "fusion_lon": 0.0, "fusion_lat": 0.0, "lat": 38.93562683333333, "type": "electric_scooter", "lon": -77.08199633333334, "bike_id": "49275499ddb126773cc2194c272c7a2e", "rental_uris": {"android": "https://dc.lft.to/lastmile_qr_scan", "ios": "https://dc.lft.to/lastmile_qr_scan"}, "name": "49275499ddb126773cc2194c272c7a2e", "is_reserved": 0}, {"is_disabled": 0, "fusion_lon": 0.0, "fusion_lat": 0.0, "lat": 38.8950225, "type": "electric_scooter", "lon": -76.94880883333333, "bike_id": "e11d8d12ff6e5dabe19adf40b8bf7a18", "rental_uris": {"android": "https://dc.lft.to/lastmile_qr_scan", "ios": "https://dc.lft.to/lastmile_qr_scan"}, "name": "e11d8d12ff6e5dabe19adf40b8bf7a18", "is_reserved": 0}, {"is_disabled": 0, "fusion_lon": 0.0, "fusion_lat": 0.0, "lat": 38.898425333333336, "type": "electric_scooter", "lon": -76.9455755, "bike_id": "2c000e60881e42c0dd3e4e11243cac36", "rental_uris": {"android": "https://dc.lft.to/lastmile_qr_scan", "ios": "https://dc.lft.to/lastmile_qr_scan"}, "name": "2c000e60881e42c0dd3e4e11243cac36", "is_reserved": 0}, {"is_disabled": 0, "fusion_lon": 0.0, "fusion_lat": 0.0, "lat": 38.860325333333336, "type": "electric_scooter", "lon": -76.9969525, "bike_id": "d71f3d5649ae48ae919fdd97f5fedd5c", "rental_uris": {"android": "https://dc.lft.to/lastmile_qr_scan", "ios": "https://dc.lft.to/lastmile_qr_scan"}, "name": "d71f3d5649ae48ae919fdd97f5fedd5c", "is_reserved": 0}, {"is_disabled": 0, "fusion_lon": 0.0, "fusion_lat": 0.0, "lat": 39.0958655, "type": "electric_bike", "lon": -77.14774833333334, "bike_id": "c4010168a3530567f8682d9b66a92e4c", "rental_uris": {"android": "https://dc.lft.to/lastmile_qr_scan", "ios": "https://dc.lft.to/lastmile_qr_scan"}, "name": "c4010168a3530567f8682d9b66a92e4c", "is_reserved": 0}, {"is_disabled": 0, "fusion_lon": 0.0, "fusion_lat": 0.0, "lat": 38.999341333333334, "type": "electric_bike", "lon": -77.00120066666666, "bike_id": "8a0c854edefbbbe0cc0d8f5c6a9d5a67", "rental_uris": {"android": "https://dc.lft.to/lastmile_qr_scan", "ios": "https://dc.lft.to/lastmile_qr_scan"}, "name": "8a0c854edefbbbe0cc0d8f5c6a9d5a67", "is_reserved": 0}, {"is_disabled": 0, "fusion_lon": 0.0, "fusion_lat": 0.0, "lat": 38.916269, "type": "electric_scooter", "lon": -77.04871283333334, "bike_id": "a66c05e8649a64d0506d31d2226e2964", "rental_uris": {"android": "https://dc.lft.to/lastmile_qr_scan", "ios": "https://dc.lft.to/lastmile_qr_scan"}, "name": "a66c05e8649a64d0506d31d2226e2964", "is_reserved": 0},