{"data": {"bikes": [{"bike_id": "d096828e3c510359c9837c3509c396f1", "type": "electric_bike", "is_disabled": 0, "lat": 38.93696416666667, "rental_uris": {"ios": "https://dc.lft.to/lastmile_qr_scan", "android": "https://dc.lft.to/lastmile_qr_scan"}, "is_reserved": 0, "fusion_lon": 0.0, "fusion_lat": 0.0, "lon": -77.05605766666666, "name": "d096828e3c510359c9837c3509c396f1"}, {"bike_id": "23cf85da3b94401f4304c1b898ea3654", "type": "electric_bike", "is_disabled": 0, "lat": 38.83156783333333, "rental_uris": {"ios": "https://dc.lft.to/lastmile_qr_scan", "android": "https://dc.lft.to/lastmile_qr_scan"}, "is_reserved": 0, "fusion_lon": 0.0, "fusion_lat": 0.0, "lon": -76.995472, "name": "23cf85da3b94401f4304c1b898ea3654"}, {"bike_id": "e395f2551ac8494031f8fe102e2b4868", "type": "electric_scooter", "is_disabled": 0, "lat": 38.907304, "rental_uris": {"ios": "https://dc.lft.to/lastmile_qr_scan", "android": "https://dc.lft.to/lastmile_qr_scan"}, "is_reserved": 0, "fusion_lon": 0.0, "fusion_lat": 0.0, "lon": -77.0298095, "name": "e395f2551ac8494031f8fe102e2b4868"}, {"bike_id": "66539d84d36810f670dbe9252f59b1c1", "type": "electric_scooter", "is_disabled": 0, "lat": 38.897133833333335, "rental_uris": {"ios": "https://dc.lft.to/lastmile_qr_scan", "android": "https://dc.lft.to/lastmile_qr_scan"}, "is_reserved": 0, "fusion_lon": 0.0, "fusion_lat": 0.0, "lon": -77.02720033333334, "name": "66539d84d36810f670dbe9252f59b1c1"}, {"bike_id": "167c3c280c1097f07d983248f421c89c", "type": "electric_scooter", "is_disabled": 0, "lat": 38.93550466666667, "rental_uris": {"ios": "https://dc.lft.to/lastmile_qr_scan", "android": "https://dc.lft.to/lastmile_qr_scan"}, "is_reserved": 0, "fusion_lon": 0.0, "fusion_lat": 0.0, "lon": -77.02508316666666, "name": "167c3c280c1097f07d983248f421c89c"}, {"bike_id": "c0211f5cf9b1e0c305dd53112e69129c", "type": "electric_scooter", "is_disabled": 0, "lat": 38.904988, "rental_uris": {"ios": "https://dc.lft.to/lastmile_qr_scan", "android": "https://dc.lft.to/lastmile_qr_scan"}, "is_reserved": 0, "fusion_lon": 0.0, "fusion_lat": 0.0, "lon": -77.0688545, "name": "c0211f5cf9b1e0c305dd53112e69129c"}, {"bike_id": "357c5dec9e151cba0407cb2a7379d260", "type": "electric_scooter", "is_disabled": 0, "lat": 38.920445, "rental_uris": {"ios": "https://dc.lft.to/lastmile_qr_scan", "android": "https://dc.lft.to/lastmile_qr_scan"}, "is_reserved": 0, "fusion_lon": 0.0, "fusion_lat": 0.0, "lon": -77.03414416666666, "name": "357c5dec9e151cba0407cb2a7379d260"}, {"bike_id": "584dd3e969e5b00ec115fa297814b4cd", "type": "electric_scooter", "is_disabled": 0, "lat": 38.88713116666667, "rental_uris": {"ios": "https://dc.lft.to/lastmile_qr_scan", "android": "https://dc.lft.to/lastmile_qr_scan"}, "is_reserved": 0, "fusion_lon": 0.0, "fusion_lat": 0.0, "lon": -77.0177695, "name": "584dd3e969e5b00ec115fa297814b4cd"}, {"bike_id": "9d01177d630798bae5f886f0ec7d803e", "type": "electric_scooter", "is_disabled": 0, "lat": 38.899132, "rental_uris": {"ios": "https://dc.lft.to/lastmile_qr_scan", "android": "https://dc.lft.to/lastmile_qr_scan"}, "is_reserved": 0, "fusion_lon": 0.0, "fusion_lat": 0.0, "lon": -76.93373833333334, "name": "9d01177d630798bae5f886f0ec7d803e"}, {"bike_id": "1236103bae4d6dfa436762081660ef90", "type": "electric_scooter", "is_disabled": 0, "lat": 38.905791, "rental_uris": {"ios": "https://dc.lft.to/lastmile_qr_scan", "android": "https://dc.lft.to/lastmile_qr_scan"}, "is_reserved": 0, "fusion_lon": 0.0, "fusion_lat": 0.0, "lon": -77.00545083333333, "name": "1236103bae4d6dfa436762081660ef90"}, {"bike_id": "2ec86023a5d796287238401b3bcec9e7", "type": "electric_scooter", "is_disabled": 0, "lat": 38.901088666666666, "rental_uris": {"ios": "https://dc.lft.to/lastmile_qr_scan", "android": "https://dc.lft.to/lastmile_qr_scan"}, "is_reserved": 0, "fusion_lon": 0.0, "fusion_lat": 0.0, "lon": -77.01227283333333, "name": "2ec86023a5d796287238401b3bcec9e7"}, {"bike_id": "01b70d27915f16e107125297c26775a2", "type": "electric_scooter", "is_disabled": 0, "lat": 38.916777333333336, "rental_uris": {"ios": "https://dc.lft.to/lastmile_qr_scan", "android": "https://dc.lft.to/lastmile_qr_scan"}, "is_reserved": 0, "fusion_lon": 0.0, "fusion_lat": 0.0, "lon": -77.02312066666667, "name": "01b70d27915f16e107125297c26775a2"}, {"bike_id": "6efd8320b349c5bf9869403d01ad0be4", "type": "electric_scooter", "is_disabled": 0, "lat": 38.9096145, "rental_uris": {"ios": "https://dc.lft.to/lastmile_qr_scan", "android": "https://dc.lft.to/lastmile_qr_scan"}, "is_reserved": 0, "fusion_lon": 0.0, "fusion_lat": 0.0, "lon": -77.0454405, "name": "6efd8320b349c5bf9869403d01ad0be4"}, {"bike_id": "d98cee9950ccc7693797ba787880473d", "type": "electric_scooter", "is_disabled": 0, "lat": 38.91107683333333, "rental_uris": {"ios": "https://dc.lft.to/lastmile_qr_scan", "android": "https://dc.lft.to/lastmile_qr_scan"}, "is_reserved": 0, "fusion_lon": 0.0, "fusion_lat": 0.0, "lon": -77.04468683333333, "name": "d98cee9950ccc7693797ba787880473d"}, {"bike_id": "71ba642430b792c3ac558106c9ed55f3", "type": "electric_scooter", "is_disabled": 0, "lat": 38.89531233333334, "rental_uris": {"ios": "https://dc.lft.to/lastmile_qr_scan", "android": "https://dc.lft.to/lastmile_qr_scan"}, "is_reserved": 0, "fusion_lon": 0.0, "fusion_lat": 0.0, "lon": -77.02817416666667, "name": "71ba642430b792c3ac558106c9ed55f3"}, {"bike_id": "995b96724731b93d4f1960ce9260eca3", "type": "electric_scooter", "is_disabled": 0, "lat": 38.919214, "rental_uris": {"ios": "https://dc.lft.to/lastmile_qr_scan", "android": "https://dc.lft.to/lastmile_qr_scan"}, "is_reserved": 0, "fusion_lon": 0.0, "fusion_lat": 0.0, "lon": -77.00254883333334, "name": "995b96724731b93d4f1960ce9260eca3"}, {"bike_id": "2612d8412aeab07332fd1041d2547a9b", "type": "electric_bike", "is_disabled": 0, "lat": 38.920831, "rental_uris": {"ios": "https://dc.lft.to/lastmile_qr_scan", "android": "https://dc.lft.to/lastmile_qr_scan"}, "is_reserved": 0, "fusion_lon": 0.0, "fusion_lat": 0.0, "lon": -77.03506316666666, "name": "2612d8412aeab07332fd1041d2547a9b"}, {"bike_id": "46440c4a0316256ec9f6c29b592142f2", "type": "electric_scooter", "is_disabled": 0, "lat": 38.915817, "rental_uris": {"ios": "https://dc.lft.to/lastmile_qr_scan", "android": "https://dc.lft.to/lastmile_qr_scan"}, "is_reserved": 0, "fusion_lon": 0.0, "fusion_lat": 0.0, "lon": -77.01231183333333, "name": "46440c4a0316256ec9f6c29b592142f2"}, {"bike_id": "4fd3de2a89d58ecc1a4e77b86b41c64d", "type": "electric_bike", "is_disabled": 0, "lat": 38.9570495, "rental_uris": {"ios": "https://dc.lft.to/lastmile_qr_scan", "android": "https://dc.lft.to/lastmile_qr_scan"}, "is_reserved": 0, "fusion_lon": 0.0, "fusion_lat": 0.0, "lon": -77.02401816666666, "name": "4fd3de2a89d58ecc1a4e77b86b41c64d"}, {"bike_id": "4fc249ee3dc0eba6b5dc7ab1ccce7c03", "type": "electric_scooter", "is_disabled": 0, "lat": 38.927515666666665, "rental_uris": {"ios": "https://dc.lft.to/lastmile_qr_scan", "android": "https://dc.lft.to/lastmile_qr_scan"}, "is_reserved": 0, "fusion_lon": 0.0, "fusion_lat": 0.0, "lon": -77.023819, "name": "4fc249ee3dc0eba6b5dc7ab1ccce7c03"}, {"bike_id": "28be1a04a1b75dda6eb7c63c6ec3558e", "type": "electric_scooter", "is_disabled": 0, "lat": 38.885078666666665, "rental_uris": {"ios": "https://dc.lft.to/lastmile_qr_scan", "android": "https://dc.lft.to/lastmile_qr_scan"}, "is_reserved": 0, "fusion_lon": 0.0, "fusion_lat": 0.0, "lon": -77.02529266666667, "name": "28be1a04a1b75dda6eb7c63c6ec3558e"}, {"bike_id": "33fa89aa348d93b285baefea17ba6b42", "type": "electric_scooter", "is_disabled": 0, "lat": 38.906756666666666, "rental_uris": {"ios": "https://dc.lft.to/lastmile_qr_scan", "android": "https://dc.lft.to/lastmile_qr_scan"}, "is_reserved": 0, "fusion_lon": 0.0, "fusion_lat": 0.0, "lon": -77.000116, "name": "33fa89aa348d93b285baefea17ba6b42"}, {"bike_id": "bb2c776307de319b1bd90b727f3b2713", "type": "electric_scooter", "is_disabled": 0, "lat": 38.928621, "rental_uris": {"ios": "https://dc.lft.to/lastmile_qr_scan", "android": "https://dc.lft.to/lastmile_qr_scan"}, "is_reserved": 0, "fusion_lon": 0.0, "fusion_lat": 0.0, "lon": -77.03405233333334, "name": "bb2c776307de319b1bd90b727f3b2713"}, {"bike_id": "b1354dff4069d16a9eaa0ed192e31f7e", "type": "electric_scooter", "is_disabled": 0, "lat": 38.924615, "rental_uris": {"ios": "https://dc.lft.to/lastmile_qr_scan", "android": "https://dc.lft.to/lastmile_qr_scan"}, "is_reserved": 0, "fusion_lon": 0.0, "fusion_lat": 0.0, "lon": -77.05204866666666, "name": "b1354dff4069d16a9eaa0ed192e31f7e"}, {"bike_id": "2a908422b90cce64dd394613944942d6", "type": "electric_scooter", "is_disabled": 0, "lat": 38.907992666666665, "rental_uris": {"ios": "https://dc.lft.to/lastmile_qr_scan", "android": "https://dc.lft.to/lastmile_qr_scan"}, "is_reserved": 0, "fusion_lon": 0.0, "fusion_lat": 0.0, "lon": -77.04256866666667, "name": "2a908422b90cce64dd394613944942d6"}, {"bike_id": "c3387c2e3135ee29f69cacc947237e72", "type": "electric_scooter", "is_disabled": 0, "lat": 38.920222833333334, "rental_uris": {"ios": "https://dc.lft.to/lastmile_qr_scan", "android": "https://dc.lft.to/lastmile_qr_scan"}, "is_reserved": 0, "fusion_lon": 0.0, "fusion_lat": 0.0, "lon": -77.04187166666667, "name": "c3387c2e3135ee29f69cacc947237e72"}, {"bike_id": "32dd0517b623d75719e0dcb87eb8cdd2", "type": "electric_scooter", "is_disabled": 0, "lat": 38.903926, "rental_uris": {"ios": "https://dc.lft.to/lastmile_qr_scan", "android": "https://dc.lft.to/lastmile_qr_scan"}, "is_reserved": 0, "fusion_lon": 0.0, "fusion_lat": 0.0, "lon": -77.048117, "name": "32dd0517b623d75719e0dcb87eb8cdd2"}, {"bike_id": "3b4a4fefffd89c971cbc35cf3a322d9b", "type": "electric_scooter", "is_disabled": 0, "lat": 38.91269883333333, "rental_uris": {"ios": "https://dc.lft.to/lastmile_qr_scan", "android": "https://dc.lft.to/lastmile_qr_scan"}, "is_reserved": 0, "fusion_lon": 0.0, "fusion_lat": 0.0, "lon": -77.02225083333333, "name": "3b4a4fefffd89c971cbc35cf3a322d9b"}, {"bike_id": "6149e51fcc8b5f7841db87494ef84c27", "type": "electric_scooter", "is_disabled": 0, "lat": 38.93418916666667, "rental_uris": {"ios": "https://dc.lft.to/lastmile_qr_scan", "android": "https://dc.lft.to/lastmile_qr_scan"}, "is_reserved": 0, "fusion_lon": 0.0, "fusion_lat": 0.0, "lon": -77.02848883333333, "name": "6149e51fcc8b5f7841db87494ef84c27"}, {"bike_id": "266d34ca45b57226569e693c5f04c65d", "type": "electric_scooter", "is_disabled": 0, "lat": 38.9066815, "rental_uris": {"ios": "https://dc.lft.to/lastmile_qr_scan", "android": "https://dc.lft.to/lastmile_qr_scan"}, "is_reserved": 0, "fusion_lon": 0.0, "fusion_lat": 0.0, "lon": -77.0269315, "name": "266d34ca45b57226569e693c5f04c65d"}, {"bike_id": "e02f26aeffd2f2a9f07e3d46e4210265", "type": "electric_scooter", "is_disabled": 0, "lat": 38.9142005, "rental_uris": {"ios": "https://dc.lft.to/lastmile_qr_scan", "android": "https://dc.lft.to/lastmile_qr_scan"}, "is_reserved": 0, "fusion_lon": 0.0, "fusion_lat": 0.0, "lon": -77.01987816666667, "name": "e02f26aeffd2f2a9f07e3d46e4210265"}, {"bike_id": "45a1a992ace6407c1612f429e334991c", "type": "electric_bike", "is_disabled": 0, "lat": 38.83605766666667, "rental_uris": {"ios": "https://dc.lft.to/lastmile_qr_scan", "android": "https://dc.lft.to/lastmile_qr_scan"}, "is_reserved": 0, "fusion_lon": 0.0, "fusion_lat": 0.0, "lon": -77.00379183333334, "name": "45a1a992ace6407c1612f429e334991c"}, {"bike_id": "2f506b49ea29cc99a79529dd0a64dc1e", "type": "electric_scooter", "is_disabled": 0, "lat": 38.89630116666667, "rental_uris": {"ios": "https://dc.lft.to/lastmile_qr_scan", "android": "https://dc.lft.to/lastmile_qr_scan"}, "is_reserved": 0, "fusion_lon": 0.0, "fusion_lat": 0.0, "lon": -77.026411, "name": "2f506b49ea29cc99a79529dd0a64dc1e"}, {"bike_id": "cf3adb594831c39d883a85c5b10a3d4c", "type": "electric_scooter", "is_disabled": 0, "lat": 38.916964166666666, "rental_uris": {"ios": "https://dc.lft.to/lastmile_qr_scan", "android": "https://dc.lft.to/lastmile_qr_scan"}, "is_reserved": 0, "fusion_lon": 0.0, "fusion_lat": 0.0, "lon": -77.0410885, "name": "cf3adb594831c39d883a85c5b10a3d4c"}, {"bike_id": "6c895a737b90aa9078382892ee3d8cb2", "type": "electric_scooter", "is_disabled": 0, "lat": 38.89940683333333, "rental_uris": {"ios": "https://dc.lft.to/lastmile_qr_scan", "android": "https://dc.lft.to/lastmile_qr_scan"}, "is_reserved": 0, "fusion_lon": 0.0, "fusion_lat": 0.0, "lon": -77.01451483333334, "name": "6c895a737b90aa9078382892ee3d8cb2"}, {"bike_id": "5be25ed26c09b757cdea377043b7a916", "type": "electric_scooter", "is_disabled": 0, "lat": 38.90267166666667, "rental_uris": {"ios": "https://dc.lft.to/lastmile_qr_scan", "android": "https://dc.lft.to/lastmile_qr_scan"}, "is_reserved": 0, "fusion_lon": 0.0, "fusion_lat": 0.0, "lon": -77.01787716666666, "name": "5be25ed26c09b757cdea377043b7a916"}, {"bike_id": "ec6a6f2f9efd573853be02a5183e8490", "type": "electric_scooter", "is_disabled": 0, "lat": 38.9223825, "rental_uris": {"ios": "https://dc.lft.to/lastmile_qr_scan", "android": "https://dc.lft.to/lastmile_qr_scan"}, "is_reserved": 0, "fusion_lon": 0.0, "fusion_lat": 0.0, "lon": -77.02986, "name": "ec6a6f2f9efd573853be02a5183e8490"}, {"bike_id": "5a25ebdddc68a2e5df1216170ac1e907", "type": "electric_scooter", "is_disabled": 0, "lat": 38.926130666666666, "rental_uris": {"ios": "https://dc.lft.to/lastmile_qr_scan", "android": "https://dc.lft.to/lastmile_qr_scan"}, "is_reserved": 0, "fusion_lon": 0.0, "fusion_lat": 0.0, "lon": -77.05705416666666, "name": "5a25ebdddc68a2e5df1216170ac1e907"}, {"bike_id": "04b99059ccb7f4711a78a015d606cbfe", "type": "electric_scooter", "is_disabled": 0, "lat": 38.895374, "rental_uris": {"ios": "https://dc.lft.to/lastmile_qr_scan", "android": "https://dc.lft.to/lastmile_qr_scan"}, "is_reserved": 0, "fusion_lon": 0.0, "fusion_lat": 0.0, "lon": -77.02819816666667, "name": "04b99059ccb7f4711a78a015d606cbfe"}, {"bike_id": "f77e49d0c4862f4e78b79391d154191b", "type": "electric_scooter", "is_disabled": 0, "lat": 38.890175, "rental_uris": {"ios": "https://dc.lft.to/lastmile_qr_scan", "android": "https://dc.lft.to/lastmile_qr_scan"}, "is_reserved": 0, "fusion_lon": 0.0, "fusion_lat": 0.0, "lon": -76.93736433333333, "name": "f77e49d0c4862f4e78b79391d154191b"}, {"bike_id": "bd4cf66de36bc99c63084446b66681a2", "type": "electric_scooter", "is_disabled": 0, "lat": 38.90258266666667, "rental_uris": {"ios": "https://dc.lft.to/lastmile_qr_scan", "android": "https://dc.lft.to/lastmile_qr_scan"}, "is_reserved": 0, "fusion_lon": 0.0, "fusion_lat": 0.0, "lon": -77.0363985, "name": "bd4cf66de36bc99c63084446b66681a2"}, {"bike_id": "8594cbee02270b08482fdb6a7613b672", "type": "electric_scooter", "is_disabled": 0, "lat": 38.90071666666667, "rental_uris": {"ios": "https://dc.lft.to/lastmile_qr_scan", "android": "https://dc.lft.to/lastmile_qr_scan"}, "is_reserved": 0, "fusion_lon": 0.0, "fusion_lat": 0.0, "lon": -76.99014066666666, "name": "8594cbee02270b08482fdb6a7613b672"}, {"bike_id": "17b35be6d1e50719669af1d538ada6a4", "type": "electric_scooter", "is_disabled": 0, "lat": 38.93255333333333, "rental_uris": {"ios": "https://dc.lft.to/lastmile_qr_scan", "android": "https://dc.lft.to/lastmile_qr_scan"}, "is_reserved": 0, "fusion_lon": 0.0, "fusion_lat": 0.0, "lon": -77.032734, "name": "17b35be6d1e50719669af1d538ada6a4"}, {"bike_id": "09f77afeecf8e902643afcca3ee6328a", "type": "electric_scooter", "is_disabled": 0, "lat": 38.871157833333335, "rental_uris": {"ios": "https://dc.lft.to/lastmile_qr_scan", "android": "https://dc.lft.to/lastmile_qr_scan"}, "is_reserved": 0, "fusion_lon": 0.0, "fusion_lat": 0.0, "lon": -76.9823665, "name": "09f77afeecf8e902643afcca3ee6328a"}, {"bike_id": "bf149142702a7ce3cc8067f06bc6bd5e", "type": "electric_scooter", "is_disabled": 0, "lat": 38.85716583333333, "rental_uris": {"ios": "https://dc.lft.to/lastmile_qr_scan", "android": "https://dc.lft.to/lastmile_qr_scan"}, "is_reserved": 0, "fusion_lon": 0.0, "fusion_lat": 0.0, "lon": -76.98979416666667, "name": "bf149142702a7ce3cc8067f06bc6bd5e"}, {"bike_id": "9146b1fe4591e3ce6e47fc691c4e4ae9", "type": "electric_scooter", "is_disabled": 0, "lat": 38.90556083333333, "rental_uris": {"ios": "https://dc.lft.to/lastmile_qr_scan", "android": "https://dc.lft.to/lastmile_qr_scan"}, "is_reserved": 0, "fusion_lon": 0.0, "fusion_lat": 0.0, "lon": -77.0220925, "name": "9146b1fe4591e3ce6e47fc691c4e4ae9"}, {"bike_id": "86bb652bef8be144e4f74fca78447d6e", "type": "electric_scooter", "is_disabled": 0, "lat": 38.90592766666666, "rental_uris": {"ios": "https://dc.lft.to/lastmile_qr_scan", "android": "https://dc.lft.to/lastmile_qr_scan"}, "is_reserved": 0, "fusion_lon": 0.0, "fusion_lat": 0.0, "lon": -77.05711483333333, "name": "86bb652bef8be144e4f74fca78447d6e"}, {"bike_id": "03f63870526a8fe5c29af2055cb87865", "type": "electric_scooter", "is_disabled": 0, "lat": 38.911061, "rental_uris": {"ios": "https://dc.lft.to/lastmile_qr_scan", "android": "https://dc.lft.to/lastmile_qr_scan"}, "is_reserved": 0, "fusion_lon": 0.0, "fusion_lat": 0.0, "lon": -77.04473533333334, "name": "03f63870526a8fe5c29af2055cb87865"}, {"bike_id": "8e6bc1df4e15ab2bf6e325f9a8fd4ca0", "type": "electric_scooter", "is_disabled": 0, "lat": 38.905303333333336, "rental_uris": {"ios": "https://dc.lft.to/lastmile_qr_scan", "android": "https://dc.lft.to/lastmile_qr_scan"}, "is_reserved": 0, "fusion_lon": 0.0, "fusion_lat": 0.0, "lon": -77.05011766666667, "name": "8e6bc1df4e15ab2bf6e325f9a8fd4ca0"}, {"bike_id": "a8d4c578ebde3eb9e2b40bae0272a4aa", "type": "electric_bike", "is_disabled": 0, "lat": 38.819762833333336, "rental_uris": {"ios": "https://dc.lft.to/lastmile_qr_scan", "android": "https://dc.lft.to/lastmile_qr_scan"}, "is_reserved": 0, "fusion_lon": 0.0, "fusion_lat": 0.0, "lon": -76.99805966666666, "name": "a8d4c578ebde3eb9e2b40bae0272a4aa"}, {"bike_id": "c42afc494d544b721124b60237a2022d", "type": "electric_bike", "is_disabled": 0, "lat": 39.057912333333334, "rental_uris": {"ios": "https://dc.lft.to/lastmile_qr_scan", "android": "https://dc.lft.to/lastmile_qr_scan"}, "is_reserved": 0, "fusion_lon": 0.0, "fusion_lat": 0.0, "lon": -77.15021683333333, "name": "c42afc494d544b721124b60237a2022d"}, {"bike_id": "bdd05e1e8c7b27aaa3f13ede5fd9af0d", "type": "electric_scooter", "is_disabled": 0, "lat": 38.9019405, "rental_uris": {"ios": "https://dc.lft.to/lastmile_qr_scan", "android": "https://dc.lft.to/lastmile_qr_scan"}, "is_reserved": 0, "fusion_lon": 0.0, "fusion_lat": 0.0, "lon": -77.05043316666666, "name": "bdd05e1e8c7b27aaa3f13ede5fd9af0d"}, {"bike_id": "e9aa35ce8e9d22ddd7026bdf8448daaf", "type": "electric_scooter", "is_disabled": 0, "lat": 38.938745833333336, "rental_uris": {"ios": "https://dc.lft.to/lastmile_qr_scan", "android": "https://dc.lft.to/lastmile_qr_scan"}, "is_reserved": 0, "fusion_lon": 0.0, "fusion_lat": 0.0, "lon": -77.0247705, "name": "e9aa35ce8e9d22ddd7026bdf8448daaf"}, {"bike_id": "aa89ee37705811b35dd46f968bfd3df3", "type": "electric_scooter", "is_disabled": 0, "lat": 38.89729083333334, "rental_uris": {"ios": "https://dc.lft.to/lastmile_qr_scan", "android": "https://dc.lft.to/lastmile_qr_scan"}, "is_reserved": 0, "fusion_lon": 0.0, "fusion_lat": 0.0, "lon": -77.05468083333334, "name": "aa89ee37705811b35dd46f968bfd3df3"}, {"bike_id": "2783c0ca86df52d7e9a0ff7313236a01", "type": "electric_scooter", "is_disabled": 0, "lat": 38.91600733333333, "rental_uris": {"ios": "https://dc.lft.to/lastmile_qr_scan", "android": "https://dc.lft.to/lastmile_qr_scan"}, "is_reserved": 0, "fusion_lon": 0.0, "fusion_lat": 0.0, "lon": -77.02388766666667, "name": "2783c0ca86df52d7e9a0ff7313236a01"}, {"bike_id": "9a62c9368eefcbef5792baa85fa15a7d", "type": "electric_scooter", "is_disabled": 0, "lat": 38.940177, "rental_uris": {"ios": "https://dc.lft.to/lastmile_qr_scan", "android": "https://dc.lft.to/lastmile_qr_scan"}, "is_reserved": 0, "fusion_lon": 0.0, "fusion_lat": 0.0, "lon": -76.97610866666666, "name": "9a62c9368eefcbef5792baa85fa15a7d"}, {"bike_id": "f04ee09d752da45c3451cc91c15b2944", "type": "electric_scooter", "is_disabled": 0, "lat": 38.911054666666665, "rental_uris": {"ios": "https://dc.lft.to/lastmile_qr_scan", "android": "https://dc.lft.to/lastmile_qr_scan"}, "is_reserved": 0, "fusion_lon": 0.0, "fusion_lat": 0.0, "lon": -77.04204383333334, "name": "f04ee09d752da45c3451cc91c15b2944"}, {"bike_id": "86a5aaa1636c3dd135ed92090f98e607", "type": "electric_scooter", "is_disabled": 0, "lat": 38.905698666666666, "rental_uris": {"ios": "https://dc.lft.to/lastmile_qr_scan", "android": "https://dc.lft.to/lastmile_qr_scan"}, "is_reserved": 0, "fusion_lon": 0.0, "fusion_lat": 0.0, "lon": -77.00597966666666, "name": "86a5aaa1636c3dd135ed92090f98e607"}, {"bike_id": "aa59ced90d6eb5f7057ce1d2376d0e03", "type": "electric_scooter", "is_disabled": 0, "lat": 38.894305, "rental_uris": {"ios": "https://dc.lft.to/lastmile_qr_scan", "android": "https://dc.lft.to/lastmile_qr_scan"}, "is_reserved": 0, "fusion_lon": 0.0, "fusion_lat": 0.0, "lon": -77.010552, "name": "aa59ced90d6eb5f7057ce1d2376d0e03"}, {"bike_id": "ed3f2bfb0b8a7eff7525faae1368d48b", "type": "electric_scooter", "is_disabled": 0, "lat": 38.92049266666667, "rental_uris": {"ios": "https://dc.lft.to/lastmile_qr_scan", "android": "https://dc.lft.to/lastmile_qr_scan"}, "is_reserved": 0, "fusion_lon": 0.0, "fusion_lat": 0.0, "lon": -77.02576166666667, "name": "ed3f2bfb0b8a7eff7525faae1368d48b"}, {"bike_id": "9066916fde1d1871bb059390d40eb4c5", "type": "electric_scooter", "is_disabled": 0, "lat": 38.87711266666667, "rental_uris": {"ios": "https://dc.lft.to/lastmile_qr_scan", "android": "https://dc.lft.to/lastmile_qr_scan"}, "is_reserved": 0, "fusion_lon": 0.0, "fusion_lat": 0.0, "lon": -77.00527333333334, "name": "9066916fde1d1871bb059390d40eb4c5"}, {"bike_id": "8e4c78455e9d365e8bf130be97de4064", "type": "electric_scooter", "is_disabled": 0, "lat": 38.894808166666664, "rental_uris": {"ios": "https://dc.lft.to/lastmile_qr_scan", "android": "https://dc.lft.to/lastmile_qr_scan"}, "is_reserved": 0, "fusion_lon": 0.0, "fusion_lat": 0.0, "lon": -76.94857716666667, "name": "8e4c78455e9d365e8bf130be97de4064"}, {"bike_id": "e1acfbd4103d808caf090b22a5c22a25", "type": "electric_scooter", "is_disabled": 0, "lat": 38.93215266666667, "rental_uris": {"ios": "https://dc.lft.to/lastmile_qr_scan", "android": "https://dc.lft.to/lastmile_qr_scan"}, "is_reserved": 0, "fusion_lon": 0.0, "fusion_lat": 0.0, "lon": -77.0351385, "name": "e1acfbd4103d808caf090b22a5c22a25"}, {"bike_id": "34091d8cfa3ff61315e45d7f9025fc3d", "type": "electric_scooter", "is_disabled": 0, "lat": 38.900655, "rental_uris": {"ios": "https://dc.lft.to/lastmile_qr_scan", "android": "https://dc.lft.to/lastmile_qr_scan"}, "is_reserved": 0, "fusion_lon": 0.0, "fusion_lat": 0.0, "lon": -77.04532016666667, "name": "34091d8cfa3ff61315e45d7f9025fc3d"}, {"bike_id": "7a8ef85aeaeb7b0ac15220b962e19f2d", "type": "electric_bike", "is_disabled": 0, "lat": 38.978795166666664, "rental_uris": {"ios": "https://dc.lft.to/lastmile_qr_scan", "android": "https://dc.lft.to/lastmile_qr_scan"}, "is_reserved": 0, "fusion_lon": 0.0, "fusion_lat": 0.0, "lon": -77.06028616666667, "name": "7a8ef85aeaeb7b0ac15220b962e19f2d"}, {"bike_id": "c1c5048f37518745499721a2c1b7ce49", "type": "electric_scooter", "is_disabled": 0, "lat": 38.89751416666667, "rental_uris": {"ios": "https://dc.lft.to/lastmile_qr_scan", "android": "https://dc.lft.to/lastmile_qr_scan"}, "is_reserved": 0, "fusion_lon": 0.0, "fusion_lat": 0.0, "lon": -77.02739483333333, "name": "c1c5048f37518745499721a2c1b7ce49"}, {"bike_id": "4ee9f63b712c001958de44b8b93f1c58", "type": "electric_scooter", "is_disabled": 0, "lat": 38.8922545, "rental_uris": {"ios": "https://dc.lft.to/lastmile_qr_scan", "android": "https://dc.lft.to/lastmile_qr_scan"}, "is_reserved": 0, "fusion_lon": 0.0, "fusion_lat": 0.0, "lon": -77.04369983333333, "name": "4ee9f63b712c001958de44b8b93f1c58"}, {"bike_id": "556db51b95195c8a4710292381547865", "type": "electric_scooter", "is_disabled": 0, "lat": 38.93478316666667, "rental_uris": {"ios": "https://dc.lft.to/lastmile_qr_scan", "android": "https://dc.lft.to/lastmile_qr_scan"}, "is_reserved": 0, "fusion_lon": 0.0, "fusion_lat": 0.0, "lon": -77.07271266666666, "name": "556db51b95195c8a4710292381547865"}, {"bike_id": "4a739b83a25f8a7b69d91cebeca36781", "type": "electric_scooter", "is_disabled": 0, "lat": 38.8901025, "rental_uris": {"ios": "https://dc.lft.to/lastmile_qr_scan", "android": "https://dc.lft.to/lastmile_qr_scan"}, "is_reserved": 0, "fusion_lon": 0.0, "fusion_lat": 0.0, "lon": -76.93736283333334, "name": "4a739b83a25f8a7b69d91cebeca36781"}, {"bike_id": "c7e6abce4abee6d85261192f0e1c19d7", "type": "electric_scooter", "is_disabled": 0, "lat": 38.909342, "rental_uris": {"ios": "https://dc.lft.to/lastmile_qr_scan", "android": "https://dc.lft.to/lastmile_qr_scan"}, "is_reserved": 0, "fusion_lon": 0.0, "fusion_lat": 0.0, "lon": -76.99973966666667, "name": "c7e6abce4abee6d85261192f0e1c19d7"}, {"bike_id": "f189f59c651abf10fde876be42beab91", "type": "electric_scooter", "is_disabled": 0, "lat": 38.90028083333333, "rental_uris": {"ios": "https://dc.lft.to/lastmile_qr_scan", "android": "https://dc.lft.to/lastmile_qr_scan"}, "is_reserved": 0, "fusion_lon": 0.0, "fusion_lat": 0.0, "lon": -76.98855, "name": "f189f59c651abf10fde876be42beab91"}, {"bike_id": "1ae40706e43a02166a75b40b5285df2f", "type": "electric_scooter", "is_disabled": 0, "lat": 38.907337166666665, "rental_uris": {"ios": "https://dc.lft.to/lastmile_qr_scan", "android": "https://dc.lft.to/lastmile_qr_scan"}, "is_reserved": 0, "fusion_lon": 0.0, "fusion_lat": 0.0, "lon": -77.02252816666666, "name": "1ae40706e43a02166a75b40b5285df2f"}, {"bike_id": "4f007000819b4ce21e4408586e78ac04", "type": "electric_bike", "is_disabled": 0, "lat": 39.039867, "rental_uris": {"ios": "https://dc.lft.to/lastmile_qr_scan", "android": "https://dc.lft.to/lastmile_qr_scan"}, "is_reserved": 0, "fusion_lon": 0.0, "fusion_lat": 0.0, "lon": -76.99926716666667, "name": "4f007000819b4ce21e4408586e78ac04"}, {"bike_id": "8924a8d6ffa9e8c953d564eb852c423a", "type": "electric_scooter", "is_disabled": 0, "lat": 38.93245916666667, "rental_uris": {"ios": "https://dc.lft.to/lastmile_qr_scan", "android": "https://dc.lft.to/lastmile_qr_scan"}, "is_reserved": 0, "fusion_lon": 0.0, "fusion_lat": 0.0, "lon": -76.9951645, "name": "8924a8d6ffa9e8c953d564eb852c423a"}, {"bike_id": "437ea32e6072f7b9b99d42a9ffce08cb", "type": "electric_scooter", "is_disabled": 0, "lat": 38.89224866666667, "rental_uris": {"ios": "https://dc.lft.to/lastmile_qr_scan", "android": "https://dc.lft.to/lastmile_qr_scan"}, "is_reserved": 0, "fusion_lon": 0.0, "fusion_lat": 0.0, "lon": -77.03170366666667, "name": "437ea32e6072f7b9b99d42a9ffce08cb"}, {"bike_id": "d2feb7f0b1d35800adf6373c83028b25", "type": "electric_scooter", "is_disabled": 0, "lat": 38.907433166666664, "rental_uris": {"ios": "https://dc.lft.to/lastmile_qr_scan", "android": "https://dc.lft.to/lastmile_qr_scan"}, "is_reserved": 0, "fusion_lon": 0.0, "fusion_lat": 0.0, "lon": -77.04229766666667, "name": "d2feb7f0b1d35800adf6373c83028b25"}, {"bike_id": "a5b4d03278811d5b02d76eb7a3a540a8", "type": "electric_scooter", "is_disabled": 0, "lat": 38.9221485, "rental_uris": {"ios": "https://dc.lft.to/lastmile_qr_scan", "android": "https://dc.lft.to/lastmile_qr_scan"}, "is_reserved": 0, "fusion_lon": 0.0, "fusion_lat": 0.0, "lon": -77.0345365, "name": "a5b4d03278811d5b02d76eb7a3a540a8"}, {"bike_id": "81d3ffa3c7fcfb39535b83af2e3d65f5", "type": "electric_scooter", "is_disabled": 0, "lat": 38.92973, "rental_uris": {"ios": "https://dc.lft.to/lastmile_qr_scan", "android": "https://dc.lft.to/lastmile_qr_scan"}, "is_reserved": 0, "fusion_lon": 0.0, "fusion_lat": 0.0, "lon": -77.031882, "name": "81d3ffa3c7fcfb39535b83af2e3d65f5"}, {"bike_id": "f6adbcf577e49b3574743d9caedb63ae", "type": "electric_scooter", "is_disabled": 0, "lat": 38.9029125, "rental_uris": {"ios": "https://dc.lft.to/lastmile_qr_scan", "android": "https://dc.lft.to/lastmile_qr_scan"}, "is_reserved": 0, "fusion_lon": 0.0, "fusion_lat": 0.0, "lon": -76.976354, "name": "f6adbcf577e49b3574743d9caedb63ae"}, {"bike_id": "19e429dbd32bea9143331889657dcda3", "type": "electric_scooter", "is_disabled": 0, "lat": 38.92237033333333, "rental_uris": {"ios": "https://dc.lft.to/lastmile_qr_scan", "android": "https://dc.lft.to/lastmile_qr_scan"}, "is_reserved": 0, "fusion_lon": 0.0, "fusion_lat": 0.0, "lon": -77.036594, "name": "19e429dbd32bea9143331889657dcda3"}, {"bike_id": "c622617b5a669ebc00f460c94e90d37f", "type": "electric_scooter", "is_disabled": 0, "lat": 38.900582166666666, "rental_uris": {"ios": "https://dc.lft.to/lastmile_qr_scan", "android": "https://dc.lft.to/lastmile_qr_scan"}, "is_reserved": 0, "fusion_lon": 0.0, "fusion_lat": 0.0, "lon": -77.036452, "name": "c622617b5a669ebc00f460c94e90d37f"}, {"bike_id": "dce992e293fbb5588e1300cb04ddf67f", "type": "electric_scooter", "is_disabled": 0, "lat": 38.917176833333336, "rental_uris": {"ios": "https://dc.lft.to/lastmile_qr_scan", "android": "https://dc.lft.to/lastmile_qr_scan"}, "is_reserved": 0, "fusion_lon": 0.0, "fusion_lat": 0.0, "lon": -77.03211133333333, "name": "dce992e293fbb5588e1300cb04ddf67f"}, {"bike_id": "d6413a9a4bc2729796d4dd177a4f4bb2", "type": "electric_scooter", "is_disabled": 0, "lat": 38.918032833333335, "rental_uris": {"ios": "https://dc.lft.to/lastmile_qr_scan", "android": "https://dc.lft.to/lastmile_qr_scan"}, "is_reserved": 0, "fusion_lon": 0.0, "fusion_lat": 0.0, "lon": -77.0343505, "name": "d6413a9a4bc2729796d4dd177a4f4bb2"}, {"bike_id": "e1adb9afb350d794315e46aea888fd85", "type": "electric_scooter", "is_disabled": 0, "lat": 38.917594666666666, "rental_uris": {"ios": "https://dc.lft.to/lastmile_qr_scan", "android": "https://dc.lft.to/lastmile_qr_scan"}, "is_reserved": 0, "fusion_lon": 0.0, "fusion_lat": 0.0, "lon": -77.00450816666667, "name": "e1adb9afb350d794315e46aea888fd85"}, {"bike_id": "098c1c73c35f7c2310b90ac31dad18d0", "type": "electric_scooter", "is_disabled": 0, "lat": 38.906445166666664, "rental_uris": {"ios": "https://dc.lft.to/lastmile_qr_scan", "android": "https://dc.lft.to/lastmile_qr_scan"}, "is_reserved": 0, "fusion_lon": 0.0, "fusion_lat": 0.0, "lon": -77.01791116666666, "name": "098c1c73c35f7c2310b90ac31dad18d0"}, {"bike_id": "6da86213680cdc3712a5c41364c6d392", "type": "electric_scooter", "is_disabled": 0, "lat": 38.9181765, "rental_uris": {"ios": "https://dc.lft.to/lastmile_qr_scan", "android": "https://dc.lft.to/lastmile_qr_scan"}, "is_reserved": 0, "fusion_lon": 0.0, "fusion_lat": 0.0, "lon": -77.00258866666667, "name": "6da86213680cdc3712a5c41364c6d392"}, {"bike_id": "ad9277912d2d4357d965524ac77f4e17", "type": "electric_scooter", "is_disabled": 0, "lat": 38.91910133333333, "rental_uris": {"ios": "https://dc.lft.to/lastmile_qr_scan", "android": "https://dc.lft.to/lastmile_qr_scan"}, "is_reserved": 0, "fusion_lon": 0.0, "fusion_lat": 0.0, "lon": -77.02403416666667, "name": "ad9277912d2d4357d965524ac77f4e17"}, {"bike_id": "6a860472cc3ee2db9663ef0f1f0620c0", "type": "electric_scooter", "is_disabled": 0, "lat": 38.9026765, "rental_uris": {"ios": "https://dc.lft.to/lastmile_qr_scan", "android": "https://dc.lft.to/lastmile_qr_scan"}, "is_reserved": 0, "fusion_lon": 0.0, "fusion_lat": 0.0, "lon": -77.01891166666667, "name": "6a860472cc3ee2db9663ef0f1f0620c0"}, {"bike_id": "a3e198b7a5666d7c90ae5fc31decee30", "type": "electric_scooter", "is_disabled": 0, "lat": 38.92311383333333, "rental_uris": {"ios": "https://dc.lft.to/lastmile_qr_scan", "android": "https://dc.lft.to/lastmile_qr_scan"}, "is_reserved": 0, "fusion_lon": 0.0, "fusion_lat": 0.0, "lon": -77.02982283333333, "name": "a3e198b7a5666d7c90ae5fc31decee30"}, {"bike_id": "dc718c3648597582bf9593f0af5451e2", "type": "electric_scooter", "is_disabled": 0, "lat": 38.8966235, "rental_uris": {"ios": "https://dc.lft.to/lastmile_qr_scan", "android": "https://dc.lft.to/lastmile_qr_scan"}, "is_reserved": 0, "fusion_lon": 0.0, "fusion_lat": 0.0, "lon": -77.028028, "name": "dc718c3648597582bf9593f0af5451e2"}, {"bike_id": "32671d2a8e6592a9080f34eede3d7aa7", "type": "electric_scooter", "is_disabled": 0, "lat": 38.92222566666667, "rental_uris": {"ios": "https://dc.lft.to/lastmile_qr_scan", "android": "https://dc.lft.to/lastmile_qr_scan"}, "is_reserved": 0, "fusion_lon": 0.0, "fusion_lat": 0.0, "lon": -77.04243066666666, "name": "32671d2a8e6592a9080f34eede3d7aa7"}, {"bike_id": "c5e578f2f5b89e4c53d5199dd28cc435", "type": "electric_scooter", "is_disabled": 0, "lat": 38.9008175, "rental_uris": {"ios": "https://dc.lft.to/lastmile_qr_scan", "android": "https://dc.lft.to/lastmile_qr_scan"}, "is_reserved": 0, "fusion_lon": 0.0, "fusion_lat": 0.0, "lon": -77.05053733333334, "name": "c5e578f2f5b89e4c53d5199dd28cc435"}, {"bike_id": "9c1d920210a4d3864f79a3252d548e93", "type": "electric_scooter", "is_disabled": 0, "lat": 38.917714, "rental_uris": {"ios": "https://dc.lft.to/lastmile_qr_scan", "android": "https://dc.lft.to/lastmile_qr_scan"}, "is_reserved": 0, "fusion_lon": 0.0, "fusion_lat": 0.0, "lon": -77.04775683333334, "name": "9c1d920210a4d3864f79a3252d548e93"}, {"bike_id": "87c58a62fbcd8a36d74a87ecabb82117", "type": "electric_scooter", "is_disabled": 0, "lat": 38.90117133333333, "rental_uris": {"ios": "https://dc.lft.to/lastmile_qr_scan", "android": "https://dc.lft.to/lastmile_qr_scan"}, "is_reserved": 0, "fusion_lon": 0.0, "fusion_lat": 0.0, "lon": -77.04977583333333, "name": "87c58a62fbcd8a36d74a87ecabb82117"}, {"bike_id": "b30359c778eb5eac304e5506e624c321", "type": "electric_scooter", "is_disabled": 0, "lat": 38.90089416666667, "rental_uris": {"ios": "https://dc.lft.to/lastmile_qr_scan", "android": "https://dc.lft.to/lastmile_qr_scan"}, "is_reserved": 0, "fusion_lon": 0.0, "fusion_lat": 0.0, "lon": -77.0121535, "name": "b30359c778eb5eac304e5506e624c321"}, {"bike_id": "6a58756c59346e71c2f665983256ec02", "type": "electric_scooter", "is_disabled": 0, "lat": 38.89234283333333, "rental_uris": {"ios": "https://dc.lft.to/lastmile_qr_scan", "android": "https://dc.lft.to/lastmile_qr_scan"}, "is_reserved": 0, "fusion_lon": 0.0, "fusion_lat": 0.0, "lon": -77.046793, "name": "6a58756c59346e71c2f665983256ec02"}, {"bike_id": "066b15c9cf6965a7f7080b69d17fbfca", "type": "electric_bike", "is_disabled": 0, "lat": 38.884069, "rental_uris": {"ios": "https://dc.lft.to/lastmile_qr_scan", "android": "https://dc.lft.to/lastmile_qr_scan"}, "is_reserved": 0, "fusion_lon": 0.0, "fusion_lat": 0.0, "lon": -76.96068483333333, "name": "066b15c9cf6965a7f7080b69d17fbfca"}, {"bike_id": "368c536a6b6bee319110ce84731ba86f", "type": "electric_scooter", "is_disabled": 0, "lat": 38.91421, "rental_uris": {"ios": "https://dc.lft.to/lastmile_qr_scan", "android": "https://dc.lft.to/lastmile_qr_scan"}, "is_reserved": 0, "fusion_lon": 0.0, "fusion_lat": 0.0, "lon": -77.0416155, "name": "368c536a6b6bee319110ce84731ba86f"}, {"bike_id": "b60b63471f14a37f6f4450701cf53822", "type": "electric_scooter", "is_disabled": 0, "lat": 38.875464666666666, "rental_uris": {"ios": "https://dc.lft.to/lastmile_qr_scan", "android": "https://dc.lft.to/lastmile_qr_scan"}, "is_reserved": 0, "fusion_lon": 0.0, "fusion_lat": 0.0, "lon": -77.00563866666667, "name": "b60b63471f14a37f6f4450701cf53822"}, {"bike_id": "c63dd6a400942be3d6d22df393909f2b", "type": "electric_scooter", "is_disabled": 0, "lat": 38.928582666666664, "rental_uris": {"ios": "https://dc.lft.to/lastmile_qr_scan", "android": "https://dc.lft.to/lastmile_qr_scan"}, "is_reserved": 0, "fusion_lon": 0.0, "fusion_lat": 0.0, "lon": -77.036564, "name": "c63dd6a400942be3d6d22df393909f2b"}, {"bike_id": "4c35a4d9154de34476fa711002a40f3d", "type": "electric_scooter", "is_disabled": 0, "lat": 38.9246695, "rental_uris": {"ios": "https://dc.lft.to/lastmile_qr_scan", "android": "https://dc.lft.to/lastmile_qr_scan"}, "is_reserved": 0, "fusion_lon": 0.0, "fusion_lat": 0.0, "lon": -77.03769283333334, "name": "4c35a4d9154de34476fa711002a40f3d"}, {"bike_id": "86994ca25396d6c010abacaee48f6b5c", "type": "electric_scooter", "is_disabled": 0, "lat": 38.93366416666667, "rental_uris": {"ios": "https://dc.lft.to/lastmile_qr_scan", "android": "https://dc.lft.to/lastmile_qr_scan"}, "is_reserved": 0, "fusion_lon": 0.0, "fusion_lat": 0.0, "lon": -77.02644433333333, "name": "86994ca25396d6c010abacaee48f6b5c"}, {"bike_id": "f00103d7374dd1e2eff0317597433ac2", "type": "electric_scooter", "is_disabled": 0, "lat": 38.9248785, "rental_uris": {"ios": "https://dc.lft.to/lastmile_qr_scan", "android": "https://dc.lft.to/lastmile_qr_scan"}, "is_reserved": 0, "fusion_lon": 0.0, "fusion_lat": 0.0, "lon": -77.03180516666667, "name": "f00103d7374dd1e2eff0317597433ac2"}, {"bike_id": "cfec06b792f84f8a71b11aaba68c3232", "type": "electric_scooter", "is_disabled": 0, "lat": 38.92326216666667, "rental_uris": {"ios": "https://dc.lft.to/lastmile_qr_scan", "android": "https://dc.lft.to/lastmile_qr_scan"}, "is_reserved": 0, "fusion_lon": 0.0, "fusion_lat": 0.0, "lon": -77.0088905, "name": "cfec06b792f84f8a71b11aaba68c3232"}, {"bike_id": "a6ad49769f95a91e9262dc618997b449", "type": "electric_scooter", "is_disabled": 0, "lat": 38.91997716666667, "rental_uris": {"ios": "https://dc.lft.to/lastmile_qr_scan", "android": "https://dc.lft.to/lastmile_qr_scan"}, "is_reserved": 0, "fusion_lon": 0.0, "fusion_lat": 0.0, "lon": -77.01789833333333, "name": "a6ad49769f95a91e9262dc618997b449"}, {"bike_id": "f960a4a32f3d64d564399ebf9420245e", "type": "electric_scooter", "is_disabled": 0, "lat": 38.918434166666664, "rental_uris": {"ios": "https://dc.lft.to/lastmile_qr_scan", "android": "https://dc.lft.to/lastmile_qr_scan"}, "is_reserved": 0, "fusion_lon": 0.0, "fusion_lat": 0.0, "lon": -77.03227883333334, "name": "f960a4a32f3d64d564399ebf9420245e"}, {"bike_id": "e9ceaafcee6e4b64f454b251979f7641", "type": "electric_scooter", "is_disabled": 0, "lat": 38.91656, "rental_uris": {"ios": "https://dc.lft.to/lastmile_qr_scan", "android": "https://dc.lft.to/lastmile_qr_scan"}, "is_reserved": 0, "fusion_lon": 0.0, "fusion_lat": 0.0, "lon": -76.97912966666667, "name": "e9ceaafcee6e4b64f454b251979f7641"}, {"bike_id": "16ce7c1733f345a6f3b9c7450e9f4fc1", "type": "electric_scooter", "is_disabled": 0, "lat": 38.920297166666664, "rental_uris": {"ios": "https://dc.lft.to/lastmile_qr_scan", "android": "https://dc.lft.to/lastmile_qr_scan"}, "is_reserved": 0, "fusion_lon": 0.0, "fusion_lat": 0.0, "lon": -77.00305883333333, "name": "16ce7c1733f345a6f3b9c7450e9f4fc1"}, {"bike_id": "b5070288412b23298dbb637fd887072c", "type": "electric_scooter", "is_disabled": 0, "lat": 38.907128166666666, "rental_uris": {"ios": "https://dc.lft.to/lastmile_qr_scan", "android": "https://dc.lft.to/lastmile_qr_scan"}, "is_reserved": 0, "fusion_lon": 0.0, "fusion_lat": 0.0, "lon": -77.03447766666666, "name": "b5070288412b23298dbb637fd887072c"}, {"bike_id": "902de01c37a6ef192a991b9adac7fbb8", "type": "electric_bike", "is_disabled": 0, "lat": 38.987692833333334, "rental_uris": {"ios": "https://dc.lft.to/lastmile_qr_scan", "android": "https://dc.lft.to/lastmile_qr_scan"}, "is_reserved": 0, "fusion_lon": 0.0, "fusion_lat": 0.0, "lon": -77.14054983333334, "name": "902de01c37a6ef192a991b9adac7fbb8"}, {"bike_id": "452ee83f8b45fa42030bf7682d4430ef", "type": "electric_bike", "is_disabled": 0, "lat": 38.931828833333334, "rental_uris": {"ios": "https://dc.lft.to/lastmile_qr_scan", "android": "https://dc.lft.to/lastmile_qr_scan"}, "is_reserved": 0, "fusion_lon": 0.0, "fusion_lat": 0.0, "lon": -77.03561783333333, "name": "452ee83f8b45fa42030bf7682d4430ef"}, {"bike_id": "28bc51705a33df7f7762cd6a4fa8a0f7", "type": "electric_scooter", "is_disabled": 0, "lat": 38.905869833333334, "rental_uris": {"ios": "https://dc.lft.to/lastmile_qr_scan", "android": "https://dc.lft.to/lastmile_qr_scan"}, "is_reserved": 0, "fusion_lon": 0.0, "fusion_lat": 0.0, "lon": -77.03424816666667, "name": "28bc51705a33df7f7762cd6a4fa8a0f7"}, {"bike_id": "6af7e45b0e179ed9bbb90ae76baf1895", "type": "electric_scooter", "is_disabled": 0, "lat": 38.9057055, "rental_uris": {"ios": "https://dc.lft.to/lastmile_qr_scan", "android": "https://dc.lft.to/lastmile_qr_scan"}, "is_reserved": 0, "fusion_lon": 0.0, "fusion_lat": 0.0, "lon": -77.002457, "name": "6af7e45b0e179ed9bbb90ae76baf1895"}, {"bike_id": "b2c76d86fd6fad3ce3d8f45d6a5dcf24", "type": "electric_scooter", "is_disabled": 0, "lat": 38.906126666666665, "rental_uris": {"ios": "https://dc.lft.to/lastmile_qr_scan", "android": "https://dc.lft.to/lastmile_qr_scan"}, "is_reserved": 0, "fusion_lon": 0.0, "fusion_lat": 0.0, "lon": -77.02794033333333, "name": "b2c76d86fd6fad3ce3d8f45d6a5dcf24"}, {"bike_id": "393770e152c9d32d340d79dbb23c6d8e", "type": "electric_scooter", "is_disabled": 0, "lat": 38.8960295, "rental_uris": {"ios": "https://dc.lft.to/lastmile_qr_scan", "android": "https://dc.lft.to/lastmile_qr_scan"}, "is_reserved": 0, "fusion_lon": 0.0, "fusion_lat": 0.0, "lon": -77.04432483333333, "name": "393770e152c9d32d340d79dbb23c6d8e"}, {"bike_id": "8fea0a1da4edd403afad580d604c56a7", "type": "electric_scooter", "is_disabled": 0, "lat": 38.902697333333336, "rental_uris": {"ios": "https://dc.lft.to/lastmile_qr_scan", "android": "https://dc.lft.to/lastmile_qr_scan"}, "is_reserved": 0, "fusion_lon": 0.0, "fusion_lat": 0.0, "lon": -77.0190205, "name": "8fea0a1da4edd403afad580d604c56a7"}, {"bike_id": "7a47959cdca2d7c2a3cafb32ff7a5a06", "type": "electric_scooter", "is_disabled": 0, "lat": 38.95649916666667, "rental_uris": {"ios": "https://dc.lft.to/lastmile_qr_scan", "android": "https://dc.lft.to/lastmile_qr_scan"}, "is_reserved": 0, "fusion_lon": 0.0, "fusion_lat": 0.0, "lon": -77.02402916666666, "name": "7a47959cdca2d7c2a3cafb32ff7a5a06"}, {"bike_id": "011a5ec1f01bc5333c409aa6a17c745a", "type": "electric_scooter", "is_disabled": 0, "lat": 38.887175166666665, "rental_uris": {"ios": "https://dc.lft.to/lastmile_qr_scan", "android": "https://dc.lft.to/lastmile_qr_scan"}, "is_reserved": 0, "fusion_lon": 0.0, "fusion_lat": 0.0, "lon": -76.99630816666667, "name": "011a5ec1f01bc5333c409aa6a17c745a"}, {"bike_id": "5c66c1d6625bc6ff0977f2d31e548ff2", "type": "electric_scooter", "is_disabled": 0, "lat": 38.897411166666664, "rental_uris": {"ios": "https://dc.lft.to/lastmile_qr_scan", "android": "https://dc.lft.to/lastmile_qr_scan"}, "is_reserved": 0, "fusion_lon": 0.0, "fusion_lat": 0.0, "lon": -77.04684233333333, "name": "5c66c1d6625bc6ff0977f2d31e548ff2"}, {"bike_id": "82c47a407f498b1b9a8b8c0c64293376", "type": "electric_scooter", "is_disabled": 0, "lat": 38.892911833333336, "rental_uris": {"ios": "https://dc.lft.to/lastmile_qr_scan", "android": "https://dc.lft.to/lastmile_qr_scan"}, "is_reserved": 0, "fusion_lon": 0.0, "fusion_lat": 0.0, "lon": -77.04873733333334, "name": "82c47a407f498b1b9a8b8c0c64293376"}, {"bike_id": "7b9ee49f34b61de348a2684883292912", "type": "electric_scooter", "is_disabled": 0, "lat": 38.9056035, "rental_uris": {"ios": "https://dc.lft.to/lastmile_qr_scan", "android": "https://dc.lft.to/lastmile_qr_scan"}, "is_reserved": 0, "fusion_lon": 0.0, "fusion_lat": 0.0, "lon": -77.04485766666667, "name": "7b9ee49f34b61de348a2684883292912"}, {"bike_id": "a7de10774938ac7785ec004ba5ad5636", "type": "electric_scooter", "is_disabled": 0, "lat": 38.929143, "rental_uris": {"ios": "https://dc.lft.to/lastmile_qr_scan", "android": "https://dc.lft.to/lastmile_qr_scan"}, "is_reserved": 0, "fusion_lon": 0.0, "fusion_lat": 0.0, "lon": -77.037637, "name": "a7de10774938ac7785ec004ba5ad5636"}, {"bike_id": "05491a4a8b627c4875cac7a259e86c8d", "type": "electric_scooter", "is_disabled": 0, "lat": 38.87924916666667, "rental_uris": {"ios": "https://dc.lft.to/lastmile_qr_scan", "android": "https://dc.lft.to/lastmile_qr_scan"}, "is_reserved": 0, "fusion_lon": 0.0, "fusion_lat": 0.0, "lon": -77.00594166666667, "name": "05491a4a8b627c4875cac7a259e86c8d"}, {"bike_id": "3d8a45e07c2995bdb51df886e6ed18cb", "type": "electric_scooter", "is_disabled": 0, "lat": 38.897327, "rental_uris": {"ios": "https://dc.lft.to/lastmile_qr_scan", "android": "https://dc.lft.to/lastmile_qr_scan"}, "is_reserved": 0, "fusion_lon": 0.0, "fusion_lat": 0.0, "lon": -77.02716383333333, "name": "3d8a45e07c2995bdb51df886e6ed18cb"}, {"bike_id": "d90d16437b4f856f1c5cbc6d6927bafb", "type": "electric_scooter", "is_disabled": 0, "lat": 38.86437733333333, "rental_uris": {"ios": "https://dc.lft.to/lastmile_qr_scan", "android": "https://dc.lft.to/lastmile_qr_scan"}, "is_reserved": 0, "fusion_lon": 0.0, "fusion_lat": 0.0, "lon": -76.97985266666667, "name": "d90d16437b4f856f1c5cbc6d6927bafb"}, {"bike_id": "57faca3bfab6b25ad714b779b92244c5", "type": "electric_scooter", "is_disabled": 0, "lat": 38.906433666666665, "rental_uris": {"ios": "https://dc.lft.to/lastmile_qr_scan", "android": "https://dc.lft.to/lastmile_qr_scan"}, "is_reserved": 0, "fusion_lon": 0.0, "fusion_lat": 0.0, "lon": -77.01832416666667, "name": "57faca3bfab6b25ad714b779b92244c5"}, {"bike_id": "75a7fdfda82aebf9c334173dab78cd14", "type": "electric_scooter", "is_disabled": 0, "lat": 38.896288166666665, "rental_uris": {"ios": "https://dc.lft.to/lastmile_qr_scan", "android": "https://dc.lft.to/lastmile_qr_scan"}, "is_reserved": 0, "fusion_lon": 0.0, "fusion_lat": 0.0, "lon": -77.023252, "name": "75a7fdfda82aebf9c334173dab78cd14"}, {"bike_id": "d0d5030ab41fff6e57011d6ce0b98121", "type": "electric_scooter", "is_disabled": 0, "lat": 38.872181499999996, "rental_uris": {"ios": "https://dc.lft.to/lastmile_qr_scan", "android": "https://dc.lft.to/lastmile_qr_scan"}, "is_reserved": 0, "fusion_lon": 0.0, "fusion_lat": 0.0, "lon": -77.01768583333333, "name": "d0d5030ab41fff6e57011d6ce0b98121"}, {"bike_id": "111adc495854fba36291b7e317f024c3", "type": "electric_scooter", "is_disabled": 0, "lat": 38.892555333333334, "rental_uris": {"ios": "https://dc.lft.to/lastmile_qr_scan", "android": "https://dc.lft.to/lastmile_qr_scan"}, "is_reserved": 0, "fusion_lon": 0.0, "fusion_lat": 0.0, "lon": -76.9257545, "name": "111adc495854fba36291b7e317f024c3"}, {"bike_id": "b37ee42b4b36771a7dc80284067528eb", "type": "electric_scooter", "is_disabled": 0, "lat": 38.89740533333333, "rental_uris": {"ios": "https://dc.lft.to/lastmile_qr_scan", "android": "https://dc.lft.to/lastmile_qr_scan"}, "is_reserved": 0, "fusion_lon": 0.0, "fusion_lat": 0.0, "lon": -77.04675316666666, "name": "b37ee42b4b36771a7dc80284067528eb"}, {"bike_id": "bfa89c399baceb8de4956038e2d66022", "type": "electric_scooter", "is_disabled": 0, "lat": 38.90982066666667, "rental_uris": {"ios": "https://dc.lft.to/lastmile_qr_scan", "android": "https://dc.lft.to/lastmile_qr_scan"}, "is_reserved": 0, "fusion_lon": 0.0, "fusion_lat": 0.0, "lon": -77.0344325, "name": "bfa89c399baceb8de4956038e2d66022"}, {"bike_id": "f7ef4ff1bb1888417f7518ec62777d33", "type": "electric_scooter", "is_disabled": 0, "lat": 38.88419016666667, "rental_uris": {"ios": "https://dc.lft.to/lastmile_qr_scan", "android": "https://dc.lft.to/lastmile_qr_scan"}, "is_reserved": 0, "fusion_lon": 0.0, "fusion_lat": 0.0, "lon": -77.00060816666667, "name": "f7ef4ff1bb1888417f7518ec62777d33"}, {"bike_id": "5e0b61b06cdc2e0cf7dfd3a332452414", "type": "electric_scooter", "is_disabled": 0, "lat": 38.89228333333333, "rental_uris": {"ios": "https://dc.lft.to/lastmile_qr_scan", "android": "https://dc.lft.to/lastmile_qr_scan"}, "is_reserved": 0, "fusion_lon": 0.0, "fusion_lat": 0.0, "lon": -77.04956316666667, "name": "5e0b61b06cdc2e0cf7dfd3a332452414"}, {"bike_id": "50f50cf823c4fed9043aa73a6693a8e8", "type": "electric_scooter", "is_disabled": 0, "lat": 38.930362333333335, "rental_uris": {"ios": "https://dc.lft.to/lastmile_qr_scan", "android": "https://dc.lft.to/lastmile_qr_scan"}, "is_reserved": 0, "fusion_lon": 0.0, "fusion_lat": 0.0, "lon": -77.02337916666667, "name": "50f50cf823c4fed9043aa73a6693a8e8"}, {"bike_id": "9e5233bd26b0312b7a2aee928696bec6", "type": "electric_scooter", "is_disabled": 0, "lat": 38.912666333333334, "rental_uris": {"ios": "https://dc.lft.to/lastmile_qr_scan", "android": "https://dc.lft.to/lastmile_qr_scan"}, "is_reserved": 0, "fusion_lon": 0.0, "fusion_lat": 0.0, "lon": -77.04513816666666, "name": "9e5233bd26b0312b7a2aee928696bec6"}, {"bike_id": "af0d294b94ca0b3ab37ced51f4c17ee4", "type": "electric_scooter", "is_disabled": 0, "lat": 38.89716033333333, "rental_uris": {"ios": "https://dc.lft.to/lastmile_qr_scan", "android": "https://dc.lft.to/lastmile_qr_scan"}, "is_reserved": 0, "fusion_lon": 0.0, "fusion_lat": 0.0, "lon": -77.02724866666667, "name": "af0d294b94ca0b3ab37ced51f4c17ee4"}, {"bike_id": "94ac25f7733ecf29fa7a778d57383286", "type": "electric_scooter", "is_disabled": 0, "lat": 38.89842, "rental_uris": {"ios": "https://dc.lft.to/lastmile_qr_scan", "android": "https://dc.lft.to/lastmile_qr_scan"}, "is_reserved": 0, "fusion_lon": 0.0, "fusion_lat": 0.0, "lon": -76.946317, "name": "94ac25f7733ecf29fa7a778d57383286"}, {"bike_id": "6570c1ed7486fb879f601dd75d12d5da", "type": "electric_scooter", "is_disabled": 0, "lat": 38.907354, "rental_uris": {"ios": "https://dc.lft.to/lastmile_qr_scan", "android": "https://dc.lft.to/lastmile_qr_scan"}, "is_reserved": 0, "fusion_lon": 0.0, "fusion_lat": 0.0, "lon": -77.02185983333334, "name": "6570c1ed7486fb879f601dd75d12d5da"}, {"bike_id": "8d50c54ee2636988135c2fe1658d7084", "type": "electric_scooter", "is_disabled": 0, "lat": 38.923898333333334, "rental_uris": {"ios": "https://dc.lft.to/lastmile_qr_scan", "android": "https://dc.lft.to/lastmile_qr_scan"}, "is_reserved": 0, "fusion_lon": 0.0, "fusion_lat": 0.0, "lon": -77.04451016666667, "name": "8d50c54ee2636988135c2fe1658d7084"}, {"bike_id": "664289afdb8dccb4570aabeae769e658", "type": "electric_scooter", "is_disabled": 0, "lat": 38.9232655, "rental_uris": {"ios": "https://dc.lft.to/lastmile_qr_scan", "android": "https://dc.lft.to/lastmile_qr_scan"}, "is_reserved": 0, "fusion_lon": 0.0, "fusion_lat": 0.0, "lon": -77.05409883333333, "name": "664289afdb8dccb4570aabeae769e658"}, {"bike_id": "43c55e161ce2717d73a7d415d6530195", "type": "electric_scooter", "is_disabled": 0, "lat": 38.904020333333335, "rental_uris": {"ios": "https://dc.lft.to/lastmile_qr_scan", "android": "https://dc.lft.to/lastmile_qr_scan"}, "is_reserved": 0, "fusion_lon": 0.0, "fusion_lat": 0.0, "lon": -77.024771, "name": "43c55e161ce2717d73a7d415d6530195"}, {"bike_id": "4e569601f26f0609ecaff754d31ea215", "type": "electric_bike", "is_disabled": 0, "lat": 38.81505766666667, "rental_uris": {"ios": "https://dc.lft.to/lastmile_qr_scan", "android": "https://dc.lft.to/lastmile_qr_scan"}, "is_reserved": 0, "fusion_lon": 0.0, "fusion_lat": 0.0, "lon": -77.12658883333333, "name": "4e569601f26f0609ecaff754d31ea215"}, {"bike_id": "347e4d7b2552e5a9e8008a8ad5dcc3f5", "type": "electric_scooter", "is_disabled": 0, "lat": 38.924494833333334, "rental_uris": {"ios": "https://dc.lft.to/lastmile_qr_scan", "android": "https://dc.lft.to/lastmile_qr_scan"}, "is_reserved": 0, "fusion_lon": 0.0, "fusion_lat": 0.0, "lon": -77.03343283333334, "name": "347e4d7b2552e5a9e8008a8ad5dcc3f5"}, {"bike_id": "7eb41eccd2df90aeb760fae8e38cafb5", "type": "electric_bike", "is_disabled": 0, "lat": 38.796041833333334, "rental_uris": {"ios": "https://dc.lft.to/lastmile_qr_scan", "android": "https://dc.lft.to/lastmile_qr_scan"}, "is_reserved": 0, "fusion_lon": 0.0, "fusion_lat": 0.0, "lon": -76.99745733333333, "name": "7eb41eccd2df90aeb760fae8e38cafb5"}, {"bike_id": "ec1fa29e64eea563f297d501cb6ec871", "type": "electric_scooter", "is_disabled": 0, "lat": 38.91420383333333, "rental_uris": {"ios": "https://dc.lft.to/lastmile_qr_scan", "android": "https://dc.lft.to/lastmile_qr_scan"}, "is_reserved": 0, "fusion_lon": 0.0, "fusion_lat": 0.0, "lon": -77.017989, "name": "ec1fa29e64eea563f297d501cb6ec871"}, {"bike_id": "b281140414c1fe15c5cb37225b072bce", "type": "electric_scooter", "is_disabled": 0, "lat": 38.892386333333334, "rental_uris": {"ios": "https://dc.lft.to/lastmile_qr_scan", "android": "https://dc.lft.to/lastmile_qr_scan"}, "is_reserved": 0, "fusion_lon": 0.0, "fusion_lat": 0.0, "lon": -77.0416625, "name": "b281140414c1fe15c5cb37225b072bce"}, {"bike_id": "aea80156a8e4c0bb6d090d1d741a87ce", "type": "electric_scooter", "is_disabled": 0, "lat": 38.922013, "rental_uris": {"ios": "https://dc.lft.to/lastmile_qr_scan", "android": "https://dc.lft.to/lastmile_qr_scan"}, "is_reserved": 0, "fusion_lon": 0.0, "fusion_lat": 0.0, "lon": -77.034055, "name": "aea80156a8e4c0bb6d090d1d741a87ce"}, {"bike_id": "f70ae7a88a10c37bd4c6f99ad3f3beb0", "type": "electric_scooter", "is_disabled": 0, "lat": 38.9171185, "rental_uris": {"ios": "https://dc.lft.to/lastmile_qr_scan", "android": "https://dc.lft.to/lastmile_qr_scan"}, "is_reserved": 0, "fusion_lon": 0.0, "fusion_lat": 0.0, "lon": -77.03868383333334, "name": "f70ae7a88a10c37bd4c6f99ad3f3beb0"}, {"bike_id": "e98a2536d5c893c9e82f2a97fc6591ae", "type": "electric_scooter", "is_disabled": 0, "lat": 38.916858, "rental_uris": {"ios": "https://dc.lft.to/lastmile_qr_scan", "android": "https://dc.lft.to/lastmile_qr_scan"}, "is_reserved": 0, "fusion_lon": 0.0, "fusion_lat": 0.0, "lon": -77.03850216666666, "name": "e98a2536d5c893c9e82f2a97fc6591ae"}, {"bike_id": "3a0fca55932cae0e4b6d089e4c18eead", "type": "electric_scooter", "is_disabled": 0, "lat": 38.93891883333333, "rental_uris": {"ios": "https://dc.lft.to/lastmile_qr_scan", "android": "https://dc.lft.to/lastmile_qr_scan"}, "is_reserved": 0, "fusion_lon": 0.0, "fusion_lat": 0.0, "lon": -77.03321533333333, "name": "3a0fca55932cae0e4b6d089e4c18eead"}, {"bike_id": "71e5dd36ff3aac083ee7f91f5e5ed7c9", "type": "electric_scooter", "is_disabled": 0, "lat": 38.89966483333333, "rental_uris": {"ios": "https://dc.lft.to/lastmile_qr_scan", "android": "https://dc.lft.to/lastmile_qr_scan"}, "is_reserved": 0, "fusion_lon": 0.0, "fusion_lat": 0.0, "lon": -77.01986666666667, "name": "71e5dd36ff3aac083ee7f91f5e5ed7c9"}, {"bike_id": "ed1e3cde2b5433896f0f641a9410c2f0", "type": "electric_scooter", "is_disabled": 0, "lat": 38.905821833333334, "rental_uris": {"ios": "https://dc.lft.to/lastmile_qr_scan", "android": "https://dc.lft.to/lastmile_qr_scan"}, "is_reserved": 0, "fusion_lon": 0.0, "fusion_lat": 0.0, "lon": -77.04567966666667, "name": "ed1e3cde2b5433896f0f641a9410c2f0"}, {"bike_id": "0fa11b4745a6c52e8b847c950ce5e946", "type": "electric_scooter", "is_disabled": 0, "lat": 38.9081595, "rental_uris": {"ios": "https://dc.lft.to/lastmile_qr_scan", "android": "https://dc.lft.to/lastmile_qr_scan"}, "is_reserved": 0, "fusion_lon": 0.0, "fusion_lat": 0.0, "lon": -77.0433805, "name": "0fa11b4745a6c52e8b847c950ce5e946"}, {"bike_id": "73069da955a9e95a897d8de854e57564", "type": "electric_scooter", "is_disabled": 0, "lat": 38.935106, "rental_uris": {"ios": "https://dc.lft.to/lastmile_qr_scan", "android": "https://dc.lft.to/lastmile_qr_scan"}, "is_reserved": 0, "fusion_lon": 0.0, "fusion_lat": 0.0, "lon": -77.01960616666666, "name": "73069da955a9e95a897d8de854e57564"}, {"bike_id": "24a15a60bf84bc2311dbb679695ca73b", "type": "electric_scooter", "is_disabled": 0, "lat": 38.916313, "rental_uris": {"ios": "https://dc.lft.to/lastmile_qr_scan", "android": "https://dc.lft.to/lastmile_qr_scan"}, "is_reserved": 0, "fusion_lon": 0.0, "fusion_lat": 0.0, "lon": -77.0304565, "name": "24a15a60bf84bc2311dbb679695ca73b"}, {"bike_id": "4b19872f609a8256af470e6c2c5e8ccd", "type": "electric_scooter", "is_disabled": 0, "lat": 38.920670333333334, "rental_uris": {"ios": "https://dc.lft.to/lastmile_qr_scan", "android": "https://dc.lft.to/lastmile_qr_scan"}, "is_reserved": 0, "fusion_lon": 0.0, "fusion_lat": 0.0, "lon": -77.01482716666666, "name": "4b19872f609a8256af470e6c2c5e8ccd"}, {"bike_id": "b62ed1fe9a1779a88111efc46397ece0", "type": "electric_scooter", "is_disabled": 0, "lat": 38.87897266666667, "rental_uris": {"ios": "https://dc.lft.to/lastmile_qr_scan", "android": "https://dc.lft.to/lastmile_qr_scan"}, "is_reserved": 0, "fusion_lon": 0.0, "fusion_lat": 0.0, "lon": -76.9916335, "name": "b62ed1fe9a1779a88111efc46397ece0"}, {"bike_id": "f07a043aad3e6498cf02c1b2d959d0c4", "type": "electric_scooter", "is_disabled": 0, "lat": 38.9005905, "rental_uris": {"ios": "https://dc.lft.to/lastmile_qr_scan", "android": "https://dc.lft.to/lastmile_qr_scan"}, "is_reserved": 0, "fusion_lon": 0.0, "fusion_lat": 0.0, "lon": -77.0508925, "name": "f07a043aad3e6498cf02c1b2d959d0c4"}, {"bike_id": "f97b36cef39383d68332d61bbb9e71e9", "type": "electric_scooter", "is_disabled": 0, "lat": 38.9074155, "rental_uris": {"ios": "https://dc.lft.to/lastmile_qr_scan", "android": "https://dc.lft.to/lastmile_qr_scan"}, "is_reserved": 0, "fusion_lon": 0.0, "fusion_lat": 0.0, "lon": -77.04272816666666, "name": "f97b36cef39383d68332d61bbb9e71e9"}, {"bike_id": "31f2951bfce1f3a8d250dd60de9fa4a8", "type": "electric_scooter", "is_disabled": 0, "lat": 38.897023, "rental_uris": {"ios": "https://dc.lft.to/lastmile_qr_scan", "android": "https://dc.lft.to/lastmile_qr_scan"}, "is_reserved": 0, "fusion_lon": 0.0, "fusion_lat": 0.0, "lon": -76.92996066666667, "name": "31f2951bfce1f3a8d250dd60de9fa4a8"}, {"bike_id": "ff477daf1d5b79f4b7f8786bf67eedb7", "type": "electric_scooter", "is_disabled": 0, "lat": 38.882116333333336, "rental_uris": {"ios": "https://dc.lft.to/lastmile_qr_scan", "android": "https://dc.lft.to/lastmile_qr_scan"}, "is_reserved": 0, "fusion_lon": 0.0, "fusion_lat": 0.0, "lon": -77.029126, "name": "ff477daf1d5b79f4b7f8786bf67eedb7"}, {"bike_id": "f5e710f0d6073b92b232dcd4967d77e1", "type": "electric_scooter", "is_disabled": 0, "lat": 38.89511016666667, "rental_uris": {"ios": "https://dc.lft.to/lastmile_qr_scan", "android": "https://dc.lft.to/lastmile_qr_scan"}, "is_reserved": 0, "fusion_lon": 0.0, "fusion_lat": 0.0, "lon": -77.02276233333333, "name": "f5e710f0d6073b92b232dcd4967d77e1"}, {"bike_id": "c17c5f32a8fdaad4cdd5c9a03918c560", "type": "electric_scooter", "is_disabled": 0, "lat": 38.887189, "rental_uris": {"ios": "https://dc.lft.to/lastmile_qr_scan", "android": "https://dc.lft.to/lastmile_qr_scan"}, "is_reserved": 0, "fusion_lon": 0.0, "fusion_lat": 0.0, "lon": -77.0217005, "name": "c17c5f32a8fdaad4cdd5c9a03918c560"}, {"bike_id": "23e69f0dcc7f9dde4f25f3a9ca7e14d8", "type": "electric_scooter", "is_disabled": 0, "lat": 38.90735, "rental_uris": {"ios": "https://dc.lft.to/lastmile_qr_scan", "android": "https://dc.lft.to/lastmile_qr_scan"}, "is_reserved": 0, "fusion_lon": 0.0, "fusion_lat": 0.0, "lon": -77.021856, "name": "23e69f0dcc7f9dde4f25f3a9ca7e14d8"}, {"bike_id": "4e1a300987e4c5a791017491b621955f", "type": "electric_scooter", "is_disabled": 0, "lat": 38.9084855, "rental_uris": {"ios": "https://dc.lft.to/lastmile_qr_scan", "android": "https://dc.lft.to/lastmile_qr_scan"}, "is_reserved": 0, "fusion_lon": 0.0, "fusion_lat": 0.0, "lon": -77.020656, "name": "4e1a300987e4c5a791017491b621955f"}, {"bike_id": "e8cab6d780c07dd20a342474ca682734", "type": "electric_scooter", "is_disabled": 0, "lat": 38.86632216666667, "rental_uris": {"ios": "https://dc.lft.to/lastmile_qr_scan", "android": "https://dc.lft.to/lastmile_qr_scan"}, "is_reserved": 0, "fusion_lon": 0.0, "fusion_lat": 0.0, "lon": -76.989079, "name": "e8cab6d780c07dd20a342474ca682734"}, {"bike_id": "20c08029cb001ccb576c9bdb6e854821", "type": "electric_scooter", "is_disabled": 0, "lat": 38.902401, "rental_uris": {"ios": "https://dc.lft.to/lastmile_qr_scan", "android": "https://dc.lft.to/lastmile_qr_scan"}, "is_reserved": 0, "fusion_lon": 0.0, "fusion_lat": 0.0, "lon": -77.035716, "name": "20c08029cb001ccb576c9bdb6e854821"}, {"bike_id": "7a01f478bee1415362d9f30cb7a5a516", "type": "electric_scooter", "is_disabled": 0, "lat": 38.916847, "rental_uris": {"ios": "https://dc.lft.to/lastmile_qr_scan", "android": "https://dc.lft.to/lastmile_qr_scan"}, "is_reserved": 0, "fusion_lon": 0.0, "fusion_lat": 0.0, "lon": -77.038464, "name": "7a01f478bee1415362d9f30cb7a5a516"}, {"bike_id": "0bb3754d5db3d9a8ac691a104c0e9ebc", "type": "electric_scooter", "is_disabled": 0, "lat": 38.884269, "rental_uris": {"ios": "https://dc.lft.to/lastmile_qr_scan", "android": "https://dc.lft.to/lastmile_qr_scan"}, "is_reserved": 0, "fusion_lon": 0.0, "fusion_lat": 0.0, "lon": -76.95752483333334, "name": "0bb3754d5db3d9a8ac691a104c0e9ebc"}, {"bike_id": "7092eaaed501f93fdc0700e45bb1a356", "type": "electric_scooter", "is_disabled": 0, "lat": 38.9155295, "rental_uris": {"ios": "https://dc.lft.to/lastmile_qr_scan", "android": "https://dc.lft.to/lastmile_qr_scan"}, "is_reserved": 0, "fusion_lon": 0.0, "fusion_lat": 0.0, "lon": -77.021413, "name": "7092eaaed501f93fdc0700e45bb1a356"}, {"bike_id": "515f91af24f7bdbadafb04664a26d2d2", "type": "electric_scooter", "is_disabled": 0, "lat": 38.90566666666667, "rental_uris": {"ios": "https://dc.lft.to/lastmile_qr_scan", "android": "https://dc.lft.to/lastmile_qr_scan"}, "is_reserved": 0, "fusion_lon": 0.0, "fusion_lat": 0.0, "lon": -77.04497066666667, "name": "515f91af24f7bdbadafb04664a26d2d2"}, {"bike_id": "2a8543de36d22b92a0d221496b701a95", "type": "electric_scooter", "is_disabled": 0, "lat": 38.90809333333333, "rental_uris": {"ios": "https://dc.lft.to/lastmile_qr_scan", "android": "https://dc.lft.to/lastmile_qr_scan"}, "is_reserved": 0, "fusion_lon": 0.0, "fusion_lat": 0.0, "lon": -77.02600633333333, "name": "2a8543de36d22b92a0d221496b701a95"}, {"bike_id": "84ae07965dd7677dc35e54e511e44ec5", "type": "electric_bike", "is_disabled": 0, "lat": 38.8651705, "rental_uris": {"ios": "https://dc.lft.to/lastmile_qr_scan", "android": "https://dc.lft.to/lastmile_qr_scan"}, "is_reserved": 0, "fusion_lon": 0.0, "fusion_lat": 0.0, "lon": -77.129347, "name": "84ae07965dd7677dc35e54e511e44ec5"}, {"bike_id": "070a6105601ae5eac6b754b1195da365", "type": "electric_bike", "is_disabled": 0, "lat": 38.8039455, "rental_uris": {"ios": "https://dc.lft.to/lastmile_qr_scan", "android": "https://dc.lft.to/lastmile_qr_scan"}, "is_reserved": 0, "fusion_lon": 0.0, "fusion_lat": 0.0, "lon": -77.0556765, "name": "070a6105601ae5eac6b754b1195da365"}, {"bike_id": "0a21355d3d4f0ae9a10525034f803f5b", "type": "electric_scooter", "is_disabled": 0, "lat": 38.94469866666667, "rental_uris": {"ios": "https://dc.lft.to/lastmile_qr_scan", "android": "https://dc.lft.to/lastmile_qr_scan"}, "is_reserved": 0, "fusion_lon": 0.0, "fusion_lat": 0.0, "lon": -77.02342516666667, "name": "0a21355d3d4f0ae9a10525034f803f5b"}, {"bike_id": "c614c32d15b38db5a87709b0e42045e6", "type": "electric_scooter", "is_disabled": 0, "lat": 38.926259333333334, "rental_uris": {"ios": "https://dc.lft.to/lastmile_qr_scan", "android": "https://dc.lft.to/lastmile_qr_scan"}, "is_reserved": 0, "fusion_lon": 0.0, "fusion_lat": 0.0, "lon": -77.0371135, "name": "c614c32d15b38db5a87709b0e42045e6"}, {"bike_id": "b1406f3153c8e4226d864f42818dbad0", "type": "electric_bike", "is_disabled": 0, "lat": 38.91903716666667, "rental_uris": {"ios": "https://dc.lft.to/lastmile_qr_scan", "android": "https://dc.lft.to/lastmile_qr_scan"}, "is_reserved": 0, "fusion_lon": 0.0, "fusion_lat": 0.0, "lon": -77.00064133333333, "name": "b1406f3153c8e4226d864f42818dbad0"}, {"bike_id": "bbc208adfa3f2ea6115134dbd5a3b061", "type": "electric_scooter", "is_disabled": 0, "lat": 38.901772, "rental_uris": {"ios": "https://dc.lft.to/lastmile_qr_scan", "android": "https://dc.lft.to/lastmile_qr_scan"}, "is_reserved": 0, "fusion_lon": 0.0, "fusion_lat": 0.0, "lon": -77.02117383333334, "name": "bbc208adfa3f2ea6115134dbd5a3b061"}, {"bike_id": "c832764ff94d956990c6343c1b5dcfc9", "type": "electric_scooter", "is_disabled": 0, "lat": 38.9372655, "rental_uris": {"ios": "https://dc.lft.to/lastmile_qr_scan", "android": "https://dc.lft.to/lastmile_qr_scan"}, "is_reserved": 0, "fusion_lon": 0.0, "fusion_lat": 0.0, "lon": -77.02007716666667, "name": "c832764ff94d956990c6343c1b5dcfc9"}, {"bike_id": "feb5adf8367ae68b655a01a63c6c2047", "type": "electric_scooter", "is_disabled": 0, "lat": 38.932240666666665, "rental_uris": {"ios": "https://dc.lft.to/lastmile_qr_scan", "android": "https://dc.lft.to/lastmile_qr_scan"}, "is_reserved": 0, "fusion_lon": 0.0, "fusion_lat": 0.0, "lon": -77.03869116666667, "name": "feb5adf8367ae68b655a01a63c6c2047"}, {"bike_id": "0209cca6c586ba17846f65dd623d6a77", "type": "electric_bike", "is_disabled": 0, "lat": 38.87485066666667, "rental_uris": {"ios": "https://dc.lft.to/lastmile_qr_scan", "android": "https://dc.lft.to/lastmile_qr_scan"}, "is_reserved": 0, "fusion_lon": 0.0, "fusion_lat": 0.0, "lon": -76.965293, "name": "0209cca6c586ba17846f65dd623d6a77"}, {"bike_id": "c6f3a12af80b8f38379b02a25c55ab7d", "type": "electric_scooter", "is_disabled": 0, "lat": 38.908652833333335, "rental_uris": {"ios": "https://dc.lft.to/lastmile_qr_scan", "android": "https://dc.lft.to/lastmile_qr_scan"}, "is_reserved": 0, "fusion_lon": 0.0, "fusion_lat": 0.0, "lon": -77.085917, "name": "c6f3a12af80b8f38379b02a25c55ab7d"}, {"bike_id": "f327c0325222dc21a39db0f659084542", "type": "electric_scooter", "is_disabled": 0, "lat": 38.909575, "rental_uris": {"ios": "https://dc.lft.to/lastmile_qr_scan", "android": "https://dc.lft.to/lastmile_qr_scan"}, "is_reserved": 0, "fusion_lon": 0.0, "fusion_lat": 0.0, "lon": -77.0445665, "name": "f327c0325222dc21a39db0f659084542"}, {"bike_id": "2da524409bb260bf2837e52339fe5e38", "type": "electric_scooter", "is_disabled": 0, "lat": 38.91485866666667, "rental_uris": {"ios": "https://dc.lft.to/lastmile_qr_scan", "android": "https://dc.lft.to/lastmile_qr_scan"}, "is_reserved": 0, "fusion_lon": 0.0, "fusion_lat": 0.0, "lon": -77.0376095, "name": "2da524409bb260bf2837e52339fe5e38"}, {"bike_id": "75048e46c5450fc55cbd3e1a5c3956a9", "type": "electric_scooter", "is_disabled": 0, "lat": 38.913237, "rental_uris": {"ios": "https://dc.lft.to/lastmile_qr_scan", "android": "https://dc.lft.to/lastmile_qr_scan"}, "is_reserved": 0, "fusion_lon": 0.0, "fusion_lat": 0.0, "lon": -77.0318425, "name": "75048e46c5450fc55cbd3e1a5c3956a9"}, {"bike_id": "302d379667c0ace1ab2b16ecd4ecb36f", "type": "electric_scooter", "is_disabled": 0, "lat": 38.8947585, "rental_uris": {"ios": "https://dc.lft.to/lastmile_qr_scan", "android": "https://dc.lft.to/lastmile_qr_scan"}, "is_reserved": 0, "fusion_lon": 0.0, "fusion_lat": 0.0, "lon": -76.948609, "name": "302d379667c0ace1ab2b16ecd4ecb36f"}, {"bike_id": "53861f0a63672bbfb69c2aa075294a1e", "type": "electric_bike", "is_disabled": 0, "lat": 38.9238245, "rental_uris": {"ios": "https://dc.lft.to/lastmile_qr_scan", "android": "https://dc.lft.to/lastmile_qr_scan"}, "is_reserved": 0, "fusion_lon": 0.0, "fusion_lat": 0.0, "lon": -77.030384, "name": "53861f0a63672bbfb69c2aa075294a1e"}, {"bike_id": "d4f7121a6d3d8de5af4738f2423ac63a", "type": "electric_scooter", "is_disabled": 0, "lat": 38.892266, "rental_uris": {"ios": "https://dc.lft.to/lastmile_qr_scan", "android": "https://dc.lft.to/lastmile_qr_scan"}, "is_reserved": 0, "fusion_lon": 0.0, "fusion_lat": 0.0, "lon": -77.03172883333333, "name": "d4f7121a6d3d8de5af4738f2423ac63a"}, {"bike_id": "3ff666c4c3be22e156857617a76cd609", "type": "electric_scooter", "is_disabled": 0, "lat": 38.91120083333333, "rental_uris": {"ios": "https://dc.lft.to/lastmile_qr_scan", "android": "https://dc.lft.to/lastmile_qr_scan"}, "is_reserved": 0, "fusion_lon": 0.0, "fusion_lat": 0.0, "lon": -77.022094, "name": "3ff666c4c3be22e156857617a76cd609"}, {"bike_id": "814da14e095b994589077174652de050", "type": "electric_scooter", "is_disabled": 0, "lat": 38.876541, "rental_uris": {"ios": "https://dc.lft.to/lastmile_qr_scan", "android": "https://dc.lft.to/lastmile_qr_scan"}, "is_reserved": 0, "fusion_lon": 0.0, "fusion_lat": 0.0, "lon": -77.00447783333334, "name": "814da14e095b994589077174652de050"}, {"bike_id": "92c127e8884e442644bde40d449fa550", "type": "electric_scooter", "is_disabled": 0, "lat": 38.892446666666665, "rental_uris": {"ios": "https://dc.lft.to/lastmile_qr_scan", "android": "https://dc.lft.to/lastmile_qr_scan"}, "is_reserved": 0, "fusion_lon": 0.0, "fusion_lat": 0.0, "lon": -77.05026083333334, "name": "92c127e8884e442644bde40d449fa550"}, {"bike_id": "ab25856649c18920cc9928b19eaaed62", "type": "electric_scooter", "is_disabled": 0, "lat": 38.91266533333334, "rental_uris": {"ios": "https://dc.lft.to/lastmile_qr_scan", "android": "https://dc.lft.to/lastmile_qr_scan"}, "is_reserved": 0, "fusion_lon": 0.0, "fusion_lat": 0.0, "lon": -77.03873516666667, "name": "ab25856649c18920cc9928b19eaaed62"}, {"bike_id": "5c9c85ebbd8869aaf09cb827e3c022de", "type": "electric_scooter", "is_disabled": 0, "lat": 38.898416, "rental_uris": {"ios": "https://dc.lft.to/lastmile_qr_scan", "android": "https://dc.lft.to/lastmile_qr_scan"}, "is_reserved": 0, "fusion_lon": 0.0, "fusion_lat": 0.0, "lon": -76.94634233333333, "name": "5c9c85ebbd8869aaf09cb827e3c022de"}, {"bike_id": "e63568d267890371f9e36f06efff9c0d", "type": "electric_scooter", "is_disabled": 0, "lat": 38.907353, "rental_uris": {"ios": "https://dc.lft.to/lastmile_qr_scan", "android": "https://dc.lft.to/lastmile_qr_scan"}, "is_reserved": 0, "fusion_lon": 0.0, "fusion_lat": 0.0, "lon": -77.02384233333333, "name": "e63568d267890371f9e36f06efff9c0d"}, {"bike_id": "0dcc41bbc57561c9000fffde0c10fe47", "type": "electric_scooter", "is_disabled": 0, "lat": 38.9020515, "rental_uris": {"ios": "https://dc.lft.to/lastmile_qr_scan", "android": "https://dc.lft.to/lastmile_qr_scan"}, "is_reserved": 0, "fusion_lon": 0.0, "fusion_lat": 0.0, "lon": -76.98204983333333, "name": "0dcc41bbc57561c9000fffde0c10fe47"}, {"bike_id": "3da3abf1aff233b712047ce107be2fc9", "type": "electric_scooter", "is_disabled": 0, "lat": 38.9321145, "rental_uris": {"ios": "https://dc.lft.to/lastmile_qr_scan", "android": "https://dc.lft.to/lastmile_qr_scan"}, "is_reserved": 0, "fusion_lon": 0.0, "fusion_lat": 0.0, "lon": -77.03265816666666, "name": "3da3abf1aff233b712047ce107be2fc9"}, {"bike_id": "0dcffe45bbf4b203d2ed261bb075ad3b", "type": "electric_scooter", "is_disabled": 0, "lat": 38.9053085, "rental_uris": {"ios": "https://dc.lft.to/lastmile_qr_scan", "android": "https://dc.lft.to/lastmile_qr_scan"}, "is_reserved": 0, "fusion_lon": 0.0, "fusion_lat": 0.0, "lon": -77.0467425, "name": "0dcffe45bbf4b203d2ed261bb075ad3b"}, {"bike_id": "f6105a29ed2dda004ca88d54644a7a80", "type": "electric_scooter", "is_disabled": 0, "lat": 38.9051595, "rental_uris": {"ios": "https://dc.lft.to/lastmile_qr_scan", "android": "https://dc.lft.to/lastmile_qr_scan"}, "is_reserved": 0, "fusion_lon": 0.0, "fusion_lat": 0.0, "lon": -77.017264, "name": "f6105a29ed2dda004ca88d54644a7a80"}, {"bike_id": "46a41a74fe66b12b3dfeba21c1eac00a", "type": "electric_scooter", "is_disabled": 0, "lat": 38.8922605, "rental_uris": {"ios": "https://dc.lft.to/lastmile_qr_scan", "android": "https://dc.lft.to/lastmile_qr_scan"}, "is_reserved": 0, "fusion_lon": 0.0, "fusion_lat": 0.0, "lon": -77.04372283333333, "name": "46a41a74fe66b12b3dfeba21c1eac00a"}, {"bike_id": "bde572964f821a785c2b844293f66407", "type": "electric_scooter", "is_disabled": 0, "lat": 38.907612666666665, "rental_uris": {"ios": "https://dc.lft.to/lastmile_qr_scan", "android": "https://dc.lft.to/lastmile_qr_scan"}, "is_reserved": 0, "fusion_lon": 0.0, "fusion_lat": 0.0, "lon": -77.01697616666667, "name": "bde572964f821a785c2b844293f66407"}, {"bike_id": "ce3a3892531134ee4aab23da9e97265c", "type": "electric_scooter", "is_disabled": 0, "lat": 38.929125166666665, "rental_uris": {"ios": "https://dc.lft.to/lastmile_qr_scan", "android": "https://dc.lft.to/lastmile_qr_scan"}, "is_reserved": 0, "fusion_lon": 0.0, "fusion_lat": 0.0, "lon": -77.020916, "name": "ce3a3892531134ee4aab23da9e97265c"}, {"bike_id": "7c660121bb356df7c335c83e46f14e6c", "type": "electric_scooter", "is_disabled": 0, "lat": 38.93889466666667, "rental_uris": {"ios": "https://dc.lft.to/lastmile_qr_scan", "android": "https://dc.lft.to/lastmile_qr_scan"}, "is_reserved": 0, "fusion_lon": 0.0, "fusion_lat": 0.0, "lon": -77.03313966666667, "name": "7c660121bb356df7c335c83e46f14e6c"}, {"bike_id": "f08683a2d15e8cd51e4a1850846d3fa4", "type": "electric_scooter", "is_disabled": 0, "lat": 38.937312, "rental_uris": {"ios": "https://dc.lft.to/lastmile_qr_scan", "android": "https://dc.lft.to/lastmile_qr_scan"}, "is_reserved": 0, "fusion_lon": 0.0, "fusion_lat": 0.0, "lon": -77.032648, "name": "f08683a2d15e8cd51e4a1850846d3fa4"}, {"bike_id": "a3a1c85844ada76972c9a6484cf610cd", "type": "electric_scooter", "is_disabled": 0, "lat": 38.92865233333333, "rental_uris": {"ios": "https://dc.lft.to/lastmile_qr_scan", "android": "https://dc.lft.to/lastmile_qr_scan"}, "is_reserved": 0, "fusion_lon": 0.0, "fusion_lat": 0.0, "lon": -77.07340383333333, "name": "a3a1c85844ada76972c9a6484cf610cd"}, {"bike_id": "fe28b50f429692948a7293a22424b245", "type": "electric_scooter", "is_disabled": 0, "lat": 38.901429666666665, "rental_uris": {"ios": "https://dc.lft.to/lastmile_qr_scan", "android": "https://dc.lft.to/lastmile_qr_scan"}, "is_reserved": 0, "fusion_lon": 0.0, "fusion_lat": 0.0, "lon": -77.0294215, "name": "fe28b50f429692948a7293a22424b245"}, {"bike_id": "a6f518edaa4aeff415be8a4ebe10b74b", "type": "electric_scooter", "is_disabled": 0, "lat": 38.908695, "rental_uris": {"ios": "https://dc.lft.to/lastmile_qr_scan", "android": "https://dc.lft.to/lastmile_qr_scan"}, "is_reserved": 0, "fusion_lon": 0.0, "fusion_lat": 0.0, "lon": -76.99786583333334, "name": "a6f518edaa4aeff415be8a4ebe10b74b"}, {"bike_id": "b8ce314cfdd2546dd5d691e2feee8649", "type": "electric_scooter", "is_disabled": 0, "lat": 38.90338083333333, "rental_uris": {"ios": "https://dc.lft.to/lastmile_qr_scan", "android": "https://dc.lft.to/lastmile_qr_scan"}, "is_reserved": 0, "fusion_lon": 0.0, "fusion_lat": 0.0, "lon": -77.061823, "name": "b8ce314cfdd2546dd5d691e2feee8649"}, {"bike_id": "eb2e07c5b8361fe5fd1ab20ad48869ac", "type": "electric_scooter", "is_disabled": 0, "lat": 38.9199125, "rental_uris": {"ios": "https://dc.lft.to/lastmile_qr_scan", "android": "https://dc.lft.to/lastmile_qr_scan"}, "is_reserved": 0, "fusion_lon": 0.0, "fusion_lat": 0.0, "lon": -77.02225233333333, "name": "eb2e07c5b8361fe5fd1ab20ad48869ac"}, {"bike_id": "1e2750a29d1d12a0ec61c2ea524f7510", "type": "electric_scooter", "is_disabled": 0, "lat": 38.9277005, "rental_uris": {"ios": "https://dc.lft.to/lastmile_qr_scan", "android": "https://dc.lft.to/lastmile_qr_scan"}, "is_reserved": 0, "fusion_lon": 0.0, "fusion_lat": 0.0, "lon": -77.0277995, "name": "1e2750a29d1d12a0ec61c2ea524f7510"}, {"bike_id": "1b6278124791d8142efdd94099121504", "type": "electric_scooter", "is_disabled": 0, "lat": 38.898857166666666, "rental_uris": {"ios": "https://dc.lft.to/lastmile_qr_scan", "android": "https://dc.lft.to/lastmile_qr_scan"}, "is_reserved": 0, "fusion_lon": 0.0, "fusion_lat": 0.0, "lon": -76.93180066666666, "name": "1b6278124791d8142efdd94099121504"}, {"bike_id": "c3cc1378b3554e129e89ab33a76fc871", "type": "electric_scooter", "is_disabled": 0, "lat": 38.8754965, "rental_uris": {"ios": "https://dc.lft.to/lastmile_qr_scan", "android": "https://dc.lft.to/lastmile_qr_scan"}, "is_reserved": 0, "fusion_lon": 0.0, "fusion_lat": 0.0, "lon": -77.00466916666667, "name": "c3cc1378b3554e129e89ab33a76fc871"}, {"bike_id": "ae3639592a2cd7e0e3ad5c036ecd79e0", "type": "electric_bike", "is_disabled": 0, "lat": 38.867572333333335, "rental_uris": {"ios": "https://dc.lft.to/lastmile_qr_scan", "android": "https://dc.lft.to/lastmile_qr_scan"}, "is_reserved": 0, "fusion_lon": 0.0, "fusion_lat": 0.0, "lon": -76.94535466666666, "name": "ae3639592a2cd7e0e3ad5c036ecd79e0"}, {"bike_id": "a7217284a814ef46e0f72212abbfe2fc", "type": "electric_scooter", "is_disabled": 0, "lat": 38.901171166666664, "rental_uris": {"ios": "https://dc.lft.to/lastmile_qr_scan", "android": "https://dc.lft.to/lastmile_qr_scan"}, "is_reserved": 0, "fusion_lon": 0.0, "fusion_lat": 0.0, "lon": -77.04989433333333, "name": "a7217284a814ef46e0f72212abbfe2fc"}, {"bike_id": "4ea208fa72bedfa7ff57bfb3365d7472", "type": "electric_scooter", "is_disabled": 0, "lat": 38.85897216666667, "rental_uris": {"ios": "https://dc.lft.to/lastmile_qr_scan", "android": "https://dc.lft.to/lastmile_qr_scan"}, "is_reserved": 0, "fusion_lon": 0.0, "fusion_lat": 0.0, "lon": -76.995551, "name": "4ea208fa72bedfa7ff57bfb3365d7472"}, {"bike_id": "0d5b0c6662b91cfda767193a412f620c", "type": "electric_scooter", "is_disabled": 0, "lat": 38.887453, "rental_uris": {"ios": "https://dc.lft.to/lastmile_qr_scan", "android": "https://dc.lft.to/lastmile_qr_scan"}, "is_reserved": 0, "fusion_lon": 0.0, "fusion_lat": 0.0, "lon": -77.03161966666667, "name": "0d5b0c6662b91cfda767193a412f620c"}, {"bike_id": "bb42401c4fec703c29a33a407dfb6225", "type": "electric_scooter", "is_disabled": 0, "lat": 38.918118, "rental_uris": {"ios": "https://dc.lft.to/lastmile_qr_scan", "android": "https://dc.lft.to/lastmile_qr_scan"}, "is_reserved": 0, "fusion_lon": 0.0, "fusion_lat": 0.0, "lon": -77.03434483333334, "name": "bb42401c4fec703c29a33a407dfb6225"}, {"bike_id": "e715f1e0310a4737b90bd5b75d02b493", "type": "electric_scooter", "is_disabled": 0, "lat": 38.918381333333336, "rental_uris": {"ios": "https://dc.lft.to/lastmile_qr_scan", "android": "https://dc.lft.to/lastmile_qr_scan"}, "is_reserved": 0, "fusion_lon": 0.0, "fusion_lat": 0.0, "lon": -77.03216016666667, "name": "e715f1e0310a4737b90bd5b75d02b493"}, {"bike_id": "032e12b02217ea5d9d2ee5da4fcd4236", "type": "electric_scooter", "is_disabled": 0, "lat": 38.92372833333334, "rental_uris": {"ios": "https://dc.lft.to/lastmile_qr_scan", "android": "https://dc.lft.to/lastmile_qr_scan"}, "is_reserved": 0, "fusion_lon": 0.0, "fusion_lat": 0.0, "lon": -77.03056166666667, "name": "032e12b02217ea5d9d2ee5da4fcd4236"}, {"bike_id": "7c61286fb6fbf3c12d834a0ad9b3d822", "type": "electric_scooter", "is_disabled": 0, "lat": 38.93970016666667, "rental_uris": {"ios": "https://dc.lft.to/lastmile_qr_scan", "android": "https://dc.lft.to/lastmile_qr_scan"}, "is_reserved": 0, "fusion_lon": 0.0, "fusion_lat": 0.0, "lon": -77.027313, "name": "7c61286fb6fbf3c12d834a0ad9b3d822"}, {"bike_id": "8a8dff09a72546ac76618c1905b58c51", "type": "electric_scooter", "is_disabled": 0, "lat": 38.9000335, "rental_uris": {"ios": "https://dc.lft.to/lastmile_qr_scan", "android": "https://dc.lft.to/lastmile_qr_scan"}, "is_reserved": 0, "fusion_lon": 0.0, "fusion_lat": 0.0, "lon": -77.027037, "name": "8a8dff09a72546ac76618c1905b58c51"}, {"bike_id": "75ea19757ac6cbb46da253f744974160", "type": "electric_scooter", "is_disabled": 0, "lat": 38.907297166666666, "rental_uris": {"ios": "https://dc.lft.to/lastmile_qr_scan", "android": "https://dc.lft.to/lastmile_qr_scan"}, "is_reserved": 0, "fusion_lon": 0.0, "fusion_lat": 0.0, "lon": -77.03199833333333, "name": "75ea19757ac6cbb46da253f744974160"}, {"bike_id": "622392c6ade816ed231b5c29a446ac31", "type": "electric_scooter", "is_disabled": 0, "lat": 38.907237333333335, "rental_uris": {"ios": "https://dc.lft.to/lastmile_qr_scan", "android": "https://dc.lft.to/lastmile_qr_scan"}, "is_reserved": 0, "fusion_lon": 0.0, "fusion_lat": 0.0, "lon": -77.03991283333333, "name": "622392c6ade816ed231b5c29a446ac31"}, {"bike_id": "0eb0cdf369551693b1ab6c238c285f0b", "type": "electric_scooter", "is_disabled": 0, "lat": 38.902651666666664, "rental_uris": {"ios": "https://dc.lft.to/lastmile_qr_scan", "android": "https://dc.lft.to/lastmile_qr_scan"}, "is_reserved": 0, "fusion_lon": 0.0, "fusion_lat": 0.0, "lon": -77.01778766666666, "name": "0eb0cdf369551693b1ab6c238c285f0b"}, {"bike_id": "08fa9072d47f158306f3aa853d220e07", "type": "electric_scooter", "is_disabled": 0, "lat": 38.89668416666667, "rental_uris": {"ios": "https://dc.lft.to/lastmile_qr_scan", "android": "https://dc.lft.to/lastmile_qr_scan"}, "is_reserved": 0, "fusion_lon": 0.0, "fusion_lat": 0.0, "lon": -76.9320915, "name": "08fa9072d47f158306f3aa853d220e07"}, {"bike_id": "e37a5ded093ca6098f7ab33ba27c67f5", "type": "electric_scooter", "is_disabled": 0, "lat": 38.9228315, "rental_uris": {"ios": "https://dc.lft.to/lastmile_qr_scan", "android": "https://dc.lft.to/lastmile_qr_scan"}, "is_reserved": 0, "fusion_lon": 0.0, "fusion_lat": 0.0, "lon": -77.02965183333333, "name": "e37a5ded093ca6098f7ab33ba27c67f5"}, {"bike_id": "ee0853f9aaeb4a456c74be7f50bc67c9", "type": "electric_scooter", "is_disabled": 0, "lat": 38.8922165, "rental_uris": {"ios": "https://dc.lft.to/lastmile_qr_scan", "android": "https://dc.lft.to/lastmile_qr_scan"}, "is_reserved": 0, "fusion_lon": 0.0, "fusion_lat": 0.0, "lon": -77.03975883333334, "name": "ee0853f9aaeb4a456c74be7f50bc67c9"}, {"bike_id": "9a4038ddc61330c6d119139586e92bda", "type": "electric_scooter", "is_disabled": 0, "lat": 38.924740166666666, "rental_uris": {"ios": "https://dc.lft.to/lastmile_qr_scan", "android": "https://dc.lft.to/lastmile_qr_scan"}, "is_reserved": 0, "fusion_lon": 0.0, "fusion_lat": 0.0, "lon": -77.027181, "name": "9a4038ddc61330c6d119139586e92bda"}, {"bike_id": "d956eed83a4cf10907e49484771139f2", "type": "electric_scooter", "is_disabled": 0, "lat": 38.87292883333333, "rental_uris": {"ios": "https://dc.lft.to/lastmile_qr_scan", "android": "https://dc.lft.to/lastmile_qr_scan"}, "is_reserved": 0, "fusion_lon": 0.0, "fusion_lat": 0.0, "lon": -77.00989366666667, "name": "d956eed83a4cf10907e49484771139f2"}, {"bike_id": "d3cdb8b5fbf4d71accbda49bf006a544", "type": "electric_scooter", "is_disabled": 0, "lat": 38.878294833333335, "rental_uris": {"ios": "https://dc.lft.to/lastmile_qr_scan", "android": "https://dc.lft.to/lastmile_qr_scan"}, "is_reserved": 0, "fusion_lon": 0.0, "fusion_lat": 0.0, "lon": -77.00799016666667, "name": "d3cdb8b5fbf4d71accbda49bf006a544"}, {"bike_id": "35ba97860eb992acc2c288934063a2b8", "type": "electric_scooter", "is_disabled": 0, "lat": 38.91816266666667, "rental_uris": {"ios": "https://dc.lft.to/lastmile_qr_scan", "android": "https://dc.lft.to/lastmile_qr_scan"}, "is_reserved": 0, "fusion_lon": 0.0, "fusion_lat": 0.0, "lon": -77.02703366666667, "name": "35ba97860eb992acc2c288934063a2b8"}, {"bike_id": "0cb3004f0826ababbe1abd257315e38f", "type": "electric_scooter", "is_disabled": 0, "lat": 38.90465316666667, "rental_uris": {"ios": "https://dc.lft.to/lastmile_qr_scan", "android": "https://dc.lft.to/lastmile_qr_scan"}, "is_reserved": 0, "fusion_lon": 0.0, "fusion_lat": 0.0, "lon": -76.97612433333333, "name": "0cb3004f0826ababbe1abd257315e38f"}, {"bike_id": "d85373a891752c7a0d7dca587c711fdf", "type": "electric_scooter", "is_disabled": 0, "lat": 38.90680916666667, "rental_uris": {"ios": "https://dc.lft.to/lastmile_qr_scan", "android": "https://dc.lft.to/lastmile_qr_scan"}, "is_reserved": 0, "fusion_lon": 0.0, "fusion_lat": 0.0, "lon": -76.98004666666667, "name": "d85373a891752c7a0d7dca587c711fdf"}, {"bike_id": "a2b0dba4323a6144bcba4b097c5fe85e", "type": "electric_scooter", "is_disabled": 0, "lat": 38.91191833333333, "rental_uris": {"ios": "https://dc.lft.to/lastmile_qr_scan", "android": "https://dc.lft.to/lastmile_qr_scan"}, "is_reserved": 0, "fusion_lon": 0.0, "fusion_lat": 0.0, "lon": -77.0448445, "name": "a2b0dba4323a6144bcba4b097c5fe85e"}, {"bike_id": "8a3e231acea495a7ceffcb94c004381e", "type": "electric_scooter", "is_disabled": 0, "lat": 38.90351533333333, "rental_uris": {"ios": "https://dc.lft.to/lastmile_qr_scan", "android": "https://dc.lft.to/lastmile_qr_scan"}, "is_reserved": 0, "fusion_lon": 0.0, "fusion_lat": 0.0, "lon": -76.97480833333333, "name": "8a3e231acea495a7ceffcb94c004381e"}, {"bike_id": "efdde1d8576cb8b5f4d56b7fca401f09", "type": "electric_scooter", "is_disabled": 0, "lat": 38.92968533333333, "rental_uris": {"ios": "https://dc.lft.to/lastmile_qr_scan", "android": "https://dc.lft.to/lastmile_qr_scan"}, "is_reserved": 0, "fusion_lon": 0.0, "fusion_lat": 0.0, "lon": -77.04378783333334, "name": "efdde1d8576cb8b5f4d56b7fca401f09"}, {"bike_id": "bd291fac6a2772ba8caa3d9b803bca60", "type": "electric_scooter", "is_disabled": 0, "lat": 38.91613183333333, "rental_uris": {"ios": "https://dc.lft.to/lastmile_qr_scan", "android": "https://dc.lft.to/lastmile_qr_scan"}, "is_reserved": 0, "fusion_lon": 0.0, "fusion_lat": 0.0, "lon": -77.04884633333333, "name": "bd291fac6a2772ba8caa3d9b803bca60"}, {"bike_id": "011f30932d4733706e380ed596bcdcce", "type": "electric_bike", "is_disabled": 0, "lat": 38.932296, "rental_uris": {"ios": "https://dc.lft.to/lastmile_qr_scan", "android": "https://dc.lft.to/lastmile_qr_scan"}, "is_reserved": 0, "fusion_lon": 0.0, "fusion_lat": 0.0, "lon": -77.18123066666666, "name": "011f30932d4733706e380ed596bcdcce"}, {"bike_id": "fa95b0ecf62a07e4c5706ed862a4507c", "type": "electric_scooter", "is_disabled": 0, "lat": 38.921495, "rental_uris": {"ios": "https://dc.lft.to/lastmile_qr_scan", "android": "https://dc.lft.to/lastmile_qr_scan"}, "is_reserved": 0, "fusion_lon": 0.0, "fusion_lat": 0.0, "lon": -77.033874, "name": "fa95b0ecf62a07e4c5706ed862a4507c"}, {"bike_id": "9ff80a4ff14382ee892e4560080424dc", "type": "electric_scooter", "is_disabled": 0, "lat": 38.928742166666666, "rental_uris": {"ios": "https://dc.lft.to/lastmile_qr_scan", "android": "https://dc.lft.to/lastmile_qr_scan"}, "is_reserved": 0, "fusion_lon": 0.0, "fusion_lat": 0.0, "lon": -77.02772716666666, "name": "9ff80a4ff14382ee892e4560080424dc"}, {"bike_id": "909fba4cac91088ea92f72d7fbbfc029", "type": "electric_bike", "is_disabled": 0, "lat": 38.8832575, "rental_uris": {"ios": "https://dc.lft.to/lastmile_qr_scan", "android": "https://dc.lft.to/lastmile_qr_scan"}, "is_reserved": 0, "fusion_lon": 0.0, "fusion_lat": 0.0, "lon": -76.96055883333334, "name": "909fba4cac91088ea92f72d7fbbfc029"}, {"bike_id": "10b9e09b659c6c3797b3320671236f57", "type": "electric_scooter", "is_disabled": 0, "lat": 38.904673333333335, "rental_uris": {"ios": "https://dc.lft.to/lastmile_qr_scan", "android": "https://dc.lft.to/lastmile_qr_scan"}, "is_reserved": 0, "fusion_lon": 0.0, "fusion_lat": 0.0, "lon": -77.04339816666666, "name": "10b9e09b659c6c3797b3320671236f57"}, {"bike_id": "11b2b7539dc726d6345e00815e56334c", "type": "electric_scooter", "is_disabled": 0, "lat": 38.881136, "rental_uris": {"ios": "https://dc.lft.to/lastmile_qr_scan", "android": "https://dc.lft.to/lastmile_qr_scan"}, "is_reserved": 0, "fusion_lon": 0.0, "fusion_lat": 0.0, "lon": -77.01658633333334, "name": "11b2b7539dc726d6345e00815e56334c"}, {"bike_id": "8c22c7b3a0b73b7d541ffd11fd6a3128", "type": "electric_scooter", "is_disabled": 0, "lat": 38.909652, "rental_uris": {"ios": "https://dc.lft.to/lastmile_qr_scan", "android": "https://dc.lft.to/lastmile_qr_scan"}, "is_reserved": 0, "fusion_lon": 0.0, "fusion_lat": 0.0, "lon": -77.02178066666667, "name": "8c22c7b3a0b73b7d541ffd11fd6a3128"}, {"bike_id": "baff735bf657dd80b76522c404235f25", "type": "electric_scooter", "is_disabled": 0, "lat": 38.91723016666667, "rental_uris": {"ios": "https://dc.lft.to/lastmile_qr_scan", "android": "https://dc.lft.to/lastmile_qr_scan"}, "is_reserved": 0, "fusion_lon": 0.0, "fusion_lat": 0.0, "lon": -77.03182166666667, "name": "baff735bf657dd80b76522c404235f25"}, {"bike_id": "ba649391b021435449bebb296e423f72", "type": "electric_scooter", "is_disabled": 0, "lat": 38.89223066666667, "rental_uris": {"ios": "https://dc.lft.to/lastmile_qr_scan", "android": "https://dc.lft.to/lastmile_qr_scan"}, "is_reserved": 0, "fusion_lon": 0.0, "fusion_lat": 0.0, "lon": -77.030222, "name": "ba649391b021435449bebb296e423f72"}, {"bike_id": "aaad29d0a56b1968cd1d0ed6b89324e6", "type": "electric_scooter", "is_disabled": 0, "lat": 38.87369866666667, "rental_uris": {"ios": "https://dc.lft.to/lastmile_qr_scan", "android": "https://dc.lft.to/lastmile_qr_scan"}, "is_reserved": 0, "fusion_lon": 0.0, "fusion_lat": 0.0, "lon": -77.001074, "name": "aaad29d0a56b1968cd1d0ed6b89324e6"}, {"bike_id": "c7ca4ce53bd908c7bcc93e1e1da9560b", "type": "electric_scooter", "is_disabled": 0, "lat": 38.920056833333334, "rental_uris": {"ios": "https://dc.lft.to/lastmile_qr_scan", "android": "https://dc.lft.to/lastmile_qr_scan"}, "is_reserved": 0, "fusion_lon": 0.0, "fusion_lat": 0.0, "lon": -77.03206866666666, "name": "c7ca4ce53bd908c7bcc93e1e1da9560b"}, {"bike_id": "5da3a3eb319ee9f7a7e3d55d430d92c8", "type": "electric_scooter", "is_disabled": 0, "lat": 38.933414166666665, "rental_uris": {"ios": "https://dc.lft.to/lastmile_qr_scan", "android": "https://dc.lft.to/lastmile_qr_scan"}, "is_reserved": 0, "fusion_lon": 0.0, "fusion_lat": 0.0, "lon": -77.0399765, "name": "5da3a3eb319ee9f7a7e3d55d430d92c8"}, {"bike_id": "88b0f76526a2cfd8eabfc14d40ba87b9", "type": "electric_scooter", "is_disabled": 0, "lat": 38.92231533333333, "rental_uris": {"ios": "https://dc.lft.to/lastmile_qr_scan", "android": "https://dc.lft.to/lastmile_qr_scan"}, "is_reserved": 0, "fusion_lon": 0.0, "fusion_lat": 0.0, "lon": -77.0426805, "name": "88b0f76526a2cfd8eabfc14d40ba87b9"}, {"bike_id": "1e00ee18caf919ecc6b20164b0638fd8", "type": "electric_scooter", "is_disabled": 0, "lat": 38.902587, "rental_uris": {"ios": "https://dc.lft.to/lastmile_qr_scan", "android": "https://dc.lft.to/lastmile_qr_scan"}, "is_reserved": 0, "fusion_lon": 0.0, "fusion_lat": 0.0, "lon": -77.02657516666666, "name": "1e00ee18caf919ecc6b20164b0638fd8"}, {"bike_id": "5765b5729ea25857c9356bf147df1a25", "type": "electric_scooter", "is_disabled": 0, "lat": 38.912621666666666, "rental_uris": {"ios": "https://dc.lft.to/lastmile_qr_scan", "android": "https://dc.lft.to/lastmile_qr_scan"}, "is_reserved": 0, "fusion_lon": 0.0, "fusion_lat": 0.0, "lon": -77.03145316666667, "name": "5765b5729ea25857c9356bf147df1a25"}, {"bike_id": "12744d71c3adeea82e64a01e4bd9ec70", "type": "electric_scooter", "is_disabled": 0, "lat": 38.897648833333335, "rental_uris": {"ios": "https://dc.lft.to/lastmile_qr_scan", "android": "https://dc.lft.to/lastmile_qr_scan"}, "is_reserved": 0, "fusion_lon": 0.0, "fusion_lat": 0.0, "lon": -77.0245345, "name": "12744d71c3adeea82e64a01e4bd9ec70"}, {"bike_id": "7a92281cbda94da3e18f1537e50da88d", "type": "electric_scooter", "is_disabled": 0, "lat": 38.91899183333334, "rental_uris": {"ios": "https://dc.lft.to/lastmile_qr_scan", "android": "https://dc.lft.to/lastmile_qr_scan"}, "is_reserved": 0, "fusion_lon": 0.0, "fusion_lat": 0.0, "lon": -77.016842, "name": "7a92281cbda94da3e18f1537e50da88d"}, {"bike_id": "da1ca8c31c3a23172e087f159e3fbef4", "type": "electric_scooter", "is_disabled": 0, "lat": 38.87369133333333, "rental_uris": {"ios": "https://dc.lft.to/lastmile_qr_scan", "android": "https://dc.lft.to/lastmile_qr_scan"}, "is_reserved": 0, "fusion_lon": 0.0, "fusion_lat": 0.0, "lon": -77.0010635, "name": "da1ca8c31c3a23172e087f159e3fbef4"}, {"bike_id": "1fc20d2e459125eba61d2fe1b08c9869", "type": "electric_bike", "is_disabled": 0, "lat": 38.913012333333334, "rental_uris": {"ios": "https://dc.lft.to/lastmile_qr_scan", "android": "https://dc.lft.to/lastmile_qr_scan"}, "is_reserved": 0, "fusion_lon": 0.0, "fusion_lat": 0.0, "lon": -77.00641383333334, "name": "1fc20d2e459125eba61d2fe1b08c9869"}, {"bike_id": "e56065c29b6abd294fc3639153bd040b", "type": "electric_scooter", "is_disabled": 0, "lat": 38.920839666666666, "rental_uris": {"ios": "https://dc.lft.to/lastmile_qr_scan", "android": "https://dc.lft.to/lastmile_qr_scan"}, "is_reserved": 0, "fusion_lon": 0.0, "fusion_lat": 0.0, "lon": -77.023332, "name": "e56065c29b6abd294fc3639153bd040b"}, {"bike_id": "b507ec905db6e29a1c3e11c3e3a0b042", "type": "electric_scooter", "is_disabled": 0, "lat": 38.89287983333333, "rental_uris": {"ios": "https://dc.lft.to/lastmile_qr_scan", "android": "https://dc.lft.to/lastmile_qr_scan"}, "is_reserved": 0, "fusion_lon": 0.0, "fusion_lat": 0.0, "lon": -77.044873, "name": "b507ec905db6e29a1c3e11c3e3a0b042"}, {"bike_id": "a0b4decf6941249a75ae13d8a5321179", "type": "electric_scooter", "is_disabled": 0, "lat": 38.942901666666664, "rental_uris": {"ios": "https://dc.lft.to/lastmile_qr_scan", "android": "https://dc.lft.to/lastmile_qr_scan"}, "is_reserved": 0, "fusion_lon": 0.0, "fusion_lat": 0.0, "lon": -77.02173133333334, "name": "a0b4decf6941249a75ae13d8a5321179"}, {"bike_id": "300f88f58c49f042dd3ae150f340d923", "type": "electric_scooter", "is_disabled": 0, "lat": 38.880629, "rental_uris": {"ios": "https://dc.lft.to/lastmile_qr_scan", "android": "https://dc.lft.to/lastmile_qr_scan"}, "is_reserved": 0, "fusion_lon": 0.0, "fusion_lat": 0.0, "lon": -77.025529, "name": "300f88f58c49f042dd3ae150f340d923"}, {"bike_id": "39c884fe9073a2b8501ea7c4d003618f", "type": "electric_bike", "is_disabled": 0, "lat": 38.888695, "rental_uris": {"ios": "https://dc.lft.to/lastmile_qr_scan", "android": "https://dc.lft.to/lastmile_qr_scan"}, "is_reserved": 0, "fusion_lon": 0.0, "fusion_lat": 0.0, "lon": -76.97839116666667, "name": "39c884fe9073a2b8501ea7c4d003618f"}, {"bike_id": "c353c91c3400b3d0e2633d44230a12cc", "type": "electric_bike", "is_disabled": 0, "lat": 38.858916666666666, "rental_uris": {"ios": "https://dc.lft.to/lastmile_qr_scan", "android": "https://dc.lft.to/lastmile_qr_scan"}, "is_reserved": 0, "fusion_lon": 0.0, "fusion_lat": 0.0, "lon": -77.11862716666667, "name": "c353c91c3400b3d0e2633d44230a12cc"}, {"bike_id": "2e53f9129efbde4f1e0cfeb0a91f6287", "type": "electric_scooter", "is_disabled": 0, "lat": 38.88671933333333, "rental_uris": {"ios": "https://dc.lft.to/lastmile_qr_scan", "android": "https://dc.lft.to/lastmile_qr_scan"}, "is_reserved": 0, "fusion_lon": 0.0, "fusion_lat": 0.0, "lon": -77.0197865, "name": "2e53f9129efbde4f1e0cfeb0a91f6287"}, {"bike_id": "3be8bb91a6eb2af79f9f7b21710d574b", "type": "electric_scooter", "is_disabled": 0, "lat": 38.89845716666667, "rental_uris": {"ios": "https://dc.lft.to/lastmile_qr_scan", "android": "https://dc.lft.to/lastmile_qr_scan"}, "is_reserved": 0, "fusion_lon": 0.0, "fusion_lat": 0.0, "lon": -77.02190566666667, "name": "3be8bb91a6eb2af79f9f7b21710d574b"}, {"bike_id": "99c7784fa6fb22808d0ad0cc6208e3f1", "type": "electric_scooter", "is_disabled": 0, "lat": 38.902535, "rental_uris": {"ios": "https://dc.lft.to/lastmile_qr_scan", "android": "https://dc.lft.to/lastmile_qr_scan"}, "is_reserved": 0, "fusion_lon": 0.0, "fusion_lat": 0.0, "lon": -77.02651366666667, "name": "99c7784fa6fb22808d0ad0cc6208e3f1"}, {"bike_id": "e642deec1c79e4d498a28d05e869e698", "type": "electric_scooter", "is_disabled": 0, "lat": 38.90688383333333, "rental_uris": {"ios": "https://dc.lft.to/lastmile_qr_scan", "android": "https://dc.lft.to/lastmile_qr_scan"}, "is_reserved": 0, "fusion_lon": 0.0, "fusion_lat": 0.0, "lon": -77.010782, "name": "e642deec1c79e4d498a28d05e869e698"}, {"bike_id": "cfa77f24a3707c0aa00d9c811a9b33a8", "type": "electric_scooter", "is_disabled": 0, "lat": 38.911299, "rental_uris": {"ios": "https://dc.lft.to/lastmile_qr_scan", "android": "https://dc.lft.to/lastmile_qr_scan"}, "is_reserved": 0, "fusion_lon": 0.0, "fusion_lat": 0.0, "lon": -77.04417983333333, "name": "cfa77f24a3707c0aa00d9c811a9b33a8"}, {"bike_id": "9590900cda8071680a206f164edf8266", "type": "electric_scooter", "is_disabled": 0, "lat": 38.91405966666667, "rental_uris": {"ios": "https://dc.lft.to/lastmile_qr_scan", "android": "https://dc.lft.to/lastmile_qr_scan"}, "is_reserved": 0, "fusion_lon": 0.0, "fusion_lat": 0.0, "lon": -77.03263666666666, "name": "9590900cda8071680a206f164edf8266"}, {"bike_id": "605888333cbca631a35c55d0ce72cf4d", "type": "electric_scooter", "is_disabled": 0, "lat": 38.903245, "rental_uris": {"ios": "https://dc.lft.to/lastmile_qr_scan", "android": "https://dc.lft.to/lastmile_qr_scan"}, "is_reserved": 0, "fusion_lon": 0.0, "fusion_lat": 0.0, "lon": -77.03447633333333, "name": "605888333cbca631a35c55d0ce72cf4d"}, {"bike_id": "a8a77777d3810b4fc46a1c344ac4bad7", "type": "electric_scooter", "is_disabled": 0, "lat": 38.89791916666667, "rental_uris": {"ios": "https://dc.lft.to/lastmile_qr_scan", "android": "https://dc.lft.to/lastmile_qr_scan"}, "is_reserved": 0, "fusion_lon": 0.0, "fusion_lat": 0.0, "lon": -77.03191233333334, "name": "a8a77777d3810b4fc46a1c344ac4bad7"}, {"bike_id": "7c9a871c4e80589d01efc625e48effe5", "type": "electric_scooter", "is_disabled": 0, "lat": 38.897375333333336, "rental_uris": {"ios": "https://dc.lft.to/lastmile_qr_scan", "android": "https://dc.lft.to/lastmile_qr_scan"}, "is_reserved": 0, "fusion_lon": 0.0, "fusion_lat": 0.0, "lon": -76.947166, "name": "7c9a871c4e80589d01efc625e48effe5"}, {"bike_id": "5283b9fe5e18cb47099c04329af92aca", "type": "electric_scooter", "is_disabled": 0, "lat": 38.9072975, "rental_uris": {"ios": "https://dc.lft.to/lastmile_qr_scan", "android": "https://dc.lft.to/lastmile_qr_scan"}, "is_reserved": 0, "fusion_lon": 0.0, "fusion_lat": 0.0, "lon": -77.032045, "name": "5283b9fe5e18cb47099c04329af92aca"}, {"bike_id": "2445f1f56173f420341c0d4138602b25", "type": "electric_scooter", "is_disabled": 0, "lat": 38.90957316666667, "rental_uris": {"ios": "https://dc.lft.to/lastmile_qr_scan", "android": "https://dc.lft.to/lastmile_qr_scan"}, "is_reserved": 0, "fusion_lon": 0.0, "fusion_lat": 0.0, "lon": -77.04876483333334, "name": "2445f1f56173f420341c0d4138602b25"}, {"bike_id": "c4bbb446be28d5d27283a595aba94906", "type": "electric_scooter", "is_disabled": 0, "lat": 38.89971933333333, "rental_uris": {"ios": "https://dc.lft.to/lastmile_qr_scan", "android": "https://dc.lft.to/lastmile_qr_scan"}, "is_reserved": 0, "fusion_lon": 0.0, "fusion_lat": 0.0, "lon": -76.983088, "name": "c4bbb446be28d5d27283a595aba94906"}, {"bike_id": "8873e3966fb1503fe37c8a37ff57f965", "type": "electric_scooter", "is_disabled": 0, "lat": 38.915855666666666, "rental_uris": {"ios": "https://dc.lft.to/lastmile_qr_scan", "android": "https://dc.lft.to/lastmile_qr_scan"}, "is_reserved": 0, "fusion_lon": 0.0, "fusion_lat": 0.0, "lon": -77.00202383333334, "name": "8873e3966fb1503fe37c8a37ff57f965"}, {"bike_id": "e9fff22cb60204d987124937fe69fe1a", "type": "electric_scooter", "is_disabled": 0, "lat": 38.904098166666664, "rental_uris": {"ios": "https://dc.lft.to/lastmile_qr_scan", "android": "https://dc.lft.to/lastmile_qr_scan"}, "is_reserved": 0, "fusion_lon": 0.0, "fusion_lat": 0.0, "lon": -76.97331033333333, "name": "e9fff22cb60204d987124937fe69fe1a"}, {"bike_id": "a716805dc17da5d7b65fad6058b6ac36", "type": "electric_scooter", "is_disabled": 0, "lat": 38.9023815, "rental_uris": {"ios": "https://dc.lft.to/lastmile_qr_scan", "android": "https://dc.lft.to/lastmile_qr_scan"}, "is_reserved": 0, "fusion_lon": 0.0, "fusion_lat": 0.0, "lon": -77.002091, "name": "a716805dc17da5d7b65fad6058b6ac36"}, {"bike_id": "e04b04ff743593c42207103c55213bc2", "type": "electric_scooter", "is_disabled": 0, "lat": 38.914206666666665, "rental_uris": {"ios": "https://dc.lft.to/lastmile_qr_scan", "android": "https://dc.lft.to/lastmile_qr_scan"}, "is_reserved": 0, "fusion_lon": 0.0, "fusion_lat": 0.0, "lon": -77.0217965, "name": "e04b04ff743593c42207103c55213bc2"}, {"bike_id": "82b928c50b9a777ff7c4ec8a9f1f8435", "type": "electric_scooter", "is_disabled": 0, "lat": 38.901394, "rental_uris": {"ios": "https://dc.lft.to/lastmile_qr_scan", "android": "https://dc.lft.to/lastmile_qr_scan"}, "is_reserved": 0, "fusion_lon": 0.0, "fusion_lat": 0.0, "lon": -77.04138383333333, "name": "82b928c50b9a777ff7c4ec8a9f1f8435"}, {"bike_id": "a08d36d8d3ecea58806134fe3d7ef90a", "type": "electric_scooter", "is_disabled": 0, "lat": 38.8996865, "rental_uris": {"ios": "https://dc.lft.to/lastmile_qr_scan", "android": "https://dc.lft.to/lastmile_qr_scan"}, "is_reserved": 0, "fusion_lon": 0.0, "fusion_lat": 0.0, "lon": -77.02233633333333, "name": "a08d36d8d3ecea58806134fe3d7ef90a"}, {"bike_id": "19ffe3501910ae67754bdd91d89193d7", "type": "electric_scooter", "is_disabled": 0, "lat": 38.931878166666664, "rental_uris": {"ios": "https://dc.lft.to/lastmile_qr_scan", "android": "https://dc.lft.to/lastmile_qr_scan"}, "is_reserved": 0, "fusion_lon": 0.0, "fusion_lat": 0.0, "lon": -77.08433816666667, "name": "19ffe3501910ae67754bdd91d89193d7"}, {"bike_id": "90d5544bfff855e2b22a8ba3b566303c", "type": "electric_scooter", "is_disabled": 0, "lat": 38.957037666666665, "rental_uris": {"ios": "https://dc.lft.to/lastmile_qr_scan", "android": "https://dc.lft.to/lastmile_qr_scan"}, "is_reserved": 0, "fusion_lon": 0.0, "fusion_lat": 0.0, "lon": -77.0240805, "name": "90d5544bfff855e2b22a8ba3b566303c"}, {"bike_id": "295fbdff2fee76f7e979e2f7e1f1dc3a", "type": "electric_scooter", "is_disabled": 0, "lat": 38.921977, "rental_uris": {"ios": "https://dc.lft.to/lastmile_qr_scan", "android": "https://dc.lft.to/lastmile_qr_scan"}, "is_reserved": 0, "fusion_lon": 0.0, "fusion_lat": 0.0, "lon": -77.020231, "name": "295fbdff2fee76f7e979e2f7e1f1dc3a"}, {"bike_id": "e8047587f6bb41790fbb59b9e6750e88", "type": "electric_bike", "is_disabled": 0, "lat": 38.81936966666667, "rental_uris": {"ios": "https://dc.lft.to/lastmile_qr_scan", "android": "https://dc.lft.to/lastmile_qr_scan"},