{"data": {"bikes": [{"is_disabled": 0, "fusion_lon": 0.0, "fusion_lat": 0.0, "lat": 38.896153, "type": "electric_scooter", "lon": -77.00928116666667, "bike_id": "5a3904c8083dc31211cc5306b2904589", "rental_uris": {"android": "https://dc.lft.to/lastmile_qr_scan", "ios": "https://dc.lft.to/lastmile_qr_scan"}, "name": "5a3904c8083dc31211cc5306b2904589", "is_reserved": 0}, {"is_disabled": 0, "fusion_lon": 0.0, "fusion_lat": 0.0, "lat": 38.942007833333335, "type": "electric_scooter", "lon": -77.02588333333334, "bike_id": "f92ea89801747d6cccb6159b9884bfe2", "rental_uris": {"android": "https://dc.lft.to/lastmile_qr_scan", "ios": "https://dc.lft.to/lastmile_qr_scan"}, "name": "f92ea89801747d6cccb6159b9884bfe2", "is_reserved": 0}, {"is_disabled": 0, "fusion_lon": 0.0, "fusion_lat": 0.0, "lat": 38.86524466666667, "type": "electric_scooter", "lon": -76.98968516666666, "bike_id": "cef4e0fb72961078a0c831e48a085ec1", "rental_uris": {"android": "https://dc.lft.to/lastmile_qr_scan", "ios": "https://dc.lft.to/lastmile_qr_scan"}, "name": "cef4e0fb72961078a0c831e48a085ec1", "is_reserved": 0}, {"is_disabled": 0, "fusion_lon": 0.0, "fusion_lat": 0.0, "lat": 38.91611283333334, "type": "electric_scooter", "lon": -77.031045, "bike_id": "f2ec84d092fecbd7fedbd5ebf0e953bf", "rental_uris": {"android": "https://dc.lft.to/lastmile_qr_scan", "ios": "https://dc.lft.to/lastmile_qr_scan"}, "name": "f2ec84d092fecbd7fedbd5ebf0e953bf", "is_reserved": 0}, {"is_disabled": 0, "fusion_lon": 0.0, "fusion_lat": 0.0, "lat": 38.9276775, "type": "electric_scooter", "lon": -77.0284875, "bike_id": "9a9e1d75a8d2412acd6fc8301a80b74d", "rental_uris": {"android": "https://dc.lft.to/lastmile_qr_scan", "ios": "https://dc.lft.to/lastmile_qr_scan"}, "name": "9a9e1d75a8d2412acd6fc8301a80b74d", "is_reserved": 0}, {"is_disabled": 0, "fusion_lon": 0.0, "fusion_lat": 0.0, "lat": 38.8580615, "type": "electric_scooter", "lon": -76.98652166666666, "bike_id": "42e27d14690ddbe5aa843aad122da961", "rental_uris": {"android": "https://dc.lft.to/lastmile_qr_scan", "ios": "https://dc.lft.to/lastmile_qr_scan"}, "name": "42e27d14690ddbe5aa843aad122da961", "is_reserved": 0}, {"is_disabled": 0, "fusion_lon": 0.0, "fusion_lat": 0.0, "lat": 38.959558666666666, "type": "electric_bike", "lon": -77.02513183333333, "bike_id": "492d4ffbc6d7b5d7bd811097a33c333b", "rental_uris": {"android": "https://dc.lft.to/lastmile_qr_scan", "ios": "https://dc.lft.to/lastmile_qr_scan"}, "name": "492d4ffbc6d7b5d7bd811097a33c333b", "is_reserved": 0}, {"is_disabled": 0, "fusion_lon": 0.0, "fusion_lat": 0.0, "lat": 38.8954315, "type": "electric_scooter", "lon": -77.01136733333334, "bike_id": "0ad820d1e1a9bd648c5f79033e4c70ce", "rental_uris": {"android": "https://dc.lft.to/lastmile_qr_scan", "ios": "https://dc.lft.to/lastmile_qr_scan"}, "name": "0ad820d1e1a9bd648c5f79033e4c70ce", "is_reserved": 0}, {"is_disabled": 0, "fusion_lon": 0.0, "fusion_lat": 0.0, "lat": 38.926088, "type": "electric_scooter", "lon": -77.05704283333333, "bike_id": "cd299e1f0b6a4a64e8ba590a3ea416bc", "rental_uris": {"android": "https://dc.lft.to/lastmile_qr_scan", "ios": "https://dc.lft.to/lastmile_qr_scan"}, "name": "cd299e1f0b6a4a64e8ba590a3ea416bc", "is_reserved": 0}, {"is_disabled": 0, "fusion_lon": 0.0, "fusion_lat": 0.0, "lat": 38.906781, "type": "electric_scooter", "lon": -76.98006566666666, "bike_id": "725fccc8e8286cd85ea6c36731b9fd30", "rental_uris": {"android": "https://dc.lft.to/lastmile_qr_scan", "ios": "https://dc.lft.to/lastmile_qr_scan"}, "name": "725fccc8e8286cd85ea6c36731b9fd30", "is_reserved": 0}, {"is_disabled": 0, "fusion_lon": 0.0, "fusion_lat": 0.0, "lat": 38.90861183333333, "type": "electric_scooter", "lon": -77.03537716666666, "bike_id": "18dd3e49db5fba827cc45a80c8f5bfec", "rental_uris": {"android": "https://dc.lft.to/lastmile_qr_scan", "ios": "https://dc.lft.to/lastmile_qr_scan"}, "name": "18dd3e49db5fba827cc45a80c8f5bfec", "is_reserved": 0}, {"is_disabled": 0, "fusion_lon": 0.0, "fusion_lat": 0.0, "lat": 38.91186316666667, "type": "electric_scooter", "lon": -77.035047, "bike_id": "fcb117ff413edbe700b3d36346732c69", "rental_uris": {"android": "https://dc.lft.to/lastmile_qr_scan", "ios": "https://dc.lft.to/lastmile_qr_scan"}, "name": "fcb117ff413edbe700b3d36346732c69", "is_reserved": 0}, {"is_disabled": 0, "fusion_lon": 0.0, "fusion_lat": 0.0, "lat": 38.90149066666667, "type": "electric_scooter", "lon": -77.02277766666667, "bike_id": "21e1930791da5a7c077f7fbcc51a726b", "rental_uris": {"android": "https://dc.lft.to/lastmile_qr_scan", "ios": "https://dc.lft.to/lastmile_qr_scan"}, "name": "21e1930791da5a7c077f7fbcc51a726b", "is_reserved": 0}, {"is_disabled": 0, "fusion_lon": 0.0, "fusion_lat": 0.0, "lat": 38.949706166666665, "type": "electric_scooter", "lon": -77.066952, "bike_id": "a4c7cb601fba355ba77fa02ec2e963b5", "rental_uris": {"android": "https://dc.lft.to/lastmile_qr_scan", "ios": "https://dc.lft.to/lastmile_qr_scan"}, "name": "a4c7cb601fba355ba77fa02ec2e963b5", "is_reserved": 0}, {"is_disabled": 0, "fusion_lon": 0.0, "fusion_lat": 0.0, "lat": 38.886598166666666, "type": "electric_bike", "lon": -77.162304, "bike_id": "bc2a25a577d601a785e125fe53e038f2", "rental_uris": {"android": "https://dc.lft.to/lastmile_qr_scan", "ios": "https://dc.lft.to/lastmile_qr_scan"}, "name": "bc2a25a577d601a785e125fe53e038f2", "is_reserved": 0}, {"is_disabled": 0, "fusion_lon": 0.0, "fusion_lat": 0.0, "lat": 38.961240833333335, "type": "electric_scooter", "lon": -77.0851495, "bike_id": "423af8b5b1e555c5de6489a8021c626e", "rental_uris": {"android": "https://dc.lft.to/lastmile_qr_scan", "ios": "https://dc.lft.to/lastmile_qr_scan"}, "name": "423af8b5b1e555c5de6489a8021c626e", "is_reserved": 0}, {"is_disabled": 0, "fusion_lon": 0.0, "fusion_lat": 0.0, "lat": 38.9225235, "type": "electric_scooter", "lon": -77.04140766666667, "bike_id": "5867bf3a2e1e4d1aa23dac0f60b13b84", "rental_uris": {"android": "https://dc.lft.to/lastmile_qr_scan", "ios": "https://dc.lft.to/lastmile_qr_scan"}, "name": "5867bf3a2e1e4d1aa23dac0f60b13b84", "is_reserved": 0}, {"is_disabled": 0, "fusion_lon": 0.0, "fusion_lat": 0.0, "lat": 38.93408616666667, "type": "electric_bike", "lon": -77.032865, "bike_id": "e277b04b9ceb54797aef19f84fed8db6", "rental_uris": {"android": "https://dc.lft.to/lastmile_qr_scan", "ios": "https://dc.lft.to/lastmile_qr_scan"}, "name": "e277b04b9ceb54797aef19f84fed8db6", "is_reserved": 0}, {"is_disabled": 0, "fusion_lon": 0.0, "fusion_lat": 0.0, "lat": 38.93782783333333, "type": "electric_scooter", "lon": -77.01876166666666, "bike_id": "555d3c6c626c241cb557d36237828172", "rental_uris": {"android": "https://dc.lft.to/lastmile_qr_scan", "ios": "https://dc.lft.to/lastmile_qr_scan"}, "name": "555d3c6c626c241cb557d36237828172", "is_reserved": 0}, {"is_disabled": 0, "fusion_lon": 0.0, "fusion_lat": 0.0, "lat": 38.887429833333336, "type": "electric_scooter", "lon": -77.01605316666667, "bike_id": "cc6da6ae32be953b290d18dc85ac4cdf", "rental_uris": {"android": "https://dc.lft.to/lastmile_qr_scan", "ios": "https://dc.lft.to/lastmile_qr_scan"}, "name": "cc6da6ae32be953b290d18dc85ac4cdf", "is_reserved": 0}, {"is_disabled": 0, "fusion_lon": 0.0, "fusion_lat": 0.0, "lat": 38.887440166666664, "type": "electric_scooter", "lon": -77.01535366666667, "bike_id": "85cf02363b009b007894b404157eb0b6", "rental_uris": {"android": "https://dc.lft.to/lastmile_qr_scan", "ios": "https://dc.lft.to/lastmile_qr_scan"}, "name": "85cf02363b009b007894b404157eb0b6", "is_reserved": 0}, {"is_disabled": 0, "fusion_lon": 0.0, "fusion_lat": 0.0, "lat": 38.901138333333336, "type": "electric_scooter", "lon": -77.02616733333333, "bike_id": "74e4c583467309e25909d26c8828a1e0", "rental_uris": {"android": "https://dc.lft.to/lastmile_qr_scan", "ios": "https://dc.lft.to/lastmile_qr_scan"}, "name": "74e4c583467309e25909d26c8828a1e0", "is_reserved": 0}, {"is_disabled": 0, "fusion_lon": 0.0, "fusion_lat": 0.0, "lat": 38.9083655, "type": "electric_scooter", "lon": -76.99697366666666, "bike_id": "a19b1cd505500bcefea7b539baa7b9b4", "rental_uris": {"android": "https://dc.lft.to/lastmile_qr_scan", "ios": "https://dc.lft.to/lastmile_qr_scan"}, "name": "a19b1cd505500bcefea7b539baa7b9b4", "is_reserved": 0}, {"is_disabled": 0, "fusion_lon": 0.0, "fusion_lat": 0.0, "lat": 38.91334116666667, "type": "electric_scooter", "lon": -77.05222233333333, "bike_id": "e9f4244f65cdd683373e9e68a2be64d6", "rental_uris": {"android": "https://dc.lft.to/lastmile_qr_scan", "ios": "https://dc.lft.to/lastmile_qr_scan"}, "name": "e9f4244f65cdd683373e9e68a2be64d6", "is_reserved": 0}, {"is_disabled": 0, "fusion_lon": 0.0, "fusion_lat": 0.0, "lat": 38.905145166666664, "type": "electric_scooter", "lon": -77.0680115, "bike_id": "7e4b0f299d144c1262c435883cfbf886", "rental_uris": {"android": "https://dc.lft.to/lastmile_qr_scan", "ios": "https://dc.lft.to/lastmile_qr_scan"}, "name": "7e4b0f299d144c1262c435883cfbf886", "is_reserved": 0}, {"is_disabled": 0, "fusion_lon": 0.0, "fusion_lat": 0.0, "lat": 38.932891166666664, "type": "electric_scooter", "lon": -77.02449533333333, "bike_id": "5b8cb3ac5663fc22eea0d5a2cceff336", "rental_uris": {"android": "https://dc.lft.to/lastmile_qr_scan", "ios": "https://dc.lft.to/lastmile_qr_scan"}, "name": "5b8cb3ac5663fc22eea0d5a2cceff336", "is_reserved": 0}, {"is_disabled": 0, "fusion_lon": 0.0, "fusion_lat": 0.0, "lat": 38.9293345, "type": "electric_scooter", "lon": -77.01641733333334, "bike_id": "3d5921b5684b9f4345cef2adfbbb35d0", "rental_uris": {"android": "https://dc.lft.to/lastmile_qr_scan", "ios": "https://dc.lft.to/lastmile_qr_scan"}, "name": "3d5921b5684b9f4345cef2adfbbb35d0", "is_reserved": 0}, {"is_disabled": 0, "fusion_lon": 0.0, "fusion_lat": 0.0, "lat": 38.93333166666667, "type": "electric_scooter", "lon": -77.04132483333333, "bike_id": "ce4909f18a245dc4b107cad3ee136f1f", "rental_uris": {"android": "https://dc.lft.to/lastmile_qr_scan", "ios": "https://dc.lft.to/lastmile_qr_scan"}, "name": "ce4909f18a245dc4b107cad3ee136f1f", "is_reserved": 0}, {"is_disabled": 0, "fusion_lon": 0.0, "fusion_lat": 0.0, "lat": 38.88458966666666, "type": "electric_scooter", "lon": -76.954014, "bike_id": "310e8f8e8179a17503eda62ce3704095", "rental_uris": {"android": "https://dc.lft.to/lastmile_qr_scan", "ios": "https://dc.lft.to/lastmile_qr_scan"}, "name": "310e8f8e8179a17503eda62ce3704095", "is_reserved": 0}, {"is_disabled": 0, "fusion_lon": 0.0, "fusion_lat": 0.0, "lat": 38.89850333333333, "type": "electric_scooter", "lon": -77.0259915, "bike_id": "31a88ddb2bf77a7d9cc346e29efaf21c", "rental_uris": {"android": "https://dc.lft.to/lastmile_qr_scan", "ios": "https://dc.lft.to/lastmile_qr_scan"}, "name": "31a88ddb2bf77a7d9cc346e29efaf21c", "is_reserved": 0}, {"is_disabled": 0, "fusion_lon": 0.0, "fusion_lat": 0.0, "lat": 38.86718416666667, "type": "electric_scooter", "lon": -76.97916266666667, "bike_id": "4b027764db34ef1e5ce11cab7bc4e55c", "rental_uris": {"android": "https://dc.lft.to/lastmile_qr_scan", "ios": "https://dc.lft.to/lastmile_qr_scan"}, "name": "4b027764db34ef1e5ce11cab7bc4e55c", "is_reserved": 0}, {"is_disabled": 0, "fusion_lon": 0.0, "fusion_lat": 0.0, "lat": 38.957470666666666, "type": "electric_scooter", "lon": -77.02426583333333, "bike_id": "3b15142034e036cd3ae20e42ba894377", "rental_uris": {"android": "https://dc.lft.to/lastmile_qr_scan", "ios": "https://dc.lft.to/lastmile_qr_scan"}, "name": "3b15142034e036cd3ae20e42ba894377", "is_reserved": 0}, {"is_disabled": 0, "fusion_lon": 0.0, "fusion_lat": 0.0, "lat": 38.93526833333333, "type": "electric_scooter", "lon": -77.023768, "bike_id": "fb78d0d4953982c91804a4d057719630", "rental_uris": {"android": "https://dc.lft.to/lastmile_qr_scan", "ios": "https://dc.lft.to/lastmile_qr_scan"}, "name": "fb78d0d4953982c91804a4d057719630", "is_reserved": 0}, {"is_disabled": 0, "fusion_lon": 0.0, "fusion_lat": 0.0, "lat": 38.98476766666667, "type": "electric_scooter", "lon": -77.0265365, "bike_id": "e0b7f93eb350032459b221c4cd8f9aee", "rental_uris": {"android": "https://dc.lft.to/lastmile_qr_scan", "ios": "https://dc.lft.to/lastmile_qr_scan"}, "name": "e0b7f93eb350032459b221c4cd8f9aee", "is_reserved": 0}, {"is_disabled": 0, "fusion_lon": 0.0, "fusion_lat": 0.0, "lat": 38.9131065, "type": "electric_scooter", "lon": -77.0084715, "bike_id": "5bcdde37550c5aa21ef284a40e0307b2", "rental_uris": {"android": "https://dc.lft.to/lastmile_qr_scan", "ios": "https://dc.lft.to/lastmile_qr_scan"}, "name": "5bcdde37550c5aa21ef284a40e0307b2", "is_reserved": 0}, {"is_disabled": 0, "fusion_lon": 0.0, "fusion_lat": 0.0, "lat": 38.912660333333335, "type": "electric_scooter", "lon": -77.03367066666667, "bike_id": "a673d541d2e265b2500fd5adfcd0068a", "rental_uris": {"android": "https://dc.lft.to/lastmile_qr_scan", "ios": "https://dc.lft.to/lastmile_qr_scan"}, "name": "a673d541d2e265b2500fd5adfcd0068a", "is_reserved": 0}, {"is_disabled": 0, "fusion_lon": 0.0, "fusion_lat": 0.0, "lat": 38.989907333333335, "type": "electric_scooter", "lon": -77.03355016666667, "bike_id": "46258ad7394b2935e502832f6c3b803f", "rental_uris": {"android": "https://dc.lft.to/lastmile_qr_scan", "ios": "https://dc.lft.to/lastmile_qr_scan"}, "name": "46258ad7394b2935e502832f6c3b803f", "is_reserved": 0}, {"is_disabled": 0, "fusion_lon": 0.0, "fusion_lat": 0.0, "lat": 38.929661833333334, "type": "electric_scooter", "lon": -77.04201883333333, "bike_id": "f863eaf6699e2918bd1f24444bfa7bb4", "rental_uris": {"android": "https://dc.lft.to/lastmile_qr_scan", "ios": "https://dc.lft.to/lastmile_qr_scan"}, "name": "f863eaf6699e2918bd1f24444bfa7bb4", "is_reserved": 0}, {"is_disabled": 0, "fusion_lon": 0.0, "fusion_lat": 0.0, "lat": 38.913232666666666, "type": "electric_scooter", "lon": -77.03174933333334, "bike_id": "8166289054e4637228cb58d3e4f8ede6", "rental_uris": {"android": "https://dc.lft.to/lastmile_qr_scan", "ios": "https://dc.lft.to/lastmile_qr_scan"}, "name": "8166289054e4637228cb58d3e4f8ede6", "is_reserved": 0}, {"is_disabled": 0, "fusion_lon": 0.0, "fusion_lat": 0.0, "lat": 38.946025666666664, "type": "electric_scooter", "lon": -77.029788, "bike_id": "9a4e35d10f8ae8b6023c7ba52c06616b", "rental_uris": {"android": "https://dc.lft.to/lastmile_qr_scan", "ios": "https://dc.lft.to/lastmile_qr_scan"}, "name": "9a4e35d10f8ae8b6023c7ba52c06616b", "is_reserved": 0}, {"is_disabled": 0, "fusion_lon": 0.0, "fusion_lat": 0.0, "lat": 38.92784316666667, "type": "electric_scooter", "lon": -77.03171433333333, "bike_id": "b6c6faee4547b804792e174e753fe62e", "rental_uris": {"android": "https://dc.lft.to/lastmile_qr_scan", "ios": "https://dc.lft.to/lastmile_qr_scan"}, "name": "b6c6faee4547b804792e174e753fe62e", "is_reserved": 0}, {"is_disabled": 0, "fusion_lon": 0.0, "fusion_lat": 0.0, "lat": 38.9371025, "type": "electric_scooter", "lon": -77.032638, "bike_id": "f2ba08cf41532a5e3e7b2b5ff27596e0", "rental_uris": {"android": "https://dc.lft.to/lastmile_qr_scan", "ios": "https://dc.lft.to/lastmile_qr_scan"}, "name": "f2ba08cf41532a5e3e7b2b5ff27596e0", "is_reserved": 0}, {"is_disabled": 0, "fusion_lon": 0.0, "fusion_lat": 0.0, "lat": 38.8791645, "type": "electric_scooter", "lon": -77.0072395, "bike_id": "a7b647bd110db93f84bb336697887e4c", "rental_uris": {"android": "https://dc.lft.to/lastmile_qr_scan", "ios": "https://dc.lft.to/lastmile_qr_scan"}, "name": "a7b647bd110db93f84bb336697887e4c", "is_reserved": 0}, {"is_disabled": 0, "fusion_lon": 0.0, "fusion_lat": 0.0, "lat": 38.865824333333336, "type": "electric_scooter", "lon": -76.990453, "bike_id": "e032d02d4d8f888cf90d3e95f0cc98b5", "rental_uris": {"android": "https://dc.lft.to/lastmile_qr_scan", "ios": "https://dc.lft.to/lastmile_qr_scan"}, "name": "e032d02d4d8f888cf90d3e95f0cc98b5", "is_reserved": 0}, {"is_disabled": 0, "fusion_lon": 0.0, "fusion_lat": 0.0, "lat": 38.91842883333333, "type": "electric_scooter", "lon": -77.024512, "bike_id": "f9340adccf48ce998e349197aa13d309", "rental_uris": {"android": "https://dc.lft.to/lastmile_qr_scan", "ios": "https://dc.lft.to/lastmile_qr_scan"}, "name": "f9340adccf48ce998e349197aa13d309", "is_reserved": 0}, {"is_disabled": 0, "fusion_lon": 0.0, "fusion_lat": 0.0, "lat": 38.927961, "type": "electric_scooter", "lon": -77.02298483333334, "bike_id": "4798135b72572fb594a2c4c3e789561d", "rental_uris": {"android": "https://dc.lft.to/lastmile_qr_scan", "ios": "https://dc.lft.to/lastmile_qr_scan"}, "name": "4798135b72572fb594a2c4c3e789561d", "is_reserved": 0}, {"is_disabled": 0, "fusion_lon": 0.0, "fusion_lat": 0.0, "lat": 38.92088666666667, "type": "electric_scooter", "lon": -77.0179875, "bike_id": "b6a27c981570dbbbdd3744c9f76d4002", "rental_uris": {"android": "https://dc.lft.to/lastmile_qr_scan", "ios": "https://dc.lft.to/lastmile_qr_scan"}, "name": "b6a27c981570dbbbdd3744c9f76d4002", "is_reserved": 0}, {"is_disabled": 0, "fusion_lon": 0.0, "fusion_lat": 0.0, "lat": 38.91873783333333, "type": "electric_bike", "lon": -76.9612515, "bike_id": "68d49cbf1ce30399c21f2194c90bd2f4", "rental_uris": {"android": "https://dc.lft.to/lastmile_qr_scan", "ios": "https://dc.lft.to/lastmile_qr_scan"}, "name": "68d49cbf1ce30399c21f2194c90bd2f4", "is_reserved": 0}, {"is_disabled": 0, "fusion_lon": 0.0, "fusion_lat": 0.0, "lat": 38.896058, "type": "electric_scooter", "lon": -76.99467966666667, "bike_id": "49529a6bf7e20873196d2fe7ebd46e6f", "rental_uris": {"android": "https://dc.lft.to/lastmile_qr_scan", "ios": "https://dc.lft.to/lastmile_qr_scan"}, "name": "49529a6bf7e20873196d2fe7ebd46e6f", "is_reserved": 0}, {"is_disabled": 0, "fusion_lon": 0.0, "fusion_lat": 0.0, "lat": 38.89728133333333, "type": "electric_scooter", "lon": -77.02235333333333, "bike_id": "d1f1271b351a4e4f239955dbf3dc2fef", "rental_uris": {"android": "https://dc.lft.to/lastmile_qr_scan", "ios": "https://dc.lft.to/lastmile_qr_scan"}, "name": "d1f1271b351a4e4f239955dbf3dc2fef", "is_reserved": 0}, {"is_disabled": 0, "fusion_lon": 0.0, "fusion_lat": 0.0, "lat": 38.898775, "type": "electric_scooter", "lon": -76.93157516666666, "bike_id": "0b717e455e9388cdaf597b52ee12d801", "rental_uris": {"android": "https://dc.lft.to/lastmile_qr_scan", "ios": "https://dc.lft.to/lastmile_qr_scan"}, "name": "0b717e455e9388cdaf597b52ee12d801", "is_reserved": 0}, {"is_disabled": 0, "fusion_lon": 0.0, "fusion_lat": 0.0, "lat": 38.8897715, "type": "electric_scooter", "lon": -76.98739066666667, "bike_id": "60daf72f91cc862016587ac468952955", "rental_uris": {"android": "https://dc.lft.to/lastmile_qr_scan", "ios": "https://dc.lft.to/lastmile_qr_scan"}, "name": "60daf72f91cc862016587ac468952955", "is_reserved": 0}, {"is_disabled": 0, "fusion_lon": 0.0, "fusion_lat": 0.0, "lat": 38.931508, "type": "electric_scooter", "lon": -77.04366266666666, "bike_id": "92cad0db609f481342af997895fc04cf", "rental_uris": {"android": "https://dc.lft.to/lastmile_qr_scan", "ios": "https://dc.lft.to/lastmile_qr_scan"}, "name": "92cad0db609f481342af997895fc04cf", "is_reserved": 0}, {"is_disabled": 0, "fusion_lon": 0.0, "fusion_lat": 0.0, "lat": 38.901366, "type": "electric_scooter", "lon": -77.04339983333334, "bike_id": "cfdbd09c0ddd1fc084341d06d194a93e", "rental_uris": {"android": "https://dc.lft.to/lastmile_qr_scan", "ios": "https://dc.lft.to/lastmile_qr_scan"}, "name": "cfdbd09c0ddd1fc084341d06d194a93e", "is_reserved": 0}, {"is_disabled": 0, "fusion_lon": 0.0, "fusion_lat": 0.0, "lat": 38.860585, "type": "electric_scooter", "lon": -76.985077, "bike_id": "41de29170d8dbb920495e3c00d16a33a", "rental_uris": {"android": "https://dc.lft.to/lastmile_qr_scan", "ios": "https://dc.lft.to/lastmile_qr_scan"}, "name": "41de29170d8dbb920495e3c00d16a33a", "is_reserved": 0}, {"is_disabled": 0, "fusion_lon": 0.0, "fusion_lat": 0.0, "lat": 38.9235455, "type": "electric_scooter", "lon": -77.0410345, "bike_id": "8b86b3ec33664191b50f9cf83f181065", "rental_uris": {"android": "https://dc.lft.to/lastmile_qr_scan", "ios": "https://dc.lft.to/lastmile_qr_scan"}, "name": "8b86b3ec33664191b50f9cf83f181065", "is_reserved": 0}, {"is_disabled": 0, "fusion_lon": 0.0, "fusion_lat": 0.0, "lat": 38.92876316666667, "type": "electric_scooter", "lon": -77.04128883333334, "bike_id": "4ee3e2d4477d964e612890772ba0d26c", "rental_uris": {"android": "https://dc.lft.to/lastmile_qr_scan", "ios": "https://dc.lft.to/lastmile_qr_scan"}, "name": "4ee3e2d4477d964e612890772ba0d26c", "is_reserved": 0}, {"is_disabled": 0, "fusion_lon": 0.0, "fusion_lat": 0.0, "lat": 38.90968016666667, "type": "electric_scooter", "lon": -77.04805166666667, "bike_id": "83d657bf019663d929e49d3de446e5ca", "rental_uris": {"android": "https://dc.lft.to/lastmile_qr_scan", "ios": "https://dc.lft.to/lastmile_qr_scan"}, "name": "83d657bf019663d929e49d3de446e5ca", "is_reserved": 0}, {"is_disabled": 0, "fusion_lon": 0.0, "fusion_lat": 0.0, "lat": 38.9148455, "type": "electric_scooter", "lon": -77.04088383333334, "bike_id": "6857613dda2b995311da62bb1798d254", "rental_uris": {"android": "https://dc.lft.to/lastmile_qr_scan", "ios": "https://dc.lft.to/lastmile_qr_scan"}, "name": "6857613dda2b995311da62bb1798d254", "is_reserved": 0}, {"is_disabled": 0, "fusion_lon": 0.0, "fusion_lat": 0.0, "lat": 38.91379, "type": "electric_scooter", "lon": -77.02968483333333, "bike_id": "c3f58ed8a79b3d57b11cc7124e4270a5", "rental_uris": {"android": "https://dc.lft.to/lastmile_qr_scan", "ios": "https://dc.lft.to/lastmile_qr_scan"}, "name": "c3f58ed8a79b3d57b11cc7124e4270a5", "is_reserved": 0}, {"is_disabled": 0, "fusion_lon": 0.0, "fusion_lat": 0.0, "lat": 38.898783, "type": "electric_scooter", "lon": -76.9315935, "bike_id": "9aeb58ee4c783cba9223afc27e443155", "rental_uris": {"android": "https://dc.lft.to/lastmile_qr_scan", "ios": "https://dc.lft.to/lastmile_qr_scan"}, "name": "9aeb58ee4c783cba9223afc27e443155", "is_reserved": 0}, {"is_disabled": 0, "fusion_lon": 0.0, "fusion_lat": 0.0, "lat": 38.8875435, "type": "electric_scooter", "lon": -77.00221933333333, "bike_id": "c48a1a8847eb69d940978d5b189165e3", "rental_uris": {"android": "https://dc.lft.to/lastmile_qr_scan", "ios": "https://dc.lft.to/lastmile_qr_scan"}, "name": "c48a1a8847eb69d940978d5b189165e3", "is_reserved": 0}, {"is_disabled": 0, "fusion_lon": 0.0, "fusion_lat": 0.0, "lat": 38.9007755, "type": "electric_scooter", "lon": -77.05040633333333, "bike_id": "ef9dde593695beb74aa6100fda5dd792", "rental_uris": {"android": "https://dc.lft.to/lastmile_qr_scan", "ios": "https://dc.lft.to/lastmile_qr_scan"}, "name": "ef9dde593695beb74aa6100fda5dd792", "is_reserved": 0}, {"is_disabled": 0, "fusion_lon": 0.0, "fusion_lat": 0.0, "lat": 38.91562, "type": "electric_scooter", "lon": -77.0394845, "bike_id": "dc2f811e69f8e02393c515141575e3da", "rental_uris": {"android": "https://dc.lft.to/lastmile_qr_scan", "ios": "https://dc.lft.to/lastmile_qr_scan"}, "name": "dc2f811e69f8e02393c515141575e3da", "is_reserved": 0}, {"is_disabled": 0, "fusion_lon": 0.0, "fusion_lat": 0.0, "lat": 38.975708833333336, "type": "electric_bike", "lon": -76.96402666666667, "bike_id": "73cab1cebe61d92c96ab8a4d13b2d587", "rental_uris": {"android": "https://dc.lft.to/lastmile_qr_scan", "ios": "https://dc.lft.to/lastmile_qr_scan"}, "name": "73cab1cebe61d92c96ab8a4d13b2d587", "is_reserved": 0}, {"is_disabled": 0, "fusion_lon": 0.0, "fusion_lat": 0.0, "lat": 38.905424, "type": "electric_scooter", "lon": -77.05810633333333, "bike_id": "38e64620e00d70b4fb36a9eb6915846a", "rental_uris": {"android": "https://dc.lft.to/lastmile_qr_scan", "ios": "https://dc.lft.to/lastmile_qr_scan"}, "name": "38e64620e00d70b4fb36a9eb6915846a", "is_reserved": 0}, {"is_disabled": 0, "fusion_lon": 0.0, "fusion_lat": 0.0, "lat": 38.889677, "type": "electric_bike", "lon": -76.9486365, "bike_id": "ae84d0d8efcbb24884e68ab5f06f841a", "rental_uris": {"android": "https://dc.lft.to/lastmile_qr_scan", "ios": "https://dc.lft.to/lastmile_qr_scan"}, "name": "ae84d0d8efcbb24884e68ab5f06f841a", "is_reserved": 0}, {"is_disabled": 0, "fusion_lon": 0.0, "fusion_lat": 0.0, "lat": 38.990917333333336, "type": "electric_bike", "lon": -76.87494233333334, "bike_id": "a228057761a6fed927cfbb27a13314f5", "rental_uris": {"android": "https://dc.lft.to/lastmile_qr_scan", "ios": "https://dc.lft.to/lastmile_qr_scan"}, "name": "a228057761a6fed927cfbb27a13314f5", "is_reserved": 0}, {"is_disabled": 0, "fusion_lon": 0.0, "fusion_lat": 0.0, "lat": 38.905271166666665, "type": "electric_scooter", "lon": -77.05121516666667, "bike_id": "1b3031bef03fceb21adfb6cf42e6494e", "rental_uris": {"android": "https://dc.lft.to/lastmile_qr_scan", "ios": "https://dc.lft.to/lastmile_qr_scan"}, "name": "1b3031bef03fceb21adfb6cf42e6494e", "is_reserved": 0}, {"is_disabled": 0, "fusion_lon": 0.0, "fusion_lat": 0.0, "lat": 38.907732, "type": "electric_scooter", "lon": -77.0327515, "bike_id": "d4ec5b14d8ccc59fca3c71ba95726841", "rental_uris": {"android": "https://dc.lft.to/lastmile_qr_scan", "ios": "https://dc.lft.to/lastmile_qr_scan"}, "name": "d4ec5b14d8ccc59fca3c71ba95726841", "is_reserved": 0}, {"is_disabled": 0, "fusion_lon": 0.0, "fusion_lat": 0.0, "lat": 38.957252833333335, "type": "electric_scooter", "lon": -77.031021, "bike_id": "2f25bd5de4937f6af9c76b8cd7d5406f", "rental_uris": {"android": "https://dc.lft.to/lastmile_qr_scan", "ios": "https://dc.lft.to/lastmile_qr_scan"}, "name": "2f25bd5de4937f6af9c76b8cd7d5406f", "is_reserved": 0}, {"is_disabled": 0, "fusion_lon": 0.0, "fusion_lat": 0.0, "lat": 38.8990755, "type": "electric_scooter", "lon": -77.01630516666667, "bike_id": "884349f375d7b0d9b18abf7f17745fd3", "rental_uris": {"android": "https://dc.lft.to/lastmile_qr_scan", "ios": "https://dc.lft.to/lastmile_qr_scan"}, "name": "884349f375d7b0d9b18abf7f17745fd3", "is_reserved": 0}, {"is_disabled": 0, "fusion_lon": 0.0, "fusion_lat": 0.0, "lat": 38.91403316666667, "type": "electric_scooter", "lon": -77.032213, "bike_id": "52cbdfe53b1ea1c2de921ff6a7796ebd", "rental_uris": {"android": "https://dc.lft.to/lastmile_qr_scan", "ios": "https://dc.lft.to/lastmile_qr_scan"}, "name": "52cbdfe53b1ea1c2de921ff6a7796ebd", "is_reserved": 0}, {"is_disabled": 0, "fusion_lon": 0.0, "fusion_lat": 0.0, "lat": 38.888233, "type": "electric_bike", "lon": -77.12740433333333, "bike_id": "1639d8a44db0e2a08545137a088d1c1c", "rental_uris": {"android": "https://dc.lft.to/lastmile_qr_scan", "ios": "https://dc.lft.to/lastmile_qr_scan"}, "name": "1639d8a44db0e2a08545137a088d1c1c", "is_reserved": 0}, {"is_disabled": 0, "fusion_lon": 0.0, "fusion_lat": 0.0, "lat": 38.96282866666667, "type": "electric_bike", "lon": -77.02869916666667, "bike_id": "664d4ae67ee60b65c18a52d0256cf697", "rental_uris": {"android": "https://dc.lft.to/lastmile_qr_scan", "ios": "https://dc.lft.to/lastmile_qr_scan"}, "name": "664d4ae67ee60b65c18a52d0256cf697", "is_reserved": 0}, {"is_disabled": 0, "fusion_lon": 0.0, "fusion_lat": 0.0, "lat": 38.93453866666667, "type": "electric_scooter", "lon": -77.03013766666666, "bike_id": "b00c7b1d3b55abc1d96d4da16ce31a18", "rental_uris": {"android": "https://dc.lft.to/lastmile_qr_scan", "ios": "https://dc.lft.to/lastmile_qr_scan"}, "name": "b00c7b1d3b55abc1d96d4da16ce31a18", "is_reserved": 0}, {"is_disabled": 0, "fusion_lon": 0.0, "fusion_lat": 0.0, "lat": 38.901580333333335, "type": "electric_scooter", "lon": -77.03320666666667, "bike_id": "8972346c949e0d96d3bb7401b88e1264", "rental_uris": {"android": "https://dc.lft.to/lastmile_qr_scan", "ios": "https://dc.lft.to/lastmile_qr_scan"}, "name": "8972346c949e0d96d3bb7401b88e1264", "is_reserved": 0}, {"is_disabled": 0, "fusion_lon": 0.0, "fusion_lat": 0.0, "lat": 38.884607, "type": "electric_scooter", "lon": -77.02299683333334, "bike_id": "d1ff187c111e802f8610acd768a786db", "rental_uris": {"android": "https://dc.lft.to/lastmile_qr_scan", "ios": "https://dc.lft.to/lastmile_qr_scan"}, "name": "d1ff187c111e802f8610acd768a786db", "is_reserved": 0}, {"is_disabled": 0, "fusion_lon": 0.0, "fusion_lat": 0.0, "lat": 38.936415, "type": "electric_bike", "lon": -76.95456233333333, "bike_id": "31961cf1784228d62a26c987a99b0cb9", "rental_uris": {"android": "https://dc.lft.to/lastmile_qr_scan", "ios": "https://dc.lft.to/lastmile_qr_scan"}, "name": "31961cf1784228d62a26c987a99b0cb9", "is_reserved": 0}, {"is_disabled": 0, "fusion_lon": 0.0, "fusion_lat": 0.0, "lat": 38.876536, "type": "electric_scooter", "lon": -77.007559, "bike_id": "2bdec3d9908f9dddaf874e3424387ee8", "rental_uris": {"android": "https://dc.lft.to/lastmile_qr_scan", "ios": "https://dc.lft.to/lastmile_qr_scan"}, "name": "2bdec3d9908f9dddaf874e3424387ee8", "is_reserved": 0}, {"is_disabled": 0, "fusion_lon": 0.0, "fusion_lat": 0.0, "lat": 38.8329025, "type": "electric_scooter", "lon": -77.00824016666667, "bike_id": "65e83be615f254358598297692bdc6fe", "rental_uris": {"android": "https://dc.lft.to/lastmile_qr_scan", "ios": "https://dc.lft.to/lastmile_qr_scan"}, "name": "65e83be615f254358598297692bdc6fe", "is_reserved": 0}, {"is_disabled": 0, "fusion_lon": 0.0, "fusion_lat": 0.0, "lat": 38.91124833333333, "type": "electric_scooter", "lon": -77.02192216666667, "bike_id": "7d8c269257f085d42b71636688c3e5bb", "rental_uris": {"android": "https://dc.lft.to/lastmile_qr_scan", "ios": "https://dc.lft.to/lastmile_qr_scan"}, "name": "7d8c269257f085d42b71636688c3e5bb", "is_reserved": 0}, {"is_disabled": 0, "fusion_lon": 0.0, "fusion_lat": 0.0, "lat": 38.9105135, "type": "electric_scooter", "lon": -77.05446483333333, "bike_id": "fa8710a82e259ff88af810d57ad9cd01", "rental_uris": {"android": "https://dc.lft.to/lastmile_qr_scan", "ios": "https://dc.lft.to/lastmile_qr_scan"}, "name": "fa8710a82e259ff88af810d57ad9cd01", "is_reserved": 0}, {"is_disabled": 0, "fusion_lon": 0.0, "fusion_lat": 0.0, "lat": 38.9457535, "type": "electric_bike", "lon": -76.98773966666667, "bike_id": "f281cf310efb4b8b4397621b78b8553c", "rental_uris": {"android": "https://dc.lft.to/lastmile_qr_scan", "ios": "https://dc.lft.to/lastmile_qr_scan"}, "name": "f281cf310efb4b8b4397621b78b8553c", "is_reserved": 0}, {"is_disabled": 0, "fusion_lon": 0.0, "fusion_lat": 0.0, "lat": 38.898973166666664, "type": "electric_scooter", "lon": -76.9318215, "bike_id": "da6032806b6650b72696c58fa19db680", "rental_uris": {"android": "https://dc.lft.to/lastmile_qr_scan", "ios": "https://dc.lft.to/lastmile_qr_scan"}, "name": "da6032806b6650b72696c58fa19db680", "is_reserved": 0}, {"is_disabled": 0, "fusion_lon": 0.0, "fusion_lat": 0.0, "lat": 38.85208033333333, "type": "electric_bike", "lon": -77.101305, "bike_id": "361bda6ede4723ce98852790c09aa71d", "rental_uris": {"android": "https://dc.lft.to/lastmile_qr_scan", "ios": "https://dc.lft.to/lastmile_qr_scan"}, "name": "361bda6ede4723ce98852790c09aa71d", "is_reserved": 0}, {"is_disabled": 0, "fusion_lon": 0.0, "fusion_lat": 0.0, "lat": 38.91415033333333, "type": "electric_scooter", "lon": -77.0466545, "bike_id": "57a3603c50976ac6049d7c11512adf8e", "rental_uris": {"android": "https://dc.lft.to/lastmile_qr_scan", "ios": "https://dc.lft.to/lastmile_qr_scan"}, "name": "57a3603c50976ac6049d7c11512adf8e", "is_reserved": 0}, {"is_disabled": 0, "fusion_lon": 0.0, "fusion_lat": 0.0, "lat": 38.876223833333334, "type": "electric_scooter", "lon": -76.9653855, "bike_id": "7a2db9bc8a58cdea703a4208624e2b97", "rental_uris": {"android": "https://dc.lft.to/lastmile_qr_scan", "ios": "https://dc.lft.to/lastmile_qr_scan"}, "name": "7a2db9bc8a58cdea703a4208624e2b97", "is_reserved": 0}, {"is_disabled": 0, "fusion_lon": 0.0, "fusion_lat": 0.0, "lat": 38.9111035, "type": "electric_scooter", "lon": -77.04502333333333, "bike_id": "b889aaacff280c91cf56cd9185533bec", "rental_uris": {"android": "https://dc.lft.to/lastmile_qr_scan", "ios": "https://dc.lft.to/lastmile_qr_scan"}, "name": "b889aaacff280c91cf56cd9185533bec", "is_reserved": 0}, {"is_disabled": 0, "fusion_lon": 0.0, "fusion_lat": 0.0, "lat": 38.88741016666667, "type": "electric_scooter", "lon": -77.01601616666666, "bike_id": "96bc204552965e419e04a2412d23f2be", "rental_uris": {"android": "https://dc.lft.to/lastmile_qr_scan", "ios": "https://dc.lft.to/lastmile_qr_scan"}, "name": "96bc204552965e419e04a2412d23f2be", "is_reserved": 0}, {"is_disabled": 0, "fusion_lon": 0.0, "fusion_lat": 0.0, "lat": 38.929757333333335, "type": "electric_bike", "lon": -77.03814483333333, "bike_id": "960b1ce2f8fbcd36e94b6a8f7dfb69c0", "rental_uris": {"android": "https://dc.lft.to/lastmile_qr_scan", "ios": "https://dc.lft.to/lastmile_qr_scan"}, "name": "960b1ce2f8fbcd36e94b6a8f7dfb69c0", "is_reserved": 0}, {"is_disabled": 0, "fusion_lon": 0.0, "fusion_lat": 0.0, "lat": 38.865699, "type": "electric_scooter", "lon": -76.98944183333333, "bike_id": "58201fe7f44100e8cb3e3d331ad6213f", "rental_uris": {"android": "https://dc.lft.to/lastmile_qr_scan", "ios": "https://dc.lft.to/lastmile_qr_scan"}, "name": "58201fe7f44100e8cb3e3d331ad6213f", "is_reserved": 0}, {"is_disabled": 0, "fusion_lon": 0.0, "fusion_lat": 0.0, "lat": 38.90864783333333, "type": "electric_scooter", "lon": -77.0355505, "bike_id": "086f3eb86651d6224528adb38696e1b3", "rental_uris": {"android": "https://dc.lft.to/lastmile_qr_scan", "ios": "https://dc.lft.to/lastmile_qr_scan"}, "name": "086f3eb86651d6224528adb38696e1b3", "is_reserved": 0}, {"is_disabled": 0, "fusion_lon": 0.0, "fusion_lat": 0.0, "lat": 38.93736283333333, "type": "electric_scooter", "lon": -77.03281433333333, "bike_id": "3e10914e8050c4f2a249bb6b67289c58", "rental_uris": {"android": "https://dc.lft.to/lastmile_qr_scan", "ios": "https://dc.lft.to/lastmile_qr_scan"}, "name": "3e10914e8050c4f2a249bb6b67289c58", "is_reserved": 0}, {"is_disabled": 0, "fusion_lon": 0.0, "fusion_lat": 0.0, "lat": 38.93223233333333, "type": "electric_scooter", "lon": -76.99528616666667, "bike_id": "0d805b6f341901bbc3a3ecb33af45b50", "rental_uris": {"android": "https://dc.lft.to/lastmile_qr_scan", "ios": "https://dc.lft.to/lastmile_qr_scan"}, "name": "0d805b6f341901bbc3a3ecb33af45b50", "is_reserved": 0}, {"is_disabled": 0, "fusion_lon": 0.0, "fusion_lat": 0.0, "lat": 39.052060166666664, "type": "electric_bike", "lon": -77.04409266666667, "bike_id": "63a144a32c7606762bbf9a8099e6faaa", "rental_uris": {"android": "https://dc.lft.to/lastmile_qr_scan", "ios": "https://dc.lft.to/lastmile_qr_scan"}, "name": "63a144a32c7606762bbf9a8099e6faaa", "is_reserved": 0}, {"is_disabled": 0, "fusion_lon": 0.0, "fusion_lat": 0.0, "lat": 38.870915333333336, "type": "electric_scooter", "lon": -77.00816016666667, "bike_id": "8ba34a541f8b38461ebba84f45a62283", "rental_uris": {"android": "https://dc.lft.to/lastmile_qr_scan", "ios": "https://dc.lft.to/lastmile_qr_scan"}, "name": "8ba34a541f8b38461ebba84f45a62283", "is_reserved": 0}, {"is_disabled": 0, "fusion_lon": 0.0, "fusion_lat": 0.0, "lat": 38.90113366666667, "type": "electric_scooter", "lon": -77.04653083333334, "bike_id": "f10868bec852b11dd3f44c05fd5dfa42", "rental_uris": {"android": "https://dc.lft.to/lastmile_qr_scan", "ios": "https://dc.lft.to/lastmile_qr_scan"}, "name": "f10868bec852b11dd3f44c05fd5dfa42", "is_reserved": 0}, {"is_disabled": 0, "fusion_lon": 0.0, "fusion_lat": 0.0, "lat": 38.90547466666666, "type": "electric_scooter", "lon": -77.0219765, "bike_id": "55360887102b7985caaf1f09457610e2", "rental_uris": {"android": "https://dc.lft.to/lastmile_qr_scan", "ios": "https://dc.lft.to/lastmile_qr_scan"}, "name": "55360887102b7985caaf1f09457610e2", "is_reserved": 0}, {"is_disabled": 0, "fusion_lon": 0.0, "fusion_lat": 0.0, "lat": 38.918508333333335, "type": "electric_scooter", "lon": -77.02451783333333, "bike_id": "aa181a6695c3945ceee8fcaa50af653d", "rental_uris": {"android": "https://dc.lft.to/lastmile_qr_scan", "ios": "https://dc.lft.to/lastmile_qr_scan"}, "name": "aa181a6695c3945ceee8fcaa50af653d", "is_reserved": 0}, {"is_disabled": 0, "fusion_lon": 0.0, "fusion_lat": 0.0, "lat": 38.897289666666666, "type": "electric_bike", "lon": -76.9054125, "bike_id": "508e6626dafd1bc0d18e23781b736732", "rental_uris": {"android": "https://dc.lft.to/lastmile_qr_scan", "ios": "https://dc.lft.to/lastmile_qr_scan"}, "name": "508e6626dafd1bc0d18e23781b736732", "is_reserved": 0}, {"is_disabled": 0, "fusion_lon": 0.0, "fusion_lat": 0.0, "lat": 38.968182666666664, "type": "electric_scooter", "lon": -77.00889883333333, "bike_id": "e52aa760f81f1b9d3ec02c59348874b4", "rental_uris": {"android": "https://dc.lft.to/lastmile_qr_scan", "ios": "https://dc.lft.to/lastmile_qr_scan"}, "name": "e52aa760f81f1b9d3ec02c59348874b4", "is_reserved": 0}, {"is_disabled": 0, "fusion_lon": 0.0, "fusion_lat": 0.0, "lat": 38.94113566666667, "type": "electric_scooter", "lon": -77.07709666666666, "bike_id": "eb853f2bd37fb29c601f9305b83fbb09", "rental_uris": {"android": "https://dc.lft.to/lastmile_qr_scan", "ios": "https://dc.lft.to/lastmile_qr_scan"}, "name": "eb853f2bd37fb29c601f9305b83fbb09", "is_reserved": 0}, {"is_disabled": 0, "fusion_lon": 0.0, "fusion_lat": 0.0, "lat": 38.9039265, "type": "electric_scooter", "lon": -77.00472066666667, "bike_id": "6da4191dd38ff036bea042aff62b7763", "rental_uris": {"android": "https://dc.lft.to/lastmile_qr_scan", "ios": "https://dc.lft.to/lastmile_qr_scan"}, "name": "6da4191dd38ff036bea042aff62b7763", "is_reserved": 0}, {"is_disabled": 0, "fusion_lon": 0.0, "fusion_lat": 0.0, "lat": 38.91421116666667, "type": "electric_scooter", "lon": -77.01422283333333, "bike_id": "4a14ed03730adb7611442d6766dce5b6", "rental_uris": {"android": "https://dc.lft.to/lastmile_qr_scan", "ios": "https://dc.lft.to/lastmile_qr_scan"}, "name": "4a14ed03730adb7611442d6766dce5b6", "is_reserved": 0}, {"is_disabled": 0, "fusion_lon": 0.0, "fusion_lat": 0.0, "lat": 38.88491766666667, "type": "electric_scooter", "lon": -77.0072685, "bike_id": "85b6d49e237ea69b75d9fb96012a25e1", "rental_uris": {"android": "https://dc.lft.to/lastmile_qr_scan", "ios": "https://dc.lft.to/lastmile_qr_scan"}, "name": "85b6d49e237ea69b75d9fb96012a25e1", "is_reserved": 0}, {"is_disabled": 0, "fusion_lon": 0.0, "fusion_lat": 0.0, "lat": 38.929281, "type": "electric_bike", "lon": -77.03264116666666, "bike_id": "722c379b8d5af05b9e97562e205d67ce", "rental_uris": {"android": "https://dc.lft.to/lastmile_qr_scan", "ios": "https://dc.lft.to/lastmile_qr_scan"}, "name": "722c379b8d5af05b9e97562e205d67ce", "is_reserved": 0}, {"is_disabled": 0, "fusion_lon": 0.0, "fusion_lat": 0.0, "lat": 38.900278666666665, "type": "electric_scooter", "lon": -76.99966216666667, "bike_id": "a12c7361743ae0fa937a8aa7804cda0d", "rental_uris": {"android": "https://dc.lft.to/lastmile_qr_scan", "ios": "https://dc.lft.to/lastmile_qr_scan"}, "name": "a12c7361743ae0fa937a8aa7804cda0d", "is_reserved": 0}, {"is_disabled": 0, "fusion_lon": 0.0, "fusion_lat": 0.0, "lat": 38.91648133333333, "type": "electric_scooter", "lon": -77.03189683333333, "bike_id": "4a8e8d5266975e9e848527fc04f8385d", "rental_uris": {"android": "https://dc.lft.to/lastmile_qr_scan", "ios": "https://dc.lft.to/lastmile_qr_scan"}, "name": "4a8e8d5266975e9e848527fc04f8385d", "is_reserved": 0}, {"is_disabled": 0, "fusion_lon": 0.0, "fusion_lat": 0.0, "lat": 38.92644033333333, "type": "electric_scooter", "lon": -77.033678, "bike_id": "6f01142fa93946e4ef459bbf6348e07d", "rental_uris": {"android": "https://dc.lft.to/lastmile_qr_scan", "ios": "https://dc.lft.to/lastmile_qr_scan"}, "name": "6f01142fa93946e4ef459bbf6348e07d", "is_reserved": 0}, {"is_disabled": 0, "fusion_lon": 0.0, "fusion_lat": 0.0, "lat": 38.916537166666664, "type": "electric_scooter", "lon": -77.0191285, "bike_id": "e94faa3b3c8c98fe5105c3e9878e9857", "rental_uris": {"android": "https://dc.lft.to/lastmile_qr_scan", "ios": "https://dc.lft.to/lastmile_qr_scan"}, "name": "e94faa3b3c8c98fe5105c3e9878e9857", "is_reserved": 0}, {"is_disabled": 0, "fusion_lon": 0.0, "fusion_lat": 0.0, "lat": 38.939063166666664, "type": "electric_scooter", "lon": -77.03309833333333, "bike_id": "43b34ada857893d88aa16caaca77ca7b", "rental_uris": {"android": "https://dc.lft.to/lastmile_qr_scan", "ios": "https://dc.lft.to/lastmile_qr_scan"}, "name": "43b34ada857893d88aa16caaca77ca7b", "is_reserved": 0}, {"is_disabled": 0, "fusion_lon": 0.0, "fusion_lat": 0.0, "lat": 38.851988, "type": "electric_bike", "lon": -77.12762, "bike_id": "4c8396cb8fe4bb18bc5c51d4def23140", "rental_uris": {"android": "https://dc.lft.to/lastmile_qr_scan", "ios": "https://dc.lft.to/lastmile_qr_scan"}, "name": "4c8396cb8fe4bb18bc5c51d4def23140", "is_reserved": 0}, {"is_disabled": 0, "fusion_lon": 0.0, "fusion_lat": 0.0, "lat": 38.89224183333333, "type": "electric_scooter", "lon": -77.04338016666667, "bike_id": "5f6106384a06f7d8e31182d1e03b0826", "rental_uris": {"android": "https://dc.lft.to/lastmile_qr_scan", "ios": "https://dc.lft.to/lastmile_qr_scan"}, "name": "5f6106384a06f7d8e31182d1e03b0826", "is_reserved": 0}, {"is_disabled": 0, "fusion_lon": 0.0, "fusion_lat": 0.0, "lat": 38.89747833333333, "type": "electric_scooter", "lon": -77.05131266666666, "bike_id": "16568191d37d14b836fad44e2ab7b1e8", "rental_uris": {"android": "https://dc.lft.to/lastmile_qr_scan", "ios": "https://dc.lft.to/lastmile_qr_scan"}, "name": "16568191d37d14b836fad44e2ab7b1e8", "is_reserved": 0}, {"is_disabled": 0, "fusion_lon": 0.0, "fusion_lat": 0.0, "lat": 38.91823016666667, "type": "electric_scooter", "lon": -77.03199383333333, "bike_id": "1caced85660755d9dbe00e8035cb6f96", "rental_uris": {"android": "https://dc.lft.to/lastmile_qr_scan", "ios": "https://dc.lft.to/lastmile_qr_scan"}, "name": "1caced85660755d9dbe00e8035cb6f96", "is_reserved": 0}, {"is_disabled": 0, "fusion_lon": 0.0, "fusion_lat": 0.0, "lat": 38.905269, "type": "electric_scooter", "lon": -77.04358433333333, "bike_id": "8e3e7f06a8898b256859c3b1e15528c6", "rental_uris": {"android": "https://dc.lft.to/lastmile_qr_scan", "ios": "https://dc.lft.to/lastmile_qr_scan"}, "name": "8e3e7f06a8898b256859c3b1e15528c6", "is_reserved": 0}, {"is_disabled": 0, "fusion_lon": 0.0, "fusion_lat": 0.0, "lat": 38.916874, "type": "electric_scooter", "lon": -77.02950666666666, "bike_id": "68e31ef5177736b78b905231c7dfb10b", "rental_uris": {"android": "https://dc.lft.to/lastmile_qr_scan", "ios": "https://dc.lft.to/lastmile_qr_scan"}, "name": "68e31ef5177736b78b905231c7dfb10b", "is_reserved": 0}, {"is_disabled": 0, "fusion_lon": 0.0, "fusion_lat": 0.0, "lat": 38.89774, "type": "electric_scooter", "lon": -77.024785, "bike_id": "f0cf60a7baa18a68135d7c51671cb8df", "rental_uris": {"android": "https://dc.lft.to/lastmile_qr_scan", "ios": "https://dc.lft.to/lastmile_qr_scan"}, "name": "f0cf60a7baa18a68135d7c51671cb8df", "is_reserved": 0}, {"is_disabled": 0, "fusion_lon": 0.0, "fusion_lat": 0.0, "lat": 38.94542466666667, "type": "electric_scooter", "lon": -77.0253315, "bike_id": "0d778adece4d1f04002a4f8d07c8aacd", "rental_uris": {"android": "https://dc.lft.to/lastmile_qr_scan", "ios": "https://dc.lft.to/lastmile_qr_scan"}, "name": "0d778adece4d1f04002a4f8d07c8aacd", "is_reserved": 0}, {"is_disabled": 0, "fusion_lon": 0.0, "fusion_lat": 0.0, "lat": 38.934634333333335, "type": "electric_scooter", "lon": -77.03052916666667, "bike_id": "be4038e3dbf706691755e2753a6756e8", "rental_uris": {"android": "https://dc.lft.to/lastmile_qr_scan", "ios": "https://dc.lft.to/lastmile_qr_scan"}, "name": "be4038e3dbf706691755e2753a6756e8", "is_reserved": 0}, {"is_disabled": 0, "fusion_lon": 0.0, "fusion_lat": 0.0, "lat": 38.925316333333335, "type": "electric_scooter", "lon": -77.0732645, "bike_id": "ae55df6bc34a0ac3ae73418202ad82d0", "rental_uris": {"android": "https://dc.lft.to/lastmile_qr_scan", "ios": "https://dc.lft.to/lastmile_qr_scan"}, "name": "ae55df6bc34a0ac3ae73418202ad82d0", "is_reserved": 0}, {"is_disabled": 0, "fusion_lon": 0.0, "fusion_lat": 0.0, "lat": 38.92901233333333, "type": "electric_scooter", "lon": -77.03173666666666, "bike_id": "de5acd1c7a672ed18e6e7c206c882a30", "rental_uris": {"android": "https://dc.lft.to/lastmile_qr_scan", "ios": "https://dc.lft.to/lastmile_qr_scan"}, "name": "de5acd1c7a672ed18e6e7c206c882a30", "is_reserved": 0}, {"is_disabled": 0, "fusion_lon": 0.0, "fusion_lat": 0.0, "lat": 38.86700733333333, "type": "electric_scooter", "lon": -76.987138, "bike_id": "29aa9f3592afe7ce1fe284db8d9b3eae", "rental_uris": {"android": "https://dc.lft.to/lastmile_qr_scan", "ios": "https://dc.lft.to/lastmile_qr_scan"}, "name": "29aa9f3592afe7ce1fe284db8d9b3eae", "is_reserved": 0}, {"is_disabled": 0, "fusion_lon": 0.0, "fusion_lat": 0.0, "lat": 38.89459683333333, "type": "electric_scooter", "lon": -77.02211, "bike_id": "b32f93b32695588e2020a68bb1ab059a", "rental_uris": {"android": "https://dc.lft.to/lastmile_qr_scan", "ios": "https://dc.lft.to/lastmile_qr_scan"}, "name": "b32f93b32695588e2020a68bb1ab059a", "is_reserved": 0}, {"is_disabled": 0, "fusion_lon": 0.0, "fusion_lat": 0.0, "lat": 38.95285766666667, "type": "electric_scooter", "lon": -77.06884083333334, "bike_id": "beebf322d12c5404f3cd95078a306c9a", "rental_uris": {"android": "https://dc.lft.to/lastmile_qr_scan", "ios": "https://dc.lft.to/lastmile_qr_scan"}, "name": "beebf322d12c5404f3cd95078a306c9a", "is_reserved": 0}, {"is_disabled": 0, "fusion_lon": 0.0, "fusion_lat": 0.0, "lat": 38.9114255, "type": "electric_scooter", "lon": -77.02189733333333, "bike_id": "fab6153dcae6ae8ea0afaf152993db09", "rental_uris": {"android": "https://dc.lft.to/lastmile_qr_scan", "ios": "https://dc.lft.to/lastmile_qr_scan"}, "name": "fab6153dcae6ae8ea0afaf152993db09", "is_reserved": 0}, {"is_disabled": 0, "fusion_lon": 0.0, "fusion_lat": 0.0, "lat": 38.917016, "type": "electric_scooter", "lon": -77.037393, "bike_id": "c9ff901b57dae63381cd4b6b766e4e17", "rental_uris": {"android": "https://dc.lft.to/lastmile_qr_scan", "ios": "https://dc.lft.to/lastmile_qr_scan"}, "name": "c9ff901b57dae63381cd4b6b766e4e17", "is_reserved": 0}, {"is_disabled": 0, "fusion_lon": 0.0, "fusion_lat": 0.0, "lat": 38.912683, "type": "electric_scooter", "lon": -77.03751466666667, "bike_id": "6a905ba1cef5d1488b9c9f0dae340aa8", "rental_uris": {"android": "https://dc.lft.to/lastmile_qr_scan", "ios": "https://dc.lft.to/lastmile_qr_scan"}, "name": "6a905ba1cef5d1488b9c9f0dae340aa8", "is_reserved": 0}, {"is_disabled": 0, "fusion_lon": 0.0, "fusion_lat": 0.0, "lat": 38.9093695, "type": "electric_scooter", "lon": -77.053646, "bike_id": "9ede8bee3205c544acbd453ad86d4b18", "rental_uris": {"android": "https://dc.lft.to/lastmile_qr_scan", "ios": "https://dc.lft.to/lastmile_qr_scan"}, "name": "9ede8bee3205c544acbd453ad86d4b18", "is_reserved": 0}, {"is_disabled": 0, "fusion_lon": 0.0, "fusion_lat": 0.0, "lat": 38.965673, "type": "electric_scooter", "lon": -77.0156885, "bike_id": "d2c2902ce42188ec7940bb91c6b9bb33", "rental_uris": {"android": "https://dc.lft.to/lastmile_qr_scan", "ios": "https://dc.lft.to/lastmile_qr_scan"}, "name": "d2c2902ce42188ec7940bb91c6b9bb33", "is_reserved": 0}, {"is_disabled": 0, "fusion_lon": 0.0, "fusion_lat": 0.0, "lat": 38.91730066666667, "type": "electric_scooter", "lon": -77.032098, "bike_id": "f1423d347cde3035fd1b69b73b060d8c", "rental_uris": {"android": "https://dc.lft.to/lastmile_qr_scan", "ios": "https://dc.lft.to/lastmile_qr_scan"}, "name": "f1423d347cde3035fd1b69b73b060d8c", "is_reserved": 0}, {"is_disabled": 0, "fusion_lon": 0.0, "fusion_lat": 0.0, "lat": 38.955540166666665, "type": "electric_bike", "lon": -76.93541633333334, "bike_id": "edbd1a4d2873c37c09b514d5fee7cef1", "rental_uris": {"android": "https://dc.lft.to/lastmile_qr_scan", "ios": "https://dc.lft.to/lastmile_qr_scan"}, "name": "edbd1a4d2873c37c09b514d5fee7cef1", "is_reserved": 0}, {"is_disabled": 0, "fusion_lon": 0.0, "fusion_lat": 0.0, "lat": 38.89850083333333, "type": "electric_scooter", "lon": -76.990306, "bike_id": "e224b6856716be98312c4811fa540d08", "rental_uris": {"android": "https://dc.lft.to/lastmile_qr_scan", "ios": "https://dc.lft.to/lastmile_qr_scan"}, "name": "e224b6856716be98312c4811fa540d08", "is_reserved": 0}, {"is_disabled": 0, "fusion_lon": 0.0, "fusion_lat": 0.0, "lat": 38.95175016666666, "type": "electric_scooter", "lon": -77.05652316666666, "bike_id": "834ef3220c460c9f21ffdf17132b70d0", "rental_uris": {"android": "https://dc.lft.to/lastmile_qr_scan", "ios": "https://dc.lft.to/lastmile_qr_scan"}, "name": "834ef3220c460c9f21ffdf17132b70d0", "is_reserved": 0}, {"is_disabled": 0, "fusion_lon": 0.0, "fusion_lat": 0.0, "lat": 38.882624666666665, "type": "electric_scooter", "lon": -76.98539916666667, "bike_id": "bf6022bc418bf1f8dd56e1b4165cc493", "rental_uris": {"android": "https://dc.lft.to/lastmile_qr_scan", "ios": "https://dc.lft.to/lastmile_qr_scan"}, "name": "bf6022bc418bf1f8dd56e1b4165cc493", "is_reserved": 0}, {"is_disabled": 0, "fusion_lon": 0.0, "fusion_lat": 0.0, "lat": 38.82870783333333, "type": "electric_bike", "lon": -77.11225, "bike_id": "31a9c7a06e89dd5a1fc22e6423ce19a0", "rental_uris": {"android": "https://dc.lft.to/lastmile_qr_scan", "ios": "https://dc.lft.to/lastmile_qr_scan"}, "name": "31a9c7a06e89dd5a1fc22e6423ce19a0", "is_reserved": 0}, {"is_disabled": 0, "fusion_lon": 0.0, "fusion_lat": 0.0, "lat": 38.86248033333333, "type": "electric_scooter", "lon": -76.99499566666667, "bike_id": "a52d784c1852a42c886bf1e8b2edd02f", "rental_uris": {"android": "https://dc.lft.to/lastmile_qr_scan", "ios": "https://dc.lft.to/lastmile_qr_scan"}, "name": "a52d784c1852a42c886bf1e8b2edd02f", "is_reserved": 0}, {"is_disabled": 0, "fusion_lon": 0.0, "fusion_lat": 0.0, "lat": 38.91811833333333, "type": "electric_scooter", "lon": -77.03261116666667, "bike_id": "a315b4aa48ed05d56bf5f459d847ee7e", "rental_uris": {"android": "https://dc.lft.to/lastmile_qr_scan", "ios": "https://dc.lft.to/lastmile_qr_scan"}, "name": "a315b4aa48ed05d56bf5f459d847ee7e", "is_reserved": 0}, {"is_disabled": 0, "fusion_lon": 0.0, "fusion_lat": 0.0, "lat": 38.903073, "type": "electric_scooter", "lon": -77.02517816666666, "bike_id": "bf7d7db6e05885016933e83d445758c1", "rental_uris": {"android": "https://dc.lft.to/lastmile_qr_scan", "ios": "https://dc.lft.to/lastmile_qr_scan"}, "name": "bf7d7db6e05885016933e83d445758c1", "is_reserved": 0}, {"is_disabled": 0, "fusion_lon": 0.0, "fusion_lat": 0.0, "lat": 38.9024165, "type": "electric_scooter", "lon": -77.0388975, "bike_id": "a2490b9a66acf9774e58d8d68e1cba3b", "rental_uris": {"android": "https://dc.lft.to/lastmile_qr_scan", "ios": "https://dc.lft.to/lastmile_qr_scan"}, "name": "a2490b9a66acf9774e58d8d68e1cba3b", "is_reserved": 0}, {"is_disabled": 0, "fusion_lon": 0.0, "fusion_lat": 0.0, "lat": 38.89736166666667, "type": "electric_scooter", "lon": -77.027333, "bike_id": "6d6a4cb9b6c6d295d386e7032293d87f", "rental_uris": {"android": "https://dc.lft.to/lastmile_qr_scan", "ios": "https://dc.lft.to/lastmile_qr_scan"}, "name": "6d6a4cb9b6c6d295d386e7032293d87f", "is_reserved": 0}, {"is_disabled": 0, "fusion_lon": 0.0, "fusion_lat": 0.0, "lat": 38.92611216666667, "type": "electric_scooter", "lon": -77.02161483333333, "bike_id": "81985d853ba26a1fb7366faf566455ae", "rental_uris": {"android": "https://dc.lft.to/lastmile_qr_scan", "ios": "https://dc.lft.to/lastmile_qr_scan"}, "name": "81985d853ba26a1fb7366faf566455ae", "is_reserved": 0}, {"is_disabled": 0, "fusion_lon": 0.0, "fusion_lat": 0.0, "lat": 38.9724795, "type": "electric_bike", "lon": -76.99274133333333, "bike_id": "aa64c0cfdca9b6ac70241902febdae51", "rental_uris": {"android": "https://dc.lft.to/lastmile_qr_scan", "ios": "https://dc.lft.to/lastmile_qr_scan"}, "name": "aa64c0cfdca9b6ac70241902febdae51", "is_reserved": 0}, {"is_disabled": 0, "fusion_lon": 0.0, "fusion_lat": 0.0, "lat": 38.91971133333333, "type": "electric_scooter", "lon": -76.97310316666666, "bike_id": "d4821092c2f0ede56520dd9fa315a47b", "rental_uris": {"android": "https://dc.lft.to/lastmile_qr_scan", "ios": "https://dc.lft.to/lastmile_qr_scan"}, "name": "d4821092c2f0ede56520dd9fa315a47b", "is_reserved": 0}, {"is_disabled": 0, "fusion_lon": 0.0, "fusion_lat": 0.0, "lat": 38.90543316666667, "type": "electric_scooter", "lon": -77.05808166666667, "bike_id": "e34c033c1498228c348a136a5d13140d", "rental_uris": {"android": "https://dc.lft.to/lastmile_qr_scan", "ios": "https://dc.lft.to/lastmile_qr_scan"}, "name": "e34c033c1498228c348a136a5d13140d", "is_reserved": 0}, {"is_disabled": 0, "fusion_lon": 0.0, "fusion_lat": 0.0, "lat": 38.9200765, "type": "electric_scooter", "lon": -77.031199, "bike_id": "a60b63c4bbe40b433755fc29b02900ca", "rental_uris": {"android": "https://dc.lft.to/lastmile_qr_scan", "ios": "https://dc.lft.to/lastmile_qr_scan"}, "name": "a60b63c4bbe40b433755fc29b02900ca", "is_reserved": 0}, {"is_disabled": 0, "fusion_lon": 0.0, "fusion_lat": 0.0, "lat": 38.893697, "type": "electric_scooter", "lon": -76.97814916666667, "bike_id": "d703bdbc44ff6ee13d7ed21e8dbec035", "rental_uris": {"android": "https://dc.lft.to/lastmile_qr_scan", "ios": "https://dc.lft.to/lastmile_qr_scan"}, "name": "d703bdbc44ff6ee13d7ed21e8dbec035", "is_reserved": 0}, {"is_disabled": 0, "fusion_lon": 0.0, "fusion_lat": 0.0, "lat": 38.895229, "type": "electric_scooter", "lon": -77.0020685, "bike_id": "21e20f34e8af7827885e550f02495034", "rental_uris": {"android": "https://dc.lft.to/lastmile_qr_scan", "ios": "https://dc.lft.to/lastmile_qr_scan"}, "name": "21e20f34e8af7827885e550f02495034", "is_reserved": 0}, {"is_disabled": 0, "fusion_lon": 0.0, "fusion_lat": 0.0, "lat": 38.89743633333333, "type": "electric_scooter", "lon": -77.02728683333333, "bike_id": "0c44596da89eb459488bda0a8df893b2", "rental_uris": {"android": "https://dc.lft.to/lastmile_qr_scan", "ios": "https://dc.lft.to/lastmile_qr_scan"}, "name": "0c44596da89eb459488bda0a8df893b2", "is_reserved": 0}, {"is_disabled": 0, "fusion_lon": 0.0, "fusion_lat": 0.0, "lat": 38.960252833333335, "type": "electric_bike", "lon": -76.92721683333333, "bike_id": "33e8c5d309d5c561890559f06887fd96", "rental_uris": {"android": "https://dc.lft.to/lastmile_qr_scan", "ios": "https://dc.lft.to/lastmile_qr_scan"}, "name": "33e8c5d309d5c561890559f06887fd96", "is_reserved": 0}, {"is_disabled": 0, "fusion_lon": 0.0, "fusion_lat": 0.0, "lat": 38.908461833333334, "type": "electric_scooter", "lon": -77.063415, "bike_id": "6075b236c7a3f537ce34d5f17efeef7a", "rental_uris": {"android": "https://dc.lft.to/lastmile_qr_scan", "ios": "https://dc.lft.to/lastmile_qr_scan"}, "name": "6075b236c7a3f537ce34d5f17efeef7a", "is_reserved": 0}, {"is_disabled": 0, "fusion_lon": 0.0, "fusion_lat": 0.0, "lat": 38.858656, "type": "electric_scooter", "lon": -76.99028, "bike_id": "3a90ed5bd1a8d6838708bb40b9c5102e", "rental_uris": {"android": "https://dc.lft.to/lastmile_qr_scan", "ios": "https://dc.lft.to/lastmile_qr_scan"}, "name": "3a90ed5bd1a8d6838708bb40b9c5102e", "is_reserved": 0}, {"is_disabled": 0, "fusion_lon": 0.0, "fusion_lat": 0.0, "lat": 38.91675383333333, "type": "electric_scooter", "lon": -77.034708, "bike_id": "b70c30bb4104c966ff76ee73ae055a7c", "rental_uris": {"android": "https://dc.lft.to/lastmile_qr_scan", "ios": "https://dc.lft.to/lastmile_qr_scan"}, "name": "b70c30bb4104c966ff76ee73ae055a7c", "is_reserved": 0}, {"is_disabled": 0, "fusion_lon": 0.0, "fusion_lat": 0.0, "lat": 38.91892516666667, "type": "electric_scooter", "lon": -77.0417785, "bike_id": "bfbdfc443ee17d97a08f9ea96dbefddd", "rental_uris": {"android": "https://dc.lft.to/lastmile_qr_scan", "ios": "https://dc.lft.to/lastmile_qr_scan"}, "name": "bfbdfc443ee17d97a08f9ea96dbefddd", "is_reserved": 0}, {"is_disabled": 0, "fusion_lon": 0.0, "fusion_lat": 0.0, "lat": 38.90947116666667, "type": "electric_scooter", "lon": -77.04726133333334, "bike_id": "f402c8764dd533eb864c5f2f433750b0", "rental_uris": {"android": "https://dc.lft.to/lastmile_qr_scan", "ios": "https://dc.lft.to/lastmile_qr_scan"}, "name": "f402c8764dd533eb864c5f2f433750b0", "is_reserved": 0}, {"is_disabled": 0, "fusion_lon": 0.0, "fusion_lat": 0.0, "lat": 38.9366945, "type": "electric_bike", "lon": -76.9520435, "bike_id": "b469adc35ae613e84cb691878fdeebce", "rental_uris": {"android": "https://dc.lft.to/lastmile_qr_scan", "ios": "https://dc.lft.to/lastmile_qr_scan"}, "name": "b469adc35ae613e84cb691878fdeebce", "is_reserved": 0}, {"is_disabled": 0, "fusion_lon": 0.0, "fusion_lat": 0.0, "lat": 38.953296333333334, "type": "electric_scooter", "lon": -77.06853166666667, "bike_id": "239043215e4f363d852d91e65d1a4f0a", "rental_uris": {"android": "https://dc.lft.to/lastmile_qr_scan", "ios": "https://dc.lft.to/lastmile_qr_scan"}, "name": "239043215e4f363d852d91e65d1a4f0a", "is_reserved": 0}, {"is_disabled": 0, "fusion_lon": 0.0, "fusion_lat": 0.0, "lat": 38.910300166666666, "type": "electric_scooter", "lon": -77.042507, "bike_id": "442aeeda37e0de6d1eadd88f045f1b17", "rental_uris": {"android": "https://dc.lft.to/lastmile_qr_scan", "ios": "https://dc.lft.to/lastmile_qr_scan"}, "name": "442aeeda37e0de6d1eadd88f045f1b17", "is_reserved": 0}, {"is_disabled": 0, "fusion_lon": 0.0, "fusion_lat": 0.0, "lat": 38.92576283333333, "type": "electric_scooter", "lon": -77.04017783333333, "bike_id": "f60f4460b308b9addabece0684e0b83a", "rental_uris": {"android": "https://dc.lft.to/lastmile_qr_scan", "ios": "https://dc.lft.to/lastmile_qr_scan"}, "name": "f60f4460b308b9addabece0684e0b83a", "is_reserved": 0}, {"is_disabled": 0, "fusion_lon": 0.0, "fusion_lat": 0.0, "lat": 38.905378, "type": "electric_scooter", "lon": -77.05705766666667, "bike_id": "c0842c680c064a0cf2ba6a531979bbc2", "rental_uris": {"android": "https://dc.lft.to/lastmile_qr_scan", "ios": "https://dc.lft.to/lastmile_qr_scan"}, "name": "c0842c680c064a0cf2ba6a531979bbc2", "is_reserved": 0}, {"is_disabled": 0, "fusion_lon": 0.0, "fusion_lat": 0.0, "lat": 38.8857895, "type": "electric_scooter", "lon": -76.919094, "bike_id": "c5c5824fdc8ff8f6c5f477741cc3ded2", "rental_uris": {"android": "https://dc.lft.to/lastmile_qr_scan", "ios": "https://dc.lft.to/lastmile_qr_scan"}, "name": "c5c5824fdc8ff8f6c5f477741cc3ded2", "is_reserved": 0}, {"is_disabled": 0, "fusion_lon": 0.0, "fusion_lat": 0.0, "lat": 39.038830833333336, "type": "electric_bike", "lon": -77.10907133333333, "bike_id": "019d19f3d06e7893e74db2378e9f416f", "rental_uris": {"android": "https://dc.lft.to/lastmile_qr_scan", "ios": "https://dc.lft.to/lastmile_qr_scan"}, "name": "019d19f3d06e7893e74db2378e9f416f", "is_reserved": 0}, {"is_disabled": 0, "fusion_lon": 0.0, "fusion_lat": 0.0, "lat": 38.89736216666667, "type": "electric_scooter", "lon": -77.0482125, "bike_id": "9b4c45fb5ebb153eda893613cd5f8322", "rental_uris": {"android": "https://dc.lft.to/lastmile_qr_scan", "ios": "https://dc.lft.to/lastmile_qr_scan"}, "name": "9b4c45fb5ebb153eda893613cd5f8322", "is_reserved": 0}, {"is_disabled": 0, "fusion_lon": 0.0, "fusion_lat": 0.0, "lat": 38.9093665, "type": "electric_scooter", "lon": -77.02377833333334, "bike_id": "16b35c4ab12eaefa25d59994c52bb29f", "rental_uris": {"android": "https://dc.lft.to/lastmile_qr_scan", "ios": "https://dc.lft.to/lastmile_qr_scan"}, "name": "16b35c4ab12eaefa25d59994c52bb29f", "is_reserved": 0}, {"is_disabled": 0, "fusion_lon": 0.0, "fusion_lat": 0.0, "lat": 38.87753083333333, "type": "electric_bike", "lon": -76.98001366666666, "bike_id": "065d3aff86d647e45b9da96fa52a0712", "rental_uris": {"android": "https://dc.lft.to/lastmile_qr_scan", "ios": "https://dc.lft.to/lastmile_qr_scan"}, "name": "065d3aff86d647e45b9da96fa52a0712", "is_reserved": 0}, {"is_disabled": 0, "fusion_lon": 0.0, "fusion_lat": 0.0, "lat": 38.90353966666667, "type": "electric_scooter", "lon": -77.05912316666667, "bike_id": "722b2de9310928be9c43a5eb314ccd31", "rental_uris": {"android": "https://dc.lft.to/lastmile_qr_scan", "ios": "https://dc.lft.to/lastmile_qr_scan"}, "name": "722b2de9310928be9c43a5eb314ccd31", "is_reserved": 0}, {"is_disabled": 0, "fusion_lon": 0.0, "fusion_lat": 0.0, "lat": 38.93478266666666, "type": "electric_scooter", "lon": -77.072667, "bike_id": "df57b301485099b211ae10a779c66bfc", "rental_uris": {"android": "https://dc.lft.to/lastmile_qr_scan", "ios": "https://dc.lft.to/lastmile_qr_scan"}, "name": "df57b301485099b211ae10a779c66bfc", "is_reserved": 0}, {"is_disabled": 0, "fusion_lon": 0.0, "fusion_lat": 0.0, "lat": 38.919743833333335, "type": "electric_scooter", "lon": -77.0412805, "bike_id": "19246426fe89a006d7ed9e9a09e8e9a0", "rental_uris": {"android": "https://dc.lft.to/lastmile_qr_scan", "ios": "https://dc.lft.to/lastmile_qr_scan"}, "name": "19246426fe89a006d7ed9e9a09e8e9a0", "is_reserved": 0}, {"is_disabled": 0, "fusion_lon": 0.0, "fusion_lat": 0.0, "lat": 38.93964, "type": "electric_bike", "lon": -77.3609505, "bike_id": "86220f9e7ea9d8a920308ebc4babd30f", "rental_uris": {"android": "https://dc.lft.to/lastmile_qr_scan", "ios": "https://dc.lft.to/lastmile_qr_scan"}, "name": "86220f9e7ea9d8a920308ebc4babd30f", "is_reserved": 0}, {"is_disabled": 0, "fusion_lon": 0.0, "fusion_lat": 0.0, "lat": 38.92281533333333, "type": "electric_scooter", "lon": -77.04467466666667, "bike_id": "d780d8d018ac6e2c2055619ac4ec0762", "rental_uris": {"android": "https://dc.lft.to/lastmile_qr_scan", "ios": "https://dc.lft.to/lastmile_qr_scan"}, "name": "d780d8d018ac6e2c2055619ac4ec0762", "is_reserved": 0}, {"is_disabled": 0, "fusion_lon": 0.0, "fusion_lat": 0.0, "lat": 38.87583433333333, "type": "electric_scooter", "lon": -77.0041475, "bike_id": "238b25ff66d213c2be78de7a7abcf072", "rental_uris": {"android": "https://dc.lft.to/lastmile_qr_scan", "ios": "https://dc.lft.to/lastmile_qr_scan"}, "name": "238b25ff66d213c2be78de7a7abcf072", "is_reserved": 0}, {"is_disabled": 0, "fusion_lon": 0.0, "fusion_lat": 0.0, "lat": 38.925541, "type": "electric_scooter", "lon": -77.03763366666666, "bike_id": "54e752353baf274dcd90211b00434d40", "rental_uris": {"android": "https://dc.lft.to/lastmile_qr_scan", "ios": "https://dc.lft.to/lastmile_qr_scan"}, "name": "54e752353baf274dcd90211b00434d40", "is_reserved": 0}, {"is_disabled": 0, "fusion_lon": 0.0, "fusion_lat": 0.0, "lat": 38.9261085, "type": "electric_scooter", "lon": -77.02159766666666, "bike_id": "fd662aed9987a0474d54ad6da9fd8973", "rental_uris": {"android": "https://dc.lft.to/lastmile_qr_scan", "ios": "https://dc.lft.to/lastmile_qr_scan"}, "name": "fd662aed9987a0474d54ad6da9fd8973", "is_reserved": 0}, {"is_disabled": 0, "fusion_lon": 0.0, "fusion_lat": 0.0, "lat": 38.895249, "type": "electric_scooter", "lon": -77.04848916666667, "bike_id": "44ef8c229810860187035439d47a286b", "rental_uris": {"android": "https://dc.lft.to/lastmile_qr_scan", "ios": "https://dc.lft.to/lastmile_qr_scan"}, "name": "44ef8c229810860187035439d47a286b", "is_reserved": 0}, {"is_disabled": 0, "fusion_lon": 0.0, "fusion_lat": 0.0, "lat": 38.924743666666664, "type": "electric_scooter", "lon": -77.07300033333334, "bike_id": "27662519b2510a967a9b9c79e627a309", "rental_uris": {"android": "https://dc.lft.to/lastmile_qr_scan", "ios": "https://dc.lft.to/lastmile_qr_scan"}, "name": "27662519b2510a967a9b9c79e627a309", "is_reserved": 0}, {"is_disabled": 0, "fusion_lon": 0.0, "fusion_lat": 0.0, "lat": 38.91603166666667, "type": "electric_scooter", "lon": -77.02391216666666, "bike_id": "1f8cae2035ab5d2f40365aaf21c89d3f", "rental_uris": {"android": "https://dc.lft.to/lastmile_qr_scan", "ios": "https://dc.lft.to/lastmile_qr_scan"}, "name": "1f8cae2035ab5d2f40365aaf21c89d3f", "is_reserved": 0}, {"is_disabled": 0, "fusion_lon": 0.0, "fusion_lat": 0.0, "lat": 38.924829333333335, "type": "electric_scooter", "lon": -77.03177466666666, "bike_id": "6bfe07fd734a4f9753d491908f743912", "rental_uris": {"android": "https://dc.lft.to/lastmile_qr_scan", "ios": "https://dc.lft.to/lastmile_qr_scan"}, "name": "6bfe07fd734a4f9753d491908f743912", "is_reserved": 0}, {"is_disabled": 0, "fusion_lon": 0.0, "fusion_lat": 0.0, "lat": 38.900141833333336, "type": "electric_scooter", "lon": -77.0338965, "bike_id": "c39a2a164edb10cf1e3bdaef0d367d76", "rental_uris": {"android": "https://dc.lft.to/lastmile_qr_scan", "ios": "https://dc.lft.to/lastmile_qr_scan"}, "name": "c39a2a164edb10cf1e3bdaef0d367d76", "is_reserved": 0}, {"is_disabled": 0, "fusion_lon": 0.0, "fusion_lat": 0.0, "lat": 38.9244175, "type": "electric_bike", "lon": -76.90758083333333, "bike_id": "c602c0a4fff15294d3257fd4c4bcfa69", "rental_uris": {"android": "https://dc.lft.to/lastmile_qr_scan", "ios": "https://dc.lft.to/lastmile_qr_scan"}, "name": "c602c0a4fff15294d3257fd4c4bcfa69", "is_reserved": 0}, {"is_disabled": 0, "fusion_lon": 0.0, "fusion_lat": 0.0, "lat": 38.88910966666667, "type": "electric_scooter", "lon": -76.980106, "bike_id": "29b4eb3ea2bf6f7694ca715c3179784c", "rental_uris": {"android": "https://dc.lft.to/lastmile_qr_scan", "ios": "https://dc.lft.to/lastmile_qr_scan"}, "name": "29b4eb3ea2bf6f7694ca715c3179784c", "is_reserved": 0}, {"is_disabled": 0, "fusion_lon": 0.0, "fusion_lat": 0.0, "lat": 38.909378, "type": "electric_scooter", "lon": -77.02814216666667, "bike_id": "823957dc0a1424c42ecde048f4db8386", "rental_uris": {"android": "https://dc.lft.to/lastmile_qr_scan", "ios": "https://dc.lft.to/lastmile_qr_scan"}, "name": "823957dc0a1424c42ecde048f4db8386", "is_reserved": 0}, {"is_disabled": 0, "fusion_lon": 0.0, "fusion_lat": 0.0, "lat": 38.9041895, "type": "electric_scooter", "lon": -77.068778, "bike_id": "de59fedef8b30601c14d0b5671a420e7", "rental_uris": {"android": "https://dc.lft.to/lastmile_qr_scan", "ios": "https://dc.lft.to/lastmile_qr_scan"}, "name": "de59fedef8b30601c14d0b5671a420e7", "is_reserved": 0}, {"is_disabled": 0, "fusion_lon": 0.0, "fusion_lat": 0.0, "lat": 38.9619275, "type": "electric_scooter", "lon": -77.02784666666666, "bike_id": "e64b395b08de6896874767f594344722", "rental_uris": {"android": "https://dc.lft.to/lastmile_qr_scan", "ios": "https://dc.lft.to/lastmile_qr_scan"}, "name": "e64b395b08de6896874767f594344722", "is_reserved": 0}, {"is_disabled": 0, "fusion_lon": 0.0, "fusion_lat": 0.0, "lat": 38.91568183333333, "type": "electric_scooter", "lon": -77.00205483333333, "bike_id": "dc6e72f310f9d91eea14fc62a2ab4ecb", "rental_uris": {"android": "https://dc.lft.to/lastmile_qr_scan", "ios": "https://dc.lft.to/lastmile_qr_scan"}, "name": "dc6e72f310f9d91eea14fc62a2ab4ecb", "is_reserved": 0}, {"is_disabled": 0, "fusion_lon": 0.0, "fusion_lat": 0.0, "lat": 38.9083375, "type": "electric_scooter", "lon": -77.001473, "bike_id": "89daaa6e201f9920e901ee7348aa6fce", "rental_uris": {"android": "https://dc.lft.to/lastmile_qr_scan", "ios": "https://dc.lft.to/lastmile_qr_scan"}, "name": "89daaa6e201f9920e901ee7348aa6fce", "is_reserved": 0}, {"is_disabled": 0, "fusion_lon": 0.0, "fusion_lat": 0.0, "lat": 38.905869833333334, "type": "electric_scooter", "lon": -77.06909916666666, "bike_id": "c5a34008c46c45aa37a7118794577d23", "rental_uris": {"android": "https://dc.lft.to/lastmile_qr_scan", "ios": "https://dc.lft.to/lastmile_qr_scan"}, "name": "c5a34008c46c45aa37a7118794577d23", "is_reserved": 0}, {"is_disabled": 0, "fusion_lon": 0.0, "fusion_lat": 0.0, "lat": 38.871938, "type": "electric_scooter", "lon": -76.97823066666666, "bike_id": "d968030a9a9d89cccf4e9b6fdd537235", "rental_uris": {"android": "https://dc.lft.to/lastmile_qr_scan", "ios": "https://dc.lft.to/lastmile_qr_scan"}, "name": "d968030a9a9d89cccf4e9b6fdd537235", "is_reserved": 0}, {"is_disabled": 0, "fusion_lon": 0.0, "fusion_lat": 0.0, "lat": 38.895702666666665, "type": "electric_scooter", "lon": -77.025626, "bike_id": "4f848e0bf0fb7cd94e374c844aa43c92", "rental_uris": {"android": "https://dc.lft.to/lastmile_qr_scan", "ios": "https://dc.lft.to/lastmile_qr_scan"}, "name": "4f848e0bf0fb7cd94e374c844aa43c92", "is_reserved": 0}, {"is_disabled": 0, "fusion_lon": 0.0, "fusion_lat": 0.0, "lat": 38.91564283333334, "type": "electric_scooter", "lon": -77.03187883333334, "bike_id": "609ab1b397d4cb790a149c3111bfcf9c", "rental_uris": {"android": "https://dc.lft.to/lastmile_qr_scan", "ios": "https://dc.lft.to/lastmile_qr_scan"}, "name": "609ab1b397d4cb790a149c3111bfcf9c", "is_reserved": 0}, {"is_disabled": 0, "fusion_lon": 0.0, "fusion_lat": 0.0, "lat": 38.918321166666665, "type": "electric_scooter", "lon": -77.0451495, "bike_id": "f28662b30271c8ef1eb77ebbe2a60acb", "rental_uris": {"android": "https://dc.lft.to/lastmile_qr_scan", "ios": "https://dc.lft.to/lastmile_qr_scan"}, "name": "f28662b30271c8ef1eb77ebbe2a60acb", "is_reserved": 0}, {"is_disabled": 0, "fusion_lon": 0.0, "fusion_lat": 0.0, "lat": 38.90227516666667, "type": "electric_scooter", "lon": -77.0457165, "bike_id": "f5c35a58ed479e81bcbf0ce15b90fdcf", "rental_uris": {"android": "https://dc.lft.to/lastmile_qr_scan", "ios": "https://dc.lft.to/lastmile_qr_scan"}, "name": "f5c35a58ed479e81bcbf0ce15b90fdcf", "is_reserved": 0}, {"is_disabled": 0, "fusion_lon": 0.0, "fusion_lat": 0.0, "lat": 38.935361666666665, "type": "electric_scooter", "lon": -77.02796, "bike_id": "c95c6ec1b1b22b5d01c7a4cd08a56288", "rental_uris": {"android": "https://dc.lft.to/lastmile_qr_scan", "ios": "https://dc.lft.to/lastmile_qr_scan"}, "name": "c95c6ec1b1b22b5d01c7a4cd08a56288", "is_reserved": 0}, {"is_disabled": 0, "fusion_lon": 0.0, "fusion_lat": 0.0, "lat": 38.94959583333333, "type": "electric_scooter", "lon": -77.07892883333334, "bike_id": "d87f07ce1c514dfcdb878aeb010c9676", "rental_uris": {"android": "https://dc.lft.to/lastmile_qr_scan", "ios": "https://dc.lft.to/lastmile_qr_scan"}, "name": "d87f07ce1c514dfcdb878aeb010c9676", "is_reserved": 0}, {"is_disabled": 0, "fusion_lon": 0.0, "fusion_lat": 0.0, "lat": 38.931550333333334, "type": "electric_scooter", "lon": -77.05602316666666, "bike_id": "38f884800afc9fa860f5ecfe2760f461", "rental_uris": {"android": "https://dc.lft.to/lastmile_qr_scan", "ios": "https://dc.lft.to/lastmile_qr_scan"}, "name": "38f884800afc9fa860f5ecfe2760f461", "is_reserved": 0}, {"is_disabled": 0, "fusion_lon": 0.0, "fusion_lat": 0.0, "lat": 38.9285265, "type": "electric_scooter", "lon": -77.01412683333334, "bike_id": "797327d5f09ff953c37f12c6b5d48aed", "rental_uris": {"android": "https://dc.lft.to/lastmile_qr_scan", "ios": "https://dc.lft.to/lastmile_qr_scan"}, "name": "797327d5f09ff953c37f12c6b5d48aed", "is_reserved": 0}, {"is_disabled": 0, "fusion_lon": 0.0, "fusion_lat": 0.0, "lat": 38.91984583333333, "type": "electric_scooter", "lon": -77.03259833333334, "bike_id": "a109f5cec559040280e5a896cdaf4a1d", "rental_uris": {"android": "https://dc.lft.to/lastmile_qr_scan", "ios": "https://dc.lft.to/lastmile_qr_scan"}, "name": "a109f5cec559040280e5a896cdaf4a1d", "is_reserved": 0}, {"is_disabled": 0, "fusion_lon": 0.0, "fusion_lat": 0.0, "lat": 38.900438, "type": "electric_scooter", "lon": -76.9227155, "bike_id": "eb537f9b25c795e7e32e3a9105976287", "rental_uris": {"android": "https://dc.lft.to/lastmile_qr_scan", "ios": "https://dc.lft.to/lastmile_qr_scan"}, "name": "eb537f9b25c795e7e32e3a9105976287", "is_reserved": 0}, {"is_disabled": 0, "fusion_lon": 0.0, "fusion_lat": 0.0, "lat": 38.8898865, "type": "electric_scooter", "lon": -77.00049166666666, "bike_id": "3b8dfba7588b3ad1bdc7ab8fe263f9de", "rental_uris": {"android": "https://dc.lft.to/lastmile_qr_scan", "ios": "https://dc.lft.to/lastmile_qr_scan"}, "name": "3b8dfba7588b3ad1bdc7ab8fe263f9de", "is_reserved": 0}, {"is_disabled": 0, "fusion_lon": 0.0, "fusion_lat": 0.0, "lat": 38.90985366666666, "type": "electric_scooter", "lon": -77.021836, "bike_id": "ee950f316f6717d6157072d5d5390154", "rental_uris": {"android": "https://dc.lft.to/lastmile_qr_scan", "ios": "https://dc.lft.to/lastmile_qr_scan"}, "name": "ee950f316f6717d6157072d5d5390154", "is_reserved": 0}, {"is_disabled": 0, "fusion_lon": 0.0, "fusion_lat": 0.0, "lat": 38.935175666666666, "type": "electric_scooter", "lon": -77.02388, "bike_id": "1ea52fe4db93502f547b6e9c17d11062", "rental_uris": {"android": "https://dc.lft.to/lastmile_qr_scan", "ios": "https://dc.lft.to/lastmile_qr_scan"}, "name": "1ea52fe4db93502f547b6e9c17d11062", "is_reserved": 0}, {"is_disabled": 0, "fusion_lon": 0.0, "fusion_lat": 0.0, "lat": 38.86247316666667, "type": "electric_scooter", "lon": -76.99499883333333, "bike_id": "917a37a770a29ef88348a3d6129966fe", "rental_uris": {"android": "https://dc.lft.to/lastmile_qr_scan", "ios": "https://dc.lft.to/lastmile_qr_scan"}, "name": "917a37a770a29ef88348a3d6129966fe", "is_reserved": 0}, {"is_disabled": 0, "fusion_lon": 0.0, "fusion_lat": 0.0, "lat": 38.89563733333333, "type": "electric_scooter", "lon": -77.0467, "bike_id": "3d87b346a0107cd489fbfd0d2ffc761f", "rental_uris": {"android": "https://dc.lft.to/lastmile_qr_scan", "ios": "https://dc.lft.to/lastmile_qr_scan"}, "name": "3d87b346a0107cd489fbfd0d2ffc761f", "is_reserved": 0}, {"is_disabled": 0, "fusion_lon": 0.0, "fusion_lat": 0.0, "lat": 38.9182675, "type": "electric_scooter", "lon": -77.02430066666666, "bike_id": "efbca449b428b2e619fd9edec06d432f", "rental_uris": {"android": "https://dc.lft.to/lastmile_qr_scan", "ios": "https://dc.lft.to/lastmile_qr_scan"}, "name": "efbca449b428b2e619fd9edec06d432f", "is_reserved": 0}, {"is_disabled": 0, "fusion_lon": 0.0, "fusion_lat": 0.0, "lat": 38.89372483333333, "type": "electric_scooter", "lon": -76.94998333333334, "bike_id": "3f1def4b759f31f0697bb4c6cff79001", "rental_uris": {"android": "https://dc.lft.to/lastmile_qr_scan", "ios": "https://dc.lft.to/lastmile_qr_scan"}, "name": "3f1def4b759f31f0697bb4c6cff79001", "is_reserved": 0}, {"is_disabled": 0, "fusion_lon": 0.0, "fusion_lat": 0.0, "lat": 38.8924915, "type": "electric_scooter", "lon": -77.02837416666667, "bike_id": "843d829485dd26088601d97ca8af1a7a", "rental_uris": {"android": "https://dc.lft.to/lastmile_qr_scan", "ios": "https://dc.lft.to/lastmile_qr_scan"}, "name": "843d829485dd26088601d97ca8af1a7a", "is_reserved": 0}, {"is_disabled": 0, "fusion_lon": 0.0, "fusion_lat": 0.0, "lat": 38.909888333333335, "type": "electric_scooter", "lon": -77.04274316666667, "bike_id": "cf7c03380c0c6ec27e9c3518d7e611dc", "rental_uris": {"android": "https://dc.lft.to/lastmile_qr_scan", "ios": "https://dc.lft.to/lastmile_qr_scan"}, "name": "cf7c03380c0c6ec27e9c3518d7e611dc", "is_reserved": 0}, {"is_disabled": 0, "fusion_lon": 0.0, "fusion_lat": 0.0, "lat": 38.92871916666667, "type": "electric_scooter", "lon": -77.0327815, "bike_id": "bdacd35369953713f1a88cec22925544", "rental_uris": {"android": "https://dc.lft.to/lastmile_qr_scan", "ios": "https://dc.lft.to/lastmile_qr_scan"}, "name": "bdacd35369953713f1a88cec22925544", "is_reserved": 0}, {"is_disabled": 0, "fusion_lon": 0.0, "fusion_lat": 0.0, "lat": 38.9052825, "type": "electric_scooter", "lon": -77.06787733333333, "bike_id": "2ff2ca5e1b533465e47445d0c2e8c18e", "rental_uris": {"android": "https://dc.lft.to/lastmile_qr_scan", "ios": "https://dc.lft.to/lastmile_qr_scan"}, "name": "2ff2ca5e1b533465e47445d0c2e8c18e", "is_reserved": 0}, {"is_disabled": 0, "fusion_lon": 0.0, "fusion_lat": 0.0, "lat": 38.893951666666666, "type": "electric_scooter", "lon": -76.94992833333333, "bike_id": "fb45517419f3ad7714f7d282c9a5d291", "rental_uris": {"android": "https://dc.lft.to/lastmile_qr_scan", "ios": "https://dc.lft.to/lastmile_qr_scan"}, "name": "fb45517419f3ad7714f7d282c9a5d291", "is_reserved": 0}, {"is_disabled": 0, "fusion_lon": 0.0, "fusion_lat": 0.0, "lat": 38.88314666666667, "type": "electric_scooter", "lon": -77.00578, "bike_id": "0578e110748241224838e5846836014b", "rental_uris": {"android": "https://dc.lft.to/lastmile_qr_scan", "ios": "https://dc.lft.to/lastmile_qr_scan"}, "name": "0578e110748241224838e5846836014b", "is_reserved": 0}, {"is_disabled": 0, "fusion_lon": 0.0, "fusion_lat": 0.0, "lat": 38.911902, "type": "electric_scooter", "lon": -77.03711333333334, "bike_id": "961f7df17b9489f2a856e48774eb4c0b", "rental_uris": {"android": "https://dc.lft.to/lastmile_qr_scan", "ios": "https://dc.lft.to/lastmile_qr_scan"}, "name": "961f7df17b9489f2a856e48774eb4c0b", "is_reserved": 0}, {"is_disabled": 0, "fusion_lon": 0.0, "fusion_lat": 0.0, "lat": 38.91799566666667, "type": "electric_scooter", "lon": -77.02713466666667, "bike_id": "fcd3e68a84b02c9854cca11c5e088b17", "rental_uris": {"android": "https://dc.lft.to/lastmile_qr_scan", "ios": "https://dc.lft.to/lastmile_qr_scan"}, "name": "fcd3e68a84b02c9854cca11c5e088b17", "is_reserved": 0}, {"is_disabled": 0, "fusion_lon": 0.0, "fusion_lat": 0.0, "lat": 38.91924866666667, "type": "electric_scooter", "lon": -77.03188583333333, "bike_id": "5e9c49825ff8a7e3416b07ab6b25432e", "rental_uris": {"android": "https://dc.lft.to/lastmile_qr_scan", "ios": "https://dc.lft.to/lastmile_qr_scan"}, "name": "5e9c49825ff8a7e3416b07ab6b25432e", "is_reserved": 0}, {"is_disabled": 0, "fusion_lon": 0.0, "fusion_lat": 0.0, "lat": 38.87897266666667, "type": "electric_scooter", "lon": -76.93523516666667, "bike_id": "d5f2b7b68f9cf08a93764ce8444d1eb0", "rental_uris": {"android": "https://dc.lft.to/lastmile_qr_scan", "ios": "https://dc.lft.to/lastmile_qr_scan"}, "name": "d5f2b7b68f9cf08a93764ce8444d1eb0", "is_reserved": 0}, {"is_disabled": 0, "fusion_lon": 0.0, "fusion_lat": 0.0, "lat": 38.904768, "type": "electric_scooter", "lon": -77.02607733333333, "bike_id": "fadac52c5023740314af29501f2a8a85", "rental_uris": {"android": "https://dc.lft.to/lastmile_qr_scan", "ios": "https://dc.lft.to/lastmile_qr_scan"}, "name": "fadac52c5023740314af29501f2a8a85", "is_reserved": 0}, {"is_disabled": 0, "fusion_lon": 0.0, "fusion_lat": 0.0, "lat": 38.88600183333333, "type": "electric_scooter", "lon": -76.99722266666667, "bike_id": "f7b6e7168a1431ef9e594929a141d674", "rental_uris": {"android": "https://dc.lft.to/lastmile_qr_scan", "ios": "https://dc.lft.to/lastmile_qr_scan"}, "name": "f7b6e7168a1431ef9e594929a141d674", "is_reserved": 0}, {"is_disabled": 0, "fusion_lon": 0.0, "fusion_lat": 0.0, "lat": 38.93035883333334, "type": "electric_scooter", "lon": -77.0296375, "bike_id": "961f13c09051bf5320d162f13139bce7", "rental_uris": {"android": "https://dc.lft.to/lastmile_qr_scan", "ios": "https://dc.lft.to/lastmile_qr_scan"}, "name": "961f13c09051bf5320d162f13139bce7", "is_reserved": 0}, {"is_disabled": 0, "fusion_lon": 0.0, "fusion_lat": 0.0, "lat": 38.8946745, "type": "electric_scooter", "lon": -77.02149516666667, "bike_id": "093901570ee3c84ea65495a5ba44af6f", "rental_uris": {"android": "https://dc.lft.to/lastmile_qr_scan", "ios": "https://dc.lft.to/lastmile_qr_scan"}, "name": "093901570ee3c84ea65495a5ba44af6f", "is_reserved": 0}, {"is_disabled": 0, "fusion_lon": 0.0, "fusion_lat": 0.0, "lat": 38.877387, "type": "electric_scooter", "lon": -77.017772, "bike_id": "7e0999f5148b9b707a190f02f99a0bed", "rental_uris": {"android": "https://dc.lft.to/lastmile_qr_scan", "ios": "https://dc.lft.to/lastmile_qr_scan"}, "name": "7e0999f5148b9b707a190f02f99a0bed", "is_reserved": 0}, {"is_disabled": 0, "fusion_lon": 0.0, "fusion_lat": 0.0, "lat": 38.94301016666667, "type": "electric_scooter", "lon": -77.025299, "bike_id": "9f239680a5dda334a0c7caab995fe83b", "rental_uris": {"android": "https://dc.lft.to/lastmile_qr_scan", "ios": "https://dc.lft.to/lastmile_qr_scan"}, "name": "9f239680a5dda334a0c7caab995fe83b", "is_reserved": 0}, {"is_disabled": 0, "fusion_lon": 0.0, "fusion_lat": 0.0, "lat": 38.902670666666666, "type": "electric_scooter", "lon": -77.034604, "bike_id": "6bd1847e0fe673f2a195e420b3cf6fdf", "rental_uris": {"android": "https://dc.lft.to/lastmile_qr_scan", "ios": "https://dc.lft.to/lastmile_qr_scan"}, "name": "6bd1847e0fe673f2a195e420b3cf6fdf", "is_reserved": 0}, {"is_disabled": 0, "fusion_lon": 0.0, "fusion_lat": 0.0, "lat": 38.9096545, "type": "electric_scooter", "lon": -77.04848433333333, "bike_id": "9cd2454548350b83b9e4eed8d9699667", "rental_uris": {"android": "https://dc.lft.to/lastmile_qr_scan", "ios": "https://dc.lft.to/lastmile_qr_scan"}, "name": "9cd2454548350b83b9e4eed8d9699667", "is_reserved": 0}, {"is_disabled": 0, "fusion_lon": 0.0, "fusion_lat": 0.0, "lat": 38.894727833333334, "type": "electric_scooter", "lon": -76.933045, "bike_id": "0466e6ef785f6d07c229281e70a59b59", "rental_uris": {"android": "https://dc.lft.to/lastmile_qr_scan", "ios": "https://dc.lft.to/lastmile_qr_scan"}, "name": "0466e6ef785f6d07c229281e70a59b59", "is_reserved": 0}, {"is_disabled": 0, "fusion_lon": 0.0, "fusion_lat": 0.0, "lat": 38.83934283333333, "type": "electric_bike", "lon": -77.07899733333333, "bike_id": "63d453dad51cef8ac3aed505d3802bc3", "rental_uris": {"android": "https://dc.lft.to/lastmile_qr_scan", "ios": "https://dc.lft.to/lastmile_qr_scan"}, "name": "63d453dad51cef8ac3aed505d3802bc3", "is_reserved": 0}, {"is_disabled": 0, "fusion_lon": 0.0, "fusion_lat": 0.0, "lat": 38.89742066666667, "type": "electric_scooter", "lon": -77.0100575, "bike_id": "dc481456ebed5daf8f9572f952d1968d", "rental_uris": {"android": "https://dc.lft.to/lastmile_qr_scan", "ios": "https://dc.lft.to/lastmile_qr_scan"}, "name": "dc481456ebed5daf8f9572f952d1968d", "is_reserved": 0}, {"is_disabled": 0, "fusion_lon": 0.0, "fusion_lat": 0.0, "lat": 38.899662, "type": "electric_scooter", "lon": -77.01609816666667, "bike_id": "8a4316b02468d2f7a9d6c95f06e0a5e1", "rental_uris": {"android": "https://dc.lft.to/lastmile_qr_scan", "ios": "https://dc.lft.to/lastmile_qr_scan"}, "name": "8a4316b02468d2f7a9d6c95f06e0a5e1", "is_reserved": 0}, {"is_disabled": 0, "fusion_lon": 0.0, "fusion_lat": 0.0, "lat": 38.81331316666667, "type": "electric_bike", "lon": -77.05083566666667, "bike_id": "45c250e75e9c7914453a9c9111cea8fe", "rental_uris": {"android": "https://dc.lft.to/lastmile_qr_scan", "ios": "https://dc.lft.to/lastmile_qr_scan"}, "name": "45c250e75e9c7914453a9c9111cea8fe", "is_reserved": 0}, {"is_disabled": 0, "fusion_lon": 0.0, "fusion_lat": 0.0, "lat": 38.97262216666667, "type": "electric_bike", "lon": -76.9916855, "bike_id": "bbc2cda6c6e6051503aa313d3c504a17", "rental_uris": {"android": "https://dc.lft.to/lastmile_qr_scan", "ios": "https://dc.lft.to/lastmile_qr_scan"}, "name": "bbc2cda6c6e6051503aa313d3c504a17", "is_reserved": 0}, {"is_disabled": 0, "fusion_lon": 0.0, "fusion_lat": 0.0, "lat": 38.89433066666667, "type": "electric_scooter", "lon": -77.01078533333333, "bike_id": "272e3adeda067f292b2bebbf494312b3", "rental_uris": {"android": "https://dc.lft.to/lastmile_qr_scan", "ios": "https://dc.lft.to/lastmile_qr_scan"}, "name": "272e3adeda067f292b2bebbf494312b3", "is_reserved": 0}, {"is_disabled": 0, "fusion_lon": 0.0, "fusion_lat": 0.0, "lat": 38.920282, "type": "electric_scooter", "lon": -77.01287966666666, "bike_id": "242451c437c80c33938cadaa1cae7eca", "rental_uris": {"android": "https://dc.lft.to/lastmile_qr_scan", "ios": "https://dc.lft.to/lastmile_qr_scan"}, "name": "242451c437c80c33938cadaa1cae7eca", "is_reserved": 0}, {"is_disabled": 0, "fusion_lon": 0.0, "fusion_lat": 0.0, "lat": 38.924139, "type": "electric_scooter", "lon": -77.04025316666667, "bike_id": "d6d11dba7d69d15b9dfb9bb52034359b", "rental_uris": {"android": "https://dc.lft.to/lastmile_qr_scan", "ios": "https://dc.lft.to/lastmile_qr_scan"}, "name": "d6d11dba7d69d15b9dfb9bb52034359b", "is_reserved": 0}, {"is_disabled": 0, "fusion_lon": 0.0, "fusion_lat": 0.0, "lat": 38.90014016666667, "type": "electric_scooter", "lon": -76.99965133333333, "bike_id": "5ce7eed0582000e47618f08992969bbc", "rental_uris": {"android": "https://dc.lft.to/lastmile_qr_scan", "ios": "https://dc.lft.to/lastmile_qr_scan"}, "name": "5ce7eed0582000e47618f08992969bbc", "is_reserved": 0}, {"is_disabled": 0, "fusion_lon": 0.0, "fusion_lat": 0.0, "lat": 38.9134065, "type": "electric_scooter", "lon": -77.04175416666666, "bike_id": "fde18e09315be3cc74a8a3202d82b251", "rental_uris": {"android": "https://dc.lft.to/lastmile_qr_scan", "ios": "https://dc.lft.to/lastmile_qr_scan"}, "name": "fde18e09315be3cc74a8a3202d82b251", "is_reserved": 0}, {"is_disabled": 0, "fusion_lon": 0.0, "fusion_lat": 0.0, "lat": 38.946333, "type": "electric_scooter", "lon": -77.01933133333333, "bike_id": "2cd53ec29b2521b93e4652a5f3ff1118", "rental_uris": {"android": "https://dc.lft.to/lastmile_qr_scan", "ios": "https://dc.lft.to/lastmile_qr_scan"}, "name": "2cd53ec29b2521b93e4652a5f3ff1118", "is_reserved": 0}, {"is_disabled": 0, "fusion_lon": 0.0, "fusion_lat": 0.0, "lat": 38.92755316666667, "type": "electric_scooter", "lon": -77.0059445, "bike_id": "8e0c1e605f0136ecf6452ce603971455", "rental_uris": {"android": "https://dc.lft.to/lastmile_qr_scan", "ios": "https://dc.lft.to/lastmile_qr_scan"}, "name": "8e0c1e605f0136ecf6452ce603971455", "is_reserved": 0}, {"is_disabled": 0, "fusion_lon": 0.0, "fusion_lat": 0.0, "lat": 38.907675833333336, "type": "electric_scooter", "lon": -77.06288083333334, "bike_id": "850a85f493cf9bb12912df0d1c88cbc7", "rental_uris": {"android": "https://dc.lft.to/lastmile_qr_scan", "ios": "https://dc.lft.to/lastmile_qr_scan"}, "name": "850a85f493cf9bb12912df0d1c88cbc7", "is_reserved": 0}, {"is_disabled": 0, "fusion_lon": 0.0, "fusion_lat": 0.0, "lat": 38.9260335, "type": "electric_scooter", "lon": -77.0235125, "bike_id": "683b9ea0ffbef9a98f2b34d155359272", "rental_uris": {"android": "https://dc.lft.to/lastmile_qr_scan", "ios": "https://dc.lft.to/lastmile_qr_scan"}, "name": "683b9ea0ffbef9a98f2b34d155359272", "is_reserved": 0}, {"is_disabled": 0, "fusion_lon": 0.0, "fusion_lat": 0.0, "lat": 38.852107833333335, "type": "electric_bike", "lon": -77.10128516666667, "bike_id": "29232984c21677bcec81cf93b7b9edaa", "rental_uris": {"android": "https://dc.lft.to/lastmile_qr_scan", "ios": "https://dc.lft.to/lastmile_qr_scan"}, "name": "29232984c21677bcec81cf93b7b9edaa", "is_reserved": 0}, {"is_disabled": 0, "fusion_lon": 0.0, "fusion_lat": 0.0, "lat": 38.896054666666664, "type": "electric_scooter", "lon": -77.00914933333334, "bike_id": "d8bc6c91ba05cbd188ead6c196e10964", "rental_uris": {"android": "https://dc.lft.to/lastmile_qr_scan", "ios": "https://dc.lft.to/lastmile_qr_scan"}, "name": "d8bc6c91ba05cbd188ead6c196e10964", "is_reserved": 0}, {"is_disabled": 0, "fusion_lon": 0.0, "fusion_lat": 0.0, "lat": 38.9254255, "type": "electric_bike", "lon": -77.03219466666667, "bike_id": "dfb1036c2339750e42f2bcb1f4f9978c", "rental_uris": {"android": "https://dc.lft.to/lastmile_qr_scan", "ios": "https://dc.lft.to/lastmile_qr_scan"}, "name": "dfb1036c2339750e42f2bcb1f4f9978c", "is_reserved": 0}, {"is_disabled": 0, "fusion_lon": 0.0, "fusion_lat": 0.0, "lat": 38.9094145, "type": "electric_scooter", "lon": -77.02382716666666, "bike_id": "f76b8dc8d6e73ee07fff14b4afd4bc15", "rental_uris": {"android": "https://dc.lft.to/lastmile_qr_scan", "ios": "https://dc.lft.to/lastmile_qr_scan"}, "name": "f76b8dc8d6e73ee07fff14b4afd4bc15", "is_reserved": 0}, {"is_disabled": 0, "fusion_lon": 0.0, "fusion_lat": 0.0, "lat": 38.900602, "type": "electric_scooter", "lon": -76.93472983333334, "bike_id": "2e4ffa6aed417e2ad88d179faf15a668", "rental_uris": {"android": "https://dc.lft.to/lastmile_qr_scan", "ios": "https://dc.lft.to/lastmile_qr_scan"}, "name": "2e4ffa6aed417e2ad88d179faf15a668", "is_reserved": 0}, {"is_disabled": 0, "fusion_lon": 0.0, "fusion_lat": 0.0, "lat": 38.88583533333333, "type": "electric_scooter", "lon": -77.03107783333333, "bike_id": "bba009f8cdcf417ddc1e2b6623776be6", "rental_uris": {"android": "https://dc.lft.to/lastmile_qr_scan", "ios": "https://dc.lft.to/lastmile_qr_scan"}, "name": "bba009f8cdcf417ddc1e2b6623776be6", "is_reserved": 0}, {"is_disabled": 0, "fusion_lon": 0.0, "fusion_lat": 0.0, "lat": 38.906948666666665, "type": "electric_bike", "lon": -76.95191466666667, "bike_id": "0b03df1a7fe7cd76c939148518eadf66", "rental_uris": {"android": "https://dc.lft.to/lastmile_qr_scan", "ios": "https://dc.lft.to/lastmile_qr_scan"}, "name": "0b03df1a7fe7cd76c939148518eadf66", "is_reserved": 0}, {"is_disabled": 0, "fusion_lon": 0.0, "fusion_lat": 0.0, "lat": 38.92261583333333, "type": "electric_scooter", "lon": -77.04146533333333, "bike_id": "5d607fbfa52bfd970d4386891dfe3a14", "rental_uris": {"android": "https://dc.lft.to/lastmile_qr_scan", "ios": "https://dc.lft.to/lastmile_qr_scan"}, "name": "5d607fbfa52bfd970d4386891dfe3a14", "is_reserved": 0}, {"is_disabled": 0, "fusion_lon": 0.0, "fusion_lat": 0.0, "lat": 38.93031216666667, "type": "electric_scooter", "lon": -77.01945633333334, "bike_id": "98dfc3d93c0a835d75febb2c24248954", "rental_uris": {"android": "https://dc.lft.to/lastmile_qr_scan", "ios": "https://dc.lft.to/lastmile_qr_scan"}, "name": "98dfc3d93c0a835d75febb2c24248954", "is_reserved": 0}, {"is_disabled": 0, "fusion_lon": 0.0, "fusion_lat": 0.0, "lat": 38.91010083333333, "type": "electric_scooter", "lon": -77.04365083333333, "bike_id": "e26c91889462c440d20c0cf98ed026a8", "rental_uris": {"android": "https://dc.lft.to/lastmile_qr_scan", "ios": "https://dc.lft.to/lastmile_qr_scan"}, "name": "e26c91889462c440d20c0cf98ed026a8", "is_reserved": 0}, {"is_disabled": 0, "fusion_lon": 0.0, "fusion_lat": 0.0, "lat": 38.910367666666666, "type": "electric_scooter", "lon": -77.030903, "bike_id": "3f2c13d521d400453aa679e4f126ed3e", "rental_uris": {"android": "https://dc.lft.to/lastmile_qr_scan", "ios": "https://dc.lft.to/lastmile_qr_scan"}, "name": "3f2c13d521d400453aa679e4f126ed3e", "is_reserved": 0}, {"is_disabled": 0, "fusion_lon": 0.0, "fusion_lat": 0.0, "lat": 38.90583783333334, "type": "electric_scooter", "lon": -77.05809, "bike_id": "74d2d2f7690d3d5325d798d9c6e472e7", "rental_uris": {"android": "https://dc.lft.to/lastmile_qr_scan", "ios": "https://dc.lft.to/lastmile_qr_scan"}, "name": "74d2d2f7690d3d5325d798d9c6e472e7", "is_reserved": 0}, {"is_disabled": 0, "fusion_lon": 0.0, "fusion_lat": 0.0, "lat": 38.917785333333335, "type": "electric_scooter", "lon": -77.02350733333333, "bike_id": "d9d7abaffa83a508760cb307926ed343", "rental_uris": {"android": "https://dc.lft.to/lastmile_qr_scan", "ios": "https://dc.lft.to/lastmile_qr_scan"}, "name": "d9d7abaffa83a508760cb307926ed343", "is_reserved": 0}, {"is_disabled": 0, "fusion_lon": 0.0, "fusion_lat": 0.0, "lat": 38.93640833333333, "type": "electric_scooter", "lon": -77.02082966666667, "bike_id": "8d9f0636dab0b4468cb1315ae1e1446a", "rental_uris": {"android": "https://dc.lft.to/lastmile_qr_scan", "ios": "https://dc.lft.to/lastmile_qr_scan"}, "name": "8d9f0636dab0b4468cb1315ae1e1446a", "is_reserved": 0}, {"is_disabled": 0, "fusion_lon": 0.0, "fusion_lat": 0.0, "lat": 38.92963533333333, "type": "electric_scooter", "lon": -77.05501833333334, "bike_id": "ca3a0025ee0ee627f435b8a39a6c21a6", "rental_uris": {"android": "https://dc.lft.to/lastmile_qr_scan", "ios": "https://dc.lft.to/lastmile_qr_scan"}, "name": "ca3a0025ee0ee627f435b8a39a6c21a6", "is_reserved": 0}, {"is_disabled": 0, "fusion_lon": 0.0, "fusion_lat": 0.0, "lat": 38.863372166666664, "type": "electric_bike", "lon": -76.9871315, "bike_id": "e073bfc1d3ecdc0f8a2dbec1ffb83d2d", "rental_uris": {"android": "https://dc.lft.to/lastmile_qr_scan", "ios": "https://dc.lft.to/lastmile_qr_scan"}, "name": "e073bfc1d3ecdc0f8a2dbec1ffb83d2d", "is_reserved": 0}, {"is_disabled": 0, "fusion_lon": 0.0, "fusion_lat": 0.0, "lat": 38.874745833333336, "type": "electric_scooter", "lon": -77.02093383333333, "bike_id": "dd0059ac3e6300bea1a19ab9513cd10c", "rental_uris": {"android": "https://dc.lft.to/lastmile_qr_scan", "ios": "https://dc.lft.to/lastmile_qr_scan"}, "name": "dd0059ac3e6300bea1a19ab9513cd10c", "is_reserved": 0}, {"is_disabled": 0, "fusion_lon": 0.0, "fusion_lat": 0.0, "lat": 38.9027565, "type": "electric_scooter", "lon": -77.0216925, "bike_id": "eeb1b5663d5d8cc68cb5afeaef8e7168", "rental_uris": {"android": "https://dc.lft.to/lastmile_qr_scan", "ios": "https://dc.lft.to/lastmile_qr_scan"}, "name": "eeb1b5663d5d8cc68cb5afeaef8e7168", "is_reserved": 0}, {"is_disabled": 0, "fusion_lon": 0.0, "fusion_lat": 0.0, "lat": 38.8874195, "type": "electric_scooter", "lon": -77.01738733333333, "bike_id": "9d5923338f9a2e5910d45f4ec7e3fc6d", "rental_uris": {"android": "https://dc.lft.to/lastmile_qr_scan", "ios": "https://dc.lft.to/lastmile_qr_scan"}, "name": "9d5923338f9a2e5910d45f4ec7e3fc6d", "is_reserved": 0}, {"is_disabled": 0, "fusion_lon": 0.0, "fusion_lat": 0.0, "lat": 38.92112983333333, "type": "electric_scooter", "lon": -77.03180916666666, "bike_id": "0524eb949bea66691e413f41b087e290", "rental_uris": {"android": "https://dc.lft.to/lastmile_qr_scan", "ios": "https://dc.lft.to/lastmile_qr_scan"}, "name": "0524eb949bea66691e413f41b087e290", "is_reserved": 0}, {"is_disabled": 0, "fusion_lon": 0.0, "fusion_lat": 0.0, "lat": 38.9220395, "type": "electric_scooter", "lon": -77.04239883333334, "bike_id": "75bd3459123049893c5aa52ff2dd9b4d", "rental_uris": {"android": "https://dc.lft.to/lastmile_qr_scan", "ios": "https://dc.lft.to/lastmile_qr_scan"}, "name": "75bd3459123049893c5aa52ff2dd9b4d", "is_reserved": 0}, {"is_disabled": 0, "fusion_lon": 0.0, "fusion_lat": 0.0, "lat": 38.9072785, "type": "electric_scooter", "lon": -77.022511, "bike_id": "e413b9588f5b09b2abf43b8564dd2fb0", "rental_uris": {"android": "https://dc.lft.to/lastmile_qr_scan", "ios": "https://dc.lft.to/lastmile_qr_scan"}, "name": "e413b9588f5b09b2abf43b8564dd2fb0", "is_reserved": 0}, {"is_disabled": 0, "fusion_lon": 0.0, "fusion_lat": 0.0, "lat": 38.903656, "type": "electric_scooter", "lon": -77.0592645, "bike_id": "e6cf7840bed52a8adadcdf70e6624212", "rental_uris": {"android": "https://dc.lft.to/lastmile_qr_scan", "ios": "https://dc.lft.to/lastmile_qr_scan"}, "name": "e6cf7840bed52a8adadcdf70e6624212", "is_reserved": 0}, {"is_disabled": 0, "fusion_lon": 0.0, "fusion_lat": 0.0, "lat": 38.91712283333333, "type": "electric_scooter", "lon": -77.02791033333334, "bike_id": "0759e9541f40bdf9de2d6540371b71f0", "rental_uris": {"android": "https://dc.lft.to/lastmile_qr_scan", "ios": "https://dc.lft.to/lastmile_qr_scan"}, "name": "0759e9541f40bdf9de2d6540371b71f0", "is_reserved": 0}, {"is_disabled": 0, "fusion_lon": 0.0, "fusion_lat": 0.0, "lat": 38.95182716666667, "type": "electric_scooter", "lon": -77.02767533333333, "bike_id": "0f533532f8ee9a21e1d260487ab27356", "rental_uris": {"android": "https://dc.lft.to/lastmile_qr_scan", "ios": "https://dc.lft.to/lastmile_qr_scan"}, "name": "0f533532f8ee9a21e1d260487ab27356", "is_reserved": 0}, {"is_disabled": 0, "fusion_lon": 0.0, "fusion_lat": 0.0, "lat": 38.91934216666667, "type": "electric_bike", "lon": -76.97504616666667, "bike_id": "a7225eb45c23cb084bda938fc2fe6350", "rental_uris": {"android": "https://dc.lft.to/lastmile_qr_scan", "ios": "https://dc.lft.to/lastmile_qr_scan"}, "name": "a7225eb45c23cb084bda938fc2fe6350", "is_reserved": 0}, {"is_disabled": 0, "fusion_lon": 0.0, "fusion_lat": 0.0, "lat": 38.923386, "type": "electric_scooter", "lon": -77.04191866666666, "bike_id": "8ea544ad22bbbbbeb1608534715eb53b", "rental_uris": {"android": "https://dc.lft.to/lastmile_qr_scan", "ios": "https://dc.lft.to/lastmile_qr_scan"}, "name": "8ea544ad22bbbbbeb1608534715eb53b", "is_reserved": 0}, {"is_disabled": 0, "fusion_lon": 0.0, "fusion_lat": 0.0, "lat": 38.918251, "type": "electric_scooter", "lon": -77.0319745, "bike_id": "21283ecc7fa4b9c938d251167f5a9472", "rental_uris": {"android": "https://dc.lft.to/lastmile_qr_scan", "ios": "https://dc.lft.to/lastmile_qr_scan"}, "name": "21283ecc7fa4b9c938d251167f5a9472", "is_reserved": 0}, {"is_disabled": 0, "fusion_lon": 0.0, "fusion_lat": 0.0, "lat": 38.869609, "type": "electric_scooter", "lon": -76.96026433333333, "bike_id": "2c49edb88a65e3772a0c46fedd615f5b", "rental_uris": {"android": "https://dc.lft.to/lastmile_qr_scan", "ios": "https://dc.lft.to/lastmile_qr_scan"}, "name": "2c49edb88a65e3772a0c46fedd615f5b", "is_reserved": 0}, {"is_disabled": 0, "fusion_lon": 0.0, "fusion_lat": 0.0, "lat": 38.918991166666665, "type": "electric_scooter", "lon": -77.071173, "bike_id": "e9b3b40faa09a940b8d2b594e3d716ce", "rental_uris": {"android": "https://dc.lft.to/lastmile_qr_scan", "ios": "https://dc.lft.to/lastmile_qr_scan"}, "name": "e9b3b40faa09a940b8d2b594e3d716ce", "is_reserved": 0}, {"is_disabled": 0, "fusion_lon": 0.0, "fusion_lat": 0.0, "lat": 38.918199333333334, "type": "electric_scooter", "lon": -77.02716233333334, "bike_id": "b6733e84a6d7810d0f2f4f7cea280d7f", "rental_uris": {"android": "https://dc.lft.to/lastmile_qr_scan", "ios": "https://dc.lft.to/lastmile_qr_scan"}, "name": "b6733e84a6d7810d0f2f4f7cea280d7f", "is_reserved": 0}, {"is_disabled": 0, "fusion_lon": 0.0, "fusion_lat": 0.0, "lat": 38.93433566666667, "type": "electric_scooter", "lon": -77.07239933333334, "bike_id": "e4bbb8c84a94388876a8957045ed24f0", "rental_uris": {"android": "https://dc.lft.to/lastmile_qr_scan", "ios": "https://dc.lft.to/lastmile_qr_scan"}, "name": "e4bbb8c84a94388876a8957045ed24f0", "is_reserved": 0}, {"is_disabled": 0, "fusion_lon": 0.0, "fusion_lat": 0.0, "lat": 38.8966395, "type": "electric_scooter", "lon": -76.98247583333334, "bike_id": "b50eac79931d0f2920c0eb59e8def50a", "rental_uris": {"android": "https://dc.lft.to/lastmile_qr_scan", "ios": "https://dc.lft.to/lastmile_qr_scan"}, "name": "b50eac79931d0f2920c0eb59e8def50a", "is_reserved": 0}, {"is_disabled": 0, "fusion_lon": 0.0, "fusion_lat": 0.0, "lat": 38.91562716666667, "type": "electric_scooter", "lon": -77.03245783333334, "bike_id": "6239e51fdd3685ac21c8098fac3a7199", "rental_uris": {"android": "https://dc.lft.to/lastmile_qr_scan", "ios": "https://dc.lft.to/lastmile_qr_scan"}, "name": "6239e51fdd3685ac21c8098fac3a7199", "is_reserved": 0}, {"is_disabled": 0, "fusion_lon": 0.0, "fusion_lat": 0.0, "lat": 38.92830083333333, "type": "electric_scooter", "lon": -77.0544095, "bike_id": "6760c2a7b161859d0ddc48543ad1fbf5", "rental_uris": {"android": "https://dc.lft.to/lastmile_qr_scan", "ios": "https://dc.lft.to/lastmile_qr_scan"}, "name": "6760c2a7b161859d0ddc48543ad1fbf5", "is_reserved": 0}, {"is_disabled": 0, "fusion_lon": 0.0, "fusion_lat": 0.0, "lat": 38.9429975, "type": "electric_scooter", "lon": -77.027662, "bike_id": "67b9519e5aa66d681208e1234a7ad7be", "rental_uris": {"android": "https://dc.lft.to/lastmile_qr_scan", "ios": "https://dc.lft.to/lastmile_qr_scan"}, "name": "67b9519e5aa66d681208e1234a7ad7be", "is_reserved": 0}, {"is_disabled": 0, "fusion_lon": 0.0, "fusion_lat": 0.0, "lat": 38.920705833333336, "type": "electric_scooter", "lon": -77.04379533333334, "bike_id": "d1e1a669eff09d032c7f62f26ee5babc", "rental_uris": {"android": "https://dc.lft.to/lastmile_qr_scan", "ios": "https://dc.lft.to/lastmile_qr_scan"}, "name": "d1e1a669eff09d032c7f62f26ee5babc", "is_reserved": 0}, {"is_disabled": 0, "fusion_lon": 0.0, "fusion_lat": 0.0, "lat": 38.908456666666666, "type": "electric_scooter", "lon": -77.02054383333333, "bike_id": "01c26d7c30e572eae52d002853bed79c", "rental_uris": {"android": "https://dc.lft.to/lastmile_qr_scan", "ios": "https://dc.lft.to/lastmile_qr_scan"}, "name": "01c26d7c30e572eae52d002853bed79c", "is_reserved": 0}, {"is_disabled": 0, "fusion_lon": 0.0, "fusion_lat": 0.0, "lat": 38.87658583333333, "type": "electric_scooter", "lon": -77.00338683333334, "bike_id": "4f2b90465641e240b0c16e8913a322c5", "rental_uris": {"android": "https://dc.lft.to/lastmile_qr_scan", "ios": "https://dc.lft.to/lastmile_qr_scan"}, "name": "4f2b90465641e240b0c16e8913a322c5", "is_reserved": 0}, {"is_disabled": 0, "fusion_lon": 0.0, "fusion_lat": 0.0, "lat": 38.89744966666667, "type": "electric_scooter", "lon": -77.00984966666667, "bike_id": "d81698b5bb7b10f2241cd2cbbe285491", "rental_uris": {"android": "https://dc.lft.to/lastmile_qr_scan", "ios": "https://dc.lft.to/lastmile_qr_scan"}, "name": "d81698b5bb7b10f2241cd2cbbe285491", "is_reserved": 0}, {"is_disabled": 0, "fusion_lon": 0.0, "fusion_lat": 0.0, "lat": 38.880919, "type": "electric_bike", "lon": -76.9675665, "bike_id": "78f7f28f9bb1fc295bc39b147545ce64", "rental_uris": {"android": "https://dc.lft.to/lastmile_qr_scan", "ios": "https://dc.lft.to/lastmile_qr_scan"}, "name": "78f7f28f9bb1fc295bc39b147545ce64", "is_reserved": 0}, {"is_disabled": 0, "fusion_lon": 0.0, "fusion_lat": 0.0, "lat": 38.9222655, "type": "electric_scooter", "lon": -77.03437866666667, "bike_id": "6dad4bee193b3b28a9a4eb9631e07a6b", "rental_uris": {"android": "https://dc.lft.to/lastmile_qr_scan", "ios": "https://dc.lft.to/lastmile_qr_scan"}, "name": "6dad4bee193b3b28a9a4eb9631e07a6b", "is_reserved": 0}, {"is_disabled": 0, "fusion_lon": 0.0, "fusion_lat": 0.0, "lat": 38.93961133333333, "type": "electric_scooter", "lon": -77.032782, "bike_id": "1fea5b8db25fd26834e2775ae4aa14e8", "rental_uris": {"android": "https://dc.lft.to/lastmile_qr_scan", "ios": "https://dc.lft.to/lastmile_qr_scan"}, "name": "1fea5b8db25fd26834e2775ae4aa14e8", "is_reserved": 0}, {"is_disabled": 0, "fusion_lon": 0.0, "fusion_lat": 0.0, "lat": 38.90391366666667, "type": "electric_scooter", "lon": -76.99006083333333, "bike_id": "e4f951f389182c3d049fe1cff0dabead", "rental_uris": {"android": "https://dc.lft.to/lastmile_qr_scan", "ios": "https://dc.lft.to/lastmile_qr_scan"}, "name": "e4f951f389182c3d049fe1cff0dabead", "is_reserved": 0}, {"is_disabled": 0, "fusion_lon": 0.0, "fusion_lat": 0.0, "lat": 38.942213, "type": "electric_scooter", "lon": -77.02498416666667, "bike_id": "a8ffd4ca89539fa76786242c1f2be3b0", "rental_uris": {"android": "https://dc.lft.to/lastmile_qr_scan", "ios": "https://dc.lft.to/lastmile_qr_scan"},