{"data": {"bikes": [{"rental_uris": {"ios": "https://dc.lft.to/lastmile_qr_scan", "android": "https://dc.lft.to/lastmile_qr_scan"}, "lon": -77.02154083333333, "type": "electric_scooter", "fusion_lat": 0.0, "lat": 38.9260715, "name": "03d171f1c6e402b4c50dad3a98978060", "fusion_lon": 0.0, "bike_id": "03d171f1c6e402b4c50dad3a98978060", "is_disabled": 0, "is_reserved": 0}, {"rental_uris": {"ios": "https://dc.lft.to/lastmile_qr_scan", "android": "https://dc.lft.to/lastmile_qr_scan"}, "lon": -77.01884083333333, "type": "electric_scooter", "fusion_lat": 0.0, "lat": 38.9119765, "name": "5470865e76930bc3a5f709769022cf77", "fusion_lon": 0.0, "bike_id": "5470865e76930bc3a5f709769022cf77", "is_disabled": 0, "is_reserved": 0}, {"rental_uris": {"ios": "https://dc.lft.to/lastmile_qr_scan", "android": "https://dc.lft.to/lastmile_qr_scan"}, "lon": -77.03343533333333, "type": "electric_scooter", "fusion_lat": 0.0, "lat": 38.917102166666666, "name": "b73639efb29421f4e1d2702c54e9804e", "fusion_lon": 0.0, "bike_id": "b73639efb29421f4e1d2702c54e9804e", "is_disabled": 0, "is_reserved": 0}, {"rental_uris": {"ios": "https://dc.lft.to/lastmile_qr_scan", "android": "https://dc.lft.to/lastmile_qr_scan"}, "lon": -77.012921, "type": "electric_bike", "fusion_lat": 0.0, "lat": 38.881272, "name": "d782cf1c97727ac4811211e9126afa51", "fusion_lon": 0.0, "bike_id": "d782cf1c97727ac4811211e9126afa51", "is_disabled": 0, "is_reserved": 0}, {"rental_uris": {"ios": "https://dc.lft.to/lastmile_qr_scan", "android": "https://dc.lft.to/lastmile_qr_scan"}, "lon": -77.0320315, "type": "electric_scooter", "fusion_lat": 0.0, "lat": 38.907910333333334, "name": "17882b3880d0fa1ba7771008758e1abf", "fusion_lon": 0.0, "bike_id": "17882b3880d0fa1ba7771008758e1abf", "is_disabled": 0, "is_reserved": 0}, {"rental_uris": {"ios": "https://dc.lft.to/lastmile_qr_scan", "android": "https://dc.lft.to/lastmile_qr_scan"}, "lon": -77.04153616666666, "type": "electric_scooter", "fusion_lat": 0.0, "lat": 38.9013815, "name": "1f41cb34499672f88eb46d9be92a1c15", "fusion_lon": 0.0, "bike_id": "1f41cb34499672f88eb46d9be92a1c15", "is_disabled": 0, "is_reserved": 0}, {"rental_uris": {"ios": "https://dc.lft.to/lastmile_qr_scan", "android": "https://dc.lft.to/lastmile_qr_scan"}, "lon": -77.0228895, "type": "electric_scooter", "fusion_lat": 0.0, "lat": 38.897139, "name": "456681b4af78779b9365ea9fb2eb9751", "fusion_lon": 0.0, "bike_id": "456681b4af78779b9365ea9fb2eb9751", "is_disabled": 0, "is_reserved": 0}, {"rental_uris": {"ios": "https://dc.lft.to/lastmile_qr_scan", "android": "https://dc.lft.to/lastmile_qr_scan"}, "lon": -77.01109533333333, "type": "electric_scooter", "fusion_lat": 0.0, "lat": 38.9078645, "name": "3f6c333554b4ae30483bbdb69aae1c23", "fusion_lon": 0.0, "bike_id": "3f6c333554b4ae30483bbdb69aae1c23", "is_disabled": 0, "is_reserved": 0}, {"rental_uris": {"ios": "https://dc.lft.to/lastmile_qr_scan", "android": "https://dc.lft.to/lastmile_qr_scan"}, "lon": -77.043281, "type": "electric_scooter", "fusion_lat": 0.0, "lat": 38.91881016666667, "name": "f14ebd966fb3b7dbf9c073b5e2a0d29d", "fusion_lon": 0.0, "bike_id": "f14ebd966fb3b7dbf9c073b5e2a0d29d", "is_disabled": 0, "is_reserved": 0}, {"rental_uris": {"ios": "https://dc.lft.to/lastmile_qr_scan", "android": "https://dc.lft.to/lastmile_qr_scan"}, "lon": -77.00579, "type": "electric_scooter", "fusion_lat": 0.0, "lat": 38.84496566666667, "name": "1361828d3527bcbc246b5bf7bf82dc4c", "fusion_lon": 0.0, "bike_id": "1361828d3527bcbc246b5bf7bf82dc4c", "is_disabled": 0, "is_reserved": 0}, {"rental_uris": {"ios": "https://dc.lft.to/lastmile_qr_scan", "android": "https://dc.lft.to/lastmile_qr_scan"}, "lon": -77.05621616666667, "type": "electric_scooter", "fusion_lat": 0.0, "lat": 38.90613616666667, "name": "40d4720b47bd2a813dbe5a0e95c6d79f", "fusion_lon": 0.0, "bike_id": "40d4720b47bd2a813dbe5a0e95c6d79f", "is_disabled": 0, "is_reserved": 0}, {"rental_uris": {"ios": "https://dc.lft.to/lastmile_qr_scan", "android": "https://dc.lft.to/lastmile_qr_scan"}, "lon": -77.041433, "type": "electric_scooter", "fusion_lat": 0.0, "lat": 38.900113, "name": "2225631422ba900907b8a8e4fdc85e3d", "fusion_lon": 0.0, "bike_id": "2225631422ba900907b8a8e4fdc85e3d", "is_disabled": 0, "is_reserved": 0}, {"rental_uris": {"ios": "https://dc.lft.to/lastmile_qr_scan", "android": "https://dc.lft.to/lastmile_qr_scan"}, "lon": -76.9575415, "type": "electric_scooter", "fusion_lat": 0.0, "lat": 38.88434383333333, "name": "766b329347859641125d03c3638d15ad", "fusion_lon": 0.0, "bike_id": "766b329347859641125d03c3638d15ad", "is_disabled": 0, "is_reserved": 0}, {"rental_uris": {"ios": "https://dc.lft.to/lastmile_qr_scan", "android": "https://dc.lft.to/lastmile_qr_scan"}, "lon": -77.0549475, "type": "electric_scooter", "fusion_lat": 0.0, "lat": 38.929640666666664, "name": "ee35dfd447ca6ca9dae7a9ebf5512c66", "fusion_lon": 0.0, "bike_id": "ee35dfd447ca6ca9dae7a9ebf5512c66", "is_disabled": 0, "is_reserved": 0}, {"rental_uris": {"ios": "https://dc.lft.to/lastmile_qr_scan", "android": "https://dc.lft.to/lastmile_qr_scan"}, "lon": -77.03407, "type": "electric_scooter", "fusion_lat": 0.0, "lat": 38.92269916666667, "name": "d79bba90999f86fae6401b301e05c5e1", "fusion_lon": 0.0, "bike_id": "d79bba90999f86fae6401b301e05c5e1", "is_disabled": 0, "is_reserved": 0}, {"rental_uris": {"ios": "https://dc.lft.to/lastmile_qr_scan", "android": "https://dc.lft.to/lastmile_qr_scan"}, "lon": -77.12503316666667, "type": "electric_bike", "fusion_lat": 0.0, "lat": 39.02427933333333, "name": "11d5a7632d9d79cbe1eac5bed25b2660", "fusion_lon": 0.0, "bike_id": "11d5a7632d9d79cbe1eac5bed25b2660", "is_disabled": 0, "is_reserved": 0}, {"rental_uris": {"ios": "https://dc.lft.to/lastmile_qr_scan", "android": "https://dc.lft.to/lastmile_qr_scan"}, "lon": -77.05212816666666, "type": "electric_scooter", "fusion_lat": 0.0, "lat": 38.925901333333336, "name": "5d826debfd418a6efcbbd66feb983346", "fusion_lon": 0.0, "bike_id": "5d826debfd418a6efcbbd66feb983346", "is_disabled": 0, "is_reserved": 0}, {"rental_uris": {"ios": "https://dc.lft.to/lastmile_qr_scan", "android": "https://dc.lft.to/lastmile_qr_scan"}, "lon": -76.98694283333333, "type": "electric_scooter", "fusion_lat": 0.0, "lat": 38.907076333333336, "name": "2017c26547f7381200cf70021bbbb8e5", "fusion_lon": 0.0, "bike_id": "2017c26547f7381200cf70021bbbb8e5", "is_disabled": 0, "is_reserved": 0}, {"rental_uris": {"ios": "https://dc.lft.to/lastmile_qr_scan", "android": "https://dc.lft.to/lastmile_qr_scan"}, "lon": -77.01101516666667, "type": "electric_scooter", "fusion_lat": 0.0, "lat": 38.89458583333333, "name": "77c4159a52ddcbb38d03408a74490f40", "fusion_lon": 0.0, "bike_id": "77c4159a52ddcbb38d03408a74490f40", "is_disabled": 0, "is_reserved": 0}, {"rental_uris": {"ios": "https://dc.lft.to/lastmile_qr_scan", "android": "https://dc.lft.to/lastmile_qr_scan"}, "lon": -77.00206866666667, "type": "electric_bike", "fusion_lat": 0.0, "lat": 38.819411333333335, "name": "a8897489eb6996b45a081a2d3218551a", "fusion_lon": 0.0, "bike_id": "a8897489eb6996b45a081a2d3218551a", "is_disabled": 0, "is_reserved": 0}, {"rental_uris": {"ios": "https://dc.lft.to/lastmile_qr_scan", "android": "https://dc.lft.to/lastmile_qr_scan"}, "lon": -77.036632, "type": "electric_scooter", "fusion_lat": 0.0, "lat": 38.92323416666667, "name": "c11b90f61e714e5713bc6f345859d6f7", "fusion_lon": 0.0, "bike_id": "c11b90f61e714e5713bc6f345859d6f7", "is_disabled": 0, "is_reserved": 0}, {"rental_uris": {"ios": "https://dc.lft.to/lastmile_qr_scan", "android": "https://dc.lft.to/lastmile_qr_scan"}, "lon": -77.05543983333334, "type": "electric_scooter", "fusion_lat": 0.0, "lat": 38.93003566666667, "name": "422e70cb5aaa5506505f31f2839e4007", "fusion_lon": 0.0, "bike_id": "422e70cb5aaa5506505f31f2839e4007", "is_disabled": 0, "is_reserved": 0}, {"rental_uris": {"ios": "https://dc.lft.to/lastmile_qr_scan", "android": "https://dc.lft.to/lastmile_qr_scan"}, "lon": -77.04740366666667, "type": "electric_scooter", "fusion_lat": 0.0, "lat": 38.9017295, "name": "0f222c97c18b66c9b31b910abbb136c9", "fusion_lon": 0.0, "bike_id": "0f222c97c18b66c9b31b910abbb136c9", "is_disabled": 0, "is_reserved": 0}, {"rental_uris": {"ios": "https://dc.lft.to/lastmile_qr_scan", "android": "https://dc.lft.to/lastmile_qr_scan"}, "lon": -77.01011766666667, "type": "electric_scooter", "fusion_lat": 0.0, "lat": 38.8947915, "name": "1a91aa0651d5a686e254fe62b8198dc8", "fusion_lon": 0.0, "bike_id": "1a91aa0651d5a686e254fe62b8198dc8", "is_disabled": 0, "is_reserved": 0}, {"rental_uris": {"ios": "https://dc.lft.to/lastmile_qr_scan", "android": "https://dc.lft.to/lastmile_qr_scan"}, "lon": -77.03517883333333, "type": "electric_bike", "fusion_lat": 0.0, "lat": 38.96539116666667, "name": "7f8987bcb954a25e6aa09bdbbe8d5542", "fusion_lon": 0.0, "bike_id": "7f8987bcb954a25e6aa09bdbbe8d5542", "is_disabled": 0, "is_reserved": 0}, {"rental_uris": {"ios": "https://dc.lft.to/lastmile_qr_scan", "android": "https://dc.lft.to/lastmile_qr_scan"}, "lon": -77.04060383333334, "type": "electric_scooter", "fusion_lat": 0.0, "lat": 38.90277783333333, "name": "b7996b52989fd0ee25bcab9ef288b50d", "fusion_lon": 0.0, "bike_id": "b7996b52989fd0ee25bcab9ef288b50d", "is_disabled": 0, "is_reserved": 0}, {"rental_uris": {"ios": "https://dc.lft.to/lastmile_qr_scan", "android": "https://dc.lft.to/lastmile_qr_scan"}, "lon": -77.06519133333333, "type": "electric_bike", "fusion_lat": 0.0, "lat": 38.904508666666665, "name": "b3e3622fa25c2112e62057bebdb2e799", "fusion_lon": 0.0, "bike_id": "b3e3622fa25c2112e62057bebdb2e799", "is_disabled": 0, "is_reserved": 0}, {"rental_uris": {"ios": "https://dc.lft.to/lastmile_qr_scan", "android": "https://dc.lft.to/lastmile_qr_scan"}, "lon": -77.0326125, "type": "electric_scooter", "fusion_lat": 0.0, "lat": 38.939034, "name": "97f48d6785916a5da08f8c2674939947", "fusion_lon": 0.0, "bike_id": "97f48d6785916a5da08f8c2674939947", "is_disabled": 0, "is_reserved": 0}, {"rental_uris": {"ios": "https://dc.lft.to/lastmile_qr_scan", "android": "https://dc.lft.to/lastmile_qr_scan"}, "lon": -77.0183185, "type": "electric_scooter", "fusion_lat": 0.0, "lat": 38.901000833333335, "name": "23a4c6f5398902dea626bdd0bc174d91", "fusion_lon": 0.0, "bike_id": "23a4c6f5398902dea626bdd0bc174d91", "is_disabled": 0, "is_reserved": 0}, {"rental_uris": {"ios": "https://dc.lft.to/lastmile_qr_scan", "android": "https://dc.lft.to/lastmile_qr_scan"}, "lon": -76.978804, "type": "electric_scooter", "fusion_lat": 0.0, "lat": 38.8850955, "name": "d46aae46e769dcc1c6575738c801c0b2", "fusion_lon": 0.0, "bike_id": "d46aae46e769dcc1c6575738c801c0b2", "is_disabled": 0, "is_reserved": 0}, {"rental_uris": {"ios": "https://dc.lft.to/lastmile_qr_scan", "android": "https://dc.lft.to/lastmile_qr_scan"}, "lon": -77.03249566666666, "type": "electric_scooter", "fusion_lat": 0.0, "lat": 38.929238833333336, "name": "61ffa244fd8b470c37ba7050f178676a", "fusion_lon": 0.0, "bike_id": "61ffa244fd8b470c37ba7050f178676a", "is_disabled": 0, "is_reserved": 0}, {"rental_uris": {"ios": "https://dc.lft.to/lastmile_qr_scan", "android": "https://dc.lft.to/lastmile_qr_scan"}, "lon": -77.048576, "type": "electric_scooter", "fusion_lat": 0.0, "lat": 38.904155833333334, "name": "15664906f4e32ca32a1a357c623cfd9b", "fusion_lon": 0.0, "bike_id": "15664906f4e32ca32a1a357c623cfd9b", "is_disabled": 0, "is_reserved": 0}, {"rental_uris": {"ios": "https://dc.lft.to/lastmile_qr_scan", "android": "https://dc.lft.to/lastmile_qr_scan"}, "lon": -77.032552, "type": "electric_scooter", "fusion_lat": 0.0, "lat": 38.94421216666667, "name": "7f54a81195e857f373a5a684c5c487b3", "fusion_lon": 0.0, "bike_id": "7f54a81195e857f373a5a684c5c487b3", "is_disabled": 0, "is_reserved": 0}, {"rental_uris": {"ios": "https://dc.lft.to/lastmile_qr_scan", "android": "https://dc.lft.to/lastmile_qr_scan"}, "lon": -77.0322335, "type": "electric_scooter", "fusion_lat": 0.0, "lat": 38.920002333333336, "name": "8ad63adceec2cb8cedda92dd5943055a", "fusion_lon": 0.0, "bike_id": "8ad63adceec2cb8cedda92dd5943055a", "is_disabled": 0, "is_reserved": 0}, {"rental_uris": {"ios": "https://dc.lft.to/lastmile_qr_scan", "android": "https://dc.lft.to/lastmile_qr_scan"}, "lon": -77.0202185, "type": "electric_scooter", "fusion_lat": 0.0, "lat": 38.93248916666667, "name": "f253ed62fbed5cbe281b15571acc31cd", "fusion_lon": 0.0, "bike_id": "f253ed62fbed5cbe281b15571acc31cd", "is_disabled": 0, "is_reserved": 0}, {"rental_uris": {"ios": "https://dc.lft.to/lastmile_qr_scan", "android": "https://dc.lft.to/lastmile_qr_scan"}, "lon": -77.02943366666666, "type": "electric_scooter", "fusion_lat": 0.0, "lat": 38.905102166666666, "name": "ea919b16f4d2fdf30e560352edeae627", "fusion_lon": 0.0, "bike_id": "ea919b16f4d2fdf30e560352edeae627", "is_disabled": 0, "is_reserved": 0}, {"rental_uris": {"ios": "https://dc.lft.to/lastmile_qr_scan", "android": "https://dc.lft.to/lastmile_qr_scan"}, "lon": -76.99776983333334, "type": "electric_scooter", "fusion_lat": 0.0, "lat": 38.844252, "name": "bf17136abbac21129b7763d02150b638", "fusion_lon": 0.0, "bike_id": "bf17136abbac21129b7763d02150b638", "is_disabled": 0, "is_reserved": 0}, {"rental_uris": {"ios": "https://dc.lft.to/lastmile_qr_scan", "android": "https://dc.lft.to/lastmile_qr_scan"}, "lon": -76.9875185, "type": "electric_scooter", "fusion_lat": 0.0, "lat": 38.845035, "name": "97bd079b80f16efbe224cbe2c8b614ab", "fusion_lon": 0.0, "bike_id": "97bd079b80f16efbe224cbe2c8b614ab", "is_disabled": 0, "is_reserved": 0}, {"rental_uris": {"ios": "https://dc.lft.to/lastmile_qr_scan", "android": "https://dc.lft.to/lastmile_qr_scan"}, "lon": -76.98085316666666, "type": "electric_scooter", "fusion_lat": 0.0, "lat": 38.85714933333333, "name": "9e1bba6a80fe8b42077b874d23ade141", "fusion_lon": 0.0, "bike_id": "9e1bba6a80fe8b42077b874d23ade141", "is_disabled": 0, "is_reserved": 0}, {"rental_uris": {"ios": "https://dc.lft.to/lastmile_qr_scan", "android": "https://dc.lft.to/lastmile_qr_scan"}, "lon": -77.02233483333333, "type": "electric_scooter", "fusion_lat": 0.0, "lat": 38.96219, "name": "e2fd335ce65e4cbceb96009bb69e8888", "fusion_lon": 0.0, "bike_id": "e2fd335ce65e4cbceb96009bb69e8888", "is_disabled": 0, "is_reserved": 0}, {"rental_uris": {"ios": "https://dc.lft.to/lastmile_qr_scan", "android": "https://dc.lft.to/lastmile_qr_scan"}, "lon": -77.03339083333333, "type": "electric_scooter", "fusion_lat": 0.0, "lat": 38.90009233333333, "name": "e2f5da7224d8ddab9c6b9d9ce8b79b38", "fusion_lon": 0.0, "bike_id": "e2f5da7224d8ddab9c6b9d9ce8b79b38", "is_disabled": 0, "is_reserved": 0}, {"rental_uris": {"ios": "https://dc.lft.to/lastmile_qr_scan", "android": "https://dc.lft.to/lastmile_qr_scan"}, "lon": -76.976565, "type": "electric_scooter", "fusion_lat": 0.0, "lat": 38.8985345, "name": "4d6fb5dc46215db0ed23818945c644ef", "fusion_lon": 0.0, "bike_id": "4d6fb5dc46215db0ed23818945c644ef", "is_disabled": 0, "is_reserved": 0}, {"rental_uris": {"ios": "https://dc.lft.to/lastmile_qr_scan", "android": "https://dc.lft.to/lastmile_qr_scan"}, "lon": -77.017636, "type": "electric_scooter", "fusion_lat": 0.0, "lat": 38.88311366666667, "name": "9b647faeb5cce40c4b6fee818e5c0e8e", "fusion_lon": 0.0, "bike_id": "9b647faeb5cce40c4b6fee818e5c0e8e", "is_disabled": 0, "is_reserved": 0}, {"rental_uris": {"ios": "https://dc.lft.to/lastmile_qr_scan", "android": "https://dc.lft.to/lastmile_qr_scan"}, "lon": -77.0321095, "type": "electric_scooter", "fusion_lat": 0.0, "lat": 38.88731333333333, "name": "12d6c920b5918af04ec4888241e3f313", "fusion_lon": 0.0, "bike_id": "12d6c920b5918af04ec4888241e3f313", "is_disabled": 0, "is_reserved": 0}, {"rental_uris": {"ios": "https://dc.lft.to/lastmile_qr_scan", "android": "https://dc.lft.to/lastmile_qr_scan"}, "lon": -77.00365283333333, "type": "electric_scooter", "fusion_lat": 0.0, "lat": 38.897632333333334, "name": "5cd0a4bc398a1b68703fa84cfb5135ba", "fusion_lon": 0.0, "bike_id": "5cd0a4bc398a1b68703fa84cfb5135ba", "is_disabled": 0, "is_reserved": 0}, {"rental_uris": {"ios": "https://dc.lft.to/lastmile_qr_scan", "android": "https://dc.lft.to/lastmile_qr_scan"}, "lon": -77.0331525, "type": "electric_scooter", "fusion_lat": 0.0, "lat": 38.908436333333334, "name": "3600075e156a8bc5b5cf03c036c73ccb", "fusion_lon": 0.0, "bike_id": "3600075e156a8bc5b5cf03c036c73ccb", "is_disabled": 0, "is_reserved": 0}, {"rental_uris": {"ios": "https://dc.lft.to/lastmile_qr_scan", "android": "https://dc.lft.to/lastmile_qr_scan"}, "lon": -76.98573266666666, "type": "electric_scooter", "fusion_lat": 0.0, "lat": 38.898947666666665, "name": "35c3957813224f51f98cf56d92a80b9a", "fusion_lon": 0.0, "bike_id": "35c3957813224f51f98cf56d92a80b9a", "is_disabled": 0, "is_reserved": 0}, {"rental_uris": {"ios": "https://dc.lft.to/lastmile_qr_scan", "android": "https://dc.lft.to/lastmile_qr_scan"}, "lon": -77.02576, "type": "electric_scooter", "fusion_lat": 0.0, "lat": 38.8964485, "name": "42164d5267646756ed5c1a81ecc9322c", "fusion_lon": 0.0, "bike_id": "42164d5267646756ed5c1a81ecc9322c", "is_disabled": 0, "is_reserved": 0}, {"rental_uris": {"ios": "https://dc.lft.to/lastmile_qr_scan", "android": "https://dc.lft.to/lastmile_qr_scan"}, "lon": -77.03186783333334, "type": "electric_scooter", "fusion_lat": 0.0, "lat": 38.90984483333333, "name": "cc95e8d3171955dca863572a0f0c5cac", "fusion_lon": 0.0, "bike_id": "cc95e8d3171955dca863572a0f0c5cac", "is_disabled": 0, "is_reserved": 0}, {"rental_uris": {"ios": "https://dc.lft.to/lastmile_qr_scan", "android": "https://dc.lft.to/lastmile_qr_scan"}, "lon": -77.100284, "type": "electric_bike", "fusion_lat": 0.0, "lat": 38.990654166666666, "name": "53dc6b66c1ba008138a219958532ad69", "fusion_lon": 0.0, "bike_id": "53dc6b66c1ba008138a219958532ad69", "is_disabled": 0, "is_reserved": 0}, {"rental_uris": {"ios": "https://dc.lft.to/lastmile_qr_scan", "android": "https://dc.lft.to/lastmile_qr_scan"}, "lon": -76.99201483333333, "type": "electric_scooter", "fusion_lat": 0.0, "lat": 38.84685233333333, "name": "76c829af77f78e1c8ef4468b500cf26b", "fusion_lon": 0.0, "bike_id": "76c829af77f78e1c8ef4468b500cf26b", "is_disabled": 0, "is_reserved": 0}, {"rental_uris": {"ios": "https://dc.lft.to/lastmile_qr_scan", "android": "https://dc.lft.to/lastmile_qr_scan"}, "lon": -76.98653566666667, "type": "electric_scooter", "fusion_lat": 0.0, "lat": 38.85805883333333, "name": "8a338f3d469a715ffda1bf700a224b46", "fusion_lon": 0.0, "bike_id": "8a338f3d469a715ffda1bf700a224b46", "is_disabled": 0, "is_reserved": 0}, {"rental_uris": {"ios": "https://dc.lft.to/lastmile_qr_scan", "android": "https://dc.lft.to/lastmile_qr_scan"}, "lon": -77.03538183333333, "type": "electric_scooter", "fusion_lat": 0.0, "lat": 38.932884333333334, "name": "8f5f3ee3184eb3a20e3aeaa9875af889", "fusion_lon": 0.0, "bike_id": "8f5f3ee3184eb3a20e3aeaa9875af889", "is_disabled": 0, "is_reserved": 0}, {"rental_uris": {"ios": "https://dc.lft.to/lastmile_qr_scan", "android": "https://dc.lft.to/lastmile_qr_scan"}, "lon": -77.03347966666666, "type": "electric_scooter", "fusion_lat": 0.0, "lat": 38.9342175, "name": "87920cc23df7d94eaa55931c595b8054", "fusion_lon": 0.0, "bike_id": "87920cc23df7d94eaa55931c595b8054", "is_disabled": 0, "is_reserved": 0}, {"rental_uris": {"ios": "https://dc.lft.to/lastmile_qr_scan", "android": "https://dc.lft.to/lastmile_qr_scan"}, "lon": -77.04005633333334, "type": "electric_scooter", "fusion_lat": 0.0, "lat": 38.92136083333333, "name": "c2842464c9426a3ef10e0bc1a4367983", "fusion_lon": 0.0, "bike_id": "c2842464c9426a3ef10e0bc1a4367983", "is_disabled": 0, "is_reserved": 0}, {"rental_uris": {"ios": "https://dc.lft.to/lastmile_qr_scan", "android": "https://dc.lft.to/lastmile_qr_scan"}, "lon": -77.04807033333333, "type": "electric_scooter", "fusion_lat": 0.0, "lat": 38.92039833333333, "name": "8ee1ba30fbe2bbe5642bad540c78e694", "fusion_lon": 0.0, "bike_id": "8ee1ba30fbe2bbe5642bad540c78e694", "is_disabled": 0, "is_reserved": 0}, {"rental_uris": {"ios": "https://dc.lft.to/lastmile_qr_scan", "android": "https://dc.lft.to/lastmile_qr_scan"}, "lon": -77.0130275, "type": "electric_scooter", "fusion_lat": 0.0, "lat": 38.9004275, "name": "2d91e6f87729632a90177401e56059e1", "fusion_lon": 0.0, "bike_id": "2d91e6f87729632a90177401e56059e1", "is_disabled": 0, "is_reserved": 0}, {"rental_uris": {"ios": "https://dc.lft.to/lastmile_qr_scan", "android": "https://dc.lft.to/lastmile_qr_scan"}, "lon": -77.02857333333333, "type": "electric_scooter", "fusion_lat": 0.0, "lat": 38.92821083333333, "name": "3de434429dd3e82ebb6cbff6068e164c", "fusion_lon": 0.0, "bike_id": "3de434429dd3e82ebb6cbff6068e164c", "is_disabled": 0, "is_reserved": 0}, {"rental_uris": {"ios": "https://dc.lft.to/lastmile_qr_scan", "android": "https://dc.lft.to/lastmile_qr_scan"}, "lon": -77.02397583333334, "type": "electric_scooter", "fusion_lat": 0.0, "lat": 38.93701633333333, "name": "d414f07601c97cff890d56873a09d0fe", "fusion_lon": 0.0, "bike_id": "d414f07601c97cff890d56873a09d0fe", "is_disabled": 0, "is_reserved": 0}, {"rental_uris": {"ios": "https://dc.lft.to/lastmile_qr_scan", "android": "https://dc.lft.to/lastmile_qr_scan"}, "lon": -77.02354983333333, "type": "electric_scooter", "fusion_lat": 0.0, "lat": 38.925102833333334, "name": "7cd2172c07358d756a6b9eeaeb20b7f6", "fusion_lon": 0.0, "bike_id": "7cd2172c07358d756a6b9eeaeb20b7f6", "is_disabled": 0, "is_reserved": 0}, {"rental_uris": {"ios": "https://dc.lft.to/lastmile_qr_scan", "android": "https://dc.lft.to/lastmile_qr_scan"}, "lon": -77.0341315, "type": "electric_scooter", "fusion_lat": 0.0, "lat": 38.935407166666664, "name": "946c04557900fe6cb8020435ffe44173", "fusion_lon": 0.0, "bike_id": "946c04557900fe6cb8020435ffe44173", "is_disabled": 0, "is_reserved": 0}, {"rental_uris": {"ios": "https://dc.lft.to/lastmile_qr_scan", "android": "https://dc.lft.to/lastmile_qr_scan"}, "lon": -77.01701366666667, "type": "electric_scooter", "fusion_lat": 0.0, "lat": 38.9202455, "name": "9ae5fd2780287a348c8a7a470c76e952", "fusion_lon": 0.0, "bike_id": "9ae5fd2780287a348c8a7a470c76e952", "is_disabled": 0, "is_reserved": 0}, {"rental_uris": {"ios": "https://dc.lft.to/lastmile_qr_scan", "android": "https://dc.lft.to/lastmile_qr_scan"}, "lon": -77.07379566666667, "type": "electric_bike", "fusion_lat": 0.0, "lat": 38.9617715, "name": "96934105f3f84187d1719a1da704d629", "fusion_lon": 0.0, "bike_id": "96934105f3f84187d1719a1da704d629", "is_disabled": 0, "is_reserved": 0}, {"rental_uris": {"ios": "https://dc.lft.to/lastmile_qr_scan", "android": "https://dc.lft.to/lastmile_qr_scan"}, "lon": -77.0320065, "type": "electric_scooter", "fusion_lat": 0.0, "lat": 38.920758, "name": "ccaaa4fe0d995d09e931a3a2db6fe026", "fusion_lon": 0.0, "bike_id": "ccaaa4fe0d995d09e931a3a2db6fe026", "is_disabled": 0, "is_reserved": 0}, {"rental_uris": {"ios": "https://dc.lft.to/lastmile_qr_scan", "android": "https://dc.lft.to/lastmile_qr_scan"}, "lon": -77.03285733333334, "type": "electric_scooter", "fusion_lat": 0.0, "lat": 38.930584833333334, "name": "bd1fd98aaa4e21c63a999ff696d0920c", "fusion_lon": 0.0, "bike_id": "bd1fd98aaa4e21c63a999ff696d0920c", "is_disabled": 0, "is_reserved": 0}, {"rental_uris": {"ios": "https://dc.lft.to/lastmile_qr_scan", "android": "https://dc.lft.to/lastmile_qr_scan"}, "lon": -77.04126183333334, "type": "electric_scooter", "fusion_lat": 0.0, "lat": 38.924330166666664, "name": "7fc5115028cd47a46183cdcced93346f", "fusion_lon": 0.0, "bike_id": "7fc5115028cd47a46183cdcced93346f", "is_disabled": 0, "is_reserved": 0}, {"rental_uris": {"ios": "https://dc.lft.to/lastmile_qr_scan", "android": "https://dc.lft.to/lastmile_qr_scan"}, "lon": -76.97351666666667, "type": "electric_scooter", "fusion_lat": 0.0, "lat": 38.86211266666667, "name": "ddf211d992dc1004473dfc94949a2c3f", "fusion_lon": 0.0, "bike_id": "ddf211d992dc1004473dfc94949a2c3f", "is_disabled": 0, "is_reserved": 0}, {"rental_uris": {"ios": "https://dc.lft.to/lastmile_qr_scan", "android": "https://dc.lft.to/lastmile_qr_scan"}, "lon": -77.03315166666667, "type": "electric_scooter", "fusion_lat": 0.0, "lat": 38.919890333333335, "name": "5d8a10023526e2f103ce5f2b1f5743a3", "fusion_lon": 0.0, "bike_id": "5d8a10023526e2f103ce5f2b1f5743a3", "is_disabled": 0, "is_reserved": 0}, {"rental_uris": {"ios": "https://dc.lft.to/lastmile_qr_scan", "android": "https://dc.lft.to/lastmile_qr_scan"}, "lon": -77.027407, "type": "electric_scooter", "fusion_lat": 0.0, "lat": 38.927718666666664, "name": "f45ded8676de929dfc2b45e0946e5888", "fusion_lon": 0.0, "bike_id": "f45ded8676de929dfc2b45e0946e5888", "is_disabled": 0, "is_reserved": 0}, {"rental_uris": {"ios": "https://dc.lft.to/lastmile_qr_scan", "android": "https://dc.lft.to/lastmile_qr_scan"}, "lon": -77.03314083333333, "type": "electric_scooter", "fusion_lat": 0.0, "lat": 38.91985866666667, "name": "3fc35bf7d3f828cb5d5ebead6d27c5d3", "fusion_lon": 0.0, "bike_id": "3fc35bf7d3f828cb5d5ebead6d27c5d3", "is_disabled": 0, "is_reserved": 0}, {"rental_uris": {"ios": "https://dc.lft.to/lastmile_qr_scan", "android": "https://dc.lft.to/lastmile_qr_scan"}, "lon": -77.02199266666666, "type": "electric_scooter", "fusion_lat": 0.0, "lat": 38.89909183333333, "name": "5af0b1db5129b5dac8df2da5a5c06429", "fusion_lon": 0.0, "bike_id": "5af0b1db5129b5dac8df2da5a5c06429", "is_disabled": 0, "is_reserved": 0}, {"rental_uris": {"ios": "https://dc.lft.to/lastmile_qr_scan", "android": "https://dc.lft.to/lastmile_qr_scan"}, "lon": -77.01533866666666, "type": "electric_scooter", "fusion_lat": 0.0, "lat": 38.887415, "name": "d63e49fd0ccac23fdb273e17ac6f4412", "fusion_lon": 0.0, "bike_id": "d63e49fd0ccac23fdb273e17ac6f4412", "is_disabled": 0, "is_reserved": 0}, {"rental_uris": {"ios": "https://dc.lft.to/lastmile_qr_scan", "android": "https://dc.lft.to/lastmile_qr_scan"}, "lon": -77.0545665, "type": "electric_scooter", "fusion_lat": 0.0, "lat": 38.929043166666666, "name": "d42be86cdb22eb59bfa1bba9a1fb4ecf", "fusion_lon": 0.0, "bike_id": "d42be86cdb22eb59bfa1bba9a1fb4ecf", "is_disabled": 0, "is_reserved": 0}, {"rental_uris": {"ios": "https://dc.lft.to/lastmile_qr_scan", "android": "https://dc.lft.to/lastmile_qr_scan"}, "lon": -77.03099616666667, "type": "electric_scooter", "fusion_lat": 0.0, "lat": 38.894805, "name": "5311334a6aeadf4919bec7bc97709f60", "fusion_lon": 0.0, "bike_id": "5311334a6aeadf4919bec7bc97709f60", "is_disabled": 0, "is_reserved": 0}, {"rental_uris": {"ios": "https://dc.lft.to/lastmile_qr_scan", "android": "https://dc.lft.to/lastmile_qr_scan"}, "lon": -77.10507166666666, "type": "electric_bike", "fusion_lat": 0.0, "lat": 38.928476, "name": "141de4ec827cd6634f94e7ef45c2d438", "fusion_lon": 0.0, "bike_id": "141de4ec827cd6634f94e7ef45c2d438", "is_disabled": 0, "is_reserved": 0}, {"rental_uris": {"ios": "https://dc.lft.to/lastmile_qr_scan", "android": "https://dc.lft.to/lastmile_qr_scan"}, "lon": -77.03546933333334, "type": "electric_scooter", "fusion_lat": 0.0, "lat": 38.9241745, "name": "736b643eab8369c99010371009a930a0", "fusion_lon": 0.0, "bike_id": "736b643eab8369c99010371009a930a0", "is_disabled": 0, "is_reserved": 0}, {"rental_uris": {"ios": "https://dc.lft.to/lastmile_qr_scan", "android": "https://dc.lft.to/lastmile_qr_scan"}, "lon": -77.03916916666667, "type": "electric_scooter", "fusion_lat": 0.0, "lat": 38.924724833333336, "name": "56084f75f67a388cc974539d594eb658", "fusion_lon": 0.0, "bike_id": "56084f75f67a388cc974539d594eb658", "is_disabled": 0, "is_reserved": 0}, {"rental_uris": {"ios": "https://dc.lft.to/lastmile_qr_scan", "android": "https://dc.lft.to/lastmile_qr_scan"}, "lon": -77.01220066666667, "type": "electric_scooter", "fusion_lat": 0.0, "lat": 38.909809833333334, "name": "8eade3c8ef1b35e41e8ff6184f086cfd", "fusion_lon": 0.0, "bike_id": "8eade3c8ef1b35e41e8ff6184f086cfd", "is_disabled": 0, "is_reserved": 0}, {"rental_uris": {"ios": "https://dc.lft.to/lastmile_qr_scan", "android": "https://dc.lft.to/lastmile_qr_scan"}, "lon": -76.98566283333334, "type": "electric_scooter", "fusion_lat": 0.0, "lat": 38.89957966666667, "name": "80472053e25db583572c8085eb3fce41", "fusion_lon": 0.0, "bike_id": "80472053e25db583572c8085eb3fce41", "is_disabled": 0, "is_reserved": 0}, {"rental_uris": {"ios": "https://dc.lft.to/lastmile_qr_scan", "android": "https://dc.lft.to/lastmile_qr_scan"}, "lon": -77.05866966666666, "type": "electric_scooter", "fusion_lat": 0.0, "lat": 38.93605083333333, "name": "20d6cf343b564be8e602c0148c013eb2", "fusion_lon": 0.0, "bike_id": "20d6cf343b564be8e602c0148c013eb2", "is_disabled": 0, "is_reserved": 0}, {"rental_uris": {"ios": "https://dc.lft.to/lastmile_qr_scan", "android": "https://dc.lft.to/lastmile_qr_scan"}, "lon": -77.03417866666666, "type": "electric_scooter", "fusion_lat": 0.0, "lat": 38.91929666666667, "name": "dd566a1e41379bed7b99a1be7e1cb0aa", "fusion_lon": 0.0, "bike_id": "dd566a1e41379bed7b99a1be7e1cb0aa", "is_disabled": 0, "is_reserved": 0}, {"rental_uris": {"ios": "https://dc.lft.to/lastmile_qr_scan", "android": "https://dc.lft.to/lastmile_qr_scan"}, "lon": -77.02602466666667, "type": "electric_scooter", "fusion_lat": 0.0, "lat": 38.892342166666666, "name": "bbf19a3be8f6da3a3d3bbb78004c94b0", "fusion_lon": 0.0, "bike_id": "bbf19a3be8f6da3a3d3bbb78004c94b0", "is_disabled": 0, "is_reserved": 0}, {"rental_uris": {"ios": "https://dc.lft.to/lastmile_qr_scan", "android": "https://dc.lft.to/lastmile_qr_scan"}, "lon": -77.0423255, "type": "electric_scooter", "fusion_lat": 0.0, "lat": 38.911101333333335, "name": "02b38c1f12187caf65d61b4580a49cb4", "fusion_lon": 0.0, "bike_id": "02b38c1f12187caf65d61b4580a49cb4", "is_disabled": 0, "is_reserved": 0}, {"rental_uris": {"ios": "https://dc.lft.to/lastmile_qr_scan", "android": "https://dc.lft.to/lastmile_qr_scan"}, "lon": -76.98816433333333, "type": "electric_scooter", "fusion_lat": 0.0, "lat": 38.9033645, "name": "34e04345aa85c2993dea522caf34945a", "fusion_lon": 0.0, "bike_id": "34e04345aa85c2993dea522caf34945a", "is_disabled": 0, "is_reserved": 0}, {"rental_uris": {"ios": "https://dc.lft.to/lastmile_qr_scan", "android": "https://dc.lft.to/lastmile_qr_scan"}, "lon": -77.0275625, "type": "electric_scooter", "fusion_lat": 0.0, "lat": 38.92384583333333, "name": "8af2e4e9dafe5b6ced2b29983f0ef159", "fusion_lon": 0.0, "bike_id": "8af2e4e9dafe5b6ced2b29983f0ef159", "is_disabled": 0, "is_reserved": 0}, {"rental_uris": {"ios": "https://dc.lft.to/lastmile_qr_scan", "android": "https://dc.lft.to/lastmile_qr_scan"}, "lon": -77.0955075, "type": "electric_scooter", "fusion_lat": 0.0, "lat": 38.916575, "name": "0496a367108fde1cd7b3a0cdbdd11af2", "fusion_lon": 0.0, "bike_id": "0496a367108fde1cd7b3a0cdbdd11af2", "is_disabled": 0, "is_reserved": 0}, {"rental_uris": {"ios": "https://dc.lft.to/lastmile_qr_scan", "android": "https://dc.lft.to/lastmile_qr_scan"}, "lon": -76.93298533333333, "type": "electric_scooter", "fusion_lat": 0.0, "lat": 38.898877666666664, "name": "6391283419089ccc2671f19728723fc7", "fusion_lon": 0.0, "bike_id": "6391283419089ccc2671f19728723fc7", "is_disabled": 0, "is_reserved": 0}, {"rental_uris": {"ios": "https://dc.lft.to/lastmile_qr_scan", "android": "https://dc.lft.to/lastmile_qr_scan"}, "lon": -76.98580216666667, "type": "electric_scooter", "fusion_lat": 0.0, "lat": 38.90659683333333, "name": "9af7fcde5c5aaf645f81a9ab4be96d66", "fusion_lon": 0.0, "bike_id": "9af7fcde5c5aaf645f81a9ab4be96d66", "is_disabled": 0, "is_reserved": 0}, {"rental_uris": {"ios": "https://dc.lft.to/lastmile_qr_scan", "android": "https://dc.lft.to/lastmile_qr_scan"}, "lon": -76.99061916666666, "type": "electric_scooter", "fusion_lat": 0.0, "lat": 38.863595833333335, "name": "dea986670e072556514bb12abf1a3c01", "fusion_lon": 0.0, "bike_id": "dea986670e072556514bb12abf1a3c01", "is_disabled": 0, "is_reserved": 0}, {"rental_uris": {"ios": "https://dc.lft.to/lastmile_qr_scan", "android": "https://dc.lft.to/lastmile_qr_scan"}, "lon": -77.032293, "type": "electric_scooter", "fusion_lat": 0.0, "lat": 38.91996833333333, "name": "3a4f2d9257572a40ce8d9d3440e970dd", "fusion_lon": 0.0, "bike_id": "3a4f2d9257572a40ce8d9d3440e970dd", "is_disabled": 0, "is_reserved": 0}, {"rental_uris": {"ios": "https://dc.lft.to/lastmile_qr_scan", "android": "https://dc.lft.to/lastmile_qr_scan"}, "lon": -77.04154466666667, "type": "electric_scooter", "fusion_lat": 0.0, "lat": 38.9161395, "name": "fa9acf3a86d929be8be83eb7448e9920", "fusion_lon": 0.0, "bike_id": "fa9acf3a86d929be8be83eb7448e9920", "is_disabled": 0, "is_reserved": 0}, {"rental_uris": {"ios": "https://dc.lft.to/lastmile_qr_scan", "android": "https://dc.lft.to/lastmile_qr_scan"}, "lon": -77.02961933333333, "type": "electric_scooter", "fusion_lat": 0.0, "lat": 38.92568383333333, "name": "49c267f3987ee3bf1c14bcea65c290a5", "fusion_lon": 0.0, "bike_id": "49c267f3987ee3bf1c14bcea65c290a5", "is_disabled": 0, "is_reserved": 0}, {"rental_uris": {"ios": "https://dc.lft.to/lastmile_qr_scan", "android": "https://dc.lft.to/lastmile_qr_scan"}, "lon": -77.03701383333333, "type": "electric_scooter", "fusion_lat": 0.0, "lat": 38.9264515, "name": "f4af1d19604a8b6851e7c832723eb7a0", "fusion_lon": 0.0, "bike_id": "f4af1d19604a8b6851e7c832723eb7a0", "is_disabled": 0, "is_reserved": 0}, {"rental_uris": {"ios": "https://dc.lft.to/lastmile_qr_scan", "android": "https://dc.lft.to/lastmile_qr_scan"}, "lon": -77.01242716666667, "type": "electric_scooter", "fusion_lat": 0.0, "lat": 38.91708633333333, "name": "8b710a7e9334f6cdf9e2e0c9b8364a02", "fusion_lon": 0.0, "bike_id": "8b710a7e9334f6cdf9e2e0c9b8364a02", "is_disabled": 0, "is_reserved": 0}, {"rental_uris": {"ios": "https://dc.lft.to/lastmile_qr_scan", "android": "https://dc.lft.to/lastmile_qr_scan"}, "lon": -77.0094095, "type": "electric_scooter", "fusion_lat": 0.0, "lat": 38.87200966666666, "name": "bd59a9955e68cd5de55edc2af4c1538e", "fusion_lon": 0.0, "bike_id": "bd59a9955e68cd5de55edc2af4c1538e", "is_disabled": 0, "is_reserved": 0}, {"rental_uris": {"ios": "https://dc.lft.to/lastmile_qr_scan", "android": "https://dc.lft.to/lastmile_qr_scan"}, "lon": -77.05228066666666, "type": "electric_scooter", "fusion_lat": 0.0, "lat": 38.898112166666664, "name": "cb7ba8a769584f47d536df24a6a53988", "fusion_lon": 0.0, "bike_id": "cb7ba8a769584f47d536df24a6a53988", "is_disabled": 0, "is_reserved": 0}, {"rental_uris": {"ios": "https://dc.lft.to/lastmile_qr_scan", "android": "https://dc.lft.to/lastmile_qr_scan"}, "lon": -77.041195, "type": "electric_scooter", "fusion_lat": 0.0, "lat": 38.93332633333333, "name": "15a355a1fbd9d1c4cd46e712542e1f0c", "fusion_lon": 0.0, "bike_id": "15a355a1fbd9d1c4cd46e712542e1f0c", "is_disabled": 0, "is_reserved": 0}, {"rental_uris": {"ios": "https://dc.lft.to/lastmile_qr_scan", "android": "https://dc.lft.to/lastmile_qr_scan"}, "lon": -77.05980933333333, "type": "electric_scooter", "fusion_lat": 0.0, "lat": 38.93555, "name": "b44f6aea675c0bf2438ed281cb8a5ec4", "fusion_lon": 0.0, "bike_id": "b44f6aea675c0bf2438ed281cb8a5ec4", "is_disabled": 0, "is_reserved": 0}, {"rental_uris": {"ios": "https://dc.lft.to/lastmile_qr_scan", "android": "https://dc.lft.to/lastmile_qr_scan"}, "lon": -77.007766, "type": "electric_scooter", "fusion_lat": 0.0, "lat": 38.907411833333335, "name": "bb3c393302607279ab9b1df5e7d7b855", "fusion_lon": 0.0, "bike_id": "bb3c393302607279ab9b1df5e7d7b855", "is_disabled": 0, "is_reserved": 0}, {"rental_uris": {"ios": "https://dc.lft.to/lastmile_qr_scan", "android": "https://dc.lft.to/lastmile_qr_scan"}, "lon": -77.0269795, "type": "electric_scooter", "fusion_lat": 0.0, "lat": 38.916336666666666, "name": "5fca7d42275a5408c38e27ada51c5304", "fusion_lon": 0.0, "bike_id": "5fca7d42275a5408c38e27ada51c5304", "is_disabled": 0, "is_reserved": 0}, {"rental_uris": {"ios": "https://dc.lft.to/lastmile_qr_scan", "android": "https://dc.lft.to/lastmile_qr_scan"}, "lon": -77.04242216666667, "type": "electric_scooter", "fusion_lat": 0.0, "lat": 38.90937233333333, "name": "58500c7f9787fa604314e21bbc2e5b61", "fusion_lon": 0.0, "bike_id": "58500c7f9787fa604314e21bbc2e5b61", "is_disabled": 0, "is_reserved": 0}, {"rental_uris": {"ios": "https://dc.lft.to/lastmile_qr_scan", "android": "https://dc.lft.to/lastmile_qr_scan"}, "lon": -77.03212616666667, "type": "electric_scooter", "fusion_lat": 0.0, "lat": 38.900491333333335, "name": "83d8d6e3d0ba7a8f3f05f05fda3c7c02", "fusion_lon": 0.0, "bike_id": "83d8d6e3d0ba7a8f3f05f05fda3c7c02", "is_disabled": 0, "is_reserved": 0}, {"rental_uris": {"ios": "https://dc.lft.to/lastmile_qr_scan", "android": "https://dc.lft.to/lastmile_qr_scan"}, "lon": -77.03660483333333, "type": "electric_scooter", "fusion_lat": 0.0, "lat": 38.922882333333334, "name": "f8f6c481d3e65a7c44fd44a408ce0768", "fusion_lon": 0.0, "bike_id": "f8f6c481d3e65a7c44fd44a408ce0768", "is_disabled": 0, "is_reserved": 0}, {"rental_uris": {"ios": "https://dc.lft.to/lastmile_qr_scan", "android": "https://dc.lft.to/lastmile_qr_scan"}, "lon": -76.954681, "type": "electric_bike", "fusion_lat": 0.0, "lat": 38.88643716666667, "name": "6e29f5f42a338409a3eb462ad7eadd79", "fusion_lon": 0.0, "bike_id": "6e29f5f42a338409a3eb462ad7eadd79", "is_disabled": 0, "is_reserved": 0}, {"rental_uris": {"ios": "https://dc.lft.to/lastmile_qr_scan", "android": "https://dc.lft.to/lastmile_qr_scan"}, "lon": -76.97452716666666, "type": "electric_scooter", "fusion_lat": 0.0, "lat": 38.865380333333334, "name": "ec7c855dbe189a920009f07e4e66337c", "fusion_lon": 0.0, "bike_id": "ec7c855dbe189a920009f07e4e66337c", "is_disabled": 0, "is_reserved": 0}, {"rental_uris": {"ios": "https://dc.lft.to/lastmile_qr_scan", "android": "https://dc.lft.to/lastmile_qr_scan"}, "lon": -76.9879145, "type": "electric_bike", "fusion_lat": 0.0, "lat": 38.904196, "name": "4d283a34bbbdea36a3b5e7dbd8b732a3", "fusion_lon": 0.0, "bike_id": "4d283a34bbbdea36a3b5e7dbd8b732a3", "is_disabled": 0, "is_reserved": 0}, {"rental_uris": {"ios": "https://dc.lft.to/lastmile_qr_scan", "android": "https://dc.lft.to/lastmile_qr_scan"}, "lon": -77.117936, "type": "electric_bike", "fusion_lat": 0.0, "lat": 38.89838483333333, "name": "e7abce58d52b1cbb19bebddef3852fe8", "fusion_lon": 0.0, "bike_id": "e7abce58d52b1cbb19bebddef3852fe8", "is_disabled": 0, "is_reserved": 0}, {"rental_uris": {"ios": "https://dc.lft.to/lastmile_qr_scan", "android": "https://dc.lft.to/lastmile_qr_scan"}, "lon": -77.03210966666667, "type": "electric_scooter", "fusion_lat": 0.0, "lat": 38.912489, "name": "9b32a16a0301c748ffa93acaf683504a", "fusion_lon": 0.0, "bike_id": "9b32a16a0301c748ffa93acaf683504a", "is_disabled": 0, "is_reserved": 0}, {"rental_uris": {"ios": "https://dc.lft.to/lastmile_qr_scan", "android": "https://dc.lft.to/lastmile_qr_scan"}, "lon": -77.01532416666667, "type": "electric_scooter", "fusion_lat": 0.0, "lat": 38.88741533333334, "name": "7346680c5968361509afd15a127c55a2", "fusion_lon": 0.0, "bike_id": "7346680c5968361509afd15a127c55a2", "is_disabled": 0, "is_reserved": 0}, {"rental_uris": {"ios": "https://dc.lft.to/lastmile_qr_scan", "android": "https://dc.lft.to/lastmile_qr_scan"}, "lon": -77.06301516666667, "type": "electric_scooter", "fusion_lat": 0.0, "lat": 38.90697383333333, "name": "d3449c05b955f926adaac9e57dbb615d", "fusion_lon": 0.0, "bike_id": "d3449c05b955f926adaac9e57dbb615d", "is_disabled": 0, "is_reserved": 0}, {"rental_uris": {"ios": "https://dc.lft.to/lastmile_qr_scan", "android": "https://dc.lft.to/lastmile_qr_scan"}, "lon": -77.05000266666667, "type": "electric_scooter", "fusion_lat": 0.0, "lat": 38.892308, "name": "84df50646f2d4c78d891c9ea75a77697", "fusion_lon": 0.0, "bike_id": "84df50646f2d4c78d891c9ea75a77697", "is_disabled": 0, "is_reserved": 0}, {"rental_uris": {"ios": "https://dc.lft.to/lastmile_qr_scan", "android": "https://dc.lft.to/lastmile_qr_scan"}, "lon": -77.02580583333334, "type": "electric_scooter", "fusion_lat": 0.0, "lat": 38.905243166666665, "name": "d91ec3d4542818d9abd2973039ce69b1", "fusion_lon": 0.0, "bike_id": "d91ec3d4542818d9abd2973039ce69b1", "is_disabled": 0, "is_reserved": 0}, {"rental_uris": {"ios": "https://dc.lft.to/lastmile_qr_scan", "android": "https://dc.lft.to/lastmile_qr_scan"}, "lon": -77.04003933333334, "type": "electric_scooter", "fusion_lat": 0.0, "lat": 38.899979, "name": "c1788e36386455d7cdf762a470ac1022", "fusion_lon": 0.0, "bike_id": "c1788e36386455d7cdf762a470ac1022", "is_disabled": 0, "is_reserved": 0}, {"rental_uris": {"ios": "https://dc.lft.to/lastmile_qr_scan", "android": "https://dc.lft.to/lastmile_qr_scan"}, "lon": -76.972189, "type": "electric_scooter", "fusion_lat": 0.0, "lat": 38.854978333333335, "name": "821fec65038c8e5c53e43db740e0e30c", "fusion_lon": 0.0, "bike_id": "821fec65038c8e5c53e43db740e0e30c", "is_disabled": 0, "is_reserved": 0}, {"rental_uris": {"ios": "https://dc.lft.to/lastmile_qr_scan", "android": "https://dc.lft.to/lastmile_qr_scan"}, "lon": -77.02211366666667, "type": "electric_scooter", "fusion_lat": 0.0, "lat": 38.896136, "name": "3586b9598c114c34b7ce2ced6ddc8ca3", "fusion_lon": 0.0, "bike_id": "3586b9598c114c34b7ce2ced6ddc8ca3", "is_disabled": 0, "is_reserved": 0}, {"rental_uris": {"ios": "https://dc.lft.to/lastmile_qr_scan", "android": "https://dc.lft.to/lastmile_qr_scan"}, "lon": -77.02921216666667, "type": "electric_scooter", "fusion_lat": 0.0, "lat": 38.895415166666666, "name": "7746abf625784124dfc86ce726674d1a", "fusion_lon": 0.0, "bike_id": "7746abf625784124dfc86ce726674d1a", "is_disabled": 0, "is_reserved": 0}, {"rental_uris": {"ios": "https://dc.lft.to/lastmile_qr_scan", "android": "https://dc.lft.to/lastmile_qr_scan"}, "lon": -77.04502816666667, "type": "electric_scooter", "fusion_lat": 0.0, "lat": 38.9119295, "name": "1d4f8e3bca24751bf9de826e85a899c4", "fusion_lon": 0.0, "bike_id": "1d4f8e3bca24751bf9de826e85a899c4", "is_disabled": 0, "is_reserved": 0}, {"rental_uris": {"ios": "https://dc.lft.to/lastmile_qr_scan", "android": "https://dc.lft.to/lastmile_qr_scan"}, "lon": -77.039163, "type": "electric_scooter", "fusion_lat": 0.0, "lat": 38.899091, "name": "0dced809b37586d27c6e2829b1f68a8c", "fusion_lon": 0.0, "bike_id": "0dced809b37586d27c6e2829b1f68a8c", "is_disabled": 0, "is_reserved": 0}, {"rental_uris": {"ios": "https://dc.lft.to/lastmile_qr_scan", "android": "https://dc.lft.to/lastmile_qr_scan"}, "lon": -76.99874333333334, "type": "electric_scooter", "fusion_lat": 0.0, "lat": 38.907531, "name": "c0e1482a5eb2a4a0e508db93e3dd29aa", "fusion_lon": 0.0, "bike_id": "c0e1482a5eb2a4a0e508db93e3dd29aa", "is_disabled": 0, "is_reserved": 0}, {"rental_uris": {"ios": "https://dc.lft.to/lastmile_qr_scan", "android": "https://dc.lft.to/lastmile_qr_scan"}, "lon": -77.04325116666666, "type": "electric_scooter", "fusion_lat": 0.0, "lat": 38.908143, "name": "26607e8d50a4c478dc8cac810e50ed36", "fusion_lon": 0.0, "bike_id": "26607e8d50a4c478dc8cac810e50ed36", "is_disabled": 0, "is_reserved": 0}, {"rental_uris": {"ios": "https://dc.lft.to/lastmile_qr_scan", "android": "https://dc.lft.to/lastmile_qr_scan"}, "lon": -77.02623433333333, "type": "electric_scooter", "fusion_lat": 0.0, "lat": 38.895993, "name": "4422b9f8ede676cf5fbe080d4c5ef412", "fusion_lon": 0.0, "bike_id": "4422b9f8ede676cf5fbe080d4c5ef412", "is_disabled": 0, "is_reserved": 0}, {"rental_uris": {"ios": "https://dc.lft.to/lastmile_qr_scan", "android": "https://dc.lft.to/lastmile_qr_scan"}, "lon": -76.94625816666667, "type": "electric_bike", "fusion_lat": 0.0, "lat": 38.9462485, "name": "ac0180ead966eb40aecab24dc24f925f", "fusion_lon": 0.0, "bike_id": "ac0180ead966eb40aecab24dc24f925f", "is_disabled": 0, "is_reserved": 0}, {"rental_uris": {"ios": "https://dc.lft.to/lastmile_qr_scan", "android": "https://dc.lft.to/lastmile_qr_scan"}, "lon": -77.032884, "type": "electric_scooter", "fusion_lat": 0.0, "lat": 38.909718833333336, "name": "268f246bfb71ec2d1d85aa0da643b6e9", "fusion_lon": 0.0, "bike_id": "268f246bfb71ec2d1d85aa0da643b6e9", "is_disabled": 0, "is_reserved": 0}, {"rental_uris": {"ios": "https://dc.lft.to/lastmile_qr_scan", "android": "https://dc.lft.to/lastmile_qr_scan"}, "lon": -76.99859116666667, "type": "electric_scooter", "fusion_lat": 0.0, "lat": 38.90780516666667, "name": "0dcbc1e4435738d253e79b8d356aa35f", "fusion_lon": 0.0, "bike_id": "0dcbc1e4435738d253e79b8d356aa35f", "is_disabled": 0, "is_reserved": 0}, {"rental_uris": {"ios": "https://dc.lft.to/lastmile_qr_scan", "android": "https://dc.lft.to/lastmile_qr_scan"}, "lon": -76.987105, "type": "electric_scooter", "fusion_lat": 0.0, "lat": 38.86702966666667, "name": "7c19c7fc73d255ab07f19e57cdae8a3a", "fusion_lon": 0.0, "bike_id": "7c19c7fc73d255ab07f19e57cdae8a3a", "is_disabled": 0, "is_reserved": 0}, {"rental_uris": {"ios": "https://dc.lft.to/lastmile_qr_scan", "android": "https://dc.lft.to/lastmile_qr_scan"}, "lon": -76.93172666666666, "type": "electric_scooter", "fusion_lat": 0.0, "lat": 38.89886216666667, "name": "54203df9e23942b68e425ac0483c11a6", "fusion_lon": 0.0, "bike_id": "54203df9e23942b68e425ac0483c11a6", "is_disabled": 0, "is_reserved": 0}, {"rental_uris": {"ios": "https://dc.lft.to/lastmile_qr_scan", "android": "https://dc.lft.to/lastmile_qr_scan"}, "lon": -77.022106, "type": "electric_scooter", "fusion_lat": 0.0, "lat": 38.92232216666667, "name": "bf22bde7869687995f83a49a657466cd", "fusion_lon": 0.0, "bike_id": "bf22bde7869687995f83a49a657466cd", "is_disabled": 0, "is_reserved": 0}, {"rental_uris": {"ios": "https://dc.lft.to/lastmile_qr_scan", "android": "https://dc.lft.to/lastmile_qr_scan"}, "lon": -77.02417183333333, "type": "electric_scooter", "fusion_lat": 0.0, "lat": 38.92653683333333, "name": "d36e2b82b3f35523ebdbee9ccedfaa56", "fusion_lon": 0.0, "bike_id": "d36e2b82b3f35523ebdbee9ccedfaa56", "is_disabled": 0, "is_reserved": 0}, {"rental_uris": {"ios": "https://dc.lft.to/lastmile_qr_scan", "android": "https://dc.lft.to/lastmile_qr_scan"}, "lon": -76.98869, "type": "electric_scooter", "fusion_lat": 0.0, "lat": 38.83211266666667, "name": "600f185174d31949bf7efdaf4fe6c342", "fusion_lon": 0.0, "bike_id": "600f185174d31949bf7efdaf4fe6c342", "is_disabled": 0, "is_reserved": 0}, {"rental_uris": {"ios": "https://dc.lft.to/lastmile_qr_scan", "android": "https://dc.lft.to/lastmile_qr_scan"}, "lon": -77.05382983333334, "type": "electric_scooter", "fusion_lat": 0.0, "lat": 38.902597, "name": "beadaa8ecd0d0e5181c30b8e8617c576", "fusion_lon": 0.0, "bike_id": "beadaa8ecd0d0e5181c30b8e8617c576", "is_disabled": 0, "is_reserved": 0}, {"rental_uris": {"ios": "https://dc.lft.to/lastmile_qr_scan", "android": "https://dc.lft.to/lastmile_qr_scan"}, "lon": -76.992752, "type": "electric_scooter", "fusion_lat": 0.0, "lat": 38.921354666666666, "name": "e12dcf84052c81c661eb827426b27c54", "fusion_lon": 0.0, "bike_id": "e12dcf84052c81c661eb827426b27c54", "is_disabled": 0, "is_reserved": 0}, {"rental_uris": {"ios": "https://dc.lft.to/lastmile_qr_scan", "android": "https://dc.lft.to/lastmile_qr_scan"}, "lon": -77.01683783333333, "type": "electric_bike", "fusion_lat": 0.0, "lat": 38.9752295, "name": "0f0140ba86d27391e6f212d07e2e2c67", "fusion_lon": 0.0, "bike_id": "0f0140ba86d27391e6f212d07e2e2c67", "is_disabled": 0, "is_reserved": 0}, {"rental_uris": {"ios": "https://dc.lft.to/lastmile_qr_scan", "android": "https://dc.lft.to/lastmile_qr_scan"}, "lon": -77.0640075, "type": "electric_bike", "fusion_lat": 0.0, "lat": 38.843476833333334, "name": "bd11e95b64dfb795c0468c2137931046", "fusion_lon": 0.0, "bike_id": "bd11e95b64dfb795c0468c2137931046", "is_disabled": 0, "is_reserved": 0}, {"rental_uris": {"ios": "https://dc.lft.to/lastmile_qr_scan", "android": "https://dc.lft.to/lastmile_qr_scan"}, "lon": -77.03186483333333, "type": "electric_scooter", "fusion_lat": 0.0, "lat": 38.899587333333336, "name": "69859f76205d5d8e97615f762cc8effb", "fusion_lon": 0.0, "bike_id": "69859f76205d5d8e97615f762cc8effb", "is_disabled": 0, "is_reserved": 0}, {"rental_uris": {"ios": "https://dc.lft.to/lastmile_qr_scan", "android": "https://dc.lft.to/lastmile_qr_scan"}, "lon": -77.04264083333334, "type": "electric_scooter", "fusion_lat": 0.0, "lat": 38.89589016666667, "name": "037bd29ce8fc0e1f0030bf4938acf16e", "fusion_lon": 0.0, "bike_id": "037bd29ce8fc0e1f0030bf4938acf16e", "is_disabled": 0, "is_reserved": 0}, {"rental_uris": {"ios": "https://dc.lft.to/lastmile_qr_scan", "android": "https://dc.lft.to/lastmile_qr_scan"}, "lon": -77.0220615, "type": "electric_bike", "fusion_lat": 0.0, "lat": 38.89264216666667, "name": "0c072f34ddf863c66a9da8db54abee69", "fusion_lon": 0.0, "bike_id": "0c072f34ddf863c66a9da8db54abee69", "is_disabled": 0, "is_reserved": 0}, {"rental_uris": {"ios": "https://dc.lft.to/lastmile_qr_scan", "android": "https://dc.lft.to/lastmile_qr_scan"}, "lon": -77.13095983333334, "type": "electric_bike", "fusion_lat": 0.0, "lat": 38.861623, "name": "05c7018c5199abe2e1225909e5c3f11e", "fusion_lon": 0.0, "bike_id": "05c7018c5199abe2e1225909e5c3f11e", "is_disabled": 0, "is_reserved": 0}, {"rental_uris": {"ios": "https://dc.lft.to/lastmile_qr_scan", "android": "https://dc.lft.to/lastmile_qr_scan"}, "lon": -76.9850975, "type": "electric_scooter", "fusion_lat": 0.0, "lat": 38.90086016666667, "name": "9ee9ef9c9b6c15d42679985c1e11c9a4", "fusion_lon": 0.0, "bike_id": "9ee9ef9c9b6c15d42679985c1e11c9a4", "is_disabled": 0, "is_reserved": 0}, {"rental_uris": {"ios": "https://dc.lft.to/lastmile_qr_scan", "android": "https://dc.lft.to/lastmile_qr_scan"}, "lon": -77.04201483333334, "type": "electric_scooter", "fusion_lat": 0.0, "lat": 38.911061833333335, "name": "adf04a8c28dbcfec4f01fc7b3cd8508a", "fusion_lon": 0.0, "bike_id": "adf04a8c28dbcfec4f01fc7b3cd8508a", "is_disabled": 0, "is_reserved": 0}, {"rental_uris": {"ios": "https://dc.lft.to/lastmile_qr_scan", "android": "https://dc.lft.to/lastmile_qr_scan"}, "lon": -77.0405665, "type": "electric_scooter", "fusion_lat": 0.0, "lat": 38.9100945, "name": "6311f57867c659af881cd8585cfd0b6a", "fusion_lon": 0.0, "bike_id": "6311f57867c659af881cd8585cfd0b6a", "is_disabled": 0, "is_reserved": 0}, {"rental_uris": {"ios": "https://dc.lft.to/lastmile_qr_scan", "android": "https://dc.lft.to/lastmile_qr_scan"}, "lon": -77.03656183333334, "type": "electric_scooter", "fusion_lat": 0.0, "lat": 38.95493166666667, "name": "91752f086083f32f8ef4a2a1a12ded31", "fusion_lon": 0.0, "bike_id": "91752f086083f32f8ef4a2a1a12ded31", "is_disabled": 0, "is_reserved": 0}, {"rental_uris": {"ios": "https://dc.lft.to/lastmile_qr_scan", "android": "https://dc.lft.to/lastmile_qr_scan"}, "lon": -77.04703233333333, "type": "electric_scooter", "fusion_lat": 0.0, "lat": 38.89738966666667, "name": "269e0ab3b509457835e619b0616bcf2f", "fusion_lon": 0.0, "bike_id": "269e0ab3b509457835e619b0616bcf2f", "is_disabled": 0, "is_reserved": 0}, {"rental_uris": {"ios": "https://dc.lft.to/lastmile_qr_scan", "android": "https://dc.lft.to/lastmile_qr_scan"}, "lon": -77.02302883333333, "type": "electric_scooter", "fusion_lat": 0.0, "lat": 38.91698616666667, "name": "d99cbac16bdf8c8f1c9365264c31f821", "fusion_lon": 0.0, "bike_id": "d99cbac16bdf8c8f1c9365264c31f821", "is_disabled": 0, "is_reserved": 0}, {"rental_uris": {"ios": "https://dc.lft.to/lastmile_qr_scan", "android": "https://dc.lft.to/lastmile_qr_scan"}, "lon": -77.0416595, "type": "electric_scooter", "fusion_lat": 0.0, "lat": 38.912044333333334, "name": "b47ee9d8027abba23052e39fd3e32ec0", "fusion_lon": 0.0, "bike_id": "b47ee9d8027abba23052e39fd3e32ec0", "is_disabled": 0, "is_reserved": 0}, {"rental_uris": {"ios": "https://dc.lft.to/lastmile_qr_scan", "android": "https://dc.lft.to/lastmile_qr_scan"}, "lon": -77.02702316666667, "type": "electric_scooter", "fusion_lat": 0.0, "lat": 38.906682, "name": "589f137d033e6a0c4e0fa23a411b3afe", "fusion_lon": 0.0, "bike_id": "589f137d033e6a0c4e0fa23a411b3afe", "is_disabled": 0, "is_reserved": 0}, {"rental_uris": {"ios": "https://dc.lft.to/lastmile_qr_scan", "android": "https://dc.lft.to/lastmile_qr_scan"}, "lon": -77.05404466666667, "type": "electric_scooter", "fusion_lat": 0.0, "lat": 38.90403516666667, "name": "61ae13a245284979dce3121bb105d616", "fusion_lon": 0.0, "bike_id": "61ae13a245284979dce3121bb105d616", "is_disabled": 0, "is_reserved": 0}, {"rental_uris": {"ios": "https://dc.lft.to/lastmile_qr_scan", "android": "https://dc.lft.to/lastmile_qr_scan"}, "lon": -77.0916075, "type": "electric_bike", "fusion_lat": 0.0, "lat": 38.96761566666667, "name": "3d847d30f02d905757cd2a3d038c87f9", "fusion_lon": 0.0, "bike_id": "3d847d30f02d905757cd2a3d038c87f9", "is_disabled": 0, "is_reserved": 0}, {"rental_uris": {"ios": "https://dc.lft.to/lastmile_qr_scan", "android": "https://dc.lft.to/lastmile_qr_scan"}, "lon": -77.02214616666667, "type": "electric_scooter", "fusion_lat": 0.0, "lat": 38.905710666666664, "name": "75ebe7465b1e083c95ecbe78e19a277c", "fusion_lon": 0.0, "bike_id": "75ebe7465b1e083c95ecbe78e19a277c", "is_disabled": 0, "is_reserved": 0}, {"rental_uris": {"ios": "https://dc.lft.to/lastmile_qr_scan", "android": "https://dc.lft.to/lastmile_qr_scan"}, "lon": -77.02938783333333, "type": "electric_scooter", "fusion_lat": 0.0, "lat": 38.905130166666666, "name": "3d8ca8f86cc4919996654ed9900d9fd1", "fusion_lon": 0.0, "bike_id": "3d8ca8f86cc4919996654ed9900d9fd1", "is_disabled": 0, "is_reserved": 0}, {"rental_uris": {"ios": "https://dc.lft.to/lastmile_qr_scan", "android": "https://dc.lft.to/lastmile_qr_scan"}, "lon": -77.02463583333333, "type": "electric_scooter", "fusion_lat": 0.0, "lat": 38.917120833333335, "name": "26e72626ed626c372bcca040ae079201", "fusion_lon": 0.0, "bike_id": "26e72626ed626c372bcca040ae079201", "is_disabled": 0, "is_reserved": 0}, {"rental_uris": {"ios": "https://dc.lft.to/lastmile_qr_scan", "android": "https://dc.lft.to/lastmile_qr_scan"}, "lon": -77.03193033333334, "type": "electric_scooter", "fusion_lat": 0.0, "lat": 38.91714133333333, "name": "562157886a658c379b8cb71d83fc5c94", "fusion_lon": 0.0, "bike_id": "562157886a658c379b8cb71d83fc5c94", "is_disabled": 0, "is_reserved": 0}, {"rental_uris": {"ios": "https://dc.lft.to/lastmile_qr_scan", "android": "https://dc.lft.to/lastmile_qr_scan"}, "lon": -77.023048, "type": "electric_scooter", "fusion_lat": 0.0, "lat": 38.883270333333336, "name": "6cae6b0ed8ea27dde63477375de3d7c1", "fusion_lon": 0.0, "bike_id": "6cae6b0ed8ea27dde63477375de3d7c1", "is_disabled": 0, "is_reserved": 0}, {"rental_uris": {"ios": "https://dc.lft.to/lastmile_qr_scan", "android": "https://dc.lft.to/lastmile_qr_scan"}, "lon": -77.02073483333334, "type": "electric_scooter", "fusion_lat": 0.0, "lat": 38.915529, "name": "beb05ff6a187a141c0922ba9df911986", "fusion_lon": 0.0, "bike_id": "beb05ff6a187a141c0922ba9df911986", "is_disabled": 0, "is_reserved": 0}, {"rental_uris": {"ios": "https://dc.lft.to/lastmile_qr_scan", "android": "https://dc.lft.to/lastmile_qr_scan"}, "lon": -77.04759833333334, "type": "electric_scooter", "fusion_lat": 0.0, "lat": 38.91250216666667, "name": "2afffc84ea8faa2760f6173644a4a8b6", "fusion_lon": 0.0, "bike_id": "2afffc84ea8faa2760f6173644a4a8b6", "is_disabled": 0, "is_reserved": 0}, {"rental_uris": {"ios": "https://dc.lft.to/lastmile_qr_scan", "android": "https://dc.lft.to/lastmile_qr_scan"}, "lon": -77.050409, "type": "electric_scooter", "fusion_lat": 0.0, "lat": 38.923632833333336, "name": "155c131a5787bb220e1f6328f7935508", "fusion_lon": 0.0, "bike_id": "155c131a5787bb220e1f6328f7935508", "is_disabled": 0, "is_reserved": 0}, {"rental_uris": {"ios": "https://dc.lft.to/lastmile_qr_scan", "android": "https://dc.lft.to/lastmile_qr_scan"}, "lon": -77.00784966666667, "type": "electric_bike", "fusion_lat": 0.0, "lat": 38.92692016666667, "name": "a1c3edbacd39d517e0ea2854f314685d", "fusion_lon": 0.0, "bike_id": "a1c3edbacd39d517e0ea2854f314685d", "is_disabled": 0, "is_reserved": 0}, {"rental_uris": {"ios": "https://dc.lft.to/lastmile_qr_scan", "android": "https://dc.lft.to/lastmile_qr_scan"}, "lon": -77.03178416666667, "type": "electric_scooter", "fusion_lat": 0.0, "lat": 38.887351, "name": "760be7e23b6856c03a5100c7c7c088e8", "fusion_lon": 0.0, "bike_id": "760be7e23b6856c03a5100c7c7c088e8", "is_disabled": 0, "is_reserved": 0}, {"rental_uris": {"ios": "https://dc.lft.to/lastmile_qr_scan", "android": "https://dc.lft.to/lastmile_qr_scan"}, "lon": -77.05224083333333, "type": "electric_scooter", "fusion_lat": 0.0, "lat": 38.89814416666667, "name": "8aa22ea8cd12d6b737239cfa53422b4e", "fusion_lon": 0.0, "bike_id": "8aa22ea8cd12d6b737239cfa53422b4e", "is_disabled": 0, "is_reserved": 0}, {"rental_uris": {"ios": "https://dc.lft.to/lastmile_qr_scan", "android": "https://dc.lft.to/lastmile_qr_scan"}, "lon": -77.05315433333334, "type": "electric_scooter", "fusion_lat": 0.0, "lat": 38.90025516666667, "name": "0a4427d4fcb214a8983a678726ad4fc2", "fusion_lon": 0.0, "bike_id": "0a4427d4fcb214a8983a678726ad4fc2", "is_disabled": 0, "is_reserved": 0}, {"rental_uris": {"ios": "https://dc.lft.to/lastmile_qr_scan", "android": "https://dc.lft.to/lastmile_qr_scan"}, "lon": -77.36092183333334, "type": "electric_bike", "fusion_lat": 0.0, "lat": 38.9395505, "name": "971f19a915f4a47babcb1ec1c5f29b16", "fusion_lon": 0.0, "bike_id": "971f19a915f4a47babcb1ec1c5f29b16", "is_disabled": 0, "is_reserved": 0}, {"rental_uris": {"ios": "https://dc.lft.to/lastmile_qr_scan", "android": "https://dc.lft.to/lastmile_qr_scan"}, "lon": -76.98362616666667, "type": "electric_bike", "fusion_lat": 0.0, "lat": 38.90229166666667, "name": "8c478c59a8d7b6a1127f81b5322877b8", "fusion_lon": 0.0, "bike_id": "8c478c59a8d7b6a1127f81b5322877b8", "is_disabled": 0, "is_reserved": 0}, {"rental_uris": {"ios": "https://dc.lft.to/lastmile_qr_scan", "android": "https://dc.lft.to/lastmile_qr_scan"}, "lon": -77.028011, "type": "electric_scooter", "fusion_lat": 0.0, "lat": 38.892312833333335, "name": "b7242b2f70e99f677b829e4fd2afe214", "fusion_lon": 0.0, "bike_id": "b7242b2f70e99f677b829e4fd2afe214", "is_disabled": 0, "is_reserved": 0}, {"rental_uris": {"ios": "https://dc.lft.to/lastmile_qr_scan", "android": "https://dc.lft.to/lastmile_qr_scan"}, "lon": -77.01964983333333, "type": "electric_scooter", "fusion_lat": 0.0, "lat": 38.886051, "name": "403140f18deff32d211246ae94b0417e", "fusion_lon": 0.0, "bike_id": "403140f18deff32d211246ae94b0417e", "is_disabled": 0, "is_reserved": 0}, {"rental_uris": {"ios": "https://dc.lft.to/lastmile_qr_scan", "android": "https://dc.lft.to/lastmile_qr_scan"}, "lon": -76.97984083333333, "type": "electric_bike", "fusion_lat": 0.0, "lat": 38.87753566666667, "name": "6ee22e11a2ea1a4c1263154f317e1e3c", "fusion_lon": 0.0, "bike_id": "6ee22e11a2ea1a4c1263154f317e1e3c", "is_disabled": 0, "is_reserved": 0}, {"rental_uris": {"ios": "https://dc.lft.to/lastmile_qr_scan", "android": "https://dc.lft.to/lastmile_qr_scan"}, "lon": -77.00923783333333, "type": "electric_scooter", "fusion_lat": 0.0, "lat": 38.90244466666667, "name": "96eaf3cc97dbbf265ea8492c909a33eb", "fusion_lon": 0.0, "bike_id": "96eaf3cc97dbbf265ea8492c909a33eb", "is_disabled": 0, "is_reserved": 0}, {"rental_uris": {"ios": "https://dc.lft.to/lastmile_qr_scan", "android": "https://dc.lft.to/lastmile_qr_scan"}, "lon": -77.0405935, "type": "electric_scooter", "fusion_lat": 0.0, "lat": 38.917750833333336, "name": "2ffce5de8269cad67bf7f06ef3fe0bd7", "fusion_lon": 0.0, "bike_id": "2ffce5de8269cad67bf7f06ef3fe0bd7", "is_disabled": 0, "is_reserved": 0}, {"rental_uris": {"ios": "https://dc.lft.to/lastmile_qr_scan", "android": "https://dc.lft.to/lastmile_qr_scan"}, "lon": -77.046863, "type": "electric_scooter", "fusion_lat": 0.0, "lat": 38.8961005, "name": "a7b45e9ca7958185b023b221d2a7806b", "fusion_lon": 0.0, "bike_id": "a7b45e9ca7958185b023b221d2a7806b", "is_disabled": 0, "is_reserved": 0}, {"rental_uris": {"ios": "https://dc.lft.to/lastmile_qr_scan", "android": "https://dc.lft.to/lastmile_qr_scan"}, "lon": -77.05413933333334, "type": "electric_scooter", "fusion_lat": 0.0, "lat": 38.92829966666667, "name": "b8c562938c7339067e00e3d607fc5aa4", "fusion_lon": 0.0, "bike_id": "b8c562938c7339067e00e3d607fc5aa4", "is_disabled": 0, "is_reserved": 0}, {"rental_uris": {"ios": "https://dc.lft.to/lastmile_qr_scan", "android": "https://dc.lft.to/lastmile_qr_scan"}, "lon": -76.97724516666666, "type": "electric_scooter", "fusion_lat": 0.0, "lat": 38.87242916666667, "name": "eb7621674a57f61a795e6795a3a183d3", "fusion_lon": 0.0, "bike_id": "eb7621674a57f61a795e6795a3a183d3", "is_disabled": 0, "is_reserved": 0}, {"rental_uris": {"ios": "https://dc.lft.to/lastmile_qr_scan", "android": "https://dc.lft.to/lastmile_qr_scan"}, "lon": -77.04349516666667, "type": "electric_scooter", "fusion_lat": 0.0, "lat": 38.92125766666667, "name": "1684c586792f955e58633c3b1e92c428", "fusion_lon": 0.0, "bike_id": "1684c586792f955e58633c3b1e92c428", "is_disabled": 0, "is_reserved": 0}, {"rental_uris": {"ios": "https://dc.lft.to/lastmile_qr_scan", "android": "https://dc.lft.to/lastmile_qr_scan"}, "lon": -76.97325016666667, "type": "electric_bike", "fusion_lat": 0.0, "lat": 38.85069933333333, "name": "9a844bd5f939d5dd9127c6f0e17e967b", "fusion_lon": 0.0, "bike_id": "9a844bd5f939d5dd9127c6f0e17e967b", "is_disabled": 0, "is_reserved": 0}, {"rental_uris": {"ios": "https://dc.lft.to/lastmile_qr_scan", "android": "https://dc.lft.to/lastmile_qr_scan"}, "lon": -77.0345805, "type": "electric_scooter", "fusion_lat": 0.0, "lat": 38.91826833333333, "name": "914314bd48bc324b637d0aa0edc1a75e", "fusion_lon": 0.0, "bike_id": "914314bd48bc324b637d0aa0edc1a75e", "is_disabled": 0, "is_reserved": 0}, {"rental_uris": {"ios": "https://dc.lft.to/lastmile_qr_scan", "android": "https://dc.lft.to/lastmile_qr_scan"}, "lon": -77.03222183333334, "type": "electric_scooter", "fusion_lat": 0.0, "lat": 38.938716, "name": "6341273451232635aeeffb3703f71406", "fusion_lon": 0.0, "bike_id": "6341273451232635aeeffb3703f71406", "is_disabled": 0, "is_reserved": 0}, {"rental_uris": {"ios": "https://dc.lft.to/lastmile_qr_scan", "android": "https://dc.lft.to/lastmile_qr_scan"}, "lon": -77.03666116666666, "type": "electric_scooter", "fusion_lat": 0.0, "lat": 38.929946666666666, "name": "1d59e29809939971adbd94bc57fc4aa8", "fusion_lon": 0.0, "bike_id": "1d59e29809939971adbd94bc57fc4aa8", "is_disabled": 0, "is_reserved": 0}, {"rental_uris": {"ios": "https://dc.lft.to/lastmile_qr_scan", "android": "https://dc.lft.to/lastmile_qr_scan"}, "lon": -77.03572183333333, "type": "electric_scooter", "fusion_lat": 0.0, "lat": 38.88181, "name": "fba5b1f0d6296ef7d7c95b53d03ea578", "fusion_lon": 0.0, "bike_id": "fba5b1f0d6296ef7d7c95b53d03ea578", "is_disabled": 0, "is_reserved": 0}, {"rental_uris": {"ios": "https://dc.lft.to/lastmile_qr_scan", "android": "https://dc.lft.to/lastmile_qr_scan"}, "lon": -77.0245365, "type": "electric_scooter", "fusion_lat": 0.0, "lat": 38.97936333333333, "name": "98e3ad7144b73f9da8815f8239665d44", "fusion_lon": 0.0, "bike_id": "98e3ad7144b73f9da8815f8239665d44", "is_disabled": 0, "is_reserved": 0}, {"rental_uris": {"ios": "https://dc.lft.to/lastmile_qr_scan", "android": "https://dc.lft.to/lastmile_qr_scan"}, "lon": -77.0464035, "type": "electric_scooter", "fusion_lat": 0.0, "lat": 38.90240933333333, "name": "a439e3913d8fbd66aa1417085a018f1d", "fusion_lon": 0.0, "bike_id": "a439e3913d8fbd66aa1417085a018f1d", "is_disabled": 0, "is_reserved": 0}, {"rental_uris": {"ios": "https://dc.lft.to/lastmile_qr_scan", "android": "https://dc.lft.to/lastmile_qr_scan"}, "lon": -77.05037266666666, "type": "electric_scooter", "fusion_lat": 0.0, "lat": 38.89656166666666, "name": "af69e79a3bfb70bb581bbb803019a8ec", "fusion_lon": 0.0, "bike_id": "af69e79a3bfb70bb581bbb803019a8ec", "is_disabled": 0, "is_reserved": 0}, {"rental_uris": {"ios": "https://dc.lft.to/lastmile_qr_scan", "android": "https://dc.lft.to/lastmile_qr_scan"}, "lon": -77.03849716666667, "type": "electric_scooter", "fusion_lat": 0.0, "lat": 38.91658016666667, "name": "e6a797ff5589a58a8498c4a6f5e15c33", "fusion_lon": 0.0, "bike_id": "e6a797ff5589a58a8498c4a6f5e15c33", "is_disabled": 0, "is_reserved": 0}, {"rental_uris": {"ios": "https://dc.lft.to/lastmile_qr_scan", "android": "https://dc.lft.to/lastmile_qr_scan"}, "lon": -77.04164866666666, "type": "electric_scooter", "fusion_lat": 0.0, "lat": 38.9120515, "name": "889f48c6694c4df8e8976ec225457806", "fusion_lon": 0.0, "bike_id": "889f48c6694c4df8e8976ec225457806", "is_disabled": 0, "is_reserved": 0}, {"rental_uris": {"ios": "https://dc.lft.to/lastmile_qr_scan", "android": "https://dc.lft.to/lastmile_qr_scan"}, "lon": -77.0409285, "type": "electric_scooter", "fusion_lat": 0.0, "lat": 38.90586416666667, "name": "9f4afd520466d56f1da05b4405f60efe", "fusion_lon": 0.0, "bike_id": "9f4afd520466d56f1da05b4405f60efe", "is_disabled": 0, "is_reserved": 0}, {"rental_uris": {"ios": "https://dc.lft.to/lastmile_qr_scan", "android": "https://dc.lft.to/lastmile_qr_scan"}, "lon": -77.01435216666667, "type": "electric_scooter", "fusion_lat": 0.0, "lat": 38.92990866666667, "name": "f6b8a9409f8d47a36f0b6cb6e28aed0a", "fusion_lon": 0.0, "bike_id": "f6b8a9409f8d47a36f0b6cb6e28aed0a", "is_disabled": 0, "is_reserved": 0}, {"rental_uris": {"ios": "https://dc.lft.to/lastmile_qr_scan", "android": "https://dc.lft.to/lastmile_qr_scan"}, "lon": -77.04834033333333, "type": "electric_scooter", "fusion_lat": 0.0, "lat": 38.903879833333335, "name": "01febc25c161fdf30448316b7f3d3904", "fusion_lon": 0.0, "bike_id": "01febc25c161fdf30448316b7f3d3904", "is_disabled": 0, "is_reserved": 0}, {"rental_uris": {"ios": "https://dc.lft.to/lastmile_qr_scan", "android": "https://dc.lft.to/lastmile_qr_scan"}, "lon": -76.97502133333333, "type": "electric_scooter", "fusion_lat": 0.0, "lat": 38.8691945, "name": "beef225f2e39c6a961141e13a09632b4", "fusion_lon": 0.0, "bike_id": "beef225f2e39c6a961141e13a09632b4", "is_disabled": 0, "is_reserved": 0}, {"rental_uris": {"ios": "https://dc.lft.to/lastmile_qr_scan", "android": "https://dc.lft.to/lastmile_qr_scan"}, "lon": -77.04138733333333, "type": "electric_scooter", "fusion_lat": 0.0, "lat": 38.92298566666667, "name": "066325a36f04f3115c965a18935bf045", "fusion_lon": 0.0, "bike_id": "066325a36f04f3115c965a18935bf045", "is_disabled": 0, "is_reserved": 0}, {"rental_uris": {"ios": "https://dc.lft.to/lastmile_qr_scan", "android": "https://dc.lft.to/lastmile_qr_scan"}, "lon": -77.00772516666666, "type": "electric_scooter", "fusion_lat": 0.0, "lat": 38.89734516666667, "name": "a664e92368bbfd9e1708f162193776ac", "fusion_lon": 0.0, "bike_id": "a664e92368bbfd9e1708f162193776ac", "is_disabled": 0, "is_reserved": 0}, {"rental_uris": {"ios": "https://dc.lft.to/lastmile_qr_scan", "android": "https://dc.lft.to/lastmile_qr_scan"}, "lon": -77.02931716666667, "type": "electric_scooter", "fusion_lat": 0.0, "lat": 38.8953305, "name": "c33e1e43c5844509c5c46b7a813e05b5", "fusion_lon": 0.0, "bike_id": "c33e1e43c5844509c5c46b7a813e05b5", "is_disabled": 0, "is_reserved": 0}, {"rental_uris": {"ios": "https://dc.lft.to/lastmile_qr_scan", "android": "https://dc.lft.to/lastmile_qr_scan"}, "lon": -77.04982666666666, "type": "electric_scooter", "fusion_lat": 0.0, "lat": 38.9010065, "name": "28e9e5ebf92b275f8848b4c2565ed06a", "fusion_lon": 0.0, "bike_id": "28e9e5ebf92b275f8848b4c2565ed06a", "is_disabled": 0, "is_reserved": 0}, {"rental_uris": {"ios": "https://dc.lft.to/lastmile_qr_scan", "android": "https://dc.lft.to/lastmile_qr_scan"}, "lon": -77.02072116666666, "type": "electric_scooter", "fusion_lat": 0.0, "lat": 38.91552383333333, "name": "ea013ddd4758ff4baa67694469c80254", "fusion_lon": 0.0, "bike_id": "ea013ddd4758ff4baa67694469c80254", "is_disabled": 0, "is_reserved": 0}, {"rental_uris": {"ios": "https://dc.lft.to/lastmile_qr_scan", "android": "https://dc.lft.to/lastmile_qr_scan"}, "lon": -77.0436705, "type": "electric_scooter", "fusion_lat": 0.0, "lat": 38.928103166666666, "name": "7d0072e46bc5428b733a661c0d1fdded", "fusion_lon": 0.0, "bike_id": "7d0072e46bc5428b733a661c0d1fdded", "is_disabled": 0, "is_reserved": 0}, {"rental_uris": {"ios": "https://dc.lft.to/lastmile_qr_scan", "android": "https://dc.lft.to/lastmile_qr_scan"}, "lon": -76.99500016666667, "type": "electric_scooter", "fusion_lat": 0.0, "lat": 38.8995905, "name": "552487d1400ca816758eb3745eac65be", "fusion_lon": 0.0, "bike_id": "552487d1400ca816758eb3745eac65be", "is_disabled": 0, "is_reserved": 0}, {"rental_uris": {"ios": "https://dc.lft.to/lastmile_qr_scan", "android": "https://dc.lft.to/lastmile_qr_scan"}, "lon": -77.05301883333334, "type": "electric_scooter", "fusion_lat": 0.0, "lat": 38.92622933333333, "name": "774cfa7860ffb69d5f5073dccb81ab25", "fusion_lon": 0.0, "bike_id": "774cfa7860ffb69d5f5073dccb81ab25", "is_disabled": 0, "is_reserved": 0}, {"rental_uris": {"ios": "https://dc.lft.to/lastmile_qr_scan", "android": "https://dc.lft.to/lastmile_qr_scan"}, "lon": -76.93173166666666, "type": "electric_scooter", "fusion_lat": 0.0, "lat": 38.89886416666667, "name": "f0face7707d20fa20bf5893b04c500bb", "fusion_lon": 0.0, "bike_id": "f0face7707d20fa20bf5893b04c500bb", "is_disabled": 0, "is_reserved": 0}, {"rental_uris": {"ios": "https://dc.lft.to/lastmile_qr_scan", "android": "https://dc.lft.to/lastmile_qr_scan"}, "lon": -77.07067816666667, "type": "electric_scooter", "fusion_lat": 0.0, "lat": 38.95220666666667, "name": "36e08b1fa9173b2cba48ff097320f392", "fusion_lon": 0.0, "bike_id": "36e08b1fa9173b2cba48ff097320f392", "is_disabled": 0, "is_reserved": 0}, {"rental_uris": {"ios": "https://dc.lft.to/lastmile_qr_scan", "android": "https://dc.lft.to/lastmile_qr_scan"}, "lon": -77.04185216666667, "type": "electric_scooter", "fusion_lat": 0.0, "lat": 38.90355666666667, "name": "a4e677b5bd14fcb9b36eed49651fbd78", "fusion_lon": 0.0, "bike_id": "a4e677b5bd14fcb9b36eed49651fbd78", "is_disabled": 0, "is_reserved": 0}, {"rental_uris": {"ios": "https://dc.lft.to/lastmile_qr_scan", "android": "https://dc.lft.to/lastmile_qr_scan"}, "lon": -77.00864566666667, "type": "electric_bike", "fusion_lat": 0.0, "lat": 38.8273025, "name": "ca5a078a766cd2d8657da6e35828d0c8", "fusion_lon": 0.0, "bike_id": "ca5a078a766cd2d8657da6e35828d0c8", "is_disabled": 0, "is_reserved": 0}, {"rental_uris": {"ios": "https://dc.lft.to/lastmile_qr_scan", "android": "https://dc.lft.to/lastmile_qr_scan"}, "lon": -77.034026, "type": "electric_scooter", "fusion_lat": 0.0, "lat": 38.9226685, "name": "09d938742dc3ab7dcfd8455d6e8ddd7e", "fusion_lon": 0.0, "bike_id": "09d938742dc3ab7dcfd8455d6e8ddd7e", "is_disabled": 0, "is_reserved": 0}, {"rental_uris": {"ios": "https://dc.lft.to/lastmile_qr_scan", "android": "https://dc.lft.to/lastmile_qr_scan"}, "lon": -77.04715533333334, "type": "electric_scooter", "fusion_lat": 0.0, "lat": 38.922382666666664, "name": "8cad4cccde0ee906acf81bbfe0ed7d01", "fusion_lon": 0.0, "bike_id": "8cad4cccde0ee906acf81bbfe0ed7d01", "is_disabled": 0, "is_reserved": 0}, {"rental_uris": {"ios": "https://dc.lft.to/lastmile_qr_scan", "android": "https://dc.lft.to/lastmile_qr_scan"}, "lon": -77.03332333333333, "type": "electric_scooter", "fusion_lat": 0.0, "lat": 38.91811916666666, "name": "d3bbcdc46ecad18c95827fbedd335988", "fusion_lon": 0.0, "bike_id": "d3bbcdc46ecad18c95827fbedd335988", "is_disabled": 0, "is_reserved": 0}, {"rental_uris": {"ios": "https://dc.lft.to/lastmile_qr_scan", "android": "https://dc.lft.to/lastmile_qr_scan"}, "lon": -77.02821433333334, "type": "electric_scooter", "fusion_lat": 0.0, "lat": 38.886554833333335, "name": "34f60182d470efe5d10ab00aad6e7b21", "fusion_lon": 0.0, "bike_id": "34f60182d470efe5d10ab00aad6e7b21", "is_disabled": 0, "is_reserved": 0}, {"rental_uris": {"ios": "https://dc.lft.to/lastmile_qr_scan", "android": "https://dc.lft.to/lastmile_qr_scan"}, "lon": -76.99000816666667, "type": "electric_scooter", "fusion_lat": 0.0, "lat": 38.865056333333335, "name": "8c9864ef779827710b83167399daec53", "fusion_lon": 0.0, "bike_id": "8c9864ef779827710b83167399daec53", "is_disabled": 0, "is_reserved": 0}, {"rental_uris": {"ios": "https://dc.lft.to/lastmile_qr_scan", "android": "https://dc.lft.to/lastmile_qr_scan"}, "lon": -76.94890583333333, "type": "electric_scooter", "fusion_lat": 0.0, "lat": 38.895278, "name": "81d1f5eeb60ba47eed0c2cf74a794f23", "fusion_lon": 0.0, "bike_id": "81d1f5eeb60ba47eed0c2cf74a794f23", "is_disabled": 0, "is_reserved": 0}, {"rental_uris": {"ios": "https://dc.lft.to/lastmile_qr_scan", "android": "https://dc.lft.to/lastmile_qr_scan"}, "lon": -77.02154533333334, "type": "electric_scooter", "fusion_lat": 0.0, "lat": 38.926026666666665, "name": "bbbaed3e397ab0ab35a3ed34e3364bb6", "fusion_lon": 0.0, "bike_id": "bbbaed3e397ab0ab35a3ed34e3364bb6", "is_disabled": 0, "is_reserved": 0}, {"rental_uris": {"ios": "https://dc.lft.to/lastmile_qr_scan", "android": "https://dc.lft.to/lastmile_qr_scan"}, "lon": -77.05437966666666, "type": "electric_scooter", "fusion_lat": 0.0, "lat": 38.9232935, "name": "c56c07dc9071cf77d8ed71f554916afa", "fusion_lon": 0.0, "bike_id": "c56c07dc9071cf77d8ed71f554916afa", "is_disabled": 0, "is_reserved": 0}, {"rental_uris": {"ios": "https://dc.lft.to/lastmile_qr_scan", "android": "https://dc.lft.to/lastmile_qr_scan"}, "lon": -77.02377433333334, "type": "electric_scooter", "fusion_lat": 0.0, "lat": 38.8948675, "name": "1b12eba764d29db2d09bc02304adf8e8", "fusion_lon": 0.0, "bike_id": "1b12eba764d29db2d09bc02304adf8e8", "is_disabled": 0, "is_reserved": 0}, {"rental_uris": {"ios": "https://dc.lft.to/lastmile_qr_scan", "android": "https://dc.lft.to/lastmile_qr_scan"}, "lon": -77.01969733333334, "type": "electric_bike", "fusion_lat": 0.0, "lat": 38.89175733333333, "name": "3524491c50c46fc317a763a8b3da4221", "fusion_lon": 0.0, "bike_id": "3524491c50c46fc317a763a8b3da4221", "is_disabled": 0, "is_reserved": 0}, {"rental_uris": {"ios": "https://dc.lft.to/lastmile_qr_scan", "android": "https://dc.lft.to/lastmile_qr_scan"}, "lon": -77.05285883333333, "type": "electric_scooter", "fusion_lat": 0.0, "lat": 38.918932, "name": "abf84654b90bac977d00b4f1647555b6", "fusion_lon": 0.0, "bike_id": "abf84654b90bac977d00b4f1647555b6", "is_disabled": 0, "is_reserved": 0}, {"rental_uris": {"ios": "https://dc.lft.to/lastmile_qr_scan", "android": "https://dc.lft.to/lastmile_qr_scan"}, "lon": -77.01675466666667, "type": "electric_scooter", "fusion_lat": 0.0, "lat": 38.90482216666667, "name": "922f4f7672f5bb3dee151e91d6cd67b2", "fusion_lon": 0.0, "bike_id": "922f4f7672f5bb3dee151e91d6cd67b2", "is_disabled": 0, "is_reserved": 0}, {"rental_uris": {"ios": "https://dc.lft.to/lastmile_qr_scan", "android": "https://dc.lft.to/lastmile_qr_scan"}, "lon": -77.01609583333334, "type": "electric_scooter", "fusion_lat": 0.0, "lat": 38.89968483333333, "name": "013f5efb27dd8e91e34969c3091b9922", "fusion_lon": 0.0, "bike_id": "013f5efb27dd8e91e34969c3091b9922", "is_disabled": 0, "is_reserved": 0}, {"rental_uris": {"ios": "https://dc.lft.to/lastmile_qr_scan", "android": "https://dc.lft.to/lastmile_qr_scan"}, "lon": -76.94993183333334, "type": "electric_scooter", "fusion_lat": 0.0, "lat": 38.893754333333334, "name": "1180a0047e392e2876e230b34acc6a23", "fusion_lon": 0.0, "bike_id": "1180a0047e392e2876e230b34acc6a23", "is_disabled": 0, "is_reserved": 0}, {"rental_uris": {"ios": "https://dc.lft.to/lastmile_qr_scan", "android": "https://dc.lft.to/lastmile_qr_scan"}, "lon": -77.182973, "type": "electric_bike", "fusion_lat": 0.0, "lat": 38.883471166666666, "name": "9da5ef6bf4472d54b6d16e1e9d98d2c4", "fusion_lon": 0.0, "bike_id": "9da5ef6bf4472d54b6d16e1e9d98d2c4", "is_disabled": 0, "is_reserved": 0}, {"rental_uris": {"ios": "https://dc.lft.to/lastmile_qr_scan", "android": "https://dc.lft.to/lastmile_qr_scan"}, "lon": -77.07142016666667, "type": "electric_scooter", "fusion_lat": 0.0, "lat": 38.92727283333333, "name": "8ba44b832b7a51d4fe76b8306e1b70bc", "fusion_lon": 0.0, "bike_id": "8ba44b832b7a51d4fe76b8306e1b70bc", "is_disabled": 0, "is_reserved": 0}, {"rental_uris": {"ios": "https://dc.lft.to/lastmile_qr_scan", "android": "https://dc.lft.to/lastmile_qr_scan"}, "lon": -77.08189466666667, "type": "electric_scooter", "fusion_lat": 0.0, "lat": 38.92011816666667, "name": "d3939e9abcb05605bbdee2ee3d6437e1", "fusion_lon": 0.0, "bike_id": "d3939e9abcb05605bbdee2ee3d6437e1", "is_disabled": 0, "is_reserved": 0}, {"rental_uris": {"ios": "https://dc.lft.to/lastmile_qr_scan", "android": "https://dc.lft.to/lastmile_qr_scan"}, "lon": -77.03325116666667, "type": "electric_scooter", "fusion_lat": 0.0, "lat": 38.90147316666667, "name": "c5bbfccbd3aaf4ae3f9d1269da56bbbf", "fusion_lon": 0.0, "bike_id": "c5bbfccbd3aaf4ae3f9d1269da56bbbf", "is_disabled": 0, "is_reserved": 0}, {"rental_uris": {"ios": "https://dc.lft.to/lastmile_qr_scan", "android": "https://dc.lft.to/lastmile_qr_scan"}, "lon": -76.97822, "type": "electric_scooter", "fusion_lat": 0.0, "lat": 38.89518116666667, "name": "7df0f769a7fb79103fe30e266ac1c4ac", "fusion_lon": 0.0, "bike_id": "7df0f769a7fb79103fe30e266ac1c4ac", "is_disabled": 0, "is_reserved": 0}, {"rental_uris": {"ios": "https://dc.lft.to/lastmile_qr_scan", "android": "https://dc.lft.to/lastmile_qr_scan"}, "lon": -76.9742845, "type": "electric_bike", "fusion_lat": 0.0, "lat": 38.93208533333333, "name": "4206e6bc380d072cfc08016c37f2ad5a", "fusion_lon": 0.0, "bike_id": "4206e6bc380d072cfc08016c37f2ad5a", "is_disabled": 0, "is_reserved": 0}, {"rental_uris": {"ios": "https://dc.lft.to/lastmile_qr_scan", "android": "https://dc.lft.to/lastmile_qr_scan"}, "lon": -77.04236166666666, "type": "electric_scooter", "fusion_lat": 0.0, "lat": 38.922119333333335, "name": "1303e1e526c5dbc8d2f3bf15c1e288a9", "fusion_lon": 0.0, "bike_id": "1303e1e526c5dbc8d2f3bf15c1e288a9", "is_disabled": 0, "is_reserved": 0}, {"rental_uris": {"ios": "https://dc.lft.to/lastmile_qr_scan", "android": "https://dc.lft.to/lastmile_qr_scan"}, "lon": -77.025073, "type": "electric_scooter", "fusion_lat": 0.0, "lat": 38.907309833333336, "name": "90e8afcf54620f6fb7023367b6293baf", "fusion_lon": 0.0, "bike_id": "90e8afcf54620f6fb7023367b6293baf", "is_disabled": 0, "is_reserved": 0}, {"rental_uris": {"ios": "https://dc.lft.to/lastmile_qr_scan", "android": "https://dc.lft.to/lastmile_qr_scan"}, "lon": -76.9980585, "type": "electric_bike", "fusion_lat": 0.0, "lat": 38.90853233333333, "name": "25b30c3c9b5c85652353b25fee26c1d4", "fusion_lon": 0.0, "bike_id": "25b30c3c9b5c85652353b25fee26c1d4", "is_disabled": 0, "is_reserved": 0}, {"rental_uris": {"ios": "https://dc.lft.to/lastmile_qr_scan", "android": "https://dc.lft.to/lastmile_qr_scan"}, "lon": -77.04999583333333, "type": "electric_scooter", "fusion_lat": 0.0, "lat": 38.90180766666667, "name": "38fdd2eafa570ac68d42e4744ece1305", "fusion_lon": 0.0, "bike_id": "38fdd2eafa570ac68d42e4744ece1305", "is_disabled": 0, "is_reserved": 0}, {"rental_uris": {"ios": "https://dc.lft.to/lastmile_qr_scan", "android": "https://dc.lft.to/lastmile_qr_scan"}, "lon": -77.02712133333333, "type": "electric_scooter", "fusion_lat": 0.0, "lat": 38.9181495, "name": "fe74b1a85136345718299ba9099ab839", "fusion_lon": 0.0, "bike_id": "fe74b1a85136345718299ba9099ab839", "is_disabled": 0, "is_reserved": 0}, {"rental_uris": {"ios": "https://dc.lft.to/lastmile_qr_scan", "android": "https://dc.lft.to/lastmile_qr_scan"}, "lon": -77.01585316666667, "type": "electric_scooter", "fusion_lat": 0.0, "lat": 38.916443, "name": "61fbf79a7ca2d7f1bfb6067cb182335e", "fusion_lon": 0.0, "bike_id": "61fbf79a7ca2d7f1bfb6067cb182335e", "is_disabled": 0, "is_reserved": 0}, {"rental_uris": {"ios": "https://dc.lft.to/lastmile_qr_scan", "android": "https://dc.lft.to/lastmile_qr_scan"}, "lon": -77.01413966666667, "type": "electric_scooter", "fusion_lat": 0.0, "lat": 38.915600833333336, "name": "6c572591bc236b24a0665b109f41fa02", "fusion_lon": 0.0, "bike_id": "6c572591bc236b24a0665b109f41fa02", "is_disabled": 0, "is_reserved": 0}, {"rental_uris": {"ios": "https://dc.lft.to/lastmile_qr_scan", "android": "https://dc.lft.to/lastmile_qr_scan"}, "lon": -77.02368683333333, "type": "electric_scooter", "fusion_lat": 0.0, "lat": 38.89512466666667, "name": "df905c34ee873a76c18557691d5ad384", "fusion_lon": 0.0, "bike_id": "df905c34ee873a76c18557691d5ad384", "is_disabled": 0, "is_reserved": 0}, {"rental_uris": {"ios": "https://dc.lft.to/lastmile_qr_scan", "android": "https://dc.lft.to/lastmile_qr_scan"}, "lon": -77.00918016666667, "type": "electric_scooter", "fusion_lat": 0.0, "lat": 38.910969, "name": "a47467a0b3954ad1bb0712f45ec6c9ad", "fusion_lon": 0.0, "bike_id": "a47467a0b3954ad1bb0712f45ec6c9ad", "is_disabled": 0, "is_reserved": 0}, {"rental_uris": {"ios": "https://dc.lft.to/lastmile_qr_scan", "android": "https://dc.lft.to/lastmile_qr_scan"}, "lon": -76.93099916666667, "type": "electric_scooter", "fusion_lat": 0.0, "lat": 38.901430833333336, "name": "ee71ac2840889fecd8dd6a9ed7c517fb", "fusion_lon": 0.0, "bike_id": "ee71ac2840889fecd8dd6a9ed7c517fb", "is_disabled": 0, "is_reserved": 0}, {"rental_uris": {"ios": "https://dc.lft.to/lastmile_qr_scan", "android": "https://dc.lft.to/lastmile_qr_scan"}, "lon": -77.0534935, "type": "electric_scooter", "fusion_lat": 0.0, "lat": 38.902590000000004, "name": "177b4c6d18ebd9a0b72a7b707bed7dd0", "fusion_lon": 0.0, "bike_id": "177b4c6d18ebd9a0b72a7b707bed7dd0", "is_disabled": 0, "is_reserved": 0}, {"rental_uris": {"ios": "https://dc.lft.to/lastmile_qr_scan", "android": "https://dc.lft.to/lastmile_qr_scan"}, "lon": -77.04831933333334, "type": "electric_scooter", "fusion_lat": 0.0, "lat": 38.92034566666667, "name": "8c6ab6df6f1b3754063b654ec4fafbde", "fusion_lon": 0.0, "bike_id": "8c6ab6df6f1b3754063b654ec4fafbde", "is_disabled": 0, "is_reserved": 0}, {"rental_uris": {"ios": "https://dc.lft.to/lastmile_qr_scan", "android": "https://dc.lft.to/lastmile_qr_scan"}, "lon": -76.997833, "type": "electric_scooter", "fusion_lat": 0.0, "lat": 38.90862683333334, "name": "f8bd87665a9fbdfbacbf6911bb8ce835", "fusion_lon": 0.0, "bike_id": "f8bd87665a9fbdfbacbf6911bb8ce835", "is_disabled": 0, "is_reserved": 0}, {"rental_uris": {"ios": "https://dc.lft.to/lastmile_qr_scan", "android": "https://dc.lft.to/lastmile_qr_scan"}, "lon": -77.02687933333333, "type": "electric_scooter", "fusion_lat": 0.0, "lat": 38.903555833333336, "name": "79a903e1b5e71cbe20070be04ee199a1", "fusion_lon": 0.0, "bike_id": "79a903e1b5e71cbe20070be04ee199a1", "is_disabled": 0, "is_reserved": 0}, {"rental_uris": {"ios": "https://dc.lft.to/lastmile_qr_scan", "android": "https://dc.lft.to/lastmile_qr_scan"}, "lon": -77.01964616666666, "type": "electric_scooter", "fusion_lat": 0.0, "lat": 38.93416216666667, "name": "8729cbd918a82faa3f3b0860a752a8fb", "fusion_lon": 0.0, "bike_id": "8729cbd918a82faa3f3b0860a752a8fb", "is_disabled": 0, "is_reserved": 0}, {"rental_uris": {"ios": "https://dc.lft.to/lastmile_qr_scan", "android": "https://dc.lft.to/lastmile_qr_scan"}, "lon": -77.023686, "type": "electric_scooter", "fusion_lat": 0.0, "lat": 38.895380333333335, "name": "6fdb845848ed832b78f9befeaaf8012e", "fusion_lon": 0.0, "bike_id": "6fdb845848ed832b78f9befeaaf8012e", "is_disabled": 0, "is_reserved": 0}, {"rental_uris": {"ios": "https://dc.lft.to/lastmile_qr_scan", "android": "https://dc.lft.to/lastmile_qr_scan"}, "lon": -77.03281, "type": "electric_scooter", "fusion_lat": 0.0, "lat": 38.939002, "name": "84fa372a112bb9422bc3d051d97f718c", "fusion_lon": 0.0, "bike_id": "84fa372a112bb9422bc3d051d97f718c", "is_disabled": 0, "is_reserved": 0}, {"rental_uris": {"ios": "https://dc.lft.to/lastmile_qr_scan", "android": "https://dc.lft.to/lastmile_qr_scan"}, "lon": -76.9816055, "type": "electric_scooter", "fusion_lat": 0.0, "lat": 38.93297283333333, "name": "c99887aae0559b8abd2292cb48b713cb", "fusion_lon": 0.0, "bike_id": "c99887aae0559b8abd2292cb48b713cb", "is_disabled": 0, "is_reserved": 0}, {"rental_uris": {"ios": "https://dc.lft.to/lastmile_qr_scan", "android": "https://dc.lft.to/lastmile_qr_scan"}, "lon": -77.039965, "type": "electric_scooter", "fusion_lat": 0.0, "lat": 38.917626166666665, "name": "ba0158c15289e64e3513ed99a0011d41", "fusion_lon": 0.0, "bike_id": "ba0158c15289e64e3513ed99a0011d41", "is_disabled": 0, "is_reserved": 0}, {"rental_uris": {"ios": "https://dc.lft.to/lastmile_qr_scan", "android": "https://dc.lft.to/lastmile_qr_scan"}, "lon": -76.98665816666667, "type": "electric_scooter", "fusion_lat": 0.0, "lat": 38.9072435, "name": "52e947a40d4a33449ab63a121e9e14a8", "fusion_lon": 0.0, "bike_id": "52e947a40d4a33449ab63a121e9e14a8", "is_disabled": 0, "is_reserved": 0}, {"rental_uris": {"ios": "https://dc.lft.to/lastmile_qr_scan", "android": "https://dc.lft.to/lastmile_qr_scan"}, "lon": -77.04677216666667, "type": "electric_scooter", "fusion_lat": 0.0, "lat": 38.90064983333333, "name": "ac584d2c50e6a88ac5c649aa5d709058", "fusion_lon": 0.0, "bike_id": "ac584d2c50e6a88ac5c649aa5d709058", "is_disabled": 0, "is_reserved": 0}, {"rental_uris": {"ios": "https://dc.lft.to/lastmile_qr_scan", "android": "https://dc.lft.to/lastmile_qr_scan"}, "lon": -77.0407185, "type": "electric_scooter", "fusion_lat": 0.0, "lat": 38.9265275, "name": "80af853f1e53a7ded6028b36b052f532", "fusion_lon": 0.0, "bike_id": "80af853f1e53a7ded6028b36b052f532", "is_disabled": 0, "is_reserved": 0}, {"rental_uris": {"ios": "https://dc.lft.to/lastmile_qr_scan", "android": "https://dc.lft.to/lastmile_qr_scan"}, "lon": -77.0411485, "type": "electric_scooter", "fusion_lat": 0.0, "lat": 38.9211995, "name": "fe7abb098717097224015fd3c9c26420", "fusion_lon": 0.0, "bike_id": "fe7abb098717097224015fd3c9c26420", "is_disabled": 0, "is_reserved": 0}, {"rental_uris": {"ios": "https://dc.lft.to/lastmile_qr_scan", "android": "https://dc.lft.to/lastmile_qr_scan"}, "lon": -77.0296985, "type": "electric_scooter", "fusion_lat": 0.0, "lat": 38.897225, "name": "a24bb2532c85ba051866049c36d59fe2", "fusion_lon": 0.0, "bike_id": "a24bb2532c85ba051866049c36d59fe2", "is_disabled": 0, "is_reserved": 0}, {"rental_uris": {"ios": "https://dc.lft.to/lastmile_qr_scan", "android": "https://dc.lft.to/lastmile_qr_scan"}, "lon": -76.90434766666667, "type": "electric_bike", "fusion_lat": 0.0, "lat": 38.89773683333333, "name": "bc45b3a4f1794cc6541e975cd9530ec4", "fusion_lon": 0.0, "bike_id": "bc45b3a4f1794cc6541e975cd9530ec4", "is_disabled": 0, "is_reserved": 0}, {"rental_uris": {"ios": "https://dc.lft.to/lastmile_qr_scan", "android": "https://dc.lft.to/lastmile_qr_scan"}, "lon": -77.04685883333333, "type": "electric_scooter", "fusion_lat": 0.0, "lat": 38.8922585, "name": "94197e68c28e2ade465a785890f849fc", "fusion_lon": 0.0, "bike_id": "94197e68c28e2ade465a785890f849fc", "is_disabled": 0, "is_reserved": 0}, {"rental_uris": {"ios": "https://dc.lft.to/lastmile_qr_scan", "android": "https://dc.lft.to/lastmile_qr_scan"}, "lon": -77.02201016666666, "type": "electric_scooter", "fusion_lat": 0.0, "lat": 38.930041333333335, "name": "1bc5258dab34aaf0f98d125db582e116", "fusion_lon": 0.0, "bike_id": "1bc5258dab34aaf0f98d125db582e116", "is_disabled": 0, "is_reserved": 0}, {"rental_uris": {"ios": "https://dc.lft.to/lastmile_qr_scan", "android": "https://dc.lft.to/lastmile_qr_scan"}, "lon": -77.031564, "type": "electric_scooter", "fusion_lat": 0.0, "lat": 38.89957016666666, "name": "5628cf8fd213c6d3a2caf8bd2c4e97b5", "fusion_lon": 0.0, "bike_id": "5628cf8fd213c6d3a2caf8bd2c4e97b5", "is_disabled": 0, "is_reserved": 0}, {"rental_uris": {"ios": "https://dc.lft.to/lastmile_qr_scan", "android": "https://dc.lft.to/lastmile_qr_scan"}, "lon": -76.96626483333333, "type": "electric_bike", "fusion_lat": 0.0, "lat": 38.942036, "name": "f700ea9cacfa643e3654f0983e8a7605", "fusion_lon": 0.0, "bike_id": "f700ea9cacfa643e3654f0983e8a7605", "is_disabled": 0, "is_reserved": 0}, {"rental_uris": {"ios": "https://dc.lft.to/lastmile_qr_scan", "android": "https://dc.lft.to/lastmile_qr_scan"}, "lon": -77.027849, "type": "electric_scooter", "fusion_lat": 0.0, "lat": 38.892238666666664, "name": "0c030dfe4042076e5665bec72139766e", "fusion_lon": 0.0, "bike_id": "0c030dfe4042076e5665bec72139766e", "is_disabled": 0, "is_reserved": 0}, {"rental_uris": {"ios": "https://dc.lft.to/lastmile_qr_scan", "android": "https://dc.lft.to/lastmile_qr_scan"}, "lon": -76.928894, "type": "electric_scooter", "fusion_lat": 0.0, "lat": 38.8932875, "name": "c531478220c833a512964b0c1e68a5ab", "fusion_lon": 0.0, "bike_id": "c531478220c833a512964b0c1e68a5ab", "is_disabled": 0, "is_reserved": 0}, {"rental_uris": {"ios": "https://dc.lft.to/lastmile_qr_scan", "android": "https://dc.lft.to/lastmile_qr_scan"}, "lon": -77.00118416666666, "type": "electric_scooter", "fusion_lat": 0.0, "lat": 38.90378716666667, "name": "c149e2305a216f362713d1568e6b98e6", "fusion_lon": 0.0, "bike_id": "c149e2305a216f362713d1568e6b98e6", "is_disabled": 0, "is_reserved": 0}, {"rental_uris": {"ios": "https://dc.lft.to/lastmile_qr_scan", "android": "https://dc.lft.to/lastmile_qr_scan"}, "lon": -77.0460725, "type": "electric_scooter", "fusion_lat": 0.0, "lat": 38.903868833333334, "name": "390c448407f895b58f6691bf586cc996", "fusion_lon": 0.0, "bike_id": "390c448407f895b58f6691bf586cc996", "is_disabled": 0, "is_reserved": 0}, {"rental_uris": {"ios": "https://dc.lft.to/lastmile_qr_scan", "android": "https://dc.lft.to/lastmile_qr_scan"}, "lon": -77.026998, "type": "electric_scooter", "fusion_lat": 0.0, "lat": 38.949806333333335, "name": "a62a9452b2df8c2bf29630bfeeb4554f", "fusion_lon": 0.0, "bike_id": "a62a9452b2df8c2bf29630bfeeb4554f", "is_disabled": 0, "is_reserved": 0}, {"rental_uris": {"ios": "https://dc.lft.to/lastmile_qr_scan", "android": "https://dc.lft.to/lastmile_qr_scan"}, "lon": -77.0087925, "type": "electric_scooter", "fusion_lat": 0.0, "lat": 38.87858333333333, "name": "72b96cad4b00b0134e8cdcb88cd9ecc2", "fusion_lon": 0.0, "bike_id": "72b96cad4b00b0134e8cdcb88cd9ecc2", "is_disabled": 0, "is_reserved": 0}, {"rental_uris": {"ios": "https://dc.lft.to/lastmile_qr_scan", "android": "https://dc.lft.to/lastmile_qr_scan"}, "lon": -77.03345666666667, "type": "electric_scooter", "fusion_lat": 0.0, "lat": 38.8854855, "name": "c18658cecdbf4b17c061ae398f790e79", "fusion_lon": 0.0, "bike_id": "c18658cecdbf4b17c061ae398f790e79", "is_disabled": 0, "is_reserved": 0}, {"rental_uris": {"ios": "https://dc.lft.to/lastmile_qr_scan", "android": "https://dc.lft.to/lastmile_qr_scan"}, "lon": -77.02223566666666, "type": "electric_scooter", "fusion_lat": 0.0, "lat": 38.89221, "name": "cdf42539cd9cca050fcf9eaa8f5e0ca4", "fusion_lon": 0.0, "bike_id": "cdf42539cd9cca050fcf9eaa8f5e0ca4", "is_disabled": 0, "is_reserved": 0}, {"rental_uris": {"ios": "https://dc.lft.to/lastmile_qr_scan", "android": "https://dc.lft.to/lastmile_qr_scan"}, "lon": -77.0317585, "type": "electric_scooter", "fusion_lat": 0.0, "lat": 38.912676166666664, "name": "0200d0538b85a3c971a5ea06d4cf76e3", "fusion_lon": 0.0, "bike_id": "0200d0538b85a3c971a5ea06d4cf76e3", "is_disabled": 0, "is_reserved": 0}, {"rental_uris": {"ios": "https://dc.lft.to/lastmile_qr_scan", "android": "https://dc.lft.to/lastmile_qr_scan"}, "lon": -77.031613, "type": "electric_scooter", "fusion_lat": 0.0, "lat": 38.883459, "name": "30618be25a9d0051941eeeb45216b6d5", "fusion_lon": 0.0, "bike_id": "30618be25a9d0051941eeeb45216b6d5", "is_disabled": 0, "is_reserved": 0}, {"rental_uris": {"ios": "https://dc.lft.to/lastmile_qr_scan", "android": "https://dc.lft.to/lastmile_qr_scan"}, "lon": -77.04264766666667, "type": "electric_scooter", "fusion_lat": 0.0, "lat": 38.895924, "name": "25cfae5c0da2a7858f1bb368b08b2422", "fusion_lon": 0.0, "bike_id": "25cfae5c0da2a7858f1bb368b08b2422", "is_disabled": 0, "is_reserved": 0}, {"rental_uris": {"ios": "https://dc.lft.to/lastmile_qr_scan", "android": "https://dc.lft.to/lastmile_qr_scan"}, "lon": -77.04644933333333, "type": "electric_scooter", "fusion_lat": 0.0, "lat": 38.9344485, "name": "9ac1c714da5c706083d1959c4826a765", "fusion_lon": 0.0, "bike_id": "9ac1c714da5c706083d1959c4826a765", "is_disabled": 0, "is_reserved": 0}, {"rental_uris": {"ios": "https://dc.lft.to/lastmile_qr_scan", "android": "https://dc.lft.to/lastmile_qr_scan"}, "lon": -77.0116565, "type": "electric_bike", "fusion_lat": 0.0, "lat": 38.872360666666665, "name": "bd896dcc0e400879ad11b808458f653a", "fusion_lon": 0.0, "bike_id": "bd896dcc0e400879ad11b808458f653a", "is_disabled": 0, "is_reserved": 0}, {"rental_uris": {"ios": "https://dc.lft.to/lastmile_qr_scan", "android": "https://dc.lft.to/lastmile_qr_scan"}, "lon": -77.04417033333333, "type": "electric_scooter", "fusion_lat": 0.0, "lat": 38.919771833333336, "name": "a3e3ee58ed26fc0b583f6dcf1686a019", "fusion_lon": 0.0, "bike_id": "a3e3ee58ed26fc0b583f6dcf1686a019", "is_disabled": 0, "is_reserved": 0}, {"rental_uris": {"ios": "https://dc.lft.to/lastmile_qr_scan", "android": "https://dc.lft.to/lastmile_qr_scan"}, "lon": -76.99374583333334, "type": "electric_scooter", "fusion_lat": 0.0, "lat": 38.87972633333333, "name": "52244813611fe57a4c23fc82c2769db4", "fusion_lon": 0.0, "bike_id": "52244813611fe57a4c23fc82c2769db4", "is_disabled": 0, "is_reserved": 0}, {"rental_uris": {"ios": "https://dc.lft.to/lastmile_qr_scan", "android": "https://dc.lft.to/lastmile_qr_scan"}, "lon": -77.0231725, "type": "electric_scooter", "fusion_lat": 0.0, "lat": 38.881977, "name": "5da9af0ff5141d17c06900019aef3eb3", "fusion_lon": 0.0, "bike_id": "5da9af0ff5141d17c06900019aef3eb3", "is_disabled": 0, "is_reserved": 0}, {"rental_uris": {"ios": "https://dc.lft.to/lastmile_qr_scan", "android": "https://dc.lft.to/lastmile_qr_scan"}, "lon": -77.02296316666667, "type": "electric_scooter", "fusion_lat": 0.0, "lat": 38.908879666666664, "name": "05dd9d7566598036b87f8bbe23d3e753", "fusion_lon": 0.0, "bike_id": "05dd9d7566598036b87f8bbe23d3e753", "is_disabled": 0, "is_reserved": 0}, {"rental_uris": {"ios": "https://dc.lft.to/lastmile_qr_scan", "android": "https://dc.lft.to/lastmile_qr_scan"}, "lon": -77.041589, "type": "electric_scooter", "fusion_lat": 0.0, "lat": 38.899573, "name": "95be8811ca3c134755f439075ccc89d9", "fusion_lon": 0.0, "bike_id": "95be8811ca3c134755f439075ccc89d9", "is_disabled": 0, "is_reserved": 0}, {"rental_uris": {"ios": "https://dc.lft.to/lastmile_qr_scan", "android": "https://dc.lft.to/lastmile_qr_scan"}, "lon": -76.97312116666667, "type": "electric_bike", "fusion_lat": 0.0, "lat": 38.917592, "name": "ce2cdb15f327fb956b162c906a5af69b", "fusion_lon": 0.0, "bike_id": "ce2cdb15f327fb956b162c906a5af69b", "is_disabled": 0, "is_reserved": 0}, {"rental_uris": {"ios": "https://dc.lft.to/lastmile_qr_scan", "android": "https://dc.lft.to/lastmile_qr_scan"}, "lon": -77.04550133333333, "type": "electric_scooter", "fusion_lat": 0.0, "lat": 38.90726983333333, "name": "b629540a844aa087a0688624bd130299", "fusion_lon": 0.0, "bike_id": "b629540a844aa087a0688624bd130299", "is_disabled": 0, "is_reserved": 0}, {"rental_uris": {"ios": "https://dc.lft.to/lastmile_qr_scan", "android": "https://dc.lft.to/lastmile_qr_scan"}, "lon": -77.07709333333334, "type": "electric_scooter", "fusion_lat": 0.0, "lat": 38.9561465, "name": "2d21ff23ac330577dbee3e1e76624bd7", "fusion_lon": 0.0, "bike_id": "2d21ff23ac330577dbee3e1e76624bd7", "is_disabled": 0, "is_reserved": 0}, {"rental_uris": {"ios": "https://dc.lft.to/lastmile_qr_scan", "android": "https://dc.lft.to/lastmile_qr_scan"}, "lon": -77.005219, "type": "electric_scooter", "fusion_lat": 0.0, "lat": 38.929052166666665, "name": "59bb6bc31b3c00fef4e32e5ddb51c567", "fusion_lon": 0.0, "bike_id": "59bb6bc31b3c00fef4e32e5ddb51c567", "is_disabled": 0, "is_reserved": 0}, {"rental_uris": {"ios": "https://dc.lft.to/lastmile_qr_scan", "android": "https://dc.lft.to/lastmile_qr_scan"}, "lon": -76.98706183333333, "type": "electric_scooter", "fusion_lat": 0.0, "lat": 38.86539616666666, "name": "bf33bd6c8466cb8b7d222d74e7d7d1b1", "fusion_lon": 0.0, "bike_id": "bf33bd6c8466cb8b7d222d74e7d7d1b1", "is_disabled": 0, "is_reserved": 0}, {"rental_uris": {"ios": "https://dc.lft.to/lastmile_qr_scan", "android": "https://dc.lft.to/lastmile_qr_scan"}, "lon": -77.035371, "type": "electric_scooter", "fusion_lat": 0.0, "lat": 38.91808416666667, "name": "dae3947882bb982e62bdd90658e63419", "fusion_lon": 0.0, "bike_id": "dae3947882bb982e62bdd90658e63419", "is_disabled": 0, "is_reserved": 0}, {"rental_uris": {"ios": "https://dc.lft.to/lastmile_qr_scan", "android": "https://dc.lft.to/lastmile_qr_scan"}, "lon": -77.03759433333333, "type": "electric_scooter", "fusion_lat": 0.0, "lat": 38.92905366666667, "name": "e88cf8beadcb7a82e2fd8c1700a16479", "fusion_lon": 0.0, "bike_id": "e88cf8beadcb7a82e2fd8c1700a16479", "is_disabled": 0, "is_reserved": 0}, {"rental_uris": {"ios": "https://dc.lft.to/lastmile_qr_scan", "android": "https://dc.lft.to/lastmile_qr_scan"}, "lon": -77.03306583333334, "type": "electric_scooter", "fusion_lat": 0.0, "lat": 38.90031, "name": "98e5e62b881f2da070ef970dd263f181", "fusion_lon": 0.0, "bike_id": "98e5e62b881f2da070ef970dd263f181", "is_disabled": 0, "is_reserved": 0}, {"rental_uris": {"ios": "https://dc.lft.to/lastmile_qr_scan", "android": "https://dc.lft.to/lastmile_qr_scan"}, "lon": -77.03204016666666, "type": "electric_scooter", "fusion_lat": 0.0, "lat": 38.899629833333336, "name": "34273d11c9fc262dec6f97c413eb5e9d", "fusion_lon": 0.0, "bike_id": "34273d11c9fc262dec6f97c413eb5e9d", "is_disabled": 0, "is_reserved": 0}, {"rental_uris": {"ios": "https://dc.lft.to/lastmile_qr_scan", "android": "https://dc.lft.to/lastmile_qr_scan"}, "lon": -77.01180333333333, "type": "electric_scooter", "fusion_lat": 0.0, "lat": 38.900376666666666, "name": "21a7c35da293370163b2fbec2e1bf200", "fusion_lon": 0.0, "bike_id": "21a7c35da293370163b2fbec2e1bf200", "is_disabled": 0, "is_reserved": 0}, {"rental_uris": {"ios": "https://dc.lft.to/lastmile_qr_scan", "android": "https://dc.lft.to/lastmile_qr_scan"}, "lon": -76.99485816666666, "type": "electric_scooter", "fusion_lat": 0.0, "lat": 38.86219216666667, "name": "7d441034194c28133e3d90001701e97a", "fusion_lon": 0.0, "bike_id": "7d441034194c28133e3d90001701e97a", "is_disabled": 0, "is_reserved": 0}, {"rental_uris": {"ios": "https://dc.lft.to/lastmile_qr_scan", "android": "https://dc.lft.to/lastmile_qr_scan"}, "lon": -76.98683033333333, "type": "electric_scooter", "fusion_lat": 0.0, "lat": 38.8821645, "name": "934a4f7b1c5928391292e4cff84c0fb9", "fusion_lon": 0.0, "bike_id": "934a4f7b1c5928391292e4cff84c0fb9", "is_disabled": 0, "is_reserved": 0}, {"rental_uris": {"ios": "https://dc.lft.to/lastmile_qr_scan", "android": "https://dc.lft.to/lastmile_qr_scan"}, "lon": -77.03351883333333, "type": "electric_bike", "fusion_lat": 0.0, "lat": 38.96809116666667, "name": "e31b1b5d17c396e1e8bfe5cd271c2152", "fusion_lon": 0.0, "bike_id": "e31b1b5d17c396e1e8bfe5cd271c2152", "is_disabled": 0, "is_reserved": 0}, {"rental_uris": {"ios": "https://dc.lft.to/lastmile_qr_scan", "android": "https://dc.lft.to/lastmile_qr_scan"}, "lon": -77.027125, "type": "electric_scooter", "fusion_lat": 0.0, "lat": 38.92487833333333, "name": "2cdcd84a2535c5df3a802cc5eef630ca", "fusion_lon": 0.0, "bike_id": "2cdcd84a2535c5df3a802cc5eef630ca", "is_disabled": 0, "is_reserved": 0}, {"rental_uris": {"ios": "https://dc.lft.to/lastmile_qr_scan", "android": "https://dc.lft.to/lastmile_qr_scan"}, "lon": -77.0503165, "type": "electric_scooter", "fusion_lat": 0.0, "lat": 38.900764, "name": "c77bef51c11aee976d58a1dc13b6c8e2", "fusion_lon": 0.0, "bike_id": "c77bef51c11aee976d58a1dc13b6c8e2", "is_disabled": 0, "is_reserved": 0}, {"rental_uris": {"ios": "https://dc.lft.to/lastmile_qr_scan", "android": "https://dc.lft.to/lastmile_qr_scan"}, "lon": -77.02935166666667, "type": "electric_scooter", "fusion_lat": 0.0, "lat": 38.89533816666667, "name": "ac09b95c594ff8e29d3a18a9d70e3665", "fusion_lon": 0.0, "bike_id": "ac09b95c594ff8e29d3a18a9d70e3665", "is_disabled": 0, "is_reserved": 0}, {"rental_uris": {"ios": "https://dc.lft.to/lastmile_qr_scan", "android": "https://dc.lft.to/lastmile_qr_scan"}, "lon": -77.03123333333333, "type": "electric_scooter", "fusion_lat": 0.0, "lat": 38.8997255, "name": "c2531fa2c1a03a6ba1235ec76cc2232c", "fusion_lon": 0.0, "bike_id": "c2531fa2c1a03a6ba1235ec76cc2232c", "is_disabled": 0, "is_reserved": 0}, {"rental_uris": {"ios": "https://dc.lft.to/lastmile_qr_scan", "android": "https://dc.lft.to/lastmile_qr_scan"}, "lon": -77.028935, "type": "electric_scooter", "fusion_lat": 0.0, "lat": 38.925789, "name": "0a1dd4849ef630f2ed42faf04bd26fa9", "fusion_lon": 0.0, "bike_id": "0a1dd4849ef630f2ed42faf04bd26fa9", "is_disabled": 0, "is_reserved": 0}, {"rental_uris": {"ios": "https://dc.lft.to/lastmile_qr_scan", "android": "https://dc.lft.to/lastmile_qr_scan"}, "lon": -77.031202, "type": "electric_scooter", "fusion_lat": 0.0, "lat": 38.91339516666667, "name": "9e05bf4629cfd64bb26c0c2c0f0a4c71", "fusion_lon": 0.0, "bike_id": "9e05bf4629cfd64bb26c0c2c0f0a4c71", "is_disabled": 0, "is_reserved": 0}, {"rental_uris": {"ios": "https://dc.lft.to/lastmile_qr_scan", "android": "https://dc.lft.to/lastmile_qr_scan"},