{"data": {"bikes": [{"lon": -77.0345805, "bike_id": "3fa3c0e84c22a847501fc6ed97fa6429", "lat": 38.9343295, "fusion_lon": 0.0, "fusion_lat": 0.0, "type": "electric_scooter", "name": "3fa3c0e84c22a847501fc6ed97fa6429", "is_disabled": 0, "rental_uris": {"ios": "https://dc.lft.to/lastmile_qr_scan", "android": "https://dc.lft.to/lastmile_qr_scan"}, "is_reserved": 0}, {"lon": -77.03444016666667, "bike_id": "6e8c953e456068d0e90a8f4ed00e03b7", "lat": 38.90950733333333, "fusion_lon": 0.0, "fusion_lat": 0.0, "type": "electric_scooter", "name": "6e8c953e456068d0e90a8f4ed00e03b7", "is_disabled": 0, "rental_uris": {"ios": "https://dc.lft.to/lastmile_qr_scan", "android": "https://dc.lft.to/lastmile_qr_scan"}, "is_reserved": 0}, {"lon": -76.99684216666667, "bike_id": "edd9a010cef5f7fa2ea034cefc7e007b", "lat": 38.881237166666665, "fusion_lon": 0.0, "fusion_lat": 0.0, "type": "electric_scooter", "name": "edd9a010cef5f7fa2ea034cefc7e007b", "is_disabled": 0, "rental_uris": {"ios": "https://dc.lft.to/lastmile_qr_scan", "android": "https://dc.lft.to/lastmile_qr_scan"}, "is_reserved": 0}, {"lon": -77.01249883333334, "bike_id": "13c34395e3780911e401a54c8ac23a21", "lat": 38.915726166666666, "fusion_lon": 0.0, "fusion_lat": 0.0, "type": "electric_scooter", "name": "13c34395e3780911e401a54c8ac23a21", "is_disabled": 0, "rental_uris": {"ios": "https://dc.lft.to/lastmile_qr_scan", "android": "https://dc.lft.to/lastmile_qr_scan"}, "is_reserved": 0}, {"lon": -77.02000516666666, "bike_id": "36f3e007e27236d2df0c9aa5211ba40a", "lat": 38.911368333333336, "fusion_lon": 0.0, "fusion_lat": 0.0, "type": "electric_scooter", "name": "36f3e007e27236d2df0c9aa5211ba40a", "is_disabled": 0, "rental_uris": {"ios": "https://dc.lft.to/lastmile_qr_scan", "android": "https://dc.lft.to/lastmile_qr_scan"}, "is_reserved": 0}, {"lon": -77.03442616666666, "bike_id": "be135d5f9969f33bd2c42ab1608a8ae8", "lat": 38.916576666666664, "fusion_lon": 0.0, "fusion_lat": 0.0, "type": "electric_scooter", "name": "be135d5f9969f33bd2c42ab1608a8ae8", "is_disabled": 0, "rental_uris": {"ios": "https://dc.lft.to/lastmile_qr_scan", "android": "https://dc.lft.to/lastmile_qr_scan"}, "is_reserved": 0}, {"lon": -77.0298155, "bike_id": "606746b9f800ffd8aa523daff5d7bb54", "lat": 38.92193066666667, "fusion_lon": 0.0, "fusion_lat": 0.0, "type": "electric_scooter", "name": "606746b9f800ffd8aa523daff5d7bb54", "is_disabled": 0, "rental_uris": {"ios": "https://dc.lft.to/lastmile_qr_scan", "android": "https://dc.lft.to/lastmile_qr_scan"}, "is_reserved": 0}, {"lon": -77.04834783333334, "bike_id": "d835e236eedd04594883a5b70d2cbd7a", "lat": 38.8974285, "fusion_lon": 0.0, "fusion_lat": 0.0, "type": "electric_scooter", "name": "d835e236eedd04594883a5b70d2cbd7a", "is_disabled": 0, "rental_uris": {"ios": "https://dc.lft.to/lastmile_qr_scan", "android": "https://dc.lft.to/lastmile_qr_scan"}, "is_reserved": 0}, {"lon": -77.0450415, "bike_id": "0237a2160da86103c23185e019ef3328", "lat": 38.91113933333333, "fusion_lon": 0.0, "fusion_lat": 0.0, "type": "electric_scooter", "name": "0237a2160da86103c23185e019ef3328", "is_disabled": 0, "rental_uris": {"ios": "https://dc.lft.to/lastmile_qr_scan", "android": "https://dc.lft.to/lastmile_qr_scan"}, "is_reserved": 0}, {"lon": -77.0119205, "bike_id": "8af080f9fb3f173466bcdb1063703695", "lat": 38.90026316666667, "fusion_lon": 0.0, "fusion_lat": 0.0, "type": "electric_scooter", "name": "8af080f9fb3f173466bcdb1063703695", "is_disabled": 0, "rental_uris": {"ios": "https://dc.lft.to/lastmile_qr_scan", "android": "https://dc.lft.to/lastmile_qr_scan"}, "is_reserved": 0}, {"lon": -77.02379983333333, "bike_id": "f4c48a819f60f6844a8b8913bb256ac7", "lat": 38.90961183333334, "fusion_lon": 0.0, "fusion_lat": 0.0, "type": "electric_scooter", "name": "f4c48a819f60f6844a8b8913bb256ac7", "is_disabled": 0, "rental_uris": {"ios": "https://dc.lft.to/lastmile_qr_scan", "android": "https://dc.lft.to/lastmile_qr_scan"}, "is_reserved": 0}, {"lon": -77.02190966666667, "bike_id": "fc5005f6859aef4c970e942cb5db4d87", "lat": 38.9105395, "fusion_lon": 0.0, "fusion_lat": 0.0, "type": "electric_scooter", "name": "fc5005f6859aef4c970e942cb5db4d87", "is_disabled": 0, "rental_uris": {"ios": "https://dc.lft.to/lastmile_qr_scan", "android": "https://dc.lft.to/lastmile_qr_scan"}, "is_reserved": 0}, {"lon": -77.04989783333333, "bike_id": "014015dc71e8563103a7fdbfba1a69e1", "lat": 38.8960935, "fusion_lon": 0.0, "fusion_lat": 0.0, "type": "electric_scooter", "name": "014015dc71e8563103a7fdbfba1a69e1", "is_disabled": 0, "rental_uris": {"ios": "https://dc.lft.to/lastmile_qr_scan", "android": "https://dc.lft.to/lastmile_qr_scan"}, "is_reserved": 0}, {"lon": -77.01616483333333, "bike_id": "ae31cc28e1adf0f4897f182ddc1ed085", "lat": 38.89950533333333, "fusion_lon": 0.0, "fusion_lat": 0.0, "type": "electric_scooter", "name": "ae31cc28e1adf0f4897f182ddc1ed085", "is_disabled": 0, "rental_uris": {"ios": "https://dc.lft.to/lastmile_qr_scan", "android": "https://dc.lft.to/lastmile_qr_scan"}, "is_reserved": 0}, {"lon": -76.99174433333333, "bike_id": "21be9e9e0067d445543e5d265535782a", "lat": 38.88993766666667, "fusion_lon": 0.0, "fusion_lat": 0.0, "type": "electric_scooter", "name": "21be9e9e0067d445543e5d265535782a", "is_disabled": 0, "rental_uris": {"ios": "https://dc.lft.to/lastmile_qr_scan", "android": "https://dc.lft.to/lastmile_qr_scan"}, "is_reserved": 0}, {"lon": -77.050429, "bike_id": "93973b906a678ed354fa7594c42c56dc", "lat": 38.923969666666665, "fusion_lon": 0.0, "fusion_lat": 0.0, "type": "electric_scooter", "name": "93973b906a678ed354fa7594c42c56dc", "is_disabled": 0, "rental_uris": {"ios": "https://dc.lft.to/lastmile_qr_scan", "android": "https://dc.lft.to/lastmile_qr_scan"}, "is_reserved": 0}, {"lon": -77.009739, "bike_id": "82ddccfc33ce7987c6e9faa77ab101de", "lat": 38.911844333333335, "fusion_lon": 0.0, "fusion_lat": 0.0, "type": "electric_scooter", "name": "82ddccfc33ce7987c6e9faa77ab101de", "is_disabled": 0, "rental_uris": {"ios": "https://dc.lft.to/lastmile_qr_scan", "android": "https://dc.lft.to/lastmile_qr_scan"}, "is_reserved": 0}, {"lon": -76.99652216666667, "bike_id": "9ab3f3829d09f2fd40f631faee11d87d", "lat": 38.988281666666666, "fusion_lon": 0.0, "fusion_lat": 0.0, "type": "electric_bike", "name": "9ab3f3829d09f2fd40f631faee11d87d", "is_disabled": 0, "rental_uris": {"ios": "https://dc.lft.to/lastmile_qr_scan", "android": "https://dc.lft.to/lastmile_qr_scan"}, "is_reserved": 0}, {"lon": -77.03539916666666, "bike_id": "188d65c418991ca78c025711bfb1339f", "lat": 38.92407883333333, "fusion_lon": 0.0, "fusion_lat": 0.0, "type": "electric_scooter", "name": "188d65c418991ca78c025711bfb1339f", "is_disabled": 0, "rental_uris": {"ios": "https://dc.lft.to/lastmile_qr_scan", "android": "https://dc.lft.to/lastmile_qr_scan"}, "is_reserved": 0}, {"lon": -76.9815765, "bike_id": "ba0730194984f918e6cd32613ed2a28f", "lat": 38.925694, "fusion_lon": 0.0, "fusion_lat": 0.0, "type": "electric_scooter", "name": "ba0730194984f918e6cd32613ed2a28f", "is_disabled": 0, "rental_uris": {"ios": "https://dc.lft.to/lastmile_qr_scan", "android": "https://dc.lft.to/lastmile_qr_scan"}, "is_reserved": 0}, {"lon": -77.03263816666667, "bike_id": "61a58c44caa0ae31f01ce537104ed5d8", "lat": 38.909845833333335, "fusion_lon": 0.0, "fusion_lat": 0.0, "type": "electric_scooter", "name": "61a58c44caa0ae31f01ce537104ed5d8", "is_disabled": 0, "rental_uris": {"ios": "https://dc.lft.to/lastmile_qr_scan", "android": "https://dc.lft.to/lastmile_qr_scan"}, "is_reserved": 0}, {"lon": -77.025864, "bike_id": "bb1ef98e52f5275f50628c663667dc77", "lat": 38.892301833333335, "fusion_lon": 0.0, "fusion_lat": 0.0, "type": "electric_scooter", "name": "bb1ef98e52f5275f50628c663667dc77", "is_disabled": 0, "rental_uris": {"ios": "https://dc.lft.to/lastmile_qr_scan", "android": "https://dc.lft.to/lastmile_qr_scan"}, "is_reserved": 0}, {"lon": -77.02283233333333, "bike_id": "90d4c4b32e660fa8f244b2335025aafd", "lat": 38.92685266666667, "fusion_lon": 0.0, "fusion_lat": 0.0, "type": "electric_scooter", "name": "90d4c4b32e660fa8f244b2335025aafd", "is_disabled": 0, "rental_uris": {"ios": "https://dc.lft.to/lastmile_qr_scan", "android": "https://dc.lft.to/lastmile_qr_scan"}, "is_reserved": 0}, {"lon": -77.00742766666667, "bike_id": "d8f7418e6b4ed82284f9f5acf95ef6fc", "lat": 38.89837466666667, "fusion_lon": 0.0, "fusion_lat": 0.0, "type": "electric_scooter", "name": "d8f7418e6b4ed82284f9f5acf95ef6fc", "is_disabled": 0, "rental_uris": {"ios": "https://dc.lft.to/lastmile_qr_scan", "android": "https://dc.lft.to/lastmile_qr_scan"}, "is_reserved": 0}, {"lon": -77.05046066666667, "bike_id": "3dd3e31c051022db0f5461d5d77f54e7", "lat": 38.923841, "fusion_lon": 0.0, "fusion_lat": 0.0, "type": "electric_scooter", "name": "3dd3e31c051022db0f5461d5d77f54e7", "is_disabled": 0, "rental_uris": {"ios": "https://dc.lft.to/lastmile_qr_scan", "android": "https://dc.lft.to/lastmile_qr_scan"}, "is_reserved": 0}, {"lon": -77.0225735, "bike_id": "7b74e2e1aba83edaf8669b52ca74a1b9", "lat": 38.925237833333334, "fusion_lon": 0.0, "fusion_lat": 0.0, "type": "electric_scooter", "name": "7b74e2e1aba83edaf8669b52ca74a1b9", "is_disabled": 0, "rental_uris": {"ios": "https://dc.lft.to/lastmile_qr_scan", "android": "https://dc.lft.to/lastmile_qr_scan"}, "is_reserved": 0}, {"lon": -77.13243133333333, "bike_id": "49ead38e9de17daf3f1bf3382d20ac6e", "lat": 38.8057195, "fusion_lon": 0.0, "fusion_lat": 0.0, "type": "electric_bike", "name": "49ead38e9de17daf3f1bf3382d20ac6e", "is_disabled": 0, "rental_uris": {"ios": "https://dc.lft.to/lastmile_qr_scan", "android": "https://dc.lft.to/lastmile_qr_scan"}, "is_reserved": 0}, {"lon": -76.9499445, "bike_id": "f3bdb3c1857cc5c23fc1b7cc29674784", "lat": 38.89370916666667, "fusion_lon": 0.0, "fusion_lat": 0.0, "type": "electric_scooter", "name": "f3bdb3c1857cc5c23fc1b7cc29674784", "is_disabled": 0, "rental_uris": {"ios": "https://dc.lft.to/lastmile_qr_scan", "android": "https://dc.lft.to/lastmile_qr_scan"}, "is_reserved": 0}, {"lon": -77.07595166666667, "bike_id": "945e305ce1b34b7f83c0ea8789536604", "lat": 38.9121855, "fusion_lon": 0.0, "fusion_lat": 0.0, "type": "electric_scooter", "name": "945e305ce1b34b7f83c0ea8789536604", "is_disabled": 0, "rental_uris": {"ios": "https://dc.lft.to/lastmile_qr_scan", "android": "https://dc.lft.to/lastmile_qr_scan"}, "is_reserved": 0}, {"lon": -77.02018816666667, "bike_id": "3b9c6158dfcfe05867df9343e79b1214", "lat": 38.8971305, "fusion_lon": 0.0, "fusion_lat": 0.0, "type": "electric_scooter", "name": "3b9c6158dfcfe05867df9343e79b1214", "is_disabled": 0, "rental_uris": {"ios": "https://dc.lft.to/lastmile_qr_scan", "android": "https://dc.lft.to/lastmile_qr_scan"}, "is_reserved": 0}, {"lon": -77.04091566666666, "bike_id": "87575666809d41c2b0e90facce8d5d92", "lat": 38.905802, "fusion_lon": 0.0, "fusion_lat": 0.0, "type": "electric_scooter", "name": "87575666809d41c2b0e90facce8d5d92", "is_disabled": 0, "rental_uris": {"ios": "https://dc.lft.to/lastmile_qr_scan", "android": "https://dc.lft.to/lastmile_qr_scan"}, "is_reserved": 0}, {"lon": -77.02763266666666, "bike_id": "05d3e803ce0d3f4b2f96207a3cf66a1f", "lat": 38.95424083333333, "fusion_lon": 0.0, "fusion_lat": 0.0, "type": "electric_scooter", "name": "05d3e803ce0d3f4b2f96207a3cf66a1f", "is_disabled": 0, "rental_uris": {"ios": "https://dc.lft.to/lastmile_qr_scan", "android": "https://dc.lft.to/lastmile_qr_scan"}, "is_reserved": 0}, {"lon": -77.02468016666667, "bike_id": "93fb1dcd7b3615ceef88d06bf4d5eb0c", "lat": 38.90405066666667, "fusion_lon": 0.0, "fusion_lat": 0.0, "type": "electric_scooter", "name": "93fb1dcd7b3615ceef88d06bf4d5eb0c", "is_disabled": 0, "rental_uris": {"ios": "https://dc.lft.to/lastmile_qr_scan", "android": "https://dc.lft.to/lastmile_qr_scan"}, "is_reserved": 0}, {"lon": -77.037591, "bike_id": "8a6ff0276505a62bc5b446b09c8cd855", "lat": 38.91190366666667, "fusion_lon": 0.0, "fusion_lat": 0.0, "type": "electric_scooter", "name": "8a6ff0276505a62bc5b446b09c8cd855", "is_disabled": 0, "rental_uris": {"ios": "https://dc.lft.to/lastmile_qr_scan", "android": "https://dc.lft.to/lastmile_qr_scan"}, "is_reserved": 0}, {"lon": -77.016412, "bike_id": "f06fedb1f2c129cf7574de8ba07cbe21", "lat": 38.88123683333333, "fusion_lon": 0.0, "fusion_lat": 0.0, "type": "electric_scooter", "name": "f06fedb1f2c129cf7574de8ba07cbe21", "is_disabled": 0, "rental_uris": {"ios": "https://dc.lft.to/lastmile_qr_scan", "android": "https://dc.lft.to/lastmile_qr_scan"}, "is_reserved": 0}, {"lon": -77.04520783333334, "bike_id": "a43b4ce702a6bb7fe2a34c179d54e1e9", "lat": 38.915995333333335, "fusion_lon": 0.0, "fusion_lat": 0.0, "type": "electric_scooter", "name": "a43b4ce702a6bb7fe2a34c179d54e1e9", "is_disabled": 0, "rental_uris": {"ios": "https://dc.lft.to/lastmile_qr_scan", "android": "https://dc.lft.to/lastmile_qr_scan"}, "is_reserved": 0}, {"lon": -77.051108, "bike_id": "ba220ca2dde8836620d97cf85842bbbe", "lat": 38.9230605, "fusion_lon": 0.0, "fusion_lat": 0.0, "type": "electric_scooter", "name": "ba220ca2dde8836620d97cf85842bbbe", "is_disabled": 0, "rental_uris": {"ios": "https://dc.lft.to/lastmile_qr_scan", "android": "https://dc.lft.to/lastmile_qr_scan"}, "is_reserved": 0}, {"lon": -77.05465133333334, "bike_id": "23121fc3fdfd7d05de7d5031dea42c79", "lat": 38.89794116666667, "fusion_lon": 0.0, "fusion_lat": 0.0, "type": "electric_scooter", "name": "23121fc3fdfd7d05de7d5031dea42c79", "is_disabled": 0, "rental_uris": {"ios": "https://dc.lft.to/lastmile_qr_scan", "android": "https://dc.lft.to/lastmile_qr_scan"}, "is_reserved": 0}, {"lon": -77.0384425, "bike_id": "e63affb00c468152d1b7edaf5ef5b222", "lat": 38.91021833333333, "fusion_lon": 0.0, "fusion_lat": 0.0, "type": "electric_scooter", "name": "e63affb00c468152d1b7edaf5ef5b222", "is_disabled": 0, "rental_uris": {"ios": "https://dc.lft.to/lastmile_qr_scan", "android": "https://dc.lft.to/lastmile_qr_scan"}, "is_reserved": 0}, {"lon": -77.00664383333333, "bike_id": "0b3f10225d6cdc38a4eaeca95b60d129", "lat": 38.88080016666667, "fusion_lon": 0.0, "fusion_lat": 0.0, "type": "electric_scooter", "name": "0b3f10225d6cdc38a4eaeca95b60d129", "is_disabled": 0, "rental_uris": {"ios": "https://dc.lft.to/lastmile_qr_scan", "android": "https://dc.lft.to/lastmile_qr_scan"}, "is_reserved": 0}, {"lon": -77.02617516666666, "bike_id": "7bbcaaa6d63f903a39eec89e36747883", "lat": 38.929876666666665, "fusion_lon": 0.0, "fusion_lat": 0.0, "type": "electric_scooter", "name": "7bbcaaa6d63f903a39eec89e36747883", "is_disabled": 0, "rental_uris": {"ios": "https://dc.lft.to/lastmile_qr_scan", "android": "https://dc.lft.to/lastmile_qr_scan"}, "is_reserved": 0}, {"lon": -77.0159235, "bike_id": "21b41a737cc718966b11d7fae40421bd", "lat": 38.87211933333333, "fusion_lon": 0.0, "fusion_lat": 0.0, "type": "electric_scooter", "name": "21b41a737cc718966b11d7fae40421bd", "is_disabled": 0, "rental_uris": {"ios": "https://dc.lft.to/lastmile_qr_scan", "android": "https://dc.lft.to/lastmile_qr_scan"}, "is_reserved": 0}, {"lon": -77.03336483333334, "bike_id": "3e5bc23a4c6ad20bb555a5bf3551d00e", "lat": 38.8984275, "fusion_lon": 0.0, "fusion_lat": 0.0, "type": "electric_scooter", "name": "3e5bc23a4c6ad20bb555a5bf3551d00e", "is_disabled": 0, "rental_uris": {"ios": "https://dc.lft.to/lastmile_qr_scan", "android": "https://dc.lft.to/lastmile_qr_scan"}, "is_reserved": 0}, {"lon": -77.02797466666667, "bike_id": "aa1e9a54693b854f6823c12a274b0c77", "lat": 38.96218733333333, "fusion_lon": 0.0, "fusion_lat": 0.0, "type": "electric_scooter", "name": "aa1e9a54693b854f6823c12a274b0c77", "is_disabled": 0, "rental_uris": {"ios": "https://dc.lft.to/lastmile_qr_scan", "android": "https://dc.lft.to/lastmile_qr_scan"}, "is_reserved": 0}, {"lon": -77.04338116666666, "bike_id": "e83b90e1fe278ea705f09fe940c05747", "lat": 38.907981, "fusion_lon": 0.0, "fusion_lat": 0.0, "type": "electric_scooter", "name": "e83b90e1fe278ea705f09fe940c05747", "is_disabled": 0, "rental_uris": {"ios": "https://dc.lft.to/lastmile_qr_scan", "android": "https://dc.lft.to/lastmile_qr_scan"}, "is_reserved": 0}, {"lon": -77.02149583333333, "bike_id": "666cab2111e6bc4ff1cd81640f0e373a", "lat": 38.902926, "fusion_lon": 0.0, "fusion_lat": 0.0, "type": "electric_scooter", "name": "666cab2111e6bc4ff1cd81640f0e373a", "is_disabled": 0, "rental_uris": {"ios": "https://dc.lft.to/lastmile_qr_scan", "android": "https://dc.lft.to/lastmile_qr_scan"}, "is_reserved": 0}, {"lon": -76.97475966666667, "bike_id": "b4c4e8d0822f4075318024690d933c08", "lat": 38.865271166666666, "fusion_lon": 0.0, "fusion_lat": 0.0, "type": "electric_scooter", "name": "b4c4e8d0822f4075318024690d933c08", "is_disabled": 0, "rental_uris": {"ios": "https://dc.lft.to/lastmile_qr_scan", "android": "https://dc.lft.to/lastmile_qr_scan"}, "is_reserved": 0}, {"lon": -77.04603366666667, "bike_id": "470e412daceac14d8429290d3071e7a6", "lat": 39.02456383333333, "fusion_lon": 0.0, "fusion_lat": 0.0, "type": "electric_bike", "name": "470e412daceac14d8429290d3071e7a6", "is_disabled": 0, "rental_uris": {"ios": "https://dc.lft.to/lastmile_qr_scan", "android": "https://dc.lft.to/lastmile_qr_scan"}, "is_reserved": 0}, {"lon": -77.030437, "bike_id": "058628c8c227eaefeea28285c3bbd150", "lat": 38.91332716666667, "fusion_lon": 0.0, "fusion_lat": 0.0, "type": "electric_scooter", "name": "058628c8c227eaefeea28285c3bbd150", "is_disabled": 0, "rental_uris": {"ios": "https://dc.lft.to/lastmile_qr_scan", "android": "https://dc.lft.to/lastmile_qr_scan"}, "is_reserved": 0}, {"lon": -77.03659333333333, "bike_id": "67e18cb81a505434fbfa9c3d9f4a8f06", "lat": 38.92298616666667, "fusion_lon": 0.0, "fusion_lat": 0.0, "type": "electric_scooter", "name": "67e18cb81a505434fbfa9c3d9f4a8f06", "is_disabled": 0, "rental_uris": {"ios": "https://dc.lft.to/lastmile_qr_scan", "android": "https://dc.lft.to/lastmile_qr_scan"}, "is_reserved": 0}, {"lon": -77.02529766666666, "bike_id": "c5e23f494ff200fd879947bf12777473", "lat": 38.937529833333336, "fusion_lon": 0.0, "fusion_lat": 0.0, "type": "electric_scooter", "name": "c5e23f494ff200fd879947bf12777473", "is_disabled": 0, "rental_uris": {"ios": "https://dc.lft.to/lastmile_qr_scan", "android": "https://dc.lft.to/lastmile_qr_scan"}, "is_reserved": 0}, {"lon": -77.04578633333334, "bike_id": "1bf3a1b4b32761db12afa77b90ba99ff", "lat": 38.91855566666667, "fusion_lon": 0.0, "fusion_lat": 0.0, "type": "electric_scooter", "name": "1bf3a1b4b32761db12afa77b90ba99ff", "is_disabled": 0, "rental_uris": {"ios": "https://dc.lft.to/lastmile_qr_scan", "android": "https://dc.lft.to/lastmile_qr_scan"}, "is_reserved": 0}, {"lon": -76.985467, "bike_id": "e756dadde0033c9df8af9c5d4849832a", "lat": 38.883543833333334, "fusion_lon": 0.0, "fusion_lat": 0.0, "type": "electric_scooter", "name": "e756dadde0033c9df8af9c5d4849832a", "is_disabled": 0, "rental_uris": {"ios": "https://dc.lft.to/lastmile_qr_scan", "android": "https://dc.lft.to/lastmile_qr_scan"}, "is_reserved": 0}, {"lon": -77.04865016666666, "bike_id": "238cd45c4b5ac22fc9dbb3683a9afae5", "lat": 38.89222266666667, "fusion_lon": 0.0, "fusion_lat": 0.0, "type": "electric_scooter", "name": "238cd45c4b5ac22fc9dbb3683a9afae5", "is_disabled": 0, "rental_uris": {"ios": "https://dc.lft.to/lastmile_qr_scan", "android": "https://dc.lft.to/lastmile_qr_scan"}, "is_reserved": 0}, {"lon": -76.937654, "bike_id": "716032623b87c3d94abc618d8b87b7fb", "lat": 38.878623166666664, "fusion_lon": 0.0, "fusion_lat": 0.0, "type": "electric_scooter", "name": "716032623b87c3d94abc618d8b87b7fb", "is_disabled": 0, "rental_uris": {"ios": "https://dc.lft.to/lastmile_qr_scan", "android": "https://dc.lft.to/lastmile_qr_scan"}, "is_reserved": 0}, {"lon": -77.023129, "bike_id": "dfc1f14b78c78f2cce6bc7ac14f1dd44", "lat": 38.90893533333333, "fusion_lon": 0.0, "fusion_lat": 0.0, "type": "electric_scooter", "name": "dfc1f14b78c78f2cce6bc7ac14f1dd44", "is_disabled": 0, "rental_uris": {"ios": "https://dc.lft.to/lastmile_qr_scan", "android": "https://dc.lft.to/lastmile_qr_scan"}, "is_reserved": 0}, {"lon": -76.9377315, "bike_id": "f30a49126ed544d23755f1e9f119a614", "lat": 38.89966966666667, "fusion_lon": 0.0, "fusion_lat": 0.0, "type": "electric_scooter", "name": "f30a49126ed544d23755f1e9f119a614", "is_disabled": 0, "rental_uris": {"ios": "https://dc.lft.to/lastmile_qr_scan", "android": "https://dc.lft.to/lastmile_qr_scan"}, "is_reserved": 0}, {"lon": -77.04980216666667, "bike_id": "7e8739763cd0d43197c66e95c25b29ca", "lat": 39.06295216666667, "fusion_lon": 0.0, "fusion_lat": 0.0, "type": "electric_bike", "name": "7e8739763cd0d43197c66e95c25b29ca", "is_disabled": 0, "rental_uris": {"ios": "https://dc.lft.to/lastmile_qr_scan", "android": "https://dc.lft.to/lastmile_qr_scan"}, "is_reserved": 0}, {"lon": -76.998604, "bike_id": "8e882d511b1a2a48a252b02220da6bf7", "lat": 38.894155166666664, "fusion_lon": 0.0, "fusion_lat": 0.0, "type": "electric_scooter", "name": "8e882d511b1a2a48a252b02220da6bf7", "is_disabled": 0, "rental_uris": {"ios": "https://dc.lft.to/lastmile_qr_scan", "android": "https://dc.lft.to/lastmile_qr_scan"}, "is_reserved": 0}, {"lon": -76.9901505, "bike_id": "d548b071a7ef9c6a6d0b16322ff53941", "lat": 38.94590616666667, "fusion_lon": 0.0, "fusion_lat": 0.0, "type": "electric_scooter", "name": "d548b071a7ef9c6a6d0b16322ff53941", "is_disabled": 0, "rental_uris": {"ios": "https://dc.lft.to/lastmile_qr_scan", "android": "https://dc.lft.to/lastmile_qr_scan"}, "is_reserved": 0}, {"lon": -77.05142133333334, "bike_id": "5cb50c9417bdcf06fb3785527070ecbc", "lat": 38.898472166666664, "fusion_lon": 0.0, "fusion_lat": 0.0, "type": "electric_scooter", "name": "5cb50c9417bdcf06fb3785527070ecbc", "is_disabled": 0, "rental_uris": {"ios": "https://dc.lft.to/lastmile_qr_scan", "android": "https://dc.lft.to/lastmile_qr_scan"}, "is_reserved": 0}, {"lon": -76.99367333333333, "bike_id": "28f6c06f9b2c815e1abc73a5e74a608d", "lat": 38.94025633333333, "fusion_lon": 0.0, "fusion_lat": 0.0, "type": "electric_scooter", "name": "28f6c06f9b2c815e1abc73a5e74a608d", "is_disabled": 0, "rental_uris": {"ios": "https://dc.lft.to/lastmile_qr_scan", "android": "https://dc.lft.to/lastmile_qr_scan"}, "is_reserved": 0}, {"lon": -77.0012645, "bike_id": "f6f55bc74f2746528f1cdfea9eb9549b", "lat": 38.90505566666667, "fusion_lon": 0.0, "fusion_lat": 0.0, "type": "electric_scooter", "name": "f6f55bc74f2746528f1cdfea9eb9549b", "is_disabled": 0, "rental_uris": {"ios": "https://dc.lft.to/lastmile_qr_scan", "android": "https://dc.lft.to/lastmile_qr_scan"}, "is_reserved": 0}, {"lon": -77.03296466666667, "bike_id": "9712b843e55786b2cb8d64ca8cf73714", "lat": 38.95659083333334, "fusion_lon": 0.0, "fusion_lat": 0.0, "type": "electric_scooter", "name": "9712b843e55786b2cb8d64ca8cf73714", "is_disabled": 0, "rental_uris": {"ios": "https://dc.lft.to/lastmile_qr_scan", "android": "https://dc.lft.to/lastmile_qr_scan"}, "is_reserved": 0}, {"lon": -76.94506416666667, "bike_id": "62f0ec0eb929cdeb95ff6f13ca6c390a", "lat": 38.864848333333335, "fusion_lon": 0.0, "fusion_lat": 0.0, "type": "electric_bike", "name": "62f0ec0eb929cdeb95ff6f13ca6c390a", "is_disabled": 0, "rental_uris": {"ios": "https://dc.lft.to/lastmile_qr_scan", "android": "https://dc.lft.to/lastmile_qr_scan"}, "is_reserved": 0}, {"lon": -77.03873666666667, "bike_id": "4dba8482c5de9402ef148c956cca1614", "lat": 38.920199333333336, "fusion_lon": 0.0, "fusion_lat": 0.0, "type": "electric_scooter", "name": "4dba8482c5de9402ef148c956cca1614", "is_disabled": 0, "rental_uris": {"ios": "https://dc.lft.to/lastmile_qr_scan", "android": "https://dc.lft.to/lastmile_qr_scan"}, "is_reserved": 0}, {"lon": -77.02310033333333, "bike_id": "3ebaebdcb9044626f713c53d600a237f", "lat": 38.918291833333335, "fusion_lon": 0.0, "fusion_lat": 0.0, "type": "electric_scooter", "name": "3ebaebdcb9044626f713c53d600a237f", "is_disabled": 0, "rental_uris": {"ios": "https://dc.lft.to/lastmile_qr_scan", "android": "https://dc.lft.to/lastmile_qr_scan"}, "is_reserved": 0}, {"lon": -77.12653616666667, "bike_id": "05eac9c221c653d1577044e75b76561e", "lat": 38.81516, "fusion_lon": 0.0, "fusion_lat": 0.0, "type": "electric_bike", "name": "05eac9c221c653d1577044e75b76561e", "is_disabled": 0, "rental_uris": {"ios": "https://dc.lft.to/lastmile_qr_scan", "android": "https://dc.lft.to/lastmile_qr_scan"}, "is_reserved": 0}, {"lon": -77.02224916666667, "bike_id": "a90505989406af44bad11180d0d410e1", "lat": 38.91009183333333, "fusion_lon": 0.0, "fusion_lat": 0.0, "type": "electric_scooter", "name": "a90505989406af44bad11180d0d410e1", "is_disabled": 0, "rental_uris": {"ios": "https://dc.lft.to/lastmile_qr_scan", "android": "https://dc.lft.to/lastmile_qr_scan"}, "is_reserved": 0}, {"lon": -77.0189425, "bike_id": "560089e0a62a6e2ca61ba8a2733c1156", "lat": 38.904947666666665, "fusion_lon": 0.0, "fusion_lat": 0.0, "type": "electric_scooter", "name": "560089e0a62a6e2ca61ba8a2733c1156", "is_disabled": 0, "rental_uris": {"ios": "https://dc.lft.to/lastmile_qr_scan", "android": "https://dc.lft.to/lastmile_qr_scan"}, "is_reserved": 0}, {"lon": -77.01430483333333, "bike_id": "5cbc23fe1d4c5b6409e6b987803681ba", "lat": 38.87656916666667, "fusion_lon": 0.0, "fusion_lat": 0.0, "type": "electric_scooter", "name": "5cbc23fe1d4c5b6409e6b987803681ba", "is_disabled": 0, "rental_uris": {"ios": "https://dc.lft.to/lastmile_qr_scan", "android": "https://dc.lft.to/lastmile_qr_scan"}, "is_reserved": 0}, {"lon": -77.021538, "bike_id": "61ba38f68b731e13564cfb7700d1dfee", "lat": 38.925978, "fusion_lon": 0.0, "fusion_lat": 0.0, "type": "electric_bike", "name": "61ba38f68b731e13564cfb7700d1dfee", "is_disabled": 0, "rental_uris": {"ios": "https://dc.lft.to/lastmile_qr_scan", "android": "https://dc.lft.to/lastmile_qr_scan"}, "is_reserved": 0}, {"lon": -76.927407, "bike_id": "68cf198af2224a7adaac40342dd5499b", "lat": 38.8896665, "fusion_lon": 0.0, "fusion_lat": 0.0, "type": "electric_scooter", "name": "68cf198af2224a7adaac40342dd5499b", "is_disabled": 0, "rental_uris": {"ios": "https://dc.lft.to/lastmile_qr_scan", "android": "https://dc.lft.to/lastmile_qr_scan"}, "is_reserved": 0}, {"lon": -76.98552416666666, "bike_id": "671e7a2ef3c1868cd47c9b0b3c2654d8", "lat": 38.9200855, "fusion_lon": 0.0, "fusion_lat": 0.0, "type": "electric_scooter", "name": "671e7a2ef3c1868cd47c9b0b3c2654d8", "is_disabled": 0, "rental_uris": {"ios": "https://dc.lft.to/lastmile_qr_scan", "android": "https://dc.lft.to/lastmile_qr_scan"}, "is_reserved": 0}, {"lon": -77.05176183333333, "bike_id": "da8119dbeb62512a80dca8190a31ff02", "lat": 38.92341716666667, "fusion_lon": 0.0, "fusion_lat": 0.0, "type": "electric_scooter", "name": "da8119dbeb62512a80dca8190a31ff02", "is_disabled": 0, "rental_uris": {"ios": "https://dc.lft.to/lastmile_qr_scan", "android": "https://dc.lft.to/lastmile_qr_scan"}, "is_reserved": 0}, {"lon": -76.93349283333333, "bike_id": "2f0e62c17aa9e0eb979baa9b4a13f4c2", "lat": 38.89909733333333, "fusion_lon": 0.0, "fusion_lat": 0.0, "type": "electric_scooter", "name": "2f0e62c17aa9e0eb979baa9b4a13f4c2", "is_disabled": 0, "rental_uris": {"ios": "https://dc.lft.to/lastmile_qr_scan", "android": "https://dc.lft.to/lastmile_qr_scan"}, "is_reserved": 0}, {"lon": -76.98287633333334, "bike_id": "a1e14e7ffaa8a525d7ec6f772d63108a", "lat": 38.9004735, "fusion_lon": 0.0, "fusion_lat": 0.0, "type": "electric_scooter", "name": "a1e14e7ffaa8a525d7ec6f772d63108a", "is_disabled": 0, "rental_uris": {"ios": "https://dc.lft.to/lastmile_qr_scan", "android": "https://dc.lft.to/lastmile_qr_scan"}, "is_reserved": 0}, {"lon": -77.05132383333333, "bike_id": "cfa52b9b8aebb27dd6ca081e9a6b1774", "lat": 38.923641833333335, "fusion_lon": 0.0, "fusion_lat": 0.0, "type": "electric_scooter", "name": "cfa52b9b8aebb27dd6ca081e9a6b1774", "is_disabled": 0, "rental_uris": {"ios": "https://dc.lft.to/lastmile_qr_scan", "android": "https://dc.lft.to/lastmile_qr_scan"}, "is_reserved": 0}, {"lon": -77.03448666666667, "bike_id": "81d88de7be94ff655459d05c221f36e0", "lat": 38.908912666666666, "fusion_lon": 0.0, "fusion_lat": 0.0, "type": "electric_scooter", "name": "81d88de7be94ff655459d05c221f36e0", "is_disabled": 0, "rental_uris": {"ios": "https://dc.lft.to/lastmile_qr_scan", "android": "https://dc.lft.to/lastmile_qr_scan"}, "is_reserved": 0}, {"lon": -77.0832665, "bike_id": "de37bd5de9db1bb7822016e02cc85f02", "lat": 38.92986966666667, "fusion_lon": 0.0, "fusion_lat": 0.0, "type": "electric_scooter", "name": "de37bd5de9db1bb7822016e02cc85f02", "is_disabled": 0, "rental_uris": {"ios": "https://dc.lft.to/lastmile_qr_scan", "android": "https://dc.lft.to/lastmile_qr_scan"}, "is_reserved": 0}, {"lon": -77.03994166666666, "bike_id": "3cbbd4baf825b395da8461c0532f9249", "lat": 38.92461866666667, "fusion_lon": 0.0, "fusion_lat": 0.0, "type": "electric_scooter", "name": "3cbbd4baf825b395da8461c0532f9249", "is_disabled": 0, "rental_uris": {"ios": "https://dc.lft.to/lastmile_qr_scan", "android": "https://dc.lft.to/lastmile_qr_scan"}, "is_reserved": 0}, {"lon": -77.04459016666667, "bike_id": "7308108a1d5199cc34e4e736c39f1da5", "lat": 38.91589966666667, "fusion_lon": 0.0, "fusion_lat": 0.0, "type": "electric_scooter", "name": "7308108a1d5199cc34e4e736c39f1da5", "is_disabled": 0, "rental_uris": {"ios": "https://dc.lft.to/lastmile_qr_scan", "android": "https://dc.lft.to/lastmile_qr_scan"}, "is_reserved": 0}, {"lon": -77.0334125, "bike_id": "7c63eef4f35c06a2bf34b73ca34afd1c", "lat": 38.92046, "fusion_lon": 0.0, "fusion_lat": 0.0, "type": "electric_scooter", "name": "7c63eef4f35c06a2bf34b73ca34afd1c", "is_disabled": 0, "rental_uris": {"ios": "https://dc.lft.to/lastmile_qr_scan", "android": "https://dc.lft.to/lastmile_qr_scan"}, "is_reserved": 0}, {"lon": -77.03421183333333, "bike_id": "16a9116a8972a199fcdeb6970daca00a", "lat": 38.927375166666664, "fusion_lon": 0.0, "fusion_lat": 0.0, "type": "electric_scooter", "name": "16a9116a8972a199fcdeb6970daca00a", "is_disabled": 0, "rental_uris": {"ios": "https://dc.lft.to/lastmile_qr_scan", "android": "https://dc.lft.to/lastmile_qr_scan"}, "is_reserved": 0}, {"lon": -77.03623233333333, "bike_id": "cfc00619779e3141c0139bdc6ce83cbf", "lat": 38.912599, "fusion_lon": 0.0, "fusion_lat": 0.0, "type": "electric_scooter", "name": "cfc00619779e3141c0139bdc6ce83cbf", "is_disabled": 0, "rental_uris": {"ios": "https://dc.lft.to/lastmile_qr_scan", "android": "https://dc.lft.to/lastmile_qr_scan"}, "is_reserved": 0}, {"lon": -77.0175815, "bike_id": "ff0e2c8af7162d51443df7f6f90699af", "lat": 38.885964666666666, "fusion_lon": 0.0, "fusion_lat": 0.0, "type": "electric_scooter", "name": "ff0e2c8af7162d51443df7f6f90699af", "is_disabled": 0, "rental_uris": {"ios": "https://dc.lft.to/lastmile_qr_scan", "android": "https://dc.lft.to/lastmile_qr_scan"}, "is_reserved": 0}, {"lon": -77.02734216666667, "bike_id": "17088c7e57424f42f74ca445686be6ba", "lat": 38.9056465, "fusion_lon": 0.0, "fusion_lat": 0.0, "type": "electric_scooter", "name": "17088c7e57424f42f74ca445686be6ba", "is_disabled": 0, "rental_uris": {"ios": "https://dc.lft.to/lastmile_qr_scan", "android": "https://dc.lft.to/lastmile_qr_scan"}, "is_reserved": 0}, {"lon": -77.04381116666667, "bike_id": "817b5a0def40ba5cc161a6da0a999a56", "lat": 38.92118966666666, "fusion_lon": 0.0, "fusion_lat": 0.0, "type": "electric_scooter", "name": "817b5a0def40ba5cc161a6da0a999a56", "is_disabled": 0, "rental_uris": {"ios": "https://dc.lft.to/lastmile_qr_scan", "android": "https://dc.lft.to/lastmile_qr_scan"}, "is_reserved": 0}, {"lon": -77.06741916666667, "bike_id": "2aca3a6f57eed649b44594271022e8e0", "lat": 38.90349533333333, "fusion_lon": 0.0, "fusion_lat": 0.0, "type": "electric_scooter", "name": "2aca3a6f57eed649b44594271022e8e0", "is_disabled": 0, "rental_uris": {"ios": "https://dc.lft.to/lastmile_qr_scan", "android": "https://dc.lft.to/lastmile_qr_scan"}, "is_reserved": 0}, {"lon": -77.032686, "bike_id": "3380cc0586c2a0c7d125cd0026e8f1e2", "lat": 38.92759616666667, "fusion_lon": 0.0, "fusion_lat": 0.0, "type": "electric_scooter", "name": "3380cc0586c2a0c7d125cd0026e8f1e2", "is_disabled": 0, "rental_uris": {"ios": "https://dc.lft.to/lastmile_qr_scan", "android": "https://dc.lft.to/lastmile_qr_scan"}, "is_reserved": 0}, {"lon": -77.030949, "bike_id": "907b7660d199c82fa5f0bdb6e03d7507", "lat": 38.93400166666667, "fusion_lon": 0.0, "fusion_lat": 0.0, "type": "electric_scooter", "name": "907b7660d199c82fa5f0bdb6e03d7507", "is_disabled": 0, "rental_uris": {"ios": "https://dc.lft.to/lastmile_qr_scan", "android": "https://dc.lft.to/lastmile_qr_scan"}, "is_reserved": 0}, {"lon": -77.03351416666666, "bike_id": "fcc7be144fa729699df3b61703d7ef5c", "lat": 38.96251983333333, "fusion_lon": 0.0, "fusion_lat": 0.0, "type": "electric_scooter", "name": "fcc7be144fa729699df3b61703d7ef5c", "is_disabled": 0, "rental_uris": {"ios": "https://dc.lft.to/lastmile_qr_scan", "android": "https://dc.lft.to/lastmile_qr_scan"}, "is_reserved": 0}, {"lon": -76.9994145, "bike_id": "de2e03fe5bdd8070d2174421de0dd4db", "lat": 38.9037545, "fusion_lon": 0.0, "fusion_lat": 0.0, "type": "electric_scooter", "name": "de2e03fe5bdd8070d2174421de0dd4db", "is_disabled": 0, "rental_uris": {"ios": "https://dc.lft.to/lastmile_qr_scan", "android": "https://dc.lft.to/lastmile_qr_scan"}, "is_reserved": 0}, {"lon": -77.0364395, "bike_id": "a5a588582203fbef0b5e838ce309d3aa", "lat": 38.91270016666667, "fusion_lon": 0.0, "fusion_lat": 0.0, "type": "electric_scooter", "name": "a5a588582203fbef0b5e838ce309d3aa", "is_disabled": 0, "rental_uris": {"ios": "https://dc.lft.to/lastmile_qr_scan", "android": "https://dc.lft.to/lastmile_qr_scan"}, "is_reserved": 0}, {"lon": -77.02976733333334, "bike_id": "53680a74d18d70e4745204de54286543", "lat": 38.91680733333333, "fusion_lon": 0.0, "fusion_lat": 0.0, "type": "electric_scooter", "name": "53680a74d18d70e4745204de54286543", "is_disabled": 0, "rental_uris": {"ios": "https://dc.lft.to/lastmile_qr_scan", "android": "https://dc.lft.to/lastmile_qr_scan"}, "is_reserved": 0}, {"lon": -77.02263366666666, "bike_id": "7383edbbaba10fe6f010759a09b00473", "lat": 38.92738633333333, "fusion_lon": 0.0, "fusion_lat": 0.0, "type": "electric_scooter", "name": "7383edbbaba10fe6f010759a09b00473", "is_disabled": 0, "rental_uris": {"ios": "https://dc.lft.to/lastmile_qr_scan", "android": "https://dc.lft.to/lastmile_qr_scan"}, "is_reserved": 0}, {"lon": -77.00288583333334, "bike_id": "f84498f306eb79f2ee930002af337cb6", "lat": 38.95700566666667, "fusion_lon": 0.0, "fusion_lat": 0.0, "type": "electric_bike", "name": "f84498f306eb79f2ee930002af337cb6", "is_disabled": 0, "rental_uris": {"ios": "https://dc.lft.to/lastmile_qr_scan", "android": "https://dc.lft.to/lastmile_qr_scan"}, "is_reserved": 0}, {"lon": -77.031877, "bike_id": "bf9af5627a04ca9a9b2c5eca251c9da0", "lat": 38.915105833333335, "fusion_lon": 0.0, "fusion_lat": 0.0, "type": "electric_scooter", "name": "bf9af5627a04ca9a9b2c5eca251c9da0", "is_disabled": 0, "rental_uris": {"ios": "https://dc.lft.to/lastmile_qr_scan", "android": "https://dc.lft.to/lastmile_qr_scan"}, "is_reserved": 0}, {"lon": -77.00091233333333, "bike_id": "48bfb30cc4527e2e127f02155b2ca74b", "lat": 38.89485066666667, "fusion_lon": 0.0, "fusion_lat": 0.0, "type": "electric_scooter", "name": "48bfb30cc4527e2e127f02155b2ca74b", "is_disabled": 0, "rental_uris": {"ios": "https://dc.lft.to/lastmile_qr_scan", "android": "https://dc.lft.to/lastmile_qr_scan"}, "is_reserved": 0}, {"lon": -77.043225, "bike_id": "d90bbe257651e033384cef0fb06d18d0", "lat": 38.918637833333335, "fusion_lon": 0.0, "fusion_lat": 0.0, "type": "electric_scooter", "name": "d90bbe257651e033384cef0fb06d18d0", "is_disabled": 0, "rental_uris": {"ios": "https://dc.lft.to/lastmile_qr_scan", "android": "https://dc.lft.to/lastmile_qr_scan"}, "is_reserved": 0}, {"lon": -77.0651965, "bike_id": "aeeb72aa9e5c5be392032ffaf8eac005", "lat": 38.947534833333336, "fusion_lon": 0.0, "fusion_lat": 0.0, "type": "electric_scooter", "name": "aeeb72aa9e5c5be392032ffaf8eac005", "is_disabled": 0, "rental_uris": {"ios": "https://dc.lft.to/lastmile_qr_scan", "android": "https://dc.lft.to/lastmile_qr_scan"}, "is_reserved": 0}, {"lon": -76.99885016666667, "bike_id": "22c88ea9e4ae5e54a09b1479b5368f20", "lat": 38.92056733333333, "fusion_lon": 0.0, "fusion_lat": 0.0, "type": "electric_scooter", "name": "22c88ea9e4ae5e54a09b1479b5368f20", "is_disabled": 0, "rental_uris": {"ios": "https://dc.lft.to/lastmile_qr_scan", "android": "https://dc.lft.to/lastmile_qr_scan"}, "is_reserved": 0}, {"lon": -76.984893, "bike_id": "5b7b32beb8832d667412c40272d6f658", "lat": 38.898973, "fusion_lon": 0.0, "fusion_lat": 0.0, "type": "electric_scooter", "name": "5b7b32beb8832d667412c40272d6f658", "is_disabled": 0, "rental_uris": {"ios": "https://dc.lft.to/lastmile_qr_scan", "android": "https://dc.lft.to/lastmile_qr_scan"}, "is_reserved": 0}, {"lon": -77.05237483333333, "bike_id": "b5499e59ad870680c5fbfaf29d6f488c", "lat": 38.89987766666667, "fusion_lon": 0.0, "fusion_lat": 0.0, "type": "electric_scooter", "name": "b5499e59ad870680c5fbfaf29d6f488c", "is_disabled": 0, "rental_uris": {"ios": "https://dc.lft.to/lastmile_qr_scan", "android": "https://dc.lft.to/lastmile_qr_scan"}, "is_reserved": 0}, {"lon": -77.00920916666666, "bike_id": "0f3734dfe942a20dda3b98c0ac6fdef9", "lat": 38.895508, "fusion_lon": 0.0, "fusion_lat": 0.0, "type": "electric_scooter", "name": "0f3734dfe942a20dda3b98c0ac6fdef9", "is_disabled": 0, "rental_uris": {"ios": "https://dc.lft.to/lastmile_qr_scan", "android": "https://dc.lft.to/lastmile_qr_scan"}, "is_reserved": 0}, {"lon": -77.03398666666666, "bike_id": "9f75b516f097a86a88527d337ae65cd4", "lat": 38.96033883333333, "fusion_lon": 0.0, "fusion_lat": 0.0, "type": "electric_bike", "name": "9f75b516f097a86a88527d337ae65cd4", "is_disabled": 0, "rental_uris": {"ios": "https://dc.lft.to/lastmile_qr_scan", "android": "https://dc.lft.to/lastmile_qr_scan"}, "is_reserved": 0}, {"lon": -77.00360033333334, "bike_id": "99c43e5bf62cdf9d29097720b06c2238", "lat": 38.915528333333334, "fusion_lon": 0.0, "fusion_lat": 0.0, "type": "electric_scooter", "name": "99c43e5bf62cdf9d29097720b06c2238", "is_disabled": 0, "rental_uris": {"ios": "https://dc.lft.to/lastmile_qr_scan", "android": "https://dc.lft.to/lastmile_qr_scan"}, "is_reserved": 0}, {"lon": -76.9658345, "bike_id": "07e692482ac7488a13c347a409ea029a", "lat": 38.87139916666667, "fusion_lon": 0.0, "fusion_lat": 0.0, "type": "electric_scooter", "name": "07e692482ac7488a13c347a409ea029a", "is_disabled": 0, "rental_uris": {"ios": "https://dc.lft.to/lastmile_qr_scan", "android": "https://dc.lft.to/lastmile_qr_scan"}, "is_reserved": 0}, {"lon": -77.0422225, "bike_id": "b19a7c45ef0b2a560875044ce64478b7", "lat": 38.91118633333333, "fusion_lon": 0.0, "fusion_lat": 0.0, "type": "electric_scooter", "name": "b19a7c45ef0b2a560875044ce64478b7", "is_disabled": 0, "rental_uris": {"ios": "https://dc.lft.to/lastmile_qr_scan", "android": "https://dc.lft.to/lastmile_qr_scan"}, "is_reserved": 0}, {"lon": -76.99783483333333, "bike_id": "6daa2289b261e4c57c97f33e89ffe9cc", "lat": 38.84434783333333, "fusion_lon": 0.0, "fusion_lat": 0.0, "type": "electric_scooter", "name": "6daa2289b261e4c57c97f33e89ffe9cc", "is_disabled": 0, "rental_uris": {"ios": "https://dc.lft.to/lastmile_qr_scan", "android": "https://dc.lft.to/lastmile_qr_scan"}, "is_reserved": 0}, {"lon": -76.94636816666667, "bike_id": "30132a8624c4258012aad0dd321695c8", "lat": 38.898304333333336, "fusion_lon": 0.0, "fusion_lat": 0.0, "type": "electric_scooter", "name": "30132a8624c4258012aad0dd321695c8", "is_disabled": 0, "rental_uris": {"ios": "https://dc.lft.to/lastmile_qr_scan", "android": "https://dc.lft.to/lastmile_qr_scan"}, "is_reserved": 0}, {"lon": -76.98026266666666, "bike_id": "ccbdb6242679c17ddeaf9c4ebf3f023d", "lat": 38.90076416666667, "fusion_lon": 0.0, "fusion_lat": 0.0, "type": "electric_bike", "name": "ccbdb6242679c17ddeaf9c4ebf3f023d", "is_disabled": 0, "rental_uris": {"ios": "https://dc.lft.to/lastmile_qr_scan", "android": "https://dc.lft.to/lastmile_qr_scan"}, "is_reserved": 0}, {"lon": -77.00023116666667, "bike_id": "1dd0adee69399e1f097d54651cb420c1", "lat": 38.90860216666667, "fusion_lon": 0.0, "fusion_lat": 0.0, "type": "electric_scooter", "name": "1dd0adee69399e1f097d54651cb420c1", "is_disabled": 0, "rental_uris": {"ios": "https://dc.lft.to/lastmile_qr_scan", "android": "https://dc.lft.to/lastmile_qr_scan"}, "is_reserved": 0}, {"lon": -77.02163116666667, "bike_id": "a7de72628f6af8ff20cde2d0cb28bbf8", "lat": 38.92613083333333, "fusion_lon": 0.0, "fusion_lat": 0.0, "type": "electric_scooter", "name": "a7de72628f6af8ff20cde2d0cb28bbf8", "is_disabled": 0, "rental_uris": {"ios": "https://dc.lft.to/lastmile_qr_scan", "android": "https://dc.lft.to/lastmile_qr_scan"}, "is_reserved": 0}, {"lon": -77.04178666666667, "bike_id": "df73146bfeabc77955e63c7e713faef7", "lat": 38.916563, "fusion_lon": 0.0, "fusion_lat": 0.0, "type": "electric_scooter", "name": "df73146bfeabc77955e63c7e713faef7", "is_disabled": 0, "rental_uris": {"ios": "https://dc.lft.to/lastmile_qr_scan", "android": "https://dc.lft.to/lastmile_qr_scan"}, "is_reserved": 0}, {"lon": -77.36093, "bike_id": "11d06c59d2ca655d68e7669aa416c57a", "lat": 38.93952983333333, "fusion_lon": 0.0, "fusion_lat": 0.0, "type": "electric_bike", "name": "11d06c59d2ca655d68e7669aa416c57a", "is_disabled": 0, "rental_uris": {"ios": "https://dc.lft.to/lastmile_qr_scan", "android": "https://dc.lft.to/lastmile_qr_scan"}, "is_reserved": 0}, {"lon": -77.03662133333333, "bike_id": "c9c5c09b5d90f8b3a8f7841652e32b50", "lat": 38.91747316666667, "fusion_lon": 0.0, "fusion_lat": 0.0, "type": "electric_scooter", "name": "c9c5c09b5d90f8b3a8f7841652e32b50", "is_disabled": 0, "rental_uris": {"ios": "https://dc.lft.to/lastmile_qr_scan", "android": "https://dc.lft.to/lastmile_qr_scan"}, "is_reserved": 0}, {"lon": -77.05130033333333, "bike_id": "3f1ea16de6da465f76283b988846d09a", "lat": 38.90217716666667, "fusion_lon": 0.0, "fusion_lat": 0.0, "type": "electric_scooter", "name": "3f1ea16de6da465f76283b988846d09a", "is_disabled": 0, "rental_uris": {"ios": "https://dc.lft.to/lastmile_qr_scan", "android": "https://dc.lft.to/lastmile_qr_scan"}, "is_reserved": 0}, {"lon": -77.00382333333333, "bike_id": "eedffb9c6d462566e638cc9bf7bfddd5", "lat": 38.8975025, "fusion_lon": 0.0, "fusion_lat": 0.0, "type": "electric_scooter", "name": "eedffb9c6d462566e638cc9bf7bfddd5", "is_disabled": 0, "rental_uris": {"ios": "https://dc.lft.to/lastmile_qr_scan", "android": "https://dc.lft.to/lastmile_qr_scan"}, "is_reserved": 0}, {"lon": -77.02979333333333, "bike_id": "e676dc23f47d13b207f36e075ca25e13", "lat": 38.907841166666664, "fusion_lon": 0.0, "fusion_lat": 0.0, "type": "electric_scooter", "name": "e676dc23f47d13b207f36e075ca25e13", "is_disabled": 0, "rental_uris": {"ios": "https://dc.lft.to/lastmile_qr_scan", "android": "https://dc.lft.to/lastmile_qr_scan"}, "is_reserved": 0}, {"lon": -76.90597333333334, "bike_id": "8c4fcd90882618dd0f2c91e6a7613aaa", "lat": 39.004531, "fusion_lon": 0.0, "fusion_lat": 0.0, "type": "electric_bike", "name": "8c4fcd90882618dd0f2c91e6a7613aaa", "is_disabled": 0, "rental_uris": {"ios": "https://dc.lft.to/lastmile_qr_scan", "android": "https://dc.lft.to/lastmile_qr_scan"}, "is_reserved": 0}, {"lon": -76.977005, "bike_id": "440b06acddf2af7a8aa6bd67e33a8c57", "lat": 38.94913916666667, "fusion_lon": 0.0, "fusion_lat": 0.0, "type": "electric_bike", "name": "440b06acddf2af7a8aa6bd67e33a8c57", "is_disabled": 0, "rental_uris": {"ios": "https://dc.lft.to/lastmile_qr_scan", "android": "https://dc.lft.to/lastmile_qr_scan"}, "is_reserved": 0}, {"lon": -77.01625366666667, "bike_id": "c28004f1b2dcd7c1cddd518067250b4b", "lat": 38.965727666666666, "fusion_lon": 0.0, "fusion_lat": 0.0, "type": "electric_scooter", "name": "c28004f1b2dcd7c1cddd518067250b4b", "is_disabled": 0, "rental_uris": {"ios": "https://dc.lft.to/lastmile_qr_scan", "android": "https://dc.lft.to/lastmile_qr_scan"}, "is_reserved": 0}, {"lon": -77.0166115, "bike_id": "023ff56088ce428d513a36a50cb8cc3c", "lat": 38.8873975, "fusion_lon": 0.0, "fusion_lat": 0.0, "type": "electric_scooter", "name": "023ff56088ce428d513a36a50cb8cc3c", "is_disabled": 0, "rental_uris": {"ios": "https://dc.lft.to/lastmile_qr_scan", "android": "https://dc.lft.to/lastmile_qr_scan"}, "is_reserved": 0}, {"lon": -76.98618216666667, "bike_id": "73cd0d7f107a659633b5ee6168b8e667", "lat": 38.93828716666667, "fusion_lon": 0.0, "fusion_lat": 0.0, "type": "electric_scooter", "name": "73cd0d7f107a659633b5ee6168b8e667", "is_disabled": 0, "rental_uris": {"ios": "https://dc.lft.to/lastmile_qr_scan", "android": "https://dc.lft.to/lastmile_qr_scan"}, "is_reserved": 0}, {"lon": -77.0401125, "bike_id": "c24b3b7c9089f64329236b1e1e8d5605", "lat": 38.909879333333336, "fusion_lon": 0.0, "fusion_lat": 0.0, "type": "electric_scooter", "name": "c24b3b7c9089f64329236b1e1e8d5605", "is_disabled": 0, "rental_uris": {"ios": "https://dc.lft.to/lastmile_qr_scan", "android": "https://dc.lft.to/lastmile_qr_scan"}, "is_reserved": 0}, {"lon": -77.03053983333334, "bike_id": "a033e895d5512d259681b9810301d95a", "lat": 38.91266366666667, "fusion_lon": 0.0, "fusion_lat": 0.0, "type": "electric_scooter", "name": "a033e895d5512d259681b9810301d95a", "is_disabled": 0, "rental_uris": {"ios": "https://dc.lft.to/lastmile_qr_scan", "android": "https://dc.lft.to/lastmile_qr_scan"}, "is_reserved": 0}, {"lon": -77.03203116666667, "bike_id": "944f25586a810934e844ca97f014db55", "lat": 38.93964616666667, "fusion_lon": 0.0, "fusion_lat": 0.0, "type": "electric_scooter", "name": "944f25586a810934e844ca97f014db55", "is_disabled": 0, "rental_uris": {"ios": "https://dc.lft.to/lastmile_qr_scan", "android": "https://dc.lft.to/lastmile_qr_scan"}, "is_reserved": 0}, {"lon": -76.99066816666667, "bike_id": "4379902d97e3906252284702dc1dc9ff", "lat": 38.8636555, "fusion_lon": 0.0, "fusion_lat": 0.0, "type": "electric_scooter", "name": "4379902d97e3906252284702dc1dc9ff", "is_disabled": 0, "rental_uris": {"ios": "https://dc.lft.to/lastmile_qr_scan", "android": "https://dc.lft.to/lastmile_qr_scan"}, "is_reserved": 0}, {"lon": -77.0279895, "bike_id": "a34bd37df45f61db2e0fb4c3c9428946", "lat": 38.9353835, "fusion_lon": 0.0, "fusion_lat": 0.0, "type": "electric_scooter", "name": "a34bd37df45f61db2e0fb4c3c9428946", "is_disabled": 0, "rental_uris": {"ios": "https://dc.lft.to/lastmile_qr_scan", "android": "https://dc.lft.to/lastmile_qr_scan"}, "is_reserved": 0}, {"lon": -77.02918483333333, "bike_id": "e088f16c4d99f9a8bcc5d64bdecc6f5f", "lat": 38.92370716666667, "fusion_lon": 0.0, "fusion_lat": 0.0, "type": "electric_scooter", "name": "e088f16c4d99f9a8bcc5d64bdecc6f5f", "is_disabled": 0, "rental_uris": {"ios": "https://dc.lft.to/lastmile_qr_scan", "android": "https://dc.lft.to/lastmile_qr_scan"}, "is_reserved": 0}, {"lon": -77.04427183333334, "bike_id": "1aa18cd0cf4ce66fcffd19cdf54c2fed", "lat": 38.921280333333335, "fusion_lon": 0.0, "fusion_lat": 0.0, "type": "electric_scooter", "name": "1aa18cd0cf4ce66fcffd19cdf54c2fed", "is_disabled": 0, "rental_uris": {"ios": "https://dc.lft.to/lastmile_qr_scan", "android": "https://dc.lft.to/lastmile_qr_scan"}, "is_reserved": 0}, {"lon": -77.0141235, "bike_id": "45152e748377fa1a213f19f0e036207b", "lat": 38.928634333333335, "fusion_lon": 0.0, "fusion_lat": 0.0, "type": "electric_scooter", "name": "45152e748377fa1a213f19f0e036207b", "is_disabled": 0, "rental_uris": {"ios": "https://dc.lft.to/lastmile_qr_scan", "android": "https://dc.lft.to/lastmile_qr_scan"}, "is_reserved": 0}, {"lon": -77.06293866666667, "bike_id": "9300fe39aca69d512ee64b40227ac4be", "lat": 38.905502166666665, "fusion_lon": 0.0, "fusion_lat": 0.0, "type": "electric_scooter", "name": "9300fe39aca69d512ee64b40227ac4be", "is_disabled": 0, "rental_uris": {"ios": "https://dc.lft.to/lastmile_qr_scan", "android": "https://dc.lft.to/lastmile_qr_scan"}, "is_reserved": 0}, {"lon": -77.044349, "bike_id": "1e9bbda58dc6c2815956549ab479aeae", "lat": 38.9216255, "fusion_lon": 0.0, "fusion_lat": 0.0, "type": "electric_scooter", "name": "1e9bbda58dc6c2815956549ab479aeae", "is_disabled": 0, "rental_uris": {"ios": "https://dc.lft.to/lastmile_qr_scan", "android": "https://dc.lft.to/lastmile_qr_scan"}, "is_reserved": 0}, {"lon": -77.0250265, "bike_id": "9c84f98b451284915e96418709212ae8", "lat": 38.903909666666664, "fusion_lon": 0.0, "fusion_lat": 0.0, "type": "electric_scooter", "name": "9c84f98b451284915e96418709212ae8", "is_disabled": 0, "rental_uris": {"ios": "https://dc.lft.to/lastmile_qr_scan", "android": "https://dc.lft.to/lastmile_qr_scan"}, "is_reserved": 0}, {"lon": -77.03302, "bike_id": "4c03c4b7efbf393fd7eb70c611dd271f", "lat": 38.92552666666667, "fusion_lon": 0.0, "fusion_lat": 0.0, "type": "electric_scooter", "name": "4c03c4b7efbf393fd7eb70c611dd271f", "is_disabled": 0, "rental_uris": {"ios": "https://dc.lft.to/lastmile_qr_scan", "android": "https://dc.lft.to/lastmile_qr_scan"}, "is_reserved": 0}, {"lon": -76.97728816666667, "bike_id": "c287c7916ff95118786060811575787b", "lat": 38.872866, "fusion_lon": 0.0, "fusion_lat": 0.0, "type": "electric_scooter", "name": "c287c7916ff95118786060811575787b", "is_disabled": 0, "rental_uris": {"ios": "https://dc.lft.to/lastmile_qr_scan", "android": "https://dc.lft.to/lastmile_qr_scan"}, "is_reserved": 0}, {"lon": -77.02390666666666, "bike_id": "a5736946214abe85701612309b0e3e13", "lat": 38.9200265, "fusion_lon": 0.0, "fusion_lat": 0.0, "type": "electric_scooter", "name": "a5736946214abe85701612309b0e3e13", "is_disabled": 0, "rental_uris": {"ios": "https://dc.lft.to/lastmile_qr_scan", "android": "https://dc.lft.to/lastmile_qr_scan"}, "is_reserved": 0}, {"lon": -77.00559116666666, "bike_id": "8fca54ec3ffbe850bbccafd60f07eea8", "lat": 38.87468583333333, "fusion_lon": 0.0, "fusion_lat": 0.0, "type": "electric_scooter", "name": "8fca54ec3ffbe850bbccafd60f07eea8", "is_disabled": 0, "rental_uris": {"ios": "https://dc.lft.to/lastmile_qr_scan", "android": "https://dc.lft.to/lastmile_qr_scan"}, "is_reserved": 0}, {"lon": -77.025772, "bike_id": "937dea59d44fe08c1dbfbff3058e3cfb", "lat": 38.927385, "fusion_lon": 0.0, "fusion_lat": 0.0, "type": "electric_scooter", "name": "937dea59d44fe08c1dbfbff3058e3cfb", "is_disabled": 0, "rental_uris": {"ios": "https://dc.lft.to/lastmile_qr_scan", "android": "https://dc.lft.to/lastmile_qr_scan"}, "is_reserved": 0}, {"lon": -76.98828333333333, "bike_id": "7d63ae6bae405ec82879e68fb26a4779", "lat": 38.8907945, "fusion_lon": 0.0, "fusion_lat": 0.0, "type": "electric_scooter", "name": "7d63ae6bae405ec82879e68fb26a4779", "is_disabled": 0, "rental_uris": {"ios": "https://dc.lft.to/lastmile_qr_scan", "android": "https://dc.lft.to/lastmile_qr_scan"}, "is_reserved": 0}, {"lon": -77.0196085, "bike_id": "0cdf92a046490df12781e525e2aa7f78", "lat": 38.952305833333334, "fusion_lon": 0.0, "fusion_lat": 0.0, "type": "electric_scooter", "name": "0cdf92a046490df12781e525e2aa7f78", "is_disabled": 0, "rental_uris": {"ios": "https://dc.lft.to/lastmile_qr_scan", "android": "https://dc.lft.to/lastmile_qr_scan"}, "is_reserved": 0}, {"lon": -77.0075305, "bike_id": "aa2bbfe78f516d39c5aa17b86bf66c41", "lat": 38.876501, "fusion_lon": 0.0, "fusion_lat": 0.0, "type": "electric_scooter", "name": "aa2bbfe78f516d39c5aa17b86bf66c41", "is_disabled": 0, "rental_uris": {"ios": "https://dc.lft.to/lastmile_qr_scan", "android": "https://dc.lft.to/lastmile_qr_scan"}, "is_reserved": 0}, {"lon": -77.02927716666666, "bike_id": "981c3eb1a0b04d113912764623ac3531", "lat": 38.898132333333336, "fusion_lon": 0.0, "fusion_lat": 0.0, "type": "electric_scooter", "name": "981c3eb1a0b04d113912764623ac3531", "is_disabled": 0, "rental_uris": {"ios": "https://dc.lft.to/lastmile_qr_scan", "android": "https://dc.lft.to/lastmile_qr_scan"}, "is_reserved": 0}, {"lon": -77.05358983333333, "bike_id": "458cebb49ed294a16b0a8652f1a8aa6d", "lat": 38.9270915, "fusion_lon": 0.0, "fusion_lat": 0.0, "type": "electric_scooter", "name": "458cebb49ed294a16b0a8652f1a8aa6d", "is_disabled": 0, "rental_uris": {"ios": "https://dc.lft.to/lastmile_qr_scan", "android": "https://dc.lft.to/lastmile_qr_scan"}, "is_reserved": 0}, {"lon": -77.04603866666666, "bike_id": "8966a35b77f6f9e09b75754194d12847", "lat": 38.916063666666666, "fusion_lon": 0.0, "fusion_lat": 0.0, "type": "electric_scooter", "name": "8966a35b77f6f9e09b75754194d12847", "is_disabled": 0, "rental_uris": {"ios": "https://dc.lft.to/lastmile_qr_scan", "android": "https://dc.lft.to/lastmile_qr_scan"}, "is_reserved": 0}, {"lon": -77.030502, "bike_id": "c54d414de5249bcedae5fe93d2a40cb3", "lat": 38.898306, "fusion_lon": 0.0, "fusion_lat": 0.0, "type": "electric_scooter", "name": "c54d414de5249bcedae5fe93d2a40cb3", "is_disabled": 0, "rental_uris": {"ios": "https://dc.lft.to/lastmile_qr_scan", "android": "https://dc.lft.to/lastmile_qr_scan"}, "is_reserved": 0}, {"lon": -77.013677, "bike_id": "806f3677a6ea372b7c09a1b289252619", "lat": 38.88703733333333, "fusion_lon": 0.0, "fusion_lat": 0.0, "type": "electric_scooter", "name": "806f3677a6ea372b7c09a1b289252619", "is_disabled": 0, "rental_uris": {"ios": "https://dc.lft.to/lastmile_qr_scan", "android": "https://dc.lft.to/lastmile_qr_scan"}, "is_reserved": 0}, {"lon": -77.0290275, "bike_id": "fbe1c0995504ab4ce44abb56d29e17ed", "lat": 38.92822733333333, "fusion_lon": 0.0, "fusion_lat": 0.0, "type": "electric_scooter", "name": "fbe1c0995504ab4ce44abb56d29e17ed", "is_disabled": 0, "rental_uris": {"ios": "https://dc.lft.to/lastmile_qr_scan", "android": "https://dc.lft.to/lastmile_qr_scan"}, "is_reserved": 0}, {"lon": -77.02349966666667, "bike_id": "38d367f3647a419092137e5cb0ce4771", "lat": 38.93536, "fusion_lon": 0.0, "fusion_lat": 0.0, "type": "electric_scooter", "name": "38d367f3647a419092137e5cb0ce4771", "is_disabled": 0, "rental_uris": {"ios": "https://dc.lft.to/lastmile_qr_scan", "android": "https://dc.lft.to/lastmile_qr_scan"}, "is_reserved": 0}, {"lon": -76.99877166666667, "bike_id": "fc9738548d702eb0558a0c35ce3e2671", "lat": 38.90131516666667, "fusion_lon": 0.0, "fusion_lat": 0.0, "type": "electric_scooter", "name": "fc9738548d702eb0558a0c35ce3e2671", "is_disabled": 0, "rental_uris": {"ios": "https://dc.lft.to/lastmile_qr_scan", "android": "https://dc.lft.to/lastmile_qr_scan"}, "is_reserved": 0}, {"lon": -77.01766283333333, "bike_id": "e100795cc55b2aaeccb02d728d42fe2c", "lat": 38.9212195, "fusion_lon": 0.0, "fusion_lat": 0.0, "type": "electric_scooter", "name": "e100795cc55b2aaeccb02d728d42fe2c", "is_disabled": 0, "rental_uris": {"ios": "https://dc.lft.to/lastmile_qr_scan", "android": "https://dc.lft.to/lastmile_qr_scan"}, "is_reserved": 0}, {"lon": -77.0348575, "bike_id": "58f5247fcd6161f5d10d4456a708c340", "lat": 38.935405, "fusion_lon": 0.0, "fusion_lat": 0.0, "type": "electric_scooter", "name": "58f5247fcd6161f5d10d4456a708c340", "is_disabled": 0, "rental_uris": {"ios": "https://dc.lft.to/lastmile_qr_scan", "android": "https://dc.lft.to/lastmile_qr_scan"}, "is_reserved": 0}, {"lon": -77.03676233333333, "bike_id": "8ba378c993e1484879882edb29712b09", "lat": 38.9392485, "fusion_lon": 0.0, "fusion_lat": 0.0, "type": "electric_scooter", "name": "8ba378c993e1484879882edb29712b09", "is_disabled": 0, "rental_uris": {"ios": "https://dc.lft.to/lastmile_qr_scan", "android": "https://dc.lft.to/lastmile_qr_scan"}, "is_reserved": 0}, {"lon": -76.98021483333333, "bike_id": "6f843a7ed24566c3b000278183fc2b52", "lat": 38.902896, "fusion_lon": 0.0, "fusion_lat": 0.0, "type": "electric_scooter", "name": "6f843a7ed24566c3b000278183fc2b52", "is_disabled": 0, "rental_uris": {"ios": "https://dc.lft.to/lastmile_qr_scan", "android": "https://dc.lft.to/lastmile_qr_scan"}, "is_reserved": 0}, {"lon": -77.0019835, "bike_id": "863cbcc60a833127359aac626d7027b8", "lat": 38.9159445, "fusion_lon": 0.0, "fusion_lat": 0.0, "type": "electric_scooter", "name": "863cbcc60a833127359aac626d7027b8", "is_disabled": 0, "rental_uris": {"ios": "https://dc.lft.to/lastmile_qr_scan", "android": "https://dc.lft.to/lastmile_qr_scan"}, "is_reserved": 0}, {"lon": -77.00764966666667, "bike_id": "323271cf2d770bc717614ecd6433a5ef", "lat": 38.9812485, "fusion_lon": 0.0, "fusion_lat": 0.0, "type": "electric_bike", "name": "323271cf2d770bc717614ecd6433a5ef", "is_disabled": 0, "rental_uris": {"ios": "https://dc.lft.to/lastmile_qr_scan", "android": "https://dc.lft.to/lastmile_qr_scan"}, "is_reserved": 0}, {"lon": -77.04326233333333, "bike_id": "ffff98fb9429a23f8af5dfd124dbd441", "lat": 38.91873866666667, "fusion_lon": 0.0, "fusion_lat": 0.0, "type": "electric_scooter", "name": "ffff98fb9429a23f8af5dfd124dbd441", "is_disabled": 0, "rental_uris": {"ios": "https://dc.lft.to/lastmile_qr_scan", "android": "https://dc.lft.to/lastmile_qr_scan"}, "is_reserved": 0}, {"lon": -77.03256083333333, "bike_id": "93afb4fe03b5aff99b10869d8d5b9d63", "lat": 38.897135166666665, "fusion_lon": 0.0, "fusion_lat": 0.0, "type": "electric_bike", "name": "93afb4fe03b5aff99b10869d8d5b9d63", "is_disabled": 0, "rental_uris": {"ios": "https://dc.lft.to/lastmile_qr_scan", "android": "https://dc.lft.to/lastmile_qr_scan"}, "is_reserved": 0}, {"lon": -77.02696633333333, "bike_id": "6a8f4625f8fc8d5f46c1d1c79a03899a", "lat": 38.948889666666666, "fusion_lon": 0.0, "fusion_lat": 0.0, "type": "electric_scooter", "name": "6a8f4625f8fc8d5f46c1d1c79a03899a", "is_disabled": 0, "rental_uris": {"ios": "https://dc.lft.to/lastmile_qr_scan", "android": "https://dc.lft.to/lastmile_qr_scan"}, "is_reserved": 0}, {"lon": -76.985373, "bike_id": "f26dfc1384fdcb178a9213fa86bd1be2", "lat": 38.910296, "fusion_lon": 0.0, "fusion_lat": 0.0, "type": "electric_scooter", "name": "f26dfc1384fdcb178a9213fa86bd1be2", "is_disabled": 0, "rental_uris": {"ios": "https://dc.lft.to/lastmile_qr_scan", "android": "https://dc.lft.to/lastmile_qr_scan"}, "is_reserved": 0}, {"lon": -77.036694, "bike_id": "d5d3100e544745ddd777589c8c69fdaf", "lat": 38.920981833333336, "fusion_lon": 0.0, "fusion_lat": 0.0, "type": "electric_scooter", "name": "d5d3100e544745ddd777589c8c69fdaf", "is_disabled": 0, "rental_uris": {"ios": "https://dc.lft.to/lastmile_qr_scan", "android": "https://dc.lft.to/lastmile_qr_scan"}, "is_reserved": 0}, {"lon": -77.02681566666666, "bike_id": "0e72617c0abcd20495fd0fb61e3730f1", "lat": 38.984882666666664, "fusion_lon": 0.0, "fusion_lat": 0.0, "type": "electric_scooter", "name": "0e72617c0abcd20495fd0fb61e3730f1", "is_disabled": 0, "rental_uris": {"ios": "https://dc.lft.to/lastmile_qr_scan", "android": "https://dc.lft.to/lastmile_qr_scan"}, "is_reserved": 0}, {"lon": -77.0154705, "bike_id": "ba91114795faacdd76774c4240f1779d", "lat": 38.88321766666667, "fusion_lon": 0.0, "fusion_lat": 0.0, "type": "electric_scooter", "name": "ba91114795faacdd76774c4240f1779d", "is_disabled": 0, "rental_uris": {"ios": "https://dc.lft.to/lastmile_qr_scan", "android": "https://dc.lft.to/lastmile_qr_scan"}, "is_reserved": 0}, {"lon": -77.04257866666667, "bike_id": "efca570b0219afa918c3c4af9484db27", "lat": 38.9170005, "fusion_lon": 0.0, "fusion_lat": 0.0, "type": "electric_scooter", "name": "efca570b0219afa918c3c4af9484db27", "is_disabled": 0, "rental_uris": {"ios": "https://dc.lft.to/lastmile_qr_scan", "android": "https://dc.lft.to/lastmile_qr_scan"}, "is_reserved": 0}, {"lon": -77.0026625, "bike_id": "75b40800e9747ad99e7ade4b705aef43", "lat": 38.9114495, "fusion_lon": 0.0, "fusion_lat": 0.0, "type": "electric_bike", "name": "75b40800e9747ad99e7ade4b705aef43", "is_disabled": 0, "rental_uris": {"ios": "https://dc.lft.to/lastmile_qr_scan", "android": "https://dc.lft.to/lastmile_qr_scan"}, "is_reserved": 0}, {"lon": -77.00223583333333, "bike_id": "f845550a4b48ea4e85d14263fea50c1e", "lat": 38.891968, "fusion_lon": 0.0, "fusion_lat": 0.0, "type": "electric_scooter", "name": "f845550a4b48ea4e85d14263fea50c1e", "is_disabled": 0, "rental_uris": {"ios": "https://dc.lft.to/lastmile_qr_scan", "android": "https://dc.lft.to/lastmile_qr_scan"}, "is_reserved": 0}, {"lon": -77.02707716666667, "bike_id": "467aa5c3ce1a96f0b1575d3690eeb11c", "lat": 38.906753, "fusion_lon": 0.0, "fusion_lat": 0.0, "type": "electric_scooter", "name": "467aa5c3ce1a96f0b1575d3690eeb11c", "is_disabled": 0, "rental_uris": {"ios": "https://dc.lft.to/lastmile_qr_scan", "android": "https://dc.lft.to/lastmile_qr_scan"}, "is_reserved": 0}, {"lon": -77.06346, "bike_id": "c56f0e402d7fb8ab58fc6061c4de9ffd", "lat": 38.94442733333333, "fusion_lon": 0.0, "fusion_lat": 0.0, "type": "electric_scooter", "name": "c56f0e402d7fb8ab58fc6061c4de9ffd", "is_disabled": 0, "rental_uris": {"ios": "https://dc.lft.to/lastmile_qr_scan", "android": "https://dc.lft.to/lastmile_qr_scan"}, "is_reserved": 0}, {"lon": -77.04491883333333, "bike_id": "c59dc638a00d13be99c7e7ae7620797d", "lat": 38.907356666666665, "fusion_lon": 0.0, "fusion_lat": 0.0, "type": "electric_scooter", "name": "c59dc638a00d13be99c7e7ae7620797d", "is_disabled": 0, "rental_uris": {"ios": "https://dc.lft.to/lastmile_qr_scan", "android": "https://dc.lft.to/lastmile_qr_scan"}, "is_reserved": 0}, {"lon": -77.02154516666667, "bike_id": "b3ade4f7ca834623acdd263e5515151b", "lat": 38.92598783333333, "fusion_lon": 0.0, "fusion_lat": 0.0, "type": "electric_scooter", "name": "b3ade4f7ca834623acdd263e5515151b", "is_disabled": 0, "rental_uris": {"ios": "https://dc.lft.to/lastmile_qr_scan", "android": "https://dc.lft.to/lastmile_qr_scan"}, "is_reserved": 0}, {"lon": -77.04474816666666, "bike_id": "424f7feadc4e3c39d6adbea6414c0f81", "lat": 38.9005425, "fusion_lon": 0.0, "fusion_lat": 0.0, "type": "electric_scooter", "name": "424f7feadc4e3c39d6adbea6414c0f81", "is_disabled": 0, "rental_uris": {"ios": "https://dc.lft.to/lastmile_qr_scan", "android": "https://dc.lft.to/lastmile_qr_scan"}, "is_reserved": 0}, {"lon": -77.0148395, "bike_id": "6587058d4184ee66f883559c19d299ad", "lat": 38.9269635, "fusion_lon": 0.0, "fusion_lat": 0.0, "type": "electric_scooter", "name": "6587058d4184ee66f883559c19d299ad", "is_disabled": 0, "rental_uris": {"ios": "https://dc.lft.to/lastmile_qr_scan", "android": "https://dc.lft.to/lastmile_qr_scan"}, "is_reserved": 0}, {"lon": -77.00139533333333, "bike_id": "521ad55f97b471c86d44d521115a2745", "lat": 38.8428, "fusion_lon": 0.0, "fusion_lat": 0.0, "type": "electric_scooter", "name": "521ad55f97b471c86d44d521115a2745", "is_disabled": 0, "rental_uris": {"ios": "https://dc.lft.to/lastmile_qr_scan", "android": "https://dc.lft.to/lastmile_qr_scan"}, "is_reserved": 0}, {"lon": -77.03178316666667, "bike_id": "5e1727afd3307efa454afb2db7cb244f", "lat": 38.88411983333334, "fusion_lon": 0.0, "fusion_lat": 0.0, "type": "electric_scooter", "name": "5e1727afd3307efa454afb2db7cb244f", "is_disabled": 0, "rental_uris": {"ios": "https://dc.lft.to/lastmile_qr_scan", "android": "https://dc.lft.to/lastmile_qr_scan"}, "is_reserved": 0}, {"lon": -76.9861945, "bike_id": "6097b859bcd88bdf4057f65ce6bc828c", "lat": 38.90584533333333, "fusion_lon": 0.0, "fusion_lat": 0.0, "type": "electric_scooter", "name": "6097b859bcd88bdf4057f65ce6bc828c", "is_disabled": 0, "rental_uris": {"ios": "https://dc.lft.to/lastmile_qr_scan", "android": "https://dc.lft.to/lastmile_qr_scan"}, "is_reserved": 0}, {"lon": -77.0217375, "bike_id": "9c447730e4951bbac1903add3cdab414", "lat": 38.94293433333333, "fusion_lon": 0.0, "fusion_lat": 0.0, "type": "electric_scooter", "name": "9c447730e4951bbac1903add3cdab414", "is_disabled": 0, "rental_uris": {"ios": "https://dc.lft.to/lastmile_qr_scan", "android": "https://dc.lft.to/lastmile_qr_scan"}, "is_reserved": 0}, {"lon": -76.95012933333334, "bike_id": "d70ccde010cc2a5723502a1b0964bb50", "lat": 38.89399683333333, "fusion_lon": 0.0, "fusion_lat": 0.0, "type": "electric_scooter", "name": "d70ccde010cc2a5723502a1b0964bb50", "is_disabled": 0, "rental_uris": {"ios": "https://dc.lft.to/lastmile_qr_scan", "android": "https://dc.lft.to/lastmile_qr_scan"}, "is_reserved": 0}, {"lon": -77.014171, "bike_id": "e4017a6e994efe60de68f93739e5a5a6", "lat": 38.92840066666667, "fusion_lon": 0.0, "fusion_lat": 0.0, "type": "electric_scooter", "name": "e4017a6e994efe60de68f93739e5a5a6", "is_disabled": 0, "rental_uris": {"ios": "https://dc.lft.to/lastmile_qr_scan", "android": "https://dc.lft.to/lastmile_qr_scan"}, "is_reserved": 0}, {"lon": -76.93178783333333, "bike_id": "4bf02a21c89156f44387e900a8b3641d", "lat": 38.898862, "fusion_lon": 0.0, "fusion_lat": 0.0, "type": "electric_scooter", "name": "4bf02a21c89156f44387e900a8b3641d", "is_disabled": 0, "rental_uris": {"ios": "https://dc.lft.to/lastmile_qr_scan", "android": "https://dc.lft.to/lastmile_qr_scan"}, "is_reserved": 0}, {"lon": -76.94636316666667, "bike_id": "5a5f057724233f2a2505dce834c39f11", "lat": 38.898326, "fusion_lon": 0.0, "fusion_lat": 0.0, "type": "electric_scooter", "name": "5a5f057724233f2a2505dce834c39f11", "is_disabled": 0, "rental_uris": {"ios": "https://dc.lft.to/lastmile_qr_scan", "android": "https://dc.lft.to/lastmile_qr_scan"}, "is_reserved": 0}, {"lon": -77.039453, "bike_id": "cfc597344e5effda1e8d9fe66ccf57d1", "lat": 38.919383833333335, "fusion_lon": 0.0, "fusion_lat": 0.0, "type": "electric_scooter", "name": "cfc597344e5effda1e8d9fe66ccf57d1", "is_disabled": 0, "rental_uris": {"ios": "https://dc.lft.to/lastmile_qr_scan", "android": "https://dc.lft.to/lastmile_qr_scan"}, "is_reserved": 0}, {"lon": -77.02177966666666, "bike_id": "321f9af48b178bd431cdab18095de0ea", "lat": 38.9429995, "fusion_lon": 0.0, "fusion_lat": 0.0, "type": "electric_scooter", "name": "321f9af48b178bd431cdab18095de0ea", "is_disabled": 0, "rental_uris": {"ios": "https://dc.lft.to/lastmile_qr_scan", "android": "https://dc.lft.to/lastmile_qr_scan"}, "is_reserved": 0}, {"lon": -77.07667733333334, "bike_id": "fc1601030ad9768da07c93645cbe81e8", "lat": 38.94326433333333, "fusion_lon": 0.0, "fusion_lat": 0.0, "type": "electric_scooter", "name": "fc1601030ad9768da07c93645cbe81e8", "is_disabled": 0, "rental_uris": {"ios": "https://dc.lft.to/lastmile_qr_scan", "android": "https://dc.lft.to/lastmile_qr_scan"}, "is_reserved": 0}, {"lon": -77.05624316666666, "bike_id": "28e0834ed14cfe7cd8a02559d7ea7b9d", "lat": 38.92345233333333, "fusion_lon": 0.0, "fusion_lat": 0.0, "type": "electric_scooter", "name": "28e0834ed14cfe7cd8a02559d7ea7b9d", "is_disabled": 0, "rental_uris": {"ios": "https://dc.lft.to/lastmile_qr_scan", "android": "https://dc.lft.to/lastmile_qr_scan"}, "is_reserved": 0}, {"lon": -76.99863716666667, "bike_id": "6e5aeb949f207def377e49c55f1efbfb", "lat": 38.90776133333333, "fusion_lon": 0.0, "fusion_lat": 0.0, "type": "electric_scooter", "name": "6e5aeb949f207def377e49c55f1efbfb", "is_disabled": 0, "rental_uris": {"ios": "https://dc.lft.to/lastmile_qr_scan", "android": "https://dc.lft.to/lastmile_qr_scan"}, "is_reserved": 0}, {"lon": -77.02440666666666, "bike_id": "3cd802803038d540e07fe5f6ced2fe8a", "lat": 38.920533166666665, "fusion_lon": 0.0, "fusion_lat": 0.0, "type": "electric_scooter", "name": "3cd802803038d540e07fe5f6ced2fe8a", "is_disabled": 0, "rental_uris": {"ios": "https://dc.lft.to/lastmile_qr_scan", "android": "https://dc.lft.to/lastmile_qr_scan"}, "is_reserved": 0}, {"lon": -76.9653215, "bike_id": "317da9100122bb2c175914c68f02596f", "lat": 38.874808, "fusion_lon": 0.0, "fusion_lat": 0.0, "type": "electric_scooter", "name": "317da9100122bb2c175914c68f02596f", "is_disabled": 0, "rental_uris": {"ios": "https://dc.lft.to/lastmile_qr_scan", "android": "https://dc.lft.to/lastmile_qr_scan"}, "is_reserved": 0}, {"lon": -76.992032, "bike_id": "b2a7bd6a2f619b973394b31e4079cbba", "lat": 38.89829233333333, "fusion_lon": 0.0, "fusion_lat": 0.0, "type": "electric_scooter", "name": "b2a7bd6a2f619b973394b31e4079cbba", "is_disabled": 0, "rental_uris": {"ios": "https://dc.lft.to/lastmile_qr_scan", "android": "https://dc.lft.to/lastmile_qr_scan"}, "is_reserved": 0}, {"lon": -77.04221083333333, "bike_id": "ea1003294a462b6e21f3653c24bea656", "lat": 38.91116366666667, "fusion_lon": 0.0, "fusion_lat": 0.0, "type": "electric_scooter", "name": "ea1003294a462b6e21f3653c24bea656", "is_disabled": 0, "rental_uris": {"ios": "https://dc.lft.to/lastmile_qr_scan", "android": "https://dc.lft.to/lastmile_qr_scan"}, "is_reserved": 0}, {"lon": -77.04249633333333, "bike_id": "8879383ecebb0694866001550f1ce1b1", "lat": 38.906468, "fusion_lon": 0.0, "fusion_lat": 0.0, "type": "electric_scooter", "name": "8879383ecebb0694866001550f1ce1b1", "is_disabled": 0, "rental_uris": {"ios": "https://dc.lft.to/lastmile_qr_scan", "android": "https://dc.lft.to/lastmile_qr_scan"}, "is_reserved": 0}, {"lon": -76.99743083333334, "bike_id": "1c20c1898e00e875b14dad80e15e8281", "lat": 38.920451166666666, "fusion_lon": 0.0, "fusion_lat": 0.0, "type": "electric_scooter", "name": "1c20c1898e00e875b14dad80e15e8281", "is_disabled": 0, "rental_uris": {"ios": "https://dc.lft.to/lastmile_qr_scan", "android": "https://dc.lft.to/lastmile_qr_scan"}, "is_reserved": 0}, {"lon": -76.99235366666667, "bike_id": "03788182caebb1172ae220ea97e416e2", "lat": 38.907956666666664, "fusion_lon": 0.0, "fusion_lat": 0.0, "type": "electric_scooter", "name": "03788182caebb1172ae220ea97e416e2", "is_disabled": 0, "rental_uris": {"ios": "https://dc.lft.to/lastmile_qr_scan", "android": "https://dc.lft.to/lastmile_qr_scan"}, "is_reserved": 0}, {"lon": -77.00924666666667, "bike_id": "4acbdd3b4e81e6b4e6707f069e6f3977", "lat": 38.896429166666664, "fusion_lon": 0.0, "fusion_lat": 0.0, "type": "electric_scooter", "name": "4acbdd3b4e81e6b4e6707f069e6f3977", "is_disabled": 0, "rental_uris": {"ios": "https://dc.lft.to/lastmile_qr_scan", "android": "https://dc.lft.to/lastmile_qr_scan"}, "is_reserved": 0}, {"lon": -77.04548933333334, "bike_id": "38bd5d8c71d6eb124b0f7ec95cdceb6f", "lat": 38.91919166666667, "fusion_lon": 0.0, "fusion_lat": 0.0, "type": "electric_scooter", "name": "38bd5d8c71d6eb124b0f7ec95cdceb6f", "is_disabled": 0, "rental_uris": {"ios": "https://dc.lft.to/lastmile_qr_scan", "android": "https://dc.lft.to/lastmile_qr_scan"}, "is_reserved": 0}, {"lon": -77.02324666666667, "bike_id": "923be2437acfe20d7d38f2223c5862ce", "lat": 38.90733433333333, "fusion_lon": 0.0, "fusion_lat": 0.0, "type": "electric_scooter", "name": "923be2437acfe20d7d38f2223c5862ce", "is_disabled": 0, "rental_uris": {"ios": "https://dc.lft.to/lastmile_qr_scan", "android": "https://dc.lft.to/lastmile_qr_scan"}, "is_reserved": 0}, {"lon": -77.04400333333334, "bike_id": "e4334f59e256effcd10d3a1b1dcf1749", "lat": 38.9332435, "fusion_lon": 0.0, "fusion_lat": 0.0, "type": "electric_scooter", "name": "e4334f59e256effcd10d3a1b1dcf1749", "is_disabled": 0, "rental_uris": {"ios": "https://dc.lft.to/lastmile_qr_scan", "android": "https://dc.lft.to/lastmile_qr_scan"}, "is_reserved": 0}, {"lon": -77.05276716666667, "bike_id": "24f734d41ec794a8a8761af1af3dd8d7", "lat": 38.91023716666667, "fusion_lon": 0.0, "fusion_lat": 0.0, "type": "electric_scooter", "name": "24f734d41ec794a8a8761af1af3dd8d7", "is_disabled": 0, "rental_uris": {"ios": "https://dc.lft.to/lastmile_qr_scan", "android": "https://dc.lft.to/lastmile_qr_scan"}, "is_reserved": 0}, {"lon": -77.05351533333334, "bike_id": "95aa118b449cca4ebf8c28e819f04cf1", "lat": 38.927095333333334, "fusion_lon": 0.0, "fusion_lat": 0.0, "type": "electric_scooter", "name": "95aa118b449cca4ebf8c28e819f04cf1", "is_disabled": 0, "rental_uris": {"ios": "https://dc.lft.to/lastmile_qr_scan", "android": "https://dc.lft.to/lastmile_qr_scan"}, "is_reserved": 0}, {"lon": -77.00612716666667, "bike_id": "cbb85b4c00350dddbfb26c58cad2e761", "lat": 38.906100333333335, "fusion_lon": 0.0, "fusion_lat": 0.0, "type": "electric_scooter", "name": "cbb85b4c00350dddbfb26c58cad2e761", "is_disabled": 0, "rental_uris": {"ios": "https://dc.lft.to/lastmile_qr_scan", "android": "https://dc.lft.to/lastmile_qr_scan"}, "is_reserved": 0}, {"lon": -77.03485, "bike_id": "dec0c50d7a86aba9cfa291dd791eb2b3", "lat": 38.92483816666667, "fusion_lon": 0.0, "fusion_lat": 0.0, "type": "electric_scooter", "name": "dec0c50d7a86aba9cfa291dd791eb2b3", "is_disabled": 0, "rental_uris": {"ios": "https://dc.lft.to/lastmile_qr_scan", "android": "https://dc.lft.to/lastmile_qr_scan"}, "is_reserved": 0}, {"lon": -77.02001116666666, "bike_id": "8b1f9723a2b6f077fed60b9093971f4d", "lat": 38.913636833333335, "fusion_lon": 0.0, "fusion_lat": 0.0, "type": "electric_scooter", "name": "8b1f9723a2b6f077fed60b9093971f4d", "is_disabled": 0, "rental_uris": {"ios": "https://dc.lft.to/lastmile_qr_scan", "android": "https://dc.lft.to/lastmile_qr_scan"}, "is_reserved": 0}, {"lon": -77.02415166666667, "bike_id": "9379e386a767e72527b400c2d63e04c0", "lat": 38.90966066666667, "fusion_lon": 0.0, "fusion_lat": 0.0, "type": "electric_scooter", "name": "9379e386a767e72527b400c2d63e04c0", "is_disabled": 0, "rental_uris": {"ios": "https://dc.lft.to/lastmile_qr_scan", "android": "https://dc.lft.to/lastmile_qr_scan"}, "is_reserved": 0}, {"lon": -77.02290683333334, "bike_id": "c99976674afd56d1b81e442d5a6b8206", "lat": 38.94475383333333, "fusion_lon": 0.0, "fusion_lat": 0.0, "type": "electric_bike", "name": "c99976674afd56d1b81e442d5a6b8206", "is_disabled": 0, "rental_uris": {"ios": "https://dc.lft.to/lastmile_qr_scan", "android": "https://dc.lft.to/lastmile_qr_scan"}, "is_reserved": 0}, {"lon": -77.07804533333334, "bike_id": "ccefe136ce21f029dcce1c9eb9994d3c", "lat": 38.92370283333333, "fusion_lon": 0.0, "fusion_lat": 0.0, "type": "electric_scooter", "name": "ccefe136ce21f029dcce1c9eb9994d3c", "is_disabled": 0, "rental_uris": {"ios": "https://dc.lft.to/lastmile_qr_scan", "android": "https://dc.lft.to/lastmile_qr_scan"}, "is_reserved": 0}, {"lon": -77.02297466666667, "bike_id": "f8250955a85332c789fef904baafdee8", "lat": 38.90922, "fusion_lon": 0.0, "fusion_lat": 0.0, "type": "electric_scooter", "name": "f8250955a85332c789fef904baafdee8", "is_disabled": 0, "rental_uris": {"ios": "https://dc.lft.to/lastmile_qr_scan", "android": "https://dc.lft.to/lastmile_qr_scan"}, "is_reserved": 0}, {"lon": -77.00777516666666, "bike_id": "ebf8cbfd1587a33d453c173b540873be", "lat": 38.906642833333336, "fusion_lon": 0.0, "fusion_lat": 0.0, "type": "electric_scooter", "name": "ebf8cbfd1587a33d453c173b540873be", "is_disabled": 0, "rental_uris": {"ios": "https://dc.lft.to/lastmile_qr_scan", "android": "https://dc.lft.to/lastmile_qr_scan"}, "is_reserved": 0}, {"lon": -77.05129966666667, "bike_id": "08b43002c5504fe83a31a06162b67802", "lat": 38.923664, "fusion_lon": 0.0, "fusion_lat": 0.0, "type": "electric_scooter", "name": "08b43002c5504fe83a31a06162b67802", "is_disabled": 0, "rental_uris": {"ios": "https://dc.lft.to/lastmile_qr_scan", "android": "https://dc.lft.to/lastmile_qr_scan"}, "is_reserved": 0}, {"lon": -77.024918, "bike_id": "134624d8a9209184076bde07f5356564", "lat": 38.93862383333333, "fusion_lon": 0.0, "fusion_lat": 0.0, "type": "electric_scooter", "name": "134624d8a9209184076bde07f5356564", "is_disabled": 0, "rental_uris": {"ios": "https://dc.lft.to/lastmile_qr_scan", "android": "https://dc.lft.to/lastmile_qr_scan"}, "is_reserved": 0}, {"lon": -76.92756716666666, "bike_id": "8979525087b9b4fcac4023684084f683", "lat": 38.88055633333333, "fusion_lon": 0.0, "fusion_lat": 0.0, "type": "electric_scooter", "name": "8979525087b9b4fcac4023684084f683", "is_disabled": 0, "rental_uris": {"ios": "https://dc.lft.to/lastmile_qr_scan", "android": "https://dc.lft.to/lastmile_qr_scan"}, "is_reserved": 0}, {"lon": -77.02673166666666, "bike_id": "90edfb2ac2c2641c67eeba7dcb3a8dcf", "lat": 38.98427433333333, "fusion_lon": 0.0, "fusion_lat": 0.0, "type": "electric_scooter", "name": "90edfb2ac2c2641c67eeba7dcb3a8dcf", "is_disabled": 0, "rental_uris": {"ios": "https://dc.lft.to/lastmile_qr_scan", "android": "https://dc.lft.to/lastmile_qr_scan"}, "is_reserved": 0}, {"lon": -77.023878, "bike_id": "ea07b817c1895ab3686c48ddd208d5e0", "lat": 38.90843316666667, "fusion_lon": 0.0, "fusion_lat": 0.0, "type": "electric_scooter", "name": "ea07b817c1895ab3686c48ddd208d5e0", "is_disabled": 0, "rental_uris": {"ios": "https://dc.lft.to/lastmile_qr_scan", "android": "https://dc.lft.to/lastmile_qr_scan"}, "is_reserved": 0}, {"lon": -77.06496533333333, "bike_id": "a182093d123c38be95b7203d5f77f65a", "lat": 38.92909066666667, "fusion_lon": 0.0, "fusion_lat": 0.0, "type": "electric_scooter", "name": "a182093d123c38be95b7203d5f77f65a", "is_disabled": 0, "rental_uris": {"ios": "https://dc.lft.to/lastmile_qr_scan", "android": "https://dc.lft.to/lastmile_qr_scan"}, "is_reserved": 0}, {"lon": -76.98038666666666, "bike_id": "7d1e5b4aeb2eddd698b79fab9771eaec", "lat": 38.889685166666666, "fusion_lon": 0.0, "fusion_lat": 0.0, "type": "electric_scooter", "name": "7d1e5b4aeb2eddd698b79fab9771eaec", "is_disabled": 0, "rental_uris": {"ios": "https://dc.lft.to/lastmile_qr_scan", "android": "https://dc.lft.to/lastmile_qr_scan"}, "is_reserved": 0}, {"lon": -77.04817483333333, "bike_id": "fd75db83fffbdbebadcf2cdc3f095105", "lat": 38.9203215, "fusion_lon": 0.0, "fusion_lat": 0.0, "type": "electric_scooter", "name": "fd75db83fffbdbebadcf2cdc3f095105", "is_disabled": 0, "rental_uris": {"ios": "https://dc.lft.to/lastmile_qr_scan", "android": "https://dc.lft.to/lastmile_qr_scan"}, "is_reserved": 0}, {"lon": -77.00888583333334, "bike_id": "51a0cc53e968c87a53ed63a883cf2a49", "lat": 38.91712783333333, "fusion_lon": 0.0, "fusion_lat": 0.0, "type": "electric_scooter", "name": "51a0cc53e968c87a53ed63a883cf2a49", "is_disabled": 0, "rental_uris": {"ios": "https://dc.lft.to/lastmile_qr_scan", "android": "https://dc.lft.to/lastmile_qr_scan"}, "is_reserved": 0}, {"lon": -77.0378365, "bike_id": "90f765cc5b461778b68af9e72c40d283", "lat": 38.92571566666667, "fusion_lon": 0.0, "fusion_lat": 0.0, "type": "electric_scooter", "name": "90f765cc5b461778b68af9e72c40d283", "is_disabled": 0, "rental_uris": {"ios": "https://dc.lft.to/lastmile_qr_scan", "android": "https://dc.lft.to/lastmile_qr_scan"}, "is_reserved": 0}, {"lon": -77.025842, "bike_id": "af6a0cfe8580d15bef070eb014d8beb8", "lat": 38.892293, "fusion_lon": 0.0, "fusion_lat": 0.0, "type": "electric_scooter", "name": "af6a0cfe8580d15bef070eb014d8beb8", "is_disabled": 0, "rental_uris": {"ios": "https://dc.lft.to/lastmile_qr_scan", "android": "https://dc.lft.to/lastmile_qr_scan"}, "is_reserved": 0}, {"lon": -76.99465516666666, "bike_id": "6f1b1793f4ac8f662b27ecbc324b4aa9", "lat": 38.862264, "fusion_lon": 0.0, "fusion_lat": 0.0, "type": "electric_scooter", "name": "6f1b1793f4ac8f662b27ecbc324b4aa9", "is_disabled": 0, "rental_uris": {"ios": "https://dc.lft.to/lastmile_qr_scan", "android": "https://dc.lft.to/lastmile_qr_scan"}, "is_reserved": 0}, {"lon": -77.001982, "bike_id": "f493eabc8e29ca1333cd8d6d85abdb65", "lat": 38.90035183333333, "fusion_lon": 0.0, "fusion_lat": 0.0, "type": "electric_scooter", "name": "f493eabc8e29ca1333cd8d6d85abdb65", "is_disabled": 0, "rental_uris": {"ios": "https://dc.lft.to/lastmile_qr_scan", "android": "https://dc.lft.to/lastmile_qr_scan"}, "is_reserved": 0}, {"lon": -77.0481525, "bike_id": "7726780afa1e4698b3441f588d8d0c2c", "lat": 38.91635383333333, "fusion_lon": 0.0, "fusion_lat": 0.0, "type": "electric_scooter", "name": "7726780afa1e4698b3441f588d8d0c2c", "is_disabled": 0, "rental_uris": {"ios": "https://dc.lft.to/lastmile_qr_scan", "android": "https://dc.lft.to/lastmile_qr_scan"}, "is_reserved": 0}, {"lon": -77.034075, "bike_id": "835dfe3f344015d620c850002e6b9509", "lat": 38.931210666666665, "fusion_lon": 0.0, "fusion_lat": 0.0, "type": "electric_scooter", "name": "835dfe3f344015d620c850002e6b9509", "is_disabled": 0, "rental_uris": {"ios": "https://dc.lft.to/lastmile_qr_scan", "android": "https://dc.lft.to/lastmile_qr_scan"}, "is_reserved": 0}, {"lon": -77.0332575, "bike_id": "221ef09e9e741a8ca52374e63e410fb3", "lat": 38.9471365, "fusion_lon": 0.0, "fusion_lat": 0.0, "type": "electric_scooter", "name": "221ef09e9e741a8ca52374e63e410fb3", "is_disabled": 0, "rental_uris": {"ios": "https://dc.lft.to/lastmile_qr_scan", "android": "https://dc.lft.to/lastmile_qr_scan"}, "is_reserved": 0}, {"lon": -77.01140066666666, "bike_id": "ae2ea3cea3cc4f9d5982e2c1624ce03d", "lat": 38.91255833333334, "fusion_lon": 0.0, "fusion_lat": 0.0, "type": "electric_scooter", "name": "ae2ea3cea3cc4f9d5982e2c1624ce03d", "is_disabled": 0, "rental_uris": {"ios": "https://dc.lft.to/lastmile_qr_scan", "android": "https://dc.lft.to/lastmile_qr_scan"}, "is_reserved": 0}, {"lon": -77.0054245, "bike_id": "8e05cfe6778dee55c745a62cc67107d1", "lat": 38.87928466666666, "fusion_lon": 0.0, "fusion_lat": 0.0, "type": "electric_scooter", "name": "8e05cfe6778dee55c745a62cc67107d1", "is_disabled": 0, "rental_uris": {"ios": "https://dc.lft.to/lastmile_qr_scan", "android": "https://dc.lft.to/lastmile_qr_scan"}, "is_reserved": 0}, {"lon": -77.04832216666667, "bike_id": "883ff81dbe2e2fe84436cc03ed82c92d", "lat": 38.91889666666667, "fusion_lon": 0.0, "fusion_lat": 0.0, "type": "electric_scooter", "name": "883ff81dbe2e2fe84436cc03ed82c92d", "is_disabled": 0, "rental_uris": {"ios": "https://dc.lft.to/lastmile_qr_scan", "android": "https://dc.lft.to/lastmile_qr_scan"}, "is_reserved": 0}, {"lon": -76.93370083333333, "bike_id": "aea279a71540573b2d0e25decf8cd8e2", "lat": 38.899133666666664, "fusion_lon": 0.0, "fusion_lat": 0.0, "type": "electric_scooter", "name": "aea279a71540573b2d0e25decf8cd8e2", "is_disabled": 0, "rental_uris": {"ios": "https://dc.lft.to/lastmile_qr_scan", "android": "https://dc.lft.to/lastmile_qr_scan"}, "is_reserved": 0}, {"lon": -77.03380616666666, "bike_id": "d45a7a919a8c769fb27330d937a6888b", "lat": 38.9097555, "fusion_lon": 0.0, "fusion_lat": 0.0, "type": "electric_scooter", "name": "d45a7a919a8c769fb27330d937a6888b", "is_disabled": 0, "rental_uris": {"ios": "https://dc.lft.to/lastmile_qr_scan", "android": "https://dc.lft.to/lastmile_qr_scan"}, "is_reserved": 0}, {"lon": -76.98093033333333, "bike_id": "4bc1a56cca47cfe659f7ca73b70e4fab", "lat": 38.8813555, "fusion_lon": 0.0, "fusion_lat": 0.0, "type": "electric_bike", "name": "4bc1a56cca47cfe659f7ca73b70e4fab", "is_disabled": 0, "rental_uris": {"ios": "https://dc.lft.to/lastmile_qr_scan", "android": "https://dc.lft.to/lastmile_qr_scan"}, "is_reserved": 0}, {"lon": -77.04136683333333, "bike_id": "8f2ac0a30e58b96c9959673cd6f87c5f", "lat": 38.925348, "fusion_lon": 0.0, "fusion_lat": 0.0, "type": "electric_scooter", "name": "8f2ac0a30e58b96c9959673cd6f87c5f", "is_disabled": 0, "rental_uris": {"ios": "https://dc.lft.to/lastmile_qr_scan", "android": "https://dc.lft.to/lastmile_qr_scan"}, "is_reserved": 0}, {"lon": -77.04199683333333, "bike_id": "5f09ffcea85622571d1503724d363a3f", "lat": 38.9262105, "fusion_lon": 0.0, "fusion_lat": 0.0, "type": "electric_scooter", "name": "5f09ffcea85622571d1503724d363a3f", "is_disabled": 0, "rental_uris": {"ios": "https://dc.lft.to/lastmile_qr_scan", "android": "https://dc.lft.to/lastmile_qr_scan"}, "is_reserved": 0}, {"lon": -76.95196733333333, "bike_id": "0a9346a86812b194129c93276cf5a91a", "lat": 38.900039, "fusion_lon": 0.0, "fusion_lat": 0.0, "type": "electric_scooter", "name": "0a9346a86812b194129c93276cf5a91a", "is_disabled": 0, "rental_uris": {"ios": "https://dc.lft.to/lastmile_qr_scan", "android": "https://dc.lft.to/lastmile_qr_scan"}, "is_reserved": 0}, {"lon": -77.0410365, "bike_id": "fb4b2b1b6cb03481d695ef9fb26845a5", "lat": 38.918537, "fusion_lon": 0.0, "fusion_lat": 0.0, "type": "electric_scooter", "name": "fb4b2b1b6cb03481d695ef9fb26845a5", "is_disabled": 0, "rental_uris": {"ios": "https://dc.lft.to/lastmile_qr_scan", "android": "https://dc.lft.to/lastmile_qr_scan"}, "is_reserved": 0}, {"lon": -77.038301, "bike_id": "040771c0f9dba35bb0704f017301450f", "lat": 38.90781883333333, "fusion_lon": 0.0, "fusion_lat": 0.0, "type": "electric_scooter", "name": "040771c0f9dba35bb0704f017301450f", "is_disabled": 0, "rental_uris": {"ios": "https://dc.lft.to/lastmile_qr_scan", "android": "https://dc.lft.to/lastmile_qr_scan"}, "is_reserved": 0}, {"lon": -77.02378733333333, "bike_id": "c12ee0eacb55f1f815bcc3207f8aa2e0", "lat": 38.918261666666666, "fusion_lon": 0.0, "fusion_lat": 0.0, "type": "electric_scooter", "name": "c12ee0eacb55f1f815bcc3207f8aa2e0", "is_disabled": 0, "rental_uris": {"ios": "https://dc.lft.to/lastmile_qr_scan", "android": "https://dc.lft.to/lastmile_qr_scan"}, "is_reserved": 0}, {"lon": -77.02964516666667, "bike_id": "e07ba9bf2e75aa8a882f84f4fd5e560c", "lat": 38.92569133333333, "fusion_lon": 0.0, "fusion_lat": 0.0, "type": "electric_scooter", "name": "e07ba9bf2e75aa8a882f84f4fd5e560c", "is_disabled": 0, "rental_uris": {"ios": "https://dc.lft.to/lastmile_qr_scan", "android": "https://dc.lft.to/lastmile_qr_scan"}, "is_reserved": 0}, {"lon": -76.99840616666667, "bike_id": "a87ca7cd6c78ab8d1cfdf1c2dd2b82a5", "lat": 38.90239, "fusion_lon": 0.0, "fusion_lat": 0.0, "type": "electric_scooter", "name": "a87ca7cd6c78ab8d1cfdf1c2dd2b82a5", "is_disabled": 0, "rental_uris": {"ios": "https://dc.lft.to/lastmile_qr_scan", "android": "https://dc.lft.to/lastmile_qr_scan"}, "is_reserved": 0}, {"lon": -77.005693, "bike_id": "53f3a619363ac592e8c531f9776e095d", "lat": 38.87847516666667, "fusion_lon": 0.0, "fusion_lat": 0.0, "type": "electric_scooter", "name": "53f3a619363ac592e8c531f9776e095d", "is_disabled": 0, "rental_uris": {"ios": "https://dc.lft.to/lastmile_qr_scan", "android": "https://dc.lft.to/lastmile_qr_scan"}, "is_reserved": 0}, {"lon": -77.03482783333334, "bike_id": "76d42460923e23e8dbd81dbf702ec3d3", "lat": 38.92870083333333, "fusion_lon": 0.0, "fusion_lat": 0.0, "type": "electric_scooter", "name": "76d42460923e23e8dbd81dbf702ec3d3", "is_disabled": 0, "rental_uris": {"ios": "https://dc.lft.to/lastmile_qr_scan", "android": "https://dc.lft.to/lastmile_qr_scan"}, "is_reserved": 0}, {"lon": -77.00063016666667, "bike_id": "9beef013410f7f3783d6a1f2a917fb58", "lat": 38.90722366666667, "fusion_lon": 0.0, "fusion_lat": 0.0, "type": "electric_scooter", "name": "9beef013410f7f3783d6a1f2a917fb58", "is_disabled": 0, "rental_uris": {"ios": "https://dc.lft.to/lastmile_qr_scan", "android": "https://dc.lft.to/lastmile_qr_scan"}, "is_reserved": 0}, {"lon": -76.9317655, "bike_id": "800b86a7acf543d2ac05cdb1f8863384", "lat": 38.898853333333335, "fusion_lon": 0.0, "fusion_lat": 0.0, "type": "electric_scooter", "name": "800b86a7acf543d2ac05cdb1f8863384", "is_disabled": 0, "rental_uris": {"ios": "https://dc.lft.to/lastmile_qr_scan", "android": "https://dc.lft.to/lastmile_qr_scan"}, "is_reserved": 0}, {"lon": -76.949623, "bike_id": "dbd9fce01a2160514c66cc91440dcec8", "lat": 38.894422666666664, "fusion_lon": 0.0, "fusion_lat": 0.0, "type": "electric_scooter", "name": "dbd9fce01a2160514c66cc91440dcec8", "is_disabled": 0, "rental_uris": {"ios": "https://dc.lft.to/lastmile_qr_scan", "android": "https://dc.lft.to/lastmile_qr_scan"}, "is_reserved": 0}, {"lon": -76.99476966666667, "bike_id": "0c713a21655f8361ad54747625c51a57", "lat": 38.862191333333335, "fusion_lon": 0.0, "fusion_lat": 0.0, "type": "electric_scooter", "name": "0c713a21655f8361ad54747625c51a57", "is_disabled": 0, "rental_uris": {"ios": "https://dc.lft.to/lastmile_qr_scan", "android": "https://dc.lft.to/lastmile_qr_scan"}, "is_reserved": 0}, {"lon": -77.03173933333333, "bike_id": "71d344f8fd22fd2cc547bbbebeb0e0bf", "lat": 38.935992666666664, "fusion_lon": 0.0, "fusion_lat": 0.0, "type": "electric_scooter", "name": "71d344f8fd22fd2cc547bbbebeb0e0bf", "is_disabled": 0, "rental_uris": {"ios": "https://dc.lft.to/lastmile_qr_scan", "android": "https://dc.lft.to/lastmile_qr_scan"}, "is_reserved": 0}, {"lon": -76.97751716666667, "bike_id": "85377db8e4243d7de90255dabf05494e", "lat": 38.86491633333333, "fusion_lon": 0.0, "fusion_lat": 0.0, "type": "electric_bike", "name": "85377db8e4243d7de90255dabf05494e", "is_disabled": 0, "rental_uris": {"ios": "https://dc.lft.to/lastmile_qr_scan", "android": "https://dc.lft.to/lastmile_qr_scan"}, "is_reserved": 0}, {"lon": -77.03308033333333, "bike_id": "e1433cfb4232e47b6f3e0009d26324ea", "lat": 38.93438883333334, "fusion_lon": 0.0, "fusion_lat": 0.0, "type": "electric_scooter", "name": "e1433cfb4232e47b6f3e0009d26324ea", "is_disabled": 0, "rental_uris": {"ios": "https://dc.lft.to/lastmile_qr_scan", "android": "https://dc.lft.to/lastmile_qr_scan"}, "is_reserved": 0}, {"lon": -77.01879833333334, "bike_id": "f60cad5765ad6fda8af558fd699a652b", "lat": 38.91410666666667, "fusion_lon": 0.0, "fusion_lat": 0.0, "type": "electric_scooter", "name": "f60cad5765ad6fda8af558fd699a652b", "is_disabled": 0, "rental_uris": {"ios": "https://dc.lft.to/lastmile_qr_scan", "android": "https://dc.lft.to/lastmile_qr_scan"}, "is_reserved": 0}, {"lon": -77.1856145, "bike_id": "7c5657a4fde1427ff0b6a3b5dbaf75f8", "lat": 39.09975933333333, "fusion_lon": 0.0, "fusion_lat": 0.0, "type": "electric_bike", "name": "7c5657a4fde1427ff0b6a3b5dbaf75f8", "is_disabled": 0, "rental_uris": {"ios": "https://dc.lft.to/lastmile_qr_scan", "android": "https://dc.lft.to/lastmile_qr_scan"}, "is_reserved": 0}, {"lon": -76.99596883333334, "bike_id": "b91bc747dfe5c7cbc1cdccb21e6af2f1", "lat": 38.950748833333336, "fusion_lon": 0.0, "fusion_lat": 0.0, "type": "electric_bike", "name": "b91bc747dfe5c7cbc1cdccb21e6af2f1", "is_disabled": 0, "rental_uris": {"ios": "https://dc.lft.to/lastmile_qr_scan", "android": "https://dc.lft.to/lastmile_qr_scan"}, "is_reserved": 0}, {"lon": -77.03717483333334, "bike_id": "208a42d659b5f25272857b399c70956c", "lat": 38.926388, "fusion_lon": 0.0, "fusion_lat": 0.0, "type": "electric_scooter", "name": "208a42d659b5f25272857b399c70956c", "is_disabled": 0, "rental_uris": {"ios": "https://dc.lft.to/lastmile_qr_scan", "android": "https://dc.lft.to/lastmile_qr_scan"}, "is_reserved": 0}, {"lon": -77.004844, "bike_id": "2f85763978a3a516c39e4601ab72e64b", "lat": 38.87768633333334, "fusion_lon": 0.0, "fusion_lat": 0.0, "type": "electric_scooter", "name": "2f85763978a3a516c39e4601ab72e64b", "is_disabled": 0, "rental_uris": {"ios": "https://dc.lft.to/lastmile_qr_scan", "android": "https://dc.lft.to/lastmile_qr_scan"}, "is_reserved": 0}, {"lon": -77.07598683333333, "bike_id": "9b64cf88b707f5f99d37b81588dbf9e4", "lat": 38.912193, "fusion_lon": 0.0, "fusion_lat": 0.0, "type": "electric_scooter", "name": "9b64cf88b707f5f99d37b81588dbf9e4", "is_disabled": 0, "rental_uris": {"ios": "https://dc.lft.to/lastmile_qr_scan", "android": "https://dc.lft.to/lastmile_qr_scan"}, "is_reserved": 0}, {"lon": -77.03168116666667, "bike_id": "859b9535db618aaf0b248bc457fcaab6", "lat": 38.92106416666667, "fusion_lon": 0.0, "fusion_lat": 0.0, "type": "electric_bike", "name": "859b9535db618aaf0b248bc457fcaab6", "is_disabled": 0, "rental_uris": {"ios": "https://dc.lft.to/lastmile_qr_scan", "android": "https://dc.lft.to/lastmile_qr_scan"}, "is_reserved": 0}, {"lon": -77.02203533333333, "bike_id": "fc39693bf5bc98d1c11c48a70708cbdf", "lat": 38.895054, "fusion_lon": 0.0, "fusion_lat": 0.0, "type": "electric_scooter", "name": "fc39693bf5bc98d1c11c48a70708cbdf", "is_disabled": 0, "rental_uris": {"ios": "https://dc.lft.to/lastmile_qr_scan", "android": "https://dc.lft.to/lastmile_qr_scan"}, "is_reserved": 0}, {"lon": -77.01498766666667, "bike_id": "e3fba2520d0833eb5b99380e42011b42", "lat": 38.91761283333334, "fusion_lon": 0.0, "fusion_lat": 0.0, "type": "electric_scooter", "name": "e3fba2520d0833eb5b99380e42011b42", "is_disabled": 0, "rental_uris": {"ios": "https://dc.lft.to/lastmile_qr_scan", "android": "https://dc.lft.to/lastmile_qr_scan"}, "is_reserved": 0}, {"lon": -77.00564216666666, "bike_id": "f2738bcaa9ae51eab0c574e9845d78cd", "lat": 38.90559533333333, "fusion_lon": 0.0, "fusion_lat": 0.0, "type": "electric_scooter", "name": "f2738bcaa9ae51eab0c574e9845d78cd", "is_disabled": 0, "rental_uris": {"ios": "https://dc.lft.to/lastmile_qr_scan", "android": "https://dc.lft.to/lastmile_qr_scan"}, "is_reserved": 0}, {"lon": -76.95650666666667, "bike_id": "6c5016470730eebe0452ab4bdc9ef66f", "lat": 38.896206166666666, "fusion_lon": 0.0, "fusion_lat": 0.0, "type": "electric_scooter", "name": "6c5016470730eebe0452ab4bdc9ef66f", "is_disabled": 0, "rental_uris": {"ios": "https://dc.lft.to/lastmile_qr_scan", "android": "https://dc.lft.to/lastmile_qr_scan"}, "is_reserved": 0}, {"lon": -77.03981316666666, "bike_id": "a92fa70b8058c1c01a059b21f638b975", "lat": 38.903831833333335, "fusion_lon": 0.0, "fusion_lat": 0.0, "type": "electric_scooter", "name": "a92fa70b8058c1c01a059b21f638b975", "is_disabled": 0, "rental_uris": {"ios": "https://dc.lft.to/lastmile_qr_scan", "android": "https://dc.lft.to/lastmile_qr_scan"}, "is_reserved": 0}, {"lon": -77.004777, "bike_id": "045010104e8a6e884b6616da11128b24", "lat": 38.89582033333333, "fusion_lon": 0.0, "fusion_lat": 0.0, "type": "electric_scooter", "name": "045010104e8a6e884b6616da11128b24", "is_disabled": 0, "rental_uris": {"ios": "https://dc.lft.to/lastmile_qr_scan", "android": "https://dc.lft.to/lastmile_qr_scan"}, "is_reserved": 0}, {"lon": -77.12743916666666, "bike_id": "bc475123b7927287fb495675a6ef0bcb", "lat": 38.895572, "fusion_lon": 0.0, "fusion_lat": 0.0, "type": "electric_bike", "name": "bc475123b7927287fb495675a6ef0bcb", "is_disabled": 0, "rental_uris": {"ios": "https://dc.lft.to/lastmile_qr_scan", "android": "https://dc.lft.to/lastmile_qr_scan"}, "is_reserved": 0}, {"lon": -77.01779583333334, "bike_id": "856ba10b7db11406e3864bfb9df936b9", "lat": 38.901173166666666, "fusion_lon": 0.0, "fusion_lat": 0.0, "type": "electric_scooter", "name": "856ba10b7db11406e3864bfb9df936b9", "is_disabled": 0, "rental_uris": {"ios": "https://dc.lft.to/lastmile_qr_scan", "android": "https://dc.lft.to/lastmile_qr_scan"}, "is_reserved": 0}, {"lon": -76.88401233333333, "bike_id": "30d7c5d1ace6ff6bf10a2e02db7104d9", "lat": 38.93168883333333, "fusion_lon": 0.0, "fusion_lat": 0.0, "type": "electric_bike", "name": "30d7c5d1ace6ff6bf10a2e02db7104d9", "is_disabled": 0, "rental_uris": {"ios": "https://dc.lft.to/lastmile_qr_scan", "android": "https://dc.lft.to/lastmile_qr_scan"}, "is_reserved": 0}, {"lon": -77.0181465, "bike_id": "523b0584fff2b2d3b663c2adb1a5657a", "lat": 38.96489166666667, "fusion_lon": 0.0, "fusion_lat": 0.0, "type": "electric_scooter", "name": "523b0584fff2b2d3b663c2adb1a5657a", "is_disabled": 0, "rental_uris": {"ios": "https://dc.lft.to/lastmile_qr_scan", "android": "https://dc.lft.to/lastmile_qr_scan"}, "is_reserved": 0}, {"lon": -77.02589016666667, "bike_id": "b29e67b6bd6c9a16a3f5a0845db8d92e", "lat": 38.914116, "fusion_lon": 0.0, "fusion_lat": 0.0, "type": "electric_scooter", "name": "b29e67b6bd6c9a16a3f5a0845db8d92e", "is_disabled": 0, "rental_uris": {"ios": "https://dc.lft.to/lastmile_qr_scan", "android": "https://dc.lft.to/lastmile_qr_scan"}, "is_reserved": 0}, {"lon": -77.038846, "bike_id": "dea5797e3a0e8412a60b3e1524544aff", "lat": 38.94870266666667, "fusion_lon": 0.0, "fusion_lat": 0.0, "type": "electric_scooter", "name": "dea5797e3a0e8412a60b3e1524544aff", "is_disabled": 0, "rental_uris": {"ios": "https://dc.lft.to/lastmile_qr_scan", "android": "https://dc.lft.to/lastmile_qr_scan"}, "is_reserved": 0}, {"lon": -77.0464785, "bike_id": "986638377685e652d49599eada7b59ae", "lat": 39.0549205, "fusion_lon": 0.0, "fusion_lat": 0.0, "type": "electric_bike", "name": "986638377685e652d49599eada7b59ae", "is_disabled": 0, "rental_uris": {"ios": "https://dc.lft.to/lastmile_qr_scan", "android": "https://dc.lft.to/lastmile_qr_scan"}, "is_reserved": 0}, {"lon": -77.05745116666667, "bike_id": "b81f9f94282353134a640754f392d0ec", "lat": 38.9339365, "fusion_lon": 0.0, "fusion_lat": 0.0, "type": "electric_scooter", "name": "b81f9f94282353134a640754f392d0ec", "is_disabled": 0, "rental_uris": {"ios": "https://dc.lft.to/lastmile_qr_scan", "android": "https://dc.lft.to/lastmile_qr_scan"}, "is_reserved": 0}, {"lon": -77.05588316666666, "bike_id": "168b12e7fb1562ca0fadd6b60ed9ecd8", "lat": 38.93143583333333, "fusion_lon": 0.0, "fusion_lat": 0.0, "type": "electric_scooter", "name": "168b12e7fb1562ca0fadd6b60ed9ecd8", "is_disabled": 0, "rental_uris": {"ios": "https://dc.lft.to/lastmile_qr_scan", "android": "https://dc.lft.to/lastmile_qr_scan"}, "is_reserved": 0}, {"lon": -77.02763266666666, "bike_id": "94027d91ca86599a03e213667df0f5cb", "lat": 38.9657305, "fusion_lon": 0.0, "fusion_lat": 0.0, "type": "electric_bike", "name": "94027d91ca86599a03e213667df0f5cb", "is_disabled": 0, "rental_uris": {"ios": "https://dc.lft.to/lastmile_qr_scan", "android": "https://dc.lft.to/lastmile_qr_scan"}, "is_reserved": 0}, {"lon": -76.96134216666667, "bike_id": "db4a434ecfd667564e47331e9a54cde1", "lat": 38.942142, "fusion_lon": 0.0, "fusion_lat": 0.0, "type": "electric_bike", "name": "db4a434ecfd667564e47331e9a54cde1", "is_disabled": 0, "rental_uris": {"ios": "https://dc.lft.to/lastmile_qr_scan", "android": "https://dc.lft.to/lastmile_qr_scan"}, "is_reserved": 0}, {"lon": -76.98825216666667, "bike_id": "f1ee8c5a6e64e40f26059c4926034e83", "lat": 38.890745833333334, "fusion_lon": 0.0, "fusion_lat": 0.0, "type": "electric_scooter", "name": "f1ee8c5a6e64e40f26059c4926034e83", "is_disabled": 0, "rental_uris": {"ios": "https://dc.lft.to/lastmile_qr_scan", "android": "https://dc.lft.to/lastmile_qr_scan"}, "is_reserved": 0}, {"lon": -76.99612233333333, "bike_id": "d6801378b1727ad988c595a797437984", "lat": 38.8875255, "fusion_lon": 0.0, "fusion_lat": 0.0, "type": "electric_scooter", "name": "d6801378b1727ad988c595a797437984", "is_disabled": 0, "rental_uris": {"ios": "https://dc.lft.to/lastmile_qr_scan", "android": "https://dc.lft.to/lastmile_qr_scan"}, "is_reserved": 0}, {"lon": -77.02654283333334, "bike_id": "cac23d45e0057a812da7f0b13c593575", "lat": 38.978129, "fusion_lon": 0.0, "fusion_lat": 0.0, "type": "electric_scooter", "name": "cac23d45e0057a812da7f0b13c593575", "is_disabled": 0, "rental_uris": {"ios": "https://dc.lft.to/lastmile_qr_scan", "android": "https://dc.lft.to/lastmile_qr_scan"}, "is_reserved": 0}, {"lon": -76.977114, "bike_id": "0e22d7f7409b8c56db82c4ea07ad9449", "lat": 38.88777833333333, "fusion_lon": 0.0, "fusion_lat": 0.0, "type": "electric_scooter", "name": "0e22d7f7409b8c56db82c4ea07ad9449", "is_disabled": 0, "rental_uris": {"ios": "https://dc.lft.to/lastmile_qr_scan", "android": "https://dc.lft.to/lastmile_qr_scan"}, "is_reserved": 0}, {"lon": -77.04119116666666, "bike_id": "d7308784c4481a7184090b08ec59001a", "lat": 38.9346825, "fusion_lon": 0.0, "fusion_lat": 0.0, "type": "electric_scooter", "name": "d7308784c4481a7184090b08ec59001a", "is_disabled": 0, "rental_uris": {"ios": "https://dc.lft.to/lastmile_qr_scan", "android": "https://dc.lft.to/lastmile_qr_scan"}, "is_reserved": 0}, {"lon": -76.97872816666667, "bike_id": "961a7314e5ef4e3b5cb30ff14b11c757", "lat": 38.88302316666667, "fusion_lon": 0.0, "fusion_lat": 0.0, "type": "electric_scooter", "name": "961a7314e5ef4e3b5cb30ff14b11c757", "is_disabled": 0, "rental_uris": {"ios": "https://dc.lft.to/lastmile_qr_scan", "android": "https://dc.lft.to/lastmile_qr_scan"}, "is_reserved": 0}, {"lon": -77.01357933333334, "bike_id": "a21a08f260d243dafb33f0c21b9361ce", "lat": 38.89715966666667, "fusion_lon": 0.0, "fusion_lat": 0.0, "type": "electric_scooter", "name": "a21a08f260d243dafb33f0c21b9361ce", "is_disabled": 0, "rental_uris": {"ios": "https://dc.lft.to/lastmile_qr_scan", "android": "https://dc.lft.to/lastmile_qr_scan"}, "is_reserved": 0}, {"lon": -77.04521616666666, "bike_id": "9e47694722e7d3a6db40312299080560", "lat": 38.90345816666667, "fusion_lon": 0.0, "fusion_lat": 0.0, "type": "electric_scooter", "name": "9e47694722e7d3a6db40312299080560", "is_disabled": 0, "rental_uris": {"ios": "https://dc.lft.to/lastmile_qr_scan", "android": "https://dc.lft.to/lastmile_qr_scan"}, "is_reserved": 0}, {"lon": -77.00796183333334, "bike_id": "19c5b1a437e8c5c02f6e980ccffc1d59", "lat": 38.89647216666667, "fusion_lon": 0.0, "fusion_lat": 0.0, "type": "electric_scooter", "name": "19c5b1a437e8c5c02f6e980ccffc1d59", "is_disabled": 0, "rental_uris": {"ios": "https://dc.lft.to/lastmile_qr_scan", "android": "https://dc.lft.to/lastmile_qr_scan"}, "is_reserved": 0}, {"lon": -77.08775333333334, "bike_id": "b1e7e20b9f0be0ed5175249aec887995", "lat": 38.8389875, "fusion_lon": 0.0, "fusion_lat": 0.0, "type": "electric_bike", "name": "b1e7e20b9f0be0ed5175249aec887995", "is_disabled": 0, "rental_uris": {"ios": "https://dc.lft.to/lastmile_qr_scan", "android": "https://dc.lft.to/lastmile_qr_scan"}, "is_reserved": 0}, {"lon": -77.02858966666666, "bike_id": "f5b5949aa8f988d62a3b745d874531e6", "lat": 38.927630666666666, "fusion_lon": 0.0, "fusion_lat": 0.0, "type": "electric_scooter", "name": "f5b5949aa8f988d62a3b745d874531e6", "is_disabled": 0, "rental_uris": {"ios": "https://dc.lft.to/lastmile_qr_scan", "android": "https://dc.lft.to/lastmile_qr_scan"}, "is_reserved": 0},