{"data": {"bikes": [{"rental_uris": {"ios": "https://dc.lft.to/lastmile_qr_scan", "android": "https://dc.lft.to/lastmile_qr_scan"}, "type": "electric_scooter", "name": "4816289193d1637fad28949580f79ecb", "is_reserved": 0, "lon": -77.00706083333333, "is_disabled": 0, "fusion_lat": 0.0, "lat": 38.905534333333335, "bike_id": "4816289193d1637fad28949580f79ecb", "fusion_lon": 0.0}, {"rental_uris": {"ios": "https://dc.lft.to/lastmile_qr_scan", "android": "https://dc.lft.to/lastmile_qr_scan"}, "type": "electric_scooter", "name": "64026aadadd21c4e87ddd824eee5a5a6", "is_reserved": 0, "lon": -77.03571466666666, "is_disabled": 0, "fusion_lat": 0.0, "lat": 38.917754333333335, "bike_id": "64026aadadd21c4e87ddd824eee5a5a6", "fusion_lon": 0.0}, {"rental_uris": {"ios": "https://dc.lft.to/lastmile_qr_scan", "android": "https://dc.lft.to/lastmile_qr_scan"}, "type": "electric_scooter", "name": "cdf9bd8664e9e501ea734774c391b608", "is_reserved": 0, "lon": -76.98073316666667, "is_disabled": 0, "fusion_lat": 0.0, "lat": 38.901804166666665, "bike_id": "cdf9bd8664e9e501ea734774c391b608", "fusion_lon": 0.0}, {"rental_uris": {"ios": "https://dc.lft.to/lastmile_qr_scan", "android": "https://dc.lft.to/lastmile_qr_scan"}, "type": "electric_scooter", "name": "88a861f5a2b1e973d7443923c03cce41", "is_reserved": 0, "lon": -77.04036933333333, "is_disabled": 0, "fusion_lat": 0.0, "lat": 38.9119165, "bike_id": "88a861f5a2b1e973d7443923c03cce41", "fusion_lon": 0.0}, {"rental_uris": {"ios": "https://dc.lft.to/lastmile_qr_scan", "android": "https://dc.lft.to/lastmile_qr_scan"}, "type": "electric_scooter", "name": "db3c866b59cce7ac118a7aac71562f23", "is_reserved": 0, "lon": -77.02404783333333, "is_disabled": 0, "fusion_lat": 0.0, "lat": 38.93816916666667, "bike_id": "db3c866b59cce7ac118a7aac71562f23", "fusion_lon": 0.0}, {"rental_uris": {"ios": "https://dc.lft.to/lastmile_qr_scan", "android": "https://dc.lft.to/lastmile_qr_scan"}, "type": "electric_scooter", "name": "7f731d6f2cc6d91ec25a53e7adfc4709", "is_reserved": 0, "lon": -77.05217916666666, "is_disabled": 0, "fusion_lat": 0.0, "lat": 38.92493066666667, "bike_id": "7f731d6f2cc6d91ec25a53e7adfc4709", "fusion_lon": 0.0}, {"rental_uris": {"ios": "https://dc.lft.to/lastmile_qr_scan", "android": "https://dc.lft.to/lastmile_qr_scan"}, "type": "electric_bike", "name": "e3b3e8ec390eb9d00719ecbe1ee66d02", "is_reserved": 0, "lon": -76.99283, "is_disabled": 0, "fusion_lat": 0.0, "lat": 38.9725795, "bike_id": "e3b3e8ec390eb9d00719ecbe1ee66d02", "fusion_lon": 0.0}, {"rental_uris": {"ios": "https://dc.lft.to/lastmile_qr_scan", "android": "https://dc.lft.to/lastmile_qr_scan"}, "type": "electric_scooter", "name": "cb1287770c854227c0c0b55e27e9ebbc", "is_reserved": 0, "lon": -77.01376616666667, "is_disabled": 0, "fusion_lat": 0.0, "lat": 38.86968866666667, "bike_id": "cb1287770c854227c0c0b55e27e9ebbc", "fusion_lon": 0.0}, {"rental_uris": {"ios": "https://dc.lft.to/lastmile_qr_scan", "android": "https://dc.lft.to/lastmile_qr_scan"}, "type": "electric_scooter", "name": "d38c34f6c47749cc6194c8fc54241e13", "is_reserved": 0, "lon": -77.02863483333333, "is_disabled": 0, "fusion_lat": 0.0, "lat": 38.91366283333333, "bike_id": "d38c34f6c47749cc6194c8fc54241e13", "fusion_lon": 0.0}, {"rental_uris": {"ios": "https://dc.lft.to/lastmile_qr_scan", "android": "https://dc.lft.to/lastmile_qr_scan"}, "type": "electric_bike", "name": "d3d5b85c33afbb3ee89e5d83c6bfd65b", "is_reserved": 0, "lon": -76.997026, "is_disabled": 0, "fusion_lat": 0.0, "lat": 38.838645, "bike_id": "d3d5b85c33afbb3ee89e5d83c6bfd65b", "fusion_lon": 0.0}, {"rental_uris": {"ios": "https://dc.lft.to/lastmile_qr_scan", "android": "https://dc.lft.to/lastmile_qr_scan"}, "type": "electric_scooter", "name": "a54dabb3929f6428bb77f6c3b569e813", "is_reserved": 0, "lon": -77.02356333333333, "is_disabled": 0, "fusion_lat": 0.0, "lat": 38.94522383333333, "bike_id": "a54dabb3929f6428bb77f6c3b569e813", "fusion_lon": 0.0}, {"rental_uris": {"ios": "https://dc.lft.to/lastmile_qr_scan", "android": "https://dc.lft.to/lastmile_qr_scan"}, "type": "electric_scooter", "name": "83fcce700e994621d069a5fd7d734eac", "is_reserved": 0, "lon": -76.98186233333334, "is_disabled": 0, "fusion_lat": 0.0, "lat": 38.90582083333334, "bike_id": "83fcce700e994621d069a5fd7d734eac", "fusion_lon": 0.0}, {"rental_uris": {"ios": "https://dc.lft.to/lastmile_qr_scan", "android": "https://dc.lft.to/lastmile_qr_scan"}, "type": "electric_scooter", "name": "39830d353415085b3dd1d62fb11e4270", "is_reserved": 0, "lon": -77.03133333333334, "is_disabled": 0, "fusion_lat": 0.0, "lat": 38.92375166666667, "bike_id": "39830d353415085b3dd1d62fb11e4270", "fusion_lon": 0.0}, {"rental_uris": {"ios": "https://dc.lft.to/lastmile_qr_scan", "android": "https://dc.lft.to/lastmile_qr_scan"}, "type": "electric_scooter", "name": "54b12937c942b7c07752507593d1c89e", "is_reserved": 0, "lon": -77.02399116666666, "is_disabled": 0, "fusion_lat": 0.0, "lat": 38.9171495, "bike_id": "54b12937c942b7c07752507593d1c89e", "fusion_lon": 0.0}, {"rental_uris": {"ios": "https://dc.lft.to/lastmile_qr_scan", "android": "https://dc.lft.to/lastmile_qr_scan"}, "type": "electric_scooter", "name": "941bcfd0389039c875f326e5ae5c3e7e", "is_reserved": 0, "lon": -77.03850133333333, "is_disabled": 0, "fusion_lat": 0.0, "lat": 38.90841533333333, "bike_id": "941bcfd0389039c875f326e5ae5c3e7e", "fusion_lon": 0.0}, {"rental_uris": {"ios": "https://dc.lft.to/lastmile_qr_scan", "android": "https://dc.lft.to/lastmile_qr_scan"}, "type": "electric_scooter", "name": "5d32b47efa70e4b9c61e5cdd2a279bf8", "is_reserved": 0, "lon": -77.03804983333333, "is_disabled": 0, "fusion_lat": 0.0, "lat": 38.93074383333333, "bike_id": "5d32b47efa70e4b9c61e5cdd2a279bf8", "fusion_lon": 0.0}, {"rental_uris": {"ios": "https://dc.lft.to/lastmile_qr_scan", "android": "https://dc.lft.to/lastmile_qr_scan"}, "type": "electric_scooter", "name": "3b70c9ac4682bff864425bd06927f952", "is_reserved": 0, "lon": -77.02289116666667, "is_disabled": 0, "fusion_lat": 0.0, "lat": 38.90101833333333, "bike_id": "3b70c9ac4682bff864425bd06927f952", "fusion_lon": 0.0}, {"rental_uris": {"ios": "https://dc.lft.to/lastmile_qr_scan", "android": "https://dc.lft.to/lastmile_qr_scan"}, "type": "electric_scooter", "name": "e56d3b95136dfe3c60af97dcdd47338b", "is_reserved": 0, "lon": -77.01986833333333, "is_disabled": 0, "fusion_lat": 0.0, "lat": 38.930536333333336, "bike_id": "e56d3b95136dfe3c60af97dcdd47338b", "fusion_lon": 0.0}, {"rental_uris": {"ios": "https://dc.lft.to/lastmile_qr_scan", "android": "https://dc.lft.to/lastmile_qr_scan"}, "type": "electric_bike", "name": "4ba48676b6160b4e71ae74779c1fb591", "is_reserved": 0, "lon": -76.9506275, "is_disabled": 0, "fusion_lat": 0.0, "lat": 39.08508616666666, "bike_id": "4ba48676b6160b4e71ae74779c1fb591", "fusion_lon": 0.0}, {"rental_uris": {"ios": "https://dc.lft.to/lastmile_qr_scan", "android": "https://dc.lft.to/lastmile_qr_scan"}, "type": "electric_scooter", "name": "14508ed83e7ee1da5ac69c0359314ad0", "is_reserved": 0, "lon": -76.99990733333334, "is_disabled": 0, "fusion_lat": 0.0, "lat": 38.907491, "bike_id": "14508ed83e7ee1da5ac69c0359314ad0", "fusion_lon": 0.0}, {"rental_uris": {"ios": "https://dc.lft.to/lastmile_qr_scan", "android": "https://dc.lft.to/lastmile_qr_scan"}, "type": "electric_scooter", "name": "430dfea9023228e05adce68626602771", "is_reserved": 0, "lon": -77.03263616666666, "is_disabled": 0, "fusion_lat": 0.0, "lat": 38.93879183333333, "bike_id": "430dfea9023228e05adce68626602771", "fusion_lon": 0.0}, {"rental_uris": {"ios": "https://dc.lft.to/lastmile_qr_scan", "android": "https://dc.lft.to/lastmile_qr_scan"}, "type": "electric_scooter", "name": "558e53788defc41a8b62c124a33d2384", "is_reserved": 0, "lon": -77.07406683333333, "is_disabled": 0, "fusion_lat": 0.0, "lat": 38.9375015, "bike_id": "558e53788defc41a8b62c124a33d2384", "fusion_lon": 0.0}, {"rental_uris": {"ios": "https://dc.lft.to/lastmile_qr_scan", "android": "https://dc.lft.to/lastmile_qr_scan"}, "type": "electric_bike", "name": "846736aaaac001a8116baf6e9b41fe42", "is_reserved": 0, "lon": -76.983468, "is_disabled": 0, "fusion_lat": 0.0, "lat": 38.862687666666666, "bike_id": "846736aaaac001a8116baf6e9b41fe42", "fusion_lon": 0.0}, {"rental_uris": {"ios": "https://dc.lft.to/lastmile_qr_scan", "android": "https://dc.lft.to/lastmile_qr_scan"}, "type": "electric_scooter", "name": "3c7b29eba550609acc4713d7be703566", "is_reserved": 0, "lon": -77.036574, "is_disabled": 0, "fusion_lat": 0.0, "lat": 38.920476666666666, "bike_id": "3c7b29eba550609acc4713d7be703566", "fusion_lon": 0.0}, {"rental_uris": {"ios": "https://dc.lft.to/lastmile_qr_scan", "android": "https://dc.lft.to/lastmile_qr_scan"}, "type": "electric_scooter", "name": "589fc19ef3a0ab27e6d0b4fdc06f90d7", "is_reserved": 0, "lon": -77.02390333333334, "is_disabled": 0, "fusion_lat": 0.0, "lat": 38.90852066666667, "bike_id": "589fc19ef3a0ab27e6d0b4fdc06f90d7", "fusion_lon": 0.0}, {"rental_uris": {"ios": "https://dc.lft.to/lastmile_qr_scan", "android": "https://dc.lft.to/lastmile_qr_scan"}, "type": "electric_scooter", "name": "dc249428221fe457ba78559b8eb5cfa8", "is_reserved": 0, "lon": -77.031925, "is_disabled": 0, "fusion_lat": 0.0, "lat": 38.91350883333333, "bike_id": "dc249428221fe457ba78559b8eb5cfa8", "fusion_lon": 0.0}, {"rental_uris": {"ios": "https://dc.lft.to/lastmile_qr_scan", "android": "https://dc.lft.to/lastmile_qr_scan"}, "type": "electric_scooter", "name": "2d782113ea49364173528c4be69dfaa8", "is_reserved": 0, "lon": -77.01636266666667, "is_disabled": 0, "fusion_lat": 0.0, "lat": 38.887583, "bike_id": "2d782113ea49364173528c4be69dfaa8", "fusion_lon": 0.0}, {"rental_uris": {"ios": "https://dc.lft.to/lastmile_qr_scan", "android": "https://dc.lft.to/lastmile_qr_scan"}, "type": "electric_scooter", "name": "da63a29147d4e28734ba73eb2a26fd79", "is_reserved": 0, "lon": -77.0163775, "is_disabled": 0, "fusion_lat": 0.0, "lat": 38.9037865, "bike_id": "da63a29147d4e28734ba73eb2a26fd79", "fusion_lon": 0.0}, {"rental_uris": {"ios": "https://dc.lft.to/lastmile_qr_scan", "android": "https://dc.lft.to/lastmile_qr_scan"}, "type": "electric_scooter", "name": "a89b55b291abfbd066f29cf65a6c8f71", "is_reserved": 0, "lon": -77.036082, "is_disabled": 0, "fusion_lat": 0.0, "lat": 38.90335116666667, "bike_id": "a89b55b291abfbd066f29cf65a6c8f71", "fusion_lon": 0.0}, {"rental_uris": {"ios": "https://dc.lft.to/lastmile_qr_scan", "android": "https://dc.lft.to/lastmile_qr_scan"}, "type": "electric_scooter", "name": "8fba726f75ceaa3909d9a884516d58a8", "is_reserved": 0, "lon": -77.0422945, "is_disabled": 0, "fusion_lat": 0.0, "lat": 38.90941866666667, "bike_id": "8fba726f75ceaa3909d9a884516d58a8", "fusion_lon": 0.0}, {"rental_uris": {"ios": "https://dc.lft.to/lastmile_qr_scan", "android": "https://dc.lft.to/lastmile_qr_scan"}, "type": "electric_scooter", "name": "c19845dc3709755b6c0888311dda9ec4", "is_reserved": 0, "lon": -77.04138966666666, "is_disabled": 0, "fusion_lat": 0.0, "lat": 38.9226105, "bike_id": "c19845dc3709755b6c0888311dda9ec4", "fusion_lon": 0.0}, {"rental_uris": {"ios": "https://dc.lft.to/lastmile_qr_scan", "android": "https://dc.lft.to/lastmile_qr_scan"}, "type": "electric_scooter", "name": "c9505d8499b45905913d987d4a92b94b", "is_reserved": 0, "lon": -77.03221733333334, "is_disabled": 0, "fusion_lat": 0.0, "lat": 38.914056, "bike_id": "c9505d8499b45905913d987d4a92b94b", "fusion_lon": 0.0}, {"rental_uris": {"ios": "https://dc.lft.to/lastmile_qr_scan", "android": "https://dc.lft.to/lastmile_qr_scan"}, "type": "electric_scooter", "name": "1a966c38a435faeba19ae253e77c1947", "is_reserved": 0, "lon": -77.01085383333333, "is_disabled": 0, "fusion_lat": 0.0, "lat": 38.9033155, "bike_id": "1a966c38a435faeba19ae253e77c1947", "fusion_lon": 0.0}, {"rental_uris": {"ios": "https://dc.lft.to/lastmile_qr_scan", "android": "https://dc.lft.to/lastmile_qr_scan"}, "type": "electric_scooter", "name": "22e85b9c59e243b37f522b6e326c7fd5", "is_reserved": 0, "lon": -77.00748733333333, "is_disabled": 0, "fusion_lat": 0.0, "lat": 38.9074475, "bike_id": "22e85b9c59e243b37f522b6e326c7fd5", "fusion_lon": 0.0}, {"rental_uris": {"ios": "https://dc.lft.to/lastmile_qr_scan", "android": "https://dc.lft.to/lastmile_qr_scan"}, "type": "electric_scooter", "name": "b1b00119aa18995259fcfbf664d774b7", "is_reserved": 0, "lon": -77.03216683333333, "is_disabled": 0, "fusion_lat": 0.0, "lat": 38.91666633333333, "bike_id": "b1b00119aa18995259fcfbf664d774b7", "fusion_lon": 0.0}, {"rental_uris": {"ios": "https://dc.lft.to/lastmile_qr_scan", "android": "https://dc.lft.to/lastmile_qr_scan"}, "type": "electric_scooter", "name": "fc7542074cbf653a07570c9b93f59ddd", "is_reserved": 0, "lon": -77.031313, "is_disabled": 0, "fusion_lat": 0.0, "lat": 38.92375583333333, "bike_id": "fc7542074cbf653a07570c9b93f59ddd", "fusion_lon": 0.0}, {"rental_uris": {"ios": "https://dc.lft.to/lastmile_qr_scan", "android": "https://dc.lft.to/lastmile_qr_scan"}, "type": "electric_bike", "name": "c958a8bdeb2106466dbaaa0eec532733", "is_reserved": 0, "lon": -76.98562583333333, "is_disabled": 0, "fusion_lat": 0.0, "lat": 38.89951716666667, "bike_id": "c958a8bdeb2106466dbaaa0eec532733", "fusion_lon": 0.0}, {"rental_uris": {"ios": "https://dc.lft.to/lastmile_qr_scan", "android": "https://dc.lft.to/lastmile_qr_scan"}, "type": "electric_scooter", "name": "ad2e68f9e64e11556af977b8a4aa0933", "is_reserved": 0, "lon": -77.02097033333334, "is_disabled": 0, "fusion_lat": 0.0, "lat": 38.9141235, "bike_id": "ad2e68f9e64e11556af977b8a4aa0933", "fusion_lon": 0.0}, {"rental_uris": {"ios": "https://dc.lft.to/lastmile_qr_scan", "android": "https://dc.lft.to/lastmile_qr_scan"}, "type": "electric_scooter", "name": "962cd2126af4f7bb33d7853e024bd71e", "is_reserved": 0, "lon": -77.01869533333333, "is_disabled": 0, "fusion_lat": 0.0, "lat": 38.9515215, "bike_id": "962cd2126af4f7bb33d7853e024bd71e", "fusion_lon": 0.0}, {"rental_uris": {"ios": "https://dc.lft.to/lastmile_qr_scan", "android": "https://dc.lft.to/lastmile_qr_scan"}, "type": "electric_scooter", "name": "3b2aeee5851bcf2001f4fb34b0ab4790", "is_reserved": 0, "lon": -77.0209755, "is_disabled": 0, "fusion_lat": 0.0, "lat": 38.916408, "bike_id": "3b2aeee5851bcf2001f4fb34b0ab4790", "fusion_lon": 0.0}, {"rental_uris": {"ios": "https://dc.lft.to/lastmile_qr_scan", "android": "https://dc.lft.to/lastmile_qr_scan"}, "type": "electric_bike", "name": "0e55dba85a91be01deb2d92d1cc80ad1", "is_reserved": 0, "lon": -76.97956133333334, "is_disabled": 0, "fusion_lat": 0.0, "lat": 38.95243116666666, "bike_id": "0e55dba85a91be01deb2d92d1cc80ad1", "fusion_lon": 0.0}, {"rental_uris": {"ios": "https://dc.lft.to/lastmile_qr_scan", "android": "https://dc.lft.to/lastmile_qr_scan"}, "type": "electric_scooter", "name": "0b34eb19c04be40392d292df321d214b", "is_reserved": 0, "lon": -77.03056183333334, "is_disabled": 0, "fusion_lat": 0.0, "lat": 38.923831166666666, "bike_id": "0b34eb19c04be40392d292df321d214b", "fusion_lon": 0.0}, {"rental_uris": {"ios": "https://dc.lft.to/lastmile_qr_scan", "android": "https://dc.lft.to/lastmile_qr_scan"}, "type": "electric_scooter", "name": "c648e5e913d98d9e6ec64b1901e3202a", "is_reserved": 0, "lon": -77.00486416666666, "is_disabled": 0, "fusion_lat": 0.0, "lat": 38.87460733333333, "bike_id": "c648e5e913d98d9e6ec64b1901e3202a", "fusion_lon": 0.0}, {"rental_uris": {"ios": "https://dc.lft.to/lastmile_qr_scan", "android": "https://dc.lft.to/lastmile_qr_scan"}, "type": "electric_scooter", "name": "8b12f31f6657543480b22f83b853e15d", "is_reserved": 0, "lon": -77.04196866666666, "is_disabled": 0, "fusion_lat": 0.0, "lat": 38.90357366666667, "bike_id": "8b12f31f6657543480b22f83b853e15d", "fusion_lon": 0.0}, {"rental_uris": {"ios": "https://dc.lft.to/lastmile_qr_scan", "android": "https://dc.lft.to/lastmile_qr_scan"}, "type": "electric_scooter", "name": "97e11906c1328a73ef265cdeb94a33bf", "is_reserved": 0, "lon": -77.03932483333334, "is_disabled": 0, "fusion_lat": 0.0, "lat": 38.917003, "bike_id": "97e11906c1328a73ef265cdeb94a33bf", "fusion_lon": 0.0}, {"rental_uris": {"ios": "https://dc.lft.to/lastmile_qr_scan", "android": "https://dc.lft.to/lastmile_qr_scan"}, "type": "electric_bike", "name": "9de6fa44421938184997ce2c50fbc8d5", "is_reserved": 0, "lon": -76.93872016666667, "is_disabled": 0, "fusion_lat": 0.0, "lat": 38.977719666666665, "bike_id": "9de6fa44421938184997ce2c50fbc8d5", "fusion_lon": 0.0}, {"rental_uris": {"ios": "https://dc.lft.to/lastmile_qr_scan", "android": "https://dc.lft.to/lastmile_qr_scan"}, "type": "electric_scooter", "name": "96846883631db0c8a2cf588023448599", "is_reserved": 0, "lon": -77.00069583333334, "is_disabled": 0, "fusion_lat": 0.0, "lat": 38.8948555, "bike_id": "96846883631db0c8a2cf588023448599", "fusion_lon": 0.0}, {"rental_uris": {"ios": "https://dc.lft.to/lastmile_qr_scan", "android": "https://dc.lft.to/lastmile_qr_scan"}, "type": "electric_scooter", "name": "8a51644704a7a02baaf537ec11ae6c16", "is_reserved": 0, "lon": -77.02399083333333, "is_disabled": 0, "fusion_lat": 0.0, "lat": 38.920762833333335, "bike_id": "8a51644704a7a02baaf537ec11ae6c16", "fusion_lon": 0.0}, {"rental_uris": {"ios": "https://dc.lft.to/lastmile_qr_scan", "android": "https://dc.lft.to/lastmile_qr_scan"}, "type": "electric_scooter", "name": "c0107c6644724bdcdf4c7619d3989e32", "is_reserved": 0, "lon": -77.01760283333333, "is_disabled": 0, "fusion_lat": 0.0, "lat": 38.8768575, "bike_id": "c0107c6644724bdcdf4c7619d3989e32", "fusion_lon": 0.0}, {"rental_uris": {"ios": "https://dc.lft.to/lastmile_qr_scan", "android": "https://dc.lft.to/lastmile_qr_scan"}, "type": "electric_scooter", "name": "17161cafa9e97943182e839969ac716f", "is_reserved": 0, "lon": -77.03594116666666, "is_disabled": 0, "fusion_lat": 0.0, "lat": 38.916904, "bike_id": "17161cafa9e97943182e839969ac716f", "fusion_lon": 0.0}, {"rental_uris": {"ios": "https://dc.lft.to/lastmile_qr_scan", "android": "https://dc.lft.to/lastmile_qr_scan"}, "type": "electric_scooter", "name": "7072b1dfaf3faf99b1c91855cce13825", "is_reserved": 0, "lon": -77.05005683333333, "is_disabled": 0, "fusion_lat": 0.0, "lat": 38.89727833333333, "bike_id": "7072b1dfaf3faf99b1c91855cce13825", "fusion_lon": 0.0}, {"rental_uris": {"ios": "https://dc.lft.to/lastmile_qr_scan", "android": "https://dc.lft.to/lastmile_qr_scan"}, "type": "electric_scooter", "name": "35e61709c624119bf3d264d7a0101a57", "is_reserved": 0, "lon": -77.04421383333333, "is_disabled": 0, "fusion_lat": 0.0, "lat": 38.921309, "bike_id": "35e61709c624119bf3d264d7a0101a57", "fusion_lon": 0.0}, {"rental_uris": {"ios": "https://dc.lft.to/lastmile_qr_scan", "android": "https://dc.lft.to/lastmile_qr_scan"}, "type": "electric_scooter", "name": "c4e70acc3e36df52e25d97631e516487", "is_reserved": 0, "lon": -77.04694966666666, "is_disabled": 0, "fusion_lat": 0.0, "lat": 38.89745516666667, "bike_id": "c4e70acc3e36df52e25d97631e516487", "fusion_lon": 0.0}, {"rental_uris": {"ios": "https://dc.lft.to/lastmile_qr_scan", "android": "https://dc.lft.to/lastmile_qr_scan"}, "type": "electric_scooter", "name": "4df3306548581ab14f38315cdedaa2ee", "is_reserved": 0, "lon": -76.99638616666667, "is_disabled": 0, "fusion_lat": 0.0, "lat": 38.88764533333333, "bike_id": "4df3306548581ab14f38315cdedaa2ee", "fusion_lon": 0.0}, {"rental_uris": {"ios": "https://dc.lft.to/lastmile_qr_scan", "android": "https://dc.lft.to/lastmile_qr_scan"}, "type": "electric_scooter", "name": "ea49512f3895a8ea0cdbea2495fd6f60", "is_reserved": 0, "lon": -77.0465515, "is_disabled": 0, "fusion_lat": 0.0, "lat": 38.8934305, "bike_id": "ea49512f3895a8ea0cdbea2495fd6f60", "fusion_lon": 0.0}, {"rental_uris": {"ios": "https://dc.lft.to/lastmile_qr_scan", "android": "https://dc.lft.to/lastmile_qr_scan"}, "type": "electric_scooter", "name": "2113e76a86221a4bbbbf9c8ffa4ea762", "is_reserved": 0, "lon": -77.0467955, "is_disabled": 0, "fusion_lat": 0.0, "lat": 38.905476666666665, "bike_id": "2113e76a86221a4bbbbf9c8ffa4ea762", "fusion_lon": 0.0}, {"rental_uris": {"ios": "https://dc.lft.to/lastmile_qr_scan", "android": "https://dc.lft.to/lastmile_qr_scan"}, "type": "electric_scooter", "name": "82a30b41ba6906bb27eda4c6b5a0d1fe", "is_reserved": 0, "lon": -77.02152383333333, "is_disabled": 0, "fusion_lat": 0.0, "lat": 38.88749283333333, "bike_id": "82a30b41ba6906bb27eda4c6b5a0d1fe", "fusion_lon": 0.0}, {"rental_uris": {"ios": "https://dc.lft.to/lastmile_qr_scan", "android": "https://dc.lft.to/lastmile_qr_scan"}, "type": "electric_bike", "name": "ad1919da6e1fa9b4010f712bc6ba8607", "is_reserved": 0, "lon": -76.9809265, "is_disabled": 0, "fusion_lat": 0.0, "lat": 38.95358683333333, "bike_id": "ad1919da6e1fa9b4010f712bc6ba8607", "fusion_lon": 0.0}, {"rental_uris": {"ios": "https://dc.lft.to/lastmile_qr_scan", "android": "https://dc.lft.to/lastmile_qr_scan"}, "type": "electric_bike", "name": "d8eac732e78e74308e68bdad5e8efa2b", "is_reserved": 0, "lon": -76.99544916666666, "is_disabled": 0, "fusion_lat": 0.0, "lat": 38.831589666666666, "bike_id": "d8eac732e78e74308e68bdad5e8efa2b", "fusion_lon": 0.0}, {"rental_uris": {"ios": "https://dc.lft.to/lastmile_qr_scan", "android": "https://dc.lft.to/lastmile_qr_scan"}, "type": "electric_scooter", "name": "a2d95514d3b1886125b4424d230444e2", "is_reserved": 0, "lon": -77.00710483333333, "is_disabled": 0, "fusion_lat": 0.0, "lat": 38.90535, "bike_id": "a2d95514d3b1886125b4424d230444e2", "fusion_lon": 0.0}, {"rental_uris": {"ios": "https://dc.lft.to/lastmile_qr_scan", "android": "https://dc.lft.to/lastmile_qr_scan"}, "type": "electric_scooter", "name": "5f70457d063995ec28ae2528faf10e8f", "is_reserved": 0, "lon": -77.015134, "is_disabled": 0, "fusion_lat": 0.0, "lat": 38.8873895, "bike_id": "5f70457d063995ec28ae2528faf10e8f", "fusion_lon": 0.0}, {"rental_uris": {"ios": "https://dc.lft.to/lastmile_qr_scan", "android": "https://dc.lft.to/lastmile_qr_scan"}, "type": "electric_scooter", "name": "70483e8b1f4abed5c5df3428da1ca1ec", "is_reserved": 0, "lon": -77.0090095, "is_disabled": 0, "fusion_lat": 0.0, "lat": 38.89876966666667, "bike_id": "70483e8b1f4abed5c5df3428da1ca1ec", "fusion_lon": 0.0}, {"rental_uris": {"ios": "https://dc.lft.to/lastmile_qr_scan", "android": "https://dc.lft.to/lastmile_qr_scan"}, "type": "electric_scooter", "name": "75219df13b65816c50f3565ac374454b", "is_reserved": 0, "lon": -76.97939033333333, "is_disabled": 0, "fusion_lat": 0.0, "lat": 38.906602666666664, "bike_id": "75219df13b65816c50f3565ac374454b", "fusion_lon": 0.0}, {"rental_uris": {"ios": "https://dc.lft.to/lastmile_qr_scan", "android": "https://dc.lft.to/lastmile_qr_scan"}, "type": "electric_scooter", "name": "d1196da4c04e89aa71324e14fa78c161", "is_reserved": 0, "lon": -77.0362915, "is_disabled": 0, "fusion_lat": 0.0, "lat": 38.937609333333334, "bike_id": "d1196da4c04e89aa71324e14fa78c161", "fusion_lon": 0.0}, {"rental_uris": {"ios": "https://dc.lft.to/lastmile_qr_scan", "android": "https://dc.lft.to/lastmile_qr_scan"}, "type": "electric_scooter", "name": "8475a8921b6e43c6ef1bc62f731332fe", "is_reserved": 0, "lon": -76.99599783333333, "is_disabled": 0, "fusion_lat": 0.0, "lat": 38.931819833333336, "bike_id": "8475a8921b6e43c6ef1bc62f731332fe", "fusion_lon": 0.0}, {"rental_uris": {"ios": "https://dc.lft.to/lastmile_qr_scan", "android": "https://dc.lft.to/lastmile_qr_scan"}, "type": "electric_scooter", "name": "86d9e9be34febb3293347c84f8ac292a", "is_reserved": 0, "lon": -77.03657183333333, "is_disabled": 0, "fusion_lat": 0.0, "lat": 38.93206583333333, "bike_id": "86d9e9be34febb3293347c84f8ac292a", "fusion_lon": 0.0}, {"rental_uris": {"ios": "https://dc.lft.to/lastmile_qr_scan", "android": "https://dc.lft.to/lastmile_qr_scan"}, "type": "electric_scooter", "name": "61e6730b1b0dffd69cd512c8b0b290eb", "is_reserved": 0, "lon": -77.0355135, "is_disabled": 0, "fusion_lat": 0.0, "lat": 38.923423666666665, "bike_id": "61e6730b1b0dffd69cd512c8b0b290eb", "fusion_lon": 0.0}, {"rental_uris": {"ios": "https://dc.lft.to/lastmile_qr_scan", "android": "https://dc.lft.to/lastmile_qr_scan"}, "type": "electric_scooter", "name": "76d79c2a872d007acd0ba88cc62e562e", "is_reserved": 0, "lon": -77.034742, "is_disabled": 0, "fusion_lat": 0.0, "lat": 38.920493666666665, "bike_id": "76d79c2a872d007acd0ba88cc62e562e", "fusion_lon": 0.0}, {"rental_uris": {"ios": "https://dc.lft.to/lastmile_qr_scan", "android": "https://dc.lft.to/lastmile_qr_scan"}, "type": "electric_scooter", "name": "8804560993d30c12e18d776b433a71e2", "is_reserved": 0, "lon": -76.99841883333333, "is_disabled": 0, "fusion_lat": 0.0, "lat": 38.90297116666667, "bike_id": "8804560993d30c12e18d776b433a71e2", "fusion_lon": 0.0}, {"rental_uris": {"ios": "https://dc.lft.to/lastmile_qr_scan", "android": "https://dc.lft.to/lastmile_qr_scan"}, "type": "electric_scooter", "name": "ea7e8ea6da08e09e1ed65476691f3d72", "is_reserved": 0, "lon": -77.0343675, "is_disabled": 0, "fusion_lat": 0.0, "lat": 38.91114866666667, "bike_id": "ea7e8ea6da08e09e1ed65476691f3d72", "fusion_lon": 0.0}, {"rental_uris": {"ios": "https://dc.lft.to/lastmile_qr_scan", "android": "https://dc.lft.to/lastmile_qr_scan"}, "type": "electric_scooter", "name": "05b67686284f2e7f69a154a969953385", "is_reserved": 0, "lon": -77.0363785, "is_disabled": 0, "fusion_lat": 0.0, "lat": 38.93369366666667, "bike_id": "05b67686284f2e7f69a154a969953385", "fusion_lon": 0.0}, {"rental_uris": {"ios": "https://dc.lft.to/lastmile_qr_scan", "android": "https://dc.lft.to/lastmile_qr_scan"}, "type": "electric_bike", "name": "1d38cb4fe525e034058fd8e92da15a71", "is_reserved": 0, "lon": -76.9030205, "is_disabled": 0, "fusion_lat": 0.0, "lat": 39.00296783333334, "bike_id": "1d38cb4fe525e034058fd8e92da15a71", "fusion_lon": 0.0}, {"rental_uris": {"ios": "https://dc.lft.to/lastmile_qr_scan", "android": "https://dc.lft.to/lastmile_qr_scan"}, "type": "electric_scooter", "name": "b107930e625d9f24da1981305c8f8cae", "is_reserved": 0, "lon": -77.00212183333333, "is_disabled": 0, "fusion_lat": 0.0, "lat": 38.914653666666666, "bike_id": "b107930e625d9f24da1981305c8f8cae", "fusion_lon": 0.0}, {"rental_uris": {"ios": "https://dc.lft.to/lastmile_qr_scan", "android": "https://dc.lft.to/lastmile_qr_scan"}, "type": "electric_scooter", "name": "85f5db43dc0f6c410aaf5c42a9878e6b", "is_reserved": 0, "lon": -77.03654566666667, "is_disabled": 0, "fusion_lat": 0.0, "lat": 38.921286333333335, "bike_id": "85f5db43dc0f6c410aaf5c42a9878e6b", "fusion_lon": 0.0}, {"rental_uris": {"ios": "https://dc.lft.to/lastmile_qr_scan", "android": "https://dc.lft.to/lastmile_qr_scan"}, "type": "electric_scooter", "name": "fa2d2a868fb69d2bc8c38bb3f4383375", "is_reserved": 0, "lon": -76.994131, "is_disabled": 0, "fusion_lat": 0.0, "lat": 38.87790666666667, "bike_id": "fa2d2a868fb69d2bc8c38bb3f4383375", "fusion_lon": 0.0}, {"rental_uris": {"ios": "https://dc.lft.to/lastmile_qr_scan", "android": "https://dc.lft.to/lastmile_qr_scan"}, "type": "electric_scooter", "name": "a16c6833a8ec3728469f77d15b494202", "is_reserved": 0, "lon": -77.04669066666666, "is_disabled": 0, "fusion_lat": 0.0, "lat": 38.89748, "bike_id": "a16c6833a8ec3728469f77d15b494202", "fusion_lon": 0.0}, {"rental_uris": {"ios": "https://dc.lft.to/lastmile_qr_scan", "android": "https://dc.lft.to/lastmile_qr_scan"}, "type": "electric_scooter", "name": "d32341b205759a4fae08b52a20aabe35", "is_reserved": 0, "lon": -77.04367, "is_disabled": 0, "fusion_lat": 0.0, "lat": 38.921661, "bike_id": "d32341b205759a4fae08b52a20aabe35", "fusion_lon": 0.0}, {"rental_uris": {"ios": "https://dc.lft.to/lastmile_qr_scan", "android": "https://dc.lft.to/lastmile_qr_scan"}, "type": "electric_scooter", "name": "c7845ff3a3a9cce3c75d16926c8d234d", "is_reserved": 0, "lon": -77.0450395, "is_disabled": 0, "fusion_lat": 0.0, "lat": 38.892264833333336, "bike_id": "c7845ff3a3a9cce3c75d16926c8d234d", "fusion_lon": 0.0}, {"rental_uris": {"ios": "https://dc.lft.to/lastmile_qr_scan", "android": "https://dc.lft.to/lastmile_qr_scan"}, "type": "electric_scooter", "name": "8f3be595ecfc4d9c1b74f0027fa321b8", "is_reserved": 0, "lon": -77.0377365, "is_disabled": 0, "fusion_lat": 0.0, "lat": 38.907356166666666, "bike_id": "8f3be595ecfc4d9c1b74f0027fa321b8", "fusion_lon": 0.0}, {"rental_uris": {"ios": "https://dc.lft.to/lastmile_qr_scan", "android": "https://dc.lft.to/lastmile_qr_scan"}, "type": "electric_scooter", "name": "8e36443487abafd3e64b1c2ac32934b7", "is_reserved": 0, "lon": -76.99101666666667, "is_disabled": 0, "fusion_lat": 0.0, "lat": 38.857252, "bike_id": "8e36443487abafd3e64b1c2ac32934b7", "fusion_lon": 0.0}, {"rental_uris": {"ios": "https://dc.lft.to/lastmile_qr_scan", "android": "https://dc.lft.to/lastmile_qr_scan"}, "type": "electric_scooter", "name": "127f43f1b07ac4a8fba90ec2dbfc8fab", "is_reserved": 0, "lon": -77.04351416666667, "is_disabled": 0, "fusion_lat": 0.0, "lat": 38.92146016666667, "bike_id": "127f43f1b07ac4a8fba90ec2dbfc8fab", "fusion_lon": 0.0}, {"rental_uris": {"ios": "https://dc.lft.to/lastmile_qr_scan", "android": "https://dc.lft.to/lastmile_qr_scan"}, "type": "electric_scooter", "name": "bc215910ef17020eb36d6f5c3d079298", "is_reserved": 0, "lon": -76.9810165, "is_disabled": 0, "fusion_lat": 0.0, "lat": 38.857170833333335, "bike_id": "bc215910ef17020eb36d6f5c3d079298", "fusion_lon": 0.0}, {"rental_uris": {"ios": "https://dc.lft.to/lastmile_qr_scan", "android": "https://dc.lft.to/lastmile_qr_scan"}, "type": "electric_scooter", "name": "45182f2b461bff40d39ba47bd58a34d5", "is_reserved": 0, "lon": -77.0383495, "is_disabled": 0, "fusion_lat": 0.0, "lat": 38.91255116666667, "bike_id": "45182f2b461bff40d39ba47bd58a34d5", "fusion_lon": 0.0}, {"rental_uris": {"ios": "https://dc.lft.to/lastmile_qr_scan", "android": "https://dc.lft.to/lastmile_qr_scan"}, "type": "electric_scooter", "name": "a3babdae36289453e1a125ec0ec5b117", "is_reserved": 0, "lon": -77.04877166666667, "is_disabled": 0, "fusion_lat": 0.0, "lat": 38.9097135, "bike_id": "a3babdae36289453e1a125ec0ec5b117", "fusion_lon": 0.0}, {"rental_uris": {"ios": "https://dc.lft.to/lastmile_qr_scan", "android": "https://dc.lft.to/lastmile_qr_scan"}, "type": "electric_scooter", "name": "d765396c8bd4000ad95dc1f2803b211e", "is_reserved": 0, "lon": -77.03063366666666, "is_disabled": 0, "fusion_lat": 0.0, "lat": 38.9247375, "bike_id": "d765396c8bd4000ad95dc1f2803b211e", "fusion_lon": 0.0}, {"rental_uris": {"ios": "https://dc.lft.to/lastmile_qr_scan", "android": "https://dc.lft.to/lastmile_qr_scan"}, "type": "electric_scooter", "name": "76e48df286a91574d6492f22be746849", "is_reserved": 0, "lon": -76.99607633333333, "is_disabled": 0, "fusion_lat": 0.0, "lat": 38.9309175, "bike_id": "76e48df286a91574d6492f22be746849", "fusion_lon": 0.0}, {"rental_uris": {"ios": "https://dc.lft.to/lastmile_qr_scan", "android": "https://dc.lft.to/lastmile_qr_scan"}, "type": "electric_scooter", "name": "b6a94691019dc6e112fd8a1283de7715", "is_reserved": 0, "lon": -77.003836, "is_disabled": 0, "fusion_lat": 0.0, "lat": 38.87943516666667, "bike_id": "b6a94691019dc6e112fd8a1283de7715", "fusion_lon": 0.0}, {"rental_uris": {"ios": "https://dc.lft.to/lastmile_qr_scan", "android": "https://dc.lft.to/lastmile_qr_scan"}, "type": "electric_scooter", "name": "b44ca185ecf43b8f5d29a4551c663406", "is_reserved": 0, "lon": -77.0530175, "is_disabled": 0, "fusion_lat": 0.0, "lat": 38.902370833333336, "bike_id": "b44ca185ecf43b8f5d29a4551c663406", "fusion_lon": 0.0}, {"rental_uris": {"ios": "https://dc.lft.to/lastmile_qr_scan", "android": "https://dc.lft.to/lastmile_qr_scan"}, "type": "electric_scooter", "name": "0ab04eac895183603df89c05dc39541b", "is_reserved": 0, "lon": -77.0491635, "is_disabled": 0, "fusion_lat": 0.0, "lat": 38.9007695, "bike_id": "0ab04eac895183603df89c05dc39541b", "fusion_lon": 0.0}, {"rental_uris": {"ios": "https://dc.lft.to/lastmile_qr_scan", "android": "https://dc.lft.to/lastmile_qr_scan"}, "type": "electric_scooter", "name": "02edaf85979060e71f1f29fb74acc864", "is_reserved": 0, "lon": -76.93390416666666, "is_disabled": 0, "fusion_lat": 0.0, "lat": 38.89912916666667, "bike_id": "02edaf85979060e71f1f29fb74acc864", "fusion_lon": 0.0}, {"rental_uris": {"ios": "https://dc.lft.to/lastmile_qr_scan", "android": "https://dc.lft.to/lastmile_qr_scan"}, "type": "electric_bike", "name": "99a3d4d388679110101a35e9a45952b6", "is_reserved": 0, "lon": -76.999139, "is_disabled": 0, "fusion_lat": 0.0, "lat": 38.86447283333333, "bike_id": "99a3d4d388679110101a35e9a45952b6", "fusion_lon": 0.0}, {"rental_uris": {"ios": "https://dc.lft.to/lastmile_qr_scan", "android": "https://dc.lft.to/lastmile_qr_scan"}, "type": "electric_scooter", "name": "f8bdafce39a06843f49eb9fbc38302f5", "is_reserved": 0, "lon": -77.04083, "is_disabled": 0, "fusion_lat": 0.0, "lat": 38.917102166666666, "bike_id": "f8bdafce39a06843f49eb9fbc38302f5", "fusion_lon": 0.0}, {"rental_uris": {"ios": "https://dc.lft.to/lastmile_qr_scan", "android": "https://dc.lft.to/lastmile_qr_scan"}, "type": "electric_scooter", "name": "f4df3203a2b082acb4a88a70d3ae52b3", "is_reserved": 0, "lon": -77.04226166666666, "is_disabled": 0, "fusion_lat": 0.0, "lat": 38.911074166666666, "bike_id": "f4df3203a2b082acb4a88a70d3ae52b3", "fusion_lon": 0.0}, {"rental_uris": {"ios": "https://dc.lft.to/lastmile_qr_scan", "android": "https://dc.lft.to/lastmile_qr_scan"}, "type": "electric_scooter", "name": "6be8469a5ca9ccb353aeba4a1194159e", "is_reserved": 0, "lon": -77.059737, "is_disabled": 0, "fusion_lat": 0.0, "lat": 38.92823416666667, "bike_id": "6be8469a5ca9ccb353aeba4a1194159e", "fusion_lon": 0.0}, {"rental_uris": {"ios": "https://dc.lft.to/lastmile_qr_scan", "android": "https://dc.lft.to/lastmile_qr_scan"}, "type": "electric_scooter", "name": "5a2ef8f83b26083c6be8a6c2775d81d5", "is_reserved": 0, "lon": -77.0336795, "is_disabled": 0, "fusion_lat": 0.0, "lat": 38.900049, "bike_id": "5a2ef8f83b26083c6be8a6c2775d81d5", "fusion_lon": 0.0}, {"rental_uris": {"ios": "https://dc.lft.to/lastmile_qr_scan", "android": "https://dc.lft.to/lastmile_qr_scan"}, "type": "electric_bike", "name": "f24abad652e7cc221f05ef4c3ebde031", "is_reserved": 0, "lon": -77.00421566666667, "is_disabled": 0, "fusion_lat": 0.0, "lat": 38.98528733333333, "bike_id": "f24abad652e7cc221f05ef4c3ebde031", "fusion_lon": 0.0}, {"rental_uris": {"ios": "https://dc.lft.to/lastmile_qr_scan", "android": "https://dc.lft.to/lastmile_qr_scan"}, "type": "electric_scooter", "name": "e6a8f550fa2fcafa5d3755c60b714ec4", "is_reserved": 0, "lon": -77.02046583333333, "is_disabled": 0, "fusion_lat": 0.0, "lat": 38.934124833333335, "bike_id": "e6a8f550fa2fcafa5d3755c60b714ec4", "fusion_lon": 0.0}, {"rental_uris": {"ios": "https://dc.lft.to/lastmile_qr_scan", "android": "https://dc.lft.to/lastmile_qr_scan"}, "type": "electric_bike", "name": "3cadc44574c3d8c27bc2e99848bf30b7", "is_reserved": 0, "lon": -76.95741183333334, "is_disabled": 0, "fusion_lat": 0.0, "lat": 38.888596, "bike_id": "3cadc44574c3d8c27bc2e99848bf30b7", "fusion_lon": 0.0}, {"rental_uris": {"ios": "https://dc.lft.to/lastmile_qr_scan", "android": "https://dc.lft.to/lastmile_qr_scan"}, "type": "electric_bike", "name": "6b6e9b574187664b31827d7a283ae2a3", "is_reserved": 0, "lon": -77.08967166666666, "is_disabled": 0, "fusion_lat": 0.0, "lat": 38.841055833333336, "bike_id": "6b6e9b574187664b31827d7a283ae2a3", "fusion_lon": 0.0}, {"rental_uris": {"ios": "https://dc.lft.to/lastmile_qr_scan", "android": "https://dc.lft.to/lastmile_qr_scan"}, "type": "electric_scooter", "name": "f65bcb6f6366209aaafe1832a33cad11", "is_reserved": 0, "lon": -77.005206, "is_disabled": 0, "fusion_lat": 0.0, "lat": 38.8967505, "bike_id": "f65bcb6f6366209aaafe1832a33cad11", "fusion_lon": 0.0}, {"rental_uris": {"ios": "https://dc.lft.to/lastmile_qr_scan", "android": "https://dc.lft.to/lastmile_qr_scan"}, "type": "electric_bike", "name": "21cc4a985211698ff667d596289f1035", "is_reserved": 0, "lon": -77.0821545, "is_disabled": 0, "fusion_lat": 0.0, "lat": 38.9220545, "bike_id": "21cc4a985211698ff667d596289f1035", "fusion_lon": 0.0}, {"rental_uris": {"ios": "https://dc.lft.to/lastmile_qr_scan", "android": "https://dc.lft.to/lastmile_qr_scan"}, "type": "electric_scooter", "name": "8c3fd30840383b0447feed463f8edb01", "is_reserved": 0, "lon": -77.03055566666667, "is_disabled": 0, "fusion_lat": 0.0, "lat": 38.89723716666666, "bike_id": "8c3fd30840383b0447feed463f8edb01", "fusion_lon": 0.0}, {"rental_uris": {"ios": "https://dc.lft.to/lastmile_qr_scan", "android": "https://dc.lft.to/lastmile_qr_scan"}, "type": "electric_scooter", "name": "c67bb0eac8e14164c5752d8f51b07737", "is_reserved": 0, "lon": -77.03848233333333, "is_disabled": 0, "fusion_lat": 0.0, "lat": 38.910008166666664, "bike_id": "c67bb0eac8e14164c5752d8f51b07737", "fusion_lon": 0.0}, {"rental_uris": {"ios": "https://dc.lft.to/lastmile_qr_scan", "android": "https://dc.lft.to/lastmile_qr_scan"}, "type": "electric_scooter", "name": "f8cc2c491a11b307eb9773f5da4a684e", "is_reserved": 0, "lon": -77.02840416666666, "is_disabled": 0, "fusion_lat": 0.0, "lat": 38.90452533333333, "bike_id": "f8cc2c491a11b307eb9773f5da4a684e", "fusion_lon": 0.0}, {"rental_uris": {"ios": "https://dc.lft.to/lastmile_qr_scan", "android": "https://dc.lft.to/lastmile_qr_scan"}, "type": "electric_scooter", "name": "be24b4adc4bde5cfb8cadaa174d9762b", "is_reserved": 0, "lon": -76.94716166666667, "is_disabled": 0, "fusion_lat": 0.0, "lat": 38.8908745, "bike_id": "be24b4adc4bde5cfb8cadaa174d9762b", "fusion_lon": 0.0}, {"rental_uris": {"ios": "https://dc.lft.to/lastmile_qr_scan", "android": "https://dc.lft.to/lastmile_qr_scan"}, "type": "electric_scooter", "name": "7d339c4d495df620bc1d4840c5f87326", "is_reserved": 0, "lon": -77.03139683333333, "is_disabled": 0, "fusion_lat": 0.0, "lat": 38.906461166666666, "bike_id": "7d339c4d495df620bc1d4840c5f87326", "fusion_lon": 0.0}, {"rental_uris": {"ios": "https://dc.lft.to/lastmile_qr_scan", "android": "https://dc.lft.to/lastmile_qr_scan"}, "type": "electric_scooter", "name": "83bbf151fc3427bdd50744057add134e", "is_reserved": 0, "lon": -77.00213883333333, "is_disabled": 0, "fusion_lat": 0.0, "lat": 38.907942166666665, "bike_id": "83bbf151fc3427bdd50744057add134e", "fusion_lon": 0.0}, {"rental_uris": {"ios": "https://dc.lft.to/lastmile_qr_scan", "android": "https://dc.lft.to/lastmile_qr_scan"}, "type": "electric_scooter", "name": "ba1039db847ac025b298e6dbf70a1655", "is_reserved": 0, "lon": -76.98360916666667, "is_disabled": 0, "fusion_lat": 0.0, "lat": 38.887412833333336, "bike_id": "ba1039db847ac025b298e6dbf70a1655", "fusion_lon": 0.0}, {"rental_uris": {"ios": "https://dc.lft.to/lastmile_qr_scan", "android": "https://dc.lft.to/lastmile_qr_scan"}, "type": "electric_scooter", "name": "c5d017c40c69066573f8bc7f0312f7a9", "is_reserved": 0, "lon": -77.0267135, "is_disabled": 0, "fusion_lat": 0.0, "lat": 38.8847615, "bike_id": "c5d017c40c69066573f8bc7f0312f7a9", "fusion_lon": 0.0}, {"rental_uris": {"ios": "https://dc.lft.to/lastmile_qr_scan", "android": "https://dc.lft.to/lastmile_qr_scan"}, "type": "electric_scooter", "name": "1642162712b02b7592a7a2c2c8c045fa", "is_reserved": 0, "lon": -77.05142116666667, "is_disabled": 0, "fusion_lat": 0.0, "lat": 38.90038916666666, "bike_id": "1642162712b02b7592a7a2c2c8c045fa", "fusion_lon": 0.0}, {"rental_uris": {"ios": "https://dc.lft.to/lastmile_qr_scan", "android": "https://dc.lft.to/lastmile_qr_scan"}, "type": "electric_bike", "name": "01291dee2770e0e5340130c000298d91", "is_reserved": 0, "lon": -77.09013383333334, "is_disabled": 0, "fusion_lat": 0.0, "lat": 38.9265155, "bike_id": "01291dee2770e0e5340130c000298d91", "fusion_lon": 0.0}, {"rental_uris": {"ios": "https://dc.lft.to/lastmile_qr_scan", "android": "https://dc.lft.to/lastmile_qr_scan"}, "type": "electric_scooter", "name": "7e114bc150e1ec7196b150495a4aaab7", "is_reserved": 0, "lon": -76.97306783333333, "is_disabled": 0, "fusion_lat": 0.0, "lat": 38.919887, "bike_id": "7e114bc150e1ec7196b150495a4aaab7", "fusion_lon": 0.0}, {"rental_uris": {"ios": "https://dc.lft.to/lastmile_qr_scan", "android": "https://dc.lft.to/lastmile_qr_scan"}, "type": "electric_bike", "name": "9a66570a40555cdfb794e9b693a80cfe", "is_reserved": 0, "lon": -77.1270295, "is_disabled": 0, "fusion_lat": 0.0, "lat": 38.895733166666666, "bike_id": "9a66570a40555cdfb794e9b693a80cfe", "fusion_lon": 0.0}, {"rental_uris": {"ios": "https://dc.lft.to/lastmile_qr_scan", "android": "https://dc.lft.to/lastmile_qr_scan"}, "type": "electric_bike", "name": "a1dc5d695e0573b8ca735138e287857d", "is_reserved": 0, "lon": -76.95704066666667, "is_disabled": 0, "fusion_lat": 0.0, "lat": 38.850927166666665, "bike_id": "a1dc5d695e0573b8ca735138e287857d", "fusion_lon": 0.0}, {"rental_uris": {"ios": "https://dc.lft.to/lastmile_qr_scan", "android": "https://dc.lft.to/lastmile_qr_scan"}, "type": "electric_scooter", "name": "ec6de49076f79fa3cee20558b2894c6d", "is_reserved": 0, "lon": -77.0294765, "is_disabled": 0, "fusion_lat": 0.0, "lat": 38.916842833333334, "bike_id": "ec6de49076f79fa3cee20558b2894c6d", "fusion_lon": 0.0}, {"rental_uris": {"ios": "https://dc.lft.to/lastmile_qr_scan", "android": "https://dc.lft.to/lastmile_qr_scan"}, "type": "electric_scooter", "name": "6785d438df5bca5dd9f95ee8bb1f6450", "is_reserved": 0, "lon": -77.04356383333334, "is_disabled": 0, "fusion_lat": 0.0, "lat": 38.911282, "bike_id": "6785d438df5bca5dd9f95ee8bb1f6450", "fusion_lon": 0.0}, {"rental_uris": {"ios": "https://dc.lft.to/lastmile_qr_scan", "android": "https://dc.lft.to/lastmile_qr_scan"}, "type": "electric_scooter", "name": "437d20c52d53d12c3948853106260961", "is_reserved": 0, "lon": -76.95742083333333, "is_disabled": 0, "fusion_lat": 0.0, "lat": 38.88394783333333, "bike_id": "437d20c52d53d12c3948853106260961", "fusion_lon": 0.0}, {"rental_uris": {"ios": "https://dc.lft.to/lastmile_qr_scan", "android": "https://dc.lft.to/lastmile_qr_scan"}, "type": "electric_scooter", "name": "73a03e8c148e11bcb2295d929354d649", "is_reserved": 0, "lon": -76.94665533333334, "is_disabled": 0, "fusion_lat": 0.0, "lat": 38.89869933333333, "bike_id": "73a03e8c148e11bcb2295d929354d649", "fusion_lon": 0.0}, {"rental_uris": {"ios": "https://dc.lft.to/lastmile_qr_scan", "android": "https://dc.lft.to/lastmile_qr_scan"}, "type": "electric_scooter", "name": "2af12bf14f59685886ef07332b35d919", "is_reserved": 0, "lon": -76.99489816666667, "is_disabled": 0, "fusion_lat": 0.0, "lat": 38.899938666666664, "bike_id": "2af12bf14f59685886ef07332b35d919", "fusion_lon": 0.0}, {"rental_uris": {"ios": "https://dc.lft.to/lastmile_qr_scan", "android": "https://dc.lft.to/lastmile_qr_scan"}, "type": "electric_scooter", "name": "96c5060f735fab95766774bfb107f07d", "is_reserved": 0, "lon": -77.04182966666667, "is_disabled": 0, "fusion_lat": 0.0, "lat": 38.92065866666667, "bike_id": "96c5060f735fab95766774bfb107f07d", "fusion_lon": 0.0}, {"rental_uris": {"ios": "https://dc.lft.to/lastmile_qr_scan", "android": "https://dc.lft.to/lastmile_qr_scan"}, "type": "electric_scooter", "name": "9ec40714372c4f452f34e116046bcc20", "is_reserved": 0, "lon": -76.99891183333334, "is_disabled": 0, "fusion_lat": 0.0, "lat": 38.95303216666667, "bike_id": "9ec40714372c4f452f34e116046bcc20", "fusion_lon": 0.0}, {"rental_uris": {"ios": "https://dc.lft.to/lastmile_qr_scan", "android": "https://dc.lft.to/lastmile_qr_scan"}, "type": "electric_scooter", "name": "a18e53214162aabb5f210b36801c3651", "is_reserved": 0, "lon": -77.04881833333333, "is_disabled": 0, "fusion_lat": 0.0, "lat": 38.90907883333333, "bike_id": "a18e53214162aabb5f210b36801c3651", "fusion_lon": 0.0}, {"rental_uris": {"ios": "https://dc.lft.to/lastmile_qr_scan", "android": "https://dc.lft.to/lastmile_qr_scan"}, "type": "electric_scooter", "name": "fabc75825a74288521012a6630fdfa3d", "is_reserved": 0, "lon": -77.04611616666666, "is_disabled": 0, "fusion_lat": 0.0, "lat": 38.909729166666665, "bike_id": "fabc75825a74288521012a6630fdfa3d", "fusion_lon": 0.0}, {"rental_uris": {"ios": "https://dc.lft.to/lastmile_qr_scan", "android": "https://dc.lft.to/lastmile_qr_scan"}, "type": "electric_scooter", "name": "8c00f20b6b7797acdec422e6639ea94c", "is_reserved": 0, "lon": -77.03972766666666, "is_disabled": 0, "fusion_lat": 0.0, "lat": 38.916293833333334, "bike_id": "8c00f20b6b7797acdec422e6639ea94c", "fusion_lon": 0.0}, {"rental_uris": {"ios": "https://dc.lft.to/lastmile_qr_scan", "android": "https://dc.lft.to/lastmile_qr_scan"}, "type": "electric_scooter", "name": "4bf94652cf9a00e9987217ef3274363f", "is_reserved": 0, "lon": -77.02956116666667, "is_disabled": 0, "fusion_lat": 0.0, "lat": 38.916817, "bike_id": "4bf94652cf9a00e9987217ef3274363f", "fusion_lon": 0.0}, {"rental_uris": {"ios": "https://dc.lft.to/lastmile_qr_scan", "android": "https://dc.lft.to/lastmile_qr_scan"}, "type": "electric_scooter", "name": "9ce38f0cf2b01d1543faf4b0e0792725", "is_reserved": 0, "lon": -77.03841016666667, "is_disabled": 0, "fusion_lat": 0.0, "lat": 38.907256, "bike_id": "9ce38f0cf2b01d1543faf4b0e0792725", "fusion_lon": 0.0}, {"rental_uris": {"ios": "https://dc.lft.to/lastmile_qr_scan", "android": "https://dc.lft.to/lastmile_qr_scan"}, "type": "electric_scooter", "name": "4e1bb33e66e6023dd17b44a1e75880ba", "is_reserved": 0, "lon": -77.11018333333334, "is_disabled": 0, "fusion_lat": 0.0, "lat": 38.877083166666665, "bike_id": "4e1bb33e66e6023dd17b44a1e75880ba", "fusion_lon": 0.0}, {"rental_uris": {"ios": "https://dc.lft.to/lastmile_qr_scan", "android": "https://dc.lft.to/lastmile_qr_scan"}, "type": "electric_scooter", "name": "00ad4b6a6200e6e101d2c9ac4cfa7f5a", "is_reserved": 0, "lon": -77.04265816666667, "is_disabled": 0, "fusion_lat": 0.0, "lat": 38.92301783333333, "bike_id": "00ad4b6a6200e6e101d2c9ac4cfa7f5a", "fusion_lon": 0.0}, {"rental_uris": {"ios": "https://dc.lft.to/lastmile_qr_scan", "android": "https://dc.lft.to/lastmile_qr_scan"}, "type": "electric_scooter", "name": "636e8e26043119236996e2c2b454b703", "is_reserved": 0, "lon": -77.040803, "is_disabled": 0, "fusion_lat": 0.0, "lat": 38.91044516666667, "bike_id": "636e8e26043119236996e2c2b454b703", "fusion_lon": 0.0}, {"rental_uris": {"ios": "https://dc.lft.to/lastmile_qr_scan", "android": "https://dc.lft.to/lastmile_qr_scan"}, "type": "electric_scooter", "name": "9917dd47970524268d868deb19806e74", "is_reserved": 0, "lon": -77.04608616666667, "is_disabled": 0, "fusion_lat": 0.0, "lat": 38.883804166666664, "bike_id": "9917dd47970524268d868deb19806e74", "fusion_lon": 0.0}, {"rental_uris": {"ios": "https://dc.lft.to/lastmile_qr_scan", "android": "https://dc.lft.to/lastmile_qr_scan"}, "type": "electric_scooter", "name": "365be3e8aaff5716d258aa053ca616ed", "is_reserved": 0, "lon": -77.01897333333334, "is_disabled": 0, "fusion_lat": 0.0, "lat": 38.897533333333335, "bike_id": "365be3e8aaff5716d258aa053ca616ed", "fusion_lon": 0.0}, {"rental_uris": {"ios": "https://dc.lft.to/lastmile_qr_scan", "android": "https://dc.lft.to/lastmile_qr_scan"}, "type": "electric_scooter", "name": "84e010c37d2ac04c7f874f615423bd2a", "is_reserved": 0, "lon": -77.03978183333334, "is_disabled": 0, "fusion_lat": 0.0, "lat": 38.920262666666666, "bike_id": "84e010c37d2ac04c7f874f615423bd2a", "fusion_lon": 0.0}, {"rental_uris": {"ios": "https://dc.lft.to/lastmile_qr_scan", "android": "https://dc.lft.to/lastmile_qr_scan"}, "type": "electric_scooter", "name": "cb7a32585b9976bf5d5da2b6bba17437", "is_reserved": 0, "lon": -77.01876083333333, "is_disabled": 0, "fusion_lat": 0.0, "lat": 38.93049766666667, "bike_id": "cb7a32585b9976bf5d5da2b6bba17437", "fusion_lon": 0.0}, {"rental_uris": {"ios": "https://dc.lft.to/lastmile_qr_scan", "android": "https://dc.lft.to/lastmile_qr_scan"}, "type": "electric_scooter", "name": "8db41ef1284150206f788918e12c67af", "is_reserved": 0, "lon": -77.04135066666667, "is_disabled": 0, "fusion_lat": 0.0, "lat": 38.933816, "bike_id": "8db41ef1284150206f788918e12c67af", "fusion_lon": 0.0}, {"rental_uris": {"ios": "https://dc.lft.to/lastmile_qr_scan", "android": "https://dc.lft.to/lastmile_qr_scan"}, "type": "electric_bike", "name": "599875b553ff49fea96ab3c8b32a288a", "is_reserved": 0, "lon": -77.06534683333334, "is_disabled": 0, "fusion_lat": 0.0, "lat": 38.992306666666664, "bike_id": "599875b553ff49fea96ab3c8b32a288a", "fusion_lon": 0.0}, {"rental_uris": {"ios": "https://dc.lft.to/lastmile_qr_scan", "android": "https://dc.lft.to/lastmile_qr_scan"}, "type": "electric_scooter", "name": "918c1074115e296ff7da146ef3a39d20", "is_reserved": 0, "lon": -77.0552635, "is_disabled": 0, "fusion_lat": 0.0, "lat": 38.928338333333336, "bike_id": "918c1074115e296ff7da146ef3a39d20", "fusion_lon": 0.0}, {"rental_uris": {"ios": "https://dc.lft.to/lastmile_qr_scan", "android": "https://dc.lft.to/lastmile_qr_scan"}, "type": "electric_scooter", "name": "1494c4df9b43132181a51685c02ec5eb", "is_reserved": 0, "lon": -77.0194975, "is_disabled": 0, "fusion_lat": 0.0, "lat": 38.930417166666665, "bike_id": "1494c4df9b43132181a51685c02ec5eb", "fusion_lon": 0.0}, {"rental_uris": {"ios": "https://dc.lft.to/lastmile_qr_scan", "android": "https://dc.lft.to/lastmile_qr_scan"}, "type": "electric_bike", "name": "5a87641491492e4ea4be7b0062abfc07", "is_reserved": 0, "lon": -77.0972245, "is_disabled": 0, "fusion_lat": 0.0, "lat": 38.807384666666664, "bike_id": "5a87641491492e4ea4be7b0062abfc07", "fusion_lon": 0.0}, {"rental_uris": {"ios": "https://dc.lft.to/lastmile_qr_scan", "android": "https://dc.lft.to/lastmile_qr_scan"}, "type": "electric_scooter", "name": "3e57bbe444e74fb48522b01075b34002", "is_reserved": 0, "lon": -77.01564933333333, "is_disabled": 0, "fusion_lat": 0.0, "lat": 38.876229, "bike_id": "3e57bbe444e74fb48522b01075b34002", "fusion_lon": 0.0}, {"rental_uris": {"ios": "https://dc.lft.to/lastmile_qr_scan", "android": "https://dc.lft.to/lastmile_qr_scan"}, "type": "electric_scooter", "name": "b75ff29ab5e4d6e09362b4e2fefb902c", "is_reserved": 0, "lon": -77.04813333333334, "is_disabled": 0, "fusion_lat": 0.0, "lat": 38.9203195, "bike_id": "b75ff29ab5e4d6e09362b4e2fefb902c", "fusion_lon": 0.0}, {"rental_uris": {"ios": "https://dc.lft.to/lastmile_qr_scan", "android": "https://dc.lft.to/lastmile_qr_scan"}, "type": "electric_scooter", "name": "967fa35ec744191f798e5e311fa6526c", "is_reserved": 0, "lon": -77.04867066666667, "is_disabled": 0, "fusion_lat": 0.0, "lat": 38.90478316666667, "bike_id": "967fa35ec744191f798e5e311fa6526c", "fusion_lon": 0.0}, {"rental_uris": {"ios": "https://dc.lft.to/lastmile_qr_scan", "android": "https://dc.lft.to/lastmile_qr_scan"}, "type": "electric_scooter", "name": "8e1b31c038ec990bf0f94800d03851a1", "is_reserved": 0, "lon": -77.03155066666666, "is_disabled": 0, "fusion_lat": 0.0, "lat": 38.959345, "bike_id": "8e1b31c038ec990bf0f94800d03851a1", "fusion_lon": 0.0}, {"rental_uris": {"ios": "https://dc.lft.to/lastmile_qr_scan", "android": "https://dc.lft.to/lastmile_qr_scan"}, "type": "electric_scooter", "name": "fe0187a722c93a2eeea06a5f68335e09", "is_reserved": 0, "lon": -77.0219895, "is_disabled": 0, "fusion_lat": 0.0, "lat": 38.91481116666667, "bike_id": "fe0187a722c93a2eeea06a5f68335e09", "fusion_lon": 0.0}, {"rental_uris": {"ios": "https://dc.lft.to/lastmile_qr_scan", "android": "https://dc.lft.to/lastmile_qr_scan"}, "type": "electric_scooter", "name": "50cfcebe932bf4ad2dbf8865f6bf2a41", "is_reserved": 0, "lon": -76.99069066666667, "is_disabled": 0, "fusion_lat": 0.0, "lat": 38.904187666666665, "bike_id": "50cfcebe932bf4ad2dbf8865f6bf2a41", "fusion_lon": 0.0}, {"rental_uris": {"ios": "https://dc.lft.to/lastmile_qr_scan", "android": "https://dc.lft.to/lastmile_qr_scan"}, "type": "electric_scooter", "name": "7289cb5b8199d9c05ba5d8a7b0ac95b8", "is_reserved": 0, "lon": -76.98335733333333, "is_disabled": 0, "fusion_lat": 0.0, "lat": 38.900884, "bike_id": "7289cb5b8199d9c05ba5d8a7b0ac95b8", "fusion_lon": 0.0}, {"rental_uris": {"ios": "https://dc.lft.to/lastmile_qr_scan", "android": "https://dc.lft.to/lastmile_qr_scan"}, "type": "electric_scooter", "name": "57fc2abd2820fa248a65883f6a8810b3", "is_reserved": 0, "lon": -77.02007066666667, "is_disabled": 0, "fusion_lat": 0.0, "lat": 38.899096166666666, "bike_id": "57fc2abd2820fa248a65883f6a8810b3", "fusion_lon": 0.0}, {"rental_uris": {"ios": "https://dc.lft.to/lastmile_qr_scan", "android": "https://dc.lft.to/lastmile_qr_scan"}, "type": "electric_scooter", "name": "8ddf5fd330ad88aee93f24ccbaf3b5ac", "is_reserved": 0, "lon": -77.031652, "is_disabled": 0, "fusion_lat": 0.0, "lat": 38.899360333333334, "bike_id": "8ddf5fd330ad88aee93f24ccbaf3b5ac", "fusion_lon": 0.0}, {"rental_uris": {"ios": "https://dc.lft.to/lastmile_qr_scan", "android": "https://dc.lft.to/lastmile_qr_scan"}, "type": "electric_scooter", "name": "3c4b05b410db359ea0dc4ef4be736c8e", "is_reserved": 0, "lon": -77.03378516666666, "is_disabled": 0, "fusion_lat": 0.0, "lat": 38.89974083333333, "bike_id": "3c4b05b410db359ea0dc4ef4be736c8e", "fusion_lon": 0.0}, {"rental_uris": {"ios": "https://dc.lft.to/lastmile_qr_scan", "android": "https://dc.lft.to/lastmile_qr_scan"}, "type": "electric_scooter", "name": "2ef26f4673e89483d6e032a514f33180", "is_reserved": 0, "lon": -77.06132733333334, "is_disabled": 0, "fusion_lat": 0.0, "lat": 38.943065, "bike_id": "2ef26f4673e89483d6e032a514f33180", "fusion_lon": 0.0}, {"rental_uris": {"ios": "https://dc.lft.to/lastmile_qr_scan", "android": "https://dc.lft.to/lastmile_qr_scan"}, "type": "electric_bike", "name": "075d5567f81f35f1c8c36a782bf36d98", "is_reserved": 0, "lon": -77.00162583333334, "is_disabled": 0, "fusion_lat": 0.0, "lat": 38.941593166666664, "bike_id": "075d5567f81f35f1c8c36a782bf36d98", "fusion_lon": 0.0}, {"rental_uris": {"ios": "https://dc.lft.to/lastmile_qr_scan", "android": "https://dc.lft.to/lastmile_qr_scan"}, "type": "electric_scooter", "name": "dd8f20ede9744ca44c1b2e6316a350cd", "is_reserved": 0, "lon": -77.04059916666667, "is_disabled": 0, "fusion_lat": 0.0, "lat": 38.91770066666667, "bike_id": "dd8f20ede9744ca44c1b2e6316a350cd", "fusion_lon": 0.0}, {"rental_uris": {"ios": "https://dc.lft.to/lastmile_qr_scan", "android": "https://dc.lft.to/lastmile_qr_scan"}, "type": "electric_scooter", "name": "9dd7430214d427246959810fcce8e1d6", "is_reserved": 0, "lon": -77.019243, "is_disabled": 0, "fusion_lat": 0.0, "lat": 38.928701333333336, "bike_id": "9dd7430214d427246959810fcce8e1d6", "fusion_lon": 0.0}, {"rental_uris": {"ios": "https://dc.lft.to/lastmile_qr_scan", "android": "https://dc.lft.to/lastmile_qr_scan"}, "type": "electric_scooter", "name": "8e1bb6d1cb55f6d006d0c4ec58cc3904", "is_reserved": 0, "lon": -77.030644, "is_disabled": 0, "fusion_lat": 0.0, "lat": 38.90729366666667, "bike_id": "8e1bb6d1cb55f6d006d0c4ec58cc3904", "fusion_lon": 0.0}, {"rental_uris": {"ios": "https://dc.lft.to/lastmile_qr_scan", "android": "https://dc.lft.to/lastmile_qr_scan"}, "type": "electric_scooter", "name": "1357d40929bf6d630459b18973ce9299", "is_reserved": 0, "lon": -77.0111265, "is_disabled": 0, "fusion_lat": 0.0, "lat": 38.909697, "bike_id": "1357d40929bf6d630459b18973ce9299", "fusion_lon": 0.0}, {"rental_uris": {"ios": "https://dc.lft.to/lastmile_qr_scan", "android": "https://dc.lft.to/lastmile_qr_scan"}, "type": "electric_bike", "name": "71e294895fd09afb1516eec9e58f583d", "is_reserved": 0, "lon": -76.98633583333333, "is_disabled": 0, "fusion_lat": 0.0, "lat": 38.936865, "bike_id": "71e294895fd09afb1516eec9e58f583d", "fusion_lon": 0.0}, {"rental_uris": {"ios": "https://dc.lft.to/lastmile_qr_scan", "android": "https://dc.lft.to/lastmile_qr_scan"}, "type": "electric_scooter", "name": "2833f9a64535000e93268823b2dd1a66", "is_reserved": 0, "lon": -77.0435925, "is_disabled": 0, "fusion_lat": 0.0, "lat": 38.892238666666664, "bike_id": "2833f9a64535000e93268823b2dd1a66", "fusion_lon": 0.0}, {"rental_uris": {"ios": "https://dc.lft.to/lastmile_qr_scan", "android": "https://dc.lft.to/lastmile_qr_scan"}, "type": "electric_scooter", "name": "d5ef78a30e08b0ace9509995943d9834", "is_reserved": 0, "lon": -77.04806883333333, "is_disabled": 0, "fusion_lat": 0.0, "lat": 38.899546, "bike_id": "d5ef78a30e08b0ace9509995943d9834", "fusion_lon": 0.0}, {"rental_uris": {"ios": "https://dc.lft.to/lastmile_qr_scan", "android": "https://dc.lft.to/lastmile_qr_scan"}, "type": "electric_scooter", "name": "faf8e3bda58a008d1858bb5a8293cf3c", "is_reserved": 0, "lon": -77.032735, "is_disabled": 0, "fusion_lat": 0.0, "lat": 38.91983616666667, "bike_id": "faf8e3bda58a008d1858bb5a8293cf3c", "fusion_lon": 0.0}, {"rental_uris": {"ios": "https://dc.lft.to/lastmile_qr_scan", "android": "https://dc.lft.to/lastmile_qr_scan"}, "type": "electric_scooter", "name": "fcb9e0cf39a7d841e1cf8dba52153145", "is_reserved": 0, "lon": -77.04244516666667, "is_disabled": 0, "fusion_lat": 0.0, "lat": 38.9224305, "bike_id": "fcb9e0cf39a7d841e1cf8dba52153145", "fusion_lon": 0.0}, {"rental_uris": {"ios": "https://dc.lft.to/lastmile_qr_scan", "android": "https://dc.lft.to/lastmile_qr_scan"}, "type": "electric_scooter", "name": "8cd1ab5a2b42786c12bb0c67d8024267", "is_reserved": 0, "lon": -77.0517385, "is_disabled": 0, "fusion_lat": 0.0, "lat": 38.90307933333333, "bike_id": "8cd1ab5a2b42786c12bb0c67d8024267", "fusion_lon": 0.0}, {"rental_uris": {"ios": "https://dc.lft.to/lastmile_qr_scan", "android": "https://dc.lft.to/lastmile_qr_scan"}, "type": "electric_scooter", "name": "c33a378f1ead1da4b150b04ecb32a6b6", "is_reserved": 0, "lon": -77.04761416666666, "is_disabled": 0, "fusion_lat": 0.0, "lat": 38.9125475, "bike_id": "c33a378f1ead1da4b150b04ecb32a6b6", "fusion_lon": 0.0}, {"rental_uris": {"ios": "https://dc.lft.to/lastmile_qr_scan", "android": "https://dc.lft.to/lastmile_qr_scan"}, "type": "electric_scooter", "name": "a8467fdf6f2347a61c9dc347ed19045e", "is_reserved": 0, "lon": -77.034518, "is_disabled": 0, "fusion_lat": 0.0, "lat": 38.908306833333334, "bike_id": "a8467fdf6f2347a61c9dc347ed19045e", "fusion_lon": 0.0}, {"rental_uris": {"ios": "https://dc.lft.to/lastmile_qr_scan", "android": "https://dc.lft.to/lastmile_qr_scan"}, "type": "electric_bike", "name": "f85f70b5b547c1c3c06ebeff4f021b1c", "is_reserved": 0, "lon": -77.03703383333334, "is_disabled": 0, "fusion_lat": 0.0, "lat": 38.935605833333334, "bike_id": "f85f70b5b547c1c3c06ebeff4f021b1c", "fusion_lon": 0.0}, {"rental_uris": {"ios": "https://dc.lft.to/lastmile_qr_scan", "android": "https://dc.lft.to/lastmile_qr_scan"}, "type": "electric_scooter", "name": "1473996a5121e60ccb2ba65054a65d94", "is_reserved": 0, "lon": -77.0422225, "is_disabled": 0, "fusion_lat": 0.0, "lat": 38.921687666666664, "bike_id": "1473996a5121e60ccb2ba65054a65d94", "fusion_lon": 0.0}, {"rental_uris": {"ios": "https://dc.lft.to/lastmile_qr_scan", "android": "https://dc.lft.to/lastmile_qr_scan"}, "type": "electric_scooter", "name": "5a733e4d847df86a377cd85597b9ff33", "is_reserved": 0, "lon": -77.02278083333333, "is_disabled": 0, "fusion_lat": 0.0, "lat": 38.892198, "bike_id": "5a733e4d847df86a377cd85597b9ff33", "fusion_lon": 0.0}, {"rental_uris": {"ios": "https://dc.lft.to/lastmile_qr_scan", "android": "https://dc.lft.to/lastmile_qr_scan"}, "type": "electric_scooter", "name": "7e3c5785604fef3b7e2bd3d9fea2c007", "is_reserved": 0, "lon": -77.0292855, "is_disabled": 0, "fusion_lat": 0.0, "lat": 38.898159, "bike_id": "7e3c5785604fef3b7e2bd3d9fea2c007", "fusion_lon": 0.0}, {"rental_uris": {"ios": "https://dc.lft.to/lastmile_qr_scan", "android": "https://dc.lft.to/lastmile_qr_scan"}, "type": "electric_bike", "name": "fb4a4411d6d75c25920883dd88f7f186", "is_reserved": 0, "lon": -76.97543416666667, "is_disabled": 0, "fusion_lat": 0.0, "lat": 38.904254, "bike_id": "fb4a4411d6d75c25920883dd88f7f186", "fusion_lon": 0.0}, {"rental_uris": {"ios": "https://dc.lft.to/lastmile_qr_scan", "android": "https://dc.lft.to/lastmile_qr_scan"}, "type": "electric_scooter", "name": "32998c60bc7eae13db7c3dd3d256b82d", "is_reserved": 0, "lon": -77.02623233333334, "is_disabled": 0, "fusion_lat": 0.0, "lat": 38.89225616666667, "bike_id": "32998c60bc7eae13db7c3dd3d256b82d", "fusion_lon": 0.0}, {"rental_uris": {"ios": "https://dc.lft.to/lastmile_qr_scan", "android": "https://dc.lft.to/lastmile_qr_scan"}, "type": "electric_scooter", "name": "3150eec3aec1aa7f44f1ffb654023ebe", "is_reserved": 0, "lon": -77.03055066666667, "is_disabled": 0, "fusion_lat": 0.0, "lat": 38.898205, "bike_id": "3150eec3aec1aa7f44f1ffb654023ebe", "fusion_lon": 0.0}, {"rental_uris": {"ios": "https://dc.lft.to/lastmile_qr_scan", "android": "https://dc.lft.to/lastmile_qr_scan"}, "type": "electric_scooter", "name": "2d60713a1a1f3e9d1f937c0287de7794", "is_reserved": 0, "lon": -77.01950233333334, "is_disabled": 0, "fusion_lat": 0.0, "lat": 38.950509333333336, "bike_id": "2d60713a1a1f3e9d1f937c0287de7794", "fusion_lon": 0.0}, {"rental_uris": {"ios": "https://dc.lft.to/lastmile_qr_scan", "android": "https://dc.lft.to/lastmile_qr_scan"}, "type": "electric_bike", "name": "5d28808195ca9e9fcae094051c1dd288", "is_reserved": 0, "lon": -76.95156816666666, "is_disabled": 0, "fusion_lat": 0.0, "lat": 39.084412666666665, "bike_id": "5d28808195ca9e9fcae094051c1dd288", "fusion_lon": 0.0}, {"rental_uris": {"ios": "https://dc.lft.to/lastmile_qr_scan", "android": "https://dc.lft.to/lastmile_qr_scan"}, "type": "electric_scooter", "name": "1b42efb11f8c2177eaa0827f7ba00929", "is_reserved": 0, "lon": -77.00155283333334, "is_disabled": 0, "fusion_lat": 0.0, "lat": 38.821329666666664, "bike_id": "1b42efb11f8c2177eaa0827f7ba00929", "fusion_lon": 0.0}, {"rental_uris": {"ios": "https://dc.lft.to/lastmile_qr_scan", "android": "https://dc.lft.to/lastmile_qr_scan"}, "type": "electric_scooter", "name": "0822bc6750be904ad4a85f5e624577a9", "is_reserved": 0, "lon": -77.01389566666667, "is_disabled": 0, "fusion_lat": 0.0, "lat": 38.9195335, "bike_id": "0822bc6750be904ad4a85f5e624577a9", "fusion_lon": 0.0}, {"rental_uris": {"ios": "https://dc.lft.to/lastmile_qr_scan", "android": "https://dc.lft.to/lastmile_qr_scan"}, "type": "electric_scooter", "name": "2066fddfbcaabd3f19793b974943565e", "is_reserved": 0, "lon": -76.99945983333333, "is_disabled": 0, "fusion_lat": 0.0, "lat": 38.890910166666664, "bike_id": "2066fddfbcaabd3f19793b974943565e", "fusion_lon": 0.0}, {"rental_uris": {"ios": "https://dc.lft.to/lastmile_qr_scan", "android": "https://dc.lft.to/lastmile_qr_scan"}, "type": "electric_scooter", "name": "8db31854d6eb76d3b2f2ba1ac6d2eaa1", "is_reserved": 0, "lon": -77.07559633333334, "is_disabled": 0, "fusion_lat": 0.0, "lat": 38.90645, "bike_id": "8db31854d6eb76d3b2f2ba1ac6d2eaa1", "fusion_lon": 0.0}, {"rental_uris": {"ios": "https://dc.lft.to/lastmile_qr_scan", "android": "https://dc.lft.to/lastmile_qr_scan"}, "type": "electric_scooter", "name": "228244c7fd321f66710b6ef9ee534ce9", "is_reserved": 0, "lon": -77.01724516666667, "is_disabled": 0, "fusion_lat": 0.0, "lat": 38.8922935, "bike_id": "228244c7fd321f66710b6ef9ee534ce9", "fusion_lon": 0.0}, {"rental_uris": {"ios": "https://dc.lft.to/lastmile_qr_scan", "android": "https://dc.lft.to/lastmile_qr_scan"}, "type": "electric_scooter", "name": "5472260c3d655daa7cad9371f07282c9", "is_reserved": 0, "lon": -77.0726045, "is_disabled": 0, "fusion_lat": 0.0, "lat": 38.934383, "bike_id": "5472260c3d655daa7cad9371f07282c9", "fusion_lon": 0.0}, {"rental_uris": {"ios": "https://dc.lft.to/lastmile_qr_scan", "android": "https://dc.lft.to/lastmile_qr_scan"}, "type": "electric_scooter", "name": "38477611d9aa2178f395b012a1f7d3f4", "is_reserved": 0, "lon": -77.0320415, "is_disabled": 0, "fusion_lat": 0.0, "lat": 38.9165805, "bike_id": "38477611d9aa2178f395b012a1f7d3f4", "fusion_lon": 0.0}, {"rental_uris": {"ios": "https://dc.lft.to/lastmile_qr_scan", "android": "https://dc.lft.to/lastmile_qr_scan"}, "type": "electric_scooter", "name": "0856cf6a39722902fd3907224b354ca6", "is_reserved": 0, "lon": -77.02395966666667, "is_disabled": 0, "fusion_lat": 0.0, "lat": 38.920935, "bike_id": "0856cf6a39722902fd3907224b354ca6", "fusion_lon": 0.0}, {"rental_uris": {"ios": "https://dc.lft.to/lastmile_qr_scan", "android": "https://dc.lft.to/lastmile_qr_scan"}, "type": "electric_scooter", "name": "26f8d2b9d4e147552c9f6b8ac0684750", "is_reserved": 0, "lon": -76.93269599999999, "is_disabled": 0, "fusion_lat": 0.0, "lat": 38.88748533333333, "bike_id": "26f8d2b9d4e147552c9f6b8ac0684750", "fusion_lon": 0.0}, {"rental_uris": {"ios": "https://dc.lft.to/lastmile_qr_scan", "android": "https://dc.lft.to/lastmile_qr_scan"}, "type": "electric_scooter", "name": "5405eed460f386dbef400ef0e0cf3bc0", "is_reserved": 0, "lon": -77.040506, "is_disabled": 0, "fusion_lat": 0.0, "lat": 38.917879, "bike_id": "5405eed460f386dbef400ef0e0cf3bc0", "fusion_lon": 0.0}, {"rental_uris": {"ios": "https://dc.lft.to/lastmile_qr_scan", "android": "https://dc.lft.to/lastmile_qr_scan"}, "type": "electric_scooter", "name": "0ef8dc8b9efebf97a7671603fe2b54f5", "is_reserved": 0, "lon": -77.01591533333334, "is_disabled": 0, "fusion_lat": 0.0, "lat": 38.8998605, "bike_id": "0ef8dc8b9efebf97a7671603fe2b54f5", "fusion_lon": 0.0}, {"rental_uris": {"ios": "https://dc.lft.to/lastmile_qr_scan", "android": "https://dc.lft.to/lastmile_qr_scan"}, "type": "electric_scooter", "name": "4bb213804424ef7cba2042b99cdb0723", "is_reserved": 0, "lon": -77.03189766666667, "is_disabled": 0, "fusion_lat": 0.0, "lat": 38.91659, "bike_id": "4bb213804424ef7cba2042b99cdb0723", "fusion_lon": 0.0}, {"rental_uris": {"ios": "https://dc.lft.to/lastmile_qr_scan", "android": "https://dc.lft.to/lastmile_qr_scan"}, "type": "electric_scooter", "name": "f0909029c43b35b942a39c0f4aae8ab2", "is_reserved": 0, "lon": -76.9466475, "is_disabled": 0, "fusion_lat": 0.0, "lat": 38.89867683333333, "bike_id": "f0909029c43b35b942a39c0f4aae8ab2", "fusion_lon": 0.0}, {"rental_uris": {"ios": "https://dc.lft.to/lastmile_qr_scan", "android": "https://dc.lft.to/lastmile_qr_scan"}, "type": "electric_scooter", "name": "2799a87a52d2414b6f72fd5de0eca2de", "is_reserved": 0, "lon": -77.00892266666666, "is_disabled": 0, "fusion_lat": 0.0, "lat": 38.89600016666667, "bike_id": "2799a87a52d2414b6f72fd5de0eca2de", "fusion_lon": 0.0}, {"rental_uris": {"ios": "https://dc.lft.to/lastmile_qr_scan", "android": "https://dc.lft.to/lastmile_qr_scan"}, "type": "electric_scooter", "name": "cf05336bf265b15dcc37139461c3d91e", "is_reserved": 0, "lon": -77.02315666666667, "is_disabled": 0, "fusion_lat": 0.0, "lat": 38.9183705, "bike_id": "cf05336bf265b15dcc37139461c3d91e", "fusion_lon": 0.0}, {"rental_uris": {"ios": "https://dc.lft.to/lastmile_qr_scan", "android": "https://dc.lft.to/lastmile_qr_scan"}, "type": "electric_scooter", "name": "85c761ed4724928210a2e4e5c50e6daf", "is_reserved": 0, "lon": -77.021334, "is_disabled": 0, "fusion_lat": 0.0, "lat": 38.9126695, "bike_id": "85c761ed4724928210a2e4e5c50e6daf", "fusion_lon": 0.0}, {"rental_uris": {"ios": "https://dc.lft.to/lastmile_qr_scan", "android": "https://dc.lft.to/lastmile_qr_scan"}, "type": "electric_scooter", "name": "1270f7098e36ad09089e77b0574f725a", "is_reserved": 0, "lon": -77.040768, "is_disabled": 0, "fusion_lat": 0.0, "lat": 38.920222333333335, "bike_id": "1270f7098e36ad09089e77b0574f725a", "fusion_lon": 0.0}, {"rental_uris": {"ios": "https://dc.lft.to/lastmile_qr_scan", "android": "https://dc.lft.to/lastmile_qr_scan"}, "type": "electric_scooter", "name": "092f00a02a24bd3901bd0b0ec9873634", "is_reserved": 0, "lon": -77.02739916666667, "is_disabled": 0, "fusion_lat": 0.0, "lat": 38.92388, "bike_id": "092f00a02a24bd3901bd0b0ec9873634", "fusion_lon": 0.0}, {"rental_uris": {"ios": "https://dc.lft.to/lastmile_qr_scan", "android": "https://dc.lft.to/lastmile_qr_scan"}, "type": "electric_scooter", "name": "63e5b1df186672bd6fdf0b774df2d5d9", "is_reserved": 0, "lon": -77.05229366666667, "is_disabled": 0, "fusion_lat": 0.0, "lat": 38.92463083333333, "bike_id": "63e5b1df186672bd6fdf0b774df2d5d9", "fusion_lon": 0.0}, {"rental_uris": {"ios": "https://dc.lft.to/lastmile_qr_scan", "android": "https://dc.lft.to/lastmile_qr_scan"}, "type": "electric_scooter", "name": "660e60002dc70656129a2da302efcbca", "is_reserved": 0, "lon": -77.02408716666666, "is_disabled": 0, "fusion_lat": 0.0, "lat": 38.920934833333334, "bike_id": "660e60002dc70656129a2da302efcbca", "fusion_lon": 0.0}, {"rental_uris": {"ios": "https://dc.lft.to/lastmile_qr_scan", "android": "https://dc.lft.to/lastmile_qr_scan"}, "type": "electric_scooter", "name": "4e4e57b0a47067e1afd06ddc9de5b6c6", "is_reserved": 0, "lon": -77.031018, "is_disabled": 0, "fusion_lat": 0.0, "lat": 38.924856, "bike_id": "4e4e57b0a47067e1afd06ddc9de5b6c6", "fusion_lon": 0.0}, {"rental_uris": {"ios": "https://dc.lft.to/lastmile_qr_scan", "android": "https://dc.lft.to/lastmile_qr_scan"}, "type": "electric_scooter", "name": "1aa49f2fbea2454e107dd48d058da8d2", "is_reserved": 0, "lon": -76.98362966666667, "is_disabled": 0, "fusion_lat": 0.0, "lat": 38.9149535, "bike_id": "1aa49f2fbea2454e107dd48d058da8d2", "fusion_lon": 0.0}, {"rental_uris": {"ios": "https://dc.lft.to/lastmile_qr_scan", "android": "https://dc.lft.to/lastmile_qr_scan"}, "type": "electric_bike", "name": "52971c85a1010c25ac6d305135352b35", "is_reserved": 0, "lon": -77.23414116666666, "is_disabled": 0, "fusion_lat": 0.0, "lat": 38.8757865, "bike_id": "52971c85a1010c25ac6d305135352b35", "fusion_lon": 0.0}, {"rental_uris": {"ios": "https://dc.lft.to/lastmile_qr_scan", "android": "https://dc.lft.to/lastmile_qr_scan"}, "type": "electric_scooter", "name": "e0d98acfb9977c0672045c48449e8385", "is_reserved": 0, "lon": -76.9762845, "is_disabled": 0, "fusion_lat": 0.0, "lat": 38.90573633333333, "bike_id": "e0d98acfb9977c0672045c48449e8385", "fusion_lon": 0.0}, {"rental_uris": {"ios": "https://dc.lft.to/lastmile_qr_scan", "android": "https://dc.lft.to/lastmile_qr_scan"}, "type": "electric_scooter", "name": "6d45db4603e0e1f1608b0dc5b379707b", "is_reserved": 0, "lon": -77.0419515, "is_disabled": 0, "fusion_lat": 0.0, "lat": 38.923357, "bike_id": "6d45db4603e0e1f1608b0dc5b379707b", "fusion_lon": 0.0}, {"rental_uris": {"ios": "https://dc.lft.to/lastmile_qr_scan", "android": "https://dc.lft.to/lastmile_qr_scan"}, "type": "electric_scooter", "name": "f96ddd98f678c8d38d34141c1f305f6c", "is_reserved": 0, "lon": -77.049494, "is_disabled": 0, "fusion_lat": 0.0, "lat": 38.920202, "bike_id": "f96ddd98f678c8d38d34141c1f305f6c", "fusion_lon": 0.0}, {"rental_uris": {"ios": "https://dc.lft.to/lastmile_qr_scan", "android": "https://dc.lft.to/lastmile_qr_scan"}, "type": "electric_scooter", "name": "0ede9e6f53517b470fcf2528e9511f3f", "is_reserved": 0, "lon": -77.07349683333334, "is_disabled": 0, "fusion_lat": 0.0, "lat": 38.94328, "bike_id": "0ede9e6f53517b470fcf2528e9511f3f", "fusion_lon": 0.0}, {"rental_uris": {"ios": "https://dc.lft.to/lastmile_qr_scan", "android": "https://dc.lft.to/lastmile_qr_scan"}, "type": "electric_scooter", "name": "7508af4f55c1f89a02754d4d8537d402", "is_reserved": 0, "lon": -77.08241666666666, "is_disabled": 0, "fusion_lat": 0.0, "lat": 38.954279166666666, "bike_id": "7508af4f55c1f89a02754d4d8537d402", "fusion_lon": 0.0}, {"rental_uris": {"ios": "https://dc.lft.to/lastmile_qr_scan", "android": "https://dc.lft.to/lastmile_qr_scan"}, "type": "electric_scooter", "name": "fbcd24ad16a26537ed151c4f7ed94443", "is_reserved": 0, "lon": -77.068449, "is_disabled": 0, "fusion_lat": 0.0, "lat": 38.91715416666667, "bike_id": "fbcd24ad16a26537ed151c4f7ed94443", "fusion_lon": 0.0}, {"rental_uris": {"ios": "https://dc.lft.to/lastmile_qr_scan", "android": "https://dc.lft.to/lastmile_qr_scan"}, "type": "electric_scooter", "name": "ffc16c993505bfccd04e49a5f7321ca2", "is_reserved": 0, "lon": -77.03377366666666, "is_disabled": 0, "fusion_lat": 0.0, "lat": 38.928611333333336, "bike_id": "ffc16c993505bfccd04e49a5f7321ca2", "fusion_lon": 0.0}, {"rental_uris": {"ios": "https://dc.lft.to/lastmile_qr_scan", "android": "https://dc.lft.to/lastmile_qr_scan"}, "type": "electric_scooter", "name": "5d9cd3c3518dc1222fc08b73ac2b06f3", "is_reserved": 0, "lon": -77.03654666666667, "is_disabled": 0, "fusion_lat": 0.0, "lat": 38.954617, "bike_id": "5d9cd3c3518dc1222fc08b73ac2b06f3", "fusion_lon": 0.0}, {"rental_uris": {"ios": "https://dc.lft.to/lastmile_qr_scan", "android": "https://dc.lft.to/lastmile_qr_scan"}, "type": "electric_scooter", "name": "2dc37f5b22ad624dfc270d9266a8f1f7", "is_reserved": 0, "lon": -77.03220066666667, "is_disabled": 0, "fusion_lat": 0.0, "lat": 38.915976, "bike_id": "2dc37f5b22ad624dfc270d9266a8f1f7", "fusion_lon": 0.0}, {"rental_uris": {"ios": "https://dc.lft.to/lastmile_qr_scan", "android": "https://dc.lft.to/lastmile_qr_scan"}, "type": "electric_scooter", "name": "abe1b4c961535ef31421f5291c1d4340", "is_reserved": 0, "lon": -76.99153066666666, "is_disabled": 0, "fusion_lat": 0.0, "lat": 38.901247166666664, "bike_id": "abe1b4c961535ef31421f5291c1d4340", "fusion_lon": 0.0}, {"rental_uris": {"ios": "https://dc.lft.to/lastmile_qr_scan", "android": "https://dc.lft.to/lastmile_qr_scan"}, "type": "electric_scooter", "name": "b57afb5c489b6ef2ee1b502ae7630dde", "is_reserved": 0, "lon": -76.97134933333334, "is_disabled": 0, "fusion_lat": 0.0, "lat": 38.8786395, "bike_id": "b57afb5c489b6ef2ee1b502ae7630dde", "fusion_lon": 0.0}, {"rental_uris": {"ios": "https://dc.lft.to/lastmile_qr_scan", "android": "https://dc.lft.to/lastmile_qr_scan"}, "type": "electric_scooter", "name": "75a894f037b25172fea9606cf414bb0f", "is_reserved": 0, "lon": -77.02442566666667, "is_disabled": 0, "fusion_lat": 0.0, "lat": 38.95638183333333, "bike_id": "75a894f037b25172fea9606cf414bb0f", "fusion_lon": 0.0}, {"rental_uris": {"ios": "https://dc.lft.to/lastmile_qr_scan", "android": "https://dc.lft.to/lastmile_qr_scan"}, "type": "electric_scooter", "name": "b15207c93169f549b39e15916953eeb4", "is_reserved": 0, "lon": -77.0271315, "is_disabled": 0, "fusion_lat": 0.0, "lat": 38.91732833333333, "bike_id": "b15207c93169f549b39e15916953eeb4", "fusion_lon": 0.0}, {"rental_uris": {"ios": "https://dc.lft.to/lastmile_qr_scan", "android": "https://dc.lft.to/lastmile_qr_scan"}, "type": "electric_bike", "name": "6af792a0a3efe3a2c05f1c301d8618e4", "is_reserved": 0, "lon": -77.0656645, "is_disabled": 0, "fusion_lat": 0.0, "lat": 38.93269316666667, "bike_id": "6af792a0a3efe3a2c05f1c301d8618e4", "fusion_lon": 0.0}, {"rental_uris": {"ios": "https://dc.lft.to/lastmile_qr_scan", "android": "https://dc.lft.to/lastmile_qr_scan"}, "type": "electric_scooter", "name": "4e8470a716744870348e1e4dbb278fee", "is_reserved": 0, "lon": -77.0708715, "is_disabled": 0, "fusion_lat": 0.0, "lat": 38.95324383333333, "bike_id": "4e8470a716744870348e1e4dbb278fee", "fusion_lon": 0.0}, {"rental_uris": {"ios": "https://dc.lft.to/lastmile_qr_scan", "android": "https://dc.lft.to/lastmile_qr_scan"}, "type": "electric_scooter", "name": "bde2be3590e14e124e7aea38943985b8", "is_reserved": 0, "lon": -77.0529915, "is_disabled": 0, "fusion_lat": 0.0, "lat": 38.9025645, "bike_id": "bde2be3590e14e124e7aea38943985b8", "fusion_lon": 0.0}, {"rental_uris": {"ios": "https://dc.lft.to/lastmile_qr_scan", "android": "https://dc.lft.to/lastmile_qr_scan"}, "type": "electric_scooter", "name": "e28a8f10da32c0dfccfe77f023e5af16", "is_reserved": 0, "lon": -77.05522766666667, "is_disabled": 0, "fusion_lat": 0.0, "lat": 38.90776683333333, "bike_id": "e28a8f10da32c0dfccfe77f023e5af16", "fusion_lon": 0.0}, {"rental_uris": {"ios": "https://dc.lft.to/lastmile_qr_scan", "android": "https://dc.lft.to/lastmile_qr_scan"}, "type": "electric_scooter", "name": "83a8a2a882a6393403918a6439114843", "is_reserved": 0, "lon": -77.01992133333333, "is_disabled": 0, "fusion_lat": 0.0, "lat": 38.876107, "bike_id": "83a8a2a882a6393403918a6439114843", "fusion_lon": 0.0}, {"rental_uris": {"ios": "https://dc.lft.to/lastmile_qr_scan", "android": "https://dc.lft.to/lastmile_qr_scan"}, "type": "electric_scooter", "name": "7210d37f444e4ba90e414a76672a24a1", "is_reserved": 0, "lon": -76.987331, "is_disabled": 0, "fusion_lat": 0.0, "lat": 38.84223716666666, "bike_id": "7210d37f444e4ba90e414a76672a24a1", "fusion_lon": 0.0}, {"rental_uris": {"ios": "https://dc.lft.to/lastmile_qr_scan", "android": "https://dc.lft.to/lastmile_qr_scan"}, "type": "electric_scooter", "name": "84a56324a9102722c10a6b8bf5d9ad00", "is_reserved": 0, "lon": -77.026177, "is_disabled": 0, "fusion_lat": 0.0, "lat": 38.903644, "bike_id": "84a56324a9102722c10a6b8bf5d9ad00", "fusion_lon": 0.0}, {"rental_uris": {"ios": "https://dc.lft.to/lastmile_qr_scan", "android": "https://dc.lft.to/lastmile_qr_scan"}, "type": "electric_scooter", "name": "79d5c2db8c92d719b0c6696224c8b8df", "is_reserved": 0, "lon": -77.04338, "is_disabled": 0, "fusion_lat": 0.0, "lat": 38.922202666666664, "bike_id": "79d5c2db8c92d719b0c6696224c8b8df", "fusion_lon": 0.0}, {"rental_uris": {"ios": "https://dc.lft.to/lastmile_qr_scan", "android": "https://dc.lft.to/lastmile_qr_scan"}, "type": "electric_scooter", "name": "c9ab9ad5a7ee371efc6a2fae4ba64f98", "is_reserved": 0, "lon": -77.01227966666667, "is_disabled": 0, "fusion_lat": 0.0, "lat": 38.867225166666664, "bike_id": "c9ab9ad5a7ee371efc6a2fae4ba64f98", "fusion_lon": 0.0}, {"rental_uris": {"ios": "https://dc.lft.to/lastmile_qr_scan", "android": "https://dc.lft.to/lastmile_qr_scan"}, "type": "electric_scooter", "name": "fedc1d002b69b2502ea1bc6ea861a2b3", "is_reserved": 0, "lon": -77.038323, "is_disabled": 0, "fusion_lat": 0.0, "lat": 38.907339666666665, "bike_id": "fedc1d002b69b2502ea1bc6ea861a2b3", "fusion_lon": 0.0}, {"rental_uris": {"ios": "https://dc.lft.to/lastmile_qr_scan", "android": "https://dc.lft.to/lastmile_qr_scan"}, "type": "electric_scooter", "name": "21a7b8efcf40798d2a7e4296cdde950d", "is_reserved": 0, "lon": -77.0277735, "is_disabled": 0, "fusion_lat": 0.0, "lat": 38.9276715, "bike_id": "21a7b8efcf40798d2a7e4296cdde950d", "fusion_lon": 0.0}, {"rental_uris": {"ios": "https://dc.lft.to/lastmile_qr_scan", "android": "https://dc.lft.to/lastmile_qr_scan"}, "type": "electric_scooter", "name": "f833e5ca3cbc461168b5b7f62ac85762", "is_reserved": 0, "lon": -77.00748866666666, "is_disabled": 0, "fusion_lat": 0.0, "lat": 38.92526933333333, "bike_id": "f833e5ca3cbc461168b5b7f62ac85762", "fusion_lon": 0.0}, {"rental_uris": {"ios": "https://dc.lft.to/lastmile_qr_scan", "android": "https://dc.lft.to/lastmile_qr_scan"}, "type": "electric_scooter", "name": "547b42b95177bcb4be3eb662a82b340d", "is_reserved": 0, "lon": -76.99237266666667, "is_disabled": 0, "fusion_lat": 0.0, "lat": 38.887466833333335, "bike_id": "547b42b95177bcb4be3eb662a82b340d", "fusion_lon": 0.0}, {"rental_uris": {"ios": "https://dc.lft.to/lastmile_qr_scan", "android": "https://dc.lft.to/lastmile_qr_scan"}, "type": "electric_scooter", "name": "0b6dc029198a9e319151f3ddcd1beaf8", "is_reserved": 0, "lon": -77.0320555, "is_disabled": 0, "fusion_lat": 0.0, "lat": 38.88477916666667, "bike_id": "0b6dc029198a9e319151f3ddcd1beaf8", "fusion_lon": 0.0}, {"rental_uris": {"ios": "https://dc.lft.to/lastmile_qr_scan", "android": "https://dc.lft.to/lastmile_qr_scan"}, "type": "electric_scooter", "name": "0fe95031ef87287d0655a4a283f1ccb2", "is_reserved": 0, "lon": -77.04758816666667, "is_disabled": 0, "fusion_lat": 0.0, "lat": 38.94097883333333, "bike_id": "0fe95031ef87287d0655a4a283f1ccb2", "fusion_lon": 0.0}, {"rental_uris": {"ios": "https://dc.lft.to/lastmile_qr_scan", "android": "https://dc.lft.to/lastmile_qr_scan"}, "type": "electric_scooter", "name": "a24b95035a484183b5351c3a6a83b527", "is_reserved": 0, "lon": -77.0296835, "is_disabled": 0, "fusion_lat": 0.0, "lat": 38.916845333333335, "bike_id": "a24b95035a484183b5351c3a6a83b527", "fusion_lon": 0.0}, {"rental_uris": {"ios": "https://dc.lft.to/lastmile_qr_scan", "android": "https://dc.lft.to/lastmile_qr_scan"}, "type": "electric_scooter", "name": "88d18b83181c5591dc6556d8d0da975d", "is_reserved": 0, "lon": -77.04881416666667, "is_disabled": 0, "fusion_lat": 0.0, "lat": 38.916176166666666, "bike_id": "88d18b83181c5591dc6556d8d0da975d", "fusion_lon": 0.0}, {"rental_uris": {"ios": "https://dc.lft.to/lastmile_qr_scan", "android": "https://dc.lft.to/lastmile_qr_scan"}, "type": "electric_bike", "name": "7d34157b964c963cfef6662bf8610344", "is_reserved": 0, "lon": -76.907387, "is_disabled": 0, "fusion_lat": 0.0, "lat": 38.8962095, "bike_id": "7d34157b964c963cfef6662bf8610344", "fusion_lon": 0.0}, {"rental_uris": {"ios": "https://dc.lft.to/lastmile_qr_scan", "android": "https://dc.lft.to/lastmile_qr_scan"}, "type": "electric_scooter", "name": "0314c8b8acb572442f7b64ccaf78803f", "is_reserved": 0, "lon": -77.00832866666667, "is_disabled": 0, "fusion_lat": 0.0, "lat": 38.91369683333333, "bike_id": "0314c8b8acb572442f7b64ccaf78803f", "fusion_lon": 0.0}, {"rental_uris": {"ios": "https://dc.lft.to/lastmile_qr_scan", "android": "https://dc.lft.to/lastmile_qr_scan"}, "type": "electric_bike", "name": "db16b70d8caa6583d6791c66620dc51b", "is_reserved": 0, "lon": -77.05272283333333, "is_disabled": 0, "fusion_lat": 0.0, "lat": 38.94091566666667, "bike_id": "db16b70d8caa6583d6791c66620dc51b", "fusion_lon": 0.0}, {"rental_uris": {"ios": "https://dc.lft.to/lastmile_qr_scan", "android": "https://dc.lft.to/lastmile_qr_scan"}, "type": "electric_scooter", "name": "23904624d4fc55a965736f67210df314", "is_reserved": 0, "lon": -77.03136866666667, "is_disabled": 0, "fusion_lat": 0.0, "lat": 38.923795, "bike_id": "23904624d4fc55a965736f67210df314", "fusion_lon": 0.0}, {"rental_uris": {"ios": "https://dc.lft.to/lastmile_qr_scan", "android": "https://dc.lft.to/lastmile_qr_scan"}, "type": "electric_scooter", "name": "e590de3b3a7a2365eae9f0b1ff50a526", "is_reserved": 0, "lon": -77.04905616666667, "is_disabled": 0, "fusion_lat": 0.0, "lat": 38.89739483333334, "bike_id": "e590de3b3a7a2365eae9f0b1ff50a526", "fusion_lon": 0.0}, {"rental_uris": {"ios": "https://dc.lft.to/lastmile_qr_scan", "android": "https://dc.lft.to/lastmile_qr_scan"}, "type": "electric_scooter", "name": "f1425161219fe1107954eb5d0e21179e", "is_reserved": 0, "lon": -77.03920116666667, "is_disabled": 0, "fusion_lat": 0.0, "lat": 38.924762666666666, "bike_id": "f1425161219fe1107954eb5d0e21179e", "fusion_lon": 0.0}, {"rental_uris": {"ios": "https://dc.lft.to/lastmile_qr_scan", "android": "https://dc.lft.to/lastmile_qr_scan"}, "type": "electric_scooter", "name": "b2721429d9762538f3729413a72c9d06", "is_reserved": 0, "lon": -76.99506533333333, "is_disabled": 0, "fusion_lat": 0.0, "lat": 38.881101666666666, "bike_id": "b2721429d9762538f3729413a72c9d06", "fusion_lon": 0.0}, {"rental_uris": {"ios": "https://dc.lft.to/lastmile_qr_scan", "android": "https://dc.lft.to/lastmile_qr_scan"}, "type": "electric_bike", "name": "0158640b78d35582fa4df355f1d86e70", "is_reserved": 0, "lon": -77.020897, "is_disabled": 0, "fusion_lat": 0.0, "lat": 38.958501166666665, "bike_id": "0158640b78d35582fa4df355f1d86e70", "fusion_lon": 0.0}, {"rental_uris": {"ios": "https://dc.lft.to/lastmile_qr_scan", "android": "https://dc.lft.to/lastmile_qr_scan"}, "type": "electric_scooter", "name": "094016e6ea497dde13dfc7cfde66831f", "is_reserved": 0, "lon": -77.05567683333334, "is_disabled": 0, "fusion_lat": 0.0, "lat": 38.89962933333334, "bike_id": "094016e6ea497dde13dfc7cfde66831f", "fusion_lon": 0.0}, {"rental_uris": {"ios": "https://dc.lft.to/lastmile_qr_scan", "android": "https://dc.lft.to/lastmile_qr_scan"}, "type": "electric_scooter", "name": "cf7a39bde05f04e674ea8912b863f2e0", "is_reserved": 0, "lon": -77.029648, "is_disabled": 0, "fusion_lat": 0.0, "lat": 38.916693333333335, "bike_id": "cf7a39bde05f04e674ea8912b863f2e0", "fusion_lon": 0.0}, {"rental_uris": {"ios": "https://dc.lft.to/lastmile_qr_scan", "android": "https://dc.lft.to/lastmile_qr_scan"}, "type": "electric_scooter", "name": "1275d2ee15556706928ab2ef4d8c6ec2", "is_reserved": 0, "lon": -77.02834816666666, "is_disabled": 0, "fusion_lat": 0.0, "lat": 38.887406666666664, "bike_id": "1275d2ee15556706928ab2ef4d8c6ec2", "fusion_lon": 0.0}, {"rental_uris": {"ios": "https://dc.lft.to/lastmile_qr_scan", "android": "https://dc.lft.to/lastmile_qr_scan"}, "type": "electric_scooter", "name": "04a041b475976b88292e1a5bb0ae9419", "is_reserved": 0, "lon": -77.065645, "is_disabled": 0, "fusion_lat": 0.0, "lat": 38.88338483333333, "bike_id": "04a041b475976b88292e1a5bb0ae9419", "fusion_lon": 0.0}, {"rental_uris": {"ios": "https://dc.lft.to/lastmile_qr_scan", "android": "https://dc.lft.to/lastmile_qr_scan"}, "type": "electric_scooter", "name": "83358287fac06d0e2bdc9120243754b6", "is_reserved": 0, "lon": -77.0334945, "is_disabled": 0, "fusion_lat": 0.0, "lat": 38.8979475, "bike_id": "83358287fac06d0e2bdc9120243754b6", "fusion_lon": 0.0}, {"rental_uris": {"ios": "https://dc.lft.to/lastmile_qr_scan", "android": "https://dc.lft.to/lastmile_qr_scan"}, "type": "electric_scooter", "name": "570411a612e7874768e919be280bfbe9", "is_reserved": 0, "lon": -77.00288633333334, "is_disabled": 0, "fusion_lat": 0.0, "lat": 38.87721466666667, "bike_id": "570411a612e7874768e919be280bfbe9", "fusion_lon": 0.0}, {"rental_uris": {"ios": "https://dc.lft.to/lastmile_qr_scan", "android": "https://dc.lft.to/lastmile_qr_scan"}, "type": "electric_scooter", "name": "7772d45ccacbe654a10a864644c35f89", "is_reserved": 0, "lon": -77.01774333333333, "is_disabled": 0, "fusion_lat": 0.0, "lat": 38.900442166666664, "bike_id": "7772d45ccacbe654a10a864644c35f89", "fusion_lon": 0.0}, {"rental_uris": {"ios": "https://dc.lft.to/lastmile_qr_scan", "android": "https://dc.lft.to/lastmile_qr_scan"}, "type": "electric_scooter", "name": "37e0728509b47df671550e8864d99f85", "is_reserved": 0, "lon": -76.9929, "is_disabled": 0, "fusion_lat": 0.0, "lat": 38.902583, "bike_id": "37e0728509b47df671550e8864d99f85", "fusion_lon": 0.0}, {"rental_uris": {"ios": "https://dc.lft.to/lastmile_qr_scan", "android": "https://dc.lft.to/lastmile_qr_scan"}, "type": "electric_scooter", "name": "97df30a1c296341d1328094d103ba50f", "is_reserved": 0, "lon": -77.02376966666667, "is_disabled": 0, "fusion_lat": 0.0, "lat": 38.916753666666665, "bike_id": "97df30a1c296341d1328094d103ba50f", "fusion_lon": 0.0}, {"rental_uris": {"ios": "https://dc.lft.to/lastmile_qr_scan", "android": "https://dc.lft.to/lastmile_qr_scan"}, "type": "electric_scooter", "name": "14da554a61e89d6661d9d765ebe5f440", "is_reserved": 0, "lon": -77.04612683333333, "is_disabled": 0, "fusion_lat": 0.0, "lat": 38.905686833333334, "bike_id": "14da554a61e89d6661d9d765ebe5f440", "fusion_lon": 0.0}, {"rental_uris": {"ios": "https://dc.lft.to/lastmile_qr_scan", "android": "https://dc.lft.to/lastmile_qr_scan"}, "type": "electric_bike", "name": "ce8b81eeef2bd8c047b20b952be6b784", "is_reserved": 0, "lon": -76.99623066666666, "is_disabled": 0, "fusion_lat": 0.0, "lat": 38.928576, "bike_id": "ce8b81eeef2bd8c047b20b952be6b784", "fusion_lon": 0.0}, {"rental_uris": {"ios": "https://dc.lft.to/lastmile_qr_scan", "android": "https://dc.lft.to/lastmile_qr_scan"}, "type": "electric_scooter", "name": "f68c644f9234bdb9a47689ab892de02f", "is_reserved": 0, "lon": -77.03996866666667, "is_disabled": 0, "fusion_lat": 0.0, "lat": 38.90229383333333, "bike_id": "f68c644f9234bdb9a47689ab892de02f", "fusion_lon": 0.0}, {"rental_uris": {"ios": "https://dc.lft.to/lastmile_qr_scan", "android": "https://dc.lft.to/lastmile_qr_scan"}, "type": "electric_scooter", "name": "adf70fde584bac3525808bffd4787aad", "is_reserved": 0, "lon": -77.07832633333334, "is_disabled": 0, "fusion_lat": 0.0, "lat": 38.94570233333334, "bike_id": "adf70fde584bac3525808bffd4787aad", "fusion_lon": 0.0}, {"rental_uris": {"ios": "https://dc.lft.to/lastmile_qr_scan", "android": "https://dc.lft.to/lastmile_qr_scan"}, "type": "electric_scooter", "name": "0e134bc723f77efa3e3725df6a6da8d3", "is_reserved": 0, "lon": -77.0188705, "is_disabled": 0, "fusion_lat": 0.0, "lat": 38.8975145, "bike_id": "0e134bc723f77efa3e3725df6a6da8d3", "fusion_lon": 0.0}, {"rental_uris": {"ios": "https://dc.lft.to/lastmile_qr_scan", "android": "https://dc.lft.to/lastmile_qr_scan"}, "type": "electric_scooter", "name": "b8fd2f1b95c279f897f421e468d6e767", "is_reserved": 0, "lon": -77.0816965, "is_disabled": 0, "fusion_lat": 0.0, "lat": 38.89166566666667, "bike_id": "b8fd2f1b95c279f897f421e468d6e767", "fusion_lon": 0.0}, {"rental_uris": {"ios": "https://dc.lft.to/lastmile_qr_scan", "android": "https://dc.lft.to/lastmile_qr_scan"}, "type": "electric_scooter", "name": "2cbed17a6f1037e110da02f0a1b50fdf", "is_reserved": 0, "lon": -77.0321485, "is_disabled": 0, "fusion_lat": 0.0, "lat": 38.938749, "bike_id": "2cbed17a6f1037e110da02f0a1b50fdf", "fusion_lon": 0.0}, {"rental_uris": {"ios": "https://dc.lft.to/lastmile_qr_scan", "android": "https://dc.lft.to/lastmile_qr_scan"}, "type": "electric_scooter", "name": "c2465a257d229cabd2c69f53614d1401", "is_reserved": 0, "lon": -77.00282116666666, "is_disabled": 0, "fusion_lat": 0.0, "lat": 38.84616, "bike_id": "c2465a257d229cabd2c69f53614d1401", "fusion_lon": 0.0}, {"rental_uris": {"ios": "https://dc.lft.to/lastmile_qr_scan", "android": "https://dc.lft.to/lastmile_qr_scan"}, "type": "electric_scooter", "name": "0eabed0a1a6fc5a8bf04c90c6f219ddd", "is_reserved": 0, "lon": -77.05808733333333, "is_disabled": 0, "fusion_lat": 0.0, "lat": 38.929058166666664, "bike_id": "0eabed0a1a6fc5a8bf04c90c6f219ddd", "fusion_lon": 0.0}, {"rental_uris": {"ios": "https://dc.lft.to/lastmile_qr_scan", "android": "https://dc.lft.to/lastmile_qr_scan"}, "type": "electric_bike", "name": "5253d971db48ddb78505e539d8bc23be", "is_reserved": 0, "lon": -77.0408255, "is_disabled": 0, "fusion_lat": 0.0, "lat": 38.8306735, "bike_id": "5253d971db48ddb78505e539d8bc23be", "fusion_lon": 0.0}, {"rental_uris": {"ios": "https://dc.lft.to/lastmile_qr_scan", "android": "https://dc.lft.to/lastmile_qr_scan"}, "type": "electric_scooter", "name": "4c39de21229bd6fa6b9a891e38f0e4cd", "is_reserved": 0, "lon": -77.0182355, "is_disabled": 0, "fusion_lat": 0.0, "lat": 38.92151883333333, "bike_id": "4c39de21229bd6fa6b9a891e38f0e4cd", "fusion_lon": 0.0}, {"rental_uris": {"ios": "https://dc.lft.to/lastmile_qr_scan", "android": "https://dc.lft.to/lastmile_qr_scan"}, "type": "electric_scooter", "name": "6e06f746b17db7eb808340b10dc22076", "is_reserved": 0, "lon": -77.0214945, "is_disabled": 0, "fusion_lat": 0.0, "lat": 38.925535333333336, "bike_id": "6e06f746b17db7eb808340b10dc22076", "fusion_lon": 0.0}, {"rental_uris": {"ios": "https://dc.lft.to/lastmile_qr_scan", "android": "https://dc.lft.to/lastmile_qr_scan"}, "type": "electric_scooter", "name": "21c23e2beda2279a26e385ed0ce3cef2", "is_reserved": 0, "lon": -77.038924, "is_disabled": 0, "fusion_lat": 0.0, "lat": 38.9222455, "bike_id": "21c23e2beda2279a26e385ed0ce3cef2", "fusion_lon": 0.0}, {"rental_uris": {"ios": "https://dc.lft.to/lastmile_qr_scan", "android": "https://dc.lft.to/lastmile_qr_scan"}, "type": "electric_scooter", "name": "87869af5b9c5a6e019ce6fbf683929c4", "is_reserved": 0, "lon": -77.04156683333333, "is_disabled": 0, "fusion_lat": 0.0, "lat": 38.91745183333333, "bike_id": "87869af5b9c5a6e019ce6fbf683929c4", "fusion_lon": 0.0}, {"rental_uris": {"ios": "https://dc.lft.to/lastmile_qr_scan", "android": "https://dc.lft.to/lastmile_qr_scan"}, "type": "electric_scooter", "name": "1ace975db3534934d72a5d3d00b1d6d1", "is_reserved": 0, "lon": -76.9807725, "is_disabled": 0, "fusion_lat": 0.0, "lat": 38.9041075, "bike_id": "1ace975db3534934d72a5d3d00b1d6d1", "fusion_lon": 0.0}, {"rental_uris": {"ios": "https://dc.lft.to/lastmile_qr_scan", "android": "https://dc.lft.to/lastmile_qr_scan"}, "type": "electric_scooter", "name": "4f4bbe9ce7668e7874b16f7e9bfef8c8", "is_reserved": 0, "lon": -77.03504983333333, "is_disabled": 0, "fusion_lat": 0.0, "lat": 38.91877983333333, "bike_id": "4f4bbe9ce7668e7874b16f7e9bfef8c8", "fusion_lon": 0.0}, {"rental_uris": {"ios": "https://dc.lft.to/lastmile_qr_scan", "android": "https://dc.lft.to/lastmile_qr_scan"}, "type": "electric_scooter", "name": "69d2a80d61c37768eed46cae55c6b1a5", "is_reserved": 0, "lon": -77.0215445, "is_disabled": 0, "fusion_lat": 0.0, "lat": 38.87918333333333, "bike_id": "69d2a80d61c37768eed46cae55c6b1a5", "fusion_lon": 0.0}, {"rental_uris": {"ios": "https://dc.lft.to/lastmile_qr_scan", "android": "https://dc.lft.to/lastmile_qr_scan"}, "type": "electric_scooter", "name": "bef0ad6d23224d39fe56a131cdb58add", "is_reserved": 0, "lon": -77.03221616666667, "is_disabled": 0, "fusion_lat": 0.0, "lat": 38.927544833333336, "bike_id": "bef0ad6d23224d39fe56a131cdb58add", "fusion_lon": 0.0}, {"rental_uris": {"ios": "https://dc.lft.to/lastmile_qr_scan", "android": "https://dc.lft.to/lastmile_qr_scan"}, "type": "electric_scooter", "name": "f366e868328e1967b6f4a77ed5985f56", "is_reserved": 0, "lon": -77.039654, "is_disabled": 0, "fusion_lat": 0.0, "lat": 38.931512166666664, "bike_id": "f366e868328e1967b6f4a77ed5985f56", "fusion_lon": 0.0}, {"rental_uris": {"ios": "https://dc.lft.to/lastmile_qr_scan", "android": "https://dc.lft.to/lastmile_qr_scan"}, "type": "electric_scooter", "name": "cff5d65769566b6a8799fa9be84d17a4", "is_reserved": 0, "lon": -77.02164583333334, "is_disabled": 0, "fusion_lat": 0.0, "lat": 38.924994166666664, "bike_id": "cff5d65769566b6a8799fa9be84d17a4", "fusion_lon": 0.0}, {"rental_uris": {"ios": "https://dc.lft.to/lastmile_qr_scan", "android": "https://dc.lft.to/lastmile_qr_scan"}, "type": "electric_scooter", "name": "fdb6dd301b0ec65e3c9a9de7bc84407b", "is_reserved": 0, "lon": -77.034757, "is_disabled": 0, "fusion_lat": 0.0, "lat": 38.93033833333333, "bike_id": "fdb6dd301b0ec65e3c9a9de7bc84407b", "fusion_lon": 0.0}, {"rental_uris": {"ios": "https://dc.lft.to/lastmile_qr_scan", "android": "https://dc.lft.to/lastmile_qr_scan"}, "type": "electric_scooter", "name": "5145e68299e94ef70b5aa37947c15a68", "is_reserved": 0, "lon": -77.00694366666667, "is_disabled": 0, "fusion_lat": 0.0, "lat": 38.8784705, "bike_id": "5145e68299e94ef70b5aa37947c15a68", "fusion_lon": 0.0}, {"rental_uris": {"ios": "https://dc.lft.to/lastmile_qr_scan", "android": "https://dc.lft.to/lastmile_qr_scan"}, "type": "electric_scooter", "name": "cac454181d1ecff6c10f877ce8896ec2", "is_reserved": 0, "lon": -77.031432, "is_disabled": 0, "fusion_lat": 0.0, "lat": 38.90947333333333, "bike_id": "cac454181d1ecff6c10f877ce8896ec2", "fusion_lon": 0.0}, {"rental_uris": {"ios": "https://dc.lft.to/lastmile_qr_scan", "android": "https://dc.lft.to/lastmile_qr_scan"}, "type": "electric_scooter", "name": "b99995d90f6c64e1269fe5e7f74f8510", "is_reserved": 0, "lon": -77.03211833333333, "is_disabled": 0, "fusion_lat": 0.0, "lat": 38.90500083333333, "bike_id": "b99995d90f6c64e1269fe5e7f74f8510", "fusion_lon": 0.0}, {"rental_uris": {"ios": "https://dc.lft.to/lastmile_qr_scan", "android": "https://dc.lft.to/lastmile_qr_scan"}, "type": "electric_scooter", "name": "f914e83bc24efa99fe30b3a10125ae8e", "is_reserved": 0, "lon": -77.03189283333333, "is_disabled": 0, "fusion_lat": 0.0, "lat": 38.913512, "bike_id": "f914e83bc24efa99fe30b3a10125ae8e", "fusion_lon": 0.0}, {"rental_uris": {"ios": "https://dc.lft.to/lastmile_qr_scan", "android": "https://dc.lft.to/lastmile_qr_scan"}, "type": "electric_scooter", "name": "7ecd38e129dc6dbf84a4137f7669b86b", "is_reserved": 0, "lon": -77.01761416666666, "is_disabled": 0, "fusion_lat": 0.0, "lat": 38.921128333333336, "bike_id": "7ecd38e129dc6dbf84a4137f7669b86b", "fusion_lon": 0.0}, {"rental_uris": {"ios": "https://dc.lft.to/lastmile_qr_scan", "android": "https://dc.lft.to/lastmile_qr_scan"}, "type": "electric_scooter", "name": "265b245643070e2e4927edbb0112cade", "is_reserved": 0, "lon": -76.99478666666667, "is_disabled": 0, "fusion_lat": 0.0, "lat": 38.8621335, "bike_id": "265b245643070e2e4927edbb0112cade", "fusion_lon": 0.0}, {"rental_uris": {"ios": "https://dc.lft.to/lastmile_qr_scan", "android": "https://dc.lft.to/lastmile_qr_scan"}, "type": "electric_scooter", "name": "282234cac22112d4eac5303f1367ff1d", "is_reserved": 0, "lon": -76.990313, "is_disabled": 0, "fusion_lat": 0.0, "lat": 38.8985215, "bike_id": "282234cac22112d4eac5303f1367ff1d", "fusion_lon": 0.0}, {"rental_uris": {"ios": "https://dc.lft.to/lastmile_qr_scan", "android": "https://dc.lft.to/lastmile_qr_scan"}, "type": "electric_scooter", "name": "56fd362a1d0ec6b6d5f75dbead6223a0", "is_reserved": 0, "lon": -77.02836266666667, "is_disabled": 0, "fusion_lat": 0.0, "lat": 38.892225333333336, "bike_id": "56fd362a1d0ec6b6d5f75dbead6223a0", "fusion_lon": 0.0}, {"rental_uris": {"ios": "https://dc.lft.to/lastmile_qr_scan", "android": "https://dc.lft.to/lastmile_qr_scan"}, "type": "electric_scooter", "name": "4b55b8fc4a5ca5b368e1d789b5f7ac00", "is_reserved": 0, "lon": -77.04657266666666, "is_disabled": 0, "fusion_lat": 0.0, "lat": 38.90953666666667, "bike_id": "4b55b8fc4a5ca5b368e1d789b5f7ac00", "fusion_lon": 0.0}, {"rental_uris": {"ios": "https://dc.lft.to/lastmile_qr_scan", "android": "https://dc.lft.to/lastmile_qr_scan"}, "type": "electric_scooter", "name": "9cbb1191d1f6d1809f3e64fa68b1d58f", "is_reserved": 0, "lon": -77.021111, "is_disabled": 0, "fusion_lat": 0.0, "lat": 38.906017, "bike_id": "9cbb1191d1f6d1809f3e64fa68b1d58f", "fusion_lon": 0.0}, {"rental_uris": {"ios": "https://dc.lft.to/lastmile_qr_scan", "android": "https://dc.lft.to/lastmile_qr_scan"}, "type": "electric_scooter", "name": "4974cba2cb0e20216314861bbf7e480a", "is_reserved": 0, "lon": -77.024145, "is_disabled": 0, "fusion_lat": 0.0, "lat": 38.91709733333333, "bike_id": "4974cba2cb0e20216314861bbf7e480a", "fusion_lon": 0.0}, {"rental_uris": {"ios": "https://dc.lft.to/lastmile_qr_scan", "android": "https://dc.lft.to/lastmile_qr_scan"}, "type": "electric_scooter", "name": "298693f54c45b3968560859af50b5129", "is_reserved": 0, "lon": -77.02154916666667, "is_disabled": 0, "fusion_lat": 0.0, "lat": 38.88741516666666, "bike_id": "298693f54c45b3968560859af50b5129", "fusion_lon": 0.0}, {"rental_uris": {"ios": "https://dc.lft.to/lastmile_qr_scan", "android": "https://dc.lft.to/lastmile_qr_scan"}, "type": "electric_scooter", "name": "5d45c28b307be3b3037e71330a41ecd0", "is_reserved": 0, "lon": -76.988357, "is_disabled": 0, "fusion_lat": 0.0, "lat": 38.84294516666667, "bike_id": "5d45c28b307be3b3037e71330a41ecd0", "fusion_lon": 0.0}, {"rental_uris": {"ios": "https://dc.lft.to/lastmile_qr_scan", "android": "https://dc.lft.to/lastmile_qr_scan"}, "type": "electric_scooter", "name": "4e04f5cf44179ce6c8687ec6d197c98d", "is_reserved": 0, "lon": -76.9931735, "is_disabled": 0, "fusion_lat": 0.0, "lat": 38.9201625, "bike_id": "4e04f5cf44179ce6c8687ec6d197c98d", "fusion_lon": 0.0}, {"rental_uris": {"ios": "https://dc.lft.to/lastmile_qr_scan", "android": "https://dc.lft.to/lastmile_qr_scan"}, "type": "electric_scooter", "name": "f3e5e6ed85f55f163bebb9799eb5f655", "is_reserved": 0, "lon": -76.98506566666667, "is_disabled": 0, "fusion_lat": 0.0, "lat": 38.879963000000004, "bike_id": "f3e5e6ed85f55f163bebb9799eb5f655", "fusion_lon": 0.0}, {"rental_uris": {"ios": "https://dc.lft.to/lastmile_qr_scan", "android": "https://dc.lft.to/lastmile_qr_scan"}, "type": "electric_scooter", "name": "6727eafb8dabf14d9c4f210700cb58f7", "is_reserved": 0, "lon": -77.06630016666666, "is_disabled": 0, "fusion_lat": 0.0, "lat": 38.905199, "bike_id": "6727eafb8dabf14d9c4f210700cb58f7", "fusion_lon": 0.0}, {"rental_uris": {"ios": "https://dc.lft.to/lastmile_qr_scan", "android": "https://dc.lft.to/lastmile_qr_scan"}, "type": "electric_scooter", "name": "2432227f8e4843c77e3636b728a75e84", "is_reserved": 0, "lon": -77.025096, "is_disabled": 0, "fusion_lat": 0.0, "lat": 38.93551566666667, "bike_id": "2432227f8e4843c77e3636b728a75e84", "fusion_lon": 0.0}, {"rental_uris": {"ios": "https://dc.lft.to/lastmile_qr_scan", "android": "https://dc.lft.to/lastmile_qr_scan"}, "type": "electric_bike", "name": "3f26f8585fd7870d186f397f298806b9", "is_reserved": 0, "lon": -77.08532833333334, "is_disabled": 0, "fusion_lat": 0.0, "lat": 38.856523833333334, "bike_id": "3f26f8585fd7870d186f397f298806b9", "fusion_lon": 0.0}, {"rental_uris": {"ios": "https://dc.lft.to/lastmile_qr_scan", "android": "https://dc.lft.to/lastmile_qr_scan"}, "type": "electric_scooter", "name": "3fa75715bcc0fc032385600fc07d9d78", "is_reserved": 0, "lon": -77.00554666666666, "is_disabled": 0, "fusion_lat": 0.0, "lat": 38.87640616666667, "bike_id": "3fa75715bcc0fc032385600fc07d9d78", "fusion_lon": 0.0}, {"rental_uris": {"ios": "https://dc.lft.to/lastmile_qr_scan", "android": "https://dc.lft.to/lastmile_qr_scan"}, "type": "electric_scooter", "name": "562684b52c2afd646c40167f6f6e8981", "is_reserved": 0, "lon": -77.03267566666666, "is_disabled": 0, "fusion_lat": 0.0, "lat": 38.928616, "bike_id": "562684b52c2afd646c40167f6f6e8981", "fusion_lon": 0.0}, {"rental_uris": {"ios": "https://dc.lft.to/lastmile_qr_scan", "android": "https://dc.lft.to/lastmile_qr_scan"},