{"data": {"bikes": [{"is_disabled": 0, "is_reserved": 0, "fusion_lat": 0.0, "lat": 38.919207666666665, "fusion_lon": 0.0, "rental_uris": {"ios": "https://dc.lft.to/lastmile_qr_scan", "android": "https://dc.lft.to/lastmile_qr_scan"}, "lon": -77.0231035, "bike_id": "bbca7d40b774f3bc0d7011bc98991c09", "type": "electric_scooter", "name": "bbca7d40b774f3bc0d7011bc98991c09"}, {"is_disabled": 0, "is_reserved": 0, "fusion_lat": 0.0, "lat": 38.90036666666666, "fusion_lon": 0.0, "rental_uris": {"ios": "https://dc.lft.to/lastmile_qr_scan", "android": "https://dc.lft.to/lastmile_qr_scan"}, "lon": -77.00367816666666, "bike_id": "ffd3175616c4eb8c229ac0ea46aec871", "type": "electric_scooter", "name": "ffd3175616c4eb8c229ac0ea46aec871"}, {"is_disabled": 0, "is_reserved": 0, "fusion_lat": 0.0, "lat": 38.872843333333336, "fusion_lon": 0.0, "rental_uris": {"ios": "https://dc.lft.to/lastmile_qr_scan", "android": "https://dc.lft.to/lastmile_qr_scan"}, "lon": -77.00984883333334, "bike_id": "36d1ea5f8bd0a457b9a67ab5731525d6", "type": "electric_scooter", "name": "36d1ea5f8bd0a457b9a67ab5731525d6"}, {"is_disabled": 0, "is_reserved": 0, "fusion_lat": 0.0, "lat": 38.926686, "fusion_lon": 0.0, "rental_uris": {"ios": "https://dc.lft.to/lastmile_qr_scan", "android": "https://dc.lft.to/lastmile_qr_scan"}, "lon": -77.03026233333334, "bike_id": "0b45a244222837eebcdd483e8fe56880", "type": "electric_scooter", "name": "0b45a244222837eebcdd483e8fe56880"}, {"is_disabled": 0, "is_reserved": 0, "fusion_lat": 0.0, "lat": 38.9352365, "fusion_lon": 0.0, "rental_uris": {"ios": "https://dc.lft.to/lastmile_qr_scan", "android": "https://dc.lft.to/lastmile_qr_scan"}, "lon": -77.0284225, "bike_id": "c2b7fa0c84ec22d0001c84500ba98378", "type": "electric_scooter", "name": "c2b7fa0c84ec22d0001c84500ba98378"}, {"is_disabled": 0, "is_reserved": 0, "fusion_lat": 0.0, "lat": 38.907183833333335, "fusion_lon": 0.0, "rental_uris": {"ios": "https://dc.lft.to/lastmile_qr_scan", "android": "https://dc.lft.to/lastmile_qr_scan"}, "lon": -77.048048, "bike_id": "f1fd1783052a78690989160216fd7964", "type": "electric_scooter", "name": "f1fd1783052a78690989160216fd7964"}, {"is_disabled": 0, "is_reserved": 0, "fusion_lat": 0.0, "lat": 38.90662966666667, "fusion_lon": 0.0, "rental_uris": {"ios": "https://dc.lft.to/lastmile_qr_scan", "android": "https://dc.lft.to/lastmile_qr_scan"}, "lon": -76.986041, "bike_id": "d2979c7ccd183a772b40561ea5b3b434", "type": "electric_scooter", "name": "d2979c7ccd183a772b40561ea5b3b434"}, {"is_disabled": 0, "is_reserved": 0, "fusion_lat": 0.0, "lat": 38.9306325, "fusion_lon": 0.0, "rental_uris": {"ios": "https://dc.lft.to/lastmile_qr_scan", "android": "https://dc.lft.to/lastmile_qr_scan"}, "lon": -77.0421905, "bike_id": "a8a420f134caadf2652396edcc9f3e5d", "type": "electric_scooter", "name": "a8a420f134caadf2652396edcc9f3e5d"}, {"is_disabled": 0, "is_reserved": 0, "fusion_lat": 0.0, "lat": 38.91924983333333, "fusion_lon": 0.0, "rental_uris": {"ios": "https://dc.lft.to/lastmile_qr_scan", "android": "https://dc.lft.to/lastmile_qr_scan"}, "lon": -77.00974783333334, "bike_id": "7d87241381a857633561aa2821d182bb", "type": "electric_scooter", "name": "7d87241381a857633561aa2821d182bb"}, {"is_disabled": 0, "is_reserved": 0, "fusion_lat": 0.0, "lat": 38.92484783333333, "fusion_lon": 0.0, "rental_uris": {"ios": "https://dc.lft.to/lastmile_qr_scan", "android": "https://dc.lft.to/lastmile_qr_scan"}, "lon": -77.028362, "bike_id": "aa1b8bc59a2686df6339015dd6002f83", "type": "electric_scooter", "name": "aa1b8bc59a2686df6339015dd6002f83"}, {"is_disabled": 0, "is_reserved": 0, "fusion_lat": 0.0, "lat": 38.8974465, "fusion_lon": 0.0, "rental_uris": {"ios": "https://dc.lft.to/lastmile_qr_scan", "android": "https://dc.lft.to/lastmile_qr_scan"}, "lon": -77.04810566666667, "bike_id": "f5349194f51d2d858e3d0742a634b142", "type": "electric_scooter", "name": "f5349194f51d2d858e3d0742a634b142"}, {"is_disabled": 0, "is_reserved": 0, "fusion_lat": 0.0, "lat": 38.932427, "fusion_lon": 0.0, "rental_uris": {"ios": "https://dc.lft.to/lastmile_qr_scan", "android": "https://dc.lft.to/lastmile_qr_scan"}, "lon": -77.03413383333333, "bike_id": "b01bbc997688bf005294adc27c5aa922", "type": "electric_scooter", "name": "b01bbc997688bf005294adc27c5aa922"}, {"is_disabled": 0, "is_reserved": 0, "fusion_lat": 0.0, "lat": 38.950996, "fusion_lon": 0.0, "rental_uris": {"ios": "https://dc.lft.to/lastmile_qr_scan", "android": "https://dc.lft.to/lastmile_qr_scan"}, "lon": -77.01908633333333, "bike_id": "b299504c5b5e8c4b87933232b74edac1", "type": "electric_scooter", "name": "b299504c5b5e8c4b87933232b74edac1"}, {"is_disabled": 0, "is_reserved": 0, "fusion_lat": 0.0, "lat": 38.91767433333333, "fusion_lon": 0.0, "rental_uris": {"ios": "https://dc.lft.to/lastmile_qr_scan", "android": "https://dc.lft.to/lastmile_qr_scan"}, "lon": -77.03573166666666, "bike_id": "3ad65bd4cbc9ad6092ac543f1af95f59", "type": "electric_scooter", "name": "3ad65bd4cbc9ad6092ac543f1af95f59"}, {"is_disabled": 0, "is_reserved": 0, "fusion_lat": 0.0, "lat": 38.905397666666666, "fusion_lon": 0.0, "rental_uris": {"ios": "https://dc.lft.to/lastmile_qr_scan", "android": "https://dc.lft.to/lastmile_qr_scan"}, "lon": -77.05703533333333, "bike_id": "76d639579f0f91d1f9ad7717176d0292", "type": "electric_scooter", "name": "76d639579f0f91d1f9ad7717176d0292"}, {"is_disabled": 0, "is_reserved": 0, "fusion_lat": 0.0, "lat": 38.913493833333334, "fusion_lon": 0.0, "rental_uris": {"ios": "https://dc.lft.to/lastmile_qr_scan", "android": "https://dc.lft.to/lastmile_qr_scan"}, "lon": -77.044217, "bike_id": "71b7026d41475fd1cc8434969e08be68", "type": "electric_scooter", "name": "71b7026d41475fd1cc8434969e08be68"}, {"is_disabled": 0, "is_reserved": 0, "fusion_lat": 0.0, "lat": 38.94036066666666, "fusion_lon": 0.0, "rental_uris": {"ios": "https://dc.lft.to/lastmile_qr_scan", "android": "https://dc.lft.to/lastmile_qr_scan"}, "lon": -77.02525266666666, "bike_id": "a635bd2a93c1259785d2eb2108563383", "type": "electric_scooter", "name": "a635bd2a93c1259785d2eb2108563383"}, {"is_disabled": 0, "is_reserved": 0, "fusion_lat": 0.0, "lat": 38.9237965, "fusion_lon": 0.0, "rental_uris": {"ios": "https://dc.lft.to/lastmile_qr_scan", "android": "https://dc.lft.to/lastmile_qr_scan"}, "lon": -77.02030433333333, "bike_id": "5cced9ea22958340712df929fe486331", "type": "electric_scooter", "name": "5cced9ea22958340712df929fe486331"}, {"is_disabled": 0, "is_reserved": 0, "fusion_lat": 0.0, "lat": 38.878412833333336, "fusion_lon": 0.0, "rental_uris": {"ios": "https://dc.lft.to/lastmile_qr_scan", "android": "https://dc.lft.to/lastmile_qr_scan"}, "lon": -77.00718366666666, "bike_id": "cab2dcb9b1f9afc3c4766dcf285b3487", "type": "electric_scooter", "name": "cab2dcb9b1f9afc3c4766dcf285b3487"}, {"is_disabled": 0, "is_reserved": 0, "fusion_lat": 0.0, "lat": 38.848608166666665, "fusion_lon": 0.0, "rental_uris": {"ios": "https://dc.lft.to/lastmile_qr_scan", "android": "https://dc.lft.to/lastmile_qr_scan"}, "lon": -77.068303, "bike_id": "d96174e8eae87ffa54eac364b27abbf2", "type": "electric_bike", "name": "d96174e8eae87ffa54eac364b27abbf2"}, {"is_disabled": 0, "is_reserved": 0, "fusion_lat": 0.0, "lat": 38.9083945, "fusion_lon": 0.0, "rental_uris": {"ios": "https://dc.lft.to/lastmile_qr_scan", "android": "https://dc.lft.to/lastmile_qr_scan"}, "lon": -77.0580525, "bike_id": "0e472bfc9f2539b12fd1805b5c062aaa", "type": "electric_scooter", "name": "0e472bfc9f2539b12fd1805b5c062aaa"}, {"is_disabled": 0, "is_reserved": 0, "fusion_lat": 0.0, "lat": 38.906415833333334, "fusion_lon": 0.0, "rental_uris": {"ios": "https://dc.lft.to/lastmile_qr_scan", "android": "https://dc.lft.to/lastmile_qr_scan"}, "lon": -77.04887166666667, "bike_id": "d017882d2518ee282d245c36ad66a40d", "type": "electric_scooter", "name": "d017882d2518ee282d245c36ad66a40d"}, {"is_disabled": 0, "is_reserved": 0, "fusion_lat": 0.0, "lat": 38.87917916666667, "fusion_lon": 0.0, "rental_uris": {"ios": "https://dc.lft.to/lastmile_qr_scan", "android": "https://dc.lft.to/lastmile_qr_scan"}, "lon": -77.007617, "bike_id": "8ddd682edc038bb8ce9e26f0ce818802", "type": "electric_scooter", "name": "8ddd682edc038bb8ce9e26f0ce818802"}, {"is_disabled": 0, "is_reserved": 0, "fusion_lat": 0.0, "lat": 38.8662635, "fusion_lon": 0.0, "rental_uris": {"ios": "https://dc.lft.to/lastmile_qr_scan", "android": "https://dc.lft.to/lastmile_qr_scan"}, "lon": -76.98997816666666, "bike_id": "16fc9281138753ff4365187148b52e17", "type": "electric_bike", "name": "16fc9281138753ff4365187148b52e17"}, {"is_disabled": 0, "is_reserved": 0, "fusion_lat": 0.0, "lat": 38.924311, "fusion_lon": 0.0, "rental_uris": {"ios": "https://dc.lft.to/lastmile_qr_scan", "android": "https://dc.lft.to/lastmile_qr_scan"}, "lon": -77.0424685, "bike_id": "f140eb5ad297182a1fbff3bc64d8a894", "type": "electric_scooter", "name": "f140eb5ad297182a1fbff3bc64d8a894"}, {"is_disabled": 0, "is_reserved": 0, "fusion_lat": 0.0, "lat": 38.89546816666667, "fusion_lon": 0.0, "rental_uris": {"ios": "https://dc.lft.to/lastmile_qr_scan", "android": "https://dc.lft.to/lastmile_qr_scan"}, "lon": -77.02168266666666, "bike_id": "27aabdc810aff074c55acd09eac185cc", "type": "electric_scooter", "name": "27aabdc810aff074c55acd09eac185cc"}, {"is_disabled": 0, "is_reserved": 0, "fusion_lat": 0.0, "lat": 38.916629666666665, "fusion_lon": 0.0, "rental_uris": {"ios": "https://dc.lft.to/lastmile_qr_scan", "android": "https://dc.lft.to/lastmile_qr_scan"}, "lon": -77.00956183333334, "bike_id": "accc72644134edf8207e6ff573a84e20", "type": "electric_scooter", "name": "accc72644134edf8207e6ff573a84e20"}, {"is_disabled": 0, "is_reserved": 0, "fusion_lat": 0.0, "lat": 38.950079333333335, "fusion_lon": 0.0, "rental_uris": {"ios": "https://dc.lft.to/lastmile_qr_scan", "android": "https://dc.lft.to/lastmile_qr_scan"}, "lon": -77.08010883333333, "bike_id": "a5486fe129df8dd94892331c728f1217", "type": "electric_scooter", "name": "a5486fe129df8dd94892331c728f1217"}, {"is_disabled": 0, "is_reserved": 0, "fusion_lat": 0.0, "lat": 38.901114166666666, "fusion_lon": 0.0, "rental_uris": {"ios": "https://dc.lft.to/lastmile_qr_scan", "android": "https://dc.lft.to/lastmile_qr_scan"}, "lon": -77.03351866666667, "bike_id": "6eca415eb76c84be2659b428ad00a21d", "type": "electric_scooter", "name": "6eca415eb76c84be2659b428ad00a21d"}, {"is_disabled": 0, "is_reserved": 0, "fusion_lat": 0.0, "lat": 38.99094433333333, "fusion_lon": 0.0, "rental_uris": {"ios": "https://dc.lft.to/lastmile_qr_scan", "android": "https://dc.lft.to/lastmile_qr_scan"}, "lon": -76.993759, "bike_id": "58ef14219430d915331fda7e37f5bcaf", "type": "electric_bike", "name": "58ef14219430d915331fda7e37f5bcaf"}, {"is_disabled": 0, "is_reserved": 0, "fusion_lat": 0.0, "lat": 38.89743566666667, "fusion_lon": 0.0, "rental_uris": {"ios": "https://dc.lft.to/lastmile_qr_scan", "android": "https://dc.lft.to/lastmile_qr_scan"}, "lon": -77.0463215, "bike_id": "f40f336dda310964981a5907b8396b1e", "type": "electric_scooter", "name": "f40f336dda310964981a5907b8396b1e"}, {"is_disabled": 0, "is_reserved": 0, "fusion_lat": 0.0, "lat": 38.87876766666667, "fusion_lon": 0.0, "rental_uris": {"ios": "https://dc.lft.to/lastmile_qr_scan", "android": "https://dc.lft.to/lastmile_qr_scan"}, "lon": -77.02316733333333, "bike_id": "8f2bd6d0347f6a6ec5f633f2577d998b", "type": "electric_scooter", "name": "8f2bd6d0347f6a6ec5f633f2577d998b"}, {"is_disabled": 0, "is_reserved": 0, "fusion_lat": 0.0, "lat": 38.91116916666667, "fusion_lon": 0.0, "rental_uris": {"ios": "https://dc.lft.to/lastmile_qr_scan", "android": "https://dc.lft.to/lastmile_qr_scan"}, "lon": -77.00378166666667, "bike_id": "c852d2b55039907d31b70e60c4e03eb3", "type": "electric_scooter", "name": "c852d2b55039907d31b70e60c4e03eb3"}, {"is_disabled": 0, "is_reserved": 0, "fusion_lat": 0.0, "lat": 38.92659166666667, "fusion_lon": 0.0, "rental_uris": {"ios": "https://dc.lft.to/lastmile_qr_scan", "android": "https://dc.lft.to/lastmile_qr_scan"}, "lon": -77.024274, "bike_id": "95ee760357acf42d2be16fc73ebfba75", "type": "electric_scooter", "name": "95ee760357acf42d2be16fc73ebfba75"}, {"is_disabled": 0, "is_reserved": 0, "fusion_lat": 0.0, "lat": 38.92350666666667, "fusion_lon": 0.0, "rental_uris": {"ios": "https://dc.lft.to/lastmile_qr_scan", "android": "https://dc.lft.to/lastmile_qr_scan"}, "lon": -77.07314616666666, "bike_id": "358a7faaf6d654fbda682212dae1d56c", "type": "electric_scooter", "name": "358a7faaf6d654fbda682212dae1d56c"}, {"is_disabled": 0, "is_reserved": 0, "fusion_lat": 0.0, "lat": 38.936051, "fusion_lon": 0.0, "rental_uris": {"ios": "https://dc.lft.to/lastmile_qr_scan", "android": "https://dc.lft.to/lastmile_qr_scan"}, "lon": -77.05588433333334, "bike_id": "aa7a658558dffc975eb847bc139e92fc", "type": "electric_scooter", "name": "aa7a658558dffc975eb847bc139e92fc"}, {"is_disabled": 0, "is_reserved": 0, "fusion_lat": 0.0, "lat": 38.9369975, "fusion_lon": 0.0, "rental_uris": {"ios": "https://dc.lft.to/lastmile_qr_scan", "android": "https://dc.lft.to/lastmile_qr_scan"}, "lon": -77.05600833333334, "bike_id": "1b6db37a59d651bf82c76b89f2a3b3d8", "type": "electric_scooter", "name": "1b6db37a59d651bf82c76b89f2a3b3d8"}, {"is_disabled": 0, "is_reserved": 0, "fusion_lat": 0.0, "lat": 38.914067833333334, "fusion_lon": 0.0, "rental_uris": {"ios": "https://dc.lft.to/lastmile_qr_scan", "android": "https://dc.lft.to/lastmile_qr_scan"}, "lon": -77.04387583333333, "bike_id": "8c248ea5f82e02bfaf0ec96bec3e315a", "type": "electric_scooter", "name": "8c248ea5f82e02bfaf0ec96bec3e315a"}, {"is_disabled": 0, "is_reserved": 0, "fusion_lat": 0.0, "lat": 38.92654816666666, "fusion_lon": 0.0, "rental_uris": {"ios": "https://dc.lft.to/lastmile_qr_scan", "android": "https://dc.lft.to/lastmile_qr_scan"}, "lon": -77.02446783333333, "bike_id": "67a45d27a488085ef3ea924366129a01", "type": "electric_scooter", "name": "67a45d27a488085ef3ea924366129a01"}, {"is_disabled": 0, "is_reserved": 0, "fusion_lat": 0.0, "lat": 38.931200833333335, "fusion_lon": 0.0, "rental_uris": {"ios": "https://dc.lft.to/lastmile_qr_scan", "android": "https://dc.lft.to/lastmile_qr_scan"}, "lon": -77.0207095, "bike_id": "e7aa2eb2774d0847bccd9342dfab88cf", "type": "electric_scooter", "name": "e7aa2eb2774d0847bccd9342dfab88cf"}, {"is_disabled": 0, "is_reserved": 0, "fusion_lat": 0.0, "lat": 38.9235825, "fusion_lon": 0.0, "rental_uris": {"ios": "https://dc.lft.to/lastmile_qr_scan", "android": "https://dc.lft.to/lastmile_qr_scan"}, "lon": -77.04385683333334, "bike_id": "c8e29024ad640066fcd1e3598a91ebec", "type": "electric_scooter", "name": "c8e29024ad640066fcd1e3598a91ebec"}, {"is_disabled": 0, "is_reserved": 0, "fusion_lat": 0.0, "lat": 38.89847016666667, "fusion_lon": 0.0, "rental_uris": {"ios": "https://dc.lft.to/lastmile_qr_scan", "android": "https://dc.lft.to/lastmile_qr_scan"}, "lon": -77.001956, "bike_id": "449818f0b9a5976e3450bd45f4abed4c", "type": "electric_scooter", "name": "449818f0b9a5976e3450bd45f4abed4c"}, {"is_disabled": 0, "is_reserved": 0, "fusion_lat": 0.0, "lat": 38.91768416666667, "fusion_lon": 0.0, "rental_uris": {"ios": "https://dc.lft.to/lastmile_qr_scan", "android": "https://dc.lft.to/lastmile_qr_scan"}, "lon": -77.04054366666666, "bike_id": "b64288a182bf9dad91dc6f9cdc6ca162", "type": "electric_scooter", "name": "b64288a182bf9dad91dc6f9cdc6ca162"}, {"is_disabled": 0, "is_reserved": 0, "fusion_lat": 0.0, "lat": 38.920607333333336, "fusion_lon": 0.0, "rental_uris": {"ios": "https://dc.lft.to/lastmile_qr_scan", "android": "https://dc.lft.to/lastmile_qr_scan"}, "lon": -77.04542166666667, "bike_id": "31ac71e1b2dd23ea930e2b5f0e559631", "type": "electric_scooter", "name": "31ac71e1b2dd23ea930e2b5f0e559631"}, {"is_disabled": 0, "is_reserved": 0, "fusion_lat": 0.0, "lat": 38.90482983333333, "fusion_lon": 0.0, "rental_uris": {"ios": "https://dc.lft.to/lastmile_qr_scan", "android": "https://dc.lft.to/lastmile_qr_scan"}, "lon": -77.02579283333333, "bike_id": "e3ed6eee3b908238e8ebeaae1e00d871", "type": "electric_scooter", "name": "e3ed6eee3b908238e8ebeaae1e00d871"}, {"is_disabled": 0, "is_reserved": 0, "fusion_lat": 0.0, "lat": 38.8462775, "fusion_lon": 0.0, "rental_uris": {"ios": "https://dc.lft.to/lastmile_qr_scan", "android": "https://dc.lft.to/lastmile_qr_scan"}, "lon": -76.96899083333334, "bike_id": "53d14d3c6c1a3d1f3e1ba856b58faf93", "type": "electric_bike", "name": "53d14d3c6c1a3d1f3e1ba856b58faf93"}, {"is_disabled": 0, "is_reserved": 0, "fusion_lat": 0.0, "lat": 38.83492433333333, "fusion_lon": 0.0, "rental_uris": {"ios": "https://dc.lft.to/lastmile_qr_scan", "android": "https://dc.lft.to/lastmile_qr_scan"}, "lon": -77.00435216666666, "bike_id": "a201a389abd29658bf22bb91281af322", "type": "electric_bike", "name": "a201a389abd29658bf22bb91281af322"}, {"is_disabled": 0, "is_reserved": 0, "fusion_lat": 0.0, "lat": 38.974766, "fusion_lon": 0.0, "rental_uris": {"ios": "https://dc.lft.to/lastmile_qr_scan", "android": "https://dc.lft.to/lastmile_qr_scan"}, "lon": -76.9867165, "bike_id": "b22e24cd998661cab33dce4e2ce20973", "type": "electric_bike", "name": "b22e24cd998661cab33dce4e2ce20973"}, {"is_disabled": 0, "is_reserved": 0, "fusion_lat": 0.0, "lat": 39.022974166666664, "fusion_lon": 0.0, "rental_uris": {"ios": "https://dc.lft.to/lastmile_qr_scan", "android": "https://dc.lft.to/lastmile_qr_scan"}, "lon": -77.0210965, "bike_id": "d538f4a6bf53a5f345a1bd8895d2993a", "type": "electric_bike", "name": "d538f4a6bf53a5f345a1bd8895d2993a"}, {"is_disabled": 0, "is_reserved": 0, "fusion_lat": 0.0, "lat": 38.910467833333335, "fusion_lon": 0.0, "rental_uris": {"ios": "https://dc.lft.to/lastmile_qr_scan", "android": "https://dc.lft.to/lastmile_qr_scan"}, "lon": -77.009591, "bike_id": "423c206277a443506ebc050e14095631", "type": "electric_scooter", "name": "423c206277a443506ebc050e14095631"}, {"is_disabled": 0, "is_reserved": 0, "fusion_lat": 0.0, "lat": 38.92779083333333, "fusion_lon": 0.0, "rental_uris": {"ios": "https://dc.lft.to/lastmile_qr_scan", "android": "https://dc.lft.to/lastmile_qr_scan"}, "lon": -77.029617, "bike_id": "838eac45cf7a7aac6488fc2b9307dcf8", "type": "electric_bike", "name": "838eac45cf7a7aac6488fc2b9307dcf8"}, {"is_disabled": 0, "is_reserved": 0, "fusion_lat": 0.0, "lat": 38.905797666666665, "fusion_lon": 0.0, "rental_uris": {"ios": "https://dc.lft.to/lastmile_qr_scan", "android": "https://dc.lft.to/lastmile_qr_scan"}, "lon": -76.981667, "bike_id": "d75414225afbebd193d3dde882293475", "type": "electric_bike", "name": "d75414225afbebd193d3dde882293475"}, {"is_disabled": 0, "is_reserved": 0, "fusion_lat": 0.0, "lat": 38.96161, "fusion_lon": 0.0, "rental_uris": {"ios": "https://dc.lft.to/lastmile_qr_scan", "android": "https://dc.lft.to/lastmile_qr_scan"}, "lon": -77.02783883333333, "bike_id": "bd4184323a8edb9ae9073d8fbf98269a", "type": "electric_scooter", "name": "bd4184323a8edb9ae9073d8fbf98269a"}, {"is_disabled": 0, "is_reserved": 0, "fusion_lat": 0.0, "lat": 38.9728475, "fusion_lon": 0.0, "rental_uris": {"ios": "https://dc.lft.to/lastmile_qr_scan", "android": "https://dc.lft.to/lastmile_qr_scan"}, "lon": -77.03627233333333, "bike_id": "57f567ea4d85879a4a15b6028509a420", "type": "electric_bike", "name": "57f567ea4d85879a4a15b6028509a420"}, {"is_disabled": 0, "is_reserved": 0, "fusion_lat": 0.0, "lat": 38.90188833333333, "fusion_lon": 0.0, "rental_uris": {"ios": "https://dc.lft.to/lastmile_qr_scan", "android": "https://dc.lft.to/lastmile_qr_scan"}, "lon": -77.02513283333333, "bike_id": "67f7e14d0de72f72db1419c48cec47f1", "type": "electric_scooter", "name": "67f7e14d0de72f72db1419c48cec47f1"}, {"is_disabled": 0, "is_reserved": 0, "fusion_lat": 0.0, "lat": 38.89737733333333, "fusion_lon": 0.0, "rental_uris": {"ios": "https://dc.lft.to/lastmile_qr_scan", "android": "https://dc.lft.to/lastmile_qr_scan"}, "lon": -77.04543033333333, "bike_id": "ac11d43434a310999586612c2a99eb96", "type": "electric_scooter", "name": "ac11d43434a310999586612c2a99eb96"}, {"is_disabled": 0, "is_reserved": 0, "fusion_lat": 0.0, "lat": 38.9524585, "fusion_lon": 0.0, "rental_uris": {"ios": "https://dc.lft.to/lastmile_qr_scan", "android": "https://dc.lft.to/lastmile_qr_scan"}, "lon": -77.096249, "bike_id": "2a26f09b85f2861563da1260d7ae89d2", "type": "electric_bike", "name": "2a26f09b85f2861563da1260d7ae89d2"}, {"is_disabled": 0, "is_reserved": 0, "fusion_lat": 0.0, "lat": 38.92969133333333, "fusion_lon": 0.0, "rental_uris": {"ios": "https://dc.lft.to/lastmile_qr_scan", "android": "https://dc.lft.to/lastmile_qr_scan"}, "lon": -77.02921916666666, "bike_id": "918266ce9b0b4c6ca57a08d2e96f18e6", "type": "electric_scooter", "name": "918266ce9b0b4c6ca57a08d2e96f18e6"}, {"is_disabled": 0, "is_reserved": 0, "fusion_lat": 0.0, "lat": 38.926609, "fusion_lon": 0.0, "rental_uris": {"ios": "https://dc.lft.to/lastmile_qr_scan", "android": "https://dc.lft.to/lastmile_qr_scan"}, "lon": -76.9929705, "bike_id": "07973adb24966b87b43cf4c7a8a74f8b", "type": "electric_scooter", "name": "07973adb24966b87b43cf4c7a8a74f8b"}, {"is_disabled": 0, "is_reserved": 0, "fusion_lat": 0.0, "lat": 38.84288516666667, "fusion_lon": 0.0, "rental_uris": {"ios": "https://dc.lft.to/lastmile_qr_scan", "android": "https://dc.lft.to/lastmile_qr_scan"}, "lon": -77.06380416666667, "bike_id": "31cd3b6bd6943835e1835ffe7757f6e6", "type": "electric_bike", "name": "31cd3b6bd6943835e1835ffe7757f6e6"}, {"is_disabled": 0, "is_reserved": 0, "fusion_lat": 0.0, "lat": 38.87913116666667, "fusion_lon": 0.0, "rental_uris": {"ios": "https://dc.lft.to/lastmile_qr_scan", "android": "https://dc.lft.to/lastmile_qr_scan"}, "lon": -76.99143516666666, "bike_id": "ba5b78fa28ba7b87140b3af90da94dc8", "type": "electric_scooter", "name": "ba5b78fa28ba7b87140b3af90da94dc8"}, {"is_disabled": 0, "is_reserved": 0, "fusion_lat": 0.0, "lat": 38.95592116666667, "fusion_lon": 0.0, "rental_uris": {"ios": "https://dc.lft.to/lastmile_qr_scan", "android": "https://dc.lft.to/lastmile_qr_scan"}, "lon": -77.02809716666667, "bike_id": "0013f3588df6feb49ff11bde7a8fb609", "type": "electric_scooter", "name": "0013f3588df6feb49ff11bde7a8fb609"}, {"is_disabled": 0, "is_reserved": 0, "fusion_lat": 0.0, "lat": 38.88956, "fusion_lon": 0.0, "rental_uris": {"ios": "https://dc.lft.to/lastmile_qr_scan", "android": "https://dc.lft.to/lastmile_qr_scan"}, "lon": -77.0759715, "bike_id": "3ec15f505b2d9c569a496e0a1ac5cb20", "type": "electric_bike", "name": "3ec15f505b2d9c569a496e0a1ac5cb20"}, {"is_disabled": 0, "is_reserved": 0, "fusion_lat": 0.0, "lat": 38.964784333333334, "fusion_lon": 0.0, "rental_uris": {"ios": "https://dc.lft.to/lastmile_qr_scan", "android": "https://dc.lft.to/lastmile_qr_scan"}, "lon": -77.03163683333334, "bike_id": "dd69a55ded505f8c69748c69724c3628", "type": "electric_bike", "name": "dd69a55ded505f8c69748c69724c3628"}, {"is_disabled": 0, "is_reserved": 0, "fusion_lat": 0.0, "lat": 38.897315, "fusion_lon": 0.0, "rental_uris": {"ios": "https://dc.lft.to/lastmile_qr_scan", "android": "https://dc.lft.to/lastmile_qr_scan"}, "lon": -77.0335265, "bike_id": "ca8c27e8c34e0a7452dbcfb702803a56", "type": "electric_scooter", "name": "ca8c27e8c34e0a7452dbcfb702803a56"}, {"is_disabled": 0, "is_reserved": 0, "fusion_lat": 0.0, "lat": 38.961248499999996, "fusion_lon": 0.0, "rental_uris": {"ios": "https://dc.lft.to/lastmile_qr_scan", "android": "https://dc.lft.to/lastmile_qr_scan"}, "lon": -77.03272733333333, "bike_id": "42dcc2d447904c16ef4c1113312973cb", "type": "electric_bike", "name": "42dcc2d447904c16ef4c1113312973cb"}, {"is_disabled": 0, "is_reserved": 0, "fusion_lat": 0.0, "lat": 38.927863333333335, "fusion_lon": 0.0, "rental_uris": {"ios": "https://dc.lft.to/lastmile_qr_scan", "android": "https://dc.lft.to/lastmile_qr_scan"}, "lon": -77.02129583333334, "bike_id": "70f1a5042e09fc004726e0aaf1b9f255", "type": "electric_scooter", "name": "70f1a5042e09fc004726e0aaf1b9f255"}, {"is_disabled": 0, "is_reserved": 0, "fusion_lat": 0.0, "lat": 38.9212935, "fusion_lon": 0.0, "rental_uris": {"ios": "https://dc.lft.to/lastmile_qr_scan", "android": "https://dc.lft.to/lastmile_qr_scan"}, "lon": -76.99348866666666, "bike_id": "3e165a4881387fc0400fc7beed941a23", "type": "electric_scooter", "name": "3e165a4881387fc0400fc7beed941a23"}, {"is_disabled": 0, "is_reserved": 0, "fusion_lat": 0.0, "lat": 38.901450833333335, "fusion_lon": 0.0, "rental_uris": {"ios": "https://dc.lft.to/lastmile_qr_scan", "android": "https://dc.lft.to/lastmile_qr_scan"}, "lon": -77.01498483333333, "bike_id": "f9ab1537dafa543c5a017f32671a506f", "type": "electric_scooter", "name": "f9ab1537dafa543c5a017f32671a506f"}, {"is_disabled": 0, "is_reserved": 0, "fusion_lat": 0.0, "lat": 38.921328833333334, "fusion_lon": 0.0, "rental_uris": {"ios": "https://dc.lft.to/lastmile_qr_scan", "android": "https://dc.lft.to/lastmile_qr_scan"}, "lon": -77.0039935, "bike_id": "e4bd3b8ae84d0dc2640556b0c531c012", "type": "electric_scooter", "name": "e4bd3b8ae84d0dc2640556b0c531c012"}, {"is_disabled": 0, "is_reserved": 0, "fusion_lat": 0.0, "lat": 38.952416666666664, "fusion_lon": 0.0, "rental_uris": {"ios": "https://dc.lft.to/lastmile_qr_scan", "android": "https://dc.lft.to/lastmile_qr_scan"}, "lon": -76.982488, "bike_id": "c33383ae908ea0ed6fe64a9560e238ca", "type": "electric_bike", "name": "c33383ae908ea0ed6fe64a9560e238ca"}, {"is_disabled": 0, "is_reserved": 0, "fusion_lat": 0.0, "lat": 38.92818966666667, "fusion_lon": 0.0, "rental_uris": {"ios": "https://dc.lft.to/lastmile_qr_scan", "android": "https://dc.lft.to/lastmile_qr_scan"}, "lon": -77.04334616666667, "bike_id": "11cafe7e7d9574b546a063fd5c43cfb7", "type": "electric_scooter", "name": "11cafe7e7d9574b546a063fd5c43cfb7"}, {"is_disabled": 0, "is_reserved": 0, "fusion_lat": 0.0, "lat": 38.9249915, "fusion_lon": 0.0, "rental_uris": {"ios": "https://dc.lft.to/lastmile_qr_scan", "android": "https://dc.lft.to/lastmile_qr_scan"}, "lon": -77.02443633333333, "bike_id": "49fa944a2896c83f3fac90fc51d497e2", "type": "electric_scooter", "name": "49fa944a2896c83f3fac90fc51d497e2"}, {"is_disabled": 0, "is_reserved": 0, "fusion_lat": 0.0, "lat": 38.883817, "fusion_lon": 0.0, "rental_uris": {"ios": "https://dc.lft.to/lastmile_qr_scan", "android": "https://dc.lft.to/lastmile_qr_scan"}, "lon": -77.04605866666667, "bike_id": "ae1cb8bb6e152029afd480e4783ae28f", "type": "electric_scooter", "name": "ae1cb8bb6e152029afd480e4783ae28f"}, {"is_disabled": 0, "is_reserved": 0, "fusion_lat": 0.0, "lat": 38.912045666666664, "fusion_lon": 0.0, "rental_uris": {"ios": "https://dc.lft.to/lastmile_qr_scan", "android": "https://dc.lft.to/lastmile_qr_scan"}, "lon": -77.00085816666666, "bike_id": "54aa9475be7c4f2b5154694dfc557653", "type": "electric_scooter", "name": "54aa9475be7c4f2b5154694dfc557653"}, {"is_disabled": 0, "is_reserved": 0, "fusion_lat": 0.0, "lat": 39.00531566666667, "fusion_lon": 0.0, "rental_uris": {"ios": "https://dc.lft.to/lastmile_qr_scan", "android": "https://dc.lft.to/lastmile_qr_scan"}, "lon": -77.10398066666667, "bike_id": "c290bb2e9affbb6e3bd91f598892e346", "type": "electric_bike", "name": "c290bb2e9affbb6e3bd91f598892e346"}, {"is_disabled": 0, "is_reserved": 0, "fusion_lat": 0.0, "lat": 38.88524183333333, "fusion_lon": 0.0, "rental_uris": {"ios": "https://dc.lft.to/lastmile_qr_scan", "android": "https://dc.lft.to/lastmile_qr_scan"}, "lon": -76.99619833333334, "bike_id": "30b80fbd862f0bd65d92f5c65aa56cff", "type": "electric_scooter", "name": "30b80fbd862f0bd65d92f5c65aa56cff"}, {"is_disabled": 0, "is_reserved": 0, "fusion_lat": 0.0, "lat": 38.907785, "fusion_lon": 0.0, "rental_uris": {"ios": "https://dc.lft.to/lastmile_qr_scan", "android": "https://dc.lft.to/lastmile_qr_scan"}, "lon": -77.04537866666666, "bike_id": "18c25d97c16999d194b0f1f5764dcba1", "type": "electric_scooter", "name": "18c25d97c16999d194b0f1f5764dcba1"}, {"is_disabled": 0, "is_reserved": 0, "fusion_lat": 0.0, "lat": 38.877403666666666, "fusion_lon": 0.0, "rental_uris": {"ios": "https://dc.lft.to/lastmile_qr_scan", "android": "https://dc.lft.to/lastmile_qr_scan"}, "lon": -77.148731, "bike_id": "f85189256a17180da8708633f3e359b5", "type": "electric_bike", "name": "f85189256a17180da8708633f3e359b5"}, {"is_disabled": 0, "is_reserved": 0, "fusion_lat": 0.0, "lat": 38.88103666666667, "fusion_lon": 0.0, "rental_uris": {"ios": "https://dc.lft.to/lastmile_qr_scan", "android": "https://dc.lft.to/lastmile_qr_scan"}, "lon": -77.01239216666667, "bike_id": "cb8c902f4bb4375b7eddc38c93360612", "type": "electric_scooter", "name": "cb8c902f4bb4375b7eddc38c93360612"}, {"is_disabled": 0, "is_reserved": 0, "fusion_lat": 0.0, "lat": 38.882188666666664, "fusion_lon": 0.0, "rental_uris": {"ios": "https://dc.lft.to/lastmile_qr_scan", "android": "https://dc.lft.to/lastmile_qr_scan"}, "lon": -76.99739183333334, "bike_id": "2a37376426cac81ff796e2f9f49655ba", "type": "electric_scooter", "name": "2a37376426cac81ff796e2f9f49655ba"}, {"is_disabled": 0, "is_reserved": 0, "fusion_lat": 0.0, "lat": 38.89889066666667, "fusion_lon": 0.0, "rental_uris": {"ios": "https://dc.lft.to/lastmile_qr_scan", "android": "https://dc.lft.to/lastmile_qr_scan"}, "lon": -77.021529, "bike_id": "c2c15945b18137df71276395accecb29", "type": "electric_scooter", "name": "c2c15945b18137df71276395accecb29"}, {"is_disabled": 0, "is_reserved": 0, "fusion_lat": 0.0, "lat": 38.945979666666666, "fusion_lon": 0.0, "rental_uris": {"ios": "https://dc.lft.to/lastmile_qr_scan", "android": "https://dc.lft.to/lastmile_qr_scan"}, "lon": -77.02670933333333, "bike_id": "829e2da4cc3fee821a0730ffa29594ac", "type": "electric_scooter", "name": "829e2da4cc3fee821a0730ffa29594ac"}, {"is_disabled": 0, "is_reserved": 0, "fusion_lat": 0.0, "lat": 38.8760545, "fusion_lon": 0.0, "rental_uris": {"ios": "https://dc.lft.to/lastmile_qr_scan", "android": "https://dc.lft.to/lastmile_qr_scan"}, "lon": -77.00586266666667, "bike_id": "db649ecc114607a97873db09430e117e", "type": "electric_scooter", "name": "db649ecc114607a97873db09430e117e"}, {"is_disabled": 0, "is_reserved": 0, "fusion_lat": 0.0, "lat": 38.86560816666667, "fusion_lon": 0.0, "rental_uris": {"ios": "https://dc.lft.to/lastmile_qr_scan", "android": "https://dc.lft.to/lastmile_qr_scan"}, "lon": -76.9747585, "bike_id": "96c29c9251cdf65da5f8b8a15ed63594", "type": "electric_bike", "name": "96c29c9251cdf65da5f8b8a15ed63594"}, {"is_disabled": 0, "is_reserved": 0, "fusion_lat": 0.0, "lat": 38.8243215, "fusion_lon": 0.0, "rental_uris": {"ios": "https://dc.lft.to/lastmile_qr_scan", "android": "https://dc.lft.to/lastmile_qr_scan"}, "lon": -77.12041433333333, "bike_id": "def4137dbf9bf3d22e67d8b85458f084", "type": "electric_bike", "name": "def4137dbf9bf3d22e67d8b85458f084"}, {"is_disabled": 0, "is_reserved": 0, "fusion_lat": 0.0, "lat": 38.85636433333333, "fusion_lon": 0.0, "rental_uris": {"ios": "https://dc.lft.to/lastmile_qr_scan", "android": "https://dc.lft.to/lastmile_qr_scan"}, "lon": -77.06830116666667, "bike_id": "6546d601a936dfb03821c830d9b8567a", "type": "electric_bike", "name": "6546d601a936dfb03821c830d9b8567a"}, {"is_disabled": 0, "is_reserved": 0, "fusion_lat": 0.0, "lat": 38.929533, "fusion_lon": 0.0, "rental_uris": {"ios": "https://dc.lft.to/lastmile_qr_scan", "android": "https://dc.lft.to/lastmile_qr_scan"}, "lon": -77.05482333333333, "bike_id": "7ac8a9d464a158c087cd7a9c09668f07", "type": "electric_scooter", "name": "7ac8a9d464a158c087cd7a9c09668f07"}, {"is_disabled": 0, "is_reserved": 0, "fusion_lat": 0.0, "lat": 38.9183365, "fusion_lon": 0.0, "rental_uris": {"ios": "https://dc.lft.to/lastmile_qr_scan", "android": "https://dc.lft.to/lastmile_qr_scan"}, "lon": -77.02305316666667, "bike_id": "37d0b68b8a36846c2d1620639a024ace", "type": "electric_scooter", "name": "37d0b68b8a36846c2d1620639a024ace"}, {"is_disabled": 0, "is_reserved": 0, "fusion_lat": 0.0, "lat": 38.905546, "fusion_lon": 0.0, "rental_uris": {"ios": "https://dc.lft.to/lastmile_qr_scan", "android": "https://dc.lft.to/lastmile_qr_scan"}, "lon": -77.02604883333333, "bike_id": "f2c74db1d6e8782ae361406fc0c7e635", "type": "electric_scooter", "name": "f2c74db1d6e8782ae361406fc0c7e635"}, {"is_disabled": 0, "is_reserved": 0, "fusion_lat": 0.0, "lat": 38.900812, "fusion_lon": 0.0, "rental_uris": {"ios": "https://dc.lft.to/lastmile_qr_scan", "android": "https://dc.lft.to/lastmile_qr_scan"}, "lon": -77.05018733333333, "bike_id": "ea336ec054a952786b807e9f2a3576b9", "type": "electric_scooter", "name": "ea336ec054a952786b807e9f2a3576b9"}, {"is_disabled": 0, "is_reserved": 0, "fusion_lat": 0.0, "lat": 38.93398, "fusion_lon": 0.0, "rental_uris": {"ios": "https://dc.lft.to/lastmile_qr_scan", "android": "https://dc.lft.to/lastmile_qr_scan"}, "lon": -77.02620633333333, "bike_id": "72c772f20d17369375affedb9e5a0ffa", "type": "electric_scooter", "name": "72c772f20d17369375affedb9e5a0ffa"}, {"is_disabled": 0, "is_reserved": 0, "fusion_lat": 0.0, "lat": 38.89672016666667, "fusion_lon": 0.0, "rental_uris": {"ios": "https://dc.lft.to/lastmile_qr_scan", "android": "https://dc.lft.to/lastmile_qr_scan"}, "lon": -76.94911733333333, "bike_id": "5ae36d01aa81331060678e13df6a4a71", "type": "electric_scooter", "name": "5ae36d01aa81331060678e13df6a4a71"}, {"is_disabled": 0, "is_reserved": 0, "fusion_lat": 0.0, "lat": 38.903589833333335, "fusion_lon": 0.0, "rental_uris": {"ios": "https://dc.lft.to/lastmile_qr_scan", "android": "https://dc.lft.to/lastmile_qr_scan"}, "lon": -77.01679616666667, "bike_id": "fa1517fff28387e0529fa683446d3d11", "type": "electric_scooter", "name": "fa1517fff28387e0529fa683446d3d11"}, {"is_disabled": 0, "is_reserved": 0, "fusion_lat": 0.0, "lat": 38.911669, "fusion_lon": 0.0, "rental_uris": {"ios": "https://dc.lft.to/lastmile_qr_scan", "android": "https://dc.lft.to/lastmile_qr_scan"}, "lon": -77.00452166666666, "bike_id": "87e249f204e9bba491d67d0defcea777", "type": "electric_scooter", "name": "87e249f204e9bba491d67d0defcea777"}, {"is_disabled": 0, "is_reserved": 0, "fusion_lat": 0.0, "lat": 38.903611, "fusion_lon": 0.0, "rental_uris": {"ios": "https://dc.lft.to/lastmile_qr_scan", "android": "https://dc.lft.to/lastmile_qr_scan"}, "lon": -77.00343933333333, "bike_id": "bd014a82c2c48b2bf6170c61746c54f3", "type": "electric_scooter", "name": "bd014a82c2c48b2bf6170c61746c54f3"}, {"is_disabled": 0, "is_reserved": 0, "fusion_lat": 0.0, "lat": 38.917789166666665, "fusion_lon": 0.0, "rental_uris": {"ios": "https://dc.lft.to/lastmile_qr_scan", "android": "https://dc.lft.to/lastmile_qr_scan"}, "lon": -77.03441383333333, "bike_id": "f8bd5fe64d46adde4701b9092c653d10", "type": "electric_scooter", "name": "f8bd5fe64d46adde4701b9092c653d10"}, {"is_disabled": 0, "is_reserved": 0, "fusion_lat": 0.0, "lat": 38.93399383333333, "fusion_lon": 0.0, "rental_uris": {"ios": "https://dc.lft.to/lastmile_qr_scan", "android": "https://dc.lft.to/lastmile_qr_scan"}, "lon": -77.03521133333334, "bike_id": "a5de8b6fc697895524bd105dff70ce02", "type": "electric_scooter", "name": "a5de8b6fc697895524bd105dff70ce02"}, {"is_disabled": 0, "is_reserved": 0, "fusion_lat": 0.0, "lat": 38.914002333333336, "fusion_lon": 0.0, "rental_uris": {"ios": "https://dc.lft.to/lastmile_qr_scan", "android": "https://dc.lft.to/lastmile_qr_scan"}, "lon": -77.01219716666667, "bike_id": "8489dee78417f52118866f21709ed50b", "type": "electric_scooter", "name": "8489dee78417f52118866f21709ed50b"}, {"is_disabled": 0, "is_reserved": 0, "fusion_lat": 0.0, "lat": 38.898346833333335, "fusion_lon": 0.0, "rental_uris": {"ios": "https://dc.lft.to/lastmile_qr_scan", "android": "https://dc.lft.to/lastmile_qr_scan"}, "lon": -76.94634466666666, "bike_id": "9980c89dcfcc1a59f75be9e04d873197", "type": "electric_scooter", "name": "9980c89dcfcc1a59f75be9e04d873197"}, {"is_disabled": 0, "is_reserved": 0, "fusion_lat": 0.0, "lat": 38.87067783333333, "fusion_lon": 0.0, "rental_uris": {"ios": "https://dc.lft.to/lastmile_qr_scan", "android": "https://dc.lft.to/lastmile_qr_scan"}, "lon": -76.97942066666667, "bike_id": "c3678b0afac2d7998549e900abd93acb", "type": "electric_scooter", "name": "c3678b0afac2d7998549e900abd93acb"}, {"is_disabled": 0, "is_reserved": 0, "fusion_lat": 0.0, "lat": 38.95179383333333, "fusion_lon": 0.0, "rental_uris": {"ios": "https://dc.lft.to/lastmile_qr_scan", "android": "https://dc.lft.to/lastmile_qr_scan"}, "lon": -77.02615733333333, "bike_id": "67e4a74106e0194d60bd82b3b6c3a54d", "type": "electric_scooter", "name": "67e4a74106e0194d60bd82b3b6c3a54d"}, {"is_disabled": 0, "is_reserved": 0, "fusion_lat": 0.0, "lat": 38.93880633333333, "fusion_lon": 0.0, "rental_uris": {"ios": "https://dc.lft.to/lastmile_qr_scan", "android": "https://dc.lft.to/lastmile_qr_scan"}, "lon": -77.03044916666667, "bike_id": "ca6182a98cd33b13dd3b40ae36d9ba94", "type": "electric_scooter", "name": "ca6182a98cd33b13dd3b40ae36d9ba94"}, {"is_disabled": 0, "is_reserved": 0, "fusion_lat": 0.0, "lat": 38.8967805, "fusion_lon": 0.0, "rental_uris": {"ios": "https://dc.lft.to/lastmile_qr_scan", "android": "https://dc.lft.to/lastmile_qr_scan"}, "lon": -77.05111233333334, "bike_id": "6833f309f55050578783303e9f12be50", "type": "electric_scooter", "name": "6833f309f55050578783303e9f12be50"}, {"is_disabled": 0, "is_reserved": 0, "fusion_lat": 0.0, "lat": 38.91536216666667, "fusion_lon": 0.0, "rental_uris": {"ios": "https://dc.lft.to/lastmile_qr_scan", "android": "https://dc.lft.to/lastmile_qr_scan"}, "lon": -76.98377433333333, "bike_id": "7f5f252934ef54d206c7c9096134f74c", "type": "electric_scooter", "name": "7f5f252934ef54d206c7c9096134f74c"}, {"is_disabled": 0, "is_reserved": 0, "fusion_lat": 0.0, "lat": 38.89861416666667, "fusion_lon": 0.0, "rental_uris": {"ios": "https://dc.lft.to/lastmile_qr_scan", "android": "https://dc.lft.to/lastmile_qr_scan"}, "lon": -76.946429, "bike_id": "684568f54daebc15fef9261ce961c6f8", "type": "electric_scooter", "name": "684568f54daebc15fef9261ce961c6f8"}, {"is_disabled": 0, "is_reserved": 0, "fusion_lat": 0.0, "lat": 38.92475966666667, "fusion_lon": 0.0, "rental_uris": {"ios": "https://dc.lft.to/lastmile_qr_scan", "android": "https://dc.lft.to/lastmile_qr_scan"}, "lon": -77.0510415, "bike_id": "fdd9e3b8e2a08429614cd1e029839173", "type": "electric_scooter", "name": "fdd9e3b8e2a08429614cd1e029839173"}, {"is_disabled": 0, "is_reserved": 0, "fusion_lat": 0.0, "lat": 38.898234, "fusion_lon": 0.0, "rental_uris": {"ios": "https://dc.lft.to/lastmile_qr_scan", "android": "https://dc.lft.to/lastmile_qr_scan"}, "lon": -77.002165, "bike_id": "f3d78fe347191ad9c02a7a8ad951e3ff", "type": "electric_scooter", "name": "f3d78fe347191ad9c02a7a8ad951e3ff"}, {"is_disabled": 0, "is_reserved": 0, "fusion_lat": 0.0, "lat": 38.93113683333333, "fusion_lon": 0.0, "rental_uris": {"ios": "https://dc.lft.to/lastmile_qr_scan", "android": "https://dc.lft.to/lastmile_qr_scan"}, "lon": -77.030324, "bike_id": "a37c9624beb1e4af0969c5e84c45fbb2", "type": "electric_scooter", "name": "a37c9624beb1e4af0969c5e84c45fbb2"}, {"is_disabled": 0, "is_reserved": 0, "fusion_lat": 0.0, "lat": 38.892286166666665, "fusion_lon": 0.0, "rental_uris": {"ios": "https://dc.lft.to/lastmile_qr_scan", "android": "https://dc.lft.to/lastmile_qr_scan"}, "lon": -77.0500445, "bike_id": "c31dd6f3087437d9b5fb5142418b1d84", "type": "electric_scooter", "name": "c31dd6f3087437d9b5fb5142418b1d84"}, {"is_disabled": 0, "is_reserved": 0, "fusion_lat": 0.0, "lat": 38.92579466666667, "fusion_lon": 0.0, "rental_uris": {"ios": "https://dc.lft.to/lastmile_qr_scan", "android": "https://dc.lft.to/lastmile_qr_scan"}, "lon": -76.9948945, "bike_id": "10b01a86831d7c90264f20e4a0023358", "type": "electric_scooter", "name": "10b01a86831d7c90264f20e4a0023358"}, {"is_disabled": 0, "is_reserved": 0, "fusion_lat": 0.0, "lat": 38.91677716666667, "fusion_lon": 0.0, "rental_uris": {"ios": "https://dc.lft.to/lastmile_qr_scan", "android": "https://dc.lft.to/lastmile_qr_scan"}, "lon": -77.09574233333333, "bike_id": "56ddc303e70bd8d35654173f4c317ad6", "type": "electric_scooter", "name": "56ddc303e70bd8d35654173f4c317ad6"}, {"is_disabled": 0, "is_reserved": 0, "fusion_lat": 0.0, "lat": 38.9203915, "fusion_lon": 0.0, "rental_uris": {"ios": "https://dc.lft.to/lastmile_qr_scan", "android": "https://dc.lft.to/lastmile_qr_scan"}, "lon": -76.979572, "bike_id": "a3025fc1569bfec9956ba039a11b023c", "type": "electric_bike", "name": "a3025fc1569bfec9956ba039a11b023c"}, {"is_disabled": 0, "is_reserved": 0, "fusion_lat": 0.0, "lat": 38.939712666666665, "fusion_lon": 0.0, "rental_uris": {"ios": "https://dc.lft.to/lastmile_qr_scan", "android": "https://dc.lft.to/lastmile_qr_scan"}, "lon": -77.03425216666666, "bike_id": "52756d3fc85589e113f477acac94771d", "type": "electric_scooter", "name": "52756d3fc85589e113f477acac94771d"}, {"is_disabled": 0, "is_reserved": 0, "fusion_lat": 0.0, "lat": 38.926798166666664, "fusion_lon": 0.0, "rental_uris": {"ios": "https://dc.lft.to/lastmile_qr_scan", "android": "https://dc.lft.to/lastmile_qr_scan"}, "lon": -77.03795816666667, "bike_id": "e974c160f60fd27f7cb0dc49ca868512", "type": "electric_scooter", "name": "e974c160f60fd27f7cb0dc49ca868512"}, {"is_disabled": 0, "is_reserved": 0, "fusion_lat": 0.0, "lat": 39.003781833333335, "fusion_lon": 0.0, "rental_uris": {"ios": "https://dc.lft.to/lastmile_qr_scan", "android": "https://dc.lft.to/lastmile_qr_scan"}, "lon": -77.01295066666667, "bike_id": "d70b29503df96469da28e4cbc999f47e", "type": "electric_bike", "name": "d70b29503df96469da28e4cbc999f47e"}, {"is_disabled": 0, "is_reserved": 0, "fusion_lat": 0.0, "lat": 38.91332283333333, "fusion_lon": 0.0, "rental_uris": {"ios": "https://dc.lft.to/lastmile_qr_scan", "android": "https://dc.lft.to/lastmile_qr_scan"}, "lon": -77.04330483333334, "bike_id": "1bf0f8b241c2f8ea347a9844528ef47c", "type": "electric_scooter", "name": "1bf0f8b241c2f8ea347a9844528ef47c"}, {"is_disabled": 0, "is_reserved": 0, "fusion_lat": 0.0, "lat": 38.92466066666667, "fusion_lon": 0.0, "rental_uris": {"ios": "https://dc.lft.to/lastmile_qr_scan", "android": "https://dc.lft.to/lastmile_qr_scan"}, "lon": -77.0523265, "bike_id": "d7fea59fca4de7222a00a9367a315621", "type": "electric_scooter", "name": "d7fea59fca4de7222a00a9367a315621"}, {"is_disabled": 0, "is_reserved": 0, "fusion_lat": 0.0, "lat": 38.90651583333333, "fusion_lon": 0.0, "rental_uris": {"ios": "https://dc.lft.to/lastmile_qr_scan", "android": "https://dc.lft.to/lastmile_qr_scan"}, "lon": -76.97942583333334, "bike_id": "c3f4f54ee8590a5d20d486f4677f9bad", "type": "electric_scooter", "name": "c3f4f54ee8590a5d20d486f4677f9bad"}, {"is_disabled": 0, "is_reserved": 0, "fusion_lat": 0.0, "lat": 38.94175516666667, "fusion_lon": 0.0, "rental_uris": {"ios": "https://dc.lft.to/lastmile_qr_scan", "android": "https://dc.lft.to/lastmile_qr_scan"}, "lon": -77.02538033333333, "bike_id": "9948aa355e48104497a158e919042ebb", "type": "electric_scooter", "name": "9948aa355e48104497a158e919042ebb"}, {"is_disabled": 0, "is_reserved": 0, "fusion_lat": 0.0, "lat": 38.91417283333333, "fusion_lon": 0.0, "rental_uris": {"ios": "https://dc.lft.to/lastmile_qr_scan", "android": "https://dc.lft.to/lastmile_qr_scan"}, "lon": -77.02120816666667, "bike_id": "368f49573003d6003a9a58b3d1bd7936", "type": "electric_scooter", "name": "368f49573003d6003a9a58b3d1bd7936"}, {"is_disabled": 0, "is_reserved": 0, "fusion_lat": 0.0, "lat": 38.91223033333333, "fusion_lon": 0.0, "rental_uris": {"ios": "https://dc.lft.to/lastmile_qr_scan", "android": "https://dc.lft.to/lastmile_qr_scan"}, "lon": -77.06406083333333, "bike_id": "18829703be87c94ae95b45e22dd5efa3", "type": "electric_scooter", "name": "18829703be87c94ae95b45e22dd5efa3"}, {"is_disabled": 0, "is_reserved": 0, "fusion_lat": 0.0, "lat": 38.90881783333333, "fusion_lon": 0.0, "rental_uris": {"ios": "https://dc.lft.to/lastmile_qr_scan", "android": "https://dc.lft.to/lastmile_qr_scan"}, "lon": -77.07436033333333, "bike_id": "c2dac0526555fd7880e44312e8a66572", "type": "electric_scooter", "name": "c2dac0526555fd7880e44312e8a66572"}, {"is_disabled": 0, "is_reserved": 0, "fusion_lat": 0.0, "lat": 38.935550666666664, "fusion_lon": 0.0, "rental_uris": {"ios": "https://dc.lft.to/lastmile_qr_scan", "android": "https://dc.lft.to/lastmile_qr_scan"}, "lon": -77.021298, "bike_id": "e2f86223e9b81838179d359205870672", "type": "electric_scooter", "name": "e2f86223e9b81838179d359205870672"}, {"is_disabled": 0, "is_reserved": 0, "fusion_lat": 0.0, "lat": 38.8862115, "fusion_lon": 0.0, "rental_uris": {"ios": "https://dc.lft.to/lastmile_qr_scan", "android": "https://dc.lft.to/lastmile_qr_scan"}, "lon": -77.02830166666666, "bike_id": "21a907ea5d9c893fd477ccec5f4801a6", "type": "electric_scooter", "name": "21a907ea5d9c893fd477ccec5f4801a6"}, {"is_disabled": 0, "is_reserved": 0, "fusion_lat": 0.0, "lat": 38.87932333333333, "fusion_lon": 0.0, "rental_uris": {"ios": "https://dc.lft.to/lastmile_qr_scan", "android": "https://dc.lft.to/lastmile_qr_scan"}, "lon": -77.00876416666667, "bike_id": "b6c986f63e7c6f0804fa6f4704d97c70", "type": "electric_scooter", "name": "b6c986f63e7c6f0804fa6f4704d97c70"}, {"is_disabled": 0, "is_reserved": 0, "fusion_lat": 0.0, "lat": 38.947325, "fusion_lon": 0.0, "rental_uris": {"ios": "https://dc.lft.to/lastmile_qr_scan", "android": "https://dc.lft.to/lastmile_qr_scan"}, "lon": -77.0193775, "bike_id": "e92f5a32e131fa98ede370f6afd6734f", "type": "electric_scooter", "name": "e92f5a32e131fa98ede370f6afd6734f"}, {"is_disabled": 0, "is_reserved": 0, "fusion_lat": 0.0, "lat": 38.86812916666667, "fusion_lon": 0.0, "rental_uris": {"ios": "https://dc.lft.to/lastmile_qr_scan", "android": "https://dc.lft.to/lastmile_qr_scan"}, "lon": -76.9800805, "bike_id": "89a2d31a87e880df28691eecd629dc11", "type": "electric_bike", "name": "89a2d31a87e880df28691eecd629dc11"}, {"is_disabled": 0, "is_reserved": 0, "fusion_lat": 0.0, "lat": 38.870587666666665, "fusion_lon": 0.0, "rental_uris": {"ios": "https://dc.lft.to/lastmile_qr_scan", "android": "https://dc.lft.to/lastmile_qr_scan"}, "lon": -77.110265, "bike_id": "e0ed584b3f6b0818f52d568d528b054b", "type": "electric_bike", "name": "e0ed584b3f6b0818f52d568d528b054b"}, {"is_disabled": 0, "is_reserved": 0, "fusion_lat": 0.0, "lat": 38.896657166666664, "fusion_lon": 0.0, "rental_uris": {"ios": "https://dc.lft.to/lastmile_qr_scan", "android": "https://dc.lft.to/lastmile_qr_scan"}, "lon": -76.93203666666666, "bike_id": "96098344b6ee15192bf2bec7a8855d8b", "type": "electric_scooter", "name": "96098344b6ee15192bf2bec7a8855d8b"}, {"is_disabled": 0, "is_reserved": 0, "fusion_lat": 0.0, "lat": 38.931116833333334, "fusion_lon": 0.0, "rental_uris": {"ios": "https://dc.lft.to/lastmile_qr_scan", "android": "https://dc.lft.to/lastmile_qr_scan"}, "lon": -77.03842433333334, "bike_id": "a5db9f1a3b1b689ae728916696cd63a1", "type": "electric_scooter", "name": "a5db9f1a3b1b689ae728916696cd63a1"}, {"is_disabled": 0, "is_reserved": 0, "fusion_lat": 0.0, "lat": 38.898328, "fusion_lon": 0.0, "rental_uris": {"ios": "https://dc.lft.to/lastmile_qr_scan", "android": "https://dc.lft.to/lastmile_qr_scan"}, "lon": -77.03345366666667, "bike_id": "4ca30aa0d932ad39f027f4d855b50f5b", "type": "electric_scooter", "name": "4ca30aa0d932ad39f027f4d855b50f5b"}, {"is_disabled": 0, "is_reserved": 0, "fusion_lat": 0.0, "lat": 38.88292233333333, "fusion_lon": 0.0, "rental_uris": {"ios": "https://dc.lft.to/lastmile_qr_scan", "android": "https://dc.lft.to/lastmile_qr_scan"}, "lon": -76.98617616666667, "bike_id": "d33d3a8e78e02bc8fee47fa659af9b92", "type": "electric_scooter", "name": "d33d3a8e78e02bc8fee47fa659af9b92"}, {"is_disabled": 0, "is_reserved": 0, "fusion_lat": 0.0, "lat": 38.919248, "fusion_lon": 0.0, "rental_uris": {"ios": "https://dc.lft.to/lastmile_qr_scan", "android": "https://dc.lft.to/lastmile_qr_scan"}, "lon": -77.02715016666667, "bike_id": "85494803e246e13a1d4b410410147e6d", "type": "electric_scooter", "name": "85494803e246e13a1d4b410410147e6d"}, {"is_disabled": 0, "is_reserved": 0, "fusion_lat": 0.0, "lat": 38.876567333333334, "fusion_lon": 0.0, "rental_uris": {"ios": "https://dc.lft.to/lastmile_qr_scan", "android": "https://dc.lft.to/lastmile_qr_scan"}, "lon": -77.00885766666667, "bike_id": "eb13dac70cc144c92b769847e19ce996", "type": "electric_scooter", "name": "eb13dac70cc144c92b769847e19ce996"}, {"is_disabled": 0, "is_reserved": 0, "fusion_lat": 0.0, "lat": 38.906115166666666, "fusion_lon": 0.0, "rental_uris": {"ios": "https://dc.lft.to/lastmile_qr_scan", "android": "https://dc.lft.to/lastmile_qr_scan"}, "lon": -77.02958016666666, "bike_id": "01a647528e6c7d6682cbf8222d3df966", "type": "electric_scooter", "name": "01a647528e6c7d6682cbf8222d3df966"}, {"is_disabled": 0, "is_reserved": 0, "fusion_lat": 0.0, "lat": 38.892484833333334, "fusion_lon": 0.0, "rental_uris": {"ios": "https://dc.lft.to/lastmile_qr_scan", "android": "https://dc.lft.to/lastmile_qr_scan"}, "lon": -77.0395875, "bike_id": "2ed9bb3c2a8b629012c9061f124bec8c", "type": "electric_scooter", "name": "2ed9bb3c2a8b629012c9061f124bec8c"}, {"is_disabled": 0, "is_reserved": 0, "fusion_lat": 0.0, "lat": 38.883632166666665, "fusion_lon": 0.0, "rental_uris": {"ios": "https://dc.lft.to/lastmile_qr_scan", "android": "https://dc.lft.to/lastmile_qr_scan"}, "lon": -76.9279095, "bike_id": "68edd27e26618318ba2671a2bdd6ee94", "type": "electric_scooter", "name": "68edd27e26618318ba2671a2bdd6ee94"}, {"is_disabled": 0, "is_reserved": 0, "fusion_lat": 0.0, "lat": 38.901948, "fusion_lon": 0.0, "rental_uris": {"ios": "https://dc.lft.to/lastmile_qr_scan", "android": "https://dc.lft.to/lastmile_qr_scan"}, "lon": -77.02527083333334, "bike_id": "2c4fbd8ff094ba8eb76f0154f27edb65", "type": "electric_scooter", "name": "2c4fbd8ff094ba8eb76f0154f27edb65"}, {"is_disabled": 0, "is_reserved": 0, "fusion_lat": 0.0, "lat": 38.90262116666667, "fusion_lon": 0.0, "rental_uris": {"ios": "https://dc.lft.to/lastmile_qr_scan", "android": "https://dc.lft.to/lastmile_qr_scan"}, "lon": -76.928522, "bike_id": "97e00947c9b6cbc89ddff39fe907936d", "type": "electric_scooter", "name": "97e00947c9b6cbc89ddff39fe907936d"}, {"is_disabled": 0, "is_reserved": 0, "fusion_lat": 0.0, "lat": 38.928629666666666, "fusion_lon": 0.0, "rental_uris": {"ios": "https://dc.lft.to/lastmile_qr_scan", "android": "https://dc.lft.to/lastmile_qr_scan"}, "lon": -77.0789075, "bike_id": "e7b3bf6b3df2cab7cb92086ea5b96b89", "type": "electric_scooter", "name": "e7b3bf6b3df2cab7cb92086ea5b96b89"}, {"is_disabled": 0, "is_reserved": 0, "fusion_lat": 0.0, "lat": 38.86368433333333, "fusion_lon": 0.0, "rental_uris": {"ios": "https://dc.lft.to/lastmile_qr_scan", "android": "https://dc.lft.to/lastmile_qr_scan"}, "lon": -76.970073, "bike_id": "824ba2d5aae228348c7e352c2bab4391", "type": "electric_bike", "name": "824ba2d5aae228348c7e352c2bab4391"}, {"is_disabled": 0, "is_reserved": 0, "fusion_lat": 0.0, "lat": 38.870732333333336, "fusion_lon": 0.0, "rental_uris": {"ios": "https://dc.lft.to/lastmile_qr_scan", "android": "https://dc.lft.to/lastmile_qr_scan"}, "lon": -76.9812945, "bike_id": "cd0d70bbd579f551be8394c71916e75b", "type": "electric_scooter", "name": "cd0d70bbd579f551be8394c71916e75b"}, {"is_disabled": 0, "is_reserved": 0, "fusion_lat": 0.0, "lat": 38.90729833333333, "fusion_lon": 0.0, "rental_uris": {"ios": "https://dc.lft.to/lastmile_qr_scan", "android": "https://dc.lft.to/lastmile_qr_scan"}, "lon": -77.02320583333334, "bike_id": "485ab9bc3794b4f5efc1476257a4f401", "type": "electric_scooter", "name": "485ab9bc3794b4f5efc1476257a4f401"}, {"is_disabled": 0, "is_reserved": 0, "fusion_lat": 0.0, "lat": 38.88512983333333, "fusion_lon": 0.0, "rental_uris": {"ios": "https://dc.lft.to/lastmile_qr_scan", "android": "https://dc.lft.to/lastmile_qr_scan"}, "lon": -77.02821683333333, "bike_id": "fef3314d55aa168e02c6fcb223dae9bb", "type": "electric_scooter", "name": "fef3314d55aa168e02c6fcb223dae9bb"}, {"is_disabled": 0, "is_reserved": 0, "fusion_lat": 0.0, "lat": 38.916073833333336, "fusion_lon": 0.0, "rental_uris": {"ios": "https://dc.lft.to/lastmile_qr_scan", "android": "https://dc.lft.to/lastmile_qr_scan"}, "lon": -77.03850766666666, "bike_id": "e0a22008c6c486431e5c494fb6901ad5", "type": "electric_scooter", "name": "e0a22008c6c486431e5c494fb6901ad5"}, {"is_disabled": 0, "is_reserved": 0, "fusion_lat": 0.0, "lat": 38.93033416666667, "fusion_lon": 0.0, "rental_uris": {"ios": "https://dc.lft.to/lastmile_qr_scan", "android": "https://dc.lft.to/lastmile_qr_scan"}, "lon": -77.06083933333333, "bike_id": "2cb81f5092cd06bf03db9230e284147f", "type": "electric_scooter", "name": "2cb81f5092cd06bf03db9230e284147f"}, {"is_disabled": 0, "is_reserved": 0, "fusion_lat": 0.0, "lat": 38.875808666666664, "fusion_lon": 0.0, "rental_uris": {"ios": "https://dc.lft.to/lastmile_qr_scan", "android": "https://dc.lft.to/lastmile_qr_scan"}, "lon": -77.23408183333333, "bike_id": "980b8f093bd3f1cf1f09631e5d273d0f", "type": "electric_bike", "name": "980b8f093bd3f1cf1f09631e5d273d0f"}, {"is_disabled": 0, "is_reserved": 0, "fusion_lat": 0.0, "lat": 38.914423166666666, "fusion_lon": 0.0, "rental_uris": {"ios": "https://dc.lft.to/lastmile_qr_scan", "android": "https://dc.lft.to/lastmile_qr_scan"}, "lon": -77.0228445, "bike_id": "4ef6b4ba6e07e877e79da27a3985b1a0", "type": "electric_scooter", "name": "4ef6b4ba6e07e877e79da27a3985b1a0"}, {"is_disabled": 0, "is_reserved": 0, "fusion_lat": 0.0, "lat": 38.88040566666667, "fusion_lon": 0.0, "rental_uris": {"ios": "https://dc.lft.to/lastmile_qr_scan", "android": "https://dc.lft.to/lastmile_qr_scan"}, "lon": -76.92718033333334, "bike_id": "049529f1d3f2a67d3069f0ceb476f295", "type": "electric_scooter", "name": "049529f1d3f2a67d3069f0ceb476f295"}, {"is_disabled": 0, "is_reserved": 0, "fusion_lat": 0.0, "lat": 38.8763305, "fusion_lon": 0.0, "rental_uris": {"ios": "https://dc.lft.to/lastmile_qr_scan", "android": "https://dc.lft.to/lastmile_qr_scan"}, "lon": -77.009556, "bike_id": "33b67cad66d2cdf18cda29256e493c0f", "type": "electric_scooter", "name": "33b67cad66d2cdf18cda29256e493c0f"}, {"is_disabled": 0, "is_reserved": 0, "fusion_lat": 0.0, "lat": 38.876552, "fusion_lon": 0.0, "rental_uris": {"ios": "https://dc.lft.to/lastmile_qr_scan", "android": "https://dc.lft.to/lastmile_qr_scan"}, "lon": -77.01580033333333, "bike_id": "f3617c180e2af63ee9d965b3f0ef8a3f", "type": "electric_scooter", "name": "f3617c180e2af63ee9d965b3f0ef8a3f"}, {"is_disabled": 0, "is_reserved": 0, "fusion_lat": 0.0, "lat": 38.9126505, "fusion_lon": 0.0, "rental_uris": {"ios": "https://dc.lft.to/lastmile_qr_scan", "android": "https://dc.lft.to/lastmile_qr_scan"}, "lon": -77.047112, "bike_id": "c79669ef3b86da77f2f063efab791d11", "type": "electric_scooter", "name": "c79669ef3b86da77f2f063efab791d11"}, {"is_disabled": 0, "is_reserved": 0, "fusion_lat": 0.0, "lat": 38.89601916666667, "fusion_lon": 0.0, "rental_uris": {"ios": "https://dc.lft.to/lastmile_qr_scan", "android": "https://dc.lft.to/lastmile_qr_scan"}, "lon": -76.98320166666667, "bike_id": "088306465bb14d72ddd8ac4879541d63", "type": "electric_scooter", "name": "088306465bb14d72ddd8ac4879541d63"}, {"is_disabled": 0, "is_reserved": 0, "fusion_lat": 0.0, "lat": 38.86888, "fusion_lon": 0.0, "rental_uris": {"ios": "https://dc.lft.to/lastmile_qr_scan", "android": "https://dc.lft.to/lastmile_qr_scan"}, "lon": -76.99000866666667, "bike_id": "f23c6dfc48d060a76d297e5dc1ee6846", "type": "electric_scooter", "name": "f23c6dfc48d060a76d297e5dc1ee6846"}, {"is_disabled": 0, "is_reserved": 0, "fusion_lat": 0.0, "lat": 38.923109833333335, "fusion_lon": 0.0, "rental_uris": {"ios": "https://dc.lft.to/lastmile_qr_scan", "android": "https://dc.lft.to/lastmile_qr_scan"}, "lon": -77.03798316666666, "bike_id": "9cc4abf035c7647a8a510ec6db166a68", "type": "electric_scooter", "name": "9cc4abf035c7647a8a510ec6db166a68"}, {"is_disabled": 0, "is_reserved": 0, "fusion_lat": 0.0, "lat": 38.91738683333333, "fusion_lon": 0.0, "rental_uris": {"ios": "https://dc.lft.to/lastmile_qr_scan", "android": "https://dc.lft.to/lastmile_qr_scan"}, "lon": -77.02613833333334, "bike_id": "e9ad21f42a97c5690597c41f4452d8e9", "type": "electric_scooter", "name": "e9ad21f42a97c5690597c41f4452d8e9"}, {"is_disabled": 0, "is_reserved": 0, "fusion_lat": 0.0, "lat": 38.90089616666667, "fusion_lon": 0.0, "rental_uris": {"ios": "https://dc.lft.to/lastmile_qr_scan", "android": "https://dc.lft.to/lastmile_qr_scan"}, "lon": -77.050727, "bike_id": "6542c683be0e69bec2ffe0e50970f997", "type": "electric_scooter", "name": "6542c683be0e69bec2ffe0e50970f997"}, {"is_disabled": 0, "is_reserved": 0, "fusion_lat": 0.0, "lat": 38.93527183333333, "fusion_lon": 0.0, "rental_uris": {"ios": "https://dc.lft.to/lastmile_qr_scan", "android": "https://dc.lft.to/lastmile_qr_scan"}, "lon": -77.02964016666667, "bike_id": "eb3d5dd62288807c4079c55125e8e993", "type": "electric_scooter", "name": "eb3d5dd62288807c4079c55125e8e993"}, {"is_disabled": 0, "is_reserved": 0, "fusion_lat": 0.0, "lat": 38.930623, "fusion_lon": 0.0, "rental_uris": {"ios": "https://dc.lft.to/lastmile_qr_scan", "android": "https://dc.lft.to/lastmile_qr_scan"}, "lon": -76.97328316666666, "bike_id": "861b931aa90ae195663dbd8b002a9708", "type": "electric_scooter", "name": "861b931aa90ae195663dbd8b002a9708"}, {"is_disabled": 0, "is_reserved": 0, "fusion_lat": 0.0, "lat": 38.89083083333333, "fusion_lon": 0.0, "rental_uris": {"ios": "https://dc.lft.to/lastmile_qr_scan", "android": "https://dc.lft.to/lastmile_qr_scan"}, "lon": -76.95469616666666, "bike_id": "a33876ab53e5042d0ee25d07e1510b2c", "type": "electric_bike", "name": "a33876ab53e5042d0ee25d07e1510b2c"}, {"is_disabled": 0, "is_reserved": 0, "fusion_lat": 0.0, "lat": 38.9563395, "fusion_lon": 0.0, "rental_uris": {"ios": "https://dc.lft.to/lastmile_qr_scan", "android": "https://dc.lft.to/lastmile_qr_scan"}, "lon": -77.0362875, "bike_id": "4ac586571541cdf10338d8a938e5d7db", "type": "electric_scooter", "name": "4ac586571541cdf10338d8a938e5d7db"}, {"is_disabled": 0, "is_reserved": 0, "fusion_lat": 0.0, "lat": 38.933459666666664, "fusion_lon": 0.0, "rental_uris": {"ios": "https://dc.lft.to/lastmile_qr_scan", "android": "https://dc.lft.to/lastmile_qr_scan"}, "lon": -77.019364, "bike_id": "d293e0b2c7c1117d6510e51a532ff25b", "type": "electric_scooter", "name": "d293e0b2c7c1117d6510e51a532ff25b"}, {"is_disabled": 0, "is_reserved": 0, "fusion_lat": 0.0, "lat": 38.917368333333336, "fusion_lon": 0.0, "rental_uris": {"ios": "https://dc.lft.to/lastmile_qr_scan", "android": "https://dc.lft.to/lastmile_qr_scan"}, "lon": -77.026102, "bike_id": "a4fd4064fc46fc5a6992c80aac603a26", "type": "electric_scooter", "name": "a4fd4064fc46fc5a6992c80aac603a26"}, {"is_disabled": 0, "is_reserved": 0, "fusion_lat": 0.0, "lat": 38.92741, "fusion_lon": 0.0, "rental_uris": {"ios": "https://dc.lft.to/lastmile_qr_scan", "android": "https://dc.lft.to/lastmile_qr_scan"}, "lon": -77.02280316666666, "bike_id": "fa691f51ba67809fb6559b46ff9bd32e", "type": "electric_scooter", "name": "fa691f51ba67809fb6559b46ff9bd32e"}, {"is_disabled": 0, "is_reserved": 0, "fusion_lat": 0.0, "lat": 38.906078, "fusion_lon": 0.0, "rental_uris": {"ios": "https://dc.lft.to/lastmile_qr_scan", "android": "https://dc.lft.to/lastmile_qr_scan"}, "lon": -77.021104, "bike_id": "e329dc221ac80fb8d7a8f5a22bbc2c71", "type": "electric_scooter", "name": "e329dc221ac80fb8d7a8f5a22bbc2c71"}, {"is_disabled": 0, "is_reserved": 0, "fusion_lat": 0.0, "lat": 38.925839333333336, "fusion_lon": 0.0, "rental_uris": {"ios": "https://dc.lft.to/lastmile_qr_scan", "android": "https://dc.lft.to/lastmile_qr_scan"}, "lon": -77.02495683333333, "bike_id": "18b8396c2638766024eb8282a9e6e7b4", "type": "electric_scooter", "name": "18b8396c2638766024eb8282a9e6e7b4"}, {"is_disabled": 0, "is_reserved": 0, "fusion_lat": 0.0, "lat": 38.903984666666666, "fusion_lon": 0.0, "rental_uris": {"ios": "https://dc.lft.to/lastmile_qr_scan", "android": "https://dc.lft.to/lastmile_qr_scan"}, "lon": -77.0629985, "bike_id": "12ceb8515070616b1c129ab7c56b6a72", "type": "electric_scooter", "name": "12ceb8515070616b1c129ab7c56b6a72"}, {"is_disabled": 0, "is_reserved": 0, "fusion_lat": 0.0, "lat": 38.9160445, "fusion_lon": 0.0, "rental_uris": {"ios": "https://dc.lft.to/lastmile_qr_scan", "android": "https://dc.lft.to/lastmile_qr_scan"}, "lon": -77.0230405, "bike_id": "c37d7ace5198ab5d112b8e7e44780d2a", "type": "electric_scooter", "name": "c37d7ace5198ab5d112b8e7e44780d2a"}, {"is_disabled": 0, "is_reserved": 0, "fusion_lat": 0.0, "lat": 38.928748166666665, "fusion_lon": 0.0, "rental_uris": {"ios": "https://dc.lft.to/lastmile_qr_scan", "android": "https://dc.lft.to/lastmile_qr_scan"}, "lon": -77.0399115, "bike_id": "3df6aa33f15db526857561d85af1b135", "type": "electric_scooter", "name": "3df6aa33f15db526857561d85af1b135"}, {"is_disabled": 0, "is_reserved": 0, "fusion_lat": 0.0, "lat": 38.93367166666667, "fusion_lon": 0.0, "rental_uris": {"ios": "https://dc.lft.to/lastmile_qr_scan", "android": "https://dc.lft.to/lastmile_qr_scan"}, "lon": -77.02851216666667, "bike_id": "283ac8461625095e44d663d219a3f032", "type": "electric_scooter", "name": "283ac8461625095e44d663d219a3f032"}, {"is_disabled": 0, "is_reserved": 0, "fusion_lat": 0.0, "lat": 38.90432416666667, "fusion_lon": 0.0, "rental_uris": {"ios": "https://dc.lft.to/lastmile_qr_scan", "android": "https://dc.lft.to/lastmile_qr_scan"}, "lon": -77.06108833333333, "bike_id": "078ab396c8ab1d5ba6bea624ba4a4936", "type": "electric_scooter", "name": "078ab396c8ab1d5ba6bea624ba4a4936"}, {"is_disabled": 0, "is_reserved": 0, "fusion_lat": 0.0, "lat": 38.916433, "fusion_lon": 0.0, "rental_uris": {"ios": "https://dc.lft.to/lastmile_qr_scan", "android": "https://dc.lft.to/lastmile_qr_scan"}, "lon": -77.02396083333333, "bike_id": "0591035d3a4c981412cc849c0e25a7c5", "type": "electric_scooter", "name": "0591035d3a4c981412cc849c0e25a7c5"}, {"is_disabled": 0, "is_reserved": 0, "fusion_lat": 0.0, "lat": 38.9195235, "fusion_lon": 0.0, "rental_uris": {"ios": "https://dc.lft.to/lastmile_qr_scan", "android": "https://dc.lft.to/lastmile_qr_scan"}, "lon": -77.02303666666667, "bike_id": "69b6d541e312e09562aebcb905a93402", "type": "electric_scooter", "name": "69b6d541e312e09562aebcb905a93402"}, {"is_disabled": 0, "is_reserved": 0, "fusion_lat": 0.0, "lat": 38.908118, "fusion_lon": 0.0, "rental_uris": {"ios": "https://dc.lft.to/lastmile_qr_scan", "android": "https://dc.lft.to/lastmile_qr_scan"}, "lon": -77.025318, "bike_id": "20a42765ab1aaf0bcbc93687d140d716", "type": "electric_scooter", "name": "20a42765ab1aaf0bcbc93687d140d716"}, {"is_disabled": 0, "is_reserved": 0, "fusion_lat": 0.0, "lat": 38.90652016666667, "fusion_lon": 0.0, "rental_uris": {"ios": "https://dc.lft.to/lastmile_qr_scan", "android": "https://dc.lft.to/lastmile_qr_scan"}, "lon": -76.97941533333334, "bike_id": "07d28849e10af47cb91d3b1309c8e6f1", "type": "electric_scooter", "name": "07d28849e10af47cb91d3b1309c8e6f1"}, {"is_disabled": 0, "is_reserved": 0, "fusion_lat": 0.0, "lat": 38.94447433333333, "fusion_lon": 0.0, "rental_uris": {"ios": "https://dc.lft.to/lastmile_qr_scan", "android": "https://dc.lft.to/lastmile_qr_scan"}, "lon": -77.03281766666667, "bike_id": "9e0c19efc5cdaba6cf0dde4eb41f7985", "type": "electric_scooter", "name": "9e0c19efc5cdaba6cf0dde4eb41f7985"}, {"is_disabled": 0, "is_reserved": 0, "fusion_lat": 0.0, "lat": 38.897208166666665, "fusion_lon": 0.0, "rental_uris": {"ios": "https://dc.lft.to/lastmile_qr_scan", "android": "https://dc.lft.to/lastmile_qr_scan"}, "lon": -77.0240085, "bike_id": "541c2ddcc5ed56a00106a2d9c6e95f0a", "type": "electric_scooter", "name": "541c2ddcc5ed56a00106a2d9c6e95f0a"}, {"is_disabled": 0, "is_reserved": 0, "fusion_lat": 0.0, "lat": 38.922231, "fusion_lon": 0.0, "rental_uris": {"ios": "https://dc.lft.to/lastmile_qr_scan", "android": "https://dc.lft.to/lastmile_qr_scan"}, "lon": -77.0350735, "bike_id": "6c098b043b5f4b05a0ad2b45e7c54d31", "type": "electric_scooter", "name": "6c098b043b5f4b05a0ad2b45e7c54d31"}, {"is_disabled": 0, "is_reserved": 0, "fusion_lat": 0.0, "lat": 38.909576, "fusion_lon": 0.0, "rental_uris": {"ios": "https://dc.lft.to/lastmile_qr_scan", "android": "https://dc.lft.to/lastmile_qr_scan"}, "lon": -77.02282183333334, "bike_id": "72f3066958e8c8e3f365c9ec6142fb80", "type": "electric_bike", "name": "72f3066958e8c8e3f365c9ec6142fb80"}, {"is_disabled": 0, "is_reserved": 0, "fusion_lat": 0.0, "lat": 38.9234425, "fusion_lon": 0.0, "rental_uris": {"ios": "https://dc.lft.to/lastmile_qr_scan", "android": "https://dc.lft.to/lastmile_qr_scan"}, "lon": -76.99857133333333, "bike_id": "ea2f9e2d4f652b046a69def87eaa7702", "type": "electric_scooter", "name": "ea2f9e2d4f652b046a69def87eaa7702"}, {"is_disabled": 0, "is_reserved": 0, "fusion_lat": 0.0, "lat": 38.8819485, "fusion_lon": 0.0, "rental_uris": {"ios": "https://dc.lft.to/lastmile_qr_scan", "android": "https://dc.lft.to/lastmile_qr_scan"}, "lon": -77.00902033333334, "bike_id": "fd0b7fa3aa80c3f1858f0aaecfc67d4f", "type": "electric_scooter", "name": "fd0b7fa3aa80c3f1858f0aaecfc67d4f"}, {"is_disabled": 0, "is_reserved": 0, "fusion_lat": 0.0, "lat": 38.86261283333333, "fusion_lon": 0.0, "rental_uris": {"ios": "https://dc.lft.to/lastmile_qr_scan", "android": "https://dc.lft.to/lastmile_qr_scan"}, "lon": -76.983496, "bike_id": "044d2a6f6fa17f3333eaa020f4fbb784", "type": "electric_bike", "name": "044d2a6f6fa17f3333eaa020f4fbb784"}, {"is_disabled": 0, "is_reserved": 0, "fusion_lat": 0.0, "lat": 38.91905583333333, "fusion_lon": 0.0, "rental_uris": {"ios": "https://dc.lft.to/lastmile_qr_scan", "android": "https://dc.lft.to/lastmile_qr_scan"}, "lon": -77.0599855, "bike_id": "9c5c6d9814a998f28d7d06dc30caae72", "type": "electric_bike", "name": "9c5c6d9814a998f28d7d06dc30caae72"}, {"is_disabled": 0, "is_reserved": 0, "fusion_lat": 0.0, "lat": 38.85494383333333, "fusion_lon": 0.0, "rental_uris": {"ios": "https://dc.lft.to/lastmile_qr_scan", "android": "https://dc.lft.to/lastmile_qr_scan"}, "lon": -77.12046666666667, "bike_id": "6b706cf750e03b5607daaa2f155ac4c7", "type": "electric_bike", "name": "6b706cf750e03b5607daaa2f155ac4c7"}, {"is_disabled": 0, "is_reserved": 0, "fusion_lat": 0.0, "lat": 38.874742499999996, "fusion_lon": 0.0, "rental_uris": {"ios": "https://dc.lft.to/lastmile_qr_scan", "android": "https://dc.lft.to/lastmile_qr_scan"}, "lon": -77.0051845, "bike_id": "5fe7007304797e78c165c08d2e8affbd", "type": "electric_scooter", "name": "5fe7007304797e78c165c08d2e8affbd"}, {"is_disabled": 0, "is_reserved": 0, "fusion_lat": 0.0, "lat": 38.89230466666667, "fusion_lon": 0.0, "rental_uris": {"ios": "https://dc.lft.to/lastmile_qr_scan", "android": "https://dc.lft.to/lastmile_qr_scan"}, "lon": -77.023842, "bike_id": "56d98ee397649a55317f6beb79e1262e", "type": "electric_scooter", "name": "56d98ee397649a55317f6beb79e1262e"}, {"is_disabled": 0, "is_reserved": 0, "fusion_lat": 0.0, "lat": 38.9216755, "fusion_lon": 0.0, "rental_uris": {"ios": "https://dc.lft.to/lastmile_qr_scan", "android": "https://dc.lft.to/lastmile_qr_scan"}, "lon": -77.018071, "bike_id": "69d83de9d3710a04cabfb12314c9e764", "type": "electric_scooter", "name": "69d83de9d3710a04cabfb12314c9e764"}, {"is_disabled": 0, "is_reserved": 0, "fusion_lat": 0.0, "lat": 38.94177466666667, "fusion_lon": 0.0, "rental_uris": {"ios": "https://dc.lft.to/lastmile_qr_scan", "android": "https://dc.lft.to/lastmile_qr_scan"}, "lon": -77.03394333333334, "bike_id": "ea60444dfaab58af281aacdcec5eeac1", "type": "electric_scooter", "name": "ea60444dfaab58af281aacdcec5eeac1"}, {"is_disabled": 0, "is_reserved": 0, "fusion_lat": 0.0, "lat": 38.915179333333334, "fusion_lon": 0.0, "rental_uris": {"ios": "https://dc.lft.to/lastmile_qr_scan", "android": "https://dc.lft.to/lastmile_qr_scan"}, "lon": -76.98373916666667, "bike_id": "64d16e18cd3d58df593f945281608c7e", "type": "electric_scooter", "name": "64d16e18cd3d58df593f945281608c7e"}, {"is_disabled": 0, "is_reserved": 0, "fusion_lat": 0.0, "lat": 38.929979, "fusion_lon": 0.0, "rental_uris": {"ios": "https://dc.lft.to/lastmile_qr_scan", "android": "https://dc.lft.to/lastmile_qr_scan"}, "lon": -77.038044, "bike_id": "12a8c609f5ac27f319ffdd559364d8dc", "type": "electric_scooter", "name": "12a8c609f5ac27f319ffdd559364d8dc"}, {"is_disabled": 0, "is_reserved": 0, "fusion_lat": 0.0, "lat": 38.914221833333336, "fusion_lon": 0.0, "rental_uris": {"ios": "https://dc.lft.to/lastmile_qr_scan", "android": "https://dc.lft.to/lastmile_qr_scan"}, "lon": -77.03305233333333, "bike_id": "5666e650cbd465e3e992b8abade9c866", "type": "electric_scooter", "name": "5666e650cbd465e3e992b8abade9c866"}, {"is_disabled": 0, "is_reserved": 0, "fusion_lat": 0.0, "lat": 38.956370666666665, "fusion_lon": 0.0, "rental_uris": {"ios": "https://dc.lft.to/lastmile_qr_scan", "android": "https://dc.lft.to/lastmile_qr_scan"}, "lon": -77.0362895, "bike_id": "c1eb5cb3ad8de3c933448eb8150024a7", "type": "electric_scooter", "name": "c1eb5cb3ad8de3c933448eb8150024a7"}, {"is_disabled": 0, "is_reserved": 0, "fusion_lat": 0.0, "lat": 38.926592666666664, "fusion_lon": 0.0, "rental_uris": {"ios": "https://dc.lft.to/lastmile_qr_scan", "android": "https://dc.lft.to/lastmile_qr_scan"}, "lon": -76.99295583333334, "bike_id": "b54688e7930eb0485907ba2537b94ab0", "type": "electric_scooter", "name": "b54688e7930eb0485907ba2537b94ab0"}, {"is_disabled": 0, "is_reserved": 0, "fusion_lat": 0.0, "lat": 38.8933375, "fusion_lon": 0.0, "rental_uris": {"ios": "https://dc.lft.to/lastmile_qr_scan", "android": "https://dc.lft.to/lastmile_qr_scan"}, "lon": -76.92890916666667, "bike_id": "3a70079149765e870b7bfffb78716159", "type": "electric_scooter", "name": "3a70079149765e870b7bfffb78716159"}, {"is_disabled": 0, "is_reserved": 0, "fusion_lat": 0.0, "lat": 38.933656166666665, "fusion_lon": 0.0, "rental_uris": {"ios": "https://dc.lft.to/lastmile_qr_scan", "android": "https://dc.lft.to/lastmile_qr_scan"}, "lon": -77.03883283333333, "bike_id": "d526671d81e8d39841f982b2a80f2ead", "type": "electric_scooter", "name": "d526671d81e8d39841f982b2a80f2ead"}, {"is_disabled": 0, "is_reserved": 0, "fusion_lat": 0.0, "lat": 39.010700166666666, "fusion_lon": 0.0, "rental_uris": {"ios": "https://dc.lft.to/lastmile_qr_scan", "android": "https://dc.lft.to/lastmile_qr_scan"}, "lon": -76.9223865, "bike_id": "a74723b7e9d201e43446f11c6f278d33", "type": "electric_bike", "name": "a74723b7e9d201e43446f11c6f278d33"}, {"is_disabled": 0, "is_reserved": 0, "fusion_lat": 0.0, "lat": 38.923212, "fusion_lon": 0.0, "rental_uris": {"ios": "https://dc.lft.to/lastmile_qr_scan", "android": "https://dc.lft.to/lastmile_qr_scan"}, "lon": -77.0391415, "bike_id": "4fa637d7d7226b6a2d12ec6ef22fb5f3", "type": "electric_scooter", "name": "4fa637d7d7226b6a2d12ec6ef22fb5f3"}, {"is_disabled": 0, "is_reserved": 0, "fusion_lat": 0.0, "lat": 38.91769683333333, "fusion_lon": 0.0, "rental_uris": {"ios": "https://dc.lft.to/lastmile_qr_scan", "android": "https://dc.lft.to/lastmile_qr_scan"}, "lon": -77.03189366666666, "bike_id": "875e1648138858e9feabae6a4459cdfd", "type": "electric_scooter", "name": "875e1648138858e9feabae6a4459cdfd"}, {"is_disabled": 0, "is_reserved": 0, "fusion_lat": 0.0, "lat": 38.88273016666667, "fusion_lon": 0.0, "rental_uris": {"ios": "https://dc.lft.to/lastmile_qr_scan", "android": "https://dc.lft.to/lastmile_qr_scan"}, "lon": -77.00650966666667, "bike_id": "10779a119c3bfb4ed88aa3188aa397c3", "type": "electric_scooter", "name": "10779a119c3bfb4ed88aa3188aa397c3"}, {"is_disabled": 0, "is_reserved": 0, "fusion_lat": 0.0, "lat": 38.901496333333334, "fusion_lon": 0.0, "rental_uris": {"ios": "https://dc.lft.to/lastmile_qr_scan", "android": "https://dc.lft.to/lastmile_qr_scan"}, "lon": -76.985594, "bike_id": "2e95ad8879b45da30a404329f3f33913", "type": "electric_scooter", "name": "2e95ad8879b45da30a404329f3f33913"}, {"is_disabled": 0, "is_reserved": 0, "fusion_lat": 0.0, "lat": 38.981443166666665, "fusion_lon": 0.0, "rental_uris": {"ios": "https://dc.lft.to/lastmile_qr_scan", "android": "https://dc.lft.to/lastmile_qr_scan"}, "lon": -77.00772166666667, "bike_id": "52e5347411205c24ef1b76b9206e7e72", "type": "electric_bike", "name": "52e5347411205c24ef1b76b9206e7e72"}, {"is_disabled": 0, "is_reserved": 0, "fusion_lat": 0.0, "lat": 38.87845866666667, "fusion_lon": 0.0, "rental_uris": {"ios": "https://dc.lft.to/lastmile_qr_scan", "android": "https://dc.lft.to/lastmile_qr_scan"}, "lon": -76.93127283333334, "bike_id": "a3ead4ca05cfdd681643914115ea5ed1", "type": "electric_scooter", "name": "a3ead4ca05cfdd681643914115ea5ed1"}, {"is_disabled": 0, "is_reserved": 0, "fusion_lat": 0.0, "lat": 38.912697, "fusion_lon": 0.0, "rental_uris": {"ios": "https://dc.lft.to/lastmile_qr_scan", "android": "https://dc.lft.to/lastmile_qr_scan"}, "lon": -77.00504716666667, "bike_id": "f0a0475df3e2bddc61acfbec456828a0", "type": "electric_scooter", "name": "f0a0475df3e2bddc61acfbec456828a0"}, {"is_disabled": 0, "is_reserved": 0, "fusion_lat": 0.0, "lat": 38.883008333333336, "fusion_lon": 0.0, "rental_uris": {"ios": "https://dc.lft.to/lastmile_qr_scan", "android": "https://dc.lft.to/lastmile_qr_scan"}, "lon": -77.0256035, "bike_id": "388ff233f5e2e46cf12393d46b02a1c8", "type": "electric_scooter", "name": "388ff233f5e2e46cf12393d46b02a1c8"}, {"is_disabled": 0, "is_reserved": 0, "fusion_lat": 0.0, "lat": 38.842829, "fusion_lon": 0.0, "rental_uris": {"ios": "https://dc.lft.to/lastmile_qr_scan", "android": "https://dc.lft.to/lastmile_qr_scan"}, "lon": -76.988376, "bike_id": "ed58916d61f76bc12c1dfeefce2d51cd", "type": "electric_bike", "name": "ed58916d61f76bc12c1dfeefce2d51cd"}, {"is_disabled": 0, "is_reserved": 0, "fusion_lat": 0.0, "lat": 38.8856285, "fusion_lon": 0.0, "rental_uris": {"ios": "https://dc.lft.to/lastmile_qr_scan", "android": "https://dc.lft.to/lastmile_qr_scan"}, "lon": -77.01982366666667, "bike_id": "baf691a97bf58e1e2e77643c25cfa783", "type": "electric_scooter", "name": "baf691a97bf58e1e2e77643c25cfa783"}, {"is_disabled": 0, "is_reserved": 0, "fusion_lat": 0.0, "lat": 38.945899, "fusion_lon": 0.0, "rental_uris": {"ios": "https://dc.lft.to/lastmile_qr_scan", "android": "https://dc.lft.to/lastmile_qr_scan"}, "lon": -77.02033416666667, "bike_id": "fa0bc7918c8e932eb9eb4e8a4ae10f91", "type": "electric_scooter", "name": "fa0bc7918c8e932eb9eb4e8a4ae10f91"}, {"is_disabled": 0, "is_reserved": 0, "fusion_lat": 0.0, "lat": 38.80678666666667, "fusion_lon": 0.0, "rental_uris": {"ios": "https://dc.lft.to/lastmile_qr_scan", "android": "https://dc.lft.to/lastmile_qr_scan"}, "lon": -77.06923383333333, "bike_id": "edddc9f25699fb76f680c03f1101d312", "type": "electric_bike", "name": "edddc9f25699fb76f680c03f1101d312"}, {"is_disabled": 0, "is_reserved": 0, "fusion_lat": 0.0, "lat": 38.92377483333333, "fusion_lon": 0.0, "rental_uris": {"ios": "https://dc.lft.to/lastmile_qr_scan", "android": "https://dc.lft.to/lastmile_qr_scan"}, "lon": -77.0402575, "bike_id": "d047c6fae7883a6eb5db6b37227493f2", "type": "electric_scooter", "name": "d047c6fae7883a6eb5db6b37227493f2"}, {"is_disabled": 0, "is_reserved": 0, "fusion_lat": 0.0, "lat": 38.910471, "fusion_lon": 0.0, "rental_uris": {"ios": "https://dc.lft.to/lastmile_qr_scan", "android": "https://dc.lft.to/lastmile_qr_scan"}, "lon": -77.01509033333333, "bike_id": "8522c10c0ac0d0639f9881470120e825", "type": "electric_scooter", "name": "8522c10c0ac0d0639f9881470120e825"}, {"is_disabled": 0, "is_reserved": 0, "fusion_lat": 0.0, "lat": 38.934267, "fusion_lon": 0.0, "rental_uris": {"ios": "https://dc.lft.to/lastmile_qr_scan", "android": "https://dc.lft.to/lastmile_qr_scan"}, "lon": -77.0431165, "bike_id": "98990860df879d97e4cb88a37f40e61d", "type": "electric_scooter", "name": "98990860df879d97e4cb88a37f40e61d"}, {"is_disabled": 0, "is_reserved": 0, "fusion_lat": 0.0, "lat": 38.90959466666666, "fusion_lon": 0.0, "rental_uris": {"ios": "https://dc.lft.to/lastmile_qr_scan", "android": "https://dc.lft.to/lastmile_qr_scan"}, "lon": -77.04566033333333, "bike_id": "7ea061ec49b5f020cb4a684082b1ecb8", "type": "electric_scooter", "name": "7ea061ec49b5f020cb4a684082b1ecb8"}, {"is_disabled": 0, "is_reserved": 0, "fusion_lat": 0.0, "lat": 38.90654683333333, "fusion_lon": 0.0, "rental_uris": {"ios": "https://dc.lft.to/lastmile_qr_scan", "android": "https://dc.lft.to/lastmile_qr_scan"}, "lon": -77.04547683333334, "bike_id": "e316f2e9e88f99a352899d946adf193f", "type": "electric_scooter", "name": "e316f2e9e88f99a352899d946adf193f"}, {"is_disabled": 0, "is_reserved": 0, "fusion_lat": 0.0, "lat": 38.9463235, "fusion_lon": 0.0, "rental_uris": {"ios": "https://dc.lft.to/lastmile_qr_scan", "android": "https://dc.lft.to/lastmile_qr_scan"}, "lon": -77.0184325, "bike_id": "288ee654dee5f422715305bd44fa8742", "type": "electric_scooter", "name": "288ee654dee5f422715305bd44fa8742"}, {"is_disabled": 0, "is_reserved": 0, "fusion_lat": 0.0, "lat": 38.90297066666667, "fusion_lon": 0.0, "rental_uris": {"ios": "https://dc.lft.to/lastmile_qr_scan", "android": "https://dc.lft.to/lastmile_qr_scan"}, "lon": -77.0122125, "bike_id": "01908a564404ef3cfc33e9dad8de44e7", "type": "electric_scooter", "name": "01908a564404ef3cfc33e9dad8de44e7"}, {"is_disabled": 0, "is_reserved": 0, "fusion_lat": 0.0, "lat": 38.92430683333333, "fusion_lon": 0.0, "rental_uris": {"ios": "https://dc.lft.to/lastmile_qr_scan", "android": "https://dc.lft.to/lastmile_qr_scan"}, "lon": -77.01951733333334, "bike_id": "71b43d1f28981fcdaed747f058e81bfb", "type": "electric_scooter", "name": "71b43d1f28981fcdaed747f058e81bfb"}, {"is_disabled": 0, "is_reserved": 0, "fusion_lat": 0.0, "lat": 38.89935883333333, "fusion_lon": 0.0, "rental_uris": {"ios": "https://dc.lft.to/lastmile_qr_scan", "android": "https://dc.lft.to/lastmile_qr_scan"}, "lon": -76.93759516666667, "bike_id": "12136ed195ef35fd0275b221ff8549f1", "type": "electric_scooter", "name": "12136ed195ef35fd0275b221ff8549f1"}, {"is_disabled": 0, "is_reserved": 0, "fusion_lat": 0.0, "lat": 38.9174595, "fusion_lon": 0.0, "rental_uris": {"ios": "https://dc.lft.to/lastmile_qr_scan", "android": "https://dc.lft.to/lastmile_qr_scan"}, "lon": -77.01081016666667, "bike_id": "9c526700b8807dcd68b027ed8684fbdf", "type": "electric_scooter", "name": "9c526700b8807dcd68b027ed8684fbdf"}, {"is_disabled": 0, "is_reserved": 0, "fusion_lat": 0.0, "lat": 38.870854333333334, "fusion_lon": 0.0, "rental_uris": {"ios": "https://dc.lft.to/lastmile_qr_scan", "android": "https://dc.lft.to/lastmile_qr_scan"}, "lon": -77.01080566666667, "bike_id": "683d38189441a897b048e908cbc73552", "type": "electric_scooter", "name": "683d38189441a897b048e908cbc73552"}, {"is_disabled": 0, "is_reserved": 0, "fusion_lat": 0.0, "lat": 38.92827233333333, "fusion_lon": 0.0, "rental_uris": {"ios": "https://dc.lft.to/lastmile_qr_scan", "android": "https://dc.lft.to/lastmile_qr_scan"}, "lon": -77.05971883333333, "bike_id": "2a0c4ab5da4885c44dbb00baef732db7", "type": "electric_bike", "name": "2a0c4ab5da4885c44dbb00baef732db7"}, {"is_disabled": 0, "is_reserved": 0, "fusion_lat": 0.0, "lat": 38.876221666666666, "fusion_lon": 0.0, "rental_uris": {"ios": "https://dc.lft.to/lastmile_qr_scan", "android": "https://dc.lft.to/lastmile_qr_scan"}, "lon": -77.002023, "bike_id": "e31fe101143804aa6ebba014ab301011", "type": "electric_scooter", "name": "e31fe101143804aa6ebba014ab301011"}, {"is_disabled": 0, "is_reserved": 0, "fusion_lat": 0.0, "lat": 38.91806866666667, "fusion_lon": 0.0, "rental_uris": {"ios": "https://dc.lft.to/lastmile_qr_scan", "android": "https://dc.lft.to/lastmile_qr_scan"}, "lon": -77.00003733333334, "bike_id": "267b2ca943a295cdac055cf2183711a6", "type": "electric_scooter", "name": "267b2ca943a295cdac055cf2183711a6"}, {"is_disabled": 0, "is_reserved": 0, "fusion_lat": 0.0, "lat": 38.91180833333333, "fusion_lon": 0.0, "rental_uris": {"ios": "https://dc.lft.to/lastmile_qr_scan", "android": "https://dc.lft.to/lastmile_qr_scan"}, "lon": -77.01209483333334, "bike_id": "640d76d0d291d85fc1b01588db8cfc62", "type": "electric_scooter", "name": "640d76d0d291d85fc1b01588db8cfc62"}, {"is_disabled": 0, "is_reserved": 0, "fusion_lat": 0.0, "lat": 38.889763, "fusion_lon": 0.0, "rental_uris": {"ios": "https://dc.lft.to/lastmile_qr_scan", "android": "https://dc.lft.to/lastmile_qr_scan"}, "lon": -76.98178633333333, "bike_id": "effaa77fff8225038b12930e5438fdd3", "type": "electric_scooter", "name": "effaa77fff8225038b12930e5438fdd3"}, {"is_disabled": 0, "is_reserved": 0, "fusion_lat": 0.0, "lat": 38.881903333333334, "fusion_lon": 0.0, "rental_uris": {"ios": "https://dc.lft.to/lastmile_qr_scan", "android": "https://dc.lft.to/lastmile_qr_scan"}, "lon": -77.00354933333334, "bike_id": "ece6ba6d3c80bd92de4eb8111464e0e6", "type": "electric_scooter", "name": "ece6ba6d3c80bd92de4eb8111464e0e6"}, {"is_disabled": 0, "is_reserved": 0, "fusion_lat": 0.0, "lat": 38.8884625, "fusion_lon": 0.0, "rental_uris": {"ios": "https://dc.lft.to/lastmile_qr_scan", "android": "https://dc.lft.to/lastmile_qr_scan"}, "lon": -77.04898866666667, "bike_id": "8e8075f3cadfbf8f9c7617c296d7ba89", "type": "electric_scooter", "name": "8e8075f3cadfbf8f9c7617c296d7ba89"}, {"is_disabled": 0, "is_reserved": 0, "fusion_lat": 0.0, "lat": 38.906538166666664, "fusion_lon": 0.0, "rental_uris": {"ios": "https://dc.lft.to/lastmile_qr_scan", "android": "https://dc.lft.to/lastmile_qr_scan"}, "lon": -77.01171733333334, "bike_id": "6643d6efe052481cd118c0658d30fa0d", "type": "electric_scooter", "name": "6643d6efe052481cd118c0658d30fa0d"}, {"is_disabled": 0, "is_reserved": 0, "fusion_lat": 0.0, "lat": 38.91810516666666, "fusion_lon": 0.0, "rental_uris": {"ios": "https://dc.lft.to/lastmile_qr_scan", "android": "https://dc.lft.to/lastmile_qr_scan"}, "lon": -77.0344205, "bike_id": "c79d1e8959b8401735deda42794c5b1c", "type": "electric_scooter", "name": "c79d1e8959b8401735deda42794c5b1c"}, {"is_disabled": 0, "is_reserved": 0, "fusion_lat": 0.0, "lat": 38.80401333333333, "fusion_lon": 0.0, "rental_uris": {"ios": "https://dc.lft.to/lastmile_qr_scan", "android": "https://dc.lft.to/lastmile_qr_scan"}, "lon": -77.11334616666667, "bike_id": "acac9f522356dbd686acda24d064985e", "type": "electric_bike", "name": "acac9f522356dbd686acda24d064985e"}, {"is_disabled": 0, "is_reserved": 0, "fusion_lat": 0.0, "lat": 38.96155433333333, "fusion_lon": 0.0, "rental_uris": {"ios": "https://dc.lft.to/lastmile_qr_scan", "android": "https://dc.lft.to/lastmile_qr_scan"}, "lon": -77.02783616666666, "bike_id": "ec4d5548fb4dfc91b3b3cf4f3101d1f0", "type": "electric_scooter", "name": "ec4d5548fb4dfc91b3b3cf4f3101d1f0"}, {"is_disabled": 0, "is_reserved": 0, "fusion_lat": 0.0, "lat": 38.932647, "fusion_lon": 0.0, "rental_uris": {"ios": "https://dc.lft.to/lastmile_qr_scan", "android": "https://dc.lft.to/lastmile_qr_scan"}, "lon": -77.02099583333333, "bike_id": "12f683419b92bd6e1c4ba6635b6aa789", "type": "electric_scooter", "name": "12f683419b92bd6e1c4ba6635b6aa789"}, {"is_disabled": 0, "is_reserved": 0, "fusion_lat": 0.0, "lat": 38.941394333333335, "fusion_lon": 0.0, "rental_uris": {"ios": "https://dc.lft.to/lastmile_qr_scan", "android": "https://dc.lft.to/lastmile_qr_scan"}, "lon": -77.02328183333333, "bike_id": "96dc9df091f8b5e3e848f18298dbdd72", "type": "electric_scooter", "name": "96dc9df091f8b5e3e848f18298dbdd72"}, {"is_disabled": 0, "is_reserved": 0, "fusion_lat": 0.0, "lat": 38.85596016666667, "fusion_lon": 0.0, "rental_uris": {"ios": "https://dc.lft.to/lastmile_qr_scan", "android": "https://dc.lft.to/lastmile_qr_scan"}, "lon": -76.9728665, "bike_id": "08a5e51ac33dd82341c715352582d8b1", "type": "electric_bike", "name": "08a5e51ac33dd82341c715352582d8b1"}, {"is_disabled": 0, "is_reserved": 0, "fusion_lat": 0.0, "lat": 38.920259, "fusion_lon": 0.0, "rental_uris": {"ios": "https://dc.lft.to/lastmile_qr_scan", "android": "https://dc.lft.to/lastmile_qr_scan"}, "lon": -77.01125133333333, "bike_id": "8294d7e860dc7087e9330ae532d51ef9", "type": "electric_scooter", "name": "8294d7e860dc7087e9330ae532d51ef9"}, {"is_disabled": 0, "is_reserved": 0, "fusion_lat": 0.0, "lat": 38.90802983333333, "fusion_lon": 0.0, "rental_uris": {"ios": "https://dc.lft.to/lastmile_qr_scan", "android": "https://dc.lft.to/lastmile_qr_scan"}, "lon": -77.0384245, "bike_id": "01a2ed9a182909e948d336aec8725b3a", "type": "electric_scooter", "name": "01a2ed9a182909e948d336aec8725b3a"}, {"is_disabled": 0, "is_reserved": 0, "fusion_lat": 0.0, "lat": 38.9305665, "fusion_lon": 0.0, "rental_uris": {"ios": "https://dc.lft.to/lastmile_qr_scan", "android": "https://dc.lft.to/lastmile_qr_scan"}, "lon": -77.0266495, "bike_id": "f207896ab8865f011acb8d482b555c8e", "type": "electric_scooter", "name": "f207896ab8865f011acb8d482b555c8e"}, {"is_disabled": 0, "is_reserved": 0, "fusion_lat": 0.0, "lat": 39.074375, "fusion_lon": 0.0, "rental_uris": {"ios": "https://dc.lft.to/lastmile_qr_scan", "android": "https://dc.lft.to/lastmile_qr_scan"}, "lon": -77.1151795, "bike_id": "e1a4ec66aac47f4152ec04b5de2989fc", "type": "electric_bike", "name": "e1a4ec66aac47f4152ec04b5de2989fc"}, {"is_disabled": 0, "is_reserved": 0, "fusion_lat": 0.0, "lat": 38.92355666666667, "fusion_lon": 0.0, "rental_uris": {"ios": "https://dc.lft.to/lastmile_qr_scan", "android": "https://dc.lft.to/lastmile_qr_scan"}, "lon": -77.02446266666666, "bike_id": "ab0ce1274c34d54dda06e2aabc03597d", "type": "electric_scooter", "name": "ab0ce1274c34d54dda06e2aabc03597d"}, {"is_disabled": 0, "is_reserved": 0, "fusion_lat": 0.0, "lat": 38.918235333333335, "fusion_lon": 0.0, "rental_uris": {"ios": "https://dc.lft.to/lastmile_qr_scan", "android": "https://dc.lft.to/lastmile_qr_scan"}, "lon": -77.0121055, "bike_id": "f5b924a3ad4f5d42f2bee27b576107ed", "type": "electric_scooter", "name": "f5b924a3ad4f5d42f2bee27b576107ed"}, {"is_disabled": 0, "is_reserved": 0, "fusion_lat": 0.0, "lat": 38.88449166666667, "fusion_lon": 0.0, "rental_uris": {"ios": "https://dc.lft.to/lastmile_qr_scan", "android": "https://dc.lft.to/lastmile_qr_scan"}, "lon": -77.02993683333334, "bike_id": "57dbecca671898d01858af757f926f5a", "type": "electric_scooter", "name": "57dbecca671898d01858af757f926f5a"}, {"is_disabled": 0, "is_reserved": 0, "fusion_lat": 0.0, "lat": 38.9290835, "fusion_lon": 0.0, "rental_uris": {"ios": "https://dc.lft.to/lastmile_qr_scan", "android": "https://dc.lft.to/lastmile_qr_scan"}, "lon": -77.05987, "bike_id": "e80c6ac2015fa320a03dcc882a8a272c", "type": "electric_scooter", "name": "e80c6ac2015fa320a03dcc882a8a272c"}, {"is_disabled": 0, "is_reserved": 0, "fusion_lat": 0.0, "lat": 38.907169, "fusion_lon": 0.0, "rental_uris": {"ios": "https://dc.lft.to/lastmile_qr_scan", "android": "https://dc.lft.to/lastmile_qr_scan"}, "lon": -77.02567683333334, "bike_id": "1d3807885b5bd7aede8b9616e9182278", "type": "electric_scooter", "name": "1d3807885b5bd7aede8b9616e9182278"}, {"is_disabled": 0, "is_reserved": 0, "fusion_lat": 0.0, "lat": 38.908346333333334, "fusion_lon": 0.0, "rental_uris": {"ios": "https://dc.lft.to/lastmile_qr_scan", "android": "https://dc.lft.to/lastmile_qr_scan"}, "lon": -77.00073033333334, "bike_id": "04df6d6f0f8f62ee2aa50fe4a3ffa7ba", "type": "electric_scooter", "name": "04df6d6f0f8f62ee2aa50fe4a3ffa7ba"}, {"is_disabled": 0, "is_reserved": 0, "fusion_lat": 0.0, "lat": 38.884478666666666, "fusion_lon": 0.0, "rental_uris": {"ios": "https://dc.lft.to/lastmile_qr_scan", "android": "https://dc.lft.to/lastmile_qr_scan"}, "lon": -77.00899316666667, "bike_id": "1dfff5b6b1b8051ca4d36bf30aa484f2", "type": "electric_scooter", "name": "1dfff5b6b1b8051ca4d36bf30aa484f2"}, {"is_disabled": 0, "is_reserved": 0, "fusion_lat": 0.0, "lat": 38.88401666666667, "fusion_lon": 0.0, "rental_uris": {"ios": "https://dc.lft.to/lastmile_qr_scan", "android": "https://dc.lft.to/lastmile_qr_scan"}, "lon": -76.9304075, "bike_id": "6c5f87254b2e9b081441b8ba1cb590c8", "type": "electric_scooter", "name": "6c5f87254b2e9b081441b8ba1cb590c8"}, {"is_disabled": 0, "is_reserved": 0, "fusion_lat": 0.0, "lat": 38.8837485, "fusion_lon": 0.0, "rental_uris": {"ios": "https://dc.lft.to/lastmile_qr_scan", "android": "https://dc.lft.to/lastmile_qr_scan"}, "lon": -76.923716, "bike_id": "cbd82ed92f3072684f8f94e21ac4b0ae", "type": "electric_bike", "name": "cbd82ed92f3072684f8f94e21ac4b0ae"}, {"is_disabled": 0, "is_reserved": 0, "fusion_lat": 0.0, "lat": 38.858967666666665, "fusion_lon": 0.0, "rental_uris": {"ios": "https://dc.lft.to/lastmile_qr_scan", "android": "https://dc.lft.to/lastmile_qr_scan"}, "lon": -77.09551383333333, "bike_id": "b231c2d02abb535d23392bc8af4fc75c", "type": "electric_bike", "name": "b231c2d02abb535d23392bc8af4fc75c"}, {"is_disabled": 0, "is_reserved": 0, "fusion_lat": 0.0, "lat": 38.957036333333335, "fusion_lon": 0.0, "rental_uris": {"ios": "https://dc.lft.to/lastmile_qr_scan", "android": "https://dc.lft.to/lastmile_qr_scan"}, "lon": -77.359739, "bike_id": "d599b12d69f2d38c4e7670c471d64b8b", "type": "electric_bike", "name": "d599b12d69f2d38c4e7670c471d64b8b"}, {"is_disabled": 0, "is_reserved": 0, "fusion_lat": 0.0, "lat": 38.92099016666667, "fusion_lon": 0.0, "rental_uris": {"ios": "https://dc.lft.to/lastmile_qr_scan", "android": "https://dc.lft.to/lastmile_qr_scan"}, "lon": -77.03943266666667, "bike_id": "5fa09588c9ab45ffe3e6183db3f750e2", "type": "electric_scooter", "name": "5fa09588c9ab45ffe3e6183db3f750e2"}, {"is_disabled": 0, "is_reserved": 0, "fusion_lat": 0.0, "lat": 39.08436433333333, "fusion_lon": 0.0, "rental_uris": {"ios": "https://dc.lft.to/lastmile_qr_scan", "android": "https://dc.lft.to/lastmile_qr_scan"}, "lon": -76.95138766666666, "bike_id": "36ea9fbc2246781a5af9401347371438", "type": "electric_bike", "name": "36ea9fbc2246781a5af9401347371438"}, {"is_disabled": 0, "is_reserved": 0, "fusion_lat": 0.0, "lat": 38.9003875, "fusion_lon": 0.0, "rental_uris": {"ios": "https://dc.lft.to/lastmile_qr_scan", "android": "https://dc.lft.to/lastmile_qr_scan"}, "lon": -77.00627983333334, "bike_id": "f249f662c5a81ee192dcc78543c1479d", "type": "electric_scooter", "name": "f249f662c5a81ee192dcc78543c1479d"}, {"is_disabled": 0, "is_reserved": 0, "fusion_lat": 0.0, "lat": 38.92722066666666, "fusion_lon": 0.0, "rental_uris": {"ios": "https://dc.lft.to/lastmile_qr_scan", "android": "https://dc.lft.to/lastmile_qr_scan"}, "lon": -77.02309683333333, "bike_id": "9e7c362c1cfc6578f1f937cf4630808c", "type": "electric_scooter", "name": "9e7c362c1cfc6578f1f937cf4630808c"}, {"is_disabled": 0, "is_reserved": 0, "fusion_lat": 0.0, "lat": 38.937355833333335, "fusion_lon": 0.0, "rental_uris": {"ios": "https://dc.lft.to/lastmile_qr_scan", "android": "https://dc.lft.to/lastmile_qr_scan"}, "lon": -77.07357616666667, "bike_id": "14f1a04db1579ada6a0102b9276531de", "type": "electric_scooter", "name": "14f1a04db1579ada6a0102b9276531de"}, {"is_disabled": 0, "is_reserved": 0, "fusion_lat": 0.0, "lat": 38.92471183333333, "fusion_lon": 0.0, "rental_uris": {"ios": "https://dc.lft.to/lastmile_qr_scan", "android": "https://dc.lft.to/lastmile_qr_scan"}, "lon": -77.0299035, "bike_id": "817a06483dc2eff927e14c589f0cb35c", "type": "electric_scooter", "name": "817a06483dc2eff927e14c589f0cb35c"}, {"is_disabled": 0, "is_reserved": 0, "fusion_lat": 0.0, "lat": 38.921623833333335, "fusion_lon": 0.0, "rental_uris": {"ios": "https://dc.lft.to/lastmile_qr_scan", "android": "https://dc.lft.to/lastmile_qr_scan"}, "lon": -77.03659383333333, "bike_id": "90f0050cd814c7ebcacdb29caaf32ac5", "type": "electric_scooter", "name": "90f0050cd814c7ebcacdb29caaf32ac5"}, {"is_disabled": 0, "is_reserved": 0, "fusion_lat": 0.0, "lat": 38.89647683333333, "fusion_lon": 0.0, "rental_uris": {"ios": "https://dc.lft.to/lastmile_qr_scan", "android": "https://dc.lft.to/lastmile_qr_scan"}, "lon": -77.0216095, "bike_id": "19c58145f444425deb44ad8aa8578c9f", "type": "electric_scooter", "name": "19c58145f444425deb44ad8aa8578c9f"}, {"is_disabled": 0, "is_reserved": 0, "fusion_lat": 0.0, "lat": 38.920195166666666, "fusion_lon": 0.0, "rental_uris": {"ios": "https://dc.lft.to/lastmile_qr_scan", "android": "https://dc.lft.to/lastmile_qr_scan"}, "lon": -77.03641266666666, "bike_id": "efde12b876b81793b4e389e2a72327fe", "type": "electric_scooter", "name": "efde12b876b81793b4e389e2a72327fe"}, {"is_disabled": 0, "is_reserved": 0, "fusion_lat": 0.0, "lat": 38.915499833333335, "fusion_lon": 0.0, "rental_uris": {"ios": "https://dc.lft.to/lastmile_qr_scan", "android": "https://dc.lft.to/lastmile_qr_scan"}, "lon": -77.05410933333333, "bike_id": "e88e9e0fb331dc9bc6e8512cf9e4a651", "type": "electric_scooter", "name": "e88e9e0fb331dc9bc6e8512cf9e4a651"}, {"is_disabled": 0, "is_reserved": 0, "fusion_lat": 0.0, "lat": 38.90500883333333, "fusion_lon": 0.0, "rental_uris": {"ios": "https://dc.lft.to/lastmile_qr_scan", "android": "https://dc.lft.to/lastmile_qr_scan"}, "lon": -77.02948033333334, "bike_id": "3776fbd57eb0643f070b45b1e968158f", "type": "electric_scooter", "name": "3776fbd57eb0643f070b45b1e968158f"}, {"is_disabled": 0, "is_reserved": 0, "fusion_lat": 0.0, "lat": 38.91203133333333, "fusion_lon": 0.0, "rental_uris": {"ios": "https://dc.lft.to/lastmile_qr_scan", "android": "https://dc.lft.to/lastmile_qr_scan"}, "lon": -77.02101883333333, "bike_id": "a9d445d4d2b99de22601d8342e69b8f3", "type": "electric_scooter", "name": "a9d445d4d2b99de22601d8342e69b8f3"}, {"is_disabled": 0, "is_reserved": 0, "fusion_lat": 0.0, "lat": 38.83865433333333, "fusion_lon": 0.0, "rental_uris": {"ios": "https://dc.lft.to/lastmile_qr_scan", "android": "https://dc.lft.to/lastmile_qr_scan"}, "lon": -76.99702516666666, "bike_id": "64d81e109a0c164e4a05a45658709108", "type": "electric_bike", "name": "64d81e109a0c164e4a05a45658709108"}, {"is_disabled": 0, "is_reserved": 0, "fusion_lat": 0.0, "lat": 38.9245945, "fusion_lon": 0.0, "rental_uris": {"ios": "https://dc.lft.to/lastmile_qr_scan", "android": "https://dc.lft.to/lastmile_qr_scan"}, "lon": -77.0575665, "bike_id": "24099d9d8470e45525b21b9adb64e69a", "type": "electric_scooter", "name": "24099d9d8470e45525b21b9adb64e69a"}, {"is_disabled": 0, "is_reserved": 0, "fusion_lat": 0.0, "lat": 38.911833333333334, "fusion_lon": 0.0, "rental_uris": {"ios": "https://dc.lft.to/lastmile_qr_scan", "android": "https://dc.lft.to/lastmile_qr_scan"}, "lon": -77.01081566666667, "bike_id": "ec2223c793f3a96371a79fc7140cd9a2", "type": "electric_scooter", "name": "ec2223c793f3a96371a79fc7140cd9a2"}, {"is_disabled": 0, "is_reserved": 0, "fusion_lat": 0.0, "lat": 38.92863283333333, "fusion_lon": 0.0, "rental_uris": {"ios": "https://dc.lft.to/lastmile_qr_scan", "android": "https://dc.lft.to/lastmile_qr_scan"}, "lon": -77.03043916666667, "bike_id": "18c0c89ea266aebae30afcc086e24808", "type": "electric_scooter", "name": "18c0c89ea266aebae30afcc086e24808"}, {"is_disabled": 0, "is_reserved": 0, "fusion_lat": 0.0, "lat": 38.90522566666667, "fusion_lon": 0.0, "rental_uris": {"ios": "https://dc.lft.to/lastmile_qr_scan", "android": "https://dc.lft.to/lastmile_qr_scan"}, "lon": -77.04848816666667, "bike_id": "a5e8dd189b0f4b2c03ac3de1ee6ab9b8", "type": "electric_scooter", "name": "a5e8dd189b0f4b2c03ac3de1ee6ab9b8"}, {"is_disabled": 0, "is_reserved": 0, "fusion_lat": 0.0, "lat": 38.88716516666667, "fusion_lon": 0.0, "rental_uris": {"ios": "https://dc.lft.to/lastmile_qr_scan", "android": "https://dc.lft.to/lastmile_qr_scan"}, "lon": -77.03177833333334, "bike_id": "9dda75fb5ab9ee7b583cf5dc14216acc", "type": "electric_scooter", "name": "9dda75fb5ab9ee7b583cf5dc14216acc"}, {"is_disabled": 0, "is_reserved": 0, "fusion_lat": 0.0, "lat": 38.90220166666667, "fusion_lon": 0.0, "rental_uris": {"ios": "https://dc.lft.to/lastmile_qr_scan", "android": "https://dc.lft.to/lastmile_qr_scan"}, "lon": -76.93175766666667, "bike_id": "eef1abda34563e867596d28eae134db1", "type": "electric_bike", "name": "eef1abda34563e867596d28eae134db1"}, {"is_disabled": 0, "is_reserved": 0, "fusion_lat": 0.0, "lat": 38.89794633333333, "fusion_lon": 0.0, "rental_uris": {"ios": "https://dc.lft.to/lastmile_qr_scan", "android": "https://dc.lft.to/lastmile_qr_scan"}, "lon": -76.97160683333334, "bike_id": "ebe9e10fa9ed9abbcf80fd03427e9c11", "type": "electric_scooter", "name": "ebe9e10fa9ed9abbcf80fd03427e9c11"}, {"is_disabled": 0, "is_reserved": 0, "fusion_lat": 0.0, "lat": 38.928478166666665, "fusion_lon": 0.0, "rental_uris": {"ios": "https://dc.lft.to/lastmile_qr_scan", "android": "https://dc.lft.to/lastmile_qr_scan"}, "lon": -77.0139645, "bike_id": "79878cfa83e03b1b8bd73a5830c2c5da", "type": "electric_scooter", "name": "79878cfa83e03b1b8bd73a5830c2c5da"}, {"is_disabled": 0, "is_reserved": 0, "fusion_lat": 0.0, "lat": 38.897161833333335, "fusion_lon": 0.0, "rental_uris": {"ios": "https://dc.lft.to/lastmile_qr_scan", "android": "https://dc.lft.to/lastmile_qr_scan"}, "lon": -77.00796816666667, "bike_id": "42e3002bb54e7ad788363b518ced2d15", "type": "electric_scooter", "name": "42e3002bb54e7ad788363b518ced2d15"}, {"is_disabled": 0, "is_reserved": 0, "fusion_lat": 0.0, "lat": 38.896082666666665, "fusion_lon": 0.0, "rental_uris": {"ios": "https://dc.lft.to/lastmile_qr_scan", "android": "https://dc.lft.to/lastmile_qr_scan"}, "lon": -76.99803466666667, "bike_id": "2ef4f2cb33caa6b8aeee59ca758da087", "type": "electric_scooter", "name": "2ef4f2cb33caa6b8aeee59ca758da087"}, {"is_disabled": 0, "is_reserved": 0, "fusion_lat": 0.0, "lat": 38.91110533333333, "fusion_lon": 0.0, "rental_uris": {"ios": "https://dc.lft.to/lastmile_qr_scan", "android": "https://dc.lft.to/lastmile_qr_scan"}, "lon": -77.0116155, "bike_id": "fa80ff40b3c1a13701e81423d9f3b74a", "type": "electric_scooter", "name": "fa80ff40b3c1a13701e81423d9f3b74a"}, {"is_disabled": 0, "is_reserved": 0, "fusion_lat": 0.0, "lat": 38.928966333333335, "fusion_lon": 0.0, "rental_uris": {"ios": "https://dc.lft.to/lastmile_qr_scan", "android": "https://dc.lft.to/lastmile_qr_scan"}, "lon": -77.0229265, "bike_id": "81db2977b562ba15914f57c5e4ae9b6b", "type": "electric_scooter", "name": "81db2977b562ba15914f57c5e4ae9b6b"}, {"is_disabled": 0, "is_reserved": 0, "fusion_lat": 0.0, "lat": 38.89251066666667, "fusion_lon": 0.0, "rental_uris": {"ios": "https://dc.lft.to/lastmile_qr_scan", "android": "https://dc.lft.to/lastmile_qr_scan"}, "lon": -77.03959366666666, "bike_id": "cd6dc8b19688fa968157fadd1d5232cb", "type": "electric_scooter", "name": "cd6dc8b19688fa968157fadd1d5232cb"}, {"is_disabled": 0, "is_reserved": 0, "fusion_lat": 0.0, "lat": 38.91541266666667, "fusion_lon": 0.0, "rental_uris": {"ios": "https://dc.lft.to/lastmile_qr_scan", "android": "https://dc.lft.to/lastmile_qr_scan"}, "lon": -77.0092385, "bike_id": "0a2aa2b5b6213653733986dfc1e11f14", "type": "electric_scooter", "name": "0a2aa2b5b6213653733986dfc1e11f14"}, {"is_disabled": 0, "is_reserved": 0, "fusion_lat": 0.0, "lat": 38.914758, "fusion_lon": 0.0, "rental_uris": {"ios": "https://dc.lft.to/lastmile_qr_scan", "android": "https://dc.lft.to/lastmile_qr_scan"}, "lon": -77.00197166666666, "bike_id": "ba46b29c8a7ef44594c556c733700a11", "type": "electric_scooter", "name": "ba46b29c8a7ef44594c556c733700a11"}, {"is_disabled": 0, "is_reserved": 0, "fusion_lat": 0.0, "lat": 38.918771666666665, "fusion_lon": 0.0, "rental_uris": {"ios": "https://dc.lft.to/lastmile_qr_scan", "android": "https://dc.lft.to/lastmile_qr_scan"}, "lon": -77.035579, "bike_id": "aed220169ac6df71bf0d571e1b503891", "type": "electric_scooter", "name": "aed220169ac6df71bf0d571e1b503891"}, {"is_disabled": 0, "is_reserved": 0, "fusion_lat": 0.0, "lat": 38.929735666666666, "fusion_lon": 0.0, "rental_uris": {"ios": "https://dc.lft.to/lastmile_qr_scan", "android": "https://dc.lft.to/lastmile_qr_scan"}, "lon": -77.03080916666667, "bike_id": "83e2edf49889108edec4297565b17c01", "type": "electric_scooter", "name": "83e2edf49889108edec4297565b17c01"}, {"is_disabled": 0, "is_reserved": 0, "fusion_lat": 0.0, "lat": 38.92782183333333, "fusion_lon": 0.0, "rental_uris": {"ios": "https://dc.lft.to/lastmile_qr_scan", "android": "https://dc.lft.to/lastmile_qr_scan"}, "lon": -77.027955, "bike_id": "d7cf4b07b2cd9b5ffab36023a628542f", "type": "electric_scooter", "name": "d7cf4b07b2cd9b5ffab36023a628542f"}, {"is_disabled": 0, "is_reserved": 0, "fusion_lat": 0.0, "lat": 38.9358465, "fusion_lon": 0.0, "rental_uris": {"ios": "https://dc.lft.to/lastmile_qr_scan", "android": "https://dc.lft.to/lastmile_qr_scan"}, "lon": -77.07426833333334, "bike_id": "07101ebcf4d84e9f42ac19e45805a371", "type": "electric_scooter", "name": "07101ebcf4d84e9f42ac19e45805a371"}, {"is_disabled": 0, "is_reserved": 0, "fusion_lat": 0.0, "lat": 38.87713516666667, "fusion_lon": 0.0, "rental_uris": {"ios": "https://dc.lft.to/lastmile_qr_scan", "android": "https://dc.lft.to/lastmile_qr_scan"}, "lon": -77.00777283333333, "bike_id": "31814053a8ee79806ad62673bc46b57f", "type": "electric_scooter", "name": "31814053a8ee79806ad62673bc46b57f"},