{"data": {"bikes": [{"is_reserved": 0, "type": "electric_scooter", "fusion_lat": 0.0, "is_disabled": 0, "rental_uris": {"ios": "https://dc.lft.to/lastmile_qr_scan", "android": "https://dc.lft.to/lastmile_qr_scan"}, "bike_id": "d51c3dac74c4a1fe0cefbfa6bb737283", "lat": 38.89226633333333, "name": "d51c3dac74c4a1fe0cefbfa6bb737283", "lon": -77.05005916666667, "fusion_lon": 0.0}, {"is_reserved": 0, "type": "electric_scooter", "fusion_lat": 0.0, "is_disabled": 0, "rental_uris": {"ios": "https://dc.lft.to/lastmile_qr_scan", "android": "https://dc.lft.to/lastmile_qr_scan"}, "bike_id": "bce61135b89412879826bbe0f37b2ace", "lat": 38.944469, "name": "bce61135b89412879826bbe0f37b2ace", "lon": -77.032774, "fusion_lon": 0.0}, {"is_reserved": 0, "type": "electric_scooter", "fusion_lat": 0.0, "is_disabled": 0, "rental_uris": {"ios": "https://dc.lft.to/lastmile_qr_scan", "android": "https://dc.lft.to/lastmile_qr_scan"}, "bike_id": "2ff523be0125bfbe0f419164e93b95cb", "lat": 38.956162166666665, "name": "2ff523be0125bfbe0f419164e93b95cb", "lon": -77.03309183333333, "fusion_lon": 0.0}, {"is_reserved": 0, "type": "electric_scooter", "fusion_lat": 0.0, "is_disabled": 0, "rental_uris": {"ios": "https://dc.lft.to/lastmile_qr_scan", "android": "https://dc.lft.to/lastmile_qr_scan"}, "bike_id": "107b23413ed8a37c9c9767cebe310e07", "lat": 38.924810666666666, "name": "107b23413ed8a37c9c9767cebe310e07", "lon": -77.02714016666667, "fusion_lon": 0.0}, {"is_reserved": 0, "type": "electric_scooter", "fusion_lat": 0.0, "is_disabled": 0, "rental_uris": {"ios": "https://dc.lft.to/lastmile_qr_scan", "android": "https://dc.lft.to/lastmile_qr_scan"}, "bike_id": "12a56abbbaf8d2f5d0d29f7f9161cd36", "lat": 38.93065466666667, "name": "12a56abbbaf8d2f5d0d29f7f9161cd36", "lon": -77.0318855, "fusion_lon": 0.0}, {"is_reserved": 0, "type": "electric_scooter", "fusion_lat": 0.0, "is_disabled": 0, "rental_uris": {"ios": "https://dc.lft.to/lastmile_qr_scan", "android": "https://dc.lft.to/lastmile_qr_scan"}, "bike_id": "ecafe75f3c7718e37a20088cce51f772", "lat": 38.9084635, "name": "ecafe75f3c7718e37a20088cce51f772", "lon": -77.0318355, "fusion_lon": 0.0}, {"is_reserved": 0, "type": "electric_scooter", "fusion_lat": 0.0, "is_disabled": 0, "rental_uris": {"ios": "https://dc.lft.to/lastmile_qr_scan", "android": "https://dc.lft.to/lastmile_qr_scan"}, "bike_id": "09a21cd43334d8f06e82d46af0a34d31", "lat": 38.92875166666666, "name": "09a21cd43334d8f06e82d46af0a34d31", "lon": -77.03991583333334, "fusion_lon": 0.0}, {"is_reserved": 0, "type": "electric_scooter", "fusion_lat": 0.0, "is_disabled": 0, "rental_uris": {"ios": "https://dc.lft.to/lastmile_qr_scan", "android": "https://dc.lft.to/lastmile_qr_scan"}, "bike_id": "35b1cdd26cc57579868ba66355a0ab16", "lat": 38.911855333333335, "name": "35b1cdd26cc57579868ba66355a0ab16", "lon": -77.029825, "fusion_lon": 0.0}, {"is_reserved": 0, "type": "electric_scooter", "fusion_lat": 0.0, "is_disabled": 0, "rental_uris": {"ios": "https://dc.lft.to/lastmile_qr_scan", "android": "https://dc.lft.to/lastmile_qr_scan"}, "bike_id": "b7da355ff80571abde307f2aab45de63", "lat": 38.919514666666664, "name": "b7da355ff80571abde307f2aab45de63", "lon": -77.0230355, "fusion_lon": 0.0}, {"is_reserved": 0, "type": "electric_scooter", "fusion_lat": 0.0, "is_disabled": 0, "rental_uris": {"ios": "https://dc.lft.to/lastmile_qr_scan", "android": "https://dc.lft.to/lastmile_qr_scan"}, "bike_id": "fe04fa63725315958e258a624d308460", "lat": 38.91269333333334, "name": "fe04fa63725315958e258a624d308460", "lon": -77.01436016666666, "fusion_lon": 0.0}, {"is_reserved": 0, "type": "electric_scooter", "fusion_lat": 0.0, "is_disabled": 0, "rental_uris": {"ios": "https://dc.lft.to/lastmile_qr_scan", "android": "https://dc.lft.to/lastmile_qr_scan"}, "bike_id": "b85f690a3e8fe410b6e86fd0c7b14bab", "lat": 38.905245666666666, "name": "b85f690a3e8fe410b6e86fd0c7b14bab", "lon": -77.06500316666667, "fusion_lon": 0.0}, {"is_reserved": 0, "type": "electric_scooter", "fusion_lat": 0.0, "is_disabled": 0, "rental_uris": {"ios": "https://dc.lft.to/lastmile_qr_scan", "android": "https://dc.lft.to/lastmile_qr_scan"}, "bike_id": "6ffa6887896d5de2544f97d693cbbfb9", "lat": 38.904801666666664, "name": "6ffa6887896d5de2544f97d693cbbfb9", "lon": -77.00719116666667, "fusion_lon": 0.0}, {"is_reserved": 0, "type": "electric_scooter", "fusion_lat": 0.0, "is_disabled": 0, "rental_uris": {"ios": "https://dc.lft.to/lastmile_qr_scan", "android": "https://dc.lft.to/lastmile_qr_scan"}, "bike_id": "f49408cec371556f24086eb97086a18f", "lat": 38.91772266666667, "name": "f49408cec371556f24086eb97086a18f", "lon": -77.04754866666667, "fusion_lon": 0.0}, {"is_reserved": 0, "type": "electric_scooter", "fusion_lat": 0.0, "is_disabled": 0, "rental_uris": {"ios": "https://dc.lft.to/lastmile_qr_scan", "android": "https://dc.lft.to/lastmile_qr_scan"}, "bike_id": "c005beeca254d100e37dfd015a1fb5d6", "lat": 38.907560333333336, "name": "c005beeca254d100e37dfd015a1fb5d6", "lon": -77.0190545, "fusion_lon": 0.0}, {"is_reserved": 0, "type": "electric_bike", "fusion_lat": 0.0, "is_disabled": 0, "rental_uris": {"ios": "https://dc.lft.to/lastmile_qr_scan", "android": "https://dc.lft.to/lastmile_qr_scan"}, "bike_id": "d48a1bbea0cc233e539349aa9ad2c474", "lat": 38.86825416666667, "name": "d48a1bbea0cc233e539349aa9ad2c474", "lon": -76.98020233333334, "fusion_lon": 0.0}, {"is_reserved": 0, "type": "electric_scooter", "fusion_lat": 0.0, "is_disabled": 0, "rental_uris": {"ios": "https://dc.lft.to/lastmile_qr_scan", "android": "https://dc.lft.to/lastmile_qr_scan"}, "bike_id": "18621a89832d3f41b8e4d03667aff896", "lat": 38.9023275, "name": "18621a89832d3f41b8e4d03667aff896", "lon": -76.99029666666667, "fusion_lon": 0.0}, {"is_reserved": 0, "type": "electric_scooter", "fusion_lat": 0.0, "is_disabled": 0, "rental_uris": {"ios": "https://dc.lft.to/lastmile_qr_scan", "android": "https://dc.lft.to/lastmile_qr_scan"}, "bike_id": "fd8a7ffe1ef9a707748723ce21e5b6b7", "lat": 38.902870166666666, "name": "fd8a7ffe1ef9a707748723ce21e5b6b7", "lon": -77.04177916666667, "fusion_lon": 0.0}, {"is_reserved": 0, "type": "electric_scooter", "fusion_lat": 0.0, "is_disabled": 0, "rental_uris": {"ios": "https://dc.lft.to/lastmile_qr_scan", "android": "https://dc.lft.to/lastmile_qr_scan"}, "bike_id": "94c06414e37429195a5b9a625f623a23", "lat": 38.92352533333333, "name": "94c06414e37429195a5b9a625f623a23", "lon": -77.0331705, "fusion_lon": 0.0}, {"is_reserved": 0, "type": "electric_scooter", "fusion_lat": 0.0, "is_disabled": 0, "rental_uris": {"ios": "https://dc.lft.to/lastmile_qr_scan", "android": "https://dc.lft.to/lastmile_qr_scan"}, "bike_id": "5b37ab2fb5e5545f755dbe639f0c2747", "lat": 38.953780333333334, "name": "5b37ab2fb5e5545f755dbe639f0c2747", "lon": -77.001876, "fusion_lon": 0.0}, {"is_reserved": 0, "type": "electric_scooter", "fusion_lat": 0.0, "is_disabled": 0, "rental_uris": {"ios": "https://dc.lft.to/lastmile_qr_scan", "android": "https://dc.lft.to/lastmile_qr_scan"}, "bike_id": "4bed067b3eda297db406ab50399cc43a", "lat": 38.9022255, "name": "4bed067b3eda297db406ab50399cc43a", "lon": -77.0139835, "fusion_lon": 0.0}, {"is_reserved": 0, "type": "electric_scooter", "fusion_lat": 0.0, "is_disabled": 0, "rental_uris": {"ios": "https://dc.lft.to/lastmile_qr_scan", "android": "https://dc.lft.to/lastmile_qr_scan"}, "bike_id": "b0ac1d94f978400f63064464a6c56978", "lat": 38.92102666666667, "name": "b0ac1d94f978400f63064464a6c56978", "lon": -76.9940585, "fusion_lon": 0.0}, {"is_reserved": 0, "type": "electric_bike", "fusion_lat": 0.0, "is_disabled": 0, "rental_uris": {"ios": "https://dc.lft.to/lastmile_qr_scan", "android": "https://dc.lft.to/lastmile_qr_scan"}, "bike_id": "124c613bc3692d1b0b81c5b68d1bd49f", "lat": 38.905206, "name": "124c613bc3692d1b0b81c5b68d1bd49f", "lon": -77.04998783333333, "fusion_lon": 0.0}, {"is_reserved": 0, "type": "electric_scooter", "fusion_lat": 0.0, "is_disabled": 0, "rental_uris": {"ios": "https://dc.lft.to/lastmile_qr_scan", "android": "https://dc.lft.to/lastmile_qr_scan"}, "bike_id": "ff591f92f0b006ded05ec0e145eec385", "lat": 38.8999705, "name": "ff591f92f0b006ded05ec0e145eec385", "lon": -77.02162216666666, "fusion_lon": 0.0}, {"is_reserved": 0, "type": "electric_scooter", "fusion_lat": 0.0, "is_disabled": 0, "rental_uris": {"ios": "https://dc.lft.to/lastmile_qr_scan", "android": "https://dc.lft.to/lastmile_qr_scan"}, "bike_id": "bb7ca83c63931dadc9c9b335bd1330b4", "lat": 38.91696016666667, "name": "bb7ca83c63931dadc9c9b335bd1330b4", "lon": -77.02719966666666, "fusion_lon": 0.0}, {"is_reserved": 0, "type": "electric_scooter", "fusion_lat": 0.0, "is_disabled": 0, "rental_uris": {"ios": "https://dc.lft.to/lastmile_qr_scan", "android": "https://dc.lft.to/lastmile_qr_scan"}, "bike_id": "5942ebbf6466e42a9f6d19379fe67940", "lat": 38.9233485, "name": "5942ebbf6466e42a9f6d19379fe67940", "lon": -77.036087, "fusion_lon": 0.0}, {"is_reserved": 0, "type": "electric_scooter", "fusion_lat": 0.0, "is_disabled": 0, "rental_uris": {"ios": "https://dc.lft.to/lastmile_qr_scan", "android": "https://dc.lft.to/lastmile_qr_scan"}, "bike_id": "fe3124a46021f2ab3dab8ef9ec5e4cbd", "lat": 38.90606583333334, "name": "fe3124a46021f2ab3dab8ef9ec5e4cbd", "lon": -77.05653783333334, "fusion_lon": 0.0}, {"is_reserved": 0, "type": "electric_scooter", "fusion_lat": 0.0, "is_disabled": 0, "rental_uris": {"ios": "https://dc.lft.to/lastmile_qr_scan", "android": "https://dc.lft.to/lastmile_qr_scan"}, "bike_id": "5869be1c432a2aa7a318048d6f674d7c", "lat": 38.91097333333333, "name": "5869be1c432a2aa7a318048d6f674d7c", "lon": -77.03206883333333, "fusion_lon": 0.0}, {"is_reserved": 0, "type": "electric_scooter", "fusion_lat": 0.0, "is_disabled": 0, "rental_uris": {"ios": "https://dc.lft.to/lastmile_qr_scan", "android": "https://dc.lft.to/lastmile_qr_scan"}, "bike_id": "c0b2694a455c19af3267119e2a70df6f", "lat": 38.90376533333333, "name": "c0b2694a455c19af3267119e2a70df6f", "lon": -77.01846383333333, "fusion_lon": 0.0}, {"is_reserved": 0, "type": "electric_scooter", "fusion_lat": 0.0, "is_disabled": 0, "rental_uris": {"ios": "https://dc.lft.to/lastmile_qr_scan", "android": "https://dc.lft.to/lastmile_qr_scan"}, "bike_id": "1de0a0d3809628e438dbaef45b4bb66f", "lat": 38.95256466666667, "name": "1de0a0d3809628e438dbaef45b4bb66f", "lon": -76.99886116666667, "fusion_lon": 0.0}, {"is_reserved": 0, "type": "electric_scooter", "fusion_lat": 0.0, "is_disabled": 0, "rental_uris": {"ios": "https://dc.lft.to/lastmile_qr_scan", "android": "https://dc.lft.to/lastmile_qr_scan"}, "bike_id": "7be4037546ee58ab6d855d3347453b95", "lat": 38.9171635, "name": "7be4037546ee58ab6d855d3347453b95", "lon": -77.0088445, "fusion_lon": 0.0}, {"is_reserved": 0, "type": "electric_scooter", "fusion_lat": 0.0, "is_disabled": 0, "rental_uris": {"ios": "https://dc.lft.to/lastmile_qr_scan", "android": "https://dc.lft.to/lastmile_qr_scan"}, "bike_id": "e91330d516fc5222d9c7aa501ccf7fc2", "lat": 38.92602683333333, "name": "e91330d516fc5222d9c7aa501ccf7fc2", "lon": -77.02151366666666, "fusion_lon": 0.0}, {"is_reserved": 0, "type": "electric_scooter", "fusion_lat": 0.0, "is_disabled": 0, "rental_uris": {"ios": "https://dc.lft.to/lastmile_qr_scan", "android": "https://dc.lft.to/lastmile_qr_scan"}, "bike_id": "17ee224843666c3911376e4ffcc82596", "lat": 38.90883616666667, "name": "17ee224843666c3911376e4ffcc82596", "lon": -77.04414716666666, "fusion_lon": 0.0}, {"is_reserved": 0, "type": "electric_scooter", "fusion_lat": 0.0, "is_disabled": 0, "rental_uris": {"ios": "https://dc.lft.to/lastmile_qr_scan", "android": "https://dc.lft.to/lastmile_qr_scan"}, "bike_id": "d140026667d051d50516b6db6bdea133", "lat": 38.892337, "name": "d140026667d051d50516b6db6bdea133", "lon": -77.02385216666667, "fusion_lon": 0.0}, {"is_reserved": 0, "type": "electric_scooter", "fusion_lat": 0.0, "is_disabled": 0, "rental_uris": {"ios": "https://dc.lft.to/lastmile_qr_scan", "android": "https://dc.lft.to/lastmile_qr_scan"}, "bike_id": "5214465300a944e11e604fbb07090026", "lat": 38.92010233333333, "name": "5214465300a944e11e604fbb07090026", "lon": -77.04177083333333, "fusion_lon": 0.0}, {"is_reserved": 0, "type": "electric_scooter", "fusion_lat": 0.0, "is_disabled": 0, "rental_uris": {"ios": "https://dc.lft.to/lastmile_qr_scan", "android": "https://dc.lft.to/lastmile_qr_scan"}, "bike_id": "4aaabafb8ae9cfcfcc6b314c0ede00e9", "lat": 38.91538466666667, "name": "4aaabafb8ae9cfcfcc6b314c0ede00e9", "lon": -77.04435683333334, "fusion_lon": 0.0}, {"is_reserved": 0, "type": "electric_scooter", "fusion_lat": 0.0, "is_disabled": 0, "rental_uris": {"ios": "https://dc.lft.to/lastmile_qr_scan", "android": "https://dc.lft.to/lastmile_qr_scan"}, "bike_id": "bd15e1e35e0e6073a6ff8190bf302acb", "lat": 38.909498, "name": "bd15e1e35e0e6073a6ff8190bf302acb", "lon": -77.04661266666666, "fusion_lon": 0.0}, {"is_reserved": 0, "type": "electric_scooter", "fusion_lat": 0.0, "is_disabled": 0, "rental_uris": {"ios": "https://dc.lft.to/lastmile_qr_scan", "android": "https://dc.lft.to/lastmile_qr_scan"}, "bike_id": "ead9320812a08408fbdb0e9953d78cfd", "lat": 38.88369733333333, "name": "ead9320812a08408fbdb0e9953d78cfd", "lon": -76.99516316666667, "fusion_lon": 0.0}, {"is_reserved": 0, "type": "electric_scooter", "fusion_lat": 0.0, "is_disabled": 0, "rental_uris": {"ios": "https://dc.lft.to/lastmile_qr_scan", "android": "https://dc.lft.to/lastmile_qr_scan"}, "bike_id": "5fa849870925a84872888ae683edfc60", "lat": 38.90249283333333, "name": "5fa849870925a84872888ae683edfc60", "lon": -77.0467665, "fusion_lon": 0.0}, {"is_reserved": 0, "type": "electric_scooter", "fusion_lat": 0.0, "is_disabled": 0, "rental_uris": {"ios": "https://dc.lft.to/lastmile_qr_scan", "android": "https://dc.lft.to/lastmile_qr_scan"}, "bike_id": "03f87e5d966cc5d3897fff2941f6730e", "lat": 38.93100033333333, "name": "03f87e5d966cc5d3897fff2941f6730e", "lon": -77.0247975, "fusion_lon": 0.0}, {"is_reserved": 0, "type": "electric_scooter", "fusion_lat": 0.0, "is_disabled": 0, "rental_uris": {"ios": "https://dc.lft.to/lastmile_qr_scan", "android": "https://dc.lft.to/lastmile_qr_scan"}, "bike_id": "8c6720ef741b5e70969a6725ad970057", "lat": 38.9217585, "name": "8c6720ef741b5e70969a6725ad970057", "lon": -77.04123216666666, "fusion_lon": 0.0}, {"is_reserved": 0, "type": "electric_scooter", "fusion_lat": 0.0, "is_disabled": 0, "rental_uris": {"ios": "https://dc.lft.to/lastmile_qr_scan", "android": "https://dc.lft.to/lastmile_qr_scan"}, "bike_id": "15da31ed7cfb1f7e4bc6ff8ff7d59bf1", "lat": 38.899842666666665, "name": "15da31ed7cfb1f7e4bc6ff8ff7d59bf1", "lon": -77.04187566666667, "fusion_lon": 0.0}, {"is_reserved": 0, "type": "electric_scooter", "fusion_lat": 0.0, "is_disabled": 0, "rental_uris": {"ios": "https://dc.lft.to/lastmile_qr_scan", "android": "https://dc.lft.to/lastmile_qr_scan"}, "bike_id": "c460244688c615742d746e10b731880b", "lat": 38.9197245, "name": "c460244688c615742d746e10b731880b", "lon": -77.03963733333333, "fusion_lon": 0.0}, {"is_reserved": 0, "type": "electric_scooter", "fusion_lat": 0.0, "is_disabled": 0, "rental_uris": {"ios": "https://dc.lft.to/lastmile_qr_scan", "android": "https://dc.lft.to/lastmile_qr_scan"}, "bike_id": "c22cc22219478fcfa871bdb95a2e9eea", "lat": 38.943139, "name": "c22cc22219478fcfa871bdb95a2e9eea", "lon": -77.07632166666667, "fusion_lon": 0.0}, {"is_reserved": 0, "type": "electric_scooter", "fusion_lat": 0.0, "is_disabled": 0, "rental_uris": {"ios": "https://dc.lft.to/lastmile_qr_scan", "android": "https://dc.lft.to/lastmile_qr_scan"}, "bike_id": "074bfa4322b44b61b80d7115fc65257d", "lat": 38.88612533333333, "name": "074bfa4322b44b61b80d7115fc65257d", "lon": -77.02208066666667, "fusion_lon": 0.0}, {"is_reserved": 0, "type": "electric_scooter", "fusion_lat": 0.0, "is_disabled": 0, "rental_uris": {"ios": "https://dc.lft.to/lastmile_qr_scan", "android": "https://dc.lft.to/lastmile_qr_scan"}, "bike_id": "ad9422784263fe7906cbd279e5730c05", "lat": 38.90303766666667, "name": "ad9422784263fe7906cbd279e5730c05", "lon": -76.998379, "fusion_lon": 0.0}, {"is_reserved": 0, "type": "electric_scooter", "fusion_lat": 0.0, "is_disabled": 0, "rental_uris": {"ios": "https://dc.lft.to/lastmile_qr_scan", "android": "https://dc.lft.to/lastmile_qr_scan"}, "bike_id": "9243fc8e4604322b86342038325e2bf3", "lat": 38.89465966666667, "name": "9243fc8e4604322b86342038325e2bf3", "lon": -77.02203033333333, "fusion_lon": 0.0}, {"is_reserved": 0, "type": "electric_scooter", "fusion_lat": 0.0, "is_disabled": 0, "rental_uris": {"ios": "https://dc.lft.to/lastmile_qr_scan", "android": "https://dc.lft.to/lastmile_qr_scan"}, "bike_id": "2f9f6815a0428cdd36bc6a901172c958", "lat": 38.87288683333333, "name": "2f9f6815a0428cdd36bc6a901172c958", "lon": -77.00986283333333, "fusion_lon": 0.0}, {"is_reserved": 0, "type": "electric_scooter", "fusion_lat": 0.0, "is_disabled": 0, "rental_uris": {"ios": "https://dc.lft.to/lastmile_qr_scan", "android": "https://dc.lft.to/lastmile_qr_scan"}, "bike_id": "30cc097c71599a83e80e7a3772a10b27", "lat": 38.917365833333335, "name": "30cc097c71599a83e80e7a3772a10b27", "lon": -77.06890066666666, "fusion_lon": 0.0}, {"is_reserved": 0, "type": "electric_scooter", "fusion_lat": 0.0, "is_disabled": 0, "rental_uris": {"ios": "https://dc.lft.to/lastmile_qr_scan", "android": "https://dc.lft.to/lastmile_qr_scan"}, "bike_id": "606a09e250f1370545f3e917bdae9da6", "lat": 38.89852716666667, "name": "606a09e250f1370545f3e917bdae9da6", "lon": -76.99497933333333, "fusion_lon": 0.0}, {"is_reserved": 0, "type": "electric_scooter", "fusion_lat": 0.0, "is_disabled": 0, "rental_uris": {"ios": "https://dc.lft.to/lastmile_qr_scan", "android": "https://dc.lft.to/lastmile_qr_scan"}, "bike_id": "0b7d6f82f49b541c7ad41aa83bdac7f2", "lat": 38.9237615, "name": "0b7d6f82f49b541c7ad41aa83bdac7f2", "lon": -77.02924966666667, "fusion_lon": 0.0}, {"is_reserved": 0, "type": "electric_scooter", "fusion_lat": 0.0, "is_disabled": 0, "rental_uris": {"ios": "https://dc.lft.to/lastmile_qr_scan", "android": "https://dc.lft.to/lastmile_qr_scan"}, "bike_id": "cbb11b88b2e73ff53006533088b599c1", "lat": 38.90567016666667, "name": "cbb11b88b2e73ff53006533088b599c1", "lon": -77.027651, "fusion_lon": 0.0}, {"is_reserved": 0, "type": "electric_scooter", "fusion_lat": 0.0, "is_disabled": 0, "rental_uris": {"ios": "https://dc.lft.to/lastmile_qr_scan", "android": "https://dc.lft.to/lastmile_qr_scan"}, "bike_id": "9df1e74418f033c6b2d4df301bd50399", "lat": 38.9214545, "name": "9df1e74418f033c6b2d4df301bd50399", "lon": -77.045861, "fusion_lon": 0.0}, {"is_reserved": 0, "type": "electric_scooter", "fusion_lat": 0.0, "is_disabled": 0, "rental_uris": {"ios": "https://dc.lft.to/lastmile_qr_scan", "android": "https://dc.lft.to/lastmile_qr_scan"}, "bike_id": "45c41eb460db3b37b69815419eeab034", "lat": 38.89674766666667, "name": "45c41eb460db3b37b69815419eeab034", "lon": -76.94909266666667, "fusion_lon": 0.0}, {"is_reserved": 0, "type": "electric_scooter", "fusion_lat": 0.0, "is_disabled": 0, "rental_uris": {"ios": "https://dc.lft.to/lastmile_qr_scan", "android": "https://dc.lft.to/lastmile_qr_scan"}, "bike_id": "be59a3270e980106efa441ca9b7838a1", "lat": 38.93974383333333, "name": "be59a3270e980106efa441ca9b7838a1", "lon": -77.03430666666667, "fusion_lon": 0.0}, {"is_reserved": 0, "type": "electric_scooter", "fusion_lat": 0.0, "is_disabled": 0, "rental_uris": {"ios": "https://dc.lft.to/lastmile_qr_scan", "android": "https://dc.lft.to/lastmile_qr_scan"}, "bike_id": "580ed7501206407602cba7b392d55133", "lat": 38.920771, "name": "580ed7501206407602cba7b392d55133", "lon": -77.02508866666666, "fusion_lon": 0.0}, {"is_reserved": 0, "type": "electric_bike", "fusion_lat": 0.0, "is_disabled": 0, "rental_uris": {"ios": "https://dc.lft.to/lastmile_qr_scan", "android": "https://dc.lft.to/lastmile_qr_scan"}, "bike_id": "6bd9d8631f6f921c1e4bf310a72ece11", "lat": 38.938879166666666, "name": "6bd9d8631f6f921c1e4bf310a72ece11", "lon": -76.99299366666666, "fusion_lon": 0.0}, {"is_reserved": 0, "type": "electric_scooter", "fusion_lat": 0.0, "is_disabled": 0, "rental_uris": {"ios": "https://dc.lft.to/lastmile_qr_scan", "android": "https://dc.lft.to/lastmile_qr_scan"}, "bike_id": "6749be12d1a5f9bba5d3bcb4b4738564", "lat": 38.91712366666667, "name": "6749be12d1a5f9bba5d3bcb4b4738564", "lon": -77.09203666666667, "fusion_lon": 0.0}, {"is_reserved": 0, "type": "electric_scooter", "fusion_lat": 0.0, "is_disabled": 0, "rental_uris": {"ios": "https://dc.lft.to/lastmile_qr_scan", "android": "https://dc.lft.to/lastmile_qr_scan"}, "bike_id": "40eb4aae9a642bca58266d3ccdffecaf", "lat": 38.897301166666665, "name": "40eb4aae9a642bca58266d3ccdffecaf", "lon": -77.0436655, "fusion_lon": 0.0}, {"is_reserved": 0, "type": "electric_scooter", "fusion_lat": 0.0, "is_disabled": 0, "rental_uris": {"ios": "https://dc.lft.to/lastmile_qr_scan", "android": "https://dc.lft.to/lastmile_qr_scan"}, "bike_id": "98038fde9ddfc4bf9fcddb4ed489f20d", "lat": 38.8857385, "name": "98038fde9ddfc4bf9fcddb4ed489f20d", "lon": -77.00035483333333, "fusion_lon": 0.0}, {"is_reserved": 0, "type": "electric_bike", "fusion_lat": 0.0, "is_disabled": 0, "rental_uris": {"ios": "https://dc.lft.to/lastmile_qr_scan", "android": "https://dc.lft.to/lastmile_qr_scan"}, "bike_id": "7393946f92589d0919dda691f8f30d93", "lat": 38.920389666666665, "name": "7393946f92589d0919dda691f8f30d93", "lon": -76.97958683333333, "fusion_lon": 0.0}, {"is_reserved": 0, "type": "electric_scooter", "fusion_lat": 0.0, "is_disabled": 0, "rental_uris": {"ios": "https://dc.lft.to/lastmile_qr_scan", "android": "https://dc.lft.to/lastmile_qr_scan"}, "bike_id": "52841473ef18da75affaf20bca114faf", "lat": 38.910639333333336, "name": "52841473ef18da75affaf20bca114faf", "lon": -77.0265845, "fusion_lon": 0.0}, {"is_reserved": 0, "type": "electric_scooter", "fusion_lat": 0.0, "is_disabled": 0, "rental_uris": {"ios": "https://dc.lft.to/lastmile_qr_scan", "android": "https://dc.lft.to/lastmile_qr_scan"}, "bike_id": "a09e217b75424257625dae3abbe72404", "lat": 38.92708583333334, "name": "a09e217b75424257625dae3abbe72404", "lon": -77.02089683333334, "fusion_lon": 0.0}, {"is_reserved": 0, "type": "electric_scooter", "fusion_lat": 0.0, "is_disabled": 0, "rental_uris": {"ios": "https://dc.lft.to/lastmile_qr_scan", "android": "https://dc.lft.to/lastmile_qr_scan"}, "bike_id": "1408668129bca4418be001d9143ead0d", "lat": 38.929986166666666, "name": "1408668129bca4418be001d9143ead0d", "lon": -77.02172016666667, "fusion_lon": 0.0}, {"is_reserved": 0, "type": "electric_scooter", "fusion_lat": 0.0, "is_disabled": 0, "rental_uris": {"ios": "https://dc.lft.to/lastmile_qr_scan", "android": "https://dc.lft.to/lastmile_qr_scan"}, "bike_id": "811f9fc7ea966355708d669db884d692", "lat": 38.899911333333336, "name": "811f9fc7ea966355708d669db884d692", "lon": -77.026952, "fusion_lon": 0.0}, {"is_reserved": 0, "type": "electric_scooter", "fusion_lat": 0.0, "is_disabled": 0, "rental_uris": {"ios": "https://dc.lft.to/lastmile_qr_scan", "android": "https://dc.lft.to/lastmile_qr_scan"}, "bike_id": "62f475cf6437e71143d1ed1cb95cb181", "lat": 38.9371425, "name": "62f475cf6437e71143d1ed1cb95cb181", "lon": -77.036298, "fusion_lon": 0.0}, {"is_reserved": 0, "type": "electric_scooter", "fusion_lat": 0.0, "is_disabled": 0, "rental_uris": {"ios": "https://dc.lft.to/lastmile_qr_scan", "android": "https://dc.lft.to/lastmile_qr_scan"}, "bike_id": "39b540dc072bbaae9589c5d6b38c8482", "lat": 38.917355666666666, "name": "39b540dc072bbaae9589c5d6b38c8482", "lon": -77.02603133333334, "fusion_lon": 0.0}, {"is_reserved": 0, "type": "electric_scooter", "fusion_lat": 0.0, "is_disabled": 0, "rental_uris": {"ios": "https://dc.lft.to/lastmile_qr_scan", "android": "https://dc.lft.to/lastmile_qr_scan"}, "bike_id": "c09608549ec6e7aed7369149a501fa21", "lat": 38.92872366666667, "name": "c09608549ec6e7aed7369149a501fa21", "lon": -77.03481433333333, "fusion_lon": 0.0}, {"is_reserved": 0, "type": "electric_scooter", "fusion_lat": 0.0, "is_disabled": 0, "rental_uris": {"ios": "https://dc.lft.to/lastmile_qr_scan", "android": "https://dc.lft.to/lastmile_qr_scan"}, "bike_id": "4a5573ff4906688ace67d5d2c5daf40b", "lat": 38.9240715, "name": "4a5573ff4906688ace67d5d2c5daf40b", "lon": -77.03527216666667, "fusion_lon": 0.0}, {"is_reserved": 0, "type": "electric_scooter", "fusion_lat": 0.0, "is_disabled": 0, "rental_uris": {"ios": "https://dc.lft.to/lastmile_qr_scan", "android": "https://dc.lft.to/lastmile_qr_scan"}, "bike_id": "b9a5ccfd25c81bc3331ce9391654a223", "lat": 38.92119066666667, "name": "b9a5ccfd25c81bc3331ce9391654a223", "lon": -77.01212083333333, "fusion_lon": 0.0}, {"is_reserved": 0, "type": "electric_scooter", "fusion_lat": 0.0, "is_disabled": 0, "rental_uris": {"ios": "https://dc.lft.to/lastmile_qr_scan", "android": "https://dc.lft.to/lastmile_qr_scan"}, "bike_id": "7fc374c2e2b8b94d52b9427aadfdbc5a", "lat": 38.956383333333335, "name": "7fc374c2e2b8b94d52b9427aadfdbc5a", "lon": -77.03629366666667, "fusion_lon": 0.0}, {"is_reserved": 0, "type": "electric_scooter", "fusion_lat": 0.0, "is_disabled": 0, "rental_uris": {"ios": "https://dc.lft.to/lastmile_qr_scan", "android": "https://dc.lft.to/lastmile_qr_scan"}, "bike_id": "4647557e649dd313df7611bbd1b5b9fd", "lat": 38.882433, "name": "4647557e649dd313df7611bbd1b5b9fd", "lon": -77.0063235, "fusion_lon": 0.0}, {"is_reserved": 0, "type": "electric_scooter", "fusion_lat": 0.0, "is_disabled": 0, "rental_uris": {"ios": "https://dc.lft.to/lastmile_qr_scan", "android": "https://dc.lft.to/lastmile_qr_scan"}, "bike_id": "7c008b6f42589399fd13c307ab9fe3f7", "lat": 38.92287233333333, "name": "7c008b6f42589399fd13c307ab9fe3f7", "lon": -77.03658916666667, "fusion_lon": 0.0}, {"is_reserved": 0, "type": "electric_scooter", "fusion_lat": 0.0, "is_disabled": 0, "rental_uris": {"ios": "https://dc.lft.to/lastmile_qr_scan", "android": "https://dc.lft.to/lastmile_qr_scan"}, "bike_id": "ca1ee5825019c5856504a7e7db18a24c", "lat": 38.89196616666667, "name": "ca1ee5825019c5856504a7e7db18a24c", "lon": -77.022426, "fusion_lon": 0.0}, {"is_reserved": 0, "type": "electric_scooter", "fusion_lat": 0.0, "is_disabled": 0, "rental_uris": {"ios": "https://dc.lft.to/lastmile_qr_scan", "android": "https://dc.lft.to/lastmile_qr_scan"}, "bike_id": "31fe68b8ada5e40e37466895bb71d133", "lat": 38.92085733333333, "name": "31fe68b8ada5e40e37466895bb71d133", "lon": -77.02504266666666, "fusion_lon": 0.0}, {"is_reserved": 0, "type": "electric_scooter", "fusion_lat": 0.0, "is_disabled": 0, "rental_uris": {"ios": "https://dc.lft.to/lastmile_qr_scan", "android": "https://dc.lft.to/lastmile_qr_scan"}, "bike_id": "8b977776fcf31c4513f6bd3893a57471", "lat": 38.948431666666664, "name": "8b977776fcf31c4513f6bd3893a57471", "lon": -77.0271145, "fusion_lon": 0.0}, {"is_reserved": 0, "type": "electric_scooter", "fusion_lat": 0.0, "is_disabled": 0, "rental_uris": {"ios": "https://dc.lft.to/lastmile_qr_scan", "android": "https://dc.lft.to/lastmile_qr_scan"}, "bike_id": "88a8bdc1275dfd0e82ce1340f000c526", "lat": 38.916359, "name": "88a8bdc1275dfd0e82ce1340f000c526", "lon": -77.0481795, "fusion_lon": 0.0}, {"is_reserved": 0, "type": "electric_scooter", "fusion_lat": 0.0, "is_disabled": 0, "rental_uris": {"ios": "https://dc.lft.to/lastmile_qr_scan", "android": "https://dc.lft.to/lastmile_qr_scan"}, "bike_id": "38eefaba8c519e246fa9a04bd47425d9", "lat": 38.90137416666666, "name": "38eefaba8c519e246fa9a04bd47425d9", "lon": -77.01609733333333, "fusion_lon": 0.0}, {"is_reserved": 0, "type": "electric_bike", "fusion_lat": 0.0, "is_disabled": 0, "rental_uris": {"ios": "https://dc.lft.to/lastmile_qr_scan", "android": "https://dc.lft.to/lastmile_qr_scan"}, "bike_id": "64f45568abb82796d111de38495982f4", "lat": 38.84859183333333, "name": "64f45568abb82796d111de38495982f4", "lon": -77.06829216666667, "fusion_lon": 0.0}, {"is_reserved": 0, "type": "electric_scooter", "fusion_lat": 0.0, "is_disabled": 0, "rental_uris": {"ios": "https://dc.lft.to/lastmile_qr_scan", "android": "https://dc.lft.to/lastmile_qr_scan"}, "bike_id": "97b7c435c28948f278d701e0067b86cf", "lat": 38.92464116666667, "name": "97b7c435c28948f278d701e0067b86cf", "lon": -77.037908, "fusion_lon": 0.0}, {"is_reserved": 0, "type": "electric_scooter", "fusion_lat": 0.0, "is_disabled": 0, "rental_uris": {"ios": "https://dc.lft.to/lastmile_qr_scan", "android": "https://dc.lft.to/lastmile_qr_scan"}, "bike_id": "9952a7251e147d1cda3746fd2e14c9db", "lat": 38.905871, "name": "9952a7251e147d1cda3746fd2e14c9db", "lon": -77.06293783333334, "fusion_lon": 0.0}, {"is_reserved": 0, "type": "electric_scooter", "fusion_lat": 0.0, "is_disabled": 0, "rental_uris": {"ios": "https://dc.lft.to/lastmile_qr_scan", "android": "https://dc.lft.to/lastmile_qr_scan"}, "bike_id": "430e76d1bcdad2407eacaa46635190a6", "lat": 38.89402283333333, "name": "430e76d1bcdad2407eacaa46635190a6", "lon": -77.04998216666667, "fusion_lon": 0.0}, {"is_reserved": 0, "type": "electric_scooter", "fusion_lat": 0.0, "is_disabled": 0, "rental_uris": {"ios": "https://dc.lft.to/lastmile_qr_scan", "android": "https://dc.lft.to/lastmile_qr_scan"}, "bike_id": "f484740c9e46e8925a3e6f1f0f4b01a7", "lat": 38.87916933333333, "name": "f484740c9e46e8925a3e6f1f0f4b01a7", "lon": -76.9447805, "fusion_lon": 0.0}, {"is_reserved": 0, "type": "electric_bike", "fusion_lat": 0.0, "is_disabled": 0, "rental_uris": {"ios": "https://dc.lft.to/lastmile_qr_scan", "android": "https://dc.lft.to/lastmile_qr_scan"}, "bike_id": "fce9d2df21b2b954a5795f65f6c564f7", "lat": 38.990976833333335, "name": "fce9d2df21b2b954a5795f65f6c564f7", "lon": -76.99368, "fusion_lon": 0.0}, {"is_reserved": 0, "type": "electric_scooter", "fusion_lat": 0.0, "is_disabled": 0, "rental_uris": {"ios": "https://dc.lft.to/lastmile_qr_scan", "android": "https://dc.lft.to/lastmile_qr_scan"}, "bike_id": "b1b4b7eef9a432c00f913b3b70d7f077", "lat": 38.905632833333335, "name": "b1b4b7eef9a432c00f913b3b70d7f077", "lon": -77.0056045, "fusion_lon": 0.0}, {"is_reserved": 0, "type": "electric_bike", "fusion_lat": 0.0, "is_disabled": 0, "rental_uris": {"ios": "https://dc.lft.to/lastmile_qr_scan", "android": "https://dc.lft.to/lastmile_qr_scan"}, "bike_id": "41671ebc74f0b973c6563f23859f394e", "lat": 38.854544, "name": "41671ebc74f0b973c6563f23859f394e", "lon": -76.97234183333333, "fusion_lon": 0.0}, {"is_reserved": 0, "type": "electric_scooter", "fusion_lat": 0.0, "is_disabled": 0, "rental_uris": {"ios": "https://dc.lft.to/lastmile_qr_scan", "android": "https://dc.lft.to/lastmile_qr_scan"}, "bike_id": "1bbbe83f0ff8fbfef7a6d149232c1134", "lat": 38.929211333333335, "name": "1bbbe83f0ff8fbfef7a6d149232c1134", "lon": -77.0374175, "fusion_lon": 0.0}, {"is_reserved": 0, "type": "electric_scooter", "fusion_lat": 0.0, "is_disabled": 0, "rental_uris": {"ios": "https://dc.lft.to/lastmile_qr_scan", "android": "https://dc.lft.to/lastmile_qr_scan"}, "bike_id": "a9f1c9b93be61002245b742976647bad", "lat": 38.90610816666667, "name": "a9f1c9b93be61002245b742976647bad", "lon": -76.989806, "fusion_lon": 0.0}, {"is_reserved": 0, "type": "electric_bike", "fusion_lat": 0.0, "is_disabled": 0, "rental_uris": {"ios": "https://dc.lft.to/lastmile_qr_scan", "android": "https://dc.lft.to/lastmile_qr_scan"}, "bike_id": "7469e29490bd6ecc13774c3b304fe323", "lat": 38.866274, "name": "7469e29490bd6ecc13774c3b304fe323", "lon": -76.99000516666666, "fusion_lon": 0.0}, {"is_reserved": 0, "type": "electric_scooter", "fusion_lat": 0.0, "is_disabled": 0, "rental_uris": {"ios": "https://dc.lft.to/lastmile_qr_scan", "android": "https://dc.lft.to/lastmile_qr_scan"}, "bike_id": "8bf393862ac7ce98b82da3ffb72f4fc5", "lat": 38.89950433333333, "name": "8bf393862ac7ce98b82da3ffb72f4fc5", "lon": -77.0471125, "fusion_lon": 0.0}, {"is_reserved": 0, "type": "electric_scooter", "fusion_lat": 0.0, "is_disabled": 0, "rental_uris": {"ios": "https://dc.lft.to/lastmile_qr_scan", "android": "https://dc.lft.to/lastmile_qr_scan"}, "bike_id": "db7bc65931f2601f1a4a3ca2645471cf", "lat": 38.92045016666667, "name": "db7bc65931f2601f1a4a3ca2645471cf", "lon": -77.0166915, "fusion_lon": 0.0}, {"is_reserved": 0, "type": "electric_scooter", "fusion_lat": 0.0, "is_disabled": 0, "rental_uris": {"ios": "https://dc.lft.to/lastmile_qr_scan", "android": "https://dc.lft.to/lastmile_qr_scan"}, "bike_id": "ace47d4808ba04ada8c6f28982ace3d1", "lat": 38.90549016666667, "name": "ace47d4808ba04ada8c6f28982ace3d1", "lon": -77.06272633333333, "fusion_lon": 0.0}, {"is_reserved": 0, "type": "electric_scooter", "fusion_lat": 0.0, "is_disabled": 0, "rental_uris": {"ios": "https://dc.lft.to/lastmile_qr_scan", "android": "https://dc.lft.to/lastmile_qr_scan"}, "bike_id": "e7fcb5036ddf340b5efec32d09ab18cb", "lat": 38.871730166666666, "name": "e7fcb5036ddf340b5efec32d09ab18cb", "lon": -77.00625516666666, "fusion_lon": 0.0}, {"is_reserved": 0, "type": "electric_scooter", "fusion_lat": 0.0, "is_disabled": 0, "rental_uris": {"ios": "https://dc.lft.to/lastmile_qr_scan", "android": "https://dc.lft.to/lastmile_qr_scan"}, "bike_id": "5c21559ac7596ac79731a34848b75afc", "lat": 38.904186333333335, "name": "5c21559ac7596ac79731a34848b75afc", "lon": -76.98531216666666, "fusion_lon": 0.0}, {"is_reserved": 0, "type": "electric_scooter", "fusion_lat": 0.0, "is_disabled": 0, "rental_uris": {"ios": "https://dc.lft.to/lastmile_qr_scan", "android": "https://dc.lft.to/lastmile_qr_scan"}, "bike_id": "a2fe64a50724ff0f94b8281e5caa4808", "lat": 38.899606666666664, "name": "a2fe64a50724ff0f94b8281e5caa4808", "lon": -77.01602933333334, "fusion_lon": 0.0}, {"is_reserved": 0, "type": "electric_scooter", "fusion_lat": 0.0, "is_disabled": 0, "rental_uris": {"ios": "https://dc.lft.to/lastmile_qr_scan", "android": "https://dc.lft.to/lastmile_qr_scan"}, "bike_id": "2965b2e0bfdeaafa4fce36b3918c90c7", "lat": 38.887469, "name": "2965b2e0bfdeaafa4fce36b3918c90c7", "lon": -77.01412983333333, "fusion_lon": 0.0}, {"is_reserved": 0, "type": "electric_scooter", "fusion_lat": 0.0, "is_disabled": 0, "rental_uris": {"ios": "https://dc.lft.to/lastmile_qr_scan", "android": "https://dc.lft.to/lastmile_qr_scan"}, "bike_id": "2eb9d6448e65744c87d90f353c613ad4", "lat": 38.91488533333333, "name": "2eb9d6448e65744c87d90f353c613ad4", "lon": -77.0408125, "fusion_lon": 0.0}, {"is_reserved": 0, "type": "electric_bike", "fusion_lat": 0.0, "is_disabled": 0, "rental_uris": {"ios": "https://dc.lft.to/lastmile_qr_scan", "android": "https://dc.lft.to/lastmile_qr_scan"}, "bike_id": "08a6c32cd385c4ce4fb115427f3f7924", "lat": 38.813331833333336, "name": "08a6c32cd385c4ce4fb115427f3f7924", "lon": -77.05092533333334, "fusion_lon": 0.0}, {"is_reserved": 0, "type": "electric_scooter", "fusion_lat": 0.0, "is_disabled": 0, "rental_uris": {"ios": "https://dc.lft.to/lastmile_qr_scan", "android": "https://dc.lft.to/lastmile_qr_scan"}, "bike_id": "554dbafe3508749e48f3c56e68cb40c6", "lat": 38.931977, "name": "554dbafe3508749e48f3c56e68cb40c6", "lon": -77.03266833333333, "fusion_lon": 0.0}, {"is_reserved": 0, "type": "electric_scooter", "fusion_lat": 0.0, "is_disabled": 0, "rental_uris": {"ios": "https://dc.lft.to/lastmile_qr_scan", "android": "https://dc.lft.to/lastmile_qr_scan"}, "bike_id": "ed59733fd29db34295cbfff1c44515fb", "lat": 38.94680133333333, "name": "ed59733fd29db34295cbfff1c44515fb", "lon": -77.03281933333334, "fusion_lon": 0.0}, {"is_reserved": 0, "type": "electric_scooter", "fusion_lat": 0.0, "is_disabled": 0, "rental_uris": {"ios": "https://dc.lft.to/lastmile_qr_scan", "android": "https://dc.lft.to/lastmile_qr_scan"}, "bike_id": "bdd9c5a86a2da6e50e937ce4236e4e60", "lat": 38.93859366666667, "name": "bdd9c5a86a2da6e50e937ce4236e4e60", "lon": -77.024605, "fusion_lon": 0.0}, {"is_reserved": 0, "type": "electric_bike", "fusion_lat": 0.0, "is_disabled": 0, "rental_uris": {"ios": "https://dc.lft.to/lastmile_qr_scan", "android": "https://dc.lft.to/lastmile_qr_scan"}, "bike_id": "b47abf432995678355b69efa92fd949c", "lat": 38.908475, "name": "b47abf432995678355b69efa92fd949c", "lon": -77.06366683333333, "fusion_lon": 0.0}, {"is_reserved": 0, "type": "electric_scooter", "fusion_lat": 0.0, "is_disabled": 0, "rental_uris": {"ios": "https://dc.lft.to/lastmile_qr_scan", "android": "https://dc.lft.to/lastmile_qr_scan"}, "bike_id": "84cd025809cebb8188d95ce4f76f9bb8", "lat": 38.905174, "name": "84cd025809cebb8188d95ce4f76f9bb8", "lon": -77.03094183333333, "fusion_lon": 0.0}, {"is_reserved": 0, "type": "electric_scooter", "fusion_lat": 0.0, "is_disabled": 0, "rental_uris": {"ios": "https://dc.lft.to/lastmile_qr_scan", "android": "https://dc.lft.to/lastmile_qr_scan"}, "bike_id": "2b23988252013d0ef817600a7e2a9eec", "lat": 38.8972675, "name": "2b23988252013d0ef817600a7e2a9eec", "lon": -77.0266175, "fusion_lon": 0.0}, {"is_reserved": 0, "type": "electric_scooter", "fusion_lat": 0.0, "is_disabled": 0, "rental_uris": {"ios": "https://dc.lft.to/lastmile_qr_scan", "android": "https://dc.lft.to/lastmile_qr_scan"}, "bike_id": "b8bc17ed5a5e722a6551b298de533e3a", "lat": 38.92293466666667, "name": "b8bc17ed5a5e722a6551b298de533e3a", "lon": -77.02071116666667, "fusion_lon": 0.0}, {"is_reserved": 0, "type": "electric_bike", "fusion_lat": 0.0, "is_disabled": 0, "rental_uris": {"ios": "https://dc.lft.to/lastmile_qr_scan", "android": "https://dc.lft.to/lastmile_qr_scan"}, "bike_id": "9b0c5e7a1583491f6990eebeb037b2e4", "lat": 38.96127383333334, "name": "9b0c5e7a1583491f6990eebeb037b2e4", "lon": -77.03275633333334, "fusion_lon": 0.0}, {"is_reserved": 0, "type": "electric_scooter", "fusion_lat": 0.0, "is_disabled": 0, "rental_uris": {"ios": "https://dc.lft.to/lastmile_qr_scan", "android": "https://dc.lft.to/lastmile_qr_scan"}, "bike_id": "a10162d197fa468f400eab7f2469d1da", "lat": 38.881347, "name": "a10162d197fa468f400eab7f2469d1da", "lon": -77.02262866666666, "fusion_lon": 0.0}, {"is_reserved": 0, "type": "electric_scooter", "fusion_lat": 0.0, "is_disabled": 0, "rental_uris": {"ios": "https://dc.lft.to/lastmile_qr_scan", "android": "https://dc.lft.to/lastmile_qr_scan"}, "bike_id": "d2c418dbe7113b609bb4427bb687605e", "lat": 38.8845045, "name": "d2c418dbe7113b609bb4427bb687605e", "lon": -76.95093616666666, "fusion_lon": 0.0}, {"is_reserved": 0, "type": "electric_scooter", "fusion_lat": 0.0, "is_disabled": 0, "rental_uris": {"ios": "https://dc.lft.to/lastmile_qr_scan", "android": "https://dc.lft.to/lastmile_qr_scan"}, "bike_id": "ec80a4ca5f146f07f5736c40bced2ebb", "lat": 38.930088833333336, "name": "ec80a4ca5f146f07f5736c40bced2ebb", "lon": -77.03781183333334, "fusion_lon": 0.0}, {"is_reserved": 0, "type": "electric_scooter", "fusion_lat": 0.0, "is_disabled": 0, "rental_uris": {"ios": "https://dc.lft.to/lastmile_qr_scan", "android": "https://dc.lft.to/lastmile_qr_scan"}, "bike_id": "039147d8a8e2f8b200b8f5e787a29ef3", "lat": 38.94114833333333, "name": "039147d8a8e2f8b200b8f5e787a29ef3", "lon": -77.02548733333333, "fusion_lon": 0.0}, {"is_reserved": 0, "type": "electric_scooter", "fusion_lat": 0.0, "is_disabled": 0, "rental_uris": {"ios": "https://dc.lft.to/lastmile_qr_scan", "android": "https://dc.lft.to/lastmile_qr_scan"}, "bike_id": "bed1d585511521d2382c3b0bbcc5136c", "lat": 38.914703, "name": "bed1d585511521d2382c3b0bbcc5136c", "lon": -77.02176633333333, "fusion_lon": 0.0}, {"is_reserved": 0, "type": "electric_scooter", "fusion_lat": 0.0, "is_disabled": 0, "rental_uris": {"ios": "https://dc.lft.to/lastmile_qr_scan", "android": "https://dc.lft.to/lastmile_qr_scan"}, "bike_id": "fda12c5b2522a494a139fb81734eccfa", "lat": 38.898347, "name": "fda12c5b2522a494a139fb81734eccfa", "lon": -77.04822833333333, "fusion_lon": 0.0}, {"is_reserved": 0, "type": "electric_scooter", "fusion_lat": 0.0, "is_disabled": 0, "rental_uris": {"ios": "https://dc.lft.to/lastmile_qr_scan", "android": "https://dc.lft.to/lastmile_qr_scan"}, "bike_id": "a3a9f050ba40fed342744172bbaddad9", "lat": 38.919089666666665, "name": "a3a9f050ba40fed342744172bbaddad9", "lon": -77.03691933333333, "fusion_lon": 0.0}, {"is_reserved": 0, "type": "electric_scooter", "fusion_lat": 0.0, "is_disabled": 0, "rental_uris": {"ios": "https://dc.lft.to/lastmile_qr_scan", "android": "https://dc.lft.to/lastmile_qr_scan"}, "bike_id": "21d4590f89bbcc8afb79dd2071d87bfb", "lat": 38.921937166666666, "name": "21d4590f89bbcc8afb79dd2071d87bfb", "lon": -77.042572, "fusion_lon": 0.0}, {"is_reserved": 0, "type": "electric_bike", "fusion_lat": 0.0, "is_disabled": 0, "rental_uris": {"ios": "https://dc.lft.to/lastmile_qr_scan", "android": "https://dc.lft.to/lastmile_qr_scan"}, "bike_id": "6202e88c65145b5c18598ff47f2f8562", "lat": 38.910337166666665, "name": "6202e88c65145b5c18598ff47f2f8562", "lon": -76.92336133333333, "fusion_lon": 0.0}, {"is_reserved": 0, "type": "electric_scooter", "fusion_lat": 0.0, "is_disabled": 0, "rental_uris": {"ios": "https://dc.lft.to/lastmile_qr_scan", "android": "https://dc.lft.to/lastmile_qr_scan"}, "bike_id": "3867e38b8042abb235b3a1a70f73e66a", "lat": 38.909125333333336, "name": "3867e38b8042abb235b3a1a70f73e66a", "lon": -77.04939283333333, "fusion_lon": 0.0}, {"is_reserved": 0, "type": "electric_scooter", "fusion_lat": 0.0, "is_disabled": 0, "rental_uris": {"ios": "https://dc.lft.to/lastmile_qr_scan", "android": "https://dc.lft.to/lastmile_qr_scan"}, "bike_id": "da96dbe2d99ffbeaf4bdf42aaedbe2be", "lat": 38.9241455, "name": "da96dbe2d99ffbeaf4bdf42aaedbe2be", "lon": -77.02007566666667, "fusion_lon": 0.0}, {"is_reserved": 0, "type": "electric_scooter", "fusion_lat": 0.0, "is_disabled": 0, "rental_uris": {"ios": "https://dc.lft.to/lastmile_qr_scan", "android": "https://dc.lft.to/lastmile_qr_scan"}, "bike_id": "5a47e9dd12a99e1648f2357f17aa4828", "lat": 38.913527333333334, "name": "5a47e9dd12a99e1648f2357f17aa4828", "lon": -76.97138816666667, "fusion_lon": 0.0}, {"is_reserved": 0, "type": "electric_scooter", "fusion_lat": 0.0, "is_disabled": 0, "rental_uris": {"ios": "https://dc.lft.to/lastmile_qr_scan", "android": "https://dc.lft.to/lastmile_qr_scan"}, "bike_id": "c4081f38a2973120922d0a5910dc00d5", "lat": 38.89258266666667, "name": "c4081f38a2973120922d0a5910dc00d5", "lon": -77.025932, "fusion_lon": 0.0}, {"is_reserved": 0, "type": "electric_scooter", "fusion_lat": 0.0, "is_disabled": 0, "rental_uris": {"ios": "https://dc.lft.to/lastmile_qr_scan", "android": "https://dc.lft.to/lastmile_qr_scan"}, "bike_id": "b7c056b2f6c62581396c677e830898e4", "lat": 38.90016583333333, "name": "b7c056b2f6c62581396c677e830898e4", "lon": -77.00708183333333, "fusion_lon": 0.0}, {"is_reserved": 0, "type": "electric_scooter", "fusion_lat": 0.0, "is_disabled": 0, "rental_uris": {"ios": "https://dc.lft.to/lastmile_qr_scan", "android": "https://dc.lft.to/lastmile_qr_scan"}, "bike_id": "154cd86b958aad1d2fc1ec0f0f19691d", "lat": 38.934064, "name": "154cd86b958aad1d2fc1ec0f0f19691d", "lon": -77.045556, "fusion_lon": 0.0}, {"is_reserved": 0, "type": "electric_scooter", "fusion_lat": 0.0, "is_disabled": 0, "rental_uris": {"ios": "https://dc.lft.to/lastmile_qr_scan", "android": "https://dc.lft.to/lastmile_qr_scan"}, "bike_id": "fd154275ef5057d657ee7f7046bf6437", "lat": 38.92388316666667, "name": "fd154275ef5057d657ee7f7046bf6437", "lon": -77.036626, "fusion_lon": 0.0}, {"is_reserved": 0, "type": "electric_scooter", "fusion_lat": 0.0, "is_disabled": 0, "rental_uris": {"ios": "https://dc.lft.to/lastmile_qr_scan", "android": "https://dc.lft.to/lastmile_qr_scan"}, "bike_id": "fc733ea5f4f30f0ea2c998c3028430b5", "lat": 38.902497833333335, "name": "fc733ea5f4f30f0ea2c998c3028430b5", "lon": -77.03960833333333, "fusion_lon": 0.0}, {"is_reserved": 0, "type": "electric_scooter", "fusion_lat": 0.0, "is_disabled": 0, "rental_uris": {"ios": "https://dc.lft.to/lastmile_qr_scan", "android": "https://dc.lft.to/lastmile_qr_scan"}, "bike_id": "6f256fae154d136442fe7b407c5de9f6", "lat": 38.884646833333335, "name": "6f256fae154d136442fe7b407c5de9f6", "lon": -77.02899383333333, "fusion_lon": 0.0}, {"is_reserved": 0, "type": "electric_scooter", "fusion_lat": 0.0, "is_disabled": 0, "rental_uris": {"ios": "https://dc.lft.to/lastmile_qr_scan", "android": "https://dc.lft.to/lastmile_qr_scan"}, "bike_id": "38ff6623cc2d205a46dce1b988c98f5f", "lat": 38.923392166666666, "name": "38ff6623cc2d205a46dce1b988c98f5f", "lon": -77.040263, "fusion_lon": 0.0}, {"is_reserved": 0, "type": "electric_scooter", "fusion_lat": 0.0, "is_disabled": 0, "rental_uris": {"ios": "https://dc.lft.to/lastmile_qr_scan", "android": "https://dc.lft.to/lastmile_qr_scan"}, "bike_id": "061a1873d333350ae05f5a9891ff5d74", "lat": 38.93337266666666, "name": "061a1873d333350ae05f5a9891ff5d74", "lon": -77.03879166666667, "fusion_lon": 0.0}, {"is_reserved": 0, "type": "electric_scooter", "fusion_lat": 0.0, "is_disabled": 0, "rental_uris": {"ios": "https://dc.lft.to/lastmile_qr_scan", "android": "https://dc.lft.to/lastmile_qr_scan"}, "bike_id": "a690aeb2c536612d0ad7fbccb9b90677", "lat": 38.92719233333333, "name": "a690aeb2c536612d0ad7fbccb9b90677", "lon": -77.02090466666667, "fusion_lon": 0.0}, {"is_reserved": 0, "type": "electric_bike", "fusion_lat": 0.0, "is_disabled": 0, "rental_uris": {"ios": "https://dc.lft.to/lastmile_qr_scan", "android": "https://dc.lft.to/lastmile_qr_scan"}, "bike_id": "adaf826932428e94cd5704a82f120e21", "lat": 38.951863333333336, "name": "adaf826932428e94cd5704a82f120e21", "lon": -76.93545616666667, "fusion_lon": 0.0}, {"is_reserved": 0, "type": "electric_scooter", "fusion_lat": 0.0, "is_disabled": 0, "rental_uris": {"ios": "https://dc.lft.to/lastmile_qr_scan", "android": "https://dc.lft.to/lastmile_qr_scan"}, "bike_id": "5089b4d8a54bed336d22de037c6fc04a", "lat": 38.92474216666667, "name": "5089b4d8a54bed336d22de037c6fc04a", "lon": -77.02846216666667, "fusion_lon": 0.0}, {"is_reserved": 0, "type": "electric_scooter", "fusion_lat": 0.0, "is_disabled": 0, "rental_uris": {"ios": "https://dc.lft.to/lastmile_qr_scan", "android": "https://dc.lft.to/lastmile_qr_scan"}, "bike_id": "6d047cdbf6f53aa1583582bde22ac8a8", "lat": 38.924455, "name": "6d047cdbf6f53aa1583582bde22ac8a8", "lon": -77.0297685, "fusion_lon": 0.0}, {"is_reserved": 0, "type": "electric_scooter", "fusion_lat": 0.0, "is_disabled": 0, "rental_uris": {"ios": "https://dc.lft.to/lastmile_qr_scan", "android": "https://dc.lft.to/lastmile_qr_scan"}, "bike_id": "4eeaf2fc2091a41f1ae9176405539247", "lat": 38.884250333333334, "name": "4eeaf2fc2091a41f1ae9176405539247", "lon": -77.0254765, "fusion_lon": 0.0}, {"is_reserved": 0, "type": "electric_bike", "fusion_lat": 0.0, "is_disabled": 0, "rental_uris": {"ios": "https://dc.lft.to/lastmile_qr_scan", "android": "https://dc.lft.to/lastmile_qr_scan"}, "bike_id": "dd39668eb469999b46a5fabd5c550ada", "lat": 38.89764383333333, "name": "dd39668eb469999b46a5fabd5c550ada", "lon": -77.02094333333334, "fusion_lon": 0.0}, {"is_reserved": 0, "type": "electric_scooter", "fusion_lat": 0.0, "is_disabled": 0, "rental_uris": {"ios": "https://dc.lft.to/lastmile_qr_scan", "android": "https://dc.lft.to/lastmile_qr_scan"}, "bike_id": "912cb205b8d413f89825a0c0f5b3400b", "lat": 38.895496333333334, "name": "912cb205b8d413f89825a0c0f5b3400b", "lon": -76.98338716666666, "fusion_lon": 0.0}, {"is_reserved": 0, "type": "electric_bike", "fusion_lat": 0.0, "is_disabled": 0, "rental_uris": {"ios": "https://dc.lft.to/lastmile_qr_scan", "android": "https://dc.lft.to/lastmile_qr_scan"}, "bike_id": "5eea0235892ffaee8d02f73d440b69b1", "lat": 38.963835, "name": "5eea0235892ffaee8d02f73d440b69b1", "lon": -77.01974, "fusion_lon": 0.0}, {"is_reserved": 0, "type": "electric_scooter", "fusion_lat": 0.0, "is_disabled": 0, "rental_uris": {"ios": "https://dc.lft.to/lastmile_qr_scan", "android": "https://dc.lft.to/lastmile_qr_scan"}, "bike_id": "f4780f4a6a40a9b41c8851481e628e3c", "lat": 38.93000333333333, "name": "f4780f4a6a40a9b41c8851481e628e3c", "lon": -77.05540183333333, "fusion_lon": 0.0}, {"is_reserved": 0, "type": "electric_scooter", "fusion_lat": 0.0, "is_disabled": 0, "rental_uris": {"ios": "https://dc.lft.to/lastmile_qr_scan", "android": "https://dc.lft.to/lastmile_qr_scan"}, "bike_id": "47f4908c4bed40cf9f374623a4bb27f2", "lat": 38.903153333333336, "name": "47f4908c4bed40cf9f374623a4bb27f2", "lon": -76.99130816666667, "fusion_lon": 0.0}, {"is_reserved": 0, "type": "electric_scooter", "fusion_lat": 0.0, "is_disabled": 0, "rental_uris": {"ios": "https://dc.lft.to/lastmile_qr_scan", "android": "https://dc.lft.to/lastmile_qr_scan"}, "bike_id": "aa21ebef1a1688013fa765488c823f00", "lat": 38.91015733333333, "name": "aa21ebef1a1688013fa765488c823f00", "lon": -77.01989433333334, "fusion_lon": 0.0}, {"is_reserved": 0, "type": "electric_scooter", "fusion_lat": 0.0, "is_disabled": 0, "rental_uris": {"ios": "https://dc.lft.to/lastmile_qr_scan", "android": "https://dc.lft.to/lastmile_qr_scan"}, "bike_id": "cedb8b6cd6d19329548614339ac125fb", "lat": 38.9207665, "name": "cedb8b6cd6d19329548614339ac125fb", "lon": -77.02514333333333, "fusion_lon": 0.0}, {"is_reserved": 0, "type": "electric_scooter", "fusion_lat": 0.0, "is_disabled": 0, "rental_uris": {"ios": "https://dc.lft.to/lastmile_qr_scan", "android": "https://dc.lft.to/lastmile_qr_scan"}, "bike_id": "24cbb865203e595e9f4535b3254c709d", "lat": 38.93561166666667, "name": "24cbb865203e595e9f4535b3254c709d", "lon": -77.07339566666667, "fusion_lon": 0.0}, {"is_reserved": 0, "type": "electric_scooter", "fusion_lat": 0.0, "is_disabled": 0, "rental_uris": {"ios": "https://dc.lft.to/lastmile_qr_scan", "android": "https://dc.lft.to/lastmile_qr_scan"}, "bike_id": "719d64232c9c728909dae3555c89639f", "lat": 38.857200666666664, "name": "719d64232c9c728909dae3555c89639f", "lon": -76.98096633333333, "fusion_lon": 0.0}, {"is_reserved": 0, "type": "electric_scooter", "fusion_lat": 0.0, "is_disabled": 0, "rental_uris": {"ios": "https://dc.lft.to/lastmile_qr_scan", "android": "https://dc.lft.to/lastmile_qr_scan"}, "bike_id": "d6d13bac13fa9beb183f23375c023077", "lat": 38.916986666666666, "name": "d6d13bac13fa9beb183f23375c023077", "lon": -77.052976, "fusion_lon": 0.0}, {"is_reserved": 0, "type": "electric_scooter", "fusion_lat": 0.0, "is_disabled": 0, "rental_uris": {"ios": "https://dc.lft.to/lastmile_qr_scan", "android": "https://dc.lft.to/lastmile_qr_scan"}, "bike_id": "ed9f7e0d7a3bae3bd479ce121c378d1f", "lat": 38.94730766666667, "name": "ed9f7e0d7a3bae3bd479ce121c378d1f", "lon": -77.02670283333333, "fusion_lon": 0.0}, {"is_reserved": 0, "type": "electric_bike", "fusion_lat": 0.0, "is_disabled": 0, "rental_uris": {"ios": "https://dc.lft.to/lastmile_qr_scan", "android": "https://dc.lft.to/lastmile_qr_scan"}, "bike_id": "857c1de040ac0cc4af8daca49641ec83", "lat": 38.834087833333335, "name": "857c1de040ac0cc4af8daca49641ec83", "lon": -77.04992366666667, "fusion_lon": 0.0}, {"is_reserved": 0, "type": "electric_scooter", "fusion_lat": 0.0, "is_disabled": 0, "rental_uris": {"ios": "https://dc.lft.to/lastmile_qr_scan", "android": "https://dc.lft.to/lastmile_qr_scan"}, "bike_id": "db190c059be65f70d47d57df5c09f0f1", "lat": 38.88548266666667, "name": "db190c059be65f70d47d57df5c09f0f1", "lon": -76.98533183333333, "fusion_lon": 0.0}, {"is_reserved": 0, "type": "electric_scooter", "fusion_lat": 0.0, "is_disabled": 0, "rental_uris": {"ios": "https://dc.lft.to/lastmile_qr_scan", "android": "https://dc.lft.to/lastmile_qr_scan"}, "bike_id": "01021b129f9ecba2a69a215e44c92450", "lat": 38.8972765, "name": "01021b129f9ecba2a69a215e44c92450", "lon": -77.02648233333333, "fusion_lon": 0.0}, {"is_reserved": 0, "type": "electric_scooter", "fusion_lat": 0.0, "is_disabled": 0, "rental_uris": {"ios": "https://dc.lft.to/lastmile_qr_scan", "android": "https://dc.lft.to/lastmile_qr_scan"}, "bike_id": "c9f373b0e91a55d44b202f869291d493", "lat": 38.90201916666667, "name": "c9f373b0e91a55d44b202f869291d493", "lon": -77.02203333333334, "fusion_lon": 0.0}, {"is_reserved": 0, "type": "electric_scooter", "fusion_lat": 0.0, "is_disabled": 0, "rental_uris": {"ios": "https://dc.lft.to/lastmile_qr_scan", "android": "https://dc.lft.to/lastmile_qr_scan"}, "bike_id": "a78cd1eb4a95478c46b8c69abf317023", "lat": 38.90042183333333, "name": "a78cd1eb4a95478c46b8c69abf317023", "lon": -77.043434, "fusion_lon": 0.0}, {"is_reserved": 0, "type": "electric_bike", "fusion_lat": 0.0, "is_disabled": 0, "rental_uris": {"ios": "https://dc.lft.to/lastmile_qr_scan", "android": "https://dc.lft.to/lastmile_qr_scan"}, "bike_id": "88e006b0e6a7c18d020a66cd695a2511", "lat": 38.92803983333334, "name": "88e006b0e6a7c18d020a66cd695a2511", "lon": -77.22937816666666, "fusion_lon": 0.0}, {"is_reserved": 0, "type": "electric_scooter", "fusion_lat": 0.0, "is_disabled": 0, "rental_uris": {"ios": "https://dc.lft.to/lastmile_qr_scan", "android": "https://dc.lft.to/lastmile_qr_scan"}, "bike_id": "81fc729afd3ec814dd4db19c917fe0d7", "lat": 38.921768, "name": "81fc729afd3ec814dd4db19c917fe0d7", "lon": -77.021179, "fusion_lon": 0.0}, {"is_reserved": 0, "type": "electric_scooter", "fusion_lat": 0.0, "is_disabled": 0, "rental_uris": {"ios": "https://dc.lft.to/lastmile_qr_scan", "android": "https://dc.lft.to/lastmile_qr_scan"}, "bike_id": "07b7ecb0348385eb2e17623afa91e44b", "lat": 38.8988345, "name": "07b7ecb0348385eb2e17623afa91e44b", "lon": -76.93171266666667, "fusion_lon": 0.0}, {"is_reserved": 0, "type": "electric_scooter", "fusion_lat": 0.0, "is_disabled": 0, "rental_uris": {"ios": "https://dc.lft.to/lastmile_qr_scan", "android": "https://dc.lft.to/lastmile_qr_scan"}, "bike_id": "dab05c4ae989b36df74928906d3018d8", "lat": 38.923696666666665, "name": "dab05c4ae989b36df74928906d3018d8", "lon": -77.01910666666667, "fusion_lon": 0.0}, {"is_reserved": 0, "type": "electric_scooter", "fusion_lat": 0.0, "is_disabled": 0, "rental_uris": {"ios": "https://dc.lft.to/lastmile_qr_scan", "android": "https://dc.lft.to/lastmile_qr_scan"}, "bike_id": "80dd36a302a97b85bb7639fa2839c16f", "lat": 38.96432083333333, "name": "80dd36a302a97b85bb7639fa2839c16f", "lon": -77.0742475, "fusion_lon": 0.0}, {"is_reserved": 0, "type": "electric_scooter", "fusion_lat": 0.0, "is_disabled": 0, "rental_uris": {"ios": "https://dc.lft.to/lastmile_qr_scan", "android": "https://dc.lft.to/lastmile_qr_scan"}, "bike_id": "865baefd3702f9b7538c3f2d5c2d0ac5", "lat": 38.91709766666666, "name": "865baefd3702f9b7538c3f2d5c2d0ac5", "lon": -77.0240795, "fusion_lon": 0.0}, {"is_reserved": 0, "type": "electric_scooter", "fusion_lat": 0.0, "is_disabled": 0, "rental_uris": {"ios": "https://dc.lft.to/lastmile_qr_scan", "android": "https://dc.lft.to/lastmile_qr_scan"}, "bike_id": "8b9aa74dd1d69d344c29937259c4d851", "lat": 38.93508083333333, "name": "8b9aa74dd1d69d344c29937259c4d851", "lon": -77.02421033333333, "fusion_lon": 0.0}, {"is_reserved": 0, "type": "electric_scooter", "fusion_lat": 0.0, "is_disabled": 0, "rental_uris": {"ios": "https://dc.lft.to/lastmile_qr_scan", "android": "https://dc.lft.to/lastmile_qr_scan"}, "bike_id": "c6712a4b099dd067b3c132af8456c3e4", "lat": 38.921097833333334, "name": "c6712a4b099dd067b3c132af8456c3e4", "lon": -77.0303925, "fusion_lon": 0.0}, {"is_reserved": 0, "type": "electric_scooter", "fusion_lat": 0.0, "is_disabled": 0, "rental_uris": {"ios": "https://dc.lft.to/lastmile_qr_scan", "android": "https://dc.lft.to/lastmile_qr_scan"}, "bike_id": "d6e6a0c4a518d39575f8bf6f028136d6", "lat": 38.91706883333333, "name": "d6e6a0c4a518d39575f8bf6f028136d6", "lon": -77.02406666666667, "fusion_lon": 0.0}, {"is_reserved": 0, "type": "electric_scooter", "fusion_lat": 0.0, "is_disabled": 0, "rental_uris": {"ios": "https://dc.lft.to/lastmile_qr_scan", "android": "https://dc.lft.to/lastmile_qr_scan"}, "bike_id": "c36f229f0ea06b5629c4382084118123", "lat": 38.915056166666666, "name": "c36f229f0ea06b5629c4382084118123", "lon": -77.03211266666666, "fusion_lon": 0.0}, {"is_reserved": 0, "type": "electric_scooter", "fusion_lat": 0.0, "is_disabled": 0, "rental_uris": {"ios": "https://dc.lft.to/lastmile_qr_scan", "android": "https://dc.lft.to/lastmile_qr_scan"}, "bike_id": "fbd1a9367a71455d9daffd4e2cc1b349", "lat": 38.9096895, "name": "fbd1a9367a71455d9daffd4e2cc1b349", "lon": -77.03291066666667, "fusion_lon": 0.0}, {"is_reserved": 0, "type": "electric_scooter", "fusion_lat": 0.0, "is_disabled": 0, "rental_uris": {"ios": "https://dc.lft.to/lastmile_qr_scan", "android": "https://dc.lft.to/lastmile_qr_scan"}, "bike_id": "59019bffa87d80be71e4a49d875ab32d", "lat": 38.91707683333333, "name": "59019bffa87d80be71e4a49d875ab32d", "lon": -77.03498616666667, "fusion_lon": 0.0}, {"is_reserved": 0, "type": "electric_scooter", "fusion_lat": 0.0, "is_disabled": 0, "rental_uris": {"ios": "https://dc.lft.to/lastmile_qr_scan", "android": "https://dc.lft.to/lastmile_qr_scan"}, "bike_id": "fbfca2167c2275366b2a9b089c5f6cce", "lat": 38.909675166666666, "name": "fbfca2167c2275366b2a9b089c5f6cce", "lon": -77.02203383333334, "fusion_lon": 0.0}, {"is_reserved": 0, "type": "electric_scooter", "fusion_lat": 0.0, "is_disabled": 0, "rental_uris": {"ios": "https://dc.lft.to/lastmile_qr_scan", "android": "https://dc.lft.to/lastmile_qr_scan"}, "bike_id": "3e1ab0f9f937753d2b7a97c8fec3a262", "lat": 38.92319766666667, "name": "3e1ab0f9f937753d2b7a97c8fec3a262", "lon": -77.01953183333333, "fusion_lon": 0.0}, {"is_reserved": 0, "type": "electric_scooter", "fusion_lat": 0.0, "is_disabled": 0, "rental_uris": {"ios": "https://dc.lft.to/lastmile_qr_scan", "android": "https://dc.lft.to/lastmile_qr_scan"}, "bike_id": "32d619499dcf78206299352e284ec0e2", "lat": 38.9232325, "name": "32d619499dcf78206299352e284ec0e2", "lon": -77.04511416666666, "fusion_lon": 0.0}, {"is_reserved": 0, "type": "electric_scooter", "fusion_lat": 0.0, "is_disabled": 0, "rental_uris": {"ios": "https://dc.lft.to/lastmile_qr_scan", "android": "https://dc.lft.to/lastmile_qr_scan"}, "bike_id": "08fa1cf43c26c90ec9bf74547cd418e3", "lat": 38.90251933333333, "name": "08fa1cf43c26c90ec9bf74547cd418e3", "lon": -77.0277595, "fusion_lon": 0.0}, {"is_reserved": 0, "type": "electric_scooter", "fusion_lat": 0.0, "is_disabled": 0, "rental_uris": {"ios": "https://dc.lft.to/lastmile_qr_scan", "android": "https://dc.lft.to/lastmile_qr_scan"}, "bike_id": "fa0e0a07750ec8907304052b6d109be1", "lat": 38.9486265, "name": "fa0e0a07750ec8907304052b6d109be1", "lon": -77.07879183333333, "fusion_lon": 0.0}, {"is_reserved": 0, "type": "electric_scooter", "fusion_lat": 0.0, "is_disabled": 0, "rental_uris": {"ios": "https://dc.lft.to/lastmile_qr_scan", "android": "https://dc.lft.to/lastmile_qr_scan"}, "bike_id": "fdf4bfc7908457e5a09a91e06d5a37e4", "lat": 38.89785833333333, "name": "fdf4bfc7908457e5a09a91e06d5a37e4", "lon": -77.05016033333334, "fusion_lon": 0.0}, {"is_reserved": 0, "type": "electric_scooter", "fusion_lat": 0.0, "is_disabled": 0, "rental_uris": {"ios": "https://dc.lft.to/lastmile_qr_scan", "android": "https://dc.lft.to/lastmile_qr_scan"}, "bike_id": "4cf25f4eddbdd2653bfb4d8653fa5645", "lat": 38.92723016666667, "name": "4cf25f4eddbdd2653bfb4d8653fa5645", "lon": -77.05137916666666, "fusion_lon": 0.0}, {"is_reserved": 0, "type": "electric_scooter", "fusion_lat": 0.0, "is_disabled": 0, "rental_uris": {"ios": "https://dc.lft.to/lastmile_qr_scan", "android": "https://dc.lft.to/lastmile_qr_scan"}, "bike_id": "2dbc87c05798763e1f6847fad9e7b23c", "lat": 38.91569233333333, "name": "2dbc87c05798763e1f6847fad9e7b23c", "lon": -77.03674216666667, "fusion_lon": 0.0}, {"is_reserved": 0, "type": "electric_scooter", "fusion_lat": 0.0, "is_disabled": 0, "rental_uris": {"ios": "https://dc.lft.to/lastmile_qr_scan", "android": "https://dc.lft.to/lastmile_qr_scan"}, "bike_id": "a59a199f56e6f8a5c6d95203419d3dc4", "lat": 38.896920333333334, "name": "a59a199f56e6f8a5c6d95203419d3dc4", "lon": -77.04340783333333, "fusion_lon": 0.0}, {"is_reserved": 0, "type": "electric_bike", "fusion_lat": 0.0, "is_disabled": 0, "rental_uris": {"ios": "https://dc.lft.to/lastmile_qr_scan", "android": "https://dc.lft.to/lastmile_qr_scan"}, "bike_id": "86ee8d0c38b866b2187c0561b7481fbc", "lat": 38.96903783333333, "name": "86ee8d0c38b866b2187c0561b7481fbc", "lon": -76.95580983333333, "fusion_lon": 0.0}, {"is_reserved": 0, "type": "electric_scooter", "fusion_lat": 0.0, "is_disabled": 0, "rental_uris": {"ios": "https://dc.lft.to/lastmile_qr_scan", "android": "https://dc.lft.to/lastmile_qr_scan"}, "bike_id": "bec6995e0359b0d46624427f3235df0a", "lat": 38.92296783333333, "name": "bec6995e0359b0d46624427f3235df0a", "lon": -76.99773166666667, "fusion_lon": 0.0}, {"is_reserved": 0, "type": "electric_scooter", "fusion_lat": 0.0, "is_disabled": 0, "rental_uris": {"ios": "https://dc.lft.to/lastmile_qr_scan", "android": "https://dc.lft.to/lastmile_qr_scan"}, "bike_id": "3be680c20837415640fb7f1cde3a8ef1", "lat": 38.89256366666667, "name": "3be680c20837415640fb7f1cde3a8ef1", "lon": -77.032089, "fusion_lon": 0.0}, {"is_reserved": 0, "type": "electric_scooter", "fusion_lat": 0.0, "is_disabled": 0, "rental_uris": {"ios": "https://dc.lft.to/lastmile_qr_scan", "android": "https://dc.lft.to/lastmile_qr_scan"}, "bike_id": "8b8f86467db2947114bf47989c44c8ad", "lat": 38.8801045, "name": "8b8f86467db2947114bf47989c44c8ad", "lon": -76.9973945, "fusion_lon": 0.0}, {"is_reserved": 0, "type": "electric_scooter", "fusion_lat": 0.0, "is_disabled": 0, "rental_uris": {"ios": "https://dc.lft.to/lastmile_qr_scan", "android": "https://dc.lft.to/lastmile_qr_scan"}, "bike_id": "415086ecbb42e0955643291056c7091e", "lat": 38.89885533333333, "name": "415086ecbb42e0955643291056c7091e", "lon": -76.93174783333333, "fusion_lon": 0.0}, {"is_reserved": 0, "type": "electric_scooter", "fusion_lat": 0.0, "is_disabled": 0, "rental_uris": {"ios": "https://dc.lft.to/lastmile_qr_scan", "android": "https://dc.lft.to/lastmile_qr_scan"}, "bike_id": "89be650cfac3f1926424c982cb4dd0fb", "lat": 38.9133695, "name": "89be650cfac3f1926424c982cb4dd0fb", "lon": -77.03037016666667, "fusion_lon": 0.0}, {"is_reserved": 0, "type": "electric_scooter", "fusion_lat": 0.0, "is_disabled": 0, "rental_uris": {"ios": "https://dc.lft.to/lastmile_qr_scan", "android": "https://dc.lft.to/lastmile_qr_scan"}, "bike_id": "aed300d375e01abec6585e21b33727b7", "lat": 38.90590366666667, "name": "aed300d375e01abec6585e21b33727b7", "lon": -77.04448983333333, "fusion_lon": 0.0}, {"is_reserved": 0, "type": "electric_scooter", "fusion_lat": 0.0, "is_disabled": 0, "rental_uris": {"ios": "https://dc.lft.to/lastmile_qr_scan", "android": "https://dc.lft.to/lastmile_qr_scan"}, "bike_id": "bad681d82bd2e37898a35bb1a0b56285", "lat": 38.892198666666665, "name": "bad681d82bd2e37898a35bb1a0b56285", "lon": -77.02219016666666, "fusion_lon": 0.0}, {"is_reserved": 0, "type": "electric_scooter", "fusion_lat": 0.0, "is_disabled": 0, "rental_uris": {"ios": "https://dc.lft.to/lastmile_qr_scan", "android": "https://dc.lft.to/lastmile_qr_scan"}, "bike_id": "9f1cec533469f23c2fbdb38bfc0024f4", "lat": 38.9169775, "name": "9f1cec533469f23c2fbdb38bfc0024f4", "lon": -77.032407, "fusion_lon": 0.0}, {"is_reserved": 0, "type": "electric_bike", "fusion_lat": 0.0, "is_disabled": 0, "rental_uris": {"ios": "https://dc.lft.to/lastmile_qr_scan", "android": "https://dc.lft.to/lastmile_qr_scan"}, "bike_id": "cc2a8b9a57fd354e81ff48da211a4142", "lat": 38.9145175, "name": "cc2a8b9a57fd354e81ff48da211a4142", "lon": -76.9727495, "fusion_lon": 0.0}, {"is_reserved": 0, "type": "electric_bike", "fusion_lat": 0.0, "is_disabled": 0, "rental_uris": {"ios": "https://dc.lft.to/lastmile_qr_scan", "android": "https://dc.lft.to/lastmile_qr_scan"}, "bike_id": "d96fb4dbb98250230d266698392e809c", "lat": 38.95511033333333, "name": "d96fb4dbb98250230d266698392e809c", "lon": -77.02769133333334, "fusion_lon": 0.0}, {"is_reserved": 0, "type": "electric_scooter", "fusion_lat": 0.0, "is_disabled": 0, "rental_uris": {"ios": "https://dc.lft.to/lastmile_qr_scan", "android": "https://dc.lft.to/lastmile_qr_scan"}, "bike_id": "30bdd3fbce8274e557ea73ba6a7cc981", "lat": 38.88837616666667, "name": "30bdd3fbce8274e557ea73ba6a7cc981", "lon": -76.97737616666667, "fusion_lon": 0.0}, {"is_reserved": 0, "type": "electric_bike", "fusion_lat": 0.0, "is_disabled": 0, "rental_uris": {"ios": "https://dc.lft.to/lastmile_qr_scan", "android": "https://dc.lft.to/lastmile_qr_scan"}, "bike_id": "87ad0c506e1e2dd1550d225d77abe8fd", "lat": 38.96734583333333, "name": "87ad0c506e1e2dd1550d225d77abe8fd", "lon": -77.08909283333334, "fusion_lon": 0.0}, {"is_reserved": 0, "type": "electric_scooter", "fusion_lat": 0.0, "is_disabled": 0, "rental_uris": {"ios": "https://dc.lft.to/lastmile_qr_scan", "android": "https://dc.lft.to/lastmile_qr_scan"}, "bike_id": "72bbd41b113d0e40370485804d939f25", "lat": 38.89510166666667, "name": "72bbd41b113d0e40370485804d939f25", "lon": -77.0228715, "fusion_lon": 0.0}, {"is_reserved": 0, "type": "electric_scooter", "fusion_lat": 0.0, "is_disabled": 0, "rental_uris": {"ios": "https://dc.lft.to/lastmile_qr_scan", "android": "https://dc.lft.to/lastmile_qr_scan"}, "bike_id": "79f7d63eec6d0336c2219d0eea243ef3", "lat": 38.887665166666665, "name": "79f7d63eec6d0336c2219d0eea243ef3", "lon": -77.00042683333334, "fusion_lon": 0.0}, {"is_reserved": 0, "type": "electric_scooter", "fusion_lat": 0.0, "is_disabled": 0, "rental_uris": {"ios": "https://dc.lft.to/lastmile_qr_scan", "android": "https://dc.lft.to/lastmile_qr_scan"}, "bike_id": "9654991eda151a79d71bf9f03b1dc067", "lat": 38.9100145, "name": "9654991eda151a79d71bf9f03b1dc067", "lon": -77.0269415, "fusion_lon": 0.0}, {"is_reserved": 0, "type": "electric_scooter", "fusion_lat": 0.0, "is_disabled": 0, "rental_uris": {"ios": "https://dc.lft.to/lastmile_qr_scan", "android": "https://dc.lft.to/lastmile_qr_scan"}, "bike_id": "2a060a200e90f38e96ed3ab3bf9b2eb7", "lat": 38.9211485, "name": "2a060a200e90f38e96ed3ab3bf9b2eb7", "lon": -77.036353, "fusion_lon": 0.0}, {"is_reserved": 0, "type": "electric_scooter", "fusion_lat": 0.0, "is_disabled": 0, "rental_uris": {"ios": "https://dc.lft.to/lastmile_qr_scan", "android": "https://dc.lft.to/lastmile_qr_scan"}, "bike_id": "336b158e92ac40c7c22e95dd6aa951db", "lat": 38.92233616666667, "name": "336b158e92ac40c7c22e95dd6aa951db", "lon": -77.02829116666666, "fusion_lon": 0.0}, {"is_reserved": 0, "type": "electric_bike", "fusion_lat": 0.0, "is_disabled": 0, "rental_uris": {"ios": "https://dc.lft.to/lastmile_qr_scan", "android": "https://dc.lft.to/lastmile_qr_scan"}, "bike_id": "e2de5da10ce2500d1ec11bae9a3871f9", "lat": 38.83593416666667, "name": "e2de5da10ce2500d1ec11bae9a3871f9", "lon": -76.99012766666667, "fusion_lon": 0.0}, {"is_reserved": 0, "type": "electric_scooter", "fusion_lat": 0.0, "is_disabled": 0, "rental_uris": {"ios": "https://dc.lft.to/lastmile_qr_scan", "android": "https://dc.lft.to/lastmile_qr_scan"}, "bike_id": "9f7bc78b385e67f7655fc8a95f1f9347", "lat": 38.92214666666667, "name": "9f7bc78b385e67f7655fc8a95f1f9347", "lon": -77.02030483333333, "fusion_lon": 0.0}, {"is_reserved": 0, "type": "electric_bike", "fusion_lat": 0.0, "is_disabled": 0, "rental_uris": {"ios": "https://dc.lft.to/lastmile_qr_scan", "android": "https://dc.lft.to/lastmile_qr_scan"}, "bike_id": "fee498aa57b9f53a22eb62edac66e750", "lat": 38.85085733333333, "name": "fee498aa57b9f53a22eb62edac66e750", "lon": -76.98156116666667, "fusion_lon": 0.0}, {"is_reserved": 0, "type": "electric_scooter", "fusion_lat": 0.0, "is_disabled": 0, "rental_uris": {"ios": "https://dc.lft.to/lastmile_qr_scan", "android": "https://dc.lft.to/lastmile_qr_scan"}, "bike_id": "bb231ec3e5c1cc3bd5460bcdd9b6a967", "lat": 38.933330833333336, "name": "bb231ec3e5c1cc3bd5460bcdd9b6a967", "lon": -77.02911683333333, "fusion_lon": 0.0}, {"is_reserved": 0, "type": "electric_scooter", "fusion_lat": 0.0, "is_disabled": 0, "rental_uris": {"ios": "https://dc.lft.to/lastmile_qr_scan", "android": "https://dc.lft.to/lastmile_qr_scan"}, "bike_id": "30ef03aeee555e9c65e5398ac90b2f88", "lat": 38.92955166666667, "name": "30ef03aeee555e9c65e5398ac90b2f88", "lon": -77.044005, "fusion_lon": 0.0}, {"is_reserved": 0, "type": "electric_scooter", "fusion_lat": 0.0, "is_disabled": 0, "rental_uris": {"ios": "https://dc.lft.to/lastmile_qr_scan", "android": "https://dc.lft.to/lastmile_qr_scan"}, "bike_id": "dadc130d4f98e316b3b9c1bb129d0949", "lat": 38.91745233333333, "name": "dadc130d4f98e316b3b9c1bb129d0949", "lon": -77.0108305, "fusion_lon": 0.0}, {"is_reserved": 0, "type": "electric_scooter", "fusion_lat": 0.0, "is_disabled": 0, "rental_uris": {"ios": "https://dc.lft.to/lastmile_qr_scan", "android": "https://dc.lft.to/lastmile_qr_scan"}, "bike_id": "bb2f161104bb0acf765507c2c3be8e29", "lat": 38.902166333333334, "name": "bb2f161104bb0acf765507c2c3be8e29", "lon": -77.01583383333333, "fusion_lon": 0.0}, {"is_reserved": 0, "type": "electric_scooter", "fusion_lat": 0.0, "is_disabled": 0, "rental_uris": {"ios": "https://dc.lft.to/lastmile_qr_scan", "android": "https://dc.lft.to/lastmile_qr_scan"}, "bike_id": "44a0d53100b9ae3a4ce0cc21389aae3d", "lat": 38.91989233333334, "name": "44a0d53100b9ae3a4ce0cc21389aae3d", "lon": -76.97304916666667, "fusion_lon": 0.0}, {"is_reserved": 0, "type": "electric_scooter", "fusion_lat": 0.0, "is_disabled": 0, "rental_uris": {"ios": "https://dc.lft.to/lastmile_qr_scan", "android": "https://dc.lft.to/lastmile_qr_scan"}, "bike_id": "6fb836aa09b96ff8b0e5d65d86065cc5", "lat": 38.905708, "name": "6fb836aa09b96ff8b0e5d65d86065cc5", "lon": -77.00561333333333, "fusion_lon": 0.0}, {"is_reserved": 0, "type": "electric_scooter", "fusion_lat": 0.0, "is_disabled": 0, "rental_uris": {"ios": "https://dc.lft.to/lastmile_qr_scan", "android": "https://dc.lft.to/lastmile_qr_scan"}, "bike_id": "68e745e42a5cb1da8a482e1caad18be7", "lat": 38.90214916666667, "name": "68e745e42a5cb1da8a482e1caad18be7", "lon": -76.98702533333334, "fusion_lon": 0.0}, {"is_reserved": 0, "type": "electric_scooter", "fusion_lat": 0.0, "is_disabled": 0, "rental_uris": {"ios": "https://dc.lft.to/lastmile_qr_scan", "android": "https://dc.lft.to/lastmile_qr_scan"}, "bike_id": "2bcbcf0899506aa6ebb66635e88fc68f", "lat": 38.9199905, "name": "2bcbcf0899506aa6ebb66635e88fc68f", "lon": -77.03212133333334, "fusion_lon": 0.0}, {"is_reserved": 0, "type": "electric_scooter", "fusion_lat": 0.0, "is_disabled": 0, "rental_uris": {"ios": "https://dc.lft.to/lastmile_qr_scan", "android": "https://dc.lft.to/lastmile_qr_scan"}, "bike_id": "c624fdec94c684a699ab30e3c6f7d69c", "lat": 38.90560116666666, "name": "c624fdec94c684a699ab30e3c6f7d69c", "lon": -77.017172, "fusion_lon": 0.0}, {"is_reserved": 0, "type": "electric_bike", "fusion_lat": 0.0, "is_disabled": 0, "rental_uris": {"ios": "https://dc.lft.to/lastmile_qr_scan", "android": "https://dc.lft.to/lastmile_qr_scan"}, "bike_id": "a0e0ce63ca820135e9a89087210c04e1", "lat": 38.84281583333333, "name": "a0e0ce63ca820135e9a89087210c04e1", "lon": -76.98841433333334, "fusion_lon": 0.0}, {"is_reserved": 0, "type": "electric_bike", "fusion_lat": 0.0, "is_disabled": 0, "rental_uris": {"ios": "https://dc.lft.to/lastmile_qr_scan", "android": "https://dc.lft.to/lastmile_qr_scan"}, "bike_id": "57448e104974f68792f5eb8170f55e4f", "lat": 38.90833166666667, "name": "57448e104974f68792f5eb8170f55e4f", "lon": -77.03827766666667, "fusion_lon": 0.0}, {"is_reserved": 0, "type": "electric_scooter", "fusion_lat": 0.0, "is_disabled": 0, "rental_uris": {"ios": "https://dc.lft.to/lastmile_qr_scan", "android": "https://dc.lft.to/lastmile_qr_scan"}, "bike_id": "4e637038aa83e4df2a6f3bbb088a7cde", "lat": 38.918133833333336, "name": "4e637038aa83e4df2a6f3bbb088a7cde", "lon": -77.03306533333334, "fusion_lon": 0.0}, {"is_reserved": 0, "type": "electric_scooter", "fusion_lat": 0.0, "is_disabled": 0, "rental_uris": {"ios": "https://dc.lft.to/lastmile_qr_scan", "android": "https://dc.lft.to/lastmile_qr_scan"}, "bike_id": "dae3e371625e30c9f5c3a1a020316384", "lat": 38.91262283333333, "name": "dae3e371625e30c9f5c3a1a020316384", "lon": -77.0460025, "fusion_lon": 0.0}, {"is_reserved": 0, "type": "electric_scooter", "fusion_lat": 0.0, "is_disabled": 0, "rental_uris": {"ios": "https://dc.lft.to/lastmile_qr_scan", "android": "https://dc.lft.to/lastmile_qr_scan"}, "bike_id": "0ecdade56602d4e73d5bdede8a00bbfe", "lat": 38.912403166666664, "name": "0ecdade56602d4e73d5bdede8a00bbfe", "lon": -77.00918766666666, "fusion_lon": 0.0}, {"is_reserved": 0, "type": "electric_scooter", "fusion_lat": 0.0, "is_disabled": 0, "rental_uris": {"ios": "https://dc.lft.to/lastmile_qr_scan", "android": "https://dc.lft.to/lastmile_qr_scan"}, "bike_id": "0a8e558d01ebbbe6ed132da2bfb3f639", "lat": 38.90640283333333, "name": "0a8e558d01ebbbe6ed132da2bfb3f639", "lon": -77.04559383333333, "fusion_lon": 0.0}, {"is_reserved": 0, "type": "electric_scooter", "fusion_lat": 0.0, "is_disabled": 0, "rental_uris": {"ios": "https://dc.lft.to/lastmile_qr_scan", "android": "https://dc.lft.to/lastmile_qr_scan"}, "bike_id": "282fca90a5d2f72631195b3129f6a1e4", "lat": 38.8765345, "name": "282fca90a5d2f72631195b3129f6a1e4", "lon": -77.0007565, "fusion_lon": 0.0}, {"is_reserved": 0, "type": "electric_scooter", "fusion_lat": 0.0, "is_disabled": 0, "rental_uris": {"ios": "https://dc.lft.to/lastmile_qr_scan", "android": "https://dc.lft.to/lastmile_qr_scan"}, "bike_id": "b7460621f29796d97dca0a6019a2e799", "lat": 38.945908833333334, "name": "b7460621f29796d97dca0a6019a2e799", "lon": -77.020336, "fusion_lon": 0.0}, {"is_reserved": 0, "type": "electric_scooter", "fusion_lat": 0.0, "is_disabled": 0, "rental_uris": {"ios": "https://dc.lft.to/lastmile_qr_scan", "android": "https://dc.lft.to/lastmile_qr_scan"}, "bike_id": "af8ca4d1233677b7a8a80fb4e2fb8256", "lat": 38.9173765, "name": "af8ca4d1233677b7a8a80fb4e2fb8256", "lon": -77.021153, "fusion_lon": 0.0}, {"is_reserved": 0, "type": "electric_scooter", "fusion_lat": 0.0, "is_disabled": 0, "rental_uris": {"ios": "https://dc.lft.to/lastmile_qr_scan", "android": "https://dc.lft.to/lastmile_qr_scan"}, "bike_id": "c9e94a87347d3c035a7b2188afdfc425", "lat": 38.9048795, "name": "c9e94a87347d3c035a7b2188afdfc425", "lon": -76.94961383333333, "fusion_lon": 0.0}, {"is_reserved": 0, "type": "electric_scooter", "fusion_lat": 0.0, "is_disabled": 0, "rental_uris": {"ios": "https://dc.lft.to/lastmile_qr_scan", "android": "https://dc.lft.to/lastmile_qr_scan"}, "bike_id": "bfd548926d5fc02fa842b351a28e3768", "lat": 38.9680005, "name": "bfd548926d5fc02fa842b351a28e3768", "lon": -77.0256265, "fusion_lon": 0.0}, {"is_reserved": 0, "type": "electric_bike", "fusion_lat": 0.0, "is_disabled": 0, "rental_uris": {"ios": "https://dc.lft.to/lastmile_qr_scan", "android": "https://dc.lft.to/lastmile_qr_scan"}, "bike_id": "5419e026b9fef49b3857a78cffec10a7", "lat": 38.885011, "name": "5419e026b9fef49b3857a78cffec10a7", "lon": -77.0006185, "fusion_lon": 0.0}, {"is_reserved": 0, "type": "electric_bike", "fusion_lat": 0.0, "is_disabled": 0, "rental_uris": {"ios": "https://dc.lft.to/lastmile_qr_scan", "android": "https://dc.lft.to/lastmile_qr_scan"}, "bike_id": "d2353c44fa71fb95ca5164bf3747937c", "lat": 38.9501775, "name": "d2353c44fa71fb95ca5164bf3747937c", "lon": -77.0142665, "fusion_lon": 0.0}, {"is_reserved": 0, "type": "electric_scooter", "fusion_lat": 0.0, "is_disabled": 0, "rental_uris": {"ios": "https://dc.lft.to/lastmile_qr_scan", "android": "https://dc.lft.to/lastmile_qr_scan"}, "bike_id": "557cc20d6686adf4c76a2d90e1483e79", "lat": 38.91225083333333, "name": "557cc20d6686adf4c76a2d90e1483e79", "lon": -77.03781316666667, "fusion_lon": 0.0}, {"is_reserved": 0, "type": "electric_scooter", "fusion_lat": 0.0, "is_disabled": 0, "rental_uris": {"ios": "https://dc.lft.to/lastmile_qr_scan", "android": "https://dc.lft.to/lastmile_qr_scan"}, "bike_id": "c8c5c3d5c3f93338614a65878d7f3f0c", "lat": 38.902911833333334, "name": "c8c5c3d5c3f93338614a65878d7f3f0c", "lon": -77.04875766666666, "fusion_lon": 0.0}, {"is_reserved": 0, "type": "electric_scooter", "fusion_lat": 0.0, "is_disabled": 0, "rental_uris": {"ios": "https://dc.lft.to/lastmile_qr_scan", "android": "https://dc.lft.to/lastmile_qr_scan"}, "bike_id": "dadf56b3784c16def1c9f7876db64de9", "lat": 38.924595, "name": "dadf56b3784c16def1c9f7876db64de9", "lon": -77.0522745, "fusion_lon": 0.0}, {"is_reserved": 0, "type": "electric_scooter", "fusion_lat": 0.0, "is_disabled": 0, "rental_uris": {"ios": "https://dc.lft.to/lastmile_qr_scan", "android": "https://dc.lft.to/lastmile_qr_scan"}, "bike_id": "0d178164c0ead1b8765d98f8143b6078", "lat": 38.919845333333335, "name": "0d178164c0ead1b8765d98f8143b6078", "lon": -77.04180366666667, "fusion_lon": 0.0}, {"is_reserved": 0, "type": "electric_scooter", "fusion_lat": 0.0, "is_disabled": 0, "rental_uris": {"ios": "https://dc.lft.to/lastmile_qr_scan", "android": "https://dc.lft.to/lastmile_qr_scan"}, "bike_id": "388c877dd8af524b839338f13a3c3a97", "lat": 38.903188666666665, "name": "388c877dd8af524b839338f13a3c3a97", "lon": -77.0281575, "fusion_lon": 0.0}, {"is_reserved": 0, "type": "electric_scooter", "fusion_lat": 0.0, "is_disabled": 0, "rental_uris": {"ios": "https://dc.lft.to/lastmile_qr_scan", "android": "https://dc.lft.to/lastmile_qr_scan"}, "bike_id": "fce4b87c63de533675b7d84c3e5262fc", "lat": 38.923619333333335, "name": "fce4b87c63de533675b7d84c3e5262fc", "lon": -77.05074416666666, "fusion_lon": 0.0}, {"is_reserved": 0, "type": "electric_scooter", "fusion_lat": 0.0, "is_disabled": 0, "rental_uris": {"ios": "https://dc.lft.to/lastmile_qr_scan", "android": "https://dc.lft.to/lastmile_qr_scan"}, "bike_id": "2e501bc2c5e7daf1019f7c9234c9be28", "lat": 38.9144715, "name": "2e501bc2c5e7daf1019f7c9234c9be28", "lon": -77.003477, "fusion_lon": 0.0}, {"is_reserved": 0, "type": "electric_scooter", "fusion_lat": 0.0, "is_disabled": 0, "rental_uris": {"ios": "https://dc.lft.to/lastmile_qr_scan", "android": "https://dc.lft.to/lastmile_qr_scan"}, "bike_id": "5c7664b05187b5cb5f9f7f24cbd63d33", "lat": 38.906040833333336, "name": "5c7664b05187b5cb5f9f7f24cbd63d33", "lon": -77.05841316666667, "fusion_lon": 0.0}, {"is_reserved": 0, "type": "electric_scooter", "fusion_lat": 0.0, "is_disabled": 0, "rental_uris": {"ios": "https://dc.lft.to/lastmile_qr_scan", "android": "https://dc.lft.to/lastmile_qr_scan"}, "bike_id": "0bd298155849b15260cadece7cc3fc51", "lat": 38.920442333333334, "name": "0bd298155849b15260cadece7cc3fc51", "lon": -77.02610266666667, "fusion_lon": 0.0}, {"is_reserved": 0, "type": "electric_bike", "fusion_lat": 0.0, "is_disabled": 0, "rental_uris": {"ios": "https://dc.lft.to/lastmile_qr_scan", "android": "https://dc.lft.to/lastmile_qr_scan"}, "bike_id": "3d9873cb2033277228ab52e01398511e", "lat": 38.807392666666665, "name": "3d9873cb2033277228ab52e01398511e", "lon": -77.09684216666666, "fusion_lon": 0.0}, {"is_reserved": 0, "type": "electric_bike", "fusion_lat": 0.0, "is_disabled": 0, "rental_uris": {"ios": "https://dc.lft.to/lastmile_qr_scan", "android": "https://dc.lft.to/lastmile_qr_scan"}, "bike_id": "b37b055484dcf7cc0aee67cdc199a4db", "lat": 38.871669833333335, "name": "b37b055484dcf7cc0aee67cdc199a4db", "lon": -77.2338435, "fusion_lon": 0.0}, {"is_reserved": 0, "type": "electric_scooter", "fusion_lat": 0.0, "is_disabled": 0, "rental_uris": {"ios": "https://dc.lft.to/lastmile_qr_scan", "android": "https://dc.lft.to/lastmile_qr_scan"}, "bike_id": "5595644ed829db6ed09b9a6ddd6f4d0b", "lat": 38.89550166666667, "name": "5595644ed829db6ed09b9a6ddd6f4d0b", "lon": -76.983381, "fusion_lon": 0.0}, {"is_reserved": 0, "type": "electric_bike", "fusion_lat": 0.0, "is_disabled": 0, "rental_uris": {"ios": "https://dc.lft.to/lastmile_qr_scan", "android": "https://dc.lft.to/lastmile_qr_scan"}, "bike_id": "3ad5284c7d39329e52ff1e1f7a044de2", "lat": 38.951952, "name": "3ad5284c7d39329e52ff1e1f7a044de2", "lon": -77.01117233333333, "fusion_lon": 0.0}, {"is_reserved": 0, "type": "electric_scooter", "fusion_lat": 0.0, "is_disabled": 0, "rental_uris": {"ios": "https://dc.lft.to/lastmile_qr_scan", "android": "https://dc.lft.to/lastmile_qr_scan"}, "bike_id": "148fc59b32284a6b355b751508a0d851", "lat": 38.89850033333333, "name": "148fc59b32284a6b355b751508a0d851", "lon": -77.03324766666667, "fusion_lon": 0.0}, {"is_reserved": 0, "type": "electric_bike", "fusion_lat": 0.0, "is_disabled": 0, "rental_uris": {"ios": "https://dc.lft.to/lastmile_qr_scan", "android": "https://dc.lft.to/lastmile_qr_scan"}, "bike_id": "1d0a706f745db5376ecd8ef7432bf3fb", "lat": 39.000041833333334, "name": "1d0a706f745db5376ecd8ef7432bf3fb", "lon": -76.91791833333333, "fusion_lon": 0.0}, {"is_reserved": 0, "type": "electric_scooter", "fusion_lat": 0.0, "is_disabled": 0, "rental_uris": {"ios": "https://dc.lft.to/lastmile_qr_scan", "android": "https://dc.lft.to/lastmile_qr_scan"}, "bike_id": "73bf8e35cae11ce9ac0cd267cb7d478a", "lat": 38.91696183333333, "name": "73bf8e35cae11ce9ac0cd267cb7d478a", "lon": -77.02725833333334, "fusion_lon": 0.0}, {"is_reserved": 0, "type": "electric_scooter", "fusion_lat": 0.0, "is_disabled": 0, "rental_uris": {"ios": "https://dc.lft.to/lastmile_qr_scan", "android": "https://dc.lft.to/lastmile_qr_scan"}, "bike_id": "205fd5c297303096c75fb2e77563b6e4", "lat": 38.918120333333334, "name": "205fd5c297303096c75fb2e77563b6e4", "lon": -77.034366, "fusion_lon": 0.0}, {"is_reserved": 0, "type": "electric_scooter", "fusion_lat": 0.0, "is_disabled": 0, "rental_uris": {"ios": "https://dc.lft.to/lastmile_qr_scan", "android": "https://dc.lft.to/lastmile_qr_scan"}, "bike_id": "5ac3c4951c702753ad49c9f6e0c586dc", "lat": 38.92627133333333, "name": "5ac3c4951c702753ad49c9f6e0c586dc", "lon": -77.04148583333334, "fusion_lon": 0.0}, {"is_reserved": 0, "type": "electric_scooter", "fusion_lat": 0.0, "is_disabled": 0, "rental_uris": {"ios": "https://dc.lft.to/lastmile_qr_scan", "android": "https://dc.lft.to/lastmile_qr_scan"}, "bike_id": "8d10629c1b8b127cb3c0249ca6fe5df1", "lat": 38.8936505, "name": "8d10629c1b8b127cb3c0249ca6fe5df1", "lon": -76.94107516666666, "fusion_lon": 0.0}, {"is_reserved": 0, "type": "electric_scooter", "fusion_lat": 0.0, "is_disabled": 0, "rental_uris": {"ios": "https://dc.lft.to/lastmile_qr_scan", "android": "https://dc.lft.to/lastmile_qr_scan"}, "bike_id": "edeea3a3d537664523b43d4fcf3c5470", "lat": 38.892322666666665, "name": "edeea3a3d537664523b43d4fcf3c5470", "lon": -77.0499825, "fusion_lon": 0.0}, {"is_reserved": 0, "type": "electric_scooter", "fusion_lat": 0.0, "is_disabled": 0, "rental_uris": {"ios": "https://dc.lft.to/lastmile_qr_scan", "android": "https://dc.lft.to/lastmile_qr_scan"}, "bike_id": "f901e35896ec9fc26a5ed21c3ed5872d", "lat": 38.92174383333333, "name": "f901e35896ec9fc26a5ed21c3ed5872d", "lon": -77.04357316666666, "fusion_lon": 0.0}, {"is_reserved": 0, "type": "electric_scooter", "fusion_lat": 0.0, "is_disabled": 0, "rental_uris": {"ios": "https://dc.lft.to/lastmile_qr_scan", "android": "https://dc.lft.to/lastmile_qr_scan"}, "bike_id": "1c91a0c2f8b10c73882647ceb04f9c2c", "lat": 38.89842633333333, "name": "1c91a0c2f8b10c73882647ceb04f9c2c", "lon": -77.01874833333333, "fusion_lon": 0.0}, {"is_reserved": 0, "type": "electric_scooter", "fusion_lat": 0.0, "is_disabled": 0, "rental_uris": {"ios": "https://dc.lft.to/lastmile_qr_scan", "android": "https://dc.lft.to/lastmile_qr_scan"}, "bike_id": "feb8d9dc7d6b1fec72dc6b12ded99202", "lat": 38.914032166666665, "name": "feb8d9dc7d6b1fec72dc6b12ded99202", "lon": -77.045661, "fusion_lon": 0.0}, {"is_reserved": 0, "type": "electric_bike", "fusion_lat": 0.0, "is_disabled": 0, "rental_uris": {"ios": "https://dc.lft.to/lastmile_qr_scan", "android": "https://dc.lft.to/lastmile_qr_scan"}, "bike_id": "216d8eda090b7988781208acf5dc32bb", "lat": 38.8408715, "name": "216d8eda090b7988781208acf5dc32bb", "lon": -76.97030733333334, "fusion_lon": 0.0}, {"is_reserved": 0, "type": "electric_scooter", "fusion_lat": 0.0, "is_disabled": 0, "rental_uris": {"ios": "https://dc.lft.to/lastmile_qr_scan", "android": "https://dc.lft.to/lastmile_qr_scan"}, "bike_id": "f9b5f08f6c8588c5eeeef0dad45456ab", "lat": 38.89208516666667, "name": "f9b5f08f6c8588c5eeeef0dad45456ab", "lon": -76.9993355, "fusion_lon": 0.0}, {"is_reserved": 0, "type": "electric_bike", "fusion_lat": 0.0, "is_disabled": 0, "rental_uris": {"ios": "https://dc.lft.to/lastmile_qr_scan", "android": "https://dc.lft.to/lastmile_qr_scan"}, "bike_id": "d1deb6163fcf2f87dc774161f147883a", "lat": 38.894240333333336, "name": "d1deb6163fcf2f87dc774161f147883a", "lon": -77.0944285, "fusion_lon": 0.0}, {"is_reserved": 0, "type": "electric_scooter", "fusion_lat": 0.0, "is_disabled": 0, "rental_uris": {"ios": "https://dc.lft.to/lastmile_qr_scan", "android": "https://dc.lft.to/lastmile_qr_scan"}, "bike_id": "8feb5a1cc216e09e53fab5269a8832bf", "lat": 38.899526, "name": "8feb5a1cc216e09e53fab5269a8832bf", "lon": -77.04746516666667, "fusion_lon": 0.0}, {"is_reserved": 0, "type": "electric_bike", "fusion_lat": 0.0, "is_disabled": 0, "rental_uris": {"ios": "https://dc.lft.to/lastmile_qr_scan", "android": "https://dc.lft.to/lastmile_qr_scan"}, "bike_id": "da53ded67410732b020834e08aace87d", "lat": 38.83492716666667, "name": "da53ded67410732b020834e08aace87d", "lon": -77.00434983333334, "fusion_lon": 0.0}, {"is_reserved": 0, "type": "electric_bike", "fusion_lat": 0.0, "is_disabled": 0, "rental_uris": {"ios": "https://dc.lft.to/lastmile_qr_scan", "android": "https://dc.lft.to/lastmile_qr_scan"}, "bike_id": "05586d72eef52feb10482f40bfa7a75f", "lat": 38.98225566666667, "name": "05586d72eef52feb10482f40bfa7a75f", "lon": -77.09567516666667, "fusion_lon": 0.0}, {"is_reserved": 0, "type": "electric_scooter", "fusion_lat": 0.0, "is_disabled": 0, "rental_uris": {"ios": "https://dc.lft.to/lastmile_qr_scan", "android": "https://dc.lft.to/lastmile_qr_scan"}, "bike_id": "956b3e93e7cc33db0f74ed0abe73822c", "lat": 38.91695216666667, "name": "956b3e93e7cc33db0f74ed0abe73822c", "lon": -77.03237383333334, "fusion_lon": 0.0}, {"is_reserved": 0, "type": "electric_scooter", "fusion_lat": 0.0, "is_disabled": 0, "rental_uris": {"ios": "https://dc.lft.to/lastmile_qr_scan", "android": "https://dc.lft.to/lastmile_qr_scan"}, "bike_id": "87098a355de0993045c26a1a884d47a2", "lat": 38.907951, "name": "87098a355de0993045c26a1a884d47a2", "lon": -77.001997, "fusion_lon": 0.0}, {"is_reserved": 0, "type": "electric_scooter", "fusion_lat": 0.0, "is_disabled": 0, "rental_uris": {"ios": "https://dc.lft.to/lastmile_qr_scan", "android": "https://dc.lft.to/lastmile_qr_scan"}, "bike_id": "8eafae258d2a633bc3c83a75e60e6e7b", "lat": 38.906589333333336, "name": "8eafae258d2a633bc3c83a75e60e6e7b", "lon": -77.016203, "fusion_lon": 0.0}, {"is_reserved": 0, "type": "electric_bike", "fusion_lat": 0.0, "is_disabled": 0, "rental_uris": {"ios": "https://dc.lft.to/lastmile_qr_scan", "android": "https://dc.lft.to/lastmile_qr_scan"}, "bike_id": "d006ef8953d9a17241cc7322eb5c95a4", "lat": 39.022976, "name": "d006ef8953d9a17241cc7322eb5c95a4", "lon": -77.02105566666667, "fusion_lon": 0.0}, {"is_reserved": 0, "type": "electric_bike", "fusion_lat": 0.0, "is_disabled": 0, "rental_uris": {"ios": "https://dc.lft.to/lastmile_qr_scan", "android": "https://dc.lft.to/lastmile_qr_scan"}, "bike_id": "8e0f408afd81d74bac29f1b1ee2d1670", "lat": 38.974786, "name": "8e0f408afd81d74bac29f1b1ee2d1670", "lon": -76.98670533333333, "fusion_lon": 0.0}, {"is_reserved": 0, "type": "electric_scooter", "fusion_lat": 0.0, "is_disabled": 0, "rental_uris": {"ios": "https://dc.lft.to/lastmile_qr_scan", "android": "https://dc.lft.to/lastmile_qr_scan"}, "bike_id": "c56c829f835af819d2b7e020dcc21eaa", "lat": 38.92071116666666, "name": "c56c829f835af819d2b7e020dcc21eaa", "lon": -77.0282055, "fusion_lon": 0.0}, {"is_reserved": 0, "type": "electric_scooter", "fusion_lat": 0.0, "is_disabled": 0, "rental_uris": {"ios": "https://dc.lft.to/lastmile_qr_scan", "android": "https://dc.lft.to/lastmile_qr_scan"}, "bike_id": "da922ec37d0dd730df76c29ef4f2da2a", "lat": 38.89926233333333, "name": "da922ec37d0dd730df76c29ef4f2da2a", "lon": -77.03218633333333, "fusion_lon": 0.0}, {"is_reserved": 0, "type": "electric_scooter", "fusion_lat": 0.0, "is_disabled": 0, "rental_uris": {"ios": "https://dc.lft.to/lastmile_qr_scan", "android": "https://dc.lft.to/lastmile_qr_scan"}, "bike_id": "a0ea826782bc18f22ad81fb1f849897c", "lat": 38.88265716666667, "name": "a0ea826782bc18f22ad81fb1f849897c", "lon": -76.99522433333334, "fusion_lon": 0.0}, {"is_reserved": 0, "type": "electric_scooter", "fusion_lat": 0.0, "is_disabled": 0, "rental_uris": {"ios": "https://dc.lft.to/lastmile_qr_scan", "android": "https://dc.lft.to/lastmile_qr_scan"}, "bike_id": "5191a6aca39d17dba1d82e8e52b5622d", "lat": 38.909639166666665, "name": "5191a6aca39d17dba1d82e8e52b5622d", "lon": -77.02380116666667, "fusion_lon": 0.0}, {"is_reserved": 0, "type": "electric_scooter", "fusion_lat": 0.0, "is_disabled": 0, "rental_uris": {"ios": "https://dc.lft.to/lastmile_qr_scan", "android": "https://dc.lft.to/lastmile_qr_scan"}, "bike_id": "2ded9b531f080d89e1656bf4b9c87042", "lat": 38.90334433333334, "name": "2ded9b531f080d89e1656bf4b9c87042", "lon": -76.97589083333334, "fusion_lon": 0.0}, {"is_reserved": 0, "type": "electric_scooter", "fusion_lat": 0.0, "is_disabled": 0, "rental_uris": {"ios": "https://dc.lft.to/lastmile_qr_scan", "android": "https://dc.lft.to/lastmile_qr_scan"}, "bike_id": "a1ab9c11fb7f0a9ca99c69f04c6a63ff", "lat": 38.920770833333336, "name": "a1ab9c11fb7f0a9ca99c69f04c6a63ff", "lon": -77.02510866666667, "fusion_lon": 0.0}, {"is_reserved": 0, "type": "electric_scooter", "fusion_lat": 0.0, "is_disabled": 0, "rental_uris": {"ios": "https://dc.lft.to/lastmile_qr_scan", "android": "https://dc.lft.to/lastmile_qr_scan"}, "bike_id": "f28b79b946ce14c54745b0f22e611148", "lat": 38.90960916666667, "name": "f28b79b946ce14c54745b0f22e611148", "lon": -77.01388133333333, "fusion_lon": 0.0}, {"is_reserved": 0, "type": "electric_scooter", "fusion_lat": 0.0, "is_disabled": 0, "rental_uris": {"ios": "https://dc.lft.to/lastmile_qr_scan", "android": "https://dc.lft.to/lastmile_qr_scan"}, "bike_id": "7ff225882c375e8a38d8804b2b739a10", "lat": 38.933508833333335, "name": "7ff225882c375e8a38d8804b2b739a10", "lon": -76.99438183333334, "fusion_lon": 0.0}, {"is_reserved": 0, "type": "electric_scooter", "fusion_lat": 0.0, "is_disabled": 0, "rental_uris": {"ios": "https://dc.lft.to/lastmile_qr_scan", "android": "https://dc.lft.to/lastmile_qr_scan"}, "bike_id": "4dc2edbba52dd91bfff1fab3de66354b", "lat": 38.89927433333333, "name": "4dc2edbba52dd91bfff1fab3de66354b", "lon": -77.04009366666666, "fusion_lon": 0.0}, {"is_reserved": 0, "type": "electric_scooter", "fusion_lat": 0.0, "is_disabled": 0, "rental_uris": {"ios": "https://dc.lft.to/lastmile_qr_scan", "android": "https://dc.lft.to/lastmile_qr_scan"}, "bike_id": "a0ab7f09b608df2a8a61b308492e9da5", "lat": 38.90269383333333, "name": "a0ab7f09b608df2a8a61b308492e9da5", "lon": -77.01676683333334, "fusion_lon": 0.0}, {"is_reserved": 0, "type": "electric_scooter", "fusion_lat": 0.0, "is_disabled": 0, "rental_uris": {"ios": "https://dc.lft.to/lastmile_qr_scan", "android": "https://dc.lft.to/lastmile_qr_scan"}, "bike_id": "264e7b90cae5d7e1d59ef27cdadbe85d", "lat": 38.94089016666667, "name": "264e7b90cae5d7e1d59ef27cdadbe85d", "lon": -77.02302416666667, "fusion_lon": 0.0}, {"is_reserved": 0, "type": "electric_scooter", "fusion_lat": 0.0, "is_disabled": 0, "rental_uris": {"ios": "https://dc.lft.to/lastmile_qr_scan", "android": "https://dc.lft.to/lastmile_qr_scan"}, "bike_id": "35d7062cbfcbb9a8a94d93f68b40afdf", "lat": 38.92039916666667, "name": "35d7062cbfcbb9a8a94d93f68b40afdf", "lon": -77.0259195, "fusion_lon": 0.0}, {"is_reserved": 0, "type": "electric_scooter", "fusion_lat": 0.0, "is_disabled": 0, "rental_uris": {"ios": "https://dc.lft.to/lastmile_qr_scan", "android": "https://dc.lft.to/lastmile_qr_scan"}, "bike_id": "cf6ff89419f0053825b7b06fbf692c5f", "lat": 38.90149316666667, "name": "cf6ff89419f0053825b7b06fbf692c5f", "lon": -77.03978766666667, "fusion_lon": 0.0}, {"is_reserved": 0, "type": "electric_scooter", "fusion_lat": 0.0, "is_disabled": 0, "rental_uris": {"ios": "https://dc.lft.to/lastmile_qr_scan", "android": "https://dc.lft.to/lastmile_qr_scan"}, "bike_id": "d94a8dbf235201e569c326a1b89a8a0b", "lat": 38.8873675, "name": "d94a8dbf235201e569c326a1b89a8a0b", "lon": -77.01391633333333, "fusion_lon": 0.0}, {"is_reserved": 0, "type": "electric_scooter", "fusion_lat": 0.0, "is_disabled": 0, "rental_uris": {"ios": "https://dc.lft.to/lastmile_qr_scan", "android": "https://dc.lft.to/lastmile_qr_scan"}, "bike_id": "c723dcfc9a2a0722864489c70dc1846b", "lat": 38.8871145, "name": "c723dcfc9a2a0722864489c70dc1846b", "lon": -76.98381016666667, "fusion_lon": 0.0}, {"is_reserved": 0, "type": "electric_scooter", "fusion_lat": 0.0, "is_disabled": 0, "rental_uris": {"ios": "https://dc.lft.to/lastmile_qr_scan", "android": "https://dc.lft.to/lastmile_qr_scan"}, "bike_id": "7a0c0a8dffe99a4f99ed1c81f9c7ce57", "lat": 38.95734266666667, "name": "7a0c0a8dffe99a4f99ed1c81f9c7ce57", "lon": -77.024184, "fusion_lon": 0.0}, {"is_reserved": 0, "type": "electric_scooter", "fusion_lat": 0.0, "is_disabled": 0, "rental_uris": {"ios": "https://dc.lft.to/lastmile_qr_scan", "android": "https://dc.lft.to/lastmile_qr_scan"}, "bike_id": "e4ef80a519bca6570ff13de94eda73e9", "lat": 38.90249816666667, "name": "e4ef80a519bca6570ff13de94eda73e9", "lon": -77.02754633333333, "fusion_lon": 0.0}, {"is_reserved": 0, "type": "electric_scooter", "fusion_lat": 0.0, "is_disabled": 0, "rental_uris": {"ios": "https://dc.lft.to/lastmile_qr_scan", "android": "https://dc.lft.to/lastmile_qr_scan"}, "bike_id": "68885faf5860f5ddefac1b6d50c022db", "lat": 38.913763, "name": "68885faf5860f5ddefac1b6d50c022db", "lon": -77.044772, "fusion_lon": 0.0}, {"is_reserved": 0, "type": "electric_scooter", "fusion_lat": 0.0, "is_disabled": 0, "rental_uris": {"ios": "https://dc.lft.to/lastmile_qr_scan", "android": "https://dc.lft.to/lastmile_qr_scan"}, "bike_id": "c7dd2bbfc84f11f97dd53c11a109679e", "lat": 38.89504733333333, "name": "c7dd2bbfc84f11f97dd53c11a109679e", "lon": -77.02206216666667, "fusion_lon": 0.0}, {"is_reserved": 0, "type": "electric_scooter", "fusion_lat": 0.0, "is_disabled": 0, "rental_uris": {"ios": "https://dc.lft.to/lastmile_qr_scan", "android": "https://dc.lft.to/lastmile_qr_scan"}, "bike_id": "c9eac03c471e5df46ef2fe0072d60d15", "lat": 38.922434, "name": "c9eac03c471e5df46ef2fe0072d60d15", "lon": -77.01838933333333, "fusion_lon": 0.0}, {"is_reserved": 0, "type": "electric_scooter", "fusion_lat": 0.0, "is_disabled": 0, "rental_uris": {"ios": "https://dc.lft.to/lastmile_qr_scan", "android": "https://dc.lft.to/lastmile_qr_scan"}, "bike_id": "875d8b6f7ccc550fc7358ab04b7b6f54", "lat": 38.947016, "name": "875d8b6f7ccc550fc7358ab04b7b6f54", "lon": -77.03282783333333, "fusion_lon": 0.0}, {"is_reserved": 0, "type": "electric_scooter", "fusion_lat": 0.0, "is_disabled": 0, "rental_uris": {"ios": "https://dc.lft.to/lastmile_qr_scan", "android": "https://dc.lft.to/lastmile_qr_scan"}, "bike_id": "7f52b5036fab30bcbcf907a927271f76", "lat": 38.897230666666665, "name": "7f52b5036fab30bcbcf907a927271f76", "lon": -77.026993, "fusion_lon": 0.0}, {"is_reserved": 0, "type": "electric_scooter", "fusion_lat": 0.0, "is_disabled": 0, "rental_uris": {"ios": "https://dc.lft.to/lastmile_qr_scan", "android": "https://dc.lft.to/lastmile_qr_scan"}, "bike_id": "0498b8ec0a452a1f7d6261afdfdfaf8a", "lat": 38.89294866666667, "name": "0498b8ec0a452a1f7d6261afdfdfaf8a", "lon": -77.01237983333333, "fusion_lon": 0.0}, {"is_reserved": 0, "type": "electric_scooter", "fusion_lat": 0.0, "is_disabled": 0, "rental_uris": {"ios": "https://dc.lft.to/lastmile_qr_scan", "android": "https://dc.lft.to/lastmile_qr_scan"}, "bike_id": "681a0f97073953bf4b5e1aa9bce9c61e", "lat": 38.91690916666667, "name": "681a0f97073953bf4b5e1aa9bce9c61e", "lon": -77.032055, "fusion_lon": 0.0}, {"is_reserved": 0, "type": "electric_scooter", "fusion_lat": 0.0, "is_disabled": 0, "rental_uris": {"ios": "https://dc.lft.to/lastmile_qr_scan", "android": "https://dc.lft.to/lastmile_qr_scan"}, "bike_id": "ca0df1d2d336760ec39f6870252deccc", "lat": 38.916592333333334, "name": "ca0df1d2d336760ec39f6870252deccc", "lon": -77.03701783333334, "fusion_lon": 0.0}, {"is_reserved": 0, "type": "electric_scooter", "fusion_lat": 0.0, "is_disabled": 0, "rental_uris": {"ios": "https://dc.lft.to/lastmile_qr_scan", "android": "https://dc.lft.to/lastmile_qr_scan"}, "bike_id": "8931a12413a258d692364fb9eb378ac5", "lat": 38.90747366666667, "name": "8931a12413a258d692364fb9eb378ac5", "lon": -77.003339, "fusion_lon": 0.0}, {"is_reserved": 0, "type": "electric_scooter", "fusion_lat": 0.0, "is_disabled": 0, "rental_uris": {"ios": "https://dc.lft.to/lastmile_qr_scan", "android": "https://dc.lft.to/lastmile_qr_scan"}, "bike_id": "16abe10821129e5e1b75d763675e039e", "lat": 38.93253216666667, "name": "16abe10821129e5e1b75d763675e039e", "lon": -77.034324, "fusion_lon": 0.0}, {"is_reserved": 0, "type": "electric_scooter", "fusion_lat": 0.0, "is_disabled": 0, "rental_uris": {"ios": "https://dc.lft.to/lastmile_qr_scan", "android": "https://dc.lft.to/lastmile_qr_scan"}, "bike_id": "e9f94ec1b367f42312030cee8c5cca1c", "lat": 38.919465833333334, "name": "e9f94ec1b367f42312030cee8c5cca1c", "lon": -77.0318075, "fusion_lon": 0.0}, {"is_reserved": 0, "type": "electric_scooter", "fusion_lat": 0.0, "is_disabled": 0, "rental_uris": {"ios": "https://dc.lft.to/lastmile_qr_scan", "android": "https://dc.lft.to/lastmile_qr_scan"}, "bike_id": "44dccffcd5930cb7efbfab6b5669e479", "lat": 38.87943766666667, "name": "44dccffcd5930cb7efbfab6b5669e479", "lon": -77.01001, "fusion_lon": 0.0}, {"is_reserved": 0, "type": "electric_scooter", "fusion_lat": 0.0, "is_disabled": 0, "rental_uris": {"ios": "https://dc.lft.to/lastmile_qr_scan", "android": "https://dc.lft.to/lastmile_qr_scan"}, "bike_id": "b063179ad9a4a34a1b506869497f0cc3", "lat": 38.89480416666667, "name": "b063179ad9a4a34a1b506869497f0cc3", "lon": -77.021714, "fusion_lon": 0.0}, {"is_reserved": 0, "type": "electric_scooter", "fusion_lat": 0.0, "is_disabled": 0, "rental_uris": {"ios": "https://dc.lft.to/lastmile_qr_scan", "android": "https://dc.lft.to/lastmile_qr_scan"}, "bike_id": "8072c655253d9cf5fda53d31b6b4774d", "lat": 38.924817166666664, "name": "8072c655253d9cf5fda53d31b6b4774d", "lon": -77.0222185, "fusion_lon": 0.0}, {"is_reserved": 0, "type": "electric_scooter", "fusion_lat": 0.0, "is_disabled": 0, "rental_uris": {"ios": "https://dc.lft.to/lastmile_qr_scan", "android": "https://dc.lft.to/lastmile_qr_scan"}, "bike_id": "42caf7c7b9d0bce8f4b6dba25283ce53", "lat": 38.887135666666666, "name": "42caf7c7b9d0bce8f4b6dba25283ce53", "lon": -76.983428, "fusion_lon": 0.0}, {"is_reserved": 0, "type": "electric_scooter", "fusion_lat": 0.0, "is_disabled": 0, "rental_uris": {"ios": "https://dc.lft.to/lastmile_qr_scan", "android": "https://dc.lft.to/lastmile_qr_scan"}, "bike_id": "23df9d0b2fd19c6c8003964737e6eda2", "lat": 38.935136, "name": "23df9d0b2fd19c6c8003964737e6eda2", "lon": -77.0367395, "fusion_lon": 0.0}, {"is_reserved": 0, "type": "electric_scooter", "fusion_lat": 0.0, "is_disabled": 0, "rental_uris": {"ios": "https://dc.lft.to/lastmile_qr_scan", "android": "https://dc.lft.to/lastmile_qr_scan"}, "bike_id": "fbcaef52ca17214f33c6c67a7ffe5cfb", "lat": 38.9170515, "name": "fbcaef52ca17214f33c6c67a7ffe5cfb", "lon": -77.0228925, "fusion_lon": 0.0}, {"is_reserved": 0, "type": "electric_scooter", "fusion_lat": 0.0, "is_disabled": 0, "rental_uris": {"ios": "https://dc.lft.to/lastmile_qr_scan", "android": "https://dc.lft.to/lastmile_qr_scan"}, "bike_id": "976e094296765d7e0e47fff1e8bd42a6", "lat": 38.885797833333335, "name": "976e094296765d7e0e47fff1e8bd42a6", "lon": -77.0120985, "fusion_lon": 0.0}, {"is_reserved": 0, "type": "electric_scooter", "fusion_lat": 0.0, "is_disabled": 0, "rental_uris": {"ios": "https://dc.lft.to/lastmile_qr_scan", "android": "https://dc.lft.to/lastmile_qr_scan"}, "bike_id": "e7f1a8aadae2d087540f382b42264e7b", "lat": 38.91784916666667, "name": "e7f1a8aadae2d087540f382b42264e7b", "lon": -77.0239315, "fusion_lon": 0.0}, {"is_reserved": 0, "type": "electric_scooter", "fusion_lat": 0.0, "is_disabled": 0, "rental_uris": {"ios": "https://dc.lft.to/lastmile_qr_scan", "android": "https://dc.lft.to/lastmile_qr_scan"}, "bike_id": "3b8ecefa9f092df091dc8577176f0e3c", "lat": 38.91377816666667, "name": "3b8ecefa9f092df091dc8577176f0e3c", "lon": -77.0643005, "fusion_lon": 0.0}, {"is_reserved": 0, "type": "electric_scooter", "fusion_lat": 0.0, "is_disabled": 0, "rental_uris": {"ios": "https://dc.lft.to/lastmile_qr_scan", "android": "https://dc.lft.to/lastmile_qr_scan"}, "bike_id": "3340421d9e61882ba316a4182ac024ce", "lat": 38.90376883333333, "name": "3340421d9e61882ba316a4182ac024ce", "lon": -77.04021516666667, "fusion_lon": 0.0},