{"data": {"bikes": [{"bike_id": "0aea5196b8f26f1fd2d2edafa7ead26c", "type": "electric_scooter", "is_disabled": 0, "lat": 38.907309166666664, "rental_uris": {"ios": "https://dc.lft.to/lastmile_qr_scan", "android": "https://dc.lft.to/lastmile_qr_scan"}, "is_reserved": 0, "fusion_lon": 0.0, "fusion_lat": 0.0, "lon": -77.03199716666667, "name": "0aea5196b8f26f1fd2d2edafa7ead26c"}, {"bike_id": "91a5f8c64d623115d66ba028465f5a09", "type": "electric_scooter", "is_disabled": 0, "lat": 38.865049166666665, "rental_uris": {"ios": "https://dc.lft.to/lastmile_qr_scan", "android": "https://dc.lft.to/lastmile_qr_scan"}, "is_reserved": 0, "fusion_lon": 0.0, "fusion_lat": 0.0, "lon": -76.989981, "name": "91a5f8c64d623115d66ba028465f5a09"}, {"bike_id": "a7d5e3911d3861b3cc31c5280e6e8d0d", "type": "electric_scooter", "is_disabled": 0, "lat": 38.916289166666665, "rental_uris": {"ios": "https://dc.lft.to/lastmile_qr_scan", "android": "https://dc.lft.to/lastmile_qr_scan"}, "is_reserved": 0, "fusion_lon": 0.0, "fusion_lat": 0.0, "lon": -77.0339865, "name": "a7d5e3911d3861b3cc31c5280e6e8d0d"}, {"bike_id": "93a55a8b577ba76597d80c26770b7749", "type": "electric_scooter", "is_disabled": 0, "lat": 38.919957333333336, "rental_uris": {"ios": "https://dc.lft.to/lastmile_qr_scan", "android": "https://dc.lft.to/lastmile_qr_scan"}, "is_reserved": 0, "fusion_lon": 0.0, "fusion_lat": 0.0, "lon": -77.01795666666666, "name": "93a55a8b577ba76597d80c26770b7749"}, {"bike_id": "2c6b00927e52fd6a684bfb8a20f67ef3", "type": "electric_scooter", "is_disabled": 0, "lat": 38.913358, "rental_uris": {"ios": "https://dc.lft.to/lastmile_qr_scan", "android": "https://dc.lft.to/lastmile_qr_scan"}, "is_reserved": 0, "fusion_lon": 0.0, "fusion_lat": 0.0, "lon": -77.03988383333333, "name": "2c6b00927e52fd6a684bfb8a20f67ef3"}, {"bike_id": "42f77d2aef162c7ccc9da948be22f25c", "type": "electric_scooter", "is_disabled": 0, "lat": 38.92262083333333, "rental_uris": {"ios": "https://dc.lft.to/lastmile_qr_scan", "android": "https://dc.lft.to/lastmile_qr_scan"}, "is_reserved": 0, "fusion_lon": 0.0, "fusion_lat": 0.0, "lon": -77.035159, "name": "42f77d2aef162c7ccc9da948be22f25c"}, {"bike_id": "2142e659e7087a6c40dba6ebcfa0004c", "type": "electric_bike", "is_disabled": 0, "lat": 38.81230466666667, "rental_uris": {"ios": "https://dc.lft.to/lastmile_qr_scan", "android": "https://dc.lft.to/lastmile_qr_scan"}, "is_reserved": 0, "fusion_lon": 0.0, "fusion_lat": 0.0, "lon": -77.10421483333333, "name": "2142e659e7087a6c40dba6ebcfa0004c"}, {"bike_id": "062773f869884c3e0a84f8048553a8e0", "type": "electric_scooter", "is_disabled": 0, "lat": 38.9239075, "rental_uris": {"ios": "https://dc.lft.to/lastmile_qr_scan", "android": "https://dc.lft.to/lastmile_qr_scan"}, "is_reserved": 0, "fusion_lon": 0.0, "fusion_lat": 0.0, "lon": -77.04470083333334, "name": "062773f869884c3e0a84f8048553a8e0"}, {"bike_id": "ce65001c7b9caf3215d42c0190e2a3cc", "type": "electric_scooter", "is_disabled": 0, "lat": 38.916894, "rental_uris": {"ios": "https://dc.lft.to/lastmile_qr_scan", "android": "https://dc.lft.to/lastmile_qr_scan"}, "is_reserved": 0, "fusion_lon": 0.0, "fusion_lat": 0.0, "lon": -77.0321145, "name": "ce65001c7b9caf3215d42c0190e2a3cc"}, {"bike_id": "8c721c641a4127d09e4ce1ec959e3742", "type": "electric_bike", "is_disabled": 0, "lat": 38.96132383333333, "rental_uris": {"ios": "https://dc.lft.to/lastmile_qr_scan", "android": "https://dc.lft.to/lastmile_qr_scan"}, "is_reserved": 0, "fusion_lon": 0.0, "fusion_lat": 0.0, "lon": -77.033328, "name": "8c721c641a4127d09e4ce1ec959e3742"}, {"bike_id": "2ab50a0210b2898c8575a37ab24c9431", "type": "electric_bike", "is_disabled": 0, "lat": 38.88244566666667, "rental_uris": {"ios": "https://dc.lft.to/lastmile_qr_scan", "android": "https://dc.lft.to/lastmile_qr_scan"}, "is_reserved": 0, "fusion_lon": 0.0, "fusion_lat": 0.0, "lon": -76.96253916666667, "name": "2ab50a0210b2898c8575a37ab24c9431"}, {"bike_id": "52c04030432e28ebaac547162cd6ab63", "type": "electric_scooter", "is_disabled": 0, "lat": 38.931469166666666, "rental_uris": {"ios": "https://dc.lft.to/lastmile_qr_scan", "android": "https://dc.lft.to/lastmile_qr_scan"}, "is_reserved": 0, "fusion_lon": 0.0, "fusion_lat": 0.0, "lon": -77.03353, "name": "52c04030432e28ebaac547162cd6ab63"}, {"bike_id": "ad87ba98eb0eb95f2eda0486fe62f0f3", "type": "electric_scooter", "is_disabled": 0, "lat": 38.9024665, "rental_uris": {"ios": "https://dc.lft.to/lastmile_qr_scan", "android": "https://dc.lft.to/lastmile_qr_scan"}, "is_reserved": 0, "fusion_lon": 0.0, "fusion_lat": 0.0, "lon": -77.01635783333333, "name": "ad87ba98eb0eb95f2eda0486fe62f0f3"}, {"bike_id": "c4f1ab829a05591ab3e1a118067796ac", "type": "electric_scooter", "is_disabled": 0, "lat": 38.92249116666667, "rental_uris": {"ios": "https://dc.lft.to/lastmile_qr_scan", "android": "https://dc.lft.to/lastmile_qr_scan"}, "is_reserved": 0, "fusion_lon": 0.0, "fusion_lat": 0.0, "lon": -77.04193833333333, "name": "c4f1ab829a05591ab3e1a118067796ac"}, {"bike_id": "d1c3271ebb17f81f652a0c7727c182e4", "type": "electric_scooter", "is_disabled": 0, "lat": 38.90852133333333, "rental_uris": {"ios": "https://dc.lft.to/lastmile_qr_scan", "android": "https://dc.lft.to/lastmile_qr_scan"}, "is_reserved": 0, "fusion_lon": 0.0, "fusion_lat": 0.0, "lon": -77.05485016666667, "name": "d1c3271ebb17f81f652a0c7727c182e4"}, {"bike_id": "ea7ac76c30385f282847d33e0df7615f", "type": "electric_scooter", "is_disabled": 0, "lat": 38.906782166666666, "rental_uris": {"ios": "https://dc.lft.to/lastmile_qr_scan", "android": "https://dc.lft.to/lastmile_qr_scan"}, "is_reserved": 0, "fusion_lon": 0.0, "fusion_lat": 0.0, "lon": -76.97996066666667, "name": "ea7ac76c30385f282847d33e0df7615f"}, {"bike_id": "3449428992cccc7530257e7503e6a6e2", "type": "electric_scooter", "is_disabled": 0, "lat": 38.909580166666665, "rental_uris": {"ios": "https://dc.lft.to/lastmile_qr_scan", "android": "https://dc.lft.to/lastmile_qr_scan"}, "is_reserved": 0, "fusion_lon": 0.0, "fusion_lat": 0.0, "lon": -77.02297, "name": "3449428992cccc7530257e7503e6a6e2"}, {"bike_id": "01d1dc135e31dd72548158d189e6fb78", "type": "electric_bike", "is_disabled": 0, "lat": 38.932304, "rental_uris": {"ios": "https://dc.lft.to/lastmile_qr_scan", "android": "https://dc.lft.to/lastmile_qr_scan"}, "is_reserved": 0, "fusion_lon": 0.0, "fusion_lat": 0.0, "lon": -77.18121266666667, "name": "01d1dc135e31dd72548158d189e6fb78"}, {"bike_id": "34b0375bc2145fa2b812c0d431b6de86", "type": "electric_scooter", "is_disabled": 0, "lat": 38.9346625, "rental_uris": {"ios": "https://dc.lft.to/lastmile_qr_scan", "android": "https://dc.lft.to/lastmile_qr_scan"}, "is_reserved": 0, "fusion_lon": 0.0, "fusion_lat": 0.0, "lon": -77.027963, "name": "34b0375bc2145fa2b812c0d431b6de86"}, {"bike_id": "c851915e7f75783bae0bc0f014ccb016", "type": "electric_scooter", "is_disabled": 0, "lat": 38.90465833333333, "rental_uris": {"ios": "https://dc.lft.to/lastmile_qr_scan", "android": "https://dc.lft.to/lastmile_qr_scan"}, "is_reserved": 0, "fusion_lon": 0.0, "fusion_lat": 0.0, "lon": -76.97606916666666, "name": "c851915e7f75783bae0bc0f014ccb016"}, {"bike_id": "af0576d4e80cc82dca8bc17a7ecfcfd9", "type": "electric_scooter", "is_disabled": 0, "lat": 38.947589666666666, "rental_uris": {"ios": "https://dc.lft.to/lastmile_qr_scan", "android": "https://dc.lft.to/lastmile_qr_scan"}, "is_reserved": 0, "fusion_lon": 0.0, "fusion_lat": 0.0, "lon": -77.06564116666667, "name": "af0576d4e80cc82dca8bc17a7ecfcfd9"}, {"bike_id": "7cdf084621708282186e6c2f49cb1f64", "type": "electric_scooter", "is_disabled": 0, "lat": 38.9183265, "rental_uris": {"ios": "https://dc.lft.to/lastmile_qr_scan", "android": "https://dc.lft.to/lastmile_qr_scan"}, "is_reserved": 0, "fusion_lon": 0.0, "fusion_lat": 0.0, "lon": -77.026021, "name": "7cdf084621708282186e6c2f49cb1f64"}, {"bike_id": "cdeb6eb7088f8d3dbf0c1f5cdafc3bc4", "type": "electric_scooter", "is_disabled": 0, "lat": 38.92948716666667, "rental_uris": {"ios": "https://dc.lft.to/lastmile_qr_scan", "android": "https://dc.lft.to/lastmile_qr_scan"}, "is_reserved": 0, "fusion_lon": 0.0, "fusion_lat": 0.0, "lon": -77.04401366666667, "name": "cdeb6eb7088f8d3dbf0c1f5cdafc3bc4"}, {"bike_id": "43260cf7f51394664ddc5b0ce51da702", "type": "electric_scooter", "is_disabled": 0, "lat": 38.900118666666664, "rental_uris": {"ios": "https://dc.lft.to/lastmile_qr_scan", "android": "https://dc.lft.to/lastmile_qr_scan"}, "is_reserved": 0, "fusion_lon": 0.0, "fusion_lat": 0.0, "lon": -77.0037985, "name": "43260cf7f51394664ddc5b0ce51da702"}, {"bike_id": "3c541e5a8462935dd442d1514ca47b96", "type": "electric_scooter", "is_disabled": 0, "lat": 38.9013285, "rental_uris": {"ios": "https://dc.lft.to/lastmile_qr_scan", "android": "https://dc.lft.to/lastmile_qr_scan"}, "is_reserved": 0, "fusion_lon": 0.0, "fusion_lat": 0.0, "lon": -77.0499295, "name": "3c541e5a8462935dd442d1514ca47b96"}, {"bike_id": "3fc407dc64931ba294dcd82c8f5a3759", "type": "electric_scooter", "is_disabled": 0, "lat": 38.8830205, "rental_uris": {"ios": "https://dc.lft.to/lastmile_qr_scan", "android": "https://dc.lft.to/lastmile_qr_scan"}, "is_reserved": 0, "fusion_lon": 0.0, "fusion_lat": 0.0, "lon": -77.01739966666666, "name": "3fc407dc64931ba294dcd82c8f5a3759"}, {"bike_id": "f1c53966838367148a1e26e5836b87fe", "type": "electric_bike", "is_disabled": 0, "lat": 39.0505475, "rental_uris": {"ios": "https://dc.lft.to/lastmile_qr_scan", "android": "https://dc.lft.to/lastmile_qr_scan"}, "is_reserved": 0, "fusion_lon": 0.0, "fusion_lat": 0.0, "lon": -77.05142066666667, "name": "f1c53966838367148a1e26e5836b87fe"}, {"bike_id": "ccadba77442990d8fd5fc6620e633b45", "type": "electric_scooter", "is_disabled": 0, "lat": 38.919071833333334, "rental_uris": {"ios": "https://dc.lft.to/lastmile_qr_scan", "android": "https://dc.lft.to/lastmile_qr_scan"}, "is_reserved": 0, "fusion_lon": 0.0, "fusion_lat": 0.0, "lon": -77.032032, "name": "ccadba77442990d8fd5fc6620e633b45"}, {"bike_id": "496ee38d7e31a17275a506a5893a7881", "type": "electric_scooter", "is_disabled": 0, "lat": 38.9399785, "rental_uris": {"ios": "https://dc.lft.to/lastmile_qr_scan", "android": "https://dc.lft.to/lastmile_qr_scan"}, "is_reserved": 0, "fusion_lon": 0.0, "fusion_lat": 0.0, "lon": -77.01691766666667, "name": "496ee38d7e31a17275a506a5893a7881"}, {"bike_id": "4e03479e60c878deab9a81265e922735", "type": "electric_scooter", "is_disabled": 0, "lat": 38.9168155, "rental_uris": {"ios": "https://dc.lft.to/lastmile_qr_scan", "android": "https://dc.lft.to/lastmile_qr_scan"}, "is_reserved": 0, "fusion_lon": 0.0, "fusion_lat": 0.0, "lon": -77.03686766666667, "name": "4e03479e60c878deab9a81265e922735"}, {"bike_id": "373c82ac036c99692bf0079a595a8595", "type": "electric_scooter", "is_disabled": 0, "lat": 38.9166405, "rental_uris": {"ios": "https://dc.lft.to/lastmile_qr_scan", "android": "https://dc.lft.to/lastmile_qr_scan"}, "is_reserved": 0, "fusion_lon": 0.0, "fusion_lat": 0.0, "lon": -77.03843016666667, "name": "373c82ac036c99692bf0079a595a8595"}, {"bike_id": "73a7e07581ae2028efc7206a21e14dcc", "type": "electric_scooter", "is_disabled": 0, "lat": 38.89569566666667, "rental_uris": {"ios": "https://dc.lft.to/lastmile_qr_scan", "android": "https://dc.lft.to/lastmile_qr_scan"}, "is_reserved": 0, "fusion_lon": 0.0, "fusion_lat": 0.0, "lon": -76.9302675, "name": "73a7e07581ae2028efc7206a21e14dcc"}, {"bike_id": "f598aec482b6e3d01addee110c84f725", "type": "electric_scooter", "is_disabled": 0, "lat": 38.91603216666667, "rental_uris": {"ios": "https://dc.lft.to/lastmile_qr_scan", "android": "https://dc.lft.to/lastmile_qr_scan"}, "is_reserved": 0, "fusion_lon": 0.0, "fusion_lat": 0.0, "lon": -77.02384166666667, "name": "f598aec482b6e3d01addee110c84f725"}, {"bike_id": "c694bdebdcae69d97364c05d98d76455", "type": "electric_scooter", "is_disabled": 0, "lat": 38.904093333333336, "rental_uris": {"ios": "https://dc.lft.to/lastmile_qr_scan", "android": "https://dc.lft.to/lastmile_qr_scan"}, "is_reserved": 0, "fusion_lon": 0.0, "fusion_lat": 0.0, "lon": -76.9733395, "name": "c694bdebdcae69d97364c05d98d76455"}, {"bike_id": "a4ac56b63641426757358b4972706a19", "type": "electric_scooter", "is_disabled": 0, "lat": 38.93084433333333, "rental_uris": {"ios": "https://dc.lft.to/lastmile_qr_scan", "android": "https://dc.lft.to/lastmile_qr_scan"}, "is_reserved": 0, "fusion_lon": 0.0, "fusion_lat": 0.0, "lon": -77.036555, "name": "a4ac56b63641426757358b4972706a19"}, {"bike_id": "919ae3879dbb0086c62f21f3c8f4412d", "type": "electric_bike", "is_disabled": 0, "lat": 38.832407, "rental_uris": {"ios": "https://dc.lft.to/lastmile_qr_scan", "android": "https://dc.lft.to/lastmile_qr_scan"}, "is_reserved": 0, "fusion_lon": 0.0, "fusion_lat": 0.0, "lon": -76.94634666666667, "name": "919ae3879dbb0086c62f21f3c8f4412d"}, {"bike_id": "bb9594e86e745b62ff5f817ca107607f", "type": "electric_scooter", "is_disabled": 0, "lat": 38.911281, "rental_uris": {"ios": "https://dc.lft.to/lastmile_qr_scan", "android": "https://dc.lft.to/lastmile_qr_scan"}, "is_reserved": 0, "fusion_lon": 0.0, "fusion_lat": 0.0, "lon": -77.032574, "name": "bb9594e86e745b62ff5f817ca107607f"}, {"bike_id": "919337c65c7201e1b1ad92ef8b212b0d", "type": "electric_scooter", "is_disabled": 0, "lat": 38.91557683333333, "rental_uris": {"ios": "https://dc.lft.to/lastmile_qr_scan", "android": "https://dc.lft.to/lastmile_qr_scan"}, "is_reserved": 0, "fusion_lon": 0.0, "fusion_lat": 0.0, "lon": -77.00976166666666, "name": "919337c65c7201e1b1ad92ef8b212b0d"}, {"bike_id": "31645aa25544c712513c9b0a5f74415a", "type": "electric_scooter", "is_disabled": 0, "lat": 38.92121366666667, "rental_uris": {"ios": "https://dc.lft.to/lastmile_qr_scan", "android": "https://dc.lft.to/lastmile_qr_scan"}, "is_reserved": 0, "fusion_lon": 0.0, "fusion_lat": 0.0, "lon": -77.01209766666666, "name": "31645aa25544c712513c9b0a5f74415a"}, {"bike_id": "39856e60b15dda66c9cf57fab1d1f601", "type": "electric_scooter", "is_disabled": 0, "lat": 38.877573166666664, "rental_uris": {"ios": "https://dc.lft.to/lastmile_qr_scan", "android": "https://dc.lft.to/lastmile_qr_scan"}, "is_reserved": 0, "fusion_lon": 0.0, "fusion_lat": 0.0, "lon": -76.98684316666667, "name": "39856e60b15dda66c9cf57fab1d1f601"}, {"bike_id": "9a02a2687b85cb8183877216286b9a0b", "type": "electric_scooter", "is_disabled": 0, "lat": 38.89647133333333, "rental_uris": {"ios": "https://dc.lft.to/lastmile_qr_scan", "android": "https://dc.lft.to/lastmile_qr_scan"}, "is_reserved": 0, "fusion_lon": 0.0, "fusion_lat": 0.0, "lon": -77.0091385, "name": "9a02a2687b85cb8183877216286b9a0b"}, {"bike_id": "17606df4f40f0c9b0127532dd0921ea8", "type": "electric_scooter", "is_disabled": 0, "lat": 38.90571466666667, "rental_uris": {"ios": "https://dc.lft.to/lastmile_qr_scan", "android": "https://dc.lft.to/lastmile_qr_scan"}, "is_reserved": 0, "fusion_lon": 0.0, "fusion_lat": 0.0, "lon": -76.9778255, "name": "17606df4f40f0c9b0127532dd0921ea8"}, {"bike_id": "2d1af713cc6dc1350d306b79d6867161", "type": "electric_scooter", "is_disabled": 0, "lat": 38.902338666666665, "rental_uris": {"ios": "https://dc.lft.to/lastmile_qr_scan", "android": "https://dc.lft.to/lastmile_qr_scan"}, "is_reserved": 0, "fusion_lon": 0.0, "fusion_lat": 0.0, "lon": -77.01746966666667, "name": "2d1af713cc6dc1350d306b79d6867161"}, {"bike_id": "78eb030bcf527e1fa068588448e84d6e", "type": "electric_scooter", "is_disabled": 0, "lat": 38.908014333333334, "rental_uris": {"ios": "https://dc.lft.to/lastmile_qr_scan", "android": "https://dc.lft.to/lastmile_qr_scan"}, "is_reserved": 0, "fusion_lon": 0.0, "fusion_lat": 0.0, "lon": -76.9945205, "name": "78eb030bcf527e1fa068588448e84d6e"}, {"bike_id": "f36ed59544b89417c5bb3f685809051e", "type": "electric_scooter", "is_disabled": 0, "lat": 38.86619366666667, "rental_uris": {"ios": "https://dc.lft.to/lastmile_qr_scan", "android": "https://dc.lft.to/lastmile_qr_scan"}, "is_reserved": 0, "fusion_lon": 0.0, "fusion_lat": 0.0, "lon": -76.9871105, "name": "f36ed59544b89417c5bb3f685809051e"}, {"bike_id": "d04d6e808b066ab563642c9f6ccdf25f", "type": "electric_bike", "is_disabled": 0, "lat": 38.943635666666665, "rental_uris": {"ios": "https://dc.lft.to/lastmile_qr_scan", "android": "https://dc.lft.to/lastmile_qr_scan"}, "is_reserved": 0, "fusion_lon": 0.0, "fusion_lat": 0.0, "lon": -77.00351133333334, "name": "d04d6e808b066ab563642c9f6ccdf25f"}, {"bike_id": "b87c2ac95d04320e8ee99dd9365582a6", "type": "electric_scooter", "is_disabled": 0, "lat": 38.8707075, "rental_uris": {"ios": "https://dc.lft.to/lastmile_qr_scan", "android": "https://dc.lft.to/lastmile_qr_scan"}, "is_reserved": 0, "fusion_lon": 0.0, "fusion_lat": 0.0, "lon": -76.9812775, "name": "b87c2ac95d04320e8ee99dd9365582a6"}, {"bike_id": "57b9cd979d3d977f327009d412ed5973", "type": "electric_scooter", "is_disabled": 0, "lat": 38.93977733333333, "rental_uris": {"ios": "https://dc.lft.to/lastmile_qr_scan", "android": "https://dc.lft.to/lastmile_qr_scan"}, "is_reserved": 0, "fusion_lon": 0.0, "fusion_lat": 0.0, "lon": -77.0287505, "name": "57b9cd979d3d977f327009d412ed5973"}, {"bike_id": "2391f20a31923970adcf3dea18e7d95a", "type": "electric_scooter", "is_disabled": 0, "lat": 38.89487233333333, "rental_uris": {"ios": "https://dc.lft.to/lastmile_qr_scan", "android": "https://dc.lft.to/lastmile_qr_scan"}, "is_reserved": 0, "fusion_lon": 0.0, "fusion_lat": 0.0, "lon": -76.987856, "name": "2391f20a31923970adcf3dea18e7d95a"}, {"bike_id": "f549c501434e655d698cab942302e7ab", "type": "electric_scooter", "is_disabled": 0, "lat": 38.892662666666666, "rental_uris": {"ios": "https://dc.lft.to/lastmile_qr_scan", "android": "https://dc.lft.to/lastmile_qr_scan"}, "is_reserved": 0, "fusion_lon": 0.0, "fusion_lat": 0.0, "lon": -77.0203265, "name": "f549c501434e655d698cab942302e7ab"}, {"bike_id": "d3e5d27c9473115cf7c0a0ae77428207", "type": "electric_bike", "is_disabled": 0, "lat": 38.80755283333333, "rental_uris": {"ios": "https://dc.lft.to/lastmile_qr_scan", "android": "https://dc.lft.to/lastmile_qr_scan"}, "is_reserved": 0, "fusion_lon": 0.0, "fusion_lat": 0.0, "lon": -77.09451633333333, "name": "d3e5d27c9473115cf7c0a0ae77428207"}, {"bike_id": "d8b4138982ca52dbbe11e90a5969b45c", "type": "electric_scooter", "is_disabled": 0, "lat": 38.91723833333333, "rental_uris": {"ios": "https://dc.lft.to/lastmile_qr_scan", "android": "https://dc.lft.to/lastmile_qr_scan"}, "is_reserved": 0, "fusion_lon": 0.0, "fusion_lat": 0.0, "lon": -77.008118, "name": "d8b4138982ca52dbbe11e90a5969b45c"}, {"bike_id": "5be82e82a744ed58fd990fa9db318c88", "type": "electric_bike", "is_disabled": 0, "lat": 38.86479166666667, "rental_uris": {"ios": "https://dc.lft.to/lastmile_qr_scan", "android": "https://dc.lft.to/lastmile_qr_scan"}, "is_reserved": 0, "fusion_lon": 0.0, "fusion_lat": 0.0, "lon": -76.97747683333333, "name": "5be82e82a744ed58fd990fa9db318c88"}, {"bike_id": "dedb9b76f9a00c469a645b1315bca86c", "type": "electric_scooter", "is_disabled": 0, "lat": 38.9390025, "rental_uris": {"ios": "https://dc.lft.to/lastmile_qr_scan", "android": "https://dc.lft.to/lastmile_qr_scan"}, "is_reserved": 0, "fusion_lon": 0.0, "fusion_lat": 0.0, "lon": -77.03352483333333, "name": "dedb9b76f9a00c469a645b1315bca86c"}, {"bike_id": "12490b2c530eed7444b08b1733d3ee18", "type": "electric_scooter", "is_disabled": 0, "lat": 38.914106333333336, "rental_uris": {"ios": "https://dc.lft.to/lastmile_qr_scan", "android": "https://dc.lft.to/lastmile_qr_scan"}, "is_reserved": 0, "fusion_lon": 0.0, "fusion_lat": 0.0, "lon": -77.039561, "name": "12490b2c530eed7444b08b1733d3ee18"}, {"bike_id": "ed8bbf6e8c228d79cda21c2ac619bed7", "type": "electric_scooter", "is_disabled": 0, "lat": 38.924839, "rental_uris": {"ios": "https://dc.lft.to/lastmile_qr_scan", "android": "https://dc.lft.to/lastmile_qr_scan"}, "is_reserved": 0, "fusion_lon": 0.0, "fusion_lat": 0.0, "lon": -77.029609, "name": "ed8bbf6e8c228d79cda21c2ac619bed7"}, {"bike_id": "4cd5c6bba0e25c3ccf5db71aebd1b43e", "type": "electric_scooter", "is_disabled": 0, "lat": 38.923274166666666, "rental_uris": {"ios": "https://dc.lft.to/lastmile_qr_scan", "android": "https://dc.lft.to/lastmile_qr_scan"}, "is_reserved": 0, "fusion_lon": 0.0, "fusion_lat": 0.0, "lon": -77.00049583333333, "name": "4cd5c6bba0e25c3ccf5db71aebd1b43e"}, {"bike_id": "e1608af1d37ddcf48c4a358682008b97", "type": "electric_scooter", "is_disabled": 0, "lat": 38.8581595, "rental_uris": {"ios": "https://dc.lft.to/lastmile_qr_scan", "android": "https://dc.lft.to/lastmile_qr_scan"}, "is_reserved": 0, "fusion_lon": 0.0, "fusion_lat": 0.0, "lon": -76.989255, "name": "e1608af1d37ddcf48c4a358682008b97"}, {"bike_id": "0e6b93e675c25595a3286053bd927264", "type": "electric_scooter", "is_disabled": 0, "lat": 38.91682633333333, "rental_uris": {"ios": "https://dc.lft.to/lastmile_qr_scan", "android": "https://dc.lft.to/lastmile_qr_scan"}, "is_reserved": 0, "fusion_lon": 0.0, "fusion_lat": 0.0, "lon": -77.02901266666667, "name": "0e6b93e675c25595a3286053bd927264"}, {"bike_id": "d66aa01e5e81c60118cae6634e1630b4", "type": "electric_scooter", "is_disabled": 0, "lat": 38.941983666666665, "rental_uris": {"ios": "https://dc.lft.to/lastmile_qr_scan", "android": "https://dc.lft.to/lastmile_qr_scan"}, "is_reserved": 0, "fusion_lon": 0.0, "fusion_lat": 0.0, "lon": -77.0254945, "name": "d66aa01e5e81c60118cae6634e1630b4"}, {"bike_id": "891dcd2ed6d076e5cd7a1580132d8462", "type": "electric_bike", "is_disabled": 0, "lat": 38.9596355, "rental_uris": {"ios": "https://dc.lft.to/lastmile_qr_scan", "android": "https://dc.lft.to/lastmile_qr_scan"}, "is_reserved": 0, "fusion_lon": 0.0, "fusion_lat": 0.0, "lon": -76.98154666666667, "name": "891dcd2ed6d076e5cd7a1580132d8462"}, {"bike_id": "150790e4e243456af8fc2c4af7c46578", "type": "electric_scooter", "is_disabled": 0, "lat": 38.89966533333333, "rental_uris": {"ios": "https://dc.lft.to/lastmile_qr_scan", "android": "https://dc.lft.to/lastmile_qr_scan"}, "is_reserved": 0, "fusion_lon": 0.0, "fusion_lat": 0.0, "lon": -76.98305416666666, "name": "150790e4e243456af8fc2c4af7c46578"}, {"bike_id": "55489e1d4540873fefcbeb0eb28318e1", "type": "electric_scooter", "is_disabled": 0, "lat": 38.90553666666667, "rental_uris": {"ios": "https://dc.lft.to/lastmile_qr_scan", "android": "https://dc.lft.to/lastmile_qr_scan"}, "is_reserved": 0, "fusion_lon": 0.0, "fusion_lat": 0.0, "lon": -77.0323945, "name": "55489e1d4540873fefcbeb0eb28318e1"}, {"bike_id": "a2b4827e9b3d551f7d3ccfe4862ac9f5", "type": "electric_scooter", "is_disabled": 0, "lat": 38.91159566666666, "rental_uris": {"ios": "https://dc.lft.to/lastmile_qr_scan", "android": "https://dc.lft.to/lastmile_qr_scan"}, "is_reserved": 0, "fusion_lon": 0.0, "fusion_lat": 0.0, "lon": -77.01989233333333, "name": "a2b4827e9b3d551f7d3ccfe4862ac9f5"}, {"bike_id": "873d8e4e274f292c1bf78d216437cb9d", "type": "electric_bike", "is_disabled": 0, "lat": 38.85938683333333, "rental_uris": {"ios": "https://dc.lft.to/lastmile_qr_scan", "android": "https://dc.lft.to/lastmile_qr_scan"}, "is_reserved": 0, "fusion_lon": 0.0, "fusion_lat": 0.0, "lon": -77.11826633333334, "name": "873d8e4e274f292c1bf78d216437cb9d"}, {"bike_id": "5337c593b6878865fac8a2daec1d9791", "type": "electric_scooter", "is_disabled": 0, "lat": 38.9154575, "rental_uris": {"ios": "https://dc.lft.to/lastmile_qr_scan", "android": "https://dc.lft.to/lastmile_qr_scan"}, "is_reserved": 0, "fusion_lon": 0.0, "fusion_lat": 0.0, "lon": -77.01221466666667, "name": "5337c593b6878865fac8a2daec1d9791"}, {"bike_id": "1a3e00ab5597583443f8b24d49adc32e", "type": "electric_bike", "is_disabled": 0, "lat": 38.8237115, "rental_uris": {"ios": "https://dc.lft.to/lastmile_qr_scan", "android": "https://dc.lft.to/lastmile_qr_scan"}, "is_reserved": 0, "fusion_lon": 0.0, "fusion_lat": 0.0, "lon": -77.00218716666667, "name": "1a3e00ab5597583443f8b24d49adc32e"}, {"bike_id": "3799d64ad4a8ea17bb9871793d3e0261", "type": "electric_scooter", "is_disabled": 0, "lat": 38.8959775, "rental_uris": {"ios": "https://dc.lft.to/lastmile_qr_scan", "android": "https://dc.lft.to/lastmile_qr_scan"}, "is_reserved": 0, "fusion_lon": 0.0, "fusion_lat": 0.0, "lon": -77.0108165, "name": "3799d64ad4a8ea17bb9871793d3e0261"}, {"bike_id": "08794df538330a47c397510935ba7deb", "type": "electric_scooter", "is_disabled": 0, "lat": 38.89837383333333, "rental_uris": {"ios": "https://dc.lft.to/lastmile_qr_scan", "android": "https://dc.lft.to/lastmile_qr_scan"}, "is_reserved": 0, "fusion_lon": 0.0, "fusion_lat": 0.0, "lon": -76.9195265, "name": "08794df538330a47c397510935ba7deb"}, {"bike_id": "010e3a269340ef33f547d0f97996c6da", "type": "electric_scooter", "is_disabled": 0, "lat": 38.884205333333334, "rental_uris": {"ios": "https://dc.lft.to/lastmile_qr_scan", "android": "https://dc.lft.to/lastmile_qr_scan"}, "is_reserved": 0, "fusion_lon": 0.0, "fusion_lat": 0.0, "lon": -77.01775933333333, "name": "010e3a269340ef33f547d0f97996c6da"}, {"bike_id": "119138e166dd9a34bac66a4809f9ec1f", "type": "electric_scooter", "is_disabled": 0, "lat": 38.92321866666666, "rental_uris": {"ios": "https://dc.lft.to/lastmile_qr_scan", "android": "https://dc.lft.to/lastmile_qr_scan"}, "is_reserved": 0, "fusion_lon": 0.0, "fusion_lat": 0.0, "lon": -77.02140083333333, "name": "119138e166dd9a34bac66a4809f9ec1f"}, {"bike_id": "cea635a767a58a9abe1d137a7fff5bbb", "type": "electric_scooter", "is_disabled": 0, "lat": 38.920069, "rental_uris": {"ios": "https://dc.lft.to/lastmile_qr_scan", "android": "https://dc.lft.to/lastmile_qr_scan"}, "is_reserved": 0, "fusion_lon": 0.0, "fusion_lat": 0.0, "lon": -76.98497716666667, "name": "cea635a767a58a9abe1d137a7fff5bbb"}, {"bike_id": "134ca0f1befbea7c804f921c43cd776c", "type": "electric_scooter", "is_disabled": 0, "lat": 38.90413266666667, "rental_uris": {"ios": "https://dc.lft.to/lastmile_qr_scan", "android": "https://dc.lft.to/lastmile_qr_scan"}, "is_reserved": 0, "fusion_lon": 0.0, "fusion_lat": 0.0, "lon": -76.97329983333333, "name": "134ca0f1befbea7c804f921c43cd776c"}, {"bike_id": "fd2d5c8d8112e65eedd610409f57d6fb", "type": "electric_scooter", "is_disabled": 0, "lat": 38.9075515, "rental_uris": {"ios": "https://dc.lft.to/lastmile_qr_scan", "android": "https://dc.lft.to/lastmile_qr_scan"}, "is_reserved": 0, "fusion_lon": 0.0, "fusion_lat": 0.0, "lon": -77.04339183333333, "name": "fd2d5c8d8112e65eedd610409f57d6fb"}, {"bike_id": "d3f983a0b03a17febb1e98cb1472b12e", "type": "electric_scooter", "is_disabled": 0, "lat": 38.91713216666667, "rental_uris": {"ios": "https://dc.lft.to/lastmile_qr_scan", "android": "https://dc.lft.to/lastmile_qr_scan"}, "is_reserved": 0, "fusion_lon": 0.0, "fusion_lat": 0.0, "lon": -77.034744, "name": "d3f983a0b03a17febb1e98cb1472b12e"}, {"bike_id": "6f34a413e2e46f36c1b9742e7af835ec", "type": "electric_scooter", "is_disabled": 0, "lat": 38.917027833333336, "rental_uris": {"ios": "https://dc.lft.to/lastmile_qr_scan", "android": "https://dc.lft.to/lastmile_qr_scan"}, "is_reserved": 0, "fusion_lon": 0.0, "fusion_lat": 0.0, "lon": -77.095757, "name": "6f34a413e2e46f36c1b9742e7af835ec"}, {"bike_id": "18fbc6e41473014a02ee4fd01bcaf556", "type": "electric_scooter", "is_disabled": 0, "lat": 38.92800283333333, "rental_uris": {"ios": "https://dc.lft.to/lastmile_qr_scan", "android": "https://dc.lft.to/lastmile_qr_scan"}, "is_reserved": 0, "fusion_lon": 0.0, "fusion_lat": 0.0, "lon": -77.03599933333334, "name": "18fbc6e41473014a02ee4fd01bcaf556"}, {"bike_id": "ce303f40fc745dcdf3912545819291d7", "type": "electric_scooter", "is_disabled": 0, "lat": 38.925907333333335, "rental_uris": {"ios": "https://dc.lft.to/lastmile_qr_scan", "android": "https://dc.lft.to/lastmile_qr_scan"}, "is_reserved": 0, "fusion_lon": 0.0, "fusion_lat": 0.0, "lon": -77.03735966666666, "name": "ce303f40fc745dcdf3912545819291d7"}, {"bike_id": "1295db7e237de0dc0230525cc614679a", "type": "electric_scooter", "is_disabled": 0, "lat": 38.915455, "rental_uris": {"ios": "https://dc.lft.to/lastmile_qr_scan", "android": "https://dc.lft.to/lastmile_qr_scan"}, "is_reserved": 0, "fusion_lon": 0.0, "fusion_lat": 0.0, "lon": -77.038543, "name": "1295db7e237de0dc0230525cc614679a"}, {"bike_id": "0dd6058fdacfa1edeae8cfb204ecda8f", "type": "electric_scooter", "is_disabled": 0, "lat": 38.9276875, "rental_uris": {"ios": "https://dc.lft.to/lastmile_qr_scan", "android": "https://dc.lft.to/lastmile_qr_scan"}, "is_reserved": 0, "fusion_lon": 0.0, "fusion_lat": 0.0, "lon": -76.98756016666667, "name": "0dd6058fdacfa1edeae8cfb204ecda8f"}, {"bike_id": "7648ff1ec0300ee300ae4bff40923fdf", "type": "electric_scooter", "is_disabled": 0, "lat": 38.95735533333333, "rental_uris": {"ios": "https://dc.lft.to/lastmile_qr_scan", "android": "https://dc.lft.to/lastmile_qr_scan"}, "is_reserved": 0, "fusion_lon": 0.0, "fusion_lat": 0.0, "lon": -77.02401983333333, "name": "7648ff1ec0300ee300ae4bff40923fdf"}, {"bike_id": "6c6119beb41d0c7840a7716d376bea7e", "type": "electric_scooter", "is_disabled": 0, "lat": 38.92277583333333, "rental_uris": {"ios": "https://dc.lft.to/lastmile_qr_scan", "android": "https://dc.lft.to/lastmile_qr_scan"}, "is_reserved": 0, "fusion_lon": 0.0, "fusion_lat": 0.0, "lon": -76.99454433333334, "name": "6c6119beb41d0c7840a7716d376bea7e"}, {"bike_id": "c4f24b2b3645dde0364855ee8865e603", "type": "electric_bike", "is_disabled": 0, "lat": 38.91247966666667, "rental_uris": {"ios": "https://dc.lft.to/lastmile_qr_scan", "android": "https://dc.lft.to/lastmile_qr_scan"}, "is_reserved": 0, "fusion_lon": 0.0, "fusion_lat": 0.0, "lon": -77.08736333333333, "name": "c4f24b2b3645dde0364855ee8865e603"}, {"bike_id": "b68a18d7678c36a109ba475e392cfc97", "type": "electric_bike", "is_disabled": 0, "lat": 38.93777, "rental_uris": {"ios": "https://dc.lft.to/lastmile_qr_scan", "android": "https://dc.lft.to/lastmile_qr_scan"}, "is_reserved": 0, "fusion_lon": 0.0, "fusion_lat": 0.0, "lon": -77.01911133333333, "name": "b68a18d7678c36a109ba475e392cfc97"}, {"bike_id": "a29011dd6df07d16a3b324a652583d49", "type": "electric_scooter", "is_disabled": 0, "lat": 38.866869, "rental_uris": {"ios": "https://dc.lft.to/lastmile_qr_scan", "android": "https://dc.lft.to/lastmile_qr_scan"}, "is_reserved": 0, "fusion_lon": 0.0, "fusion_lat": 0.0, "lon": -76.98575416666667, "name": "a29011dd6df07d16a3b324a652583d49"}, {"bike_id": "c566103b1d2a5279f7d25a1c50b444c2", "type": "electric_scooter", "is_disabled": 0, "lat": 38.921919, "rental_uris": {"ios": "https://dc.lft.to/lastmile_qr_scan", "android": "https://dc.lft.to/lastmile_qr_scan"}, "is_reserved": 0, "fusion_lon": 0.0, "fusion_lat": 0.0, "lon": -77.0210535, "name": "c566103b1d2a5279f7d25a1c50b444c2"}, {"bike_id": "a448a80c24de82a9fd9e5c79c9eb0c71", "type": "electric_scooter", "is_disabled": 0, "lat": 38.9072905, "rental_uris": {"ios": "https://dc.lft.to/lastmile_qr_scan", "android": "https://dc.lft.to/lastmile_qr_scan"}, "is_reserved": 0, "fusion_lon": 0.0, "fusion_lat": 0.0, "lon": -77.03202833333333, "name": "a448a80c24de82a9fd9e5c79c9eb0c71"}, {"bike_id": "caecfcb1fe7b491a5b64d0849826b117", "type": "electric_scooter", "is_disabled": 0, "lat": 38.909304166666665, "rental_uris": {"ios": "https://dc.lft.to/lastmile_qr_scan", "android": "https://dc.lft.to/lastmile_qr_scan"}, "is_reserved": 0, "fusion_lon": 0.0, "fusion_lat": 0.0, "lon": -77.04924483333333, "name": "caecfcb1fe7b491a5b64d0849826b117"}, {"bike_id": "50c458dd0d3e02fcec38a7384f5505b8", "type": "electric_scooter", "is_disabled": 0, "lat": 38.92222833333334, "rental_uris": {"ios": "https://dc.lft.to/lastmile_qr_scan", "android": "https://dc.lft.to/lastmile_qr_scan"}, "is_reserved": 0, "fusion_lon": 0.0, "fusion_lat": 0.0, "lon": -77.02668466666667, "name": "50c458dd0d3e02fcec38a7384f5505b8"}, {"bike_id": "0d3846d26edab6842f7010e5d1839e48", "type": "electric_scooter", "is_disabled": 0, "lat": 38.911340333333335, "rental_uris": {"ios": "https://dc.lft.to/lastmile_qr_scan", "android": "https://dc.lft.to/lastmile_qr_scan"}, "is_reserved": 0, "fusion_lon": 0.0, "fusion_lat": 0.0, "lon": -77.02184433333333, "name": "0d3846d26edab6842f7010e5d1839e48"}, {"bike_id": "c102264487761003ad716d4adf3a9c71", "type": "electric_scooter", "is_disabled": 0, "lat": 38.92178216666667, "rental_uris": {"ios": "https://dc.lft.to/lastmile_qr_scan", "android": "https://dc.lft.to/lastmile_qr_scan"}, "is_reserved": 0, "fusion_lon": 0.0, "fusion_lat": 0.0, "lon": -77.0403125, "name": "c102264487761003ad716d4adf3a9c71"}, {"bike_id": "6d0350580b2b3ede23bf5bfc4a7198a2", "type": "electric_scooter", "is_disabled": 0, "lat": 38.905622, "rental_uris": {"ios": "https://dc.lft.to/lastmile_qr_scan", "android": "https://dc.lft.to/lastmile_qr_scan"}, "is_reserved": 0, "fusion_lon": 0.0, "fusion_lat": 0.0, "lon": -77.05131016666667, "name": "6d0350580b2b3ede23bf5bfc4a7198a2"}, {"bike_id": "4866d66005b14f48ca5caf21e29d1d9c", "type": "electric_scooter", "is_disabled": 0, "lat": 38.88486266666666, "rental_uris": {"ios": "https://dc.lft.to/lastmile_qr_scan", "android": "https://dc.lft.to/lastmile_qr_scan"}, "is_reserved": 0, "fusion_lon": 0.0, "fusion_lat": 0.0, "lon": -77.02564783333334, "name": "4866d66005b14f48ca5caf21e29d1d9c"}, {"bike_id": "5a26eb6e5a53d37e6d9322d369a80b92", "type": "electric_scooter", "is_disabled": 0, "lat": 38.91545266666667, "rental_uris": {"ios": "https://dc.lft.to/lastmile_qr_scan", "android": "https://dc.lft.to/lastmile_qr_scan"}, "is_reserved": 0, "fusion_lon": 0.0, "fusion_lat": 0.0, "lon": -77.01218283333333, "name": "5a26eb6e5a53d37e6d9322d369a80b92"}, {"bike_id": "1f48163766ebc37fad53d1c0f84095d4", "type": "electric_bike", "is_disabled": 0, "lat": 38.9745015, "rental_uris": {"ios": "https://dc.lft.to/lastmile_qr_scan", "android": "https://dc.lft.to/lastmile_qr_scan"}, "is_reserved": 0, "fusion_lon": 0.0, "fusion_lat": 0.0, "lon": -77.012134, "name": "1f48163766ebc37fad53d1c0f84095d4"}, {"bike_id": "82849eeb2469725538ab18c83fd75fbe", "type": "electric_scooter", "is_disabled": 0, "lat": 38.9179065, "rental_uris": {"ios": "https://dc.lft.to/lastmile_qr_scan", "android": "https://dc.lft.to/lastmile_qr_scan"}, "is_reserved": 0, "fusion_lon": 0.0, "fusion_lat": 0.0, "lon": -77.03424533333333, "name": "82849eeb2469725538ab18c83fd75fbe"}, {"bike_id": "66a58f458ce44a475d57b3f0bf1e8527", "type": "electric_scooter", "is_disabled": 0, "lat": 38.903982666666664, "rental_uris": {"ios": "https://dc.lft.to/lastmile_qr_scan", "android": "https://dc.lft.to/lastmile_qr_scan"}, "is_reserved": 0, "fusion_lon": 0.0, "fusion_lat": 0.0, "lon": -77.00871233333334, "name": "66a58f458ce44a475d57b3f0bf1e8527"}, {"bike_id": "653bbf250b1425108215ae2a53ac4394", "type": "electric_scooter", "is_disabled": 0, "lat": 38.91431633333333, "rental_uris": {"ios": "https://dc.lft.to/lastmile_qr_scan", "android": "https://dc.lft.to/lastmile_qr_scan"}, "is_reserved": 0, "fusion_lon": 0.0, "fusion_lat": 0.0, "lon": -77.03251566666667, "name": "653bbf250b1425108215ae2a53ac4394"}, {"bike_id": "74adf51193594e5a0d5ae293d10a0888", "type": "electric_scooter", "is_disabled": 0, "lat": 38.919087, "rental_uris": {"ios": "https://dc.lft.to/lastmile_qr_scan", "android": "https://dc.lft.to/lastmile_qr_scan"}, "is_reserved": 0, "fusion_lon": 0.0, "fusion_lat": 0.0, "lon": -77.04456533333334, "name": "74adf51193594e5a0d5ae293d10a0888"}, {"bike_id": "9ad947203bbf59b104f7693104357ebf", "type": "electric_scooter", "is_disabled": 0, "lat": 38.897309, "rental_uris": {"ios": "https://dc.lft.to/lastmile_qr_scan", "android": "https://dc.lft.to/lastmile_qr_scan"}, "is_reserved": 0, "fusion_lon": 0.0, "fusion_lat": 0.0, "lon": -77.01964766666667, "name": "9ad947203bbf59b104f7693104357ebf"}, {"bike_id": "acfe40f6588ac2a5f3a29a8ee8e5754f", "type": "electric_scooter", "is_disabled": 0, "lat": 38.92387016666667, "rental_uris": {"ios": "https://dc.lft.to/lastmile_qr_scan", "android": "https://dc.lft.to/lastmile_qr_scan"}, "is_reserved": 0, "fusion_lon": 0.0, "fusion_lat": 0.0, "lon": -77.036407, "name": "acfe40f6588ac2a5f3a29a8ee8e5754f"}, {"bike_id": "6d7c19f5986c48f8a9c3f78768c18466", "type": "electric_scooter", "is_disabled": 0, "lat": 38.923317, "rental_uris": {"ios": "https://dc.lft.to/lastmile_qr_scan", "android": "https://dc.lft.to/lastmile_qr_scan"}, "is_reserved": 0, "fusion_lon": 0.0, "fusion_lat": 0.0, "lon": -77.03626933333334, "name": "6d7c19f5986c48f8a9c3f78768c18466"}, {"bike_id": "787036548b215d604003f3d5502b5ba6", "type": "electric_scooter", "is_disabled": 0, "lat": 38.90011783333333, "rental_uris": {"ios": "https://dc.lft.to/lastmile_qr_scan", "android": "https://dc.lft.to/lastmile_qr_scan"}, "is_reserved": 0, "fusion_lon": 0.0, "fusion_lat": 0.0, "lon": -77.00184783333333, "name": "787036548b215d604003f3d5502b5ba6"}, {"bike_id": "9c5bf6419c8aa2d0de3536cec17f65e8", "type": "electric_scooter", "is_disabled": 0, "lat": 38.92373166666667, "rental_uris": {"ios": "https://dc.lft.to/lastmile_qr_scan", "android": "https://dc.lft.to/lastmile_qr_scan"}, "is_reserved": 0, "fusion_lon": 0.0, "fusion_lat": 0.0, "lon": -77.03050266666666, "name": "9c5bf6419c8aa2d0de3536cec17f65e8"}, {"bike_id": "8365003808798d757fdd4890a73826b7", "type": "electric_scooter", "is_disabled": 0, "lat": 38.88213583333334, "rental_uris": {"ios": "https://dc.lft.to/lastmile_qr_scan", "android": "https://dc.lft.to/lastmile_qr_scan"}, "is_reserved": 0, "fusion_lon": 0.0, "fusion_lat": 0.0, "lon": -76.926543, "name": "8365003808798d757fdd4890a73826b7"}, {"bike_id": "c887649915d4be3d27b89259b7d1056f", "type": "electric_scooter", "is_disabled": 0, "lat": 38.947914833333336, "rental_uris": {"ios": "https://dc.lft.to/lastmile_qr_scan", "android": "https://dc.lft.to/lastmile_qr_scan"}, "is_reserved": 0, "fusion_lon": 0.0, "fusion_lat": 0.0, "lon": -77.0213405, "name": "c887649915d4be3d27b89259b7d1056f"}, {"bike_id": "5d5ca17e322731e648ac2beeb8161b34", "type": "electric_scooter", "is_disabled": 0, "lat": 38.9339945, "rental_uris": {"ios": "https://dc.lft.to/lastmile_qr_scan", "android": "https://dc.lft.to/lastmile_qr_scan"}, "is_reserved": 0, "fusion_lon": 0.0, "fusion_lat": 0.0, "lon": -77.0220655, "name": "5d5ca17e322731e648ac2beeb8161b34"}, {"bike_id": "933fd1bbae0ec7b22a39864013f7f434", "type": "electric_scooter", "is_disabled": 0, "lat": 38.93343733333333, "rental_uris": {"ios": "https://dc.lft.to/lastmile_qr_scan", "android": "https://dc.lft.to/lastmile_qr_scan"}, "is_reserved": 0, "fusion_lon": 0.0, "fusion_lat": 0.0, "lon": -77.0261985, "name": "933fd1bbae0ec7b22a39864013f7f434"}, {"bike_id": "018c8590bd0be5f0b7b2a6c574e19cc1", "type": "electric_bike", "is_disabled": 0, "lat": 38.88070033333333, "rental_uris": {"ios": "https://dc.lft.to/lastmile_qr_scan", "android": "https://dc.lft.to/lastmile_qr_scan"}, "is_reserved": 0, "fusion_lon": 0.0, "fusion_lat": 0.0, "lon": -76.96238433333333, "name": "018c8590bd0be5f0b7b2a6c574e19cc1"}, {"bike_id": "6fe43370e4c39fffa3c1ff67b35246e6", "type": "electric_bike", "is_disabled": 0, "lat": 38.87278516666667, "rental_uris": {"ios": "https://dc.lft.to/lastmile_qr_scan", "android": "https://dc.lft.to/lastmile_qr_scan"}, "is_reserved": 0, "fusion_lon": 0.0, "fusion_lat": 0.0, "lon": -77.23318483333334, "name": "6fe43370e4c39fffa3c1ff67b35246e6"}, {"bike_id": "db96b54cfcac08c13ecd1e9e0c2ff6cf", "type": "electric_scooter", "is_disabled": 0, "lat": 38.91300583333334, "rental_uris": {"ios": "https://dc.lft.to/lastmile_qr_scan", "android": "https://dc.lft.to/lastmile_qr_scan"}, "is_reserved": 0, "fusion_lon": 0.0, "fusion_lat": 0.0, "lon": -77.04539116666666, "name": "db96b54cfcac08c13ecd1e9e0c2ff6cf"}, {"bike_id": "9379547c6897da7bfce7056844cbf5ca", "type": "electric_scooter", "is_disabled": 0, "lat": 38.93305983333333, "rental_uris": {"ios": "https://dc.lft.to/lastmile_qr_scan", "android": "https://dc.lft.to/lastmile_qr_scan"}, "is_reserved": 0, "fusion_lon": 0.0, "fusion_lat": 0.0, "lon": -77.03264016666667, "name": "9379547c6897da7bfce7056844cbf5ca"}, {"bike_id": "c18ee8830bd80eee12df30ced35216eb", "type": "electric_scooter", "is_disabled": 0, "lat": 38.91415533333333, "rental_uris": {"ios": "https://dc.lft.to/lastmile_qr_scan", "android": "https://dc.lft.to/lastmile_qr_scan"}, "is_reserved": 0, "fusion_lon": 0.0, "fusion_lat": 0.0, "lon": -77.04810733333333, "name": "c18ee8830bd80eee12df30ced35216eb"}, {"bike_id": "2587410b2156063b61c450a986b1fb6b", "type": "electric_scooter", "is_disabled": 0, "lat": 38.910241166666665, "rental_uris": {"ios": "https://dc.lft.to/lastmile_qr_scan", "android": "https://dc.lft.to/lastmile_qr_scan"}, "is_reserved": 0, "fusion_lon": 0.0, "fusion_lat": 0.0, "lon": -77.0075695, "name": "2587410b2156063b61c450a986b1fb6b"}, {"bike_id": "c7702ee244054bb280d9c4c1b64e46c9", "type": "electric_scooter", "is_disabled": 0, "lat": 38.902441, "rental_uris": {"ios": "https://dc.lft.to/lastmile_qr_scan", "android": "https://dc.lft.to/lastmile_qr_scan"}, "is_reserved": 0, "fusion_lon": 0.0, "fusion_lat": 0.0, "lon": -77.0406145, "name": "c7702ee244054bb280d9c4c1b64e46c9"}, {"bike_id": "8747ed7f6f99086b57ea8547d406ce94", "type": "electric_bike", "is_disabled": 0, "lat": 38.91016916666667, "rental_uris": {"ios": "https://dc.lft.to/lastmile_qr_scan", "android": "https://dc.lft.to/lastmile_qr_scan"}, "is_reserved": 0, "fusion_lon": 0.0, "fusion_lat": 0.0, "lon": -77.22796233333334, "name": "8747ed7f6f99086b57ea8547d406ce94"}, {"bike_id": "6b7ddee6318b29fbf5290ce4fe5068d2", "type": "electric_scooter", "is_disabled": 0, "lat": 38.966150166666665, "rental_uris": {"ios": "https://dc.lft.to/lastmile_qr_scan", "android": "https://dc.lft.to/lastmile_qr_scan"}, "is_reserved": 0, "fusion_lon": 0.0, "fusion_lat": 0.0, "lon": -77.01978983333333, "name": "6b7ddee6318b29fbf5290ce4fe5068d2"}, {"bike_id": "92da9160144c1f0ecda3637f35730d11", "type": "electric_scooter", "is_disabled": 0, "lat": 38.917747166666665, "rental_uris": {"ios": "https://dc.lft.to/lastmile_qr_scan", "android": "https://dc.lft.to/lastmile_qr_scan"}, "is_reserved": 0, "fusion_lon": 0.0, "fusion_lat": 0.0, "lon": -77.02316933333333, "name": "92da9160144c1f0ecda3637f35730d11"}, {"bike_id": "4703976bac98fc1ee4113a6681502d53", "type": "electric_scooter", "is_disabled": 0, "lat": 38.86979083333333, "rental_uris": {"ios": "https://dc.lft.to/lastmile_qr_scan", "android": "https://dc.lft.to/lastmile_qr_scan"}, "is_reserved": 0, "fusion_lon": 0.0, "fusion_lat": 0.0, "lon": -76.98171666666667, "name": "4703976bac98fc1ee4113a6681502d53"}, {"bike_id": "cc2699a6b0431b5945902951e9db15ec", "type": "electric_scooter", "is_disabled": 0, "lat": 38.90953366666667, "rental_uris": {"ios": "https://dc.lft.to/lastmile_qr_scan", "android": "https://dc.lft.to/lastmile_qr_scan"}, "is_reserved": 0, "fusion_lon": 0.0, "fusion_lat": 0.0, "lon": -77.02712283333334, "name": "cc2699a6b0431b5945902951e9db15ec"}, {"bike_id": "da1a34cf0e69c0238b8afacd8c0ddbfb", "type": "electric_scooter", "is_disabled": 0, "lat": 38.912662833333336, "rental_uris": {"ios": "https://dc.lft.to/lastmile_qr_scan", "android": "https://dc.lft.to/lastmile_qr_scan"}, "is_reserved": 0, "fusion_lon": 0.0, "fusion_lat": 0.0, "lon": -77.0176365, "name": "da1a34cf0e69c0238b8afacd8c0ddbfb"}, {"bike_id": "6f7dbd3ae71fd06c780c451a331cbf5c", "type": "electric_scooter", "is_disabled": 0, "lat": 38.91821766666666, "rental_uris": {"ios": "https://dc.lft.to/lastmile_qr_scan", "android": "https://dc.lft.to/lastmile_qr_scan"}, "is_reserved": 0, "fusion_lon": 0.0, "fusion_lat": 0.0, "lon": -77.049396, "name": "6f7dbd3ae71fd06c780c451a331cbf5c"}, {"bike_id": "d14f264783eb268ce624df49c93d1842", "type": "electric_scooter", "is_disabled": 0, "lat": 38.93325733333333, "rental_uris": {"ios": "https://dc.lft.to/lastmile_qr_scan", "android": "https://dc.lft.to/lastmile_qr_scan"}, "is_reserved": 0, "fusion_lon": 0.0, "fusion_lat": 0.0, "lon": -77.020599, "name": "d14f264783eb268ce624df49c93d1842"}, {"bike_id": "eec6ffabb849e219071f9a0184ad39cb", "type": "electric_scooter", "is_disabled": 0, "lat": 38.909635, "rental_uris": {"ios": "https://dc.lft.to/lastmile_qr_scan", "android": "https://dc.lft.to/lastmile_qr_scan"}, "is_reserved": 0, "fusion_lon": 0.0, "fusion_lat": 0.0, "lon": -77.04659283333334, "name": "eec6ffabb849e219071f9a0184ad39cb"}, {"bike_id": "ff3f028baabfa67ff713ec7feffe0e35", "type": "electric_scooter", "is_disabled": 0, "lat": 38.9444175, "rental_uris": {"ios": "https://dc.lft.to/lastmile_qr_scan", "android": "https://dc.lft.to/lastmile_qr_scan"}, "is_reserved": 0, "fusion_lon": 0.0, "fusion_lat": 0.0, "lon": -77.014511, "name": "ff3f028baabfa67ff713ec7feffe0e35"}, {"bike_id": "8af18fd40c8d8ddcca5ad214ef6a7062", "type": "electric_scooter", "is_disabled": 0, "lat": 38.901566, "rental_uris": {"ios": "https://dc.lft.to/lastmile_qr_scan", "android": "https://dc.lft.to/lastmile_qr_scan"}, "is_reserved": 0, "fusion_lon": 0.0, "fusion_lat": 0.0, "lon": -76.9807635, "name": "8af18fd40c8d8ddcca5ad214ef6a7062"}, {"bike_id": "d4dc897e42dbbd3ad290991547ceb24c", "type": "electric_bike", "is_disabled": 0, "lat": 39.052833166666666, "rental_uris": {"ios": "https://dc.lft.to/lastmile_qr_scan", "android": "https://dc.lft.to/lastmile_qr_scan"}, "is_reserved": 0, "fusion_lon": 0.0, "fusion_lat": 0.0, "lon": -77.08074666666667, "name": "d4dc897e42dbbd3ad290991547ceb24c"}, {"bike_id": "9ec3dce0f48735a0826eb52e5c875348", "type": "electric_scooter", "is_disabled": 0, "lat": 38.930964, "rental_uris": {"ios": "https://dc.lft.to/lastmile_qr_scan", "android": "https://dc.lft.to/lastmile_qr_scan"}, "is_reserved": 0, "fusion_lon": 0.0, "fusion_lat": 0.0, "lon": -77.02479166666667, "name": "9ec3dce0f48735a0826eb52e5c875348"}, {"bike_id": "e63831a62ef10e189562c683005617d9", "type": "electric_scooter", "is_disabled": 0, "lat": 38.93480266666667, "rental_uris": {"ios": "https://dc.lft.to/lastmile_qr_scan", "android": "https://dc.lft.to/lastmile_qr_scan"}, "is_reserved": 0, "fusion_lon": 0.0, "fusion_lat": 0.0, "lon": -77.03580716666667, "name": "e63831a62ef10e189562c683005617d9"}, {"bike_id": "8be6fa7fef675df659b5b9f97b8cde9e", "type": "electric_scooter", "is_disabled": 0, "lat": 38.93138916666667, "rental_uris": {"ios": "https://dc.lft.to/lastmile_qr_scan", "android": "https://dc.lft.to/lastmile_qr_scan"}, "is_reserved": 0, "fusion_lon": 0.0, "fusion_lat": 0.0, "lon": -76.99581133333334, "name": "8be6fa7fef675df659b5b9f97b8cde9e"}, {"bike_id": "9b202a817e1820c526b502d8bc110fd7", "type": "electric_scooter", "is_disabled": 0, "lat": 38.866985166666666, "rental_uris": {"ios": "https://dc.lft.to/lastmile_qr_scan", "android": "https://dc.lft.to/lastmile_qr_scan"}, "is_reserved": 0, "fusion_lon": 0.0, "fusion_lat": 0.0, "lon": -76.987107, "name": "9b202a817e1820c526b502d8bc110fd7"}, {"bike_id": "d079be7ef19175db7d72a97449b18b24", "type": "electric_scooter", "is_disabled": 0, "lat": 38.88134216666667, "rental_uris": {"ios": "https://dc.lft.to/lastmile_qr_scan", "android": "https://dc.lft.to/lastmile_qr_scan"}, "is_reserved": 0, "fusion_lon": 0.0, "fusion_lat": 0.0, "lon": -76.983504, "name": "d079be7ef19175db7d72a97449b18b24"}, {"bike_id": "e7fc2d2a231d8002248f5a5fd94c9893", "type": "electric_scooter", "is_disabled": 0, "lat": 38.907094, "rental_uris": {"ios": "https://dc.lft.to/lastmile_qr_scan", "android": "https://dc.lft.to/lastmile_qr_scan"}, "is_reserved": 0, "fusion_lon": 0.0, "fusion_lat": 0.0, "lon": -77.02385016666666, "name": "e7fc2d2a231d8002248f5a5fd94c9893"}, {"bike_id": "40a62e6c449f3a996eab5262188d8b90", "type": "electric_scooter", "is_disabled": 0, "lat": 38.91707233333333, "rental_uris": {"ios": "https://dc.lft.to/lastmile_qr_scan", "android": "https://dc.lft.to/lastmile_qr_scan"}, "is_reserved": 0, "fusion_lon": 0.0, "fusion_lat": 0.0, "lon": -77.006592, "name": "40a62e6c449f3a996eab5262188d8b90"}, {"bike_id": "cc1c100208928b23f3d53056334168b3", "type": "electric_scooter", "is_disabled": 0, "lat": 38.947570166666665, "rental_uris": {"ios": "https://dc.lft.to/lastmile_qr_scan", "android": "https://dc.lft.to/lastmile_qr_scan"}, "is_reserved": 0, "fusion_lon": 0.0, "fusion_lat": 0.0, "lon": -77.07590483333334, "name": "cc1c100208928b23f3d53056334168b3"}, {"bike_id": "c1de4fc0aae0686b274626f57e13c583", "type": "electric_scooter", "is_disabled": 0, "lat": 38.89785666666667, "rental_uris": {"ios": "https://dc.lft.to/lastmile_qr_scan", "android": "https://dc.lft.to/lastmile_qr_scan"}, "is_reserved": 0, "fusion_lon": 0.0, "fusion_lat": 0.0, "lon": -77.05167916666667, "name": "c1de4fc0aae0686b274626f57e13c583"}, {"bike_id": "e85a02f3ced4aa5153fbff8ddb3e38cb", "type": "electric_scooter", "is_disabled": 0, "lat": 38.9195435, "rental_uris": {"ios": "https://dc.lft.to/lastmile_qr_scan", "android": "https://dc.lft.to/lastmile_qr_scan"}, "is_reserved": 0, "fusion_lon": 0.0, "fusion_lat": 0.0, "lon": -77.01432533333333, "name": "e85a02f3ced4aa5153fbff8ddb3e38cb"}, {"bike_id": "ac87697928a3e55d8b35eac2a0db7ea0", "type": "electric_scooter", "is_disabled": 0, "lat": 38.9012975, "rental_uris": {"ios": "https://dc.lft.to/lastmile_qr_scan", "android": "https://dc.lft.to/lastmile_qr_scan"}, "is_reserved": 0, "fusion_lon": 0.0, "fusion_lat": 0.0, "lon": -76.990729, "name": "ac87697928a3e55d8b35eac2a0db7ea0"}, {"bike_id": "7f97117bd49e7eb94d9243549bc30472", "type": "electric_scooter", "is_disabled": 0, "lat": 38.917093, "rental_uris": {"ios": "https://dc.lft.to/lastmile_qr_scan", "android": "https://dc.lft.to/lastmile_qr_scan"}, "is_reserved": 0, "fusion_lon": 0.0, "fusion_lat": 0.0, "lon": -77.0289335, "name": "7f97117bd49e7eb94d9243549bc30472"}, {"bike_id": "4e7a66ddfaaf401151c720d5c0465330", "type": "electric_scooter", "is_disabled": 0, "lat": 38.920469, "rental_uris": {"ios": "https://dc.lft.to/lastmile_qr_scan", "android": "https://dc.lft.to/lastmile_qr_scan"}, "is_reserved": 0, "fusion_lon": 0.0, "fusion_lat": 0.0, "lon": -77.02375116666667, "name": "4e7a66ddfaaf401151c720d5c0465330"}, {"bike_id": "edfdd6427c31d12f40de88182f8e77f1", "type": "electric_bike", "is_disabled": 0, "lat": 39.014797, "rental_uris": {"ios": "https://dc.lft.to/lastmile_qr_scan", "android": "https://dc.lft.to/lastmile_qr_scan"}, "is_reserved": 0, "fusion_lon": 0.0, "fusion_lat": 0.0, "lon": -77.05494333333333, "name": "edfdd6427c31d12f40de88182f8e77f1"}, {"bike_id": "bf31b2b3034289b1b1af57cfb619ff34", "type": "electric_scooter", "is_disabled": 0, "lat": 38.90777583333333, "rental_uris": {"ios": "https://dc.lft.to/lastmile_qr_scan", "android": "https://dc.lft.to/lastmile_qr_scan"}, "is_reserved": 0, "fusion_lon": 0.0, "fusion_lat": 0.0, "lon": -77.02715083333334, "name": "bf31b2b3034289b1b1af57cfb619ff34"}, {"bike_id": "b7e4ef8c86d8bda346e9b019b185315a", "type": "electric_scooter", "is_disabled": 0, "lat": 38.91595816666667, "rental_uris": {"ios": "https://dc.lft.to/lastmile_qr_scan", "android": "https://dc.lft.to/lastmile_qr_scan"}, "is_reserved": 0, "fusion_lon": 0.0, "fusion_lat": 0.0, "lon": -77.00192866666667, "name": "b7e4ef8c86d8bda346e9b019b185315a"}, {"bike_id": "0f82a17d97c9cf43a03aceec8dfaffbc", "type": "electric_scooter", "is_disabled": 0, "lat": 38.9651225, "rental_uris": {"ios": "https://dc.lft.to/lastmile_qr_scan", "android": "https://dc.lft.to/lastmile_qr_scan"}, "is_reserved": 0, "fusion_lon": 0.0, "fusion_lat": 0.0, "lon": -77.00208833333333, "name": "0f82a17d97c9cf43a03aceec8dfaffbc"}, {"bike_id": "e1be38c12ce0bdfab2ec71ff61c22618", "type": "electric_scooter", "is_disabled": 0, "lat": 38.909467, "rental_uris": {"ios": "https://dc.lft.to/lastmile_qr_scan", "android": "https://dc.lft.to/lastmile_qr_scan"}, "is_reserved": 0, "fusion_lon": 0.0, "fusion_lat": 0.0, "lon": -77.05564266666667, "name": "e1be38c12ce0bdfab2ec71ff61c22618"}, {"bike_id": "0fa3cdb6b20d47ba7d750d26989463f2", "type": "electric_scooter", "is_disabled": 0, "lat": 38.911069499999996, "rental_uris": {"ios": "https://dc.lft.to/lastmile_qr_scan", "android": "https://dc.lft.to/lastmile_qr_scan"}, "is_reserved": 0, "fusion_lon": 0.0, "fusion_lat": 0.0, "lon": -77.01145933333333, "name": "0fa3cdb6b20d47ba7d750d26989463f2"}, {"bike_id": "7932ce1d0875d62a91c85b35361c488a", "type": "electric_scooter", "is_disabled": 0, "lat": 38.844271, "rental_uris": {"ios": "https://dc.lft.to/lastmile_qr_scan", "android": "https://dc.lft.to/lastmile_qr_scan"}, "is_reserved": 0, "fusion_lon": 0.0, "fusion_lat": 0.0, "lon": -76.998628, "name": "7932ce1d0875d62a91c85b35361c488a"}, {"bike_id": "c6e084dd630729a60a930cfc4c47725a", "type": "electric_scooter", "is_disabled": 0, "lat": 38.907114166666666, "rental_uris": {"ios": "https://dc.lft.to/lastmile_qr_scan", "android": "https://dc.lft.to/lastmile_qr_scan"}, "is_reserved": 0, "fusion_lon": 0.0, "fusion_lat": 0.0, "lon": -77.04159, "name": "c6e084dd630729a60a930cfc4c47725a"}, {"bike_id": "c18146fd4dc08f4d7badb14432d3ae1f", "type": "electric_scooter", "is_disabled": 0, "lat": 38.908298, "rental_uris": {"ios": "https://dc.lft.to/lastmile_qr_scan", "android": "https://dc.lft.to/lastmile_qr_scan"}, "is_reserved": 0, "fusion_lon": 0.0, "fusion_lat": 0.0, "lon": -77.019762, "name": "c18146fd4dc08f4d7badb14432d3ae1f"}, {"bike_id": "55a2eaf3ca9b6021d04006cc1adc8080", "type": "electric_scooter", "is_disabled": 0, "lat": 38.934042, "rental_uris": {"ios": "https://dc.lft.to/lastmile_qr_scan", "android": "https://dc.lft.to/lastmile_qr_scan"}, "is_reserved": 0, "fusion_lon": 0.0, "fusion_lat": 0.0, "lon": -77.03521666666667, "name": "55a2eaf3ca9b6021d04006cc1adc8080"}, {"bike_id": "4f67c00baf4733835547527b1fb83fe1", "type": "electric_scooter", "is_disabled": 0, "lat": 38.91723833333333, "rental_uris": {"ios": "https://dc.lft.to/lastmile_qr_scan", "android": "https://dc.lft.to/lastmile_qr_scan"}, "is_reserved": 0, "fusion_lon": 0.0, "fusion_lat": 0.0, "lon": -77.036589, "name": "4f67c00baf4733835547527b1fb83fe1"}, {"bike_id": "8247cb4c340e793f7dbb57d86089d87f", "type": "electric_scooter", "is_disabled": 0, "lat": 38.9384735, "rental_uris": {"ios": "https://dc.lft.to/lastmile_qr_scan", "android": "https://dc.lft.to/lastmile_qr_scan"}, "is_reserved": 0, "fusion_lon": 0.0, "fusion_lat": 0.0, "lon": -77.07227933333333, "name": "8247cb4c340e793f7dbb57d86089d87f"}, {"bike_id": "11ba40c57d2c06d9e1203e6f53cc05ec", "type": "electric_scooter", "is_disabled": 0, "lat": 38.9098805, "rental_uris": {"ios": "https://dc.lft.to/lastmile_qr_scan", "android": "https://dc.lft.to/lastmile_qr_scan"}, "is_reserved": 0, "fusion_lon": 0.0, "fusion_lat": 0.0, "lon": -77.015087, "name": "11ba40c57d2c06d9e1203e6f53cc05ec"}, {"bike_id": "3e24440a064650ebdb3d226ebba2ee2e", "type": "electric_scooter", "is_disabled": 0, "lat": 38.924879, "rental_uris": {"ios": "https://dc.lft.to/lastmile_qr_scan", "android": "https://dc.lft.to/lastmile_qr_scan"}, "is_reserved": 0, "fusion_lon": 0.0, "fusion_lat": 0.0, "lon": -77.052132, "name": "3e24440a064650ebdb3d226ebba2ee2e"}, {"bike_id": "23abf479623f7d74b64a2c059e91d7d2", "type": "electric_scooter", "is_disabled": 0, "lat": 38.927888, "rental_uris": {"ios": "https://dc.lft.to/lastmile_qr_scan", "android": "https://dc.lft.to/lastmile_qr_scan"}, "is_reserved": 0, "fusion_lon": 0.0, "fusion_lat": 0.0, "lon": -77.014089, "name": "23abf479623f7d74b64a2c059e91d7d2"}, {"bike_id": "0eaa5a077856385c28898aa10f628e24", "type": "electric_scooter", "is_disabled": 0, "lat": 38.8922055, "rental_uris": {"ios": "https://dc.lft.to/lastmile_qr_scan", "android": "https://dc.lft.to/lastmile_qr_scan"}, "is_reserved": 0, "fusion_lon": 0.0, "fusion_lat": 0.0, "lon": -77.03976616666667, "name": "0eaa5a077856385c28898aa10f628e24"}, {"bike_id": "35d1f6c3a5caec0510ce106cf25443be", "type": "electric_scooter", "is_disabled": 0, "lat": 38.91705133333333, "rental_uris": {"ios": "https://dc.lft.to/lastmile_qr_scan", "android": "https://dc.lft.to/lastmile_qr_scan"}, "is_reserved": 0, "fusion_lon": 0.0, "fusion_lat": 0.0, "lon": -77.02378283333333, "name": "35d1f6c3a5caec0510ce106cf25443be"}, {"bike_id": "b928904d77a0184b27b27ff7dbbb8209", "type": "electric_scooter", "is_disabled": 0, "lat": 38.92048966666667, "rental_uris": {"ios": "https://dc.lft.to/lastmile_qr_scan", "android": "https://dc.lft.to/lastmile_qr_scan"}, "is_reserved": 0, "fusion_lon": 0.0, "fusion_lat": 0.0, "lon": -77.0237275, "name": "b928904d77a0184b27b27ff7dbbb8209"}, {"bike_id": "4ee7460ee5d4e7c674691e05c141e69d", "type": "electric_scooter", "is_disabled": 0, "lat": 38.90177416666667, "rental_uris": {"ios": "https://dc.lft.to/lastmile_qr_scan", "android": "https://dc.lft.to/lastmile_qr_scan"}, "is_reserved": 0, "fusion_lon": 0.0, "fusion_lat": 0.0, "lon": -77.02479116666666, "name": "4ee7460ee5d4e7c674691e05c141e69d"}, {"bike_id": "deb7679e5471c054ebcd99bf04980079", "type": "electric_scooter", "is_disabled": 0, "lat": 38.91685983333333, "rental_uris": {"ios": "https://dc.lft.to/lastmile_qr_scan", "android": "https://dc.lft.to/lastmile_qr_scan"}, "is_reserved": 0, "fusion_lon": 0.0, "fusion_lat": 0.0, "lon": -77.029623, "name": "deb7679e5471c054ebcd99bf04980079"}, {"bike_id": "70bfabc92375911ad9290f026c46dfa7", "type": "electric_scooter", "is_disabled": 0, "lat": 38.918403166666664, "rental_uris": {"ios": "https://dc.lft.to/lastmile_qr_scan", "android": "https://dc.lft.to/lastmile_qr_scan"}, "is_reserved": 0, "fusion_lon": 0.0, "fusion_lat": 0.0, "lon": -77.04517433333334, "name": "70bfabc92375911ad9290f026c46dfa7"}, {"bike_id": "76b1b09a32014018b2048051126c5721", "type": "electric_scooter", "is_disabled": 0, "lat": 38.910732833333334, "rental_uris": {"ios": "https://dc.lft.to/lastmile_qr_scan", "android": "https://dc.lft.to/lastmile_qr_scan"}, "is_reserved": 0, "fusion_lon": 0.0, "fusion_lat": 0.0, "lon": -77.0219095, "name": "76b1b09a32014018b2048051126c5721"}, {"bike_id": "ebeaa986ef9055b9fe54170c4b5f706d", "type": "electric_scooter", "is_disabled": 0, "lat": 38.914436, "rental_uris": {"ios": "https://dc.lft.to/lastmile_qr_scan", "android": "https://dc.lft.to/lastmile_qr_scan"}, "is_reserved": 0, "fusion_lon": 0.0, "fusion_lat": 0.0, "lon": -77.025937, "name": "ebeaa986ef9055b9fe54170c4b5f706d"}, {"bike_id": "aa4a49746672cfa4662456236b742a52", "type": "electric_scooter", "is_disabled": 0, "lat": 38.861816, "rental_uris": {"ios": "https://dc.lft.to/lastmile_qr_scan", "android": "https://dc.lft.to/lastmile_qr_scan"}, "is_reserved": 0, "fusion_lon": 0.0, "fusion_lat": 0.0, "lon": -77.08823033333333, "name": "aa4a49746672cfa4662456236b742a52"}, {"bike_id": "1e3ede531c32153d20a0d62b65c390e9", "type": "electric_scooter", "is_disabled": 0, "lat": 38.937933666666666, "rental_uris": {"ios": "https://dc.lft.to/lastmile_qr_scan", "android": "https://dc.lft.to/lastmile_qr_scan"}, "is_reserved": 0, "fusion_lon": 0.0, "fusion_lat": 0.0, "lon": -77.02447983333333, "name": "1e3ede531c32153d20a0d62b65c390e9"}, {"bike_id": "4d51dcc997fd0cb0af8536aa98999154", "type": "electric_scooter", "is_disabled": 0, "lat": 38.8842495, "rental_uris": {"ios": "https://dc.lft.to/lastmile_qr_scan", "android": "https://dc.lft.to/lastmile_qr_scan"}, "is_reserved": 0, "fusion_lon": 0.0, "fusion_lat": 0.0, "lon": -76.95754616666666, "name": "4d51dcc997fd0cb0af8536aa98999154"}, {"bike_id": "3d7000059b63d9c2120914a2e9d45cbd", "type": "electric_scooter", "is_disabled": 0, "lat": 38.93756283333333, "rental_uris": {"ios": "https://dc.lft.to/lastmile_qr_scan", "android": "https://dc.lft.to/lastmile_qr_scan"}, "is_reserved": 0, "fusion_lon": 0.0, "fusion_lat": 0.0, "lon": -77.02431133333333, "name": "3d7000059b63d9c2120914a2e9d45cbd"}, {"bike_id": "06cddd9e7097746e1b0c291876432cda", "type": "electric_scooter", "is_disabled": 0, "lat": 38.9126805, "rental_uris": {"ios": "https://dc.lft.to/lastmile_qr_scan", "android": "https://dc.lft.to/lastmile_qr_scan"}, "is_reserved": 0, "fusion_lon": 0.0, "fusion_lat": 0.0, "lon": -77.02207316666667, "name": "06cddd9e7097746e1b0c291876432cda"}, {"bike_id": "bf8d71af6bb4cd1022cbe1d8bfb5b51e", "type": "electric_scooter", "is_disabled": 0, "lat": 38.92867416666667, "rental_uris": {"ios": "https://dc.lft.to/lastmile_qr_scan", "android": "https://dc.lft.to/lastmile_qr_scan"}, "is_reserved": 0, "fusion_lon": 0.0, "fusion_lat": 0.0, "lon": -77.03718816666667, "name": "bf8d71af6bb4cd1022cbe1d8bfb5b51e"}, {"bike_id": "f575552e8319b3bf5149fca0dea31774", "type": "electric_scooter", "is_disabled": 0, "lat": 38.9126685, "rental_uris": {"ios": "https://dc.lft.to/lastmile_qr_scan", "android": "https://dc.lft.to/lastmile_qr_scan"}, "is_reserved": 0, "fusion_lon": 0.0, "fusion_lat": 0.0, "lon": -77.02208583333334, "name": "f575552e8319b3bf5149fca0dea31774"}, {"bike_id": "153d0c8e071eae4cd4c9919a0863a3c5", "type": "electric_scooter", "is_disabled": 0, "lat": 38.92192816666667, "rental_uris": {"ios": "https://dc.lft.to/lastmile_qr_scan", "android": "https://dc.lft.to/lastmile_qr_scan"}, "is_reserved": 0, "fusion_lon": 0.0, "fusion_lat": 0.0, "lon": -77.0380065, "name": "153d0c8e071eae4cd4c9919a0863a3c5"}, {"bike_id": "06aaddfba85511f78fcf8dcecfd7a881", "type": "electric_scooter", "is_disabled": 0, "lat": 38.91811, "rental_uris": {"ios": "https://dc.lft.to/lastmile_qr_scan", "android": "https://dc.lft.to/lastmile_qr_scan"}, "is_reserved": 0, "fusion_lon": 0.0, "fusion_lat": 0.0, "lon": -77.00254466666667, "name": "06aaddfba85511f78fcf8dcecfd7a881"}, {"bike_id": "dc97bee7d52d8b1e19f7128ed59ed87b", "type": "electric_scooter", "is_disabled": 0, "lat": 38.91419166666667, "rental_uris": {"ios": "https://dc.lft.to/lastmile_qr_scan", "android": "https://dc.lft.to/lastmile_qr_scan"}, "is_reserved": 0, "fusion_lon": 0.0, "fusion_lat": 0.0, "lon": -77.02303216666667, "name": "dc97bee7d52d8b1e19f7128ed59ed87b"}, {"bike_id": "ca6ddf0f3efc37638ce67c76e186635c", "type": "electric_scooter", "is_disabled": 0, "lat": 38.91986683333333, "rental_uris": {"ios": "https://dc.lft.to/lastmile_qr_scan", "android": "https://dc.lft.to/lastmile_qr_scan"}, "is_reserved": 0, "fusion_lon": 0.0, "fusion_lat": 0.0, "lon": -77.039652, "name": "ca6ddf0f3efc37638ce67c76e186635c"}, {"bike_id": "bacccc4cc4840d8ae248ca78d46530cb", "type": "electric_scooter", "is_disabled": 0, "lat": 38.91774016666667, "rental_uris": {"ios": "https://dc.lft.to/lastmile_qr_scan", "android": "https://dc.lft.to/lastmile_qr_scan"}, "is_reserved": 0, "fusion_lon": 0.0, "fusion_lat": 0.0, "lon": -77.02317766666667, "name": "bacccc4cc4840d8ae248ca78d46530cb"}, {"bike_id": "1c541a675ae8d71d39ffc6d435fda07d", "type": "electric_scooter", "is_disabled": 0, "lat": 38.91768166666667, "rental_uris": {"ios": "https://dc.lft.to/lastmile_qr_scan", "android": "https://dc.lft.to/lastmile_qr_scan"}, "is_reserved": 0, "fusion_lon": 0.0, "fusion_lat": 0.0, "lon": -77.04764, "name": "1c541a675ae8d71d39ffc6d435fda07d"}, {"bike_id": "f925e1b4583257fd69fab21a87749a32", "type": "electric_scooter", "is_disabled": 0, "lat": 38.916805333333336, "rental_uris": {"ios": "https://dc.lft.to/lastmile_qr_scan", "android": "https://dc.lft.to/lastmile_qr_scan"}, "is_reserved": 0, "fusion_lon": 0.0, "fusion_lat": 0.0, "lon": -77.02346416666667, "name": "f925e1b4583257fd69fab21a87749a32"}, {"bike_id": "f70ad2cf347d57987e38b5d2f2873b50", "type": "electric_scooter", "is_disabled": 0, "lat": 38.92473183333333, "rental_uris": {"ios": "https://dc.lft.to/lastmile_qr_scan", "android": "https://dc.lft.to/lastmile_qr_scan"}, "is_reserved": 0, "fusion_lon": 0.0, "fusion_lat": 0.0, "lon": -77.026297, "name": "f70ad2cf347d57987e38b5d2f2873b50"}, {"bike_id": "c067a46e2cef5168adab20887144afce", "type": "electric_scooter", "is_disabled": 0, "lat": 38.9091355, "rental_uris": {"ios": "https://dc.lft.to/lastmile_qr_scan", "android": "https://dc.lft.to/lastmile_qr_scan"}, "is_reserved": 0, "fusion_lon": 0.0, "fusion_lat": 0.0, "lon": -77.00313983333334, "name": "c067a46e2cef5168adab20887144afce"}, {"bike_id": "c8aed659ee0c3feb297a077374fc8439", "type": "electric_scooter", "is_disabled": 0, "lat": 38.913421, "rental_uris": {"ios": "https://dc.lft.to/lastmile_qr_scan", "android": "https://dc.lft.to/lastmile_qr_scan"}, "is_reserved": 0, "fusion_lon": 0.0, "fusion_lat": 0.0, "lon": -77.02584616666667, "name": "c8aed659ee0c3feb297a077374fc8439"}, {"bike_id": "adb2bac92cb36c90073d891f78b799d8", "type": "electric_bike", "is_disabled": 0, "lat": 38.93580433333333, "rental_uris": {"ios": "https://dc.lft.to/lastmile_qr_scan", "android": "https://dc.lft.to/lastmile_qr_scan"}, "is_reserved": 0, "fusion_lon": 0.0, "fusion_lat": 0.0, "lon": -77.02356283333333, "name": "adb2bac92cb36c90073d891f78b799d8"}, {"bike_id": "db34f6355292d6e64194cda968559b04", "type": "electric_scooter", "is_disabled": 0, "lat": 38.897273, "rental_uris": {"ios": "https://dc.lft.to/lastmile_qr_scan", "android": "https://dc.lft.to/lastmile_qr_scan"}, "is_reserved": 0, "fusion_lon": 0.0, "fusion_lat": 0.0, "lon": -77.02496066666667, "name": "db34f6355292d6e64194cda968559b04"}, {"bike_id": "526b116f158457a3a2ddbdb533fc1e27", "type": "electric_scooter", "is_disabled": 0, "lat": 38.90084483333333, "rental_uris": {"ios": "https://dc.lft.to/lastmile_qr_scan", "android": "https://dc.lft.to/lastmile_qr_scan"}, "is_reserved": 0, "fusion_lon": 0.0, "fusion_lat": 0.0, "lon": -77.030922, "name": "526b116f158457a3a2ddbdb533fc1e27"}, {"bike_id": "ba06bce328b3f5d45076f4a3e2dd9ee0", "type": "electric_scooter", "is_disabled": 0, "lat": 38.9155935, "rental_uris": {"ios": "https://dc.lft.to/lastmile_qr_scan", "android": "https://dc.lft.to/lastmile_qr_scan"}, "is_reserved": 0, "fusion_lon": 0.0, "fusion_lat": 0.0, "lon": -77.03121733333333, "name": "ba06bce328b3f5d45076f4a3e2dd9ee0"}, {"bike_id": "5068647890402a3720d0a602855e364f", "type": "electric_scooter", "is_disabled": 0, "lat": 38.920525833333336, "rental_uris": {"ios": "https://dc.lft.to/lastmile_qr_scan", "android": "https://dc.lft.to/lastmile_qr_scan"}, "is_reserved": 0, "fusion_lon": 0.0, "fusion_lat": 0.0, "lon": -77.034077, "name": "5068647890402a3720d0a602855e364f"}, {"bike_id": "766cd558c2fc4aaeb96e1f56fa0deb2c", "type": "electric_scooter", "is_disabled": 0, "lat": 38.90963333333333, "rental_uris": {"ios": "https://dc.lft.to/lastmile_qr_scan", "android": "https://dc.lft.to/lastmile_qr_scan"}, "is_reserved": 0, "fusion_lon": 0.0, "fusion_lat": 0.0, "lon": -77.0454225, "name": "766cd558c2fc4aaeb96e1f56fa0deb2c"}, {"bike_id": "14ad55bc5c45e62e72e96362692de513", "type": "electric_scooter", "is_disabled": 0, "lat": 38.907279333333335, "rental_uris": {"ios": "https://dc.lft.to/lastmile_qr_scan", "android": "https://dc.lft.to/lastmile_qr_scan"}, "is_reserved": 0, "fusion_lon": 0.0, "fusion_lat": 0.0, "lon": -77.0434005, "name": "14ad55bc5c45e62e72e96362692de513"}, {"bike_id": "7b09cebc5b8912d4209df4b15b9d79c7", "type": "electric_scooter", "is_disabled": 0, "lat": 38.92374066666667, "rental_uris": {"ios": "https://dc.lft.to/lastmile_qr_scan", "android": "https://dc.lft.to/lastmile_qr_scan"}, "is_reserved": 0, "fusion_lon": 0.0, "fusion_lat": 0.0, "lon": -77.05027583333333, "name": "7b09cebc5b8912d4209df4b15b9d79c7"}, {"bike_id": "a3d150cd1ac333428367c30aec7a4096", "type": "electric_scooter", "is_disabled": 0, "lat": 38.911472333333336, "rental_uris": {"ios": "https://dc.lft.to/lastmile_qr_scan", "android": "https://dc.lft.to/lastmile_qr_scan"}, "is_reserved": 0, "fusion_lon": 0.0, "fusion_lat": 0.0, "lon": -77.02949616666666, "name": "a3d150cd1ac333428367c30aec7a4096"}, {"bike_id": "a1c36deadfce55284a3a75f41f2519e6", "type": "electric_scooter", "is_disabled": 0, "lat": 38.898342666666665, "rental_uris": {"ios": "https://dc.lft.to/lastmile_qr_scan", "android": "https://dc.lft.to/lastmile_qr_scan"}, "is_reserved": 0, "fusion_lon": 0.0, "fusion_lat": 0.0, "lon": -77.02223683333334, "name": "a1c36deadfce55284a3a75f41f2519e6"}, {"bike_id": "f9f868f26e1de064f2c89a0684792730", "type": "electric_bike", "is_disabled": 0, "lat": 38.83159033333333, "rental_uris": {"ios": "https://dc.lft.to/lastmile_qr_scan", "android": "https://dc.lft.to/lastmile_qr_scan"}, "is_reserved": 0, "fusion_lon": 0.0, "fusion_lat": 0.0, "lon": -76.99544883333333, "name": "f9f868f26e1de064f2c89a0684792730"}, {"bike_id": "d1a0479565a7019e70caf6ceaa730cc7", "type": "electric_scooter", "is_disabled": 0, "lat": 38.902406166666665, "rental_uris": {"ios": "https://dc.lft.to/lastmile_qr_scan", "android": "https://dc.lft.to/lastmile_qr_scan"}, "is_reserved": 0, "fusion_lon": 0.0, "fusion_lat": 0.0, "lon": -77.01828566666667, "name": "d1a0479565a7019e70caf6ceaa730cc7"}, {"bike_id": "1d916c6343267d1107a6b530eea4f896", "type": "electric_scooter", "is_disabled": 0, "lat": 38.911523, "rental_uris": {"ios": "https://dc.lft.to/lastmile_qr_scan", "android": "https://dc.lft.to/lastmile_qr_scan"}, "is_reserved": 0, "fusion_lon": 0.0, "fusion_lat": 0.0, "lon": -77.0295605, "name": "1d916c6343267d1107a6b530eea4f896"}, {"bike_id": "819f13141ae7cae898a6a47db0d46220", "type": "electric_scooter", "is_disabled": 0, "lat": 38.9113515, "rental_uris": {"ios": "https://dc.lft.to/lastmile_qr_scan", "android": "https://dc.lft.to/lastmile_qr_scan"}, "is_reserved": 0, "fusion_lon": 0.0, "fusion_lat": 0.0, "lon": -77.02187183333334, "name": "819f13141ae7cae898a6a47db0d46220"}, {"bike_id": "ed900da003ca900312e16599226f06de", "type": "electric_scooter", "is_disabled": 0, "lat": 38.90954833333333, "rental_uris": {"ios": "https://dc.lft.to/lastmile_qr_scan", "android": "https://dc.lft.to/lastmile_qr_scan"}, "is_reserved": 0, "fusion_lon": 0.0, "fusion_lat": 0.0, "lon": -77.03346066666667, "name": "ed900da003ca900312e16599226f06de"}, {"bike_id": "3404bf1404f7604b91aa2a16351e2bb0", "type": "electric_scooter", "is_disabled": 0, "lat": 38.922189833333334, "rental_uris": {"ios": "https://dc.lft.to/lastmile_qr_scan", "android": "https://dc.lft.to/lastmile_qr_scan"}, "is_reserved": 0, "fusion_lon": 0.0, "fusion_lat": 0.0, "lon": -77.02216683333333, "name": "3404bf1404f7604b91aa2a16351e2bb0"}, {"bike_id": "db36ba64d7d30ac5e89cab1155817863", "type": "electric_scooter", "is_disabled": 0, "lat": 38.91231233333333, "rental_uris": {"ios": "https://dc.lft.to/lastmile_qr_scan", "android": "https://dc.lft.to/lastmile_qr_scan"}, "is_reserved": 0, "fusion_lon": 0.0, "fusion_lat": 0.0, "lon": -77.03208416666666, "name": "db36ba64d7d30ac5e89cab1155817863"}, {"bike_id": "f42cdedc7cc790140184e57df7f23e04", "type": "electric_scooter", "is_disabled": 0, "lat": 38.92643, "rental_uris": {"ios": "https://dc.lft.to/lastmile_qr_scan", "android": "https://dc.lft.to/lastmile_qr_scan"}, "is_reserved": 0, "fusion_lon": 0.0, "fusion_lat": 0.0, "lon": -77.01338116666666, "name": "f42cdedc7cc790140184e57df7f23e04"}, {"bike_id": "1a8e1f0838780d22fe9a5d67a8374bf2", "type": "electric_scooter", "is_disabled": 0, "lat": 38.92688316666667, "rental_uris": {"ios": "https://dc.lft.to/lastmile_qr_scan", "android": "https://dc.lft.to/lastmile_qr_scan"}, "is_reserved": 0, "fusion_lon": 0.0, "fusion_lat": 0.0, "lon": -77.07343083333333, "name": "1a8e1f0838780d22fe9a5d67a8374bf2"}, {"bike_id": "0bbe53740b6597fa822d4e848afd453a", "type": "electric_scooter", "is_disabled": 0, "lat": 38.90275716666667, "rental_uris": {"ios": "https://dc.lft.to/lastmile_qr_scan", "android": "https://dc.lft.to/lastmile_qr_scan"}, "is_reserved": 0, "fusion_lon": 0.0, "fusion_lat": 0.0, "lon": -77.04342433333333, "name": "0bbe53740b6597fa822d4e848afd453a"}, {"bike_id": "be04f4b04271f4543398bbdabd65dc73", "type": "electric_scooter", "is_disabled": 0, "lat": 38.88539216666667, "rental_uris": {"ios": "https://dc.lft.to/lastmile_qr_scan", "android": "https://dc.lft.to/lastmile_qr_scan"}, "is_reserved": 0, "fusion_lon": 0.0, "fusion_lat": 0.0, "lon": -76.99830666666666, "name": "be04f4b04271f4543398bbdabd65dc73"}, {"bike_id": "3a36ab18d7efa1dc09b5bbd108da6395", "type": "electric_scooter", "is_disabled": 0, "lat": 38.892388, "rental_uris": {"ios": "https://dc.lft.to/lastmile_qr_scan", "android": "https://dc.lft.to/lastmile_qr_scan"}, "is_reserved": 0, "fusion_lon": 0.0, "fusion_lat": 0.0, "lon": -76.95330316666667, "name": "3a36ab18d7efa1dc09b5bbd108da6395"}, {"bike_id": "cc5149b3ebf85d68d4a577da595b6d79", "type": "electric_scooter", "is_disabled": 0, "lat": 38.93382833333333, "rental_uris": {"ios": "https://dc.lft.to/lastmile_qr_scan", "android": "https://dc.lft.to/lastmile_qr_scan"}, "is_reserved": 0, "fusion_lon": 0.0, "fusion_lat": 0.0, "lon": -77.0572775, "name": "cc5149b3ebf85d68d4a577da595b6d79"}, {"bike_id": "c17f4a5536fa23ce12b53fd1c9a17070", "type": "electric_bike", "is_disabled": 0, "lat": 38.809049, "rental_uris": {"ios": "https://dc.lft.to/lastmile_qr_scan", "android": "https://dc.lft.to/lastmile_qr_scan"}, "is_reserved": 0, "fusion_lon": 0.0, "fusion_lat": 0.0, "lon": -77.08656616666667, "name": "c17f4a5536fa23ce12b53fd1c9a17070"}, {"bike_id": "cae8880976d57d8c65708e540ab7975a", "type": "electric_scooter", "is_disabled": 0, "lat": 38.904863166666665, "rental_uris": {"ios": "https://dc.lft.to/lastmile_qr_scan", "android": "https://dc.lft.to/lastmile_qr_scan"}, "is_reserved": 0, "fusion_lon": 0.0, "fusion_lat": 0.0, "lon": -77.05362916666667, "name": "cae8880976d57d8c65708e540ab7975a"}, {"bike_id": "9543434bd177aa28c4f2067972cecd4a", "type": "electric_bike", "is_disabled": 0, "lat": 38.9540975, "rental_uris": {"ios": "https://dc.lft.to/lastmile_qr_scan", "android": "https://dc.lft.to/lastmile_qr_scan"}, "is_reserved": 0, "fusion_lon": 0.0, "fusion_lat": 0.0, "lon": -76.98049483333334, "name": "9543434bd177aa28c4f2067972cecd4a"}, {"bike_id": "e632fb1642822bca2664606a9ae5e594", "type": "electric_scooter", "is_disabled": 0, "lat": 38.89605016666667, "rental_uris": {"ios": "https://dc.lft.to/lastmile_qr_scan", "android": "https://dc.lft.to/lastmile_qr_scan"}, "is_reserved": 0, "fusion_lon": 0.0, "fusion_lat": 0.0, "lon": -77.00328466666667, "name": "e632fb1642822bca2664606a9ae5e594"}, {"bike_id": "3f73a19072a061b436b84ba04f227c4f", "type": "electric_scooter", "is_disabled": 0, "lat": 38.916867, "rental_uris": {"ios": "https://dc.lft.to/lastmile_qr_scan", "android": "https://dc.lft.to/lastmile_qr_scan"}, "is_reserved": 0, "fusion_lon": 0.0, "fusion_lat": 0.0, "lon": -77.02870633333333, "name": "3f73a19072a061b436b84ba04f227c4f"}, {"bike_id": "ab39948bb7610cb9bb03ab87c2d02982", "type": "electric_scooter", "is_disabled": 0, "lat": 38.91877516666667, "rental_uris": {"ios": "https://dc.lft.to/lastmile_qr_scan", "android": "https://dc.lft.to/lastmile_qr_scan"}, "is_reserved": 0, "fusion_lon": 0.0, "fusion_lat": 0.0, "lon": -77.03506, "name": "ab39948bb7610cb9bb03ab87c2d02982"}, {"bike_id": "0782a6443e0b8a0418ac1b36ceeec5c4", "type": "electric_scooter", "is_disabled": 0, "lat": 38.899078833333334, "rental_uris": {"ios": "https://dc.lft.to/lastmile_qr_scan", "android": "https://dc.lft.to/lastmile_qr_scan"}, "is_reserved": 0, "fusion_lon": 0.0, "fusion_lat": 0.0, "lon": -76.97697483333333, "name": "0782a6443e0b8a0418ac1b36ceeec5c4"}, {"bike_id": "cac86fe1b0c056b91d66d9f0a2373a93", "type": "electric_scooter", "is_disabled": 0, "lat": 38.918688, "rental_uris": {"ios": "https://dc.lft.to/lastmile_qr_scan", "android": "https://dc.lft.to/lastmile_qr_scan"}, "is_reserved": 0, "fusion_lon": 0.0, "fusion_lat": 0.0, "lon": -77.012051, "name": "cac86fe1b0c056b91d66d9f0a2373a93"}, {"bike_id": "a13df9554c99635c9fac4e869e58f7c8", "type": "electric_scooter", "is_disabled": 0, "lat": 38.956487833333334, "rental_uris": {"ios": "https://dc.lft.to/lastmile_qr_scan", "android": "https://dc.lft.to/lastmile_qr_scan"}, "is_reserved": 0, "fusion_lon": 0.0, "fusion_lat": 0.0, "lon": -77.02399433333333, "name": "a13df9554c99635c9fac4e869e58f7c8"}, {"bike_id": "2fab3d32af20cb349824e9e15c2ea9de", "type": "electric_scooter", "is_disabled": 0, "lat": 38.9064105, "rental_uris": {"ios": "https://dc.lft.to/lastmile_qr_scan", "android": "https://dc.lft.to/lastmile_qr_scan"}, "is_reserved": 0, "fusion_lon": 0.0, "fusion_lat": 0.0, "lon": -77.02501833333334, "name": "2fab3d32af20cb349824e9e15c2ea9de"}, {"bike_id": "616886dd80d6a5ec155bb2ad07560e2b", "type": "electric_scooter", "is_disabled": 0, "lat": 38.93901016666667, "rental_uris": {"ios": "https://dc.lft.to/lastmile_qr_scan", "android": "https://dc.lft.to/lastmile_qr_scan"}, "is_reserved": 0, "fusion_lon": 0.0, "fusion_lat": 0.0, "lon": -77.01675433333334, "name": "616886dd80d6a5ec155bb2ad07560e2b"}, {"bike_id": "4a6e23aafb40a0ae9dc7b2eab81aba2a", "type": "electric_scooter", "is_disabled": 0, "lat": 38.925423333333335, "rental_uris": {"ios": "https://dc.lft.to/lastmile_qr_scan", "android": "https://dc.lft.to/lastmile_qr_scan"}, "is_reserved": 0, "fusion_lon": 0.0, "fusion_lat": 0.0, "lon": -77.041272, "name": "4a6e23aafb40a0ae9dc7b2eab81aba2a"}, {"bike_id": "2040196c337c7cabbc0319b97ace19c0", "type": "electric_scooter", "is_disabled": 0, "lat": 38.91464283333333, "rental_uris": {"ios": "https://dc.lft.to/lastmile_qr_scan", "android": "https://dc.lft.to/lastmile_qr_scan"}, "is_reserved": 0, "fusion_lon": 0.0, "fusion_lat": 0.0, "lon": -77.07103366666666, "name": "2040196c337c7cabbc0319b97ace19c0"}, {"bike_id": "ac6f90f2e0720c5bcaa25067e5444482", "type": "electric_bike", "is_disabled": 0, "lat": 38.84349983333333, "rental_uris": {"ios": "https://dc.lft.to/lastmile_qr_scan", "android": "https://dc.lft.to/lastmile_qr_scan"}, "is_reserved": 0, "fusion_lon": 0.0, "fusion_lat": 0.0, "lon": -76.999465, "name": "ac6f90f2e0720c5bcaa25067e5444482"}, {"bike_id": "aab602315831545ada7f3dec0c2ac1a8", "type": "electric_scooter", "is_disabled": 0, "lat": 38.921996, "rental_uris": {"ios": "https://dc.lft.to/lastmile_qr_scan", "android": "https://dc.lft.to/lastmile_qr_scan"}, "is_reserved": 0, "fusion_lon": 0.0, "fusion_lat": 0.0, "lon": -77.020227, "name": "aab602315831545ada7f3dec0c2ac1a8"}, {"bike_id": "5826eff0ea0d60738b127043fc77f348", "type": "electric_scooter", "is_disabled": 0, "lat": 38.9056515, "rental_uris": {"ios": "https://dc.lft.to/lastmile_qr_scan", "android": "https://dc.lft.to/lastmile_qr_scan"}, "is_reserved": 0, "fusion_lon": 0.0, "fusion_lat": 0.0, "lon": -77.02495766666667, "name": "5826eff0ea0d60738b127043fc77f348"}, {"bike_id": "72029cb4ddf5ee5c3612cd1bfd7cf8b0", "type": "electric_scooter", "is_disabled": 0, "lat": 38.916573166666666, "rental_uris": {"ios": "https://dc.lft.to/lastmile_qr_scan", "android": "https://dc.lft.to/lastmile_qr_scan"}, "is_reserved": 0, "fusion_lon": 0.0, "fusion_lat": 0.0, "lon": -77.024161, "name": "72029cb4ddf5ee5c3612cd1bfd7cf8b0"}, {"bike_id": "61a06df14c944785c54115c1141ea00b", "type": "electric_scooter", "is_disabled": 0, "lat": 38.907884, "rental_uris": {"ios": "https://dc.lft.to/lastmile_qr_scan", "android": "https://dc.lft.to/lastmile_qr_scan"}, "is_reserved": 0, "fusion_lon": 0.0, "fusion_lat": 0.0, "lon": -77.01862816666667, "name": "61a06df14c944785c54115c1141ea00b"}, {"bike_id": "240d1e738dd2a71ace02c7a5c4f8837c", "type": "electric_bike", "is_disabled": 0, "lat": 38.89837716666667, "rental_uris": {"ios": "https://dc.lft.to/lastmile_qr_scan", "android": "https://dc.lft.to/lastmile_qr_scan"}, "is_reserved": 0, "fusion_lon": 0.0, "fusion_lat": 0.0, "lon": -77.02939866666667, "name": "240d1e738dd2a71ace02c7a5c4f8837c"}, {"bike_id": "191ab21e7f7dcf3339dc5a6a5b4f82f4", "type": "electric_scooter", "is_disabled": 0, "lat": 38.85699, "rental_uris": {"ios": "https://dc.lft.to/lastmile_qr_scan", "android": "https://dc.lft.to/lastmile_qr_scan"}, "is_reserved": 0, "fusion_lon": 0.0, "fusion_lat": 0.0, "lon": -76.989637, "name": "191ab21e7f7dcf3339dc5a6a5b4f82f4"}, {"bike_id": "b7d73f5b858ca082f1d1e52eb98c64f6", "type": "electric_scooter", "is_disabled": 0, "lat": 38.907574833333335, "rental_uris": {"ios": "https://dc.lft.to/lastmile_qr_scan", "android": "https://dc.lft.to/lastmile_qr_scan"}, "is_reserved": 0, "fusion_lon": 0.0, "fusion_lat": 0.0, "lon": -77.04334883333334, "name": "b7d73f5b858ca082f1d1e52eb98c64f6"}, {"bike_id": "5ecc24a009f3d96e17dc76863d5fbffb", "type": "electric_bike", "is_disabled": 0, "lat": 39.05795833333333, "rental_uris": {"ios": "https://dc.lft.to/lastmile_qr_scan", "android": "https://dc.lft.to/lastmile_qr_scan"}, "is_reserved": 0, "fusion_lon": 0.0, "fusion_lat": 0.0, "lon": -77.15024316666667, "name": "5ecc24a009f3d96e17dc76863d5fbffb"}, {"bike_id": "4bf1973361cb33317348891c4dfd2ec3", "type": "electric_scooter", "is_disabled": 0, "lat": 38.871178666666665, "rental_uris": {"ios": "https://dc.lft.to/lastmile_qr_scan", "android": "https://dc.lft.to/lastmile_qr_scan"}, "is_reserved": 0, "fusion_lon": 0.0, "fusion_lat": 0.0, "lon": -76.98240933333334, "name": "4bf1973361cb33317348891c4dfd2ec3"}, {"bike_id": "c000ce60b02789f7f9de2d7239993f81", "type": "electric_scooter", "is_disabled": 0, "lat": 38.90064733333333, "rental_uris": {"ios": "https://dc.lft.to/lastmile_qr_scan", "android": "https://dc.lft.to/lastmile_qr_scan"}, "is_reserved": 0, "fusion_lon": 0.0, "fusion_lat": 0.0, "lon": -76.93476666666666, "name": "c000ce60b02789f7f9de2d7239993f81"}, {"bike_id": "32ec81f40bc75ac401d388eb464f9ebd", "type": "electric_scooter", "is_disabled": 0, "lat": 38.90427733333333, "rental_uris": {"ios": "https://dc.lft.to/lastmile_qr_scan", "android": "https://dc.lft.to/lastmile_qr_scan"}, "is_reserved": 0, "fusion_lon": 0.0, "fusion_lat": 0.0, "lon": -77.04859933333333, "name": "32ec81f40bc75ac401d388eb464f9ebd"}, {"bike_id": "1cb94a96a7f90a883f832176d9f7ba0b", "type": "electric_scooter", "is_disabled": 0, "lat": 38.90581533333334, "rental_uris": {"ios": "https://dc.lft.to/lastmile_qr_scan", "android": "https://dc.lft.to/lastmile_qr_scan"}, "is_reserved": 0, "fusion_lon": 0.0, "fusion_lat": 0.0, "lon": -77.00558366666667, "name": "1cb94a96a7f90a883f832176d9f7ba0b"}, {"bike_id": "29391eeaf5c90bd24398c605e0bbe59f", "type": "electric_scooter", "is_disabled": 0, "lat": 38.91111316666667, "rental_uris": {"ios": "https://dc.lft.to/lastmile_qr_scan", "android": "https://dc.lft.to/lastmile_qr_scan"}, "is_reserved": 0, "fusion_lon": 0.0, "fusion_lat": 0.0, "lon": -77.02416816666667, "name": "29391eeaf5c90bd24398c605e0bbe59f"}, {"bike_id": "dfc33fb860a4edd4cb196b1bb372e3d3", "type": "electric_scooter", "is_disabled": 0, "lat": 38.9055615, "rental_uris": {"ios": "https://dc.lft.to/lastmile_qr_scan", "android": "https://dc.lft.to/lastmile_qr_scan"}, "is_reserved": 0, "fusion_lon": 0.0, "fusion_lat": 0.0, "lon": -77.0437795, "name": "dfc33fb860a4edd4cb196b1bb372e3d3"}, {"bike_id": "612ccff1ecb16a1fcea24bc6d688c620", "type": "electric_bike", "is_disabled": 0, "lat": 38.81971933333333, "rental_uris": {"ios": "https://dc.lft.to/lastmile_qr_scan", "android": "https://dc.lft.to/lastmile_qr_scan"}, "is_reserved": 0, "fusion_lon": 0.0, "fusion_lat": 0.0, "lon": -76.9980925, "name": "612ccff1ecb16a1fcea24bc6d688c620"}, {"bike_id": "5b26b62779a8667beb8202340282d133", "type": "electric_bike", "is_disabled": 0, "lat": 38.90874016666667, "rental_uris": {"ios": "https://dc.lft.to/lastmile_qr_scan", "android": "https://dc.lft.to/lastmile_qr_scan"}, "is_reserved": 0, "fusion_lon": 0.0, "fusion_lat": 0.0, "lon": -76.9914365, "name": "5b26b62779a8667beb8202340282d133"}, {"bike_id": "bc4c78b798e8009ec4e743a039925dab", "type": "electric_scooter", "is_disabled": 0, "lat": 38.91386516666667, "rental_uris": {"ios": "https://dc.lft.to/lastmile_qr_scan", "android": "https://dc.lft.to/lastmile_qr_scan"}, "is_reserved": 0, "fusion_lon": 0.0, "fusion_lat": 0.0, "lon": -77.01702133333333, "name": "bc4c78b798e8009ec4e743a039925dab"}, {"bike_id": "e259864358f3c170304bf605e72975f5", "type": "electric_scooter", "is_disabled": 0, "lat": 38.920422333333335, "rental_uris": {"ios": "https://dc.lft.to/lastmile_qr_scan", "android": "https://dc.lft.to/lastmile_qr_scan"}, "is_reserved": 0, "fusion_lon": 0.0, "fusion_lat": 0.0, "lon": -77.023721, "name": "e259864358f3c170304bf605e72975f5"}, {"bike_id": "ecc0a182a9efd3fe923acfe81262d797", "type": "electric_scooter", "is_disabled": 0, "lat": 38.93486216666667, "rental_uris": {"ios": "https://dc.lft.to/lastmile_qr_scan", "android": "https://dc.lft.to/lastmile_qr_scan"}, "is_reserved": 0, "fusion_lon": 0.0, "fusion_lat": 0.0, "lon": -77.07289733333333, "name": "ecc0a182a9efd3fe923acfe81262d797"}, {"bike_id": "568e749d306d66e809c8e97947b2d825", "type": "electric_scooter", "is_disabled": 0, "lat": 38.87932333333333, "rental_uris": {"ios": "https://dc.lft.to/lastmile_qr_scan", "android": "https://dc.lft.to/lastmile_qr_scan"}, "is_reserved": 0, "fusion_lon": 0.0, "fusion_lat": 0.0, "lon": -77.01640766666667, "name": "568e749d306d66e809c8e97947b2d825"}, {"bike_id": "f633626ffd74b8d6f27899d285b623f1", "type": "electric_scooter", "is_disabled": 0, "lat": 38.925091333333334, "rental_uris": {"ios": "https://dc.lft.to/lastmile_qr_scan", "android": "https://dc.lft.to/lastmile_qr_scan"}, "is_reserved": 0, "fusion_lon": 0.0, "fusion_lat": 0.0, "lon": -77.03790633333334, "name": "f633626ffd74b8d6f27899d285b623f1"}, {"bike_id": "2df7b7928b42a603770df21dc4e453b2", "type": "electric_scooter", "is_disabled": 0, "lat": 38.93100583333333, "rental_uris": {"ios": "https://dc.lft.to/lastmile_qr_scan", "android": "https://dc.lft.to/lastmile_qr_scan"}, "is_reserved": 0, "fusion_lon": 0.0, "fusion_lat": 0.0, "lon": -77.03471366666666, "name": "2df7b7928b42a603770df21dc4e453b2"}, {"bike_id": "910ef83013884fa87ed8bc81c609e093", "type": "electric_scooter", "is_disabled": 0, "lat": 38.878121666666665, "rental_uris": {"ios": "https://dc.lft.to/lastmile_qr_scan", "android": "https://dc.lft.to/lastmile_qr_scan"}, "is_reserved": 0, "fusion_lon": 0.0, "fusion_lat": 0.0, "lon": -77.0224395, "name": "910ef83013884fa87ed8bc81c609e093"}, {"bike_id": "7a0b6f3e67cea2a39c7a6bfd2af16643", "type": "electric_scooter", "is_disabled": 0, "lat": 38.92129933333333, "rental_uris": {"ios": "https://dc.lft.to/lastmile_qr_scan", "android": "https://dc.lft.to/lastmile_qr_scan"}, "is_reserved": 0, "fusion_lon": 0.0, "fusion_lat": 0.0, "lon": -77.041235, "name": "7a0b6f3e67cea2a39c7a6bfd2af16643"}, {"bike_id": "1786abea9d6bf5fb4683e4f2febd9c12", "type": "electric_scooter", "is_disabled": 0, "lat": 38.8765165, "rental_uris": {"ios": "https://dc.lft.to/lastmile_qr_scan", "android": "https://dc.lft.to/lastmile_qr_scan"}, "is_reserved": 0, "fusion_lon": 0.0, "fusion_lat": 0.0, "lon": -76.96508833333333, "name": "1786abea9d6bf5fb4683e4f2febd9c12"}, {"bike_id": "b19077ddce8343e1284232d4d2e69955", "type": "electric_scooter", "is_disabled": 0, "lat": 38.935709833333334, "rental_uris": {"ios": "https://dc.lft.to/lastmile_qr_scan", "android": "https://dc.lft.to/lastmile_qr_scan"}, "is_reserved": 0, "fusion_lon": 0.0, "fusion_lat": 0.0, "lon": -77.03264883333334, "name": "b19077ddce8343e1284232d4d2e69955"}, {"bike_id": "d357dfa16e4a9949546c4ddfe0c532c4", "type": "electric_scooter", "is_disabled": 0, "lat": 38.92266166666667, "rental_uris": {"ios": "https://dc.lft.to/lastmile_qr_scan", "android": "https://dc.lft.to/lastmile_qr_scan"}, "is_reserved": 0, "fusion_lon": 0.0, "fusion_lat": 0.0, "lon": -77.033986, "name": "d357dfa16e4a9949546c4ddfe0c532c4"}, {"bike_id": "cb37839e16135156163c83f2a3e8efc2", "type": "electric_scooter", "is_disabled": 0, "lat": 38.8982765, "rental_uris": {"ios": "https://dc.lft.to/lastmile_qr_scan", "android": "https://dc.lft.to/lastmile_qr_scan"}, "is_reserved": 0, "fusion_lon": 0.0, "fusion_lat": 0.0, "lon": -77.045578, "name": "cb37839e16135156163c83f2a3e8efc2"}, {"bike_id": "b044c78ea07c84c7dbb2443f6fa159b3", "type": "electric_scooter", "is_disabled": 0, "lat": 38.900431166666664, "rental_uris": {"ios": "https://dc.lft.to/lastmile_qr_scan", "android": "https://dc.lft.to/lastmile_qr_scan"}, "is_reserved": 0, "fusion_lon": 0.0, "fusion_lat": 0.0, "lon": -77.03528683333333, "name": "b044c78ea07c84c7dbb2443f6fa159b3"}, {"bike_id": "0f641efe41454734131d26efd36bd744", "type": "electric_scooter", "is_disabled": 0, "lat": 38.90228283333333, "rental_uris": {"ios": "https://dc.lft.to/lastmile_qr_scan", "android": "https://dc.lft.to/lastmile_qr_scan"}, "is_reserved": 0, "fusion_lon": 0.0, "fusion_lat": 0.0, "lon": -77.02665733333333, "name": "0f641efe41454734131d26efd36bd744"}, {"bike_id": "f34d6ebe5d1e1c9fe74e6915f8f54828", "type": "electric_scooter", "is_disabled": 0, "lat": 38.90715866666667, "rental_uris": {"ios": "https://dc.lft.to/lastmile_qr_scan", "android": "https://dc.lft.to/lastmile_qr_scan"}, "is_reserved": 0, "fusion_lon": 0.0, "fusion_lat": 0.0, "lon": -77.034277, "name": "f34d6ebe5d1e1c9fe74e6915f8f54828"}, {"bike_id": "8368c2b589a5b63c4c8b70364660a44e", "type": "electric_scooter", "is_disabled": 0, "lat": 38.910819833333335, "rental_uris": {"ios": "https://dc.lft.to/lastmile_qr_scan", "android": "https://dc.lft.to/lastmile_qr_scan"}, "is_reserved": 0, "fusion_lon": 0.0, "fusion_lat": 0.0, "lon": -77.02196216666667, "name": "8368c2b589a5b63c4c8b70364660a44e"}, {"bike_id": "70af4977b3f26c69c14723ba728a3065", "type": "electric_scooter", "is_disabled": 0, "lat": 38.9251505, "rental_uris": {"ios": "https://dc.lft.to/lastmile_qr_scan", "android": "https://dc.lft.to/lastmile_qr_scan"}, "is_reserved": 0, "fusion_lon": 0.0, "fusion_lat": 0.0, "lon": -77.02253316666666, "name": "70af4977b3f26c69c14723ba728a3065"}, {"bike_id": "307f49387580ec98b0bb081a6005bc83", "type": "electric_scooter", "is_disabled": 0, "lat": 38.917800666666665, "rental_uris": {"ios": "https://dc.lft.to/lastmile_qr_scan", "android": "https://dc.lft.to/lastmile_qr_scan"}, "is_reserved": 0, "fusion_lon": 0.0, "fusion_lat": 0.0, "lon": -77.02411233333333, "name": "307f49387580ec98b0bb081a6005bc83"}, {"bike_id": "b0e025f9a58f39c76881359c5883d3d8", "type": "electric_scooter", "is_disabled": 0, "lat": 38.91025716666667, "rental_uris": {"ios": "https://dc.lft.to/lastmile_qr_scan", "android": "https://dc.lft.to/lastmile_qr_scan"}, "is_reserved": 0, "fusion_lon": 0.0, "fusion_lat": 0.0, "lon": -77.02808316666666, "name": "b0e025f9a58f39c76881359c5883d3d8"}, {"bike_id": "2b7799f8f723d03d2354543da2393c63", "type": "electric_scooter", "is_disabled": 0, "lat": 38.921471, "rental_uris": {"ios": "https://dc.lft.to/lastmile_qr_scan", "android": "https://dc.lft.to/lastmile_qr_scan"}, "is_reserved": 0, "fusion_lon": 0.0, "fusion_lat": 0.0, "lon": -77.038705, "name": "2b7799f8f723d03d2354543da2393c63"}, {"bike_id": "7c944e2d42e1790c4617c0efc1ec08d0", "type": "electric_scooter", "is_disabled": 0, "lat": 38.929114, "rental_uris": {"ios": "https://dc.lft.to/lastmile_qr_scan", "android": "https://dc.lft.to/lastmile_qr_scan"}, "is_reserved": 0, "fusion_lon": 0.0, "fusion_lat": 0.0, "lon": -77.032369, "name": "7c944e2d42e1790c4617c0efc1ec08d0"}, {"bike_id": "fde6ee760c21c4097a3f8cdf4b5bf650", "type": "electric_scooter", "is_disabled": 0, "lat": 38.892211, "rental_uris": {"ios": "https://dc.lft.to/lastmile_qr_scan", "android": "https://dc.lft.to/lastmile_qr_scan"}, "is_reserved": 0, "fusion_lon": 0.0, "fusion_lat": 0.0, "lon": -77.03981516666667, "name": "fde6ee760c21c4097a3f8cdf4b5bf650"}, {"bike_id": "e9b25083b9d93648e94405284525c999", "type": "electric_scooter", "is_disabled": 0, "lat": 38.918084666666665, "rental_uris": {"ios": "https://dc.lft.to/lastmile_qr_scan", "android": "https://dc.lft.to/lastmile_qr_scan"}, "is_reserved": 0, "fusion_lon": 0.0, "fusion_lat": 0.0, "lon": -77.03433866666667, "name": "e9b25083b9d93648e94405284525c999"}, {"bike_id": "13e9c93b4c0b6cebf9c16b8c0fcb6608", "type": "electric_scooter", "is_disabled": 0, "lat": 38.9082265, "rental_uris": {"ios": "https://dc.lft.to/lastmile_qr_scan", "android": "https://dc.lft.to/lastmile_qr_scan"}, "is_reserved": 0, "fusion_lon": 0.0, "fusion_lat": 0.0, "lon": -77.04344883333333, "name": "13e9c93b4c0b6cebf9c16b8c0fcb6608"}, {"bike_id": "70df5e44f2302ce9edc2ccd4d12dd3d4", "type": "electric_scooter", "is_disabled": 0, "lat": 38.90140733333333, "rental_uris": {"ios": "https://dc.lft.to/lastmile_qr_scan", "android": "https://dc.lft.to/lastmile_qr_scan"}, "is_reserved": 0, "fusion_lon": 0.0, "fusion_lat": 0.0, "lon": -76.93085016666667, "name": "70df5e44f2302ce9edc2ccd4d12dd3d4"}, {"bike_id": "97ee19b0c7e63172c7d847f63d516baf", "type": "electric_scooter", "is_disabled": 0, "lat": 38.906231, "rental_uris": {"ios": "https://dc.lft.to/lastmile_qr_scan", "android": "https://dc.lft.to/lastmile_qr_scan"}, "is_reserved": 0, "fusion_lon": 0.0, "fusion_lat": 0.0, "lon": -77.04127183333334, "name": "97ee19b0c7e63172c7d847f63d516baf"}, {"bike_id": "b58e804cfd5d61922a94c8007a17d14e", "type": "electric_scooter", "is_disabled": 0, "lat": 38.904082333333335, "rental_uris": {"ios": "https://dc.lft.to/lastmile_qr_scan", "android": "https://dc.lft.to/lastmile_qr_scan"}, "is_reserved": 0, "fusion_lon": 0.0, "fusion_lat": 0.0, "lon": -76.97331916666667, "name": "b58e804cfd5d61922a94c8007a17d14e"}, {"bike_id": "71f0de19d2b77b6f7b2e13974221e790", "type": "electric_scooter", "is_disabled": 0, "lat": 38.899170166666664, "rental_uris": {"ios": "https://dc.lft.to/lastmile_qr_scan", "android": "https://dc.lft.to/lastmile_qr_scan"}, "is_reserved": 0, "fusion_lon": 0.0, "fusion_lat": 0.0, "lon": -76.93372016666666, "name": "71f0de19d2b77b6f7b2e13974221e790"}, {"bike_id": "e930ba8c6c6661fa9e3b20b15bbfea77", "type": "electric_scooter", "is_disabled": 0, "lat": 38.930391666666665, "rental_uris": {"ios": "https://dc.lft.to/lastmile_qr_scan", "android": "https://dc.lft.to/lastmile_qr_scan"}, "is_reserved": 0, "fusion_lon": 0.0, "fusion_lat": 0.0, "lon": -77.03283333333333, "name": "e930ba8c6c6661fa9e3b20b15bbfea77"}, {"bike_id": "24a6a4ac8d29427ba90c922c125d6883", "type": "electric_scooter", "is_disabled": 0, "lat": 38.934633, "rental_uris": {"ios": "https://dc.lft.to/lastmile_qr_scan", "android": "https://dc.lft.to/lastmile_qr_scan"}, "is_reserved": 0, "fusion_lon": 0.0, "fusion_lat": 0.0, "lon": -77.02241733333334, "name": "24a6a4ac8d29427ba90c922c125d6883"}, {"bike_id": "9d7ec4b7f05580eee5ea34d91622102c", "type": "electric_scooter", "is_disabled": 0, "lat": 38.92618183333333, "rental_uris": {"ios": "https://dc.lft.to/lastmile_qr_scan", "android": "https://dc.lft.to/lastmile_qr_scan"}, "is_reserved": 0, "fusion_lon": 0.0, "fusion_lat": 0.0, "lon": -77.03751683333333, "name": "9d7ec4b7f05580eee5ea34d91622102c"}, {"bike_id": "e9fdd494654560f24b04051057d0bfad", "type": "electric_scooter", "is_disabled": 0, "lat": 38.9126305, "rental_uris": {"ios": "https://dc.lft.to/lastmile_qr_scan", "android": "https://dc.lft.to/lastmile_qr_scan"}, "is_reserved": 0, "fusion_lon": 0.0, "fusion_lat": 0.0, "lon": -77.014924, "name": "e9fdd494654560f24b04051057d0bfad"}, {"bike_id": "74f532f0d45c21a1021c9b8c18d11eef", "type": "electric_bike", "is_disabled": 0, "lat": 39.02437333333334, "rental_uris": {"ios": "https://dc.lft.to/lastmile_qr_scan", "android": "https://dc.lft.to/lastmile_qr_scan"}, "is_reserved": 0, "fusion_lon": 0.0, "fusion_lat": 0.0, "lon": -77.130989, "name": "74f532f0d45c21a1021c9b8c18d11eef"}, {"bike_id": "7e339c57dd3843aff5988b64b7a45b4c", "type": "electric_scooter", "is_disabled": 0, "lat": 38.934628333333336, "rental_uris": {"ios": "https://dc.lft.to/lastmile_qr_scan", "android": "https://dc.lft.to/lastmile_qr_scan"}, "is_reserved": 0, "fusion_lon": 0.0, "fusion_lat": 0.0, "lon": -76.96439566666666, "name": "7e339c57dd3843aff5988b64b7a45b4c"}, {"bike_id": "97cf3b222c3e556551290da2259e3315", "type": "electric_bike", "is_disabled": 0, "lat": 38.957087666666666, "rental_uris": {"ios": "https://dc.lft.to/lastmile_qr_scan", "android": "https://dc.lft.to/lastmile_qr_scan"}, "is_reserved": 0, "fusion_lon": 0.0, "fusion_lat": 0.0, "lon": -77.02399833333334, "name": "97cf3b222c3e556551290da2259e3315"}, {"bike_id": "53cddee0aa63ffafbfba51c009c5d4ac", "type": "electric_scooter", "is_disabled": 0, "lat": 38.9224945, "rental_uris": {"ios": "https://dc.lft.to/lastmile_qr_scan", "android": "https://dc.lft.to/lastmile_qr_scan"}, "is_reserved": 0, "fusion_lon": 0.0, "fusion_lat": 0.0, "lon": -77.0308555, "name": "53cddee0aa63ffafbfba51c009c5d4ac"}, {"bike_id": "e17453ead2d460ea0c7473c1f3f0132b", "type": "electric_scooter", "is_disabled": 0, "lat": 38.931479333333336, "rental_uris": {"ios": "https://dc.lft.to/lastmile_qr_scan", "android": "https://dc.lft.to/lastmile_qr_scan"}, "is_reserved": 0, "fusion_lon": 0.0, "fusion_lat": 0.0, "lon": -77.04518233333333, "name": "e17453ead2d460ea0c7473c1f3f0132b"}, {"bike_id": "b4b1ad280e7d334284111b535cae5539", "type": "electric_scooter", "is_disabled": 0, "lat": 38.90205383333333, "rental_uris": {"ios": "https://dc.lft.to/lastmile_qr_scan", "android": "https://dc.lft.to/lastmile_qr_scan"}, "is_reserved": 0, "fusion_lon": 0.0, "fusion_lat": 0.0, "lon": -77.02564233333334, "name": "b4b1ad280e7d334284111b535cae5539"}, {"bike_id": "1591a5a70c4e9cf3998d5e65a1e9a64c", "type": "electric_scooter", "is_disabled": 0, "lat": 38.9212715, "rental_uris": {"ios": "https://dc.lft.to/lastmile_qr_scan", "android": "https://dc.lft.to/lastmile_qr_scan"}, "is_reserved": 0, "fusion_lon": 0.0, "fusion_lat": 0.0, "lon": -77.03669783333333, "name": "1591a5a70c4e9cf3998d5e65a1e9a64c"}, {"bike_id": "404fb8c1f52078266f0d095498c2e573", "type": "electric_scooter", "is_disabled": 0, "lat": 38.92666783333333, "rental_uris": {"ios": "https://dc.lft.to/lastmile_qr_scan", "android": "https://dc.lft.to/lastmile_qr_scan"}, "is_reserved": 0, "fusion_lon": 0.0, "fusion_lat": 0.0, "lon": -77.03197666666667, "name": "404fb8c1f52078266f0d095498c2e573"}, {"bike_id": "0bee74019a1d3ee12195d3eba73e236e", "type": "electric_scooter", "is_disabled": 0, "lat": 38.90456833333333, "rental_uris": {"ios": "https://dc.lft.to/lastmile_qr_scan", "android": "https://dc.lft.to/lastmile_qr_scan"}, "is_reserved": 0, "fusion_lon": 0.0, "fusion_lat": 0.0, "lon": -77.02889916666666, "name": "0bee74019a1d3ee12195d3eba73e236e"}, {"bike_id": "a820e3a7a5617a6265e9fe989c745b46", "type": "electric_scooter", "is_disabled": 0, "lat": 38.86699516666667, "rental_uris": {"ios": "https://dc.lft.to/lastmile_qr_scan", "android": "https://dc.lft.to/lastmile_qr_scan"}, "is_reserved": 0, "fusion_lon": 0.0, "fusion_lat": 0.0, "lon": -76.987097, "name": "a820e3a7a5617a6265e9fe989c745b46"}, {"bike_id": "7f14fd60bce7ebe765e67d3ba549823d", "type": "electric_scooter", "is_disabled": 0, "lat": 38.91405733333333, "rental_uris": {"ios": "https://dc.lft.to/lastmile_qr_scan", "android": "https://dc.lft.to/lastmile_qr_scan"}, "is_reserved": 0, "fusion_lon": 0.0, "fusion_lat": 0.0, "lon": -77.02132583333334, "name": "7f14fd60bce7ebe765e67d3ba549823d"}, {"bike_id": "12fccd68816868d121991f07698516ff", "type": "electric_scooter", "is_disabled": 0, "lat": 38.92291433333333, "rental_uris": {"ios": "https://dc.lft.to/lastmile_qr_scan", "android": "https://dc.lft.to/lastmile_qr_scan"}, "is_reserved": 0, "fusion_lon": 0.0, "fusion_lat": 0.0, "lon": -76.99774433333333, "name": "12fccd68816868d121991f07698516ff"}, {"bike_id": "ba02be4a0792b4073029cf31aeeabd8e", "type": "electric_scooter", "is_disabled": 0, "lat": 38.94091066666667, "rental_uris": {"ios": "https://dc.lft.to/lastmile_qr_scan", "android": "https://dc.lft.to/lastmile_qr_scan"}, "is_reserved": 0, "fusion_lon": 0.0, "fusion_lat": 0.0, "lon": -77.0365235, "name": "ba02be4a0792b4073029cf31aeeabd8e"}, {"bike_id": "56dfc21fb3f8dcb94dafdd9fa28a3bc3", "type": "electric_scooter", "is_disabled": 0, "lat": 38.91678916666667, "rental_uris": {"ios": "https://dc.lft.to/lastmile_qr_scan", "android": "https://dc.lft.to/lastmile_qr_scan"}, "is_reserved": 0, "fusion_lon": 0.0, "fusion_lat": 0.0, "lon": -77.02885066666667, "name": "56dfc21fb3f8dcb94dafdd9fa28a3bc3"}, {"bike_id": "07f1f9b91de51718ddb2ff269b6b35df", "type": "electric_scooter", "is_disabled": 0, "lat": 38.901923333333336, "rental_uris": {"ios": "https://dc.lft.to/lastmile_qr_scan", "android": "https://dc.lft.to/lastmile_qr_scan"}, "is_reserved": 0, "fusion_lon": 0.0, "fusion_lat": 0.0, "lon": -76.9967895, "name": "07f1f9b91de51718ddb2ff269b6b35df"}, {"bike_id": "c1269720ff56553ce5664ee3e3a043e2", "type": "electric_scooter", "is_disabled": 0, "lat": 38.902794, "rental_uris": {"ios": "https://dc.lft.to/lastmile_qr_scan", "android": "https://dc.lft.to/lastmile_qr_scan"}, "is_reserved": 0, "fusion_lon": 0.0, "fusion_lat": 0.0, "lon": -77.022741, "name": "c1269720ff56553ce5664ee3e3a043e2"}, {"bike_id": "d13d1f5aa6a1d7880a918fbcb9af09cf", "type": "electric_scooter", "is_disabled": 0, "lat": 38.89702883333333, "rental_uris": {"ios": "https://dc.lft.to/lastmile_qr_scan", "android": "https://dc.lft.to/lastmile_qr_scan"}, "is_reserved": 0, "fusion_lon": 0.0, "fusion_lat": 0.0, "lon": -76.92995783333333, "name": "d13d1f5aa6a1d7880a918fbcb9af09cf"}, {"bike_id": "b8d2401922ad643a7ccbfaba0c0be60b", "type": "electric_scooter", "is_disabled": 0, "lat": 38.9317985, "rental_uris": {"ios": "https://dc.lft.to/lastmile_qr_scan", "android": "https://dc.lft.to/lastmile_qr_scan"},