{"data": {"bikes": [{"is_disabled": 0, "is_reserved": 0, "fusion_lat": 0.0, "lat": 38.8946445, "fusion_lon": 0.0, "rental_uris": {"ios": "https://dc.lft.to/lastmile_qr_scan", "android": "https://dc.lft.to/lastmile_qr_scan"}, "lon": -77.002323, "bike_id": "2e16b9d055676554d43398bfe2468ed4", "type": "electric_scooter", "name": "2e16b9d055676554d43398bfe2468ed4"}, {"is_disabled": 0, "is_reserved": 0, "fusion_lat": 0.0, "lat": 39.025182666666666, "fusion_lon": 0.0, "rental_uris": {"ios": "https://dc.lft.to/lastmile_qr_scan", "android": "https://dc.lft.to/lastmile_qr_scan"}, "lon": -77.019698, "bike_id": "45fed1ac471779a353e4f99977d8b880", "type": "electric_bike", "name": "45fed1ac471779a353e4f99977d8b880"}, {"is_disabled": 0, "is_reserved": 0, "fusion_lat": 0.0, "lat": 38.953481333333336, "fusion_lon": 0.0, "rental_uris": {"ios": "https://dc.lft.to/lastmile_qr_scan", "android": "https://dc.lft.to/lastmile_qr_scan"}, "lon": -77.0815605, "bike_id": "1adfc8e33dbbdf9207aea3b8f4eb5504", "type": "electric_scooter", "name": "1adfc8e33dbbdf9207aea3b8f4eb5504"}, {"is_disabled": 0, "is_reserved": 0, "fusion_lat": 0.0, "lat": 38.92191233333333, "fusion_lon": 0.0, "rental_uris": {"ios": "https://dc.lft.to/lastmile_qr_scan", "android": "https://dc.lft.to/lastmile_qr_scan"}, "lon": -77.04027716666667, "bike_id": "283d8d598a0c52c7d2a93ecf5020b7bc", "type": "electric_scooter", "name": "283d8d598a0c52c7d2a93ecf5020b7bc"}, {"is_disabled": 0, "is_reserved": 0, "fusion_lat": 0.0, "lat": 38.92998016666667, "fusion_lon": 0.0, "rental_uris": {"ios": "https://dc.lft.to/lastmile_qr_scan", "android": "https://dc.lft.to/lastmile_qr_scan"}, "lon": -77.0379995, "bike_id": "87a01c9daed26c1a1791fb0f9f085614", "type": "electric_scooter", "name": "87a01c9daed26c1a1791fb0f9f085614"}, {"is_disabled": 0, "is_reserved": 0, "fusion_lat": 0.0, "lat": 38.899693666666664, "fusion_lon": 0.0, "rental_uris": {"ios": "https://dc.lft.to/lastmile_qr_scan", "android": "https://dc.lft.to/lastmile_qr_scan"}, "lon": -76.92633866666667, "bike_id": "566cc4c664db4b43af28c003338c44f4", "type": "electric_scooter", "name": "566cc4c664db4b43af28c003338c44f4"}, {"is_disabled": 0, "is_reserved": 0, "fusion_lat": 0.0, "lat": 38.88884066666667, "fusion_lon": 0.0, "rental_uris": {"ios": "https://dc.lft.to/lastmile_qr_scan", "android": "https://dc.lft.to/lastmile_qr_scan"}, "lon": -76.99030783333333, "bike_id": "d2d07e94593eb68607e6fb5f2dfd5936", "type": "electric_scooter", "name": "d2d07e94593eb68607e6fb5f2dfd5936"}, {"is_disabled": 0, "is_reserved": 0, "fusion_lat": 0.0, "lat": 39.0847515, "fusion_lon": 0.0, "rental_uris": {"ios": "https://dc.lft.to/lastmile_qr_scan", "android": "https://dc.lft.to/lastmile_qr_scan"}, "lon": -76.9506525, "bike_id": "41ca697b99ccbb96504cd80613fbd095", "type": "electric_bike", "name": "41ca697b99ccbb96504cd80613fbd095"}, {"is_disabled": 0, "is_reserved": 0, "fusion_lat": 0.0, "lat": 38.902973333333335, "fusion_lon": 0.0, "rental_uris": {"ios": "https://dc.lft.to/lastmile_qr_scan", "android": "https://dc.lft.to/lastmile_qr_scan"}, "lon": -77.03205933333334, "bike_id": "fbb1703a2537066a8bef9716500e3799", "type": "electric_scooter", "name": "fbb1703a2537066a8bef9716500e3799"}, {"is_disabled": 0, "is_reserved": 0, "fusion_lat": 0.0, "lat": 38.90565383333333, "fusion_lon": 0.0, "rental_uris": {"ios": "https://dc.lft.to/lastmile_qr_scan", "android": "https://dc.lft.to/lastmile_qr_scan"}, "lon": -77.00698166666666, "bike_id": "9f11e387e0193d1cb779d1a3b2ea19bc", "type": "electric_scooter", "name": "9f11e387e0193d1cb779d1a3b2ea19bc"}, {"is_disabled": 0, "is_reserved": 0, "fusion_lat": 0.0, "lat": 38.923519166666665, "fusion_lon": 0.0, "rental_uris": {"ios": "https://dc.lft.to/lastmile_qr_scan", "android": "https://dc.lft.to/lastmile_qr_scan"}, "lon": -76.9720555, "bike_id": "b3b41ce1f6e0df8a33a70eb3edd2624d", "type": "electric_scooter", "name": "b3b41ce1f6e0df8a33a70eb3edd2624d"}, {"is_disabled": 0, "is_reserved": 0, "fusion_lat": 0.0, "lat": 38.932803, "fusion_lon": 0.0, "rental_uris": {"ios": "https://dc.lft.to/lastmile_qr_scan", "android": "https://dc.lft.to/lastmile_qr_scan"}, "lon": -77.04137866666666, "bike_id": "f4381d2df2f69dd4c689ae6c316ab14a", "type": "electric_scooter", "name": "f4381d2df2f69dd4c689ae6c316ab14a"}, {"is_disabled": 0, "is_reserved": 0, "fusion_lat": 0.0, "lat": 38.93062716666667, "fusion_lon": 0.0, "rental_uris": {"ios": "https://dc.lft.to/lastmile_qr_scan", "android": "https://dc.lft.to/lastmile_qr_scan"}, "lon": -77.03179966666667, "bike_id": "9625da1d77c2faf603612a11e0c3d7ac", "type": "electric_scooter", "name": "9625da1d77c2faf603612a11e0c3d7ac"}, {"is_disabled": 0, "is_reserved": 0, "fusion_lat": 0.0, "lat": 38.9320855, "fusion_lon": 0.0, "rental_uris": {"ios": "https://dc.lft.to/lastmile_qr_scan", "android": "https://dc.lft.to/lastmile_qr_scan"}, "lon": -77.02286283333333, "bike_id": "cf77213932724540e1a92662ac99e322", "type": "electric_scooter", "name": "cf77213932724540e1a92662ac99e322"}, {"is_disabled": 0, "is_reserved": 0, "fusion_lat": 0.0, "lat": 39.000968666666665, "fusion_lon": 0.0, "rental_uris": {"ios": "https://dc.lft.to/lastmile_qr_scan", "android": "https://dc.lft.to/lastmile_qr_scan"}, "lon": -76.90982266666667, "bike_id": "a399559b6ec8c78b9386ce8596886d8c", "type": "electric_bike", "name": "a399559b6ec8c78b9386ce8596886d8c"}, {"is_disabled": 0, "is_reserved": 0, "fusion_lat": 0.0, "lat": 38.902241333333336, "fusion_lon": 0.0, "rental_uris": {"ios": "https://dc.lft.to/lastmile_qr_scan", "android": "https://dc.lft.to/lastmile_qr_scan"}, "lon": -77.06072633333333, "bike_id": "288357ce9b6b3cb23561dfda2ead43ec", "type": "electric_scooter", "name": "288357ce9b6b3cb23561dfda2ead43ec"}, {"is_disabled": 0, "is_reserved": 0, "fusion_lat": 0.0, "lat": 38.892417333333334, "fusion_lon": 0.0, "rental_uris": {"ios": "https://dc.lft.to/lastmile_qr_scan", "android": "https://dc.lft.to/lastmile_qr_scan"}, "lon": -77.03962833333334, "bike_id": "5393460b97f955395353fd6bd37782cd", "type": "electric_scooter", "name": "5393460b97f955395353fd6bd37782cd"}, {"is_disabled": 0, "is_reserved": 0, "fusion_lat": 0.0, "lat": 38.90262033333333, "fusion_lon": 0.0, "rental_uris": {"ios": "https://dc.lft.to/lastmile_qr_scan", "android": "https://dc.lft.to/lastmile_qr_scan"}, "lon": -77.01834366666667, "bike_id": "a435c904d0358a4a890c5b6c3addf803", "type": "electric_scooter", "name": "a435c904d0358a4a890c5b6c3addf803"}, {"is_disabled": 0, "is_reserved": 0, "fusion_lat": 0.0, "lat": 38.909907, "fusion_lon": 0.0, "rental_uris": {"ios": "https://dc.lft.to/lastmile_qr_scan", "android": "https://dc.lft.to/lastmile_qr_scan"}, "lon": -76.99704633333333, "bike_id": "19a9702a1d9470d2828c804c74f83946", "type": "electric_scooter", "name": "19a9702a1d9470d2828c804c74f83946"}, {"is_disabled": 0, "is_reserved": 0, "fusion_lat": 0.0, "lat": 38.9253205, "fusion_lon": 0.0, "rental_uris": {"ios": "https://dc.lft.to/lastmile_qr_scan", "android": "https://dc.lft.to/lastmile_qr_scan"}, "lon": -77.02618016666666, "bike_id": "e0fecbaaa770a56e259617b3fe74c289", "type": "electric_bike", "name": "e0fecbaaa770a56e259617b3fe74c289"}, {"is_disabled": 0, "is_reserved": 0, "fusion_lat": 0.0, "lat": 38.804818, "fusion_lon": 0.0, "rental_uris": {"ios": "https://dc.lft.to/lastmile_qr_scan", "android": "https://dc.lft.to/lastmile_qr_scan"}, "lon": -76.99106533333334, "bike_id": "5a0eb35c54a3eb867cf2c27d961530b6", "type": "electric_bike", "name": "5a0eb35c54a3eb867cf2c27d961530b6"}, {"is_disabled": 0, "is_reserved": 0, "fusion_lat": 0.0, "lat": 38.915559333333334, "fusion_lon": 0.0, "rental_uris": {"ios": "https://dc.lft.to/lastmile_qr_scan", "android": "https://dc.lft.to/lastmile_qr_scan"}, "lon": -77.02334883333333, "bike_id": "e2434cf8cf08e3aac7912476479ff731", "type": "electric_scooter", "name": "e2434cf8cf08e3aac7912476479ff731"}, {"is_disabled": 0, "is_reserved": 0, "fusion_lat": 0.0, "lat": 38.91336183333333, "fusion_lon": 0.0, "rental_uris": {"ios": "https://dc.lft.to/lastmile_qr_scan", "android": "https://dc.lft.to/lastmile_qr_scan"}, "lon": -77.01621966666667, "bike_id": "832c082f60d6cb3bf41012d60a975c9e", "type": "electric_scooter", "name": "832c082f60d6cb3bf41012d60a975c9e"}, {"is_disabled": 0, "is_reserved": 0, "fusion_lat": 0.0, "lat": 38.8943235, "fusion_lon": 0.0, "rental_uris": {"ios": "https://dc.lft.to/lastmile_qr_scan", "android": "https://dc.lft.to/lastmile_qr_scan"}, "lon": -77.01086066666667, "bike_id": "29d7034bea4e3db060788664b8f6b320", "type": "electric_scooter", "name": "29d7034bea4e3db060788664b8f6b320"}, {"is_disabled": 0, "is_reserved": 0, "fusion_lat": 0.0, "lat": 38.885334, "fusion_lon": 0.0, "rental_uris": {"ios": "https://dc.lft.to/lastmile_qr_scan", "android": "https://dc.lft.to/lastmile_qr_scan"}, "lon": -76.980543, "bike_id": "adf6ca458a1152783f0c50df055e3b63", "type": "electric_scooter", "name": "adf6ca458a1152783f0c50df055e3b63"}, {"is_disabled": 0, "is_reserved": 0, "fusion_lat": 0.0, "lat": 38.91650216666667, "fusion_lon": 0.0, "rental_uris": {"ios": "https://dc.lft.to/lastmile_qr_scan", "android": "https://dc.lft.to/lastmile_qr_scan"}, "lon": -77.02401916666666, "bike_id": "37afd0df60f7adfb17be931e4eb6110b", "type": "electric_scooter", "name": "37afd0df60f7adfb17be931e4eb6110b"}, {"is_disabled": 0, "is_reserved": 0, "fusion_lat": 0.0, "lat": 38.9569075, "fusion_lon": 0.0, "rental_uris": {"ios": "https://dc.lft.to/lastmile_qr_scan", "android": "https://dc.lft.to/lastmile_qr_scan"}, "lon": -77.022364, "bike_id": "223a01a63db95ba16e76136f8430df16", "type": "electric_scooter", "name": "223a01a63db95ba16e76136f8430df16"}, {"is_disabled": 0, "is_reserved": 0, "fusion_lat": 0.0, "lat": 38.9575255, "fusion_lon": 0.0, "rental_uris": {"ios": "https://dc.lft.to/lastmile_qr_scan", "android": "https://dc.lft.to/lastmile_qr_scan"}, "lon": -77.0221365, "bike_id": "fde4fd1c730725a518b9eb87233a2e83", "type": "electric_scooter", "name": "fde4fd1c730725a518b9eb87233a2e83"}, {"is_disabled": 0, "is_reserved": 0, "fusion_lat": 0.0, "lat": 38.922104833333336, "fusion_lon": 0.0, "rental_uris": {"ios": "https://dc.lft.to/lastmile_qr_scan", "android": "https://dc.lft.to/lastmile_qr_scan"}, "lon": -77.08191816666667, "bike_id": "3da440ef3481f591c22e47e61743031a", "type": "electric_bike", "name": "3da440ef3481f591c22e47e61743031a"}, {"is_disabled": 0, "is_reserved": 0, "fusion_lat": 0.0, "lat": 38.874992, "fusion_lon": 0.0, "rental_uris": {"ios": "https://dc.lft.to/lastmile_qr_scan", "android": "https://dc.lft.to/lastmile_qr_scan"}, "lon": -77.0007875, "bike_id": "b37e2f052caaacf198ad161cfce0f2b6", "type": "electric_scooter", "name": "b37e2f052caaacf198ad161cfce0f2b6"}, {"is_disabled": 0, "is_reserved": 0, "fusion_lat": 0.0, "lat": 38.89622383333333, "fusion_lon": 0.0, "rental_uris": {"ios": "https://dc.lft.to/lastmile_qr_scan", "android": "https://dc.lft.to/lastmile_qr_scan"}, "lon": -76.90754216666667, "bike_id": "cc85baeca61584be6a4fac05d8ade855", "type": "electric_bike", "name": "cc85baeca61584be6a4fac05d8ade855"}, {"is_disabled": 0, "is_reserved": 0, "fusion_lat": 0.0, "lat": 38.92295033333333, "fusion_lon": 0.0, "rental_uris": {"ios": "https://dc.lft.to/lastmile_qr_scan", "android": "https://dc.lft.to/lastmile_qr_scan"}, "lon": -77.02967533333333, "bike_id": "b1f3402e257d1ecf9a5a4b2492bc79ac", "type": "electric_scooter", "name": "b1f3402e257d1ecf9a5a4b2492bc79ac"}, {"is_disabled": 0, "is_reserved": 0, "fusion_lat": 0.0, "lat": 38.885413166666666, "fusion_lon": 0.0, "rental_uris": {"ios": "https://dc.lft.to/lastmile_qr_scan", "android": "https://dc.lft.to/lastmile_qr_scan"}, "lon": -76.923672, "bike_id": "d1d036faa5d9a38166465ff651994522", "type": "electric_scooter", "name": "d1d036faa5d9a38166465ff651994522"}, {"is_disabled": 0, "is_reserved": 0, "fusion_lat": 0.0, "lat": 38.918267, "fusion_lon": 0.0, "rental_uris": {"ios": "https://dc.lft.to/lastmile_qr_scan", "android": "https://dc.lft.to/lastmile_qr_scan"}, "lon": -77.0241935, "bike_id": "fc3ebfc07c50a217d91b51aeb17e0774", "type": "electric_scooter", "name": "fc3ebfc07c50a217d91b51aeb17e0774"}, {"is_disabled": 0, "is_reserved": 0, "fusion_lat": 0.0, "lat": 38.91954833333333, "fusion_lon": 0.0, "rental_uris": {"ios": "https://dc.lft.to/lastmile_qr_scan", "android": "https://dc.lft.to/lastmile_qr_scan"}, "lon": -77.0230615, "bike_id": "5200cae273bcee5c03b6608179292acc", "type": "electric_scooter", "name": "5200cae273bcee5c03b6608179292acc"}, {"is_disabled": 0, "is_reserved": 0, "fusion_lat": 0.0, "lat": 38.904042, "fusion_lon": 0.0, "rental_uris": {"ios": "https://dc.lft.to/lastmile_qr_scan", "android": "https://dc.lft.to/lastmile_qr_scan"}, "lon": -77.0295295, "bike_id": "54add7f0dc2c90a25c2bca28d82cba26", "type": "electric_scooter", "name": "54add7f0dc2c90a25c2bca28d82cba26"}, {"is_disabled": 0, "is_reserved": 0, "fusion_lat": 0.0, "lat": 38.9163065, "fusion_lon": 0.0, "rental_uris": {"ios": "https://dc.lft.to/lastmile_qr_scan", "android": "https://dc.lft.to/lastmile_qr_scan"}, "lon": -77.031314, "bike_id": "be91ecdcfe7de5a8ee2ee7d7fd9b8289", "type": "electric_bike", "name": "be91ecdcfe7de5a8ee2ee7d7fd9b8289"}, {"is_disabled": 0, "is_reserved": 0, "fusion_lat": 0.0, "lat": 38.944475, "fusion_lon": 0.0, "rental_uris": {"ios": "https://dc.lft.to/lastmile_qr_scan", "android": "https://dc.lft.to/lastmile_qr_scan"}, "lon": -77.03279133333334, "bike_id": "cb9fdcf601d3657d3880eaf7f09e6b80", "type": "electric_scooter", "name": "cb9fdcf601d3657d3880eaf7f09e6b80"}, {"is_disabled": 0, "is_reserved": 0, "fusion_lat": 0.0, "lat": 38.906542, "fusion_lon": 0.0, "rental_uris": {"ios": "https://dc.lft.to/lastmile_qr_scan", "android": "https://dc.lft.to/lastmile_qr_scan"}, "lon": -76.9793975, "bike_id": "533979f3fbd29bfba9bd113809546eac", "type": "electric_scooter", "name": "533979f3fbd29bfba9bd113809546eac"}, {"is_disabled": 0, "is_reserved": 0, "fusion_lat": 0.0, "lat": 38.897321833333336, "fusion_lon": 0.0, "rental_uris": {"ios": "https://dc.lft.to/lastmile_qr_scan", "android": "https://dc.lft.to/lastmile_qr_scan"}, "lon": -77.02401733333333, "bike_id": "84fe5fe4370e57f55dd45a8271f6e899", "type": "electric_scooter", "name": "84fe5fe4370e57f55dd45a8271f6e899"}, {"is_disabled": 0, "is_reserved": 0, "fusion_lat": 0.0, "lat": 38.903992333333335, "fusion_lon": 0.0, "rental_uris": {"ios": "https://dc.lft.to/lastmile_qr_scan", "android": "https://dc.lft.to/lastmile_qr_scan"}, "lon": -77.06296116666667, "bike_id": "91f55abeb4e3dd4cf9c6662df8445bbf", "type": "electric_scooter", "name": "91f55abeb4e3dd4cf9c6662df8445bbf"}, {"is_disabled": 0, "is_reserved": 0, "fusion_lat": 0.0, "lat": 38.928738833333334, "fusion_lon": 0.0, "rental_uris": {"ios": "https://dc.lft.to/lastmile_qr_scan", "android": "https://dc.lft.to/lastmile_qr_scan"}, "lon": -77.0399245, "bike_id": "cff24e3ac65c229ba7f0b020ff731e3a", "type": "electric_scooter", "name": "cff24e3ac65c229ba7f0b020ff731e3a"}, {"is_disabled": 0, "is_reserved": 0, "fusion_lat": 0.0, "lat": 38.922407166666666, "fusion_lon": 0.0, "rental_uris": {"ios": "https://dc.lft.to/lastmile_qr_scan", "android": "https://dc.lft.to/lastmile_qr_scan"}, "lon": -77.03518533333333, "bike_id": "342c740313856d9e19e23757fdf8d1c2", "type": "electric_scooter", "name": "342c740313856d9e19e23757fdf8d1c2"}, {"is_disabled": 0, "is_reserved": 0, "fusion_lat": 0.0, "lat": 38.905212166666665, "fusion_lon": 0.0, "rental_uris": {"ios": "https://dc.lft.to/lastmile_qr_scan", "android": "https://dc.lft.to/lastmile_qr_scan"}, "lon": -77.00857016666667, "bike_id": "999bf3d72e4cc2056ebdea68be293c95", "type": "electric_scooter", "name": "999bf3d72e4cc2056ebdea68be293c95"}, {"is_disabled": 0, "is_reserved": 0, "fusion_lat": 0.0, "lat": 38.909589833333335, "fusion_lon": 0.0, "rental_uris": {"ios": "https://dc.lft.to/lastmile_qr_scan", "android": "https://dc.lft.to/lastmile_qr_scan"}, "lon": -77.02282183333334, "bike_id": "6265a34d1fbad9896a642f888c1e413c", "type": "electric_bike", "name": "6265a34d1fbad9896a642f888c1e413c"}, {"is_disabled": 0, "is_reserved": 0, "fusion_lat": 0.0, "lat": 38.90426633333333, "fusion_lon": 0.0, "rental_uris": {"ios": "https://dc.lft.to/lastmile_qr_scan", "android": "https://dc.lft.to/lastmile_qr_scan"}, "lon": -77.0611725, "bike_id": "8e5877721ac75c1039d9cbab75d57612", "type": "electric_scooter", "name": "8e5877721ac75c1039d9cbab75d57612"}, {"is_disabled": 0, "is_reserved": 0, "fusion_lat": 0.0, "lat": 38.89220383333333, "fusion_lon": 0.0, "rental_uris": {"ios": "https://dc.lft.to/lastmile_qr_scan", "android": "https://dc.lft.to/lastmile_qr_scan"}, "lon": -77.02774966666667, "bike_id": "5eeee4414825ad866329eb4ddbed03dc", "type": "electric_scooter", "name": "5eeee4414825ad866329eb4ddbed03dc"}, {"is_disabled": 0, "is_reserved": 0, "fusion_lat": 0.0, "lat": 38.860133833333336, "fusion_lon": 0.0, "rental_uris": {"ios": "https://dc.lft.to/lastmile_qr_scan", "android": "https://dc.lft.to/lastmile_qr_scan"}, "lon": -77.065295, "bike_id": "1debedfc47825703f43ad8ee9fcb00eb", "type": "electric_bike", "name": "1debedfc47825703f43ad8ee9fcb00eb"}, {"is_disabled": 0, "is_reserved": 0, "fusion_lat": 0.0, "lat": 38.87454016666667, "fusion_lon": 0.0, "rental_uris": {"ios": "https://dc.lft.to/lastmile_qr_scan", "android": "https://dc.lft.to/lastmile_qr_scan"}, "lon": -77.00936816666666, "bike_id": "9e3f150d1b7c2c3fe93234da512d23ec", "type": "electric_scooter", "name": "9e3f150d1b7c2c3fe93234da512d23ec"}, {"is_disabled": 0, "is_reserved": 0, "fusion_lat": 0.0, "lat": 38.885468, "fusion_lon": 0.0, "rental_uris": {"ios": "https://dc.lft.to/lastmile_qr_scan", "android": "https://dc.lft.to/lastmile_qr_scan"}, "lon": -76.959755, "bike_id": "f509d0068b51a831ee332d32fa74a272", "type": "electric_scooter", "name": "f509d0068b51a831ee332d32fa74a272"}, {"is_disabled": 0, "is_reserved": 0, "fusion_lat": 0.0, "lat": 38.88299516666667, "fusion_lon": 0.0, "rental_uris": {"ios": "https://dc.lft.to/lastmile_qr_scan", "android": "https://dc.lft.to/lastmile_qr_scan"}, "lon": -77.00902083333334, "bike_id": "24f0495e09ff0c075d2237f1bd03c9b6", "type": "electric_scooter", "name": "24f0495e09ff0c075d2237f1bd03c9b6"}, {"is_disabled": 0, "is_reserved": 0, "fusion_lat": 0.0, "lat": 38.896731833333334, "fusion_lon": 0.0, "rental_uris": {"ios": "https://dc.lft.to/lastmile_qr_scan", "android": "https://dc.lft.to/lastmile_qr_scan"}, "lon": -76.93209633333333, "bike_id": "ae8b8aca8174a1799cbd62bd7f8ab205", "type": "electric_scooter", "name": "ae8b8aca8174a1799cbd62bd7f8ab205"}, {"is_disabled": 0, "is_reserved": 0, "fusion_lat": 0.0, "lat": 38.9180675, "fusion_lon": 0.0, "rental_uris": {"ios": "https://dc.lft.to/lastmile_qr_scan", "android": "https://dc.lft.to/lastmile_qr_scan"}, "lon": -77.02492433333333, "bike_id": "334b377e59f83b9e919a0590ad6a786c", "type": "electric_scooter", "name": "334b377e59f83b9e919a0590ad6a786c"}, {"is_disabled": 0, "is_reserved": 0, "fusion_lat": 0.0, "lat": 38.935351, "fusion_lon": 0.0, "rental_uris": {"ios": "https://dc.lft.to/lastmile_qr_scan", "android": "https://dc.lft.to/lastmile_qr_scan"}, "lon": -77.023599, "bike_id": "e2b8da29735433d31a2aedb2f1332717", "type": "electric_scooter", "name": "e2b8da29735433d31a2aedb2f1332717"}, {"is_disabled": 0, "is_reserved": 0, "fusion_lat": 0.0, "lat": 38.93673366666667, "fusion_lon": 0.0, "rental_uris": {"ios": "https://dc.lft.to/lastmile_qr_scan", "android": "https://dc.lft.to/lastmile_qr_scan"}, "lon": -77.02281883333333, "bike_id": "39eab96c1d6b4775cd24c45b12ad63b4", "type": "electric_scooter", "name": "39eab96c1d6b4775cd24c45b12ad63b4"}, {"is_disabled": 0, "is_reserved": 0, "fusion_lat": 0.0, "lat": 38.91119833333333, "fusion_lon": 0.0, "rental_uris": {"ios": "https://dc.lft.to/lastmile_qr_scan", "android": "https://dc.lft.to/lastmile_qr_scan"}, "lon": -77.04404583333333, "bike_id": "04c27fcc29b7305e390df479ebaa61f2", "type": "electric_scooter", "name": "04c27fcc29b7305e390df479ebaa61f2"}, {"is_disabled": 0, "is_reserved": 0, "fusion_lat": 0.0, "lat": 38.926602, "fusion_lon": 0.0, "rental_uris": {"ios": "https://dc.lft.to/lastmile_qr_scan", "android": "https://dc.lft.to/lastmile_qr_scan"}, "lon": -77.05201933333333, "bike_id": "ac5948cb7a00905be26bfd4109a33453", "type": "electric_scooter", "name": "ac5948cb7a00905be26bfd4109a33453"}, {"is_disabled": 0, "is_reserved": 0, "fusion_lat": 0.0, "lat": 38.90511633333333, "fusion_lon": 0.0, "rental_uris": {"ios": "https://dc.lft.to/lastmile_qr_scan", "android": "https://dc.lft.to/lastmile_qr_scan"}, "lon": -76.95195016666666, "bike_id": "c2131ba6b6749196cde0e1d804fb8599", "type": "electric_scooter", "name": "c2131ba6b6749196cde0e1d804fb8599"}, {"is_disabled": 0, "is_reserved": 0, "fusion_lat": 0.0, "lat": 38.887120833333334, "fusion_lon": 0.0, "rental_uris": {"ios": "https://dc.lft.to/lastmile_qr_scan", "android": "https://dc.lft.to/lastmile_qr_scan"}, "lon": -76.983406, "bike_id": "27c2181f82b764ed606b962a9c0281df", "type": "electric_scooter", "name": "27c2181f82b764ed606b962a9c0281df"}, {"is_disabled": 0, "is_reserved": 0, "fusion_lat": 0.0, "lat": 38.899059666666666, "fusion_lon": 0.0, "rental_uris": {"ios": "https://dc.lft.to/lastmile_qr_scan", "android": "https://dc.lft.to/lastmile_qr_scan"}, "lon": -77.01974183333333, "bike_id": "f24ed157cec6d31a06eb7035735b3636", "type": "electric_scooter", "name": "f24ed157cec6d31a06eb7035735b3636"}, {"is_disabled": 0, "is_reserved": 0, "fusion_lat": 0.0, "lat": 38.91839816666667, "fusion_lon": 0.0, "rental_uris": {"ios": "https://dc.lft.to/lastmile_qr_scan", "android": "https://dc.lft.to/lastmile_qr_scan"}, "lon": -77.02293116666667, "bike_id": "fffc4146629b6a57f4ddf35fa66621cc", "type": "electric_scooter", "name": "fffc4146629b6a57f4ddf35fa66621cc"}, {"is_disabled": 0, "is_reserved": 0, "fusion_lat": 0.0, "lat": 38.90960783333333, "fusion_lon": 0.0, "rental_uris": {"ios": "https://dc.lft.to/lastmile_qr_scan", "android": "https://dc.lft.to/lastmile_qr_scan"}, "lon": -77.02574116666666, "bike_id": "a44cc883ddda7d06a10fd6170b9ec9b8", "type": "electric_scooter", "name": "a44cc883ddda7d06a10fd6170b9ec9b8"}, {"is_disabled": 0, "is_reserved": 0, "fusion_lat": 0.0, "lat": 38.880235, "fusion_lon": 0.0, "rental_uris": {"ios": "https://dc.lft.to/lastmile_qr_scan", "android": "https://dc.lft.to/lastmile_qr_scan"}, "lon": -76.94322783333334, "bike_id": "6e76b5bb6cfce16f0ec20f38febbb289", "type": "electric_scooter", "name": "6e76b5bb6cfce16f0ec20f38febbb289"}, {"is_disabled": 0, "is_reserved": 0, "fusion_lat": 0.0, "lat": 38.8464605, "fusion_lon": 0.0, "rental_uris": {"ios": "https://dc.lft.to/lastmile_qr_scan", "android": "https://dc.lft.to/lastmile_qr_scan"}, "lon": -77.0036765, "bike_id": "a43e6b509d4c9f58a718091c5a853627", "type": "electric_scooter", "name": "a43e6b509d4c9f58a718091c5a853627"}, {"is_disabled": 0, "is_reserved": 0, "fusion_lat": 0.0, "lat": 38.84623216666667, "fusion_lon": 0.0, "rental_uris": {"ios": "https://dc.lft.to/lastmile_qr_scan", "android": "https://dc.lft.to/lastmile_qr_scan"}, "lon": -76.9783775, "bike_id": "7dbade6344db75c03cee092a75b2b722", "type": "electric_bike", "name": "7dbade6344db75c03cee092a75b2b722"}, {"is_disabled": 0, "is_reserved": 0, "fusion_lat": 0.0, "lat": 38.90056033333333, "fusion_lon": 0.0, "rental_uris": {"ios": "https://dc.lft.to/lastmile_qr_scan", "android": "https://dc.lft.to/lastmile_qr_scan"}, "lon": -77.01779966666666, "bike_id": "bd357efcb434ad06a2c715d34155964c", "type": "electric_scooter", "name": "bd357efcb434ad06a2c715d34155964c"}, {"is_disabled": 0, "is_reserved": 0, "fusion_lat": 0.0, "lat": 38.90642533333333, "fusion_lon": 0.0, "rental_uris": {"ios": "https://dc.lft.to/lastmile_qr_scan", "android": "https://dc.lft.to/lastmile_qr_scan"}, "lon": -77.07030333333333, "bike_id": "64a0ebe08d54e7a3a138b6fdb7b5f5bd", "type": "electric_scooter", "name": "64a0ebe08d54e7a3a138b6fdb7b5f5bd"}, {"is_disabled": 0, "is_reserved": 0, "fusion_lat": 0.0, "lat": 38.91540033333333, "fusion_lon": 0.0, "rental_uris": {"ios": "https://dc.lft.to/lastmile_qr_scan", "android": "https://dc.lft.to/lastmile_qr_scan"}, "lon": -77.0091475, "bike_id": "86ca728a932a6a0aef95c5510621d727", "type": "electric_scooter", "name": "86ca728a932a6a0aef95c5510621d727"}, {"is_disabled": 0, "is_reserved": 0, "fusion_lat": 0.0, "lat": 38.92813966666667, "fusion_lon": 0.0, "rental_uris": {"ios": "https://dc.lft.to/lastmile_qr_scan", "android": "https://dc.lft.to/lastmile_qr_scan"}, "lon": -77.01408833333333, "bike_id": "206fc0381e6be59bd199e76b58028320", "type": "electric_scooter", "name": "206fc0381e6be59bd199e76b58028320"}, {"is_disabled": 0, "is_reserved": 0, "fusion_lat": 0.0, "lat": 38.89251766666667, "fusion_lon": 0.0, "rental_uris": {"ios": "https://dc.lft.to/lastmile_qr_scan", "android": "https://dc.lft.to/lastmile_qr_scan"}, "lon": -77.03959283333333, "bike_id": "093117de0de921e394ad6b1475975519", "type": "electric_scooter", "name": "093117de0de921e394ad6b1475975519"}, {"is_disabled": 0, "is_reserved": 0, "fusion_lat": 0.0, "lat": 38.89607266666667, "fusion_lon": 0.0, "rental_uris": {"ios": "https://dc.lft.to/lastmile_qr_scan", "android": "https://dc.lft.to/lastmile_qr_scan"}, "lon": -76.99802016666666, "bike_id": "b9cf76bb722c0b1c2ec35e23ffaf09f5", "type": "electric_scooter", "name": "b9cf76bb722c0b1c2ec35e23ffaf09f5"}, {"is_disabled": 0, "is_reserved": 0, "fusion_lat": 0.0, "lat": 38.914737, "fusion_lon": 0.0, "rental_uris": {"ios": "https://dc.lft.to/lastmile_qr_scan", "android": "https://dc.lft.to/lastmile_qr_scan"}, "lon": -77.0019535, "bike_id": "3f04129c318bb3b8f9e45fd2ffce3cbe", "type": "electric_scooter", "name": "3f04129c318bb3b8f9e45fd2ffce3cbe"}, {"is_disabled": 0, "is_reserved": 0, "fusion_lat": 0.0, "lat": 38.91110966666667, "fusion_lon": 0.0, "rental_uris": {"ios": "https://dc.lft.to/lastmile_qr_scan", "android": "https://dc.lft.to/lastmile_qr_scan"}, "lon": -77.0116075, "bike_id": "19e2c568c441033a008c771c562b14b0", "type": "electric_scooter", "name": "19e2c568c441033a008c771c562b14b0"}, {"is_disabled": 0, "is_reserved": 0, "fusion_lat": 0.0, "lat": 38.92893133333333, "fusion_lon": 0.0, "rental_uris": {"ios": "https://dc.lft.to/lastmile_qr_scan", "android": "https://dc.lft.to/lastmile_qr_scan"}, "lon": -77.02289566666667, "bike_id": "5cf3d5b01131e0bf76bb004d67c9064e", "type": "electric_scooter", "name": "5cf3d5b01131e0bf76bb004d67c9064e"}, {"is_disabled": 0, "is_reserved": 0, "fusion_lat": 0.0, "lat": 38.941416333333336, "fusion_lon": 0.0, "rental_uris": {"ios": "https://dc.lft.to/lastmile_qr_scan", "android": "https://dc.lft.to/lastmile_qr_scan"}, "lon": -77.02325566666667, "bike_id": "4094b3a945d13a00a886c877e2c08301", "type": "electric_scooter", "name": "4094b3a945d13a00a886c877e2c08301"}, {"is_disabled": 0, "is_reserved": 0, "fusion_lat": 0.0, "lat": 38.92027483333333, "fusion_lon": 0.0, "rental_uris": {"ios": "https://dc.lft.to/lastmile_qr_scan", "android": "https://dc.lft.to/lastmile_qr_scan"}, "lon": -77.01121183333333, "bike_id": "5fca4210d833ae701c986d1c5770a4b1", "type": "electric_scooter", "name": "5fca4210d833ae701c986d1c5770a4b1"}, {"is_disabled": 0, "is_reserved": 0, "fusion_lat": 0.0, "lat": 38.907969666666666, "fusion_lon": 0.0, "rental_uris": {"ios": "https://dc.lft.to/lastmile_qr_scan", "android": "https://dc.lft.to/lastmile_qr_scan"}, "lon": -77.03839266666667, "bike_id": "b401549500ce06eb8606e917b0cc00e7", "type": "electric_scooter", "name": "b401549500ce06eb8606e917b0cc00e7"}, {"is_disabled": 0, "is_reserved": 0, "fusion_lat": 0.0, "lat": 38.9181575, "fusion_lon": 0.0, "rental_uris": {"ios": "https://dc.lft.to/lastmile_qr_scan", "android": "https://dc.lft.to/lastmile_qr_scan"}, "lon": -77.025213, "bike_id": "6bca68f3bd6f5da2392f8e92d6a6516c", "type": "electric_scooter", "name": "6bca68f3bd6f5da2392f8e92d6a6516c"}, {"is_disabled": 0, "is_reserved": 0, "fusion_lat": 0.0, "lat": 38.930559333333335, "fusion_lon": 0.0, "rental_uris": {"ios": "https://dc.lft.to/lastmile_qr_scan", "android": "https://dc.lft.to/lastmile_qr_scan"}, "lon": -77.02660533333334, "bike_id": "bf74204280c1ef75f61cbf66318e87f4", "type": "electric_scooter", "name": "bf74204280c1ef75f61cbf66318e87f4"}, {"is_disabled": 0, "is_reserved": 0, "fusion_lat": 0.0, "lat": 38.90971016666667, "fusion_lon": 0.0, "rental_uris": {"ios": "https://dc.lft.to/lastmile_qr_scan", "android": "https://dc.lft.to/lastmile_qr_scan"}, "lon": -77.03189066666667, "bike_id": "18883c0f71420108eda4697e6fe931a9", "type": "electric_scooter", "name": "18883c0f71420108eda4697e6fe931a9"}, {"is_disabled": 0, "is_reserved": 0, "fusion_lat": 0.0, "lat": 38.804047833333335, "fusion_lon": 0.0, "rental_uris": {"ios": "https://dc.lft.to/lastmile_qr_scan", "android": "https://dc.lft.to/lastmile_qr_scan"}, "lon": -77.1132865, "bike_id": "21f66d06b3ae7197b663b0dd73172850", "type": "electric_bike", "name": "21f66d06b3ae7197b663b0dd73172850"}, {"is_disabled": 0, "is_reserved": 0, "fusion_lat": 0.0, "lat": 38.906526666666664, "fusion_lon": 0.0, "rental_uris": {"ios": "https://dc.lft.to/lastmile_qr_scan", "android": "https://dc.lft.to/lastmile_qr_scan"}, "lon": -77.0117565, "bike_id": "b98bc4bb8ede9a6cca369329ff49e424", "type": "electric_scooter", "name": "b98bc4bb8ede9a6cca369329ff49e424"}, {"is_disabled": 0, "is_reserved": 0, "fusion_lat": 0.0, "lat": 38.901146833333335, "fusion_lon": 0.0, "rental_uris": {"ios": "https://dc.lft.to/lastmile_qr_scan", "android": "https://dc.lft.to/lastmile_qr_scan"}, "lon": -77.04990233333334, "bike_id": "c6c7ac4f2a32fca71924e52729a17e45", "type": "electric_scooter", "name": "c6c7ac4f2a32fca71924e52729a17e45"}, {"is_disabled": 0, "is_reserved": 0, "fusion_lat": 0.0, "lat": 38.85594233333333, "fusion_lon": 0.0, "rental_uris": {"ios": "https://dc.lft.to/lastmile_qr_scan", "android": "https://dc.lft.to/lastmile_qr_scan"}, "lon": -76.97281416666667, "bike_id": "d41e6c0dc1c1b2ddc43344cc6494353f", "type": "electric_bike", "name": "d41e6c0dc1c1b2ddc43344cc6494353f"}, {"is_disabled": 0, "is_reserved": 0, "fusion_lat": 0.0, "lat": 38.96159, "fusion_lon": 0.0, "rental_uris": {"ios": "https://dc.lft.to/lastmile_qr_scan", "android": "https://dc.lft.to/lastmile_qr_scan"}, "lon": -77.027899, "bike_id": "1286440ee1b6d0530bdc77869544d4b6", "type": "electric_scooter", "name": "1286440ee1b6d0530bdc77869544d4b6"}, {"is_disabled": 0, "is_reserved": 0, "fusion_lat": 0.0, "lat": 38.924517, "fusion_lon": 0.0, "rental_uris": {"ios": "https://dc.lft.to/lastmile_qr_scan", "android": "https://dc.lft.to/lastmile_qr_scan"}, "lon": -77.03886566666667, "bike_id": "7622799d44140671d3940e41091f9e96", "type": "electric_scooter", "name": "7622799d44140671d3940e41091f9e96"}, {"is_disabled": 0, "is_reserved": 0, "fusion_lat": 0.0, "lat": 38.88624933333333, "fusion_lon": 0.0, "rental_uris": {"ios": "https://dc.lft.to/lastmile_qr_scan", "android": "https://dc.lft.to/lastmile_qr_scan"}, "lon": -76.9901765, "bike_id": "c0b6ffab95d7139d6a1d46e340ffc0ea", "type": "electric_bike", "name": "c0b6ffab95d7139d6a1d46e340ffc0ea"}, {"is_disabled": 0, "is_reserved": 0, "fusion_lat": 0.0, "lat": 38.90697316666667, "fusion_lon": 0.0, "rental_uris": {"ios": "https://dc.lft.to/lastmile_qr_scan", "android": "https://dc.lft.to/lastmile_qr_scan"}, "lon": -76.952494, "bike_id": "e196a49b1f45e862314a5658f811c17e", "type": "electric_bike", "name": "e196a49b1f45e862314a5658f811c17e"}, {"is_disabled": 0, "is_reserved": 0, "fusion_lat": 0.0, "lat": 38.94720566666667, "fusion_lon": 0.0, "rental_uris": {"ios": "https://dc.lft.to/lastmile_qr_scan", "android": "https://dc.lft.to/lastmile_qr_scan"}, "lon": -77.06803833333333, "bike_id": "55f23969bb454516a933be21f333e6ed", "type": "electric_scooter", "name": "55f23969bb454516a933be21f333e6ed"}, {"is_disabled": 0, "is_reserved": 0, "fusion_lat": 0.0, "lat": 38.8835795, "fusion_lon": 0.0, "rental_uris": {"ios": "https://dc.lft.to/lastmile_qr_scan", "android": "https://dc.lft.to/lastmile_qr_scan"}, "lon": -76.957709, "bike_id": "94a5aac22cb65a4c499b136f5ba4c6ee", "type": "electric_scooter", "name": "94a5aac22cb65a4c499b136f5ba4c6ee"}, {"is_disabled": 0, "is_reserved": 0, "fusion_lat": 0.0, "lat": 38.942623, "fusion_lon": 0.0, "rental_uris": {"ios": "https://dc.lft.to/lastmile_qr_scan", "android": "https://dc.lft.to/lastmile_qr_scan"}, "lon": -76.984579, "bike_id": "574b71c9c61f4b94a76709b05b1cdc82", "type": "electric_scooter", "name": "574b71c9c61f4b94a76709b05b1cdc82"}, {"is_disabled": 0, "is_reserved": 0, "fusion_lat": 0.0, "lat": 38.8967435, "fusion_lon": 0.0, "rental_uris": {"ios": "https://dc.lft.to/lastmile_qr_scan", "android": "https://dc.lft.to/lastmile_qr_scan"}, "lon": -77.05131283333333, "bike_id": "5c7dbfa13204db624848e08bf76df5b0", "type": "electric_scooter", "name": "5c7dbfa13204db624848e08bf76df5b0"}, {"is_disabled": 0, "is_reserved": 0, "fusion_lat": 0.0, "lat": 38.892345, "fusion_lon": 0.0, "rental_uris": {"ios": "https://dc.lft.to/lastmile_qr_scan", "android": "https://dc.lft.to/lastmile_qr_scan"}, "lon": -77.05004183333334, "bike_id": "55ade6764e1ca590cb9d8fe1dcab8948", "type": "electric_scooter", "name": "55ade6764e1ca590cb9d8fe1dcab8948"}, {"is_disabled": 0, "is_reserved": 0, "fusion_lat": 0.0, "lat": 38.9287655, "fusion_lon": 0.0, "rental_uris": {"ios": "https://dc.lft.to/lastmile_qr_scan", "android": "https://dc.lft.to/lastmile_qr_scan"}, "lon": -77.033611, "bike_id": "9e02265f2ca3b10b34092f84753046c8", "type": "electric_scooter", "name": "9e02265f2ca3b10b34092f84753046c8"}, {"is_disabled": 0, "is_reserved": 0, "fusion_lat": 0.0, "lat": 38.903985166666665, "fusion_lon": 0.0, "rental_uris": {"ios": "https://dc.lft.to/lastmile_qr_scan", "android": "https://dc.lft.to/lastmile_qr_scan"}, "lon": -77.01844233333334, "bike_id": "cd7e3a57179b811ca409a085b686a755", "type": "electric_scooter", "name": "cd7e3a57179b811ca409a085b686a755"}, {"is_disabled": 0, "is_reserved": 0, "fusion_lat": 0.0, "lat": 38.953039, "fusion_lon": 0.0, "rental_uris": {"ios": "https://dc.lft.to/lastmile_qr_scan", "android": "https://dc.lft.to/lastmile_qr_scan"}, "lon": -77.0202945, "bike_id": "0b0d85ca368b29df35fbb3ea449dd13f", "type": "electric_scooter", "name": "0b0d85ca368b29df35fbb3ea449dd13f"}, {"is_disabled": 0, "is_reserved": 0, "fusion_lat": 0.0, "lat": 38.9460275, "fusion_lon": 0.0, "rental_uris": {"ios": "https://dc.lft.to/lastmile_qr_scan", "android": "https://dc.lft.to/lastmile_qr_scan"}, "lon": -77.01731966666667, "bike_id": "42dee16ae0cadb6afa82c318fb883f0b", "type": "electric_bike", "name": "42dee16ae0cadb6afa82c318fb883f0b"}, {"is_disabled": 0, "is_reserved": 0, "fusion_lat": 0.0, "lat": 38.900271833333335, "fusion_lon": 0.0, "rental_uris": {"ios": "https://dc.lft.to/lastmile_qr_scan", "android": "https://dc.lft.to/lastmile_qr_scan"}, "lon": -77.01209883333334, "bike_id": "3ac8eea070bd53ff4ab7aafe61b6ff57", "type": "electric_scooter", "name": "3ac8eea070bd53ff4ab7aafe61b6ff57"}, {"is_disabled": 0, "is_reserved": 0, "fusion_lat": 0.0, "lat": 38.953627, "fusion_lon": 0.0, "rental_uris": {"ios": "https://dc.lft.to/lastmile_qr_scan", "android": "https://dc.lft.to/lastmile_qr_scan"}, "lon": -76.99844333333333, "bike_id": "dd961d6099764f920831bd7f92a81196", "type": "electric_scooter", "name": "dd961d6099764f920831bd7f92a81196"}, {"is_disabled": 0, "is_reserved": 0, "fusion_lat": 0.0, "lat": 38.93463283333333, "fusion_lon": 0.0, "rental_uris": {"ios": "https://dc.lft.to/lastmile_qr_scan", "android": "https://dc.lft.to/lastmile_qr_scan"}, "lon": -77.02384166666667, "bike_id": "4ec90341007c96e54f83ad41590f4ac9", "type": "electric_scooter", "name": "4ec90341007c96e54f83ad41590f4ac9"}, {"is_disabled": 0, "is_reserved": 0, "fusion_lat": 0.0, "lat": 38.88580433333333, "fusion_lon": 0.0, "rental_uris": {"ios": "https://dc.lft.to/lastmile_qr_scan", "android": "https://dc.lft.to/lastmile_qr_scan"}, "lon": -77.01225616666666, "bike_id": "2396a535c4d7a753a770a796a9616924", "type": "electric_scooter", "name": "2396a535c4d7a753a770a796a9616924"}, {"is_disabled": 0, "is_reserved": 0, "fusion_lat": 0.0, "lat": 38.920792666666664, "fusion_lon": 0.0, "rental_uris": {"ios": "https://dc.lft.to/lastmile_qr_scan", "android": "https://dc.lft.to/lastmile_qr_scan"}, "lon": -77.004562, "bike_id": "9d83691fc2b98d9ac51241e9e027e36c", "type": "electric_scooter", "name": "9d83691fc2b98d9ac51241e9e027e36c"}, {"is_disabled": 0, "is_reserved": 0, "fusion_lat": 0.0, "lat": 38.93194583333333, "fusion_lon": 0.0, "rental_uris": {"ios": "https://dc.lft.to/lastmile_qr_scan", "android": "https://dc.lft.to/lastmile_qr_scan"}, "lon": -77.02452783333334, "bike_id": "c6abac38a4bc994fae8d693be6688c56", "type": "electric_scooter", "name": "c6abac38a4bc994fae8d693be6688c56"}, {"is_disabled": 0, "is_reserved": 0, "fusion_lat": 0.0, "lat": 38.908515666666666, "fusion_lon": 0.0, "rental_uris": {"ios": "https://dc.lft.to/lastmile_qr_scan", "android": "https://dc.lft.to/lastmile_qr_scan"}, "lon": -77.02059383333334, "bike_id": "0f18dafda1501d978bb6f74f27e73a32", "type": "electric_scooter", "name": "0f18dafda1501d978bb6f74f27e73a32"}, {"is_disabled": 0, "is_reserved": 0, "fusion_lat": 0.0, "lat": 38.936978333333336, "fusion_lon": 0.0, "rental_uris": {"ios": "https://dc.lft.to/lastmile_qr_scan", "android": "https://dc.lft.to/lastmile_qr_scan"}, "lon": -77.055991, "bike_id": "66aafae5c595e995935d350b403897f7", "type": "electric_scooter", "name": "66aafae5c595e995935d350b403897f7"}, {"is_disabled": 0, "is_reserved": 0, "fusion_lat": 0.0, "lat": 38.900096833333336, "fusion_lon": 0.0, "rental_uris": {"ios": "https://dc.lft.to/lastmile_qr_scan", "android": "https://dc.lft.to/lastmile_qr_scan"}, "lon": -77.00673383333333, "bike_id": "8545e73671dbc36d8f57ea876cd4f661", "type": "electric_scooter", "name": "8545e73671dbc36d8f57ea876cd4f661"}, {"is_disabled": 0, "is_reserved": 0, "fusion_lat": 0.0, "lat": 38.932539, "fusion_lon": 0.0, "rental_uris": {"ios": "https://dc.lft.to/lastmile_qr_scan", "android": "https://dc.lft.to/lastmile_qr_scan"}, "lon": -77.029381, "bike_id": "729d3cdbf507265bed6a391b6d89c616", "type": "electric_scooter", "name": "729d3cdbf507265bed6a391b6d89c616"}, {"is_disabled": 0, "is_reserved": 0, "fusion_lat": 0.0, "lat": 38.909202, "fusion_lon": 0.0, "rental_uris": {"ios": "https://dc.lft.to/lastmile_qr_scan", "android": "https://dc.lft.to/lastmile_qr_scan"}, "lon": -77.04944183333333, "bike_id": "477277c5542bbfd72ac6dd05f523d4a5", "type": "electric_scooter", "name": "477277c5542bbfd72ac6dd05f523d4a5"}, {"is_disabled": 0, "is_reserved": 0, "fusion_lat": 0.0, "lat": 38.929768, "fusion_lon": 0.0, "rental_uris": {"ios": "https://dc.lft.to/lastmile_qr_scan", "android": "https://dc.lft.to/lastmile_qr_scan"}, "lon": -77.03887, "bike_id": "e272090974c1690b6301cd7fc8c50b97", "type": "electric_scooter", "name": "e272090974c1690b6301cd7fc8c50b97"}, {"is_disabled": 0, "is_reserved": 0, "fusion_lat": 0.0, "lat": 38.9102985, "fusion_lon": 0.0, "rental_uris": {"ios": "https://dc.lft.to/lastmile_qr_scan", "android": "https://dc.lft.to/lastmile_qr_scan"}, "lon": -76.92334883333334, "bike_id": "f1c91090b432bb0b1c3688a15ca0bcac", "type": "electric_bike", "name": "f1c91090b432bb0b1c3688a15ca0bcac"}, {"is_disabled": 0, "is_reserved": 0, "fusion_lat": 0.0, "lat": 38.9135345, "fusion_lon": 0.0, "rental_uris": {"ios": "https://dc.lft.to/lastmile_qr_scan", "android": "https://dc.lft.to/lastmile_qr_scan"}, "lon": -76.9714045, "bike_id": "add64e6d63911881fbe32039eafa48c0", "type": "electric_scooter", "name": "add64e6d63911881fbe32039eafa48c0"}, {"is_disabled": 0, "is_reserved": 0, "fusion_lat": 0.0, "lat": 38.92505233333333, "fusion_lon": 0.0, "rental_uris": {"ios": "https://dc.lft.to/lastmile_qr_scan", "android": "https://dc.lft.to/lastmile_qr_scan"}, "lon": -77.02358183333334, "bike_id": "ffe9d59dad62d372a43ee54f8918af3a", "type": "electric_scooter", "name": "ffe9d59dad62d372a43ee54f8918af3a"}, {"is_disabled": 0, "is_reserved": 0, "fusion_lat": 0.0, "lat": 38.899315666666666, "fusion_lon": 0.0, "rental_uris": {"ios": "https://dc.lft.to/lastmile_qr_scan", "android": "https://dc.lft.to/lastmile_qr_scan"}, "lon": -77.0149495, "bike_id": "e5560a22c8721606cdacd0b5ad4096f0", "type": "electric_scooter", "name": "e5560a22c8721606cdacd0b5ad4096f0"}, {"is_disabled": 0, "is_reserved": 0, "fusion_lat": 0.0, "lat": 38.905650333333334, "fusion_lon": 0.0, "rental_uris": {"ios": "https://dc.lft.to/lastmile_qr_scan", "android": "https://dc.lft.to/lastmile_qr_scan"}, "lon": -77.00872866666667, "bike_id": "ccf4600e4af83e3edd661033880be213", "type": "electric_scooter", "name": "ccf4600e4af83e3edd661033880be213"}, {"is_disabled": 0, "is_reserved": 0, "fusion_lat": 0.0, "lat": 38.91693583333333, "fusion_lon": 0.0, "rental_uris": {"ios": "https://dc.lft.to/lastmile_qr_scan", "android": "https://dc.lft.to/lastmile_qr_scan"}, "lon": -77.02572833333333, "bike_id": "1240d69302b394d8d5f3efa16b60bdc9", "type": "electric_scooter", "name": "1240d69302b394d8d5f3efa16b60bdc9"}, {"is_disabled": 0, "is_reserved": 0, "fusion_lat": 0.0, "lat": 38.926535333333334, "fusion_lon": 0.0, "rental_uris": {"ios": "https://dc.lft.to/lastmile_qr_scan", "android": "https://dc.lft.to/lastmile_qr_scan"}, "lon": -77.09018483333334, "bike_id": "04d8ed6398cd1c5c9a41099ecbe47019", "type": "electric_bike", "name": "04d8ed6398cd1c5c9a41099ecbe47019"}, {"is_disabled": 0, "is_reserved": 0, "fusion_lat": 0.0, "lat": 38.89489183333333, "fusion_lon": 0.0, "rental_uris": {"ios": "https://dc.lft.to/lastmile_qr_scan", "android": "https://dc.lft.to/lastmile_qr_scan"}, "lon": -77.00983266666667, "bike_id": "b1762898388c1d4918b2bb6ca7925793", "type": "electric_scooter", "name": "b1762898388c1d4918b2bb6ca7925793"}, {"is_disabled": 0, "is_reserved": 0, "fusion_lat": 0.0, "lat": 38.903127, "fusion_lon": 0.0, "rental_uris": {"ios": "https://dc.lft.to/lastmile_qr_scan", "android": "https://dc.lft.to/lastmile_qr_scan"}, "lon": -77.02147033333334, "bike_id": "43b4130128afcc4f0db4cb7032c3c848", "type": "electric_scooter", "name": "43b4130128afcc4f0db4cb7032c3c848"}, {"is_disabled": 0, "is_reserved": 0, "fusion_lat": 0.0, "lat": 38.971568, "fusion_lon": 0.0, "rental_uris": {"ios": "https://dc.lft.to/lastmile_qr_scan", "android": "https://dc.lft.to/lastmile_qr_scan"}, "lon": -76.98363466666666, "bike_id": "23b73d2bb1f625b761150a380a0d7b6c", "type": "electric_bike", "name": "23b73d2bb1f625b761150a380a0d7b6c"}, {"is_disabled": 0, "is_reserved": 0, "fusion_lat": 0.0, "lat": 38.939365333333335, "fusion_lon": 0.0, "rental_uris": {"ios": "https://dc.lft.to/lastmile_qr_scan", "android": "https://dc.lft.to/lastmile_qr_scan"}, "lon": -77.025886, "bike_id": "7889fbb915d3dc80386d7b3e82f13808", "type": "electric_scooter", "name": "7889fbb915d3dc80386d7b3e82f13808"}, {"is_disabled": 0, "is_reserved": 0, "fusion_lat": 0.0, "lat": 38.9034385, "fusion_lon": 0.0, "rental_uris": {"ios": "https://dc.lft.to/lastmile_qr_scan", "android": "https://dc.lft.to/lastmile_qr_scan"}, "lon": -76.9749225, "bike_id": "f7ba73aa8b0977eed8358175ec68bab1", "type": "electric_scooter", "name": "f7ba73aa8b0977eed8358175ec68bab1"}, {"is_disabled": 0, "is_reserved": 0, "fusion_lat": 0.0, "lat": 38.893317, "fusion_lon": 0.0, "rental_uris": {"ios": "https://dc.lft.to/lastmile_qr_scan", "android": "https://dc.lft.to/lastmile_qr_scan"}, "lon": -76.928897, "bike_id": "902740b73d6f8d0174d695c22b09baba", "type": "electric_scooter", "name": "902740b73d6f8d0174d695c22b09baba"}, {"is_disabled": 0, "is_reserved": 0, "fusion_lat": 0.0, "lat": 38.93370516666667, "fusion_lon": 0.0, "rental_uris": {"ios": "https://dc.lft.to/lastmile_qr_scan", "android": "https://dc.lft.to/lastmile_qr_scan"}, "lon": -77.03884083333334, "bike_id": "c612f82aa3c7de2473a7e0236e4b4f95", "type": "electric_scooter", "name": "c612f82aa3c7de2473a7e0236e4b4f95"}, {"is_disabled": 0, "is_reserved": 0, "fusion_lat": 0.0, "lat": 38.9299785, "fusion_lon": 0.0, "rental_uris": {"ios": "https://dc.lft.to/lastmile_qr_scan", "android": "https://dc.lft.to/lastmile_qr_scan"}, "lon": -77.03802883333333, "bike_id": "87782d4e30239d4af38d438361a52e1b", "type": "electric_scooter", "name": "87782d4e30239d4af38d438361a52e1b"}, {"is_disabled": 0, "is_reserved": 0, "fusion_lat": 0.0, "lat": 38.91413816666667, "fusion_lon": 0.0, "rental_uris": {"ios": "https://dc.lft.to/lastmile_qr_scan", "android": "https://dc.lft.to/lastmile_qr_scan"}, "lon": -77.0330145, "bike_id": "53a0987c7ce5af95e7f50d9bc9faff63", "type": "electric_scooter", "name": "53a0987c7ce5af95e7f50d9bc9faff63"}, {"is_disabled": 0, "is_reserved": 0, "fusion_lat": 0.0, "lat": 38.9178105, "fusion_lon": 0.0, "rental_uris": {"ios": "https://dc.lft.to/lastmile_qr_scan", "android": "https://dc.lft.to/lastmile_qr_scan"}, "lon": -77.022899, "bike_id": "600230d238bdc17d97a90e6e74268358", "type": "electric_scooter", "name": "600230d238bdc17d97a90e6e74268358"}, {"is_disabled": 0, "is_reserved": 0, "fusion_lat": 0.0, "lat": 38.886971333333335, "fusion_lon": 0.0, "rental_uris": {"ios": "https://dc.lft.to/lastmile_qr_scan", "android": "https://dc.lft.to/lastmile_qr_scan"}, "lon": -76.9961195, "bike_id": "58b0420ebb18905269b8603355542171", "type": "electric_scooter", "name": "58b0420ebb18905269b8603355542171"}, {"is_disabled": 0, "is_reserved": 0, "fusion_lat": 0.0, "lat": 38.89253333333333, "fusion_lon": 0.0, "rental_uris": {"ios": "https://dc.lft.to/lastmile_qr_scan", "android": "https://dc.lft.to/lastmile_qr_scan"}, "lon": -77.04657433333334, "bike_id": "3b42227a153834b0bc3fe22d53129f91", "type": "electric_scooter", "name": "3b42227a153834b0bc3fe22d53129f91"}, {"is_disabled": 0, "is_reserved": 0, "fusion_lat": 0.0, "lat": 38.929282666666666, "fusion_lon": 0.0, "rental_uris": {"ios": "https://dc.lft.to/lastmile_qr_scan", "android": "https://dc.lft.to/lastmile_qr_scan"}, "lon": -77.03284133333334, "bike_id": "a7bb7bfc0b94313d7ff17dd64178ecec", "type": "electric_scooter", "name": "a7bb7bfc0b94313d7ff17dd64178ecec"}, {"is_disabled": 0, "is_reserved": 0, "fusion_lat": 0.0, "lat": 38.8951245, "fusion_lon": 0.0, "rental_uris": {"ios": "https://dc.lft.to/lastmile_qr_scan", "android": "https://dc.lft.to/lastmile_qr_scan"}, "lon": -77.02284783333333, "bike_id": "0ca5af54a97d703267d10f7290af0e84", "type": "electric_scooter", "name": "0ca5af54a97d703267d10f7290af0e84"}, {"is_disabled": 0, "is_reserved": 0, "fusion_lat": 0.0, "lat": 38.878357, "fusion_lon": 0.0, "rental_uris": {"ios": "https://dc.lft.to/lastmile_qr_scan", "android": "https://dc.lft.to/lastmile_qr_scan"}, "lon": -76.98604033333334, "bike_id": "b538414f090d9ffec8fe93f285fe7970", "type": "electric_scooter", "name": "b538414f090d9ffec8fe93f285fe7970"}, {"is_disabled": 0, "is_reserved": 0, "fusion_lat": 0.0, "lat": 38.90493, "fusion_lon": 0.0, "rental_uris": {"ios": "https://dc.lft.to/lastmile_qr_scan", "android": "https://dc.lft.to/lastmile_qr_scan"}, "lon": -77.029533, "bike_id": "7b3494989072d202b131228fb33e576d", "type": "electric_scooter", "name": "7b3494989072d202b131228fb33e576d"}, {"is_disabled": 0, "is_reserved": 0, "fusion_lat": 0.0, "lat": 38.9215145, "fusion_lon": 0.0, "rental_uris": {"ios": "https://dc.lft.to/lastmile_qr_scan", "android": "https://dc.lft.to/lastmile_qr_scan"}, "lon": -77.03378083333334, "bike_id": "9750c537ae52e2aae3bfdde74100e87f", "type": "electric_scooter", "name": "9750c537ae52e2aae3bfdde74100e87f"}, {"is_disabled": 0, "is_reserved": 0, "fusion_lat": 0.0, "lat": 38.84601883333333, "fusion_lon": 0.0, "rental_uris": {"ios": "https://dc.lft.to/lastmile_qr_scan", "android": "https://dc.lft.to/lastmile_qr_scan"}, "lon": -76.9741485, "bike_id": "d5a4152b1058b1e44cb47d043eb5e439", "type": "electric_scooter", "name": "d5a4152b1058b1e44cb47d043eb5e439"}, {"is_disabled": 0, "is_reserved": 0, "fusion_lat": 0.0, "lat": 38.9378975, "fusion_lon": 0.0, "rental_uris": {"ios": "https://dc.lft.to/lastmile_qr_scan", "android": "https://dc.lft.to/lastmile_qr_scan"}, "lon": -77.0232085, "bike_id": "c1fe662d3ce9e3abeea0417b3afcfee0", "type": "electric_scooter", "name": "c1fe662d3ce9e3abeea0417b3afcfee0"}, {"is_disabled": 0, "is_reserved": 0, "fusion_lat": 0.0, "lat": 38.929874166666664, "fusion_lon": 0.0, "rental_uris": {"ios": "https://dc.lft.to/lastmile_qr_scan", "android": "https://dc.lft.to/lastmile_qr_scan"}, "lon": -77.0347585, "bike_id": "f7c3566aa01b5fd812642210cd231c9c", "type": "electric_scooter", "name": "f7c3566aa01b5fd812642210cd231c9c"}, {"is_disabled": 0, "is_reserved": 0, "fusion_lat": 0.0, "lat": 38.836069333333334, "fusion_lon": 0.0, "rental_uris": {"ios": "https://dc.lft.to/lastmile_qr_scan", "android": "https://dc.lft.to/lastmile_qr_scan"}, "lon": -77.0037905, "bike_id": "e0e80e46762d23527cd3bd62e69f96b7", "type": "electric_bike", "name": "e0e80e46762d23527cd3bd62e69f96b7"}, {"is_disabled": 0, "is_reserved": 0, "fusion_lat": 0.0, "lat": 38.923198166666666, "fusion_lon": 0.0, "rental_uris": {"ios": "https://dc.lft.to/lastmile_qr_scan", "android": "https://dc.lft.to/lastmile_qr_scan"}, "lon": -77.02802066666666, "bike_id": "15108a82a869beb3f2ad49de2b315775", "type": "electric_scooter", "name": "15108a82a869beb3f2ad49de2b315775"}, {"is_disabled": 0, "is_reserved": 0, "fusion_lat": 0.0, "lat": 38.85838, "fusion_lon": 0.0, "rental_uris": {"ios": "https://dc.lft.to/lastmile_qr_scan", "android": "https://dc.lft.to/lastmile_qr_scan"}, "lon": -76.9883095, "bike_id": "2a8e0097392a70a442599737479441ed", "type": "electric_scooter", "name": "2a8e0097392a70a442599737479441ed"}, {"is_disabled": 0, "is_reserved": 0, "fusion_lat": 0.0, "lat": 38.91832933333333, "fusion_lon": 0.0, "rental_uris": {"ios": "https://dc.lft.to/lastmile_qr_scan", "android": "https://dc.lft.to/lastmile_qr_scan"}, "lon": -77.040286, "bike_id": "4b9bdbf335f54d0875ca4a15f2931e9f", "type": "electric_scooter", "name": "4b9bdbf335f54d0875ca4a15f2931e9f"}, {"is_disabled": 0, "is_reserved": 0, "fusion_lat": 0.0, "lat": 38.924176, "fusion_lon": 0.0, "rental_uris": {"ios": "https://dc.lft.to/lastmile_qr_scan", "android": "https://dc.lft.to/lastmile_qr_scan"}, "lon": -77.02008216666667, "bike_id": "42a9fddd18bd25f5560d008d3a717e89", "type": "electric_scooter", "name": "42a9fddd18bd25f5560d008d3a717e89"}, {"is_disabled": 0, "is_reserved": 0, "fusion_lat": 0.0, "lat": 38.924031666666664, "fusion_lon": 0.0, "rental_uris": {"ios": "https://dc.lft.to/lastmile_qr_scan", "android": "https://dc.lft.to/lastmile_qr_scan"}, "lon": -77.03650666666667, "bike_id": "462f5d3e920f9af61c1f06a47c309214", "type": "electric_scooter", "name": "462f5d3e920f9af61c1f06a47c309214"}, {"is_disabled": 0, "is_reserved": 0, "fusion_lat": 0.0, "lat": 38.857892666666665, "fusion_lon": 0.0, "rental_uris": {"ios": "https://dc.lft.to/lastmile_qr_scan", "android": "https://dc.lft.to/lastmile_qr_scan"}, "lon": -76.98750116666666, "bike_id": "3eeca7ef5ffb2116f5ee0990633a06ea", "type": "electric_bike", "name": "3eeca7ef5ffb2116f5ee0990633a06ea"}, {"is_disabled": 0, "is_reserved": 0, "fusion_lat": 0.0, "lat": 38.91826016666667, "fusion_lon": 0.0, "rental_uris": {"ios": "https://dc.lft.to/lastmile_qr_scan", "android": "https://dc.lft.to/lastmile_qr_scan"}, "lon": -77.02452166666667, "bike_id": "24c098e39d923e7b4e83a0939f7ffce4", "type": "electric_scooter", "name": "24c098e39d923e7b4e83a0939f7ffce4"}, {"is_disabled": 0, "is_reserved": 0, "fusion_lat": 0.0, "lat": 38.91823983333333, "fusion_lon": 0.0, "rental_uris": {"ios": "https://dc.lft.to/lastmile_qr_scan", "android": "https://dc.lft.to/lastmile_qr_scan"}, "lon": -77.02422983333334, "bike_id": "6df485afc84f23ff522c6a0a7e6ad335", "type": "electric_scooter", "name": "6df485afc84f23ff522c6a0a7e6ad335"}, {"is_disabled": 0, "is_reserved": 0, "fusion_lat": 0.0, "lat": 38.92894016666666, "fusion_lon": 0.0, "rental_uris": {"ios": "https://dc.lft.to/lastmile_qr_scan", "android": "https://dc.lft.to/lastmile_qr_scan"}, "lon": -77.01938016666666, "bike_id": "1eaad34aa987b341311d439eadc71d6e", "type": "electric_scooter", "name": "1eaad34aa987b341311d439eadc71d6e"}, {"is_disabled": 0, "is_reserved": 0, "fusion_lat": 0.0, "lat": 38.9285585, "fusion_lon": 0.0, "rental_uris": {"ios": "https://dc.lft.to/lastmile_qr_scan", "android": "https://dc.lft.to/lastmile_qr_scan"}, "lon": -77.037333, "bike_id": "90dd270e771cd09189aea3454182f92f", "type": "electric_scooter", "name": "90dd270e771cd09189aea3454182f92f"}, {"is_disabled": 0, "is_reserved": 0, "fusion_lat": 0.0, "lat": 38.95356966666667, "fusion_lon": 0.0, "rental_uris": {"ios": "https://dc.lft.to/lastmile_qr_scan", "android": "https://dc.lft.to/lastmile_qr_scan"}, "lon": -76.98088983333334, "bike_id": "c2d40986d1ca17ed85450a96ea6587dc", "type": "electric_bike", "name": "c2d40986d1ca17ed85450a96ea6587dc"}, {"is_disabled": 0, "is_reserved": 0, "fusion_lat": 0.0, "lat": 38.9366635, "fusion_lon": 0.0, "rental_uris": {"ios": "https://dc.lft.to/lastmile_qr_scan", "android": "https://dc.lft.to/lastmile_qr_scan"}, "lon": -77.06606, "bike_id": "037ad10de826ed55af3c10e0d0e900c8", "type": "electric_scooter", "name": "037ad10de826ed55af3c10e0d0e900c8"}, {"is_disabled": 0, "is_reserved": 0, "fusion_lat": 0.0, "lat": 38.89519283333333, "fusion_lon": 0.0, "rental_uris": {"ios": "https://dc.lft.to/lastmile_qr_scan", "android": "https://dc.lft.to/lastmile_qr_scan"}, "lon": -77.02282016666666, "bike_id": "6636bb75804a5a96756dc9de574fd9fd", "type": "electric_scooter", "name": "6636bb75804a5a96756dc9de574fd9fd"}, {"is_disabled": 0, "is_reserved": 0, "fusion_lat": 0.0, "lat": 38.920781833333336, "fusion_lon": 0.0, "rental_uris": {"ios": "https://dc.lft.to/lastmile_qr_scan", "android": "https://dc.lft.to/lastmile_qr_scan"}, "lon": -77.02427683333333, "bike_id": "9e76845c9a3cd916440cde164d7b7bfe", "type": "electric_scooter", "name": "9e76845c9a3cd916440cde164d7b7bfe"}, {"is_disabled": 0, "is_reserved": 0, "fusion_lat": 0.0, "lat": 38.8447485, "fusion_lon": 0.0, "rental_uris": {"ios": "https://dc.lft.to/lastmile_qr_scan", "android": "https://dc.lft.to/lastmile_qr_scan"}, "lon": -76.995852, "bike_id": "41c0b448e7912a9d8d7f7d4fcabaccf8", "type": "electric_bike", "name": "41c0b448e7912a9d8d7f7d4fcabaccf8"}, {"is_disabled": 0, "is_reserved": 0, "fusion_lat": 0.0, "lat": 38.93863183333333, "fusion_lon": 0.0, "rental_uris": {"ios": "https://dc.lft.to/lastmile_qr_scan", "android": "https://dc.lft.to/lastmile_qr_scan"}, "lon": -77.03043416666667, "bike_id": "b5de7e857197d3f39f665c11cd3c81bc", "type": "electric_scooter", "name": "b5de7e857197d3f39f665c11cd3c81bc"}, {"is_disabled": 0, "is_reserved": 0, "fusion_lat": 0.0, "lat": 38.9471725, "fusion_lon": 0.0, "rental_uris": {"ios": "https://dc.lft.to/lastmile_qr_scan", "android": "https://dc.lft.to/lastmile_qr_scan"}, "lon": -77.02613216666667, "bike_id": "3a25b24a993cb76fbe83ec6239113712", "type": "electric_scooter", "name": "3a25b24a993cb76fbe83ec6239113712"}, {"is_disabled": 0, "is_reserved": 0, "fusion_lat": 0.0, "lat": 38.874477166666665, "fusion_lon": 0.0, "rental_uris": {"ios": "https://dc.lft.to/lastmile_qr_scan", "android": "https://dc.lft.to/lastmile_qr_scan"}, "lon": -77.00275233333333, "bike_id": "c17e7ea0372290b809c8e0bbd05be608", "type": "electric_scooter", "name": "c17e7ea0372290b809c8e0bbd05be608"}, {"is_disabled": 0, "is_reserved": 0, "fusion_lat": 0.0, "lat": 38.876975333333334, "fusion_lon": 0.0, "rental_uris": {"ios": "https://dc.lft.to/lastmile_qr_scan", "android": "https://dc.lft.to/lastmile_qr_scan"}, "lon": -76.99625183333333, "bike_id": "52334e5356de7f684c4b757ba032222f", "type": "electric_scooter", "name": "52334e5356de7f684c4b757ba032222f"}, {"is_disabled": 0, "is_reserved": 0, "fusion_lat": 0.0, "lat": 38.89235866666667, "fusion_lon": 0.0, "rental_uris": {"ios": "https://dc.lft.to/lastmile_qr_scan", "android": "https://dc.lft.to/lastmile_qr_scan"}, "lon": -77.02204866666666, "bike_id": "959c22a85cc5fe1645fd889ff217b23f", "type": "electric_scooter", "name": "959c22a85cc5fe1645fd889ff217b23f"}, {"is_disabled": 0, "is_reserved": 0, "fusion_lat": 0.0, "lat": 38.9224205, "fusion_lon": 0.0, "rental_uris": {"ios": "https://dc.lft.to/lastmile_qr_scan", "android": "https://dc.lft.to/lastmile_qr_scan"}, "lon": -77.03661066666666, "bike_id": "36e1ea919201c8e5edf398da9e4165ff", "type": "electric_scooter", "name": "36e1ea919201c8e5edf398da9e4165ff"}, {"is_disabled": 0, "is_reserved": 0, "fusion_lat": 0.0, "lat": 38.902608, "fusion_lon": 0.0, "rental_uris": {"ios": "https://dc.lft.to/lastmile_qr_scan", "android": "https://dc.lft.to/lastmile_qr_scan"}, "lon": -77.00210716666666, "bike_id": "d0b5790fd66993cbb47bcee21ec52d0e", "type": "electric_scooter", "name": "d0b5790fd66993cbb47bcee21ec52d0e"}, {"is_disabled": 0, "is_reserved": 0, "fusion_lat": 0.0, "lat": 38.8764475, "fusion_lon": 0.0, "rental_uris": {"ios": "https://dc.lft.to/lastmile_qr_scan", "android": "https://dc.lft.to/lastmile_qr_scan"}, "lon": -77.007999, "bike_id": "c626d2131933b87f91e0a88a2bbba75a", "type": "electric_scooter", "name": "c626d2131933b87f91e0a88a2bbba75a"}, {"is_disabled": 0, "is_reserved": 0, "fusion_lat": 0.0, "lat": 38.903553, "fusion_lon": 0.0, "rental_uris": {"ios": "https://dc.lft.to/lastmile_qr_scan", "android": "https://dc.lft.to/lastmile_qr_scan"}, "lon": -77.0292185, "bike_id": "67df307db9a54145d38c37ab6004df9b", "type": "electric_scooter", "name": "67df307db9a54145d38c37ab6004df9b"}, {"is_disabled": 0, "is_reserved": 0, "fusion_lat": 0.0, "lat": 38.927732166666665, "fusion_lon": 0.0, "rental_uris": {"ios": "https://dc.lft.to/lastmile_qr_scan", "android": "https://dc.lft.to/lastmile_qr_scan"}, "lon": -77.02793366666667, "bike_id": "1417de2731fa33d737a5859f31ec5414", "type": "electric_scooter", "name": "1417de2731fa33d737a5859f31ec5414"}, {"is_disabled": 0, "is_reserved": 0, "fusion_lat": 0.0, "lat": 38.91875366666667, "fusion_lon": 0.0, "rental_uris": {"ios": "https://dc.lft.to/lastmile_qr_scan", "android": "https://dc.lft.to/lastmile_qr_scan"}, "lon": -77.03557216666667, "bike_id": "373d6d05fe71a49dcd6764874f20e8ed", "type": "electric_scooter", "name": "373d6d05fe71a49dcd6764874f20e8ed"}, {"is_disabled": 0, "is_reserved": 0, "fusion_lat": 0.0, "lat": 38.9297215, "fusion_lon": 0.0, "rental_uris": {"ios": "https://dc.lft.to/lastmile_qr_scan", "android": "https://dc.lft.to/lastmile_qr_scan"}, "lon": -77.03073233333333, "bike_id": "debe00296ea20d62bba22d5f3bb6d0c7", "type": "electric_scooter", "name": "debe00296ea20d62bba22d5f3bb6d0c7"}, {"is_disabled": 0, "is_reserved": 0, "fusion_lat": 0.0, "lat": 38.899452, "fusion_lon": 0.0, "rental_uris": {"ios": "https://dc.lft.to/lastmile_qr_scan", "android": "https://dc.lft.to/lastmile_qr_scan"}, "lon": -77.05054333333334, "bike_id": "e64b4c195ad87a81416901454d24105e", "type": "electric_scooter", "name": "e64b4c195ad87a81416901454d24105e"}, {"is_disabled": 0, "is_reserved": 0, "fusion_lat": 0.0, "lat": 38.9108325, "fusion_lon": 0.0, "rental_uris": {"ios": "https://dc.lft.to/lastmile_qr_scan", "android": "https://dc.lft.to/lastmile_qr_scan"}, "lon": -77.02191383333333, "bike_id": "c077474cebd1c3669aceb75a77f5f0bd", "type": "electric_scooter", "name": "c077474cebd1c3669aceb75a77f5f0bd"}, {"is_disabled": 0, "is_reserved": 0, "fusion_lat": 0.0, "lat": 38.91130116666667, "fusion_lon": 0.0, "rental_uris": {"ios": "https://dc.lft.to/lastmile_qr_scan", "android": "https://dc.lft.to/lastmile_qr_scan"}, "lon": -76.99744366666667, "bike_id": "07a067cca9da02744bc4c9a0bb5986dc", "type": "electric_scooter", "name": "07a067cca9da02744bc4c9a0bb5986dc"}, {"is_disabled": 0, "is_reserved": 0, "fusion_lat": 0.0, "lat": 38.905049, "fusion_lon": 0.0, "rental_uris": {"ios": "https://dc.lft.to/lastmile_qr_scan", "android": "https://dc.lft.to/lastmile_qr_scan"}, "lon": -77.06115416666667, "bike_id": "b32aea459887657bab2d7b13bd74a4b1", "type": "electric_scooter", "name": "b32aea459887657bab2d7b13bd74a4b1"}, {"is_disabled": 0, "is_reserved": 0, "fusion_lat": 0.0, "lat": 38.967813666666665, "fusion_lon": 0.0, "rental_uris": {"ios": "https://dc.lft.to/lastmile_qr_scan", "android": "https://dc.lft.to/lastmile_qr_scan"}, "lon": -76.996503, "bike_id": "e0887ec6961415e72c13d8e595d84131", "type": "electric_bike", "name": "e0887ec6961415e72c13d8e595d84131"}, {"is_disabled": 0, "is_reserved": 0, "fusion_lat": 0.0, "lat": 38.89869866666667, "fusion_lon": 0.0, "rental_uris": {"ios": "https://dc.lft.to/lastmile_qr_scan", "android": "https://dc.lft.to/lastmile_qr_scan"}, "lon": -76.93139916666667, "bike_id": "f4bfe4930cb9b3086f48241166b07012", "type": "electric_scooter", "name": "f4bfe4930cb9b3086f48241166b07012"}, {"is_disabled": 0, "is_reserved": 0, "fusion_lat": 0.0, "lat": 38.905339, "fusion_lon": 0.0, "rental_uris": {"ios": "https://dc.lft.to/lastmile_qr_scan", "android": "https://dc.lft.to/lastmile_qr_scan"}, "lon": -77.0500015, "bike_id": "8a4c57eb3e5a087ebcb4722b6499e23d", "type": "electric_scooter", "name": "8a4c57eb3e5a087ebcb4722b6499e23d"}, {"is_disabled": 0, "is_reserved": 0, "fusion_lat": 0.0, "lat": 38.896073666666666, "fusion_lon": 0.0, "rental_uris": {"ios": "https://dc.lft.to/lastmile_qr_scan", "android": "https://dc.lft.to/lastmile_qr_scan"}, "lon": -77.003369, "bike_id": "45747d46264e561e00f9716a7ede4ff8", "type": "electric_scooter", "name": "45747d46264e561e00f9716a7ede4ff8"}, {"is_disabled": 0, "is_reserved": 0, "fusion_lat": 0.0, "lat": 38.9374625, "fusion_lon": 0.0, "rental_uris": {"ios": "https://dc.lft.to/lastmile_qr_scan", "android": "https://dc.lft.to/lastmile_qr_scan"}, "lon": -77.0343525, "bike_id": "282b7c6d7363912d89f0d92913a70d54", "type": "electric_scooter", "name": "282b7c6d7363912d89f0d92913a70d54"}, {"is_disabled": 0, "is_reserved": 0, "fusion_lat": 0.0, "lat": 38.94923416666666, "fusion_lon": 0.0, "rental_uris": {"ios": "https://dc.lft.to/lastmile_qr_scan", "android": "https://dc.lft.to/lastmile_qr_scan"}, "lon": -77.02318133333333, "bike_id": "3b8e7cbd34d936e189963da57e6c5210", "type": "electric_scooter", "name": "3b8e7cbd34d936e189963da57e6c5210"}, {"is_disabled": 0, "is_reserved": 0, "fusion_lat": 0.0, "lat": 38.89223833333333, "fusion_lon": 0.0, "rental_uris": {"ios": "https://dc.lft.to/lastmile_qr_scan", "android": "https://dc.lft.to/lastmile_qr_scan"}, "lon": -77.03325133333334, "bike_id": "075600d903aded08b0a2be45ca7b4523", "type": "electric_bike", "name": "075600d903aded08b0a2be45ca7b4523"}, {"is_disabled": 0, "is_reserved": 0, "fusion_lat": 0.0, "lat": 38.902718, "fusion_lon": 0.0, "rental_uris": {"ios": "https://dc.lft.to/lastmile_qr_scan", "android": "https://dc.lft.to/lastmile_qr_scan"}, "lon": -77.03919483333334, "bike_id": "2fba33936d5cfdd437ee131e94fb1245", "type": "electric_scooter", "name": "2fba33936d5cfdd437ee131e94fb1245"}, {"is_disabled": 0, "is_reserved": 0, "fusion_lat": 0.0, "lat": 38.93077366666667, "fusion_lon": 0.0, "rental_uris": {"ios": "https://dc.lft.to/lastmile_qr_scan", "android": "https://dc.lft.to/lastmile_qr_scan"}, "lon": -77.02337566666667, "bike_id": "58300231f32f9f8a3ab2fc8a0a794fb0", "type": "electric_scooter", "name": "58300231f32f9f8a3ab2fc8a0a794fb0"}, {"is_disabled": 0, "is_reserved": 0, "fusion_lat": 0.0, "lat": 38.885428166666664, "fusion_lon": 0.0, "rental_uris": {"ios": "https://dc.lft.to/lastmile_qr_scan", "android": "https://dc.lft.to/lastmile_qr_scan"}, "lon": -76.978898, "bike_id": "c9a204985b2ee8ed65960ae200ef8b35", "type": "electric_scooter", "name": "c9a204985b2ee8ed65960ae200ef8b35"}, {"is_disabled": 0, "is_reserved": 0, "fusion_lat": 0.0, "lat": 38.9642715, "fusion_lon": 0.0, "rental_uris": {"ios": "https://dc.lft.to/lastmile_qr_scan", "android": "https://dc.lft.to/lastmile_qr_scan"}, "lon": -77.074253, "bike_id": "4248cf4e69a44802cf74ac0256657d20", "type": "electric_scooter", "name": "4248cf4e69a44802cf74ac0256657d20"}, {"is_disabled": 0, "is_reserved": 0, "fusion_lat": 0.0, "lat": 38.85716633333333, "fusion_lon": 0.0, "rental_uris": {"ios": "https://dc.lft.to/lastmile_qr_scan", "android": "https://dc.lft.to/lastmile_qr_scan"}, "lon": -76.9809955, "bike_id": "e376a678b5dd12086cd6355a7d7425fa", "type": "electric_scooter", "name": "e376a678b5dd12086cd6355a7d7425fa"}, {"is_disabled": 0, "is_reserved": 0, "fusion_lat": 0.0, "lat": 38.834095833333336, "fusion_lon": 0.0, "rental_uris": {"ios": "https://dc.lft.to/lastmile_qr_scan", "android": "https://dc.lft.to/lastmile_qr_scan"}, "lon": -77.04995083333333, "bike_id": "01f48ddc3385cd409eed501e519d227a", "type": "electric_bike", "name": "01f48ddc3385cd409eed501e519d227a"}, {"is_disabled": 0, "is_reserved": 0, "fusion_lat": 0.0, "lat": 38.886197, "fusion_lon": 0.0, "rental_uris": {"ios": "https://dc.lft.to/lastmile_qr_scan", "android": "https://dc.lft.to/lastmile_qr_scan"}, "lon": -76.92633033333334, "bike_id": "430d6a9bb53ac209d068550222f1ac02", "type": "electric_scooter", "name": "430d6a9bb53ac209d068550222f1ac02"}, {"is_disabled": 0, "is_reserved": 0, "fusion_lat": 0.0, "lat": 38.927560666666665, "fusion_lon": 0.0, "rental_uris": {"ios": "https://dc.lft.to/lastmile_qr_scan", "android": "https://dc.lft.to/lastmile_qr_scan"}, "lon": -77.052639, "bike_id": "debcffd8bffad76bb8303d40faa03035", "type": "electric_scooter", "name": "debcffd8bffad76bb8303d40faa03035"}, {"is_disabled": 0, "is_reserved": 0, "fusion_lat": 0.0, "lat": 38.9051425, "fusion_lon": 0.0, "rental_uris": {"ios": "https://dc.lft.to/lastmile_qr_scan", "android": "https://dc.lft.to/lastmile_qr_scan"}, "lon": -76.95197666666667, "bike_id": "214d29a66145fcedc9c024fcb2bf969f", "type": "electric_scooter", "name": "214d29a66145fcedc9c024fcb2bf969f"}, {"is_disabled": 0, "is_reserved": 0, "fusion_lat": 0.0, "lat": 38.91669566666667, "fusion_lon": 0.0, "rental_uris": {"ios": "https://dc.lft.to/lastmile_qr_scan", "android": "https://dc.lft.to/lastmile_qr_scan"}, "lon": -77.0469655, "bike_id": "3b496ad5b90ee308d4cbd45cf02ec8a9", "type": "electric_bike", "name": "3b496ad5b90ee308d4cbd45cf02ec8a9"}, {"is_disabled": 0, "is_reserved": 0, "fusion_lat": 0.0, "lat": 38.955904, "fusion_lon": 0.0, "rental_uris": {"ios": "https://dc.lft.to/lastmile_qr_scan", "android": "https://dc.lft.to/lastmile_qr_scan"}, "lon": -77.01782666666666, "bike_id": "9193a3779bc09309bc1cad5abc96d68c", "type": "electric_scooter", "name": "9193a3779bc09309bc1cad5abc96d68c"}, {"is_disabled": 0, "is_reserved": 0, "fusion_lat": 0.0, "lat": 38.89519266666667, "fusion_lon": 0.0, "rental_uris": {"ios": "https://dc.lft.to/lastmile_qr_scan", "android": "https://dc.lft.to/lastmile_qr_scan"}, "lon": -76.981082, "bike_id": "58acfcbdf537bab75f0dc41dfdfa202a", "type": "electric_scooter", "name": "58acfcbdf537bab75f0dc41dfdfa202a"}, {"is_disabled": 0, "is_reserved": 0, "fusion_lat": 0.0, "lat": 38.92197433333333, "fusion_lon": 0.0, "rental_uris": {"ios": "https://dc.lft.to/lastmile_qr_scan", "android": "https://dc.lft.to/lastmile_qr_scan"}, "lon": -77.0204435, "bike_id": "7804a284a07788b9d73f039320d1419b", "type": "electric_scooter", "name": "7804a284a07788b9d73f039320d1419b"}, {"is_disabled": 0, "is_reserved": 0, "fusion_lat": 0.0, "lat": 38.9012015, "fusion_lon": 0.0, "rental_uris": {"ios": "https://dc.lft.to/lastmile_qr_scan", "android": "https://dc.lft.to/lastmile_qr_scan"}, "lon": -76.98117883333333, "bike_id": "35df1720fa6dbcd974e27136ee35a4c3", "type": "electric_scooter", "name": "35df1720fa6dbcd974e27136ee35a4c3"}, {"is_disabled": 0, "is_reserved": 0, "fusion_lat": 0.0, "lat": 38.920513166666666, "fusion_lon": 0.0, "rental_uris": {"ios": "https://dc.lft.to/lastmile_qr_scan", "android": "https://dc.lft.to/lastmile_qr_scan"}, "lon": -77.0312095, "bike_id": "1665045b77f8bd325cf19104f0f100fd", "type": "electric_scooter", "name": "1665045b77f8bd325cf19104f0f100fd"}, {"is_disabled": 0, "is_reserved": 0, "fusion_lat": 0.0, "lat": 39.02649516666666, "fusion_lon": 0.0, "rental_uris": {"ios": "https://dc.lft.to/lastmile_qr_scan", "android": "https://dc.lft.to/lastmile_qr_scan"}, "lon": -77.03685766666666, "bike_id": "ec564cc7a60f4e807337088208df5b9f", "type": "electric_bike", "name": "ec564cc7a60f4e807337088208df5b9f"}, {"is_disabled": 0, "is_reserved": 0, "fusion_lat": 0.0, "lat": 38.91414183333333, "fusion_lon": 0.0, "rental_uris": {"ios": "https://dc.lft.to/lastmile_qr_scan", "android": "https://dc.lft.to/lastmile_qr_scan"}, "lon": -77.05211383333334, "bike_id": "139daef8890458a298ddcf530d2acdc9", "type": "electric_scooter", "name": "139daef8890458a298ddcf530d2acdc9"}, {"is_disabled": 0, "is_reserved": 0, "fusion_lat": 0.0, "lat": 38.901412666666666, "fusion_lon": 0.0, "rental_uris": {"ios": "https://dc.lft.to/lastmile_qr_scan", "android": "https://dc.lft.to/lastmile_qr_scan"}, "lon": -76.97408566666667, "bike_id": "a8ea0dcbdf222ef68d3cfc319a8cc243", "type": "electric_scooter", "name": "a8ea0dcbdf222ef68d3cfc319a8cc243"}, {"is_disabled": 0, "is_reserved": 0, "fusion_lat": 0.0, "lat": 38.943296333333336, "fusion_lon": 0.0, "rental_uris": {"ios": "https://dc.lft.to/lastmile_qr_scan", "android": "https://dc.lft.to/lastmile_qr_scan"}, "lon": -77.02690466666667, "bike_id": "2e00669cf2415e112864c93ab38e11ab", "type": "electric_scooter", "name": "2e00669cf2415e112864c93ab38e11ab"}, {"is_disabled": 0, "is_reserved": 0, "fusion_lat": 0.0, "lat": 38.896869333333335, "fusion_lon": 0.0, "rental_uris": {"ios": "https://dc.lft.to/lastmile_qr_scan", "android": "https://dc.lft.to/lastmile_qr_scan"}, "lon": -77.02400666666666, "bike_id": "6c6478dce7f58ad89d829a706c69b27d", "type": "electric_bike", "name": "6c6478dce7f58ad89d829a706c69b27d"}, {"is_disabled": 0, "is_reserved": 0, "fusion_lat": 0.0, "lat": 38.89862166666666, "fusion_lon": 0.0, "rental_uris": {"ios": "https://dc.lft.to/lastmile_qr_scan", "android": "https://dc.lft.to/lastmile_qr_scan"}, "lon": -76.94639583333333, "bike_id": "6a7a4bd50934c0ae5610f1fdb243007a", "type": "electric_scooter", "name": "6a7a4bd50934c0ae5610f1fdb243007a"}, {"is_disabled": 0, "is_reserved": 0, "fusion_lat": 0.0, "lat": 38.896874833333335, "fusion_lon": 0.0, "rental_uris": {"ios": "https://dc.lft.to/lastmile_qr_scan", "android": "https://dc.lft.to/lastmile_qr_scan"}, "lon": -77.05146966666666, "bike_id": "0bfb11e06a0e3e80b5e758875d2b3d0a", "type": "electric_scooter", "name": "0bfb11e06a0e3e80b5e758875d2b3d0a"}, {"is_disabled": 0, "is_reserved": 0, "fusion_lat": 0.0, "lat": 38.9247785, "fusion_lon": 0.0, "rental_uris": {"ios": "https://dc.lft.to/lastmile_qr_scan", "android": "https://dc.lft.to/lastmile_qr_scan"}, "lon": -77.05100916666666, "bike_id": "23f4f83dc81cc3f4092f7db48494aa37", "type": "electric_scooter", "name": "23f4f83dc81cc3f4092f7db48494aa37"}, {"is_disabled": 0, "is_reserved": 0, "fusion_lat": 0.0, "lat": 38.90559016666667, "fusion_lon": 0.0, "rental_uris": {"ios": "https://dc.lft.to/lastmile_qr_scan", "android": "https://dc.lft.to/lastmile_qr_scan"}, "lon": -77.00587, "bike_id": "7afbaa8d06af44375c54bcadc09a1f86", "type": "electric_scooter", "name": "7afbaa8d06af44375c54bcadc09a1f86"}, {"is_disabled": 0, "is_reserved": 0, "fusion_lat": 0.0, "lat": 38.898179999999996, "fusion_lon": 0.0, "rental_uris": {"ios": "https://dc.lft.to/lastmile_qr_scan", "android": "https://dc.lft.to/lastmile_qr_scan"}, "lon": -77.002116, "bike_id": "8a20c5136268d56173673c7c764032fa", "type": "electric_scooter", "name": "8a20c5136268d56173673c7c764032fa"}, {"is_disabled": 0, "is_reserved": 0, "fusion_lat": 0.0, "lat": 38.898304833333334, "fusion_lon": 0.0, "rental_uris": {"ios": "https://dc.lft.to/lastmile_qr_scan", "android": "https://dc.lft.to/lastmile_qr_scan"}, "lon": -76.94632833333333, "bike_id": "d9791e52e94fe118d29cc648688faf20", "type": "electric_scooter", "name": "d9791e52e94fe118d29cc648688faf20"}, {"is_disabled": 0, "is_reserved": 0, "fusion_lat": 0.0, "lat": 38.91403916666667, "fusion_lon": 0.0, "rental_uris": {"ios": "https://dc.lft.to/lastmile_qr_scan", "android": "https://dc.lft.to/lastmile_qr_scan"}, "lon": -77.01220033333334, "bike_id": "52102b6dceb4490a71a6a831c0bccccb", "type": "electric_scooter", "name": "52102b6dceb4490a71a6a831c0bccccb"}, {"is_disabled": 0, "is_reserved": 0, "fusion_lat": 0.0, "lat": 38.87069183333333, "fusion_lon": 0.0, "rental_uris": {"ios": "https://dc.lft.to/lastmile_qr_scan", "android": "https://dc.lft.to/lastmile_qr_scan"}, "lon": -76.97939650000001, "bike_id": "823e47962f7f9419ab589210637a86aa", "type": "electric_scooter", "name": "823e47962f7f9419ab589210637a86aa"}, {"is_disabled": 0, "is_reserved": 0, "fusion_lat": 0.0, "lat": 38.93870416666667, "fusion_lon": 0.0, "rental_uris": {"ios": "https://dc.lft.to/lastmile_qr_scan", "android": "https://dc.lft.to/lastmile_qr_scan"}, "lon": -77.03042366666666, "bike_id": "5ce482fdbca9324d072a9cb6633fa4f1", "type": "electric_scooter", "name": "5ce482fdbca9324d072a9cb6633fa4f1"}, {"is_disabled": 0, "is_reserved": 0, "fusion_lat": 0.0, "lat": 38.915292666666666, "fusion_lon": 0.0, "rental_uris": {"ios": "https://dc.lft.to/lastmile_qr_scan", "android": "https://dc.lft.to/lastmile_qr_scan"}, "lon": -76.98366333333334, "bike_id": "f698291e6200efaceb29a2a35705f9ac", "type": "electric_scooter", "name": "f698291e6200efaceb29a2a35705f9ac"}, {"is_disabled": 0, "is_reserved": 0, "fusion_lat": 0.0, "lat": 38.95185216666667, "fusion_lon": 0.0, "rental_uris": {"ios": "https://dc.lft.to/lastmile_qr_scan", "android": "https://dc.lft.to/lastmile_qr_scan"}, "lon": -77.0261495, "bike_id": "6ea2b44488319d8ecceb8f1f0ef31275", "type": "electric_scooter", "name": "6ea2b44488319d8ecceb8f1f0ef31275"}, {"is_disabled": 0, "is_reserved": 0, "fusion_lat": 0.0, "lat": 38.889730666666665, "fusion_lon": 0.0, "rental_uris": {"ios": "https://dc.lft.to/lastmile_qr_scan", "android": "https://dc.lft.to/lastmile_qr_scan"}, "lon": -76.98179583333334, "bike_id": "107ef6aa490bde6ce814243b1336ba89", "type": "electric_scooter", "name": "107ef6aa490bde6ce814243b1336ba89"}, {"is_disabled": 0, "is_reserved": 0, "fusion_lat": 0.0, "lat": 38.91179316666667, "fusion_lon": 0.0, "rental_uris": {"ios": "https://dc.lft.to/lastmile_qr_scan", "android": "https://dc.lft.to/lastmile_qr_scan"}, "lon": -77.01207233333334, "bike_id": "e5d1e4b7295ad8fb7efafb6f2f214c78", "type": "electric_scooter", "name": "e5d1e4b7295ad8fb7efafb6f2f214c78"}, {"is_disabled": 0, "is_reserved": 0, "fusion_lat": 0.0, "lat": 38.9180825, "fusion_lon": 0.0, "rental_uris": {"ios": "https://dc.lft.to/lastmile_qr_scan", "android": "https://dc.lft.to/lastmile_qr_scan"}, "lon": -77.00004066666666, "bike_id": "62c4b6c902a3a3fbf519975ae0871c53", "type": "electric_scooter", "name": "62c4b6c902a3a3fbf519975ae0871c53"}, {"is_disabled": 0, "is_reserved": 0, "fusion_lat": 0.0, "lat": 38.88843333333333, "fusion_lon": 0.0, "rental_uris": {"ios": "https://dc.lft.to/lastmile_qr_scan", "android": "https://dc.lft.to/lastmile_qr_scan"}, "lon": -77.04902483333333, "bike_id": "bc07a90d06733d2521eeb7f36bb91cde", "type": "electric_scooter", "name": "bc07a90d06733d2521eeb7f36bb91cde"}, {"is_disabled": 0, "is_reserved": 0, "fusion_lat": 0.0, "lat": 38.92432483333333, "fusion_lon": 0.0, "rental_uris": {"ios": "https://dc.lft.to/lastmile_qr_scan", "android": "https://dc.lft.to/lastmile_qr_scan"}, "lon": -77.01947283333334, "bike_id": "7feb931ae1e4c85e1b3926a39777a6a3", "type": "electric_scooter", "name": "7feb931ae1e4c85e1b3926a39777a6a3"}, {"is_disabled": 0, "is_reserved": 0, "fusion_lat": 0.0, "lat": 38.89936633333333, "fusion_lon": 0.0, "rental_uris": {"ios": "https://dc.lft.to/lastmile_qr_scan", "android": "https://dc.lft.to/lastmile_qr_scan"}, "lon": -76.9376115, "bike_id": "013df43030fb04e93127ee0e15cb8ad3", "type": "electric_scooter", "name": "013df43030fb04e93127ee0e15cb8ad3"}, {"is_disabled": 0, "is_reserved": 0, "fusion_lat": 0.0, "lat": 38.9049405, "fusion_lon": 0.0, "rental_uris": {"ios": "https://dc.lft.to/lastmile_qr_scan", "android": "https://dc.lft.to/lastmile_qr_scan"}, "lon": -77.02956933333333, "bike_id": "2f8fac9ff76d4143b61473cb49cc3307", "type": "electric_scooter", "name": "2f8fac9ff76d4143b61473cb49cc3307"}, {"is_disabled": 0, "is_reserved": 0, "fusion_lat": 0.0, "lat": 38.88879266666667, "fusion_lon": 0.0, "rental_uris": {"ios": "https://dc.lft.to/lastmile_qr_scan", "android": "https://dc.lft.to/lastmile_qr_scan"}, "lon": -77.00183666666666, "bike_id": "d6b4c87b9208c2480c36b1374cad3433", "type": "electric_scooter", "name": "d6b4c87b9208c2480c36b1374cad3433"}, {"is_disabled": 0, "is_reserved": 0, "fusion_lat": 0.0, "lat": 38.91744116666667, "fusion_lon": 0.0, "rental_uris": {"ios": "https://dc.lft.to/lastmile_qr_scan", "android": "https://dc.lft.to/lastmile_qr_scan"}, "lon": -77.01083616666666, "bike_id": "e6c707b75fdbd7d9c385f4dc72da65dc", "type": "electric_scooter", "name": "e6c707b75fdbd7d9c385f4dc72da65dc"}, {"is_disabled": 0, "is_reserved": 0, "fusion_lat": 0.0, "lat": 38.87083166666667, "fusion_lon": 0.0, "rental_uris": {"ios": "https://dc.lft.to/lastmile_qr_scan", "android": "https://dc.lft.to/lastmile_qr_scan"}, "lon": -77.01078933333334, "bike_id": "be239cc29fd89c18eebd5cfb4f07bbdb", "type": "electric_scooter", "name": "be239cc29fd89c18eebd5cfb4f07bbdb"}, {"is_disabled": 0, "is_reserved": 0, "fusion_lat": 0.0, "lat": 38.876260333333335, "fusion_lon": 0.0, "rental_uris": {"ios": "https://dc.lft.to/lastmile_qr_scan", "android": "https://dc.lft.to/lastmile_qr_scan"}, "lon": -77.00213966666666, "bike_id": "6cc739f3eefd58237b488389bba11e93", "type": "electric_scooter", "name": "6cc739f3eefd58237b488389bba11e93"}, {"is_disabled": 0, "is_reserved": 0, "fusion_lat": 0.0, "lat": 38.92824866666667, "fusion_lon": 0.0, "rental_uris": {"ios": "https://dc.lft.to/lastmile_qr_scan", "android": "https://dc.lft.to/lastmile_qr_scan"}, "lon": -77.0597175, "bike_id": "bacd86c4158df7929009c3c03f240f75", "type": "electric_bike", "name": "bacd86c4158df7929009c3c03f240f75"}, {"is_disabled": 0, "is_reserved": 0, "fusion_lat": 0.0, "lat": 38.907197333333336, "fusion_lon": 0.0, "rental_uris": {"ios": "https://dc.lft.to/lastmile_qr_scan", "android": "https://dc.lft.to/lastmile_qr_scan"}, "lon": -77.02563516666666, "bike_id": "e8a44659bdb47fd927020bc11c1d58b1", "type": "electric_scooter", "name": "e8a44659bdb47fd927020bc11c1d58b1"}, {"is_disabled": 0, "is_reserved": 0, "fusion_lat": 0.0, "lat": 38.918227, "fusion_lon": 0.0, "rental_uris": {"ios": "https://dc.lft.to/lastmile_qr_scan", "android": "https://dc.lft.to/lastmile_qr_scan"}, "lon": -77.01209866666666, "bike_id": "aecf0d18b8bf6963d627c260869c2ff0", "type": "electric_scooter", "name": "aecf0d18b8bf6963d627c260869c2ff0"}, {"is_disabled": 0, "is_reserved": 0, "fusion_lat": 0.0, "lat": 38.92345, "fusion_lon": 0.0, "rental_uris": {"ios": "https://dc.lft.to/lastmile_qr_scan", "android": "https://dc.lft.to/lastmile_qr_scan"}, "lon": -77.02446566666667, "bike_id": "52f0d0513288ce1b5a5d22263705fba1", "type": "electric_scooter", "name": "52f0d0513288ce1b5a5d22263705fba1"}, {"is_disabled": 0, "is_reserved": 0, "fusion_lat": 0.0, "lat": 38.88380983333333, "fusion_lon": 0.0, "rental_uris": {"ios": "https://dc.lft.to/lastmile_qr_scan", "android": "https://dc.lft.to/lastmile_qr_scan"}, "lon": -77.02997716666667, "bike_id": "cb39ff48f5f528cf54b99153f6b47d43", "type": "electric_scooter", "name": "cb39ff48f5f528cf54b99153f6b47d43"}, {"is_disabled": 0, "is_reserved": 0, "fusion_lat": 0.0, "lat": 38.915633166666666, "fusion_lon": 0.0, "rental_uris": {"ios": "https://dc.lft.to/lastmile_qr_scan", "android": "https://dc.lft.to/lastmile_qr_scan"}, "lon": -77.03631766666666, "bike_id": "2f10ab44781f72ac26c8d7ce9ad7b0e5", "type": "electric_scooter", "name": "2f10ab44781f72ac26c8d7ce9ad7b0e5"}, {"is_disabled": 0, "is_reserved": 0, "fusion_lat": 0.0, "lat": 38.929083166666665, "fusion_lon": 0.0, "rental_uris": {"ios": "https://dc.lft.to/lastmile_qr_scan", "android": "https://dc.lft.to/lastmile_qr_scan"}, "lon": -77.05979866666667, "bike_id": "4e5b3cde3a10392b4c14d9fbed65aa8b", "type": "electric_scooter", "name": "4e5b3cde3a10392b4c14d9fbed65aa8b"}, {"is_disabled": 0, "is_reserved": 0, "fusion_lat": 0.0, "lat": 38.93856916666667, "fusion_lon": 0.0, "rental_uris": {"ios": "https://dc.lft.to/lastmile_qr_scan", "android": "https://dc.lft.to/lastmile_qr_scan"}, "lon": -76.994312, "bike_id": "61868ce43443e9b913f6bc266c4062a9", "type": "electric_scooter", "name": "61868ce43443e9b913f6bc266c4062a9"}, {"is_disabled": 0, "is_reserved": 0, "fusion_lat": 0.0, "lat": 38.90242816666667, "fusion_lon": 0.0, "rental_uris": {"ios": "https://dc.lft.to/lastmile_qr_scan", "android": "https://dc.lft.to/lastmile_qr_scan"}, "lon": -77.01437366666667, "bike_id": "381c4b98b31968e5c2347a7ed37caecc", "type": "electric_scooter", "name": "381c4b98b31968e5c2347a7ed37caecc"}, {"is_disabled": 0, "is_reserved": 0, "fusion_lat": 0.0, "lat": 38.93552483333333, "fusion_lon": 0.0, "rental_uris": {"ios": "https://dc.lft.to/lastmile_qr_scan", "android": "https://dc.lft.to/lastmile_qr_scan"}, "lon": -77.07704733333334, "bike_id": "3d5e83d88c6c5415770c5459741e1d22", "type": "electric_scooter", "name": "3d5e83d88c6c5415770c5459741e1d22"}, {"is_disabled": 0, "is_reserved": 0, "fusion_lat": 0.0, "lat": 38.876624166666666, "fusion_lon": 0.0, "rental_uris": {"ios": "https://dc.lft.to/lastmile_qr_scan", "android": "https://dc.lft.to/lastmile_qr_scan"}, "lon": -77.00214566666666, "bike_id": "320f63698c6938994dff8455e1b2ea45", "type": "electric_scooter", "name": "320f63698c6938994dff8455e1b2ea45"}, {"is_disabled": 0, "is_reserved": 0, "fusion_lat": 0.0, "lat": 38.92384366666667, "fusion_lon": 0.0, "rental_uris": {"ios": "https://dc.lft.to/lastmile_qr_scan", "android": "https://dc.lft.to/lastmile_qr_scan"}, "lon": -77.04020766666666, "bike_id": "b31e6d14e2ad5a3c9a87fd3c8620abea", "type": "electric_scooter", "name": "b31e6d14e2ad5a3c9a87fd3c8620abea"}, {"is_disabled": 0, "is_reserved": 0, "fusion_lat": 0.0, "lat": 38.922415666666666, "fusion_lon": 0.0, "rental_uris": {"ios": "https://dc.lft.to/lastmile_qr_scan", "android": "https://dc.lft.to/lastmile_qr_scan"}, "lon": -77.03663, "bike_id": "e5f7d478c9aed691cb0fdd9004445472", "type": "electric_scooter", "name": "e5f7d478c9aed691cb0fdd9004445472"}, {"is_disabled": 0, "is_reserved": 0, "fusion_lat": 0.0, "lat": 38.88375583333333, "fusion_lon": 0.0, "rental_uris": {"ios": "https://dc.lft.to/lastmile_qr_scan", "android": "https://dc.lft.to/lastmile_qr_scan"}, "lon": -76.92370283333334, "bike_id": "3a817bab4ee0e100b4c363fdf92ab0c3", "type": "electric_bike", "name": "3a817bab4ee0e100b4c363fdf92ab0c3"}, {"is_disabled": 0, "is_reserved": 0, "fusion_lat": 0.0, "lat": 38.89256533333333, "fusion_lon": 0.0, "rental_uris": {"ios": "https://dc.lft.to/lastmile_qr_scan", "android": "https://dc.lft.to/lastmile_qr_scan"}, "lon": -77.05023366666667, "bike_id": "6fa6f6a5d491367a4c48d5725d45e216", "type": "electric_scooter", "name": "6fa6f6a5d491367a4c48d5725d45e216"}, {"is_disabled": 0, "is_reserved": 0, "fusion_lat": 0.0, "lat": 38.859025333333335, "fusion_lon": 0.0, "rental_uris": {"ios": "https://dc.lft.to/lastmile_qr_scan", "android": "https://dc.lft.to/lastmile_qr_scan"}, "lon": -77.09552766666667, "bike_id": "799f2e5940fe6edc7b36a9e221e9f095", "type": "electric_bike", "name": "799f2e5940fe6edc7b36a9e221e9f095"}, {"is_disabled": 0, "is_reserved": 0, "fusion_lat": 0.0, "lat": 38.9373795, "fusion_lon": 0.0, "rental_uris": {"ios": "https://dc.lft.to/lastmile_qr_scan", "android": "https://dc.lft.to/lastmile_qr_scan"}, "lon": -77.07359816666667, "bike_id": "637f86754c5ebfc1f51339a64a704680", "type": "electric_scooter", "name": "637f86754c5ebfc1f51339a64a704680"}, {"is_disabled": 0, "is_reserved": 0, "fusion_lat": 0.0, "lat": 38.95703833333334, "fusion_lon": 0.0, "rental_uris": {"ios": "https://dc.lft.to/lastmile_qr_scan", "android": "https://dc.lft.to/lastmile_qr_scan"}, "lon": -77.35973266666667, "bike_id": "864c1345dcbd00cec74dbfeaee12e876", "type": "electric_bike", "name": "864c1345dcbd00cec74dbfeaee12e876"}, {"is_disabled": 0, "is_reserved": 0, "fusion_lat": 0.0, "lat": 39.08433466666666, "fusion_lon": 0.0, "rental_uris": {"ios": "https://dc.lft.to/lastmile_qr_scan", "android": "https://dc.lft.to/lastmile_qr_scan"}, "lon": -76.951406, "bike_id": "b2f7bc0a6aeda742d5efc1a17bc1d16c", "type": "electric_bike", "name": "b2f7bc0a6aeda742d5efc1a17bc1d16c"}, {"is_disabled": 0, "is_reserved": 0, "fusion_lat": 0.0, "lat": 38.883907666666666, "fusion_lon": 0.0, "rental_uris": {"ios": "https://dc.lft.to/lastmile_qr_scan", "android": "https://dc.lft.to/lastmile_qr_scan"}, "lon": -76.93042933333334, "bike_id": "3d59a0faeec7189be3376404035c79fb", "type": "electric_scooter", "name": "3d59a0faeec7189be3376404035c79fb"}, {"is_disabled": 0, "is_reserved": 0, "fusion_lat": 0.0, "lat": 38.884456666666665, "fusion_lon": 0.0, "rental_uris": {"ios": "https://dc.lft.to/lastmile_qr_scan", "android": "https://dc.lft.to/lastmile_qr_scan"}, "lon": -77.00894883333333, "bike_id": "07e31684f41526cd6b78d743c57eb9e6", "type": "electric_scooter", "name": "07e31684f41526cd6b78d743c57eb9e6"}, {"is_disabled": 0, "is_reserved": 0, "fusion_lat": 0.0, "lat": 38.9084115, "fusion_lon": 0.0, "rental_uris": {"ios": "https://dc.lft.to/lastmile_qr_scan", "android": "https://dc.lft.to/lastmile_qr_scan"}, "lon": -77.00077466666667, "bike_id": "1f65fe452f4b80efb922569085cc2c3a", "type": "electric_scooter", "name": "1f65fe452f4b80efb922569085cc2c3a"}, {"is_disabled": 0, "is_reserved": 0, "fusion_lat": 0.0, "lat": 38.90009166666667, "fusion_lon": 0.0, "rental_uris": {"ios": "https://dc.lft.to/lastmile_qr_scan", "android": "https://dc.lft.to/lastmile_qr_scan"}, "lon": -76.97985883333334, "bike_id": "d25dad389ead6319d658dc2aa439def8", "type": "electric_scooter", "name": "d25dad389ead6319d658dc2aa439def8"}, {"is_disabled": 0, "is_reserved": 0, "fusion_lat": 0.0, "lat": 38.91052366666667, "fusion_lon": 0.0, "rental_uris": {"ios": "https://dc.lft.to/lastmile_qr_scan", "android": "https://dc.lft.to/lastmile_qr_scan"}, "lon": -77.02198433333334, "bike_id": "504ff862b7d1847de793e5dac15e6a4b", "type": "electric_scooter", "name": "504ff862b7d1847de793e5dac15e6a4b"}, {"is_disabled": 0, "is_reserved": 0, "fusion_lat": 0.0, "lat": 38.90116833333333, "fusion_lon": 0.0, "rental_uris": {"ios": "https://dc.lft.to/lastmile_qr_scan", "android": "https://dc.lft.to/lastmile_qr_scan"}, "lon": -77.04990116666667, "bike_id": "14413abc5d70a5049557f6026cc9768b", "type": "electric_scooter", "name": "14413abc5d70a5049557f6026cc9768b"}, {"is_disabled": 0, "is_reserved": 0, "fusion_lat": 0.0, "lat": 38.912612, "fusion_lon": 0.0, "rental_uris": {"ios": "https://dc.lft.to/lastmile_qr_scan", "android": "https://dc.lft.to/lastmile_qr_scan"}, "lon": -77.03031183333333, "bike_id": "9a309896f918241b8b00b667e4b25318", "type": "electric_scooter", "name": "9a309896f918241b8b00b667e4b25318"}, {"is_disabled": 0, "is_reserved": 0, "fusion_lat": 0.0, "lat": 38.922355333333336, "fusion_lon": 0.0, "rental_uris": {"ios": "https://dc.lft.to/lastmile_qr_scan", "android": "https://dc.lft.to/lastmile_qr_scan"}, "lon": -77.04021233333333, "bike_id": "827b41f516c4ffcac63d8afa902228e6", "type": "electric_scooter", "name": "827b41f516c4ffcac63d8afa902228e6"}, {"is_disabled": 0, "is_reserved": 0, "fusion_lat": 0.0, "lat": 38.9008125, "fusion_lon": 0.0, "rental_uris": {"ios": "https://dc.lft.to/lastmile_qr_scan", "android": "https://dc.lft.to/lastmile_qr_scan"}, "lon": -77.00643983333333, "bike_id": "92bf08b5396b5853924fbc9736c5eb5d", "type": "electric_scooter", "name": "92bf08b5396b5853924fbc9736c5eb5d"}, {"is_disabled": 0, "is_reserved": 0, "fusion_lat": 0.0, "lat": 38.9025355, "fusion_lon": 0.0, "rental_uris": {"ios": "https://dc.lft.to/lastmile_qr_scan", "android": "https://dc.lft.to/lastmile_qr_scan"}, "lon": -77.018374, "bike_id": "103531d009dc9a07ff662a4085e42e6b", "type": "electric_scooter", "name": "103531d009dc9a07ff662a4085e42e6b"}, {"is_disabled": 0, "is_reserved": 0, "fusion_lat": 0.0, "lat": 38.93130583333333, "fusion_lon": 0.0, "rental_uris": {"ios": "https://dc.lft.to/lastmile_qr_scan", "android": "https://dc.lft.to/lastmile_qr_scan"}, "lon": -77.02346766666666, "bike_id": "f09e60b18dc7f2e9c6f09962eb159689", "type": "electric_scooter", "name": "f09e60b18dc7f2e9c6f09962eb159689"}, {"is_disabled": 0, "is_reserved": 0, "fusion_lat": 0.0, "lat": 38.894278666666665, "fusion_lon": 0.0, "rental_uris": {"ios": "https://dc.lft.to/lastmile_qr_scan", "android": "https://dc.lft.to/lastmile_qr_scan"}, "lon": -77.01085633333334, "bike_id": "3f67884ef1f3142930adc13730f10e59", "type": "electric_scooter", "name": "3f67884ef1f3142930adc13730f10e59"}, {"is_disabled": 0, "is_reserved": 0, "fusion_lat": 0.0, "lat": 38.898316, "fusion_lon": 0.0, "rental_uris": {"ios": "https://dc.lft.to/lastmile_qr_scan", "android": "https://dc.lft.to/lastmile_qr_scan"}, "lon": -77.03339983333333, "bike_id": "770298e5f00cb91e1c8fd71210ea908f", "type": "electric_scooter", "name": "770298e5f00cb91e1c8fd71210ea908f"}, {"is_disabled": 0, "is_reserved": 0, "fusion_lat": 0.0, "lat": 38.947346, "fusion_lon": 0.0, "rental_uris": {"ios": "https://dc.lft.to/lastmile_qr_scan", "android": "https://dc.lft.to/lastmile_qr_scan"}, "lon": -77.01938116666666, "bike_id": "def21bed09612f46f59d074ab9eb5260", "type": "electric_scooter", "name": "def21bed09612f46f59d074ab9eb5260"}, {"is_disabled": 0, "is_reserved": 0, "fusion_lat": 0.0, "lat": 38.896705, "fusion_lon": 0.0, "rental_uris": {"ios": "https://dc.lft.to/lastmile_qr_scan", "android": "https://dc.lft.to/lastmile_qr_scan"}, "lon": -76.93210266666667, "bike_id": "73d73e963e23193ff7892a4d8360cf8a", "type": "electric_scooter", "name": "73d73e963e23193ff7892a4d8360cf8a"}, {"is_disabled": 0, "is_reserved": 0, "fusion_lat": 0.0, "lat": 38.931140166666665, "fusion_lon": 0.0, "rental_uris": {"ios": "https://dc.lft.to/lastmile_qr_scan", "android": "https://dc.lft.to/lastmile_qr_scan"}, "lon": -77.03842683333333, "bike_id": "e528d8793352ee0355e7c84cc86fac77", "type": "electric_scooter", "name": "e528d8793352ee0355e7c84cc86fac77"}, {"is_disabled": 0, "is_reserved": 0, "fusion_lat": 0.0, "lat": 38.8829275, "fusion_lon": 0.0, "rental_uris": {"ios": "https://dc.lft.to/lastmile_qr_scan", "android": "https://dc.lft.to/lastmile_qr_scan"}, "lon": -76.98613816666666, "bike_id": "829ff1d272a0ffa3ada6920ac990cc17", "type": "electric_scooter", "name": "829ff1d272a0ffa3ada6920ac990cc17"}, {"is_disabled": 0, "is_reserved": 0, "fusion_lat": 0.0, "lat": 38.919293833333334, "fusion_lon": 0.0, "rental_uris": {"ios": "https://dc.lft.to/lastmile_qr_scan", "android": "https://dc.lft.to/lastmile_qr_scan"}, "lon": -77.02717216666667, "bike_id": "1b34267458cea8ee2ab385bb950ac018", "type": "electric_scooter", "name": "1b34267458cea8ee2ab385bb950ac018"}, {"is_disabled": 0, "is_reserved": 0, "fusion_lat": 0.0, "lat": 38.868161, "fusion_lon": 0.0, "rental_uris": {"ios": "https://dc.lft.to/lastmile_qr_scan", "android": "https://dc.lft.to/lastmile_qr_scan"}, "lon": -76.98024983333333, "bike_id": "bbe649ba6ac4af53560da242644e14dc", "type": "electric_bike", "name": "bbe649ba6ac4af53560da242644e14dc"}, {"is_disabled": 0, "is_reserved": 0, "fusion_lat": 0.0, "lat": 38.870753666666666, "fusion_lon": 0.0, "rental_uris": {"ios": "https://dc.lft.to/lastmile_qr_scan", "android": "https://dc.lft.to/lastmile_qr_scan"}, "lon": -77.11029483333333, "bike_id": "72978eea4ca1cc8aaae2c127522acce6", "type": "electric_bike", "name": "72978eea4ca1cc8aaae2c127522acce6"}, {"is_disabled": 0, "is_reserved": 0, "fusion_lat": 0.0, "lat": 38.88621533333333, "fusion_lon": 0.0, "rental_uris": {"ios": "https://dc.lft.to/lastmile_qr_scan", "android": "https://dc.lft.to/lastmile_qr_scan"}, "lon": -77.02825116666666, "bike_id": "dbb13bb99db94b980cc0fc378ecd3a13", "type": "electric_scooter", "name": "dbb13bb99db94b980cc0fc378ecd3a13"}, {"is_disabled": 0, "is_reserved": 0, "fusion_lat": 0.0, "lat": 38.8791655, "fusion_lon": 0.0, "rental_uris": {"ios": "https://dc.lft.to/lastmile_qr_scan", "android": "https://dc.lft.to/lastmile_qr_scan"}, "lon": -77.00860366666667, "bike_id": "bebe4a2e97465176dc45b722311c1442", "type": "electric_scooter", "name": "bebe4a2e97465176dc45b722311c1442"}, {"is_disabled": 0, "is_reserved": 0, "fusion_lat": 0.0, "lat": 38.9164545, "fusion_lon": 0.0, "rental_uris": {"ios": "https://dc.lft.to/lastmile_qr_scan", "android": "https://dc.lft.to/lastmile_qr_scan"}, "lon": -77.02412733333334, "bike_id": "6a0167f0d97b8c5fd9a016fb2ac76747", "type": "electric_scooter", "name": "6a0167f0d97b8c5fd9a016fb2ac76747"}, {"is_disabled": 0, "is_reserved": 0, "fusion_lat": 0.0, "lat": 38.938601166666665, "fusion_lon": 0.0, "rental_uris": {"ios": "https://dc.lft.to/lastmile_qr_scan", "android": "https://dc.lft.to/lastmile_qr_scan"}, "lon": -77.0316595, "bike_id": "3e13a6fdffc2e45c65957c610c4b7bf9", "type": "electric_scooter", "name": "3e13a6fdffc2e45c65957c610c4b7bf9"}, {"is_disabled": 0, "is_reserved": 0, "fusion_lat": 0.0, "lat": 38.90145533333333, "fusion_lon": 0.0, "rental_uris": {"ios": "https://dc.lft.to/lastmile_qr_scan", "android": "https://dc.lft.to/lastmile_qr_scan"}, "lon": -77.039518, "bike_id": "4f013c9393d550bba90a12fa4e26f4fe", "type": "electric_scooter", "name": "4f013c9393d550bba90a12fa4e26f4fe"}, {"is_disabled": 0, "is_reserved": 0, "fusion_lat": 0.0, "lat": 38.89219466666667, "fusion_lon": 0.0, "rental_uris": {"ios": "https://dc.lft.to/lastmile_qr_scan", "android": "https://dc.lft.to/lastmile_qr_scan"}, "lon": -77.02776633333333, "bike_id": "cdd41f2250527c6eac90a175f79f1406", "type": "electric_scooter", "name": "cdd41f2250527c6eac90a175f79f1406"}, {"is_disabled": 0, "is_reserved": 0, "fusion_lat": 0.0, "lat": 38.90435516666667, "fusion_lon": 0.0, "rental_uris": {"ios": "https://dc.lft.to/lastmile_qr_scan", "android": "https://dc.lft.to/lastmile_qr_scan"}, "lon": -77.02883083333333, "bike_id": "b4bc8894eb326562d0bd215a31a0b69d", "type": "electric_scooter", "name": "b4bc8894eb326562d0bd215a31a0b69d"}, {"is_disabled": 0, "is_reserved": 0, "fusion_lat": 0.0, "lat": 38.9188595, "fusion_lon": 0.0, "rental_uris": {"ios": "https://dc.lft.to/lastmile_qr_scan", "android": "https://dc.lft.to/lastmile_qr_scan"}, "lon": -77.03492066666666, "bike_id": "f4210472718d86d01b97f86afd2e2e94", "type": "electric_scooter", "name": "f4210472718d86d01b97f86afd2e2e94"}, {"is_disabled": 0, "is_reserved": 0, "fusion_lat": 0.0, "lat": 38.8942835, "fusion_lon": 0.0, "rental_uris": {"ios": "https://dc.lft.to/lastmile_qr_scan", "android": "https://dc.lft.to/lastmile_qr_scan"}, "lon": -77.05598683333334, "bike_id": "a75488e723ea41e2b3cd6e4c0c6dc29c", "type": "electric_scooter", "name": "a75488e723ea41e2b3cd6e4c0c6dc29c"}, {"is_disabled": 0, "is_reserved": 0, "fusion_lat": 0.0, "lat": 38.8951295, "fusion_lon": 0.0, "rental_uris": {"ios": "https://dc.lft.to/lastmile_qr_scan", "android": "https://dc.lft.to/lastmile_qr_scan"}, "lon": -77.02281433333333, "bike_id": "bf93337a8eb53fb6730821964cd05a1b", "type": "electric_scooter", "name": "bf93337a8eb53fb6730821964cd05a1b"}, {"is_disabled": 0, "is_reserved": 0, "fusion_lat": 0.0, "lat": 38.960295333333335, "fusion_lon": 0.0, "rental_uris": {"ios": "https://dc.lft.to/lastmile_qr_scan", "android": "https://dc.lft.to/lastmile_qr_scan"}, "lon": -77.033934, "bike_id": "7bc7ee084e632e169110cebb098c4794", "type": "electric_bike", "name": "7bc7ee084e632e169110cebb098c4794"}, {"is_disabled": 0, "is_reserved": 0, "fusion_lat": 0.0, "lat": 38.920689, "fusion_lon": 0.0, "rental_uris": {"ios": "https://dc.lft.to/lastmile_qr_scan", "android": "https://dc.lft.to/lastmile_qr_scan"}, "lon": -77.0256795, "bike_id": "10ba8175a5a7d0a82f999d493a58ed25", "type": "electric_scooter", "name": "10ba8175a5a7d0a82f999d493a58ed25"}, {"is_disabled": 0, "is_reserved": 0, "fusion_lat": 0.0, "lat": 38.917454, "fusion_lon": 0.0, "rental_uris": {"ios": "https://dc.lft.to/lastmile_qr_scan", "android": "https://dc.lft.to/lastmile_qr_scan"}, "lon": -77.01084883333333, "bike_id": "ac2c68a423536a47613473ca20d4048d", "type": "electric_scooter", "name": "ac2c68a423536a47613473ca20d4048d"}, {"is_disabled": 0, "is_reserved": 0, "fusion_lat": 0.0, "lat": 38.91947316666667, "fusion_lon": 0.0, "rental_uris": {"ios": "https://dc.lft.to/lastmile_qr_scan", "android": "https://dc.lft.to/lastmile_qr_scan"}, "lon": -77.04508566666667, "bike_id": "5e97f4537d4c9b37e4f97b576d3cea8a", "type": "electric_scooter", "name": "5e97f4537d4c9b37e4f97b576d3cea8a"}, {"is_disabled": 0, "is_reserved": 0, "fusion_lat": 0.0, "lat": 38.8950715, "fusion_lon": 0.0, "rental_uris": {"ios": "https://dc.lft.to/lastmile_qr_scan", "android": "https://dc.lft.to/lastmile_qr_scan"}, "lon": -77.02285783333333, "bike_id": "ae455a8c415289be2c9a8be4a5d85589", "type": "electric_scooter", "name": "ae455a8c415289be2c9a8be4a5d85589"}, {"is_disabled": 0, "is_reserved": 0, "fusion_lat": 0.0, "lat": 38.92217483333334, "fusion_lon": 0.0, "rental_uris": {"ios": "https://dc.lft.to/lastmile_qr_scan", "android": "https://dc.lft.to/lastmile_qr_scan"}, "lon": -77.02036766666667, "bike_id": "20e0e1d060d86e28f70d39d96dcb1dd5", "type": "electric_scooter", "name": "20e0e1d060d86e28f70d39d96dcb1dd5"}, {"is_disabled": 0, "is_reserved": 0, "fusion_lat": 0.0, "lat": 38.83591783333333, "fusion_lon": 0.0, "rental_uris": {"ios": "https://dc.lft.to/lastmile_qr_scan", "android": "https://dc.lft.to/lastmile_qr_scan"}, "lon": -76.99017716666667, "bike_id": "81c649e99d73fec5150350f0327a11cf", "type": "electric_bike", "name": "81c649e99d73fec5150350f0327a11cf"}, {"is_disabled": 0, "is_reserved": 0, "fusion_lat": 0.0, "lat": 38.9360865, "fusion_lon": 0.0, "rental_uris": {"ios": "https://dc.lft.to/lastmile_qr_scan", "android": "https://dc.lft.to/lastmile_qr_scan"}, "lon": -77.055933, "bike_id": "ecde4fef159e49e3c23acb6cac7e84ae", "type": "electric_scooter", "name": "ecde4fef159e49e3c23acb6cac7e84ae"}, {"is_disabled": 0, "is_reserved": 0, "fusion_lat": 0.0, "lat": 38.85068616666667, "fusion_lon": 0.0, "rental_uris": {"ios": "https://dc.lft.to/lastmile_qr_scan", "android": "https://dc.lft.to/lastmile_qr_scan"}, "lon": -76.981717, "bike_id": "1650e027f194db02509e530b25b723d8", "type": "electric_bike", "name": "1650e027f194db02509e530b25b723d8"}, {"is_disabled": 0, "is_reserved": 0, "fusion_lat": 0.0, "lat": 38.89499816666667, "fusion_lon": 0.0, "rental_uris": {"ios": "https://dc.lft.to/lastmile_qr_scan", "android": "https://dc.lft.to/lastmile_qr_scan"}, "lon": -76.974114, "bike_id": "c0f439b558734d214c1d95491c8ae505", "type": "electric_scooter", "name": "c0f439b558734d214c1d95491c8ae505"}, {"is_disabled": 0, "is_reserved": 0, "fusion_lat": 0.0, "lat": 38.933985666666665, "fusion_lon": 0.0, "rental_uris": {"ios": "https://dc.lft.to/lastmile_qr_scan", "android": "https://dc.lft.to/lastmile_qr_scan"}, "lon": -77.02613416666667, "bike_id": "fcbaa82bd1148ad0769295ab68aaaec6", "type": "electric_scooter", "name": "fcbaa82bd1148ad0769295ab68aaaec6"}, {"is_disabled": 0, "is_reserved": 0, "fusion_lat": 0.0, "lat": 38.896678, "fusion_lon": 0.0, "rental_uris": {"ios": "https://dc.lft.to/lastmile_qr_scan", "android": "https://dc.lft.to/lastmile_qr_scan"}, "lon": -76.949091, "bike_id": "f36a8a8fd87a88bbcbe6a184d06c5a1c", "type": "electric_scooter", "name": "f36a8a8fd87a88bbcbe6a184d06c5a1c"}, {"is_disabled": 0, "is_reserved": 0, "fusion_lat": 0.0, "lat": 38.90360833333333, "fusion_lon": 0.0, "rental_uris": {"ios": "https://dc.lft.to/lastmile_qr_scan", "android": "https://dc.lft.to/lastmile_qr_scan"}, "lon": -77.01649016666667, "bike_id": "4acf6f65562c6737f3aeb3a443d1f2bf", "type": "electric_scooter", "name": "4acf6f65562c6737f3aeb3a443d1f2bf"}, {"is_disabled": 0, "is_reserved": 0, "fusion_lat": 0.0, "lat": 38.91172433333333, "fusion_lon": 0.0, "rental_uris": {"ios": "https://dc.lft.to/lastmile_qr_scan", "android": "https://dc.lft.to/lastmile_qr_scan"}, "lon": -77.00446766666667, "bike_id": "ccca43e7dce10d102aa28ea05b034ce5", "type": "electric_scooter", "name": "ccca43e7dce10d102aa28ea05b034ce5"}, {"is_disabled": 0, "is_reserved": 0, "fusion_lat": 0.0, "lat": 38.9178455, "fusion_lon": 0.0, "rental_uris": {"ios": "https://dc.lft.to/lastmile_qr_scan", "android": "https://dc.lft.to/lastmile_qr_scan"}, "lon": -77.03447683333333, "bike_id": "d689bb3a75b2dd855b0a7084da5a1e73", "type": "electric_scooter", "name": "d689bb3a75b2dd855b0a7084da5a1e73"}, {"is_disabled": 0, "is_reserved": 0, "fusion_lat": 0.0, "lat": 38.903680333333334, "fusion_lon": 0.0, "rental_uris": {"ios": "https://dc.lft.to/lastmile_qr_scan", "android": "https://dc.lft.to/lastmile_qr_scan"}, "lon": -77.003451, "bike_id": "0f5da842be04d72030d60480ca973f19", "type": "electric_scooter", "name": "0f5da842be04d72030d60480ca973f19"}, {"is_disabled": 0, "is_reserved": 0, "fusion_lat": 0.0, "lat": 38.91840766666667, "fusion_lon": 0.0, "rental_uris": {"ios": "https://dc.lft.to/lastmile_qr_scan", "android": "https://dc.lft.to/lastmile_qr_scan"},