{"data": {"bikes": [{"is_disabled": 0, "rental_uris": {"ios": "https://dc.lft.to/lastmile_qr_scan", "android": "https://dc.lft.to/lastmile_qr_scan"}, "is_reserved": 0, "fusion_lon": 0.0, "lat": 38.89619966666667, "type": "electric_scooter", "name": "25aafe58038ee7486744a2a37402d82f", "bike_id": "25aafe58038ee7486744a2a37402d82f", "fusion_lat": 0.0, "lon": -77.04415833333333}, {"is_disabled": 0, "rental_uris": {"ios": "https://dc.lft.to/lastmile_qr_scan", "android": "https://dc.lft.to/lastmile_qr_scan"}, "is_reserved": 0, "fusion_lon": 0.0, "lat": 38.9104945, "type": "electric_scooter", "name": "30cb8411b50650b02b492c24ec83617f", "bike_id": "30cb8411b50650b02b492c24ec83617f", "fusion_lat": 0.0, "lon": -77.023063}, {"is_disabled": 0, "rental_uris": {"ios": "https://dc.lft.to/lastmile_qr_scan", "android": "https://dc.lft.to/lastmile_qr_scan"}, "is_reserved": 0, "fusion_lon": 0.0, "lat": 38.92475566666667, "type": "electric_scooter", "name": "86143fb8f5c0439bab14251f050db383", "bike_id": "86143fb8f5c0439bab14251f050db383", "fusion_lat": 0.0, "lon": -77.0221535}, {"is_disabled": 0, "rental_uris": {"ios": "https://dc.lft.to/lastmile_qr_scan", "android": "https://dc.lft.to/lastmile_qr_scan"}, "is_reserved": 0, "fusion_lon": 0.0, "lat": 38.87631966666667, "type": "electric_scooter", "name": "46af875c82babac47f72786f16ee5ff1", "bike_id": "46af875c82babac47f72786f16ee5ff1", "fusion_lat": 0.0, "lon": -77.00958166666666}, {"is_disabled": 0, "rental_uris": {"ios": "https://dc.lft.to/lastmile_qr_scan", "android": "https://dc.lft.to/lastmile_qr_scan"}, "is_reserved": 0, "fusion_lon": 0.0, "lat": 38.89389, "type": "electric_scooter", "name": "30ae14e78f9e8f2bfd9d0fb58c7bd4f3", "bike_id": "30ae14e78f9e8f2bfd9d0fb58c7bd4f3", "fusion_lat": 0.0, "lon": -77.04678666666666}, {"is_disabled": 0, "rental_uris": {"ios": "https://dc.lft.to/lastmile_qr_scan", "android": "https://dc.lft.to/lastmile_qr_scan"}, "is_reserved": 0, "fusion_lon": 0.0, "lat": 38.90278683333333, "type": "electric_scooter", "name": "a91c7f7c133cb186e53450c6b59191d2", "bike_id": "a91c7f7c133cb186e53450c6b59191d2", "fusion_lat": 0.0, "lon": -77.03898766666667}, {"is_disabled": 0, "rental_uris": {"ios": "https://dc.lft.to/lastmile_qr_scan", "android": "https://dc.lft.to/lastmile_qr_scan"}, "is_reserved": 0, "fusion_lon": 0.0, "lat": 38.9033635, "type": "electric_scooter", "name": "2c674f346ecc5bcf16d11317c33d1a9e", "bike_id": "2c674f346ecc5bcf16d11317c33d1a9e", "fusion_lat": 0.0, "lon": -77.0318305}, {"is_disabled": 0, "rental_uris": {"ios": "https://dc.lft.to/lastmile_qr_scan", "android": "https://dc.lft.to/lastmile_qr_scan"}, "is_reserved": 0, "fusion_lon": 0.0, "lat": 38.90437266666667, "type": "electric_scooter", "name": "04214aca579e446858606a94029a458a", "bike_id": "04214aca579e446858606a94029a458a", "fusion_lat": 0.0, "lon": -77.02595333333333}, {"is_disabled": 0, "rental_uris": {"ios": "https://dc.lft.to/lastmile_qr_scan", "android": "https://dc.lft.to/lastmile_qr_scan"}, "is_reserved": 0, "fusion_lon": 0.0, "lat": 38.8854995, "type": "electric_scooter", "name": "d16b055f063d2d4917aa44835d7ebd5a", "bike_id": "d16b055f063d2d4917aa44835d7ebd5a", "fusion_lat": 0.0, "lon": -76.9977145}, {"is_disabled": 0, "rental_uris": {"ios": "https://dc.lft.to/lastmile_qr_scan", "android": "https://dc.lft.to/lastmile_qr_scan"}, "is_reserved": 0, "fusion_lon": 0.0, "lat": 38.919948166666664, "type": "electric_scooter", "name": "a88fb0454447711ca149653e2b08c1c2", "bike_id": "a88fb0454447711ca149653e2b08c1c2", "fusion_lat": 0.0, "lon": -77.0178365}, {"is_disabled": 0, "rental_uris": {"ios": "https://dc.lft.to/lastmile_qr_scan", "android": "https://dc.lft.to/lastmile_qr_scan"}, "is_reserved": 0, "fusion_lon": 0.0, "lat": 38.898184, "type": "electric_scooter", "name": "43c9bad17275c7026007a7bd46e74ace", "bike_id": "43c9bad17275c7026007a7bd46e74ace", "fusion_lat": 0.0, "lon": -77.0317065}, {"is_disabled": 0, "rental_uris": {"ios": "https://dc.lft.to/lastmile_qr_scan", "android": "https://dc.lft.to/lastmile_qr_scan"}, "is_reserved": 0, "fusion_lon": 0.0, "lat": 38.9023535, "type": "electric_scooter", "name": "1e03b40e465a95c4d2ca8c4af9731203", "bike_id": "1e03b40e465a95c4d2ca8c4af9731203", "fusion_lat": 0.0, "lon": -77.0020275}, {"is_disabled": 0, "rental_uris": {"ios": "https://dc.lft.to/lastmile_qr_scan", "android": "https://dc.lft.to/lastmile_qr_scan"}, "is_reserved": 0, "fusion_lon": 0.0, "lat": 38.86484433333333, "type": "electric_bike", "name": "bbc87b6daf4b23687df940013f030821", "bike_id": "bbc87b6daf4b23687df940013f030821", "fusion_lat": 0.0, "lon": -76.97761283333334}, {"is_disabled": 0, "rental_uris": {"ios": "https://dc.lft.to/lastmile_qr_scan", "android": "https://dc.lft.to/lastmile_qr_scan"}, "is_reserved": 0, "fusion_lon": 0.0, "lat": 38.900211166666665, "type": "electric_scooter", "name": "89311596f22a9804d3feaae040aa8600", "bike_id": "89311596f22a9804d3feaae040aa8600", "fusion_lat": 0.0, "lon": -77.03983816666667}, {"is_disabled": 0, "rental_uris": {"ios": "https://dc.lft.to/lastmile_qr_scan", "android": "https://dc.lft.to/lastmile_qr_scan"}, "is_reserved": 0, "fusion_lon": 0.0, "lat": 38.93112166666667, "type": "electric_scooter", "name": "2ea8487af5c7040834c6a828189f6f4a", "bike_id": "2ea8487af5c7040834c6a828189f6f4a", "fusion_lat": 0.0, "lon": -77.032864}, {"is_disabled": 0, "rental_uris": {"ios": "https://dc.lft.to/lastmile_qr_scan", "android": "https://dc.lft.to/lastmile_qr_scan"}, "is_reserved": 0, "fusion_lon": 0.0, "lat": 38.89396083333333, "type": "electric_scooter", "name": "97954c0408fb15e486526482daf4f254", "bike_id": "97954c0408fb15e486526482daf4f254", "fusion_lat": 0.0, "lon": -77.04998266666666}, {"is_disabled": 0, "rental_uris": {"ios": "https://dc.lft.to/lastmile_qr_scan", "android": "https://dc.lft.to/lastmile_qr_scan"}, "is_reserved": 0, "fusion_lon": 0.0, "lat": 38.92173183333333, "type": "electric_scooter", "name": "9800111b14e3c5135050632c8ddd6637", "bike_id": "9800111b14e3c5135050632c8ddd6637", "fusion_lat": 0.0, "lon": -77.0203425}, {"is_disabled": 0, "rental_uris": {"ios": "https://dc.lft.to/lastmile_qr_scan", "android": "https://dc.lft.to/lastmile_qr_scan"}, "is_reserved": 0, "fusion_lon": 0.0, "lat": 38.905429833333336, "type": "electric_scooter", "name": "39047dd97e5ea4be643b5a210d2f6d75", "bike_id": "39047dd97e5ea4be643b5a210d2f6d75", "fusion_lat": 0.0, "lon": -77.04192483333334}, {"is_disabled": 0, "rental_uris": {"ios": "https://dc.lft.to/lastmile_qr_scan", "android": "https://dc.lft.to/lastmile_qr_scan"}, "is_reserved": 0, "fusion_lon": 0.0, "lat": 38.90519466666667, "type": "electric_scooter", "name": "90bcb3dbce1bcb08f33f2965c0b7a96e", "bike_id": "90bcb3dbce1bcb08f33f2965c0b7a96e", "fusion_lat": 0.0, "lon": -77.06047166666667}, {"is_disabled": 0, "rental_uris": {"ios": "https://dc.lft.to/lastmile_qr_scan", "android": "https://dc.lft.to/lastmile_qr_scan"}, "is_reserved": 0, "fusion_lon": 0.0, "lat": 38.900281666666665, "type": "electric_scooter", "name": "c9b78d4f8d127fa9f326e5b39fc2dd17", "bike_id": "c9b78d4f8d127fa9f326e5b39fc2dd17", "fusion_lat": 0.0, "lon": -77.05541066666666}, {"is_disabled": 0, "rental_uris": {"ios": "https://dc.lft.to/lastmile_qr_scan", "android": "https://dc.lft.to/lastmile_qr_scan"}, "is_reserved": 0, "fusion_lon": 0.0, "lat": 38.93520183333333, "type": "electric_scooter", "name": "5ff3be128b2bc4ec265402bf4d42fc13", "bike_id": "5ff3be128b2bc4ec265402bf4d42fc13", "fusion_lat": 0.0, "lon": -77.02364866666667}, {"is_disabled": 0, "rental_uris": {"ios": "https://dc.lft.to/lastmile_qr_scan", "android": "https://dc.lft.to/lastmile_qr_scan"}, "is_reserved": 0, "fusion_lon": 0.0, "lat": 38.838673166666666, "type": "electric_bike", "name": "60cc3a790f7bc57dfd3d374e2e2169be", "bike_id": "60cc3a790f7bc57dfd3d374e2e2169be", "fusion_lat": 0.0, "lon": -76.9970705}, {"is_disabled": 0, "rental_uris": {"ios": "https://dc.lft.to/lastmile_qr_scan", "android": "https://dc.lft.to/lastmile_qr_scan"}, "is_reserved": 0, "fusion_lon": 0.0, "lat": 38.90218683333333, "type": "electric_bike", "name": "d8827d20121218866af1a064c881496a", "bike_id": "d8827d20121218866af1a064c881496a", "fusion_lat": 0.0, "lon": -76.9318075}, {"is_disabled": 0, "rental_uris": {"ios": "https://dc.lft.to/lastmile_qr_scan", "android": "https://dc.lft.to/lastmile_qr_scan"}, "is_reserved": 0, "fusion_lon": 0.0, "lat": 38.906808, "type": "electric_scooter", "name": "56db01677f7b5d2e5b1632832197fc94", "bike_id": "56db01677f7b5d2e5b1632832197fc94", "fusion_lat": 0.0, "lon": -76.97936266666666}, {"is_disabled": 0, "rental_uris": {"ios": "https://dc.lft.to/lastmile_qr_scan", "android": "https://dc.lft.to/lastmile_qr_scan"}, "is_reserved": 0, "fusion_lon": 0.0, "lat": 38.924603166666664, "type": "electric_scooter", "name": "255c0e78de67561e77d689925d309c14", "bike_id": "255c0e78de67561e77d689925d309c14", "fusion_lat": 0.0, "lon": -77.03819933333334}, {"is_disabled": 0, "rental_uris": {"ios": "https://dc.lft.to/lastmile_qr_scan", "android": "https://dc.lft.to/lastmile_qr_scan"}, "is_reserved": 0, "fusion_lon": 0.0, "lat": 38.92464433333333, "type": "electric_scooter", "name": "2d236107bdaa1fda2d6e2ad00a0a017a", "bike_id": "2d236107bdaa1fda2d6e2ad00a0a017a", "fusion_lat": 0.0, "lon": -77.02719733333333}, {"is_disabled": 0, "rental_uris": {"ios": "https://dc.lft.to/lastmile_qr_scan", "android": "https://dc.lft.to/lastmile_qr_scan"}, "is_reserved": 0, "fusion_lon": 0.0, "lat": 38.89248716666667, "type": "electric_scooter", "name": "aa4db8f33f8172a9dd73fada3de50f24", "bike_id": "aa4db8f33f8172a9dd73fada3de50f24", "fusion_lat": 0.0, "lon": -77.04666516666667}, {"is_disabled": 0, "rental_uris": {"ios": "https://dc.lft.to/lastmile_qr_scan", "android": "https://dc.lft.to/lastmile_qr_scan"}, "is_reserved": 0, "fusion_lon": 0.0, "lat": 38.8836715, "type": "electric_scooter", "name": "175294cc484585cb57d48791bdf60932", "bike_id": "175294cc484585cb57d48791bdf60932", "fusion_lat": 0.0, "lon": -77.02634633333334}, {"is_disabled": 0, "rental_uris": {"ios": "https://dc.lft.to/lastmile_qr_scan", "android": "https://dc.lft.to/lastmile_qr_scan"}, "is_reserved": 0, "fusion_lon": 0.0, "lat": 38.884910833333336, "type": "electric_scooter", "name": "6967b29ff25e401389cef2af5f2c911b", "bike_id": "6967b29ff25e401389cef2af5f2c911b", "fusion_lat": 0.0, "lon": -77.00711316666667}, {"is_disabled": 0, "rental_uris": {"ios": "https://dc.lft.to/lastmile_qr_scan", "android": "https://dc.lft.to/lastmile_qr_scan"}, "is_reserved": 0, "fusion_lon": 0.0, "lat": 38.924857, "type": "electric_scooter", "name": "df38df118d5b7e66b2d215d5e057fd58", "bike_id": "df38df118d5b7e66b2d215d5e057fd58", "fusion_lat": 0.0, "lon": -77.02165166666667}, {"is_disabled": 0, "rental_uris": {"ios": "https://dc.lft.to/lastmile_qr_scan", "android": "https://dc.lft.to/lastmile_qr_scan"}, "is_reserved": 0, "fusion_lon": 0.0, "lat": 38.93195083333333, "type": "electric_scooter", "name": "6eb4532e7401fc0e0d9e87f71ab26ec2", "bike_id": "6eb4532e7401fc0e0d9e87f71ab26ec2", "fusion_lat": 0.0, "lon": -77.02019066666666}, {"is_disabled": 0, "rental_uris": {"ios": "https://dc.lft.to/lastmile_qr_scan", "android": "https://dc.lft.to/lastmile_qr_scan"}, "is_reserved": 0, "fusion_lon": 0.0, "lat": 38.9001775, "type": "electric_scooter", "name": "d7b11ea0fae09abda6cde4b846c6864d", "bike_id": "d7b11ea0fae09abda6cde4b846c6864d", "fusion_lat": 0.0, "lon": -77.04490833333334}, {"is_disabled": 0, "rental_uris": {"ios": "https://dc.lft.to/lastmile_qr_scan", "android": "https://dc.lft.to/lastmile_qr_scan"}, "is_reserved": 0, "fusion_lon": 0.0, "lat": 38.924757166666666, "type": "electric_scooter", "name": "05ababe82a0dc3c44a56e67fb3e993db", "bike_id": "05ababe82a0dc3c44a56e67fb3e993db", "fusion_lat": 0.0, "lon": -77.02194}, {"is_disabled": 0, "rental_uris": {"ios": "https://dc.lft.to/lastmile_qr_scan", "android": "https://dc.lft.to/lastmile_qr_scan"}, "is_reserved": 0, "fusion_lon": 0.0, "lat": 38.921238833333334, "type": "electric_scooter", "name": "2507c6326d1ba5413e8e37230de89823", "bike_id": "2507c6326d1ba5413e8e37230de89823", "fusion_lat": 0.0, "lon": -77.02068}, {"is_disabled": 0, "rental_uris": {"ios": "https://dc.lft.to/lastmile_qr_scan", "android": "https://dc.lft.to/lastmile_qr_scan"}, "is_reserved": 0, "fusion_lon": 0.0, "lat": 38.942741, "type": "electric_scooter", "name": "0d1db5f665814d4b9bd205e3c0d4d488", "bike_id": "0d1db5f665814d4b9bd205e3c0d4d488", "fusion_lat": 0.0, "lon": -77.02949366666667}, {"is_disabled": 0, "rental_uris": {"ios": "https://dc.lft.to/lastmile_qr_scan", "android": "https://dc.lft.to/lastmile_qr_scan"}, "is_reserved": 0, "fusion_lon": 0.0, "lat": 38.877499666666665, "type": "electric_scooter", "name": "b0ebc399e35283209185f2ab3dead164", "bike_id": "b0ebc399e35283209185f2ab3dead164", "fusion_lat": 0.0, "lon": -77.01799433333333}, {"is_disabled": 0, "rental_uris": {"ios": "https://dc.lft.to/lastmile_qr_scan", "android": "https://dc.lft.to/lastmile_qr_scan"}, "is_reserved": 0, "fusion_lon": 0.0, "lat": 38.87658033333334, "type": "electric_bike", "name": "149b90cc040de2daa5e1bc89aba17a31", "bike_id": "149b90cc040de2daa5e1bc89aba17a31", "fusion_lat": 0.0, "lon": -77.007598}, {"is_disabled": 0, "rental_uris": {"ios": "https://dc.lft.to/lastmile_qr_scan", "android": "https://dc.lft.to/lastmile_qr_scan"}, "is_reserved": 0, "fusion_lon": 0.0, "lat": 38.908564166666665, "type": "electric_bike", "name": "c34e359ccf067e1ff1ce6c03b336a1e7", "bike_id": "c34e359ccf067e1ff1ce6c03b336a1e7", "fusion_lat": 0.0, "lon": -77.05528783333334}, {"is_disabled": 0, "rental_uris": {"ios": "https://dc.lft.to/lastmile_qr_scan", "android": "https://dc.lft.to/lastmile_qr_scan"}, "is_reserved": 0, "fusion_lon": 0.0, "lat": 38.9312625, "type": "electric_scooter", "name": "18eb7956b7b385cf864698ad43535542", "bike_id": "18eb7956b7b385cf864698ad43535542", "fusion_lat": 0.0, "lon": -77.02824433333333}, {"is_disabled": 0, "rental_uris": {"ios": "https://dc.lft.to/lastmile_qr_scan", "android": "https://dc.lft.to/lastmile_qr_scan"}, "is_reserved": 0, "fusion_lon": 0.0, "lat": 38.89251633333333, "type": "electric_scooter", "name": "156ae46baad49f33a6612a9c6ff8c949", "bike_id": "156ae46baad49f33a6612a9c6ff8c949", "fusion_lat": 0.0, "lon": -77.0465975}, {"is_disabled": 0, "rental_uris": {"ios": "https://dc.lft.to/lastmile_qr_scan", "android": "https://dc.lft.to/lastmile_qr_scan"}, "is_reserved": 0, "fusion_lon": 0.0, "lat": 38.92744416666667, "type": "electric_scooter", "name": "ef786e1a21d77b7e5e70899d1b8acb29", "bike_id": "ef786e1a21d77b7e5e70899d1b8acb29", "fusion_lat": 0.0, "lon": -77.02145433333334}, {"is_disabled": 0, "rental_uris": {"ios": "https://dc.lft.to/lastmile_qr_scan", "android": "https://dc.lft.to/lastmile_qr_scan"}, "is_reserved": 0, "fusion_lon": 0.0, "lat": 38.918225666666665, "type": "electric_scooter", "name": "0fad5d77d5af088d56e3c86a474d5cf9", "bike_id": "0fad5d77d5af088d56e3c86a474d5cf9", "fusion_lat": 0.0, "lon": -77.04163366666667}, {"is_disabled": 0, "rental_uris": {"ios": "https://dc.lft.to/lastmile_qr_scan", "android": "https://dc.lft.to/lastmile_qr_scan"}, "is_reserved": 0, "fusion_lon": 0.0, "lat": 38.921957, "type": "electric_scooter", "name": "d04b80ad3b1c7980b71c6938929f45b6", "bike_id": "d04b80ad3b1c7980b71c6938929f45b6", "fusion_lat": 0.0, "lon": -77.03796033333333}, {"is_disabled": 0, "rental_uris": {"ios": "https://dc.lft.to/lastmile_qr_scan", "android": "https://dc.lft.to/lastmile_qr_scan"}, "is_reserved": 0, "fusion_lon": 0.0, "lat": 38.9231455, "type": "electric_scooter", "name": "76de60bf38116c31b45392b537268f6d", "bike_id": "76de60bf38116c31b45392b537268f6d", "fusion_lat": 0.0, "lon": -77.0290345}, {"is_disabled": 0, "rental_uris": {"ios": "https://dc.lft.to/lastmile_qr_scan", "android": "https://dc.lft.to/lastmile_qr_scan"}, "is_reserved": 0, "fusion_lon": 0.0, "lat": 38.89341116666667, "type": "electric_scooter", "name": "3d5fe0aaefa4f5ed9dcb3d615205535e", "bike_id": "3d5fe0aaefa4f5ed9dcb3d615205535e", "fusion_lat": 0.0, "lon": -77.0465}, {"is_disabled": 0, "rental_uris": {"ios": "https://dc.lft.to/lastmile_qr_scan", "android": "https://dc.lft.to/lastmile_qr_scan"}, "is_reserved": 0, "fusion_lon": 0.0, "lat": 38.887323, "type": "electric_scooter", "name": "36334cecfc9ab21ab9c3c825b368d811", "bike_id": "36334cecfc9ab21ab9c3c825b368d811", "fusion_lat": 0.0, "lon": -77.022073}, {"is_disabled": 0, "rental_uris": {"ios": "https://dc.lft.to/lastmile_qr_scan", "android": "https://dc.lft.to/lastmile_qr_scan"}, "is_reserved": 0, "fusion_lon": 0.0, "lat": 38.901445, "type": "electric_scooter", "name": "bde04d6a3146eb6ba96d460498a951ab", "bike_id": "bde04d6a3146eb6ba96d460498a951ab", "fusion_lat": 0.0, "lon": -77.03959266666666}, {"is_disabled": 0, "rental_uris": {"ios": "https://dc.lft.to/lastmile_qr_scan", "android": "https://dc.lft.to/lastmile_qr_scan"}, "is_reserved": 0, "fusion_lon": 0.0, "lat": 38.91917383333333, "type": "electric_scooter", "name": "99d536810c4ae9552a69be5d72cabdb7", "bike_id": "99d536810c4ae9552a69be5d72cabdb7", "fusion_lat": 0.0, "lon": -77.03102183333333}, {"is_disabled": 0, "rental_uris": {"ios": "https://dc.lft.to/lastmile_qr_scan", "android": "https://dc.lft.to/lastmile_qr_scan"}, "is_reserved": 0, "fusion_lon": 0.0, "lat": 38.89466783333334, "type": "electric_bike", "name": "b2ae0084979cf478a2e21e1a37cd06fe", "bike_id": "b2ae0084979cf478a2e21e1a37cd06fe", "fusion_lat": 0.0, "lon": -77.19122716666666}, {"is_disabled": 0, "rental_uris": {"ios": "https://dc.lft.to/lastmile_qr_scan", "android": "https://dc.lft.to/lastmile_qr_scan"}, "is_reserved": 0, "fusion_lon": 0.0, "lat": 38.881829333333336, "type": "electric_scooter", "name": "cf1383fec0797150d04d03505659eae9", "bike_id": "cf1383fec0797150d04d03505659eae9", "fusion_lat": 0.0, "lon": -77.017423}, {"is_disabled": 0, "rental_uris": {"ios": "https://dc.lft.to/lastmile_qr_scan", "android": "https://dc.lft.to/lastmile_qr_scan"}, "is_reserved": 0, "fusion_lon": 0.0, "lat": 38.9233425, "type": "electric_scooter", "name": "abba8bec8edfbfc2f4dd7f391840576e", "bike_id": "abba8bec8edfbfc2f4dd7f391840576e", "fusion_lat": 0.0, "lon": -77.035191}, {"is_disabled": 0, "rental_uris": {"ios": "https://dc.lft.to/lastmile_qr_scan", "android": "https://dc.lft.to/lastmile_qr_scan"}, "is_reserved": 0, "fusion_lon": 0.0, "lat": 38.906204333333335, "type": "electric_scooter", "name": "fa67fd6b3c117c9470aaa555c05c50cb", "bike_id": "fa67fd6b3c117c9470aaa555c05c50cb", "fusion_lat": 0.0, "lon": -77.06279816666667}, {"is_disabled": 0, "rental_uris": {"ios": "https://dc.lft.to/lastmile_qr_scan", "android": "https://dc.lft.to/lastmile_qr_scan"}, "is_reserved": 0, "fusion_lon": 0.0, "lat": 38.89300583333333, "type": "electric_scooter", "name": "aaad65fd295fd8dc3c29da4b39ed3f6a", "bike_id": "aaad65fd295fd8dc3c29da4b39ed3f6a", "fusion_lat": 0.0, "lon": -76.9995875}, {"is_disabled": 0, "rental_uris": {"ios": "https://dc.lft.to/lastmile_qr_scan", "android": "https://dc.lft.to/lastmile_qr_scan"}, "is_reserved": 0, "fusion_lon": 0.0, "lat": 38.922143166666665, "type": "electric_scooter", "name": "8882e2faf04186dc6f57887697b0fa58", "bike_id": "8882e2faf04186dc6f57887697b0fa58", "fusion_lat": 0.0, "lon": -77.04250483333334}, {"is_disabled": 0, "rental_uris": {"ios": "https://dc.lft.to/lastmile_qr_scan", "android": "https://dc.lft.to/lastmile_qr_scan"}, "is_reserved": 0, "fusion_lon": 0.0, "lat": 38.916968, "type": "electric_scooter", "name": "23c49ec60af44a81d7512f1752bfaa71", "bike_id": "23c49ec60af44a81d7512f1752bfaa71", "fusion_lat": 0.0, "lon": -77.037569}, {"is_disabled": 0, "rental_uris": {"ios": "https://dc.lft.to/lastmile_qr_scan", "android": "https://dc.lft.to/lastmile_qr_scan"}, "is_reserved": 0, "fusion_lon": 0.0, "lat": 38.909037166666664, "type": "electric_scooter", "name": "0291bf6d366f327741fc220aef59a732", "bike_id": "0291bf6d366f327741fc220aef59a732", "fusion_lat": 0.0, "lon": -77.00461366666667}, {"is_disabled": 0, "rental_uris": {"ios": "https://dc.lft.to/lastmile_qr_scan", "android": "https://dc.lft.to/lastmile_qr_scan"}, "is_reserved": 0, "fusion_lon": 0.0, "lat": 38.90175133333334, "type": "electric_scooter", "name": "eead249c8730e1053194aa24d33927cc", "bike_id": "eead249c8730e1053194aa24d33927cc", "fusion_lat": 0.0, "lon": -77.05100566666667}, {"is_disabled": 0, "rental_uris": {"ios": "https://dc.lft.to/lastmile_qr_scan", "android": "https://dc.lft.to/lastmile_qr_scan"}, "is_reserved": 0, "fusion_lon": 0.0, "lat": 38.92869966666667, "type": "electric_scooter", "name": "da6481eff21f5e5edf331d97fa76d8aa", "bike_id": "da6481eff21f5e5edf331d97fa76d8aa", "fusion_lat": 0.0, "lon": -77.03105716666667}, {"is_disabled": 0, "rental_uris": {"ios": "https://dc.lft.to/lastmile_qr_scan", "android": "https://dc.lft.to/lastmile_qr_scan"}, "is_reserved": 0, "fusion_lon": 0.0, "lat": 38.92241833333333, "type": "electric_scooter", "name": "de1115f6c53521dee17bcbc45833e68c", "bike_id": "de1115f6c53521dee17bcbc45833e68c", "fusion_lat": 0.0, "lon": -77.04022433333333}, {"is_disabled": 0, "rental_uris": {"ios": "https://dc.lft.to/lastmile_qr_scan", "android": "https://dc.lft.to/lastmile_qr_scan"}, "is_reserved": 0, "fusion_lon": 0.0, "lat": 38.89873516666667, "type": "electric_scooter", "name": "d853af9f412e0242e669435a520fd7e4", "bike_id": "d853af9f412e0242e669435a520fd7e4", "fusion_lat": 0.0, "lon": -76.93185866666667}, {"is_disabled": 0, "rental_uris": {"ios": "https://dc.lft.to/lastmile_qr_scan", "android": "https://dc.lft.to/lastmile_qr_scan"}, "is_reserved": 0, "fusion_lon": 0.0, "lat": 38.898424166666665, "type": "electric_scooter", "name": "f80057369e92af536846d62909a0c431", "bike_id": "f80057369e92af536846d62909a0c431", "fusion_lat": 0.0, "lon": -76.926059}, {"is_disabled": 0, "rental_uris": {"ios": "https://dc.lft.to/lastmile_qr_scan", "android": "https://dc.lft.to/lastmile_qr_scan"}, "is_reserved": 0, "fusion_lon": 0.0, "lat": 38.9405125, "type": "electric_scooter", "name": "b5d6102202019e7b80bec795f4b73959", "bike_id": "b5d6102202019e7b80bec795f4b73959", "fusion_lat": 0.0, "lon": -77.0297285}, {"is_disabled": 0, "rental_uris": {"ios": "https://dc.lft.to/lastmile_qr_scan", "android": "https://dc.lft.to/lastmile_qr_scan"}, "is_reserved": 0, "fusion_lon": 0.0, "lat": 38.917051666666666, "type": "electric_scooter", "name": "8eed1f6d26fe7d49d6010123ed1d56dc", "bike_id": "8eed1f6d26fe7d49d6010123ed1d56dc", "fusion_lat": 0.0, "lon": -77.04003966666667}, {"is_disabled": 0, "rental_uris": {"ios": "https://dc.lft.to/lastmile_qr_scan", "android": "https://dc.lft.to/lastmile_qr_scan"}, "is_reserved": 0, "fusion_lon": 0.0, "lat": 38.91633983333333, "type": "electric_scooter", "name": "eebe518f7ffcdb30a0fc59e49a10f797", "bike_id": "eebe518f7ffcdb30a0fc59e49a10f797", "fusion_lat": 0.0, "lon": -77.03213633333333}, {"is_disabled": 0, "rental_uris": {"ios": "https://dc.lft.to/lastmile_qr_scan", "android": "https://dc.lft.to/lastmile_qr_scan"}, "is_reserved": 0, "fusion_lon": 0.0, "lat": 38.857994166666664, "type": "electric_bike", "name": "e24d8d8b224932a04f0f0d58bd96f10d", "bike_id": "e24d8d8b224932a04f0f0d58bd96f10d", "fusion_lat": 0.0, "lon": -76.98757816666667}, {"is_disabled": 0, "rental_uris": {"ios": "https://dc.lft.to/lastmile_qr_scan", "android": "https://dc.lft.to/lastmile_qr_scan"}, "is_reserved": 0, "fusion_lon": 0.0, "lat": 38.90127966666667, "type": "electric_scooter", "name": "14126853cbc52df85378bde2953aa130", "bike_id": "14126853cbc52df85378bde2953aa130", "fusion_lat": 0.0, "lon": -77.044404}, {"is_disabled": 0, "rental_uris": {"ios": "https://dc.lft.to/lastmile_qr_scan", "android": "https://dc.lft.to/lastmile_qr_scan"}, "is_reserved": 0, "fusion_lon": 0.0, "lat": 38.9535125, "type": "electric_bike", "name": "0228befcd996dd1f99e8d0901d281dee", "bike_id": "0228befcd996dd1f99e8d0901d281dee", "fusion_lat": 0.0, "lon": -76.924833}, {"is_disabled": 0, "rental_uris": {"ios": "https://dc.lft.to/lastmile_qr_scan", "android": "https://dc.lft.to/lastmile_qr_scan"}, "is_reserved": 0, "fusion_lon": 0.0, "lat": 38.920662166666666, "type": "electric_bike", "name": "bc47a320f6f7d83706cd5641638fcb8f", "bike_id": "bc47a320f6f7d83706cd5641638fcb8f", "fusion_lat": 0.0, "lon": -77.07958766666667}, {"is_disabled": 0, "rental_uris": {"ios": "https://dc.lft.to/lastmile_qr_scan", "android": "https://dc.lft.to/lastmile_qr_scan"}, "is_reserved": 0, "fusion_lon": 0.0, "lat": 39.02623333333333, "type": "electric_bike", "name": "cac71e5df9e274bbc149c59502a72649", "bike_id": "cac71e5df9e274bbc149c59502a72649", "fusion_lat": 0.0, "lon": -77.0388235}, {"is_disabled": 0, "rental_uris": {"ios": "https://dc.lft.to/lastmile_qr_scan", "android": "https://dc.lft.to/lastmile_qr_scan"}, "is_reserved": 0, "fusion_lon": 0.0, "lat": 38.91693316666667, "type": "electric_scooter", "name": "6f775d0aa245175cfb9c3566573ede77", "bike_id": "6f775d0aa245175cfb9c3566573ede77", "fusion_lat": 0.0, "lon": -77.03774433333334}, {"is_disabled": 0, "rental_uris": {"ios": "https://dc.lft.to/lastmile_qr_scan", "android": "https://dc.lft.to/lastmile_qr_scan"}, "is_reserved": 0, "fusion_lon": 0.0, "lat": 38.90139116666667, "type": "electric_scooter", "name": "04a49d8390a22a99b02d7e042aa063cf", "bike_id": "04a49d8390a22a99b02d7e042aa063cf", "fusion_lat": 0.0, "lon": -77.03945283333333}, {"is_disabled": 0, "rental_uris": {"ios": "https://dc.lft.to/lastmile_qr_scan", "android": "https://dc.lft.to/lastmile_qr_scan"}, "is_reserved": 0, "fusion_lon": 0.0, "lat": 38.9207655, "type": "electric_scooter", "name": "9379c621b36403a21bbb6a1eeeda6d00", "bike_id": "9379c621b36403a21bbb6a1eeeda6d00", "fusion_lat": 0.0, "lon": -77.02517783333333}, {"is_disabled": 0, "rental_uris": {"ios": "https://dc.lft.to/lastmile_qr_scan", "android": "https://dc.lft.to/lastmile_qr_scan"}, "is_reserved": 0, "fusion_lon": 0.0, "lat": 38.93380333333333, "type": "electric_scooter", "name": "234f4722089300274ef8fe62a88f5d96", "bike_id": "234f4722089300274ef8fe62a88f5d96", "fusion_lat": 0.0, "lon": -77.03221316666666}, {"is_disabled": 0, "rental_uris": {"ios": "https://dc.lft.to/lastmile_qr_scan", "android": "https://dc.lft.to/lastmile_qr_scan"}, "is_reserved": 0, "fusion_lon": 0.0, "lat": 38.90594866666667, "type": "electric_scooter", "name": "1dda6cf778423291d09b8ccd8e3bde14", "bike_id": "1dda6cf778423291d09b8ccd8e3bde14", "fusion_lat": 0.0, "lon": -77.062744}, {"is_disabled": 0, "rental_uris": {"ios": "https://dc.lft.to/lastmile_qr_scan", "android": "https://dc.lft.to/lastmile_qr_scan"}, "is_reserved": 0, "fusion_lon": 0.0, "lat": 38.966179833333335, "type": "electric_bike", "name": "f1d2e2c05824943a25864d4a621093e3", "bike_id": "f1d2e2c05824943a25864d4a621093e3", "fusion_lat": 0.0, "lon": -77.034386}, {"is_disabled": 0, "rental_uris": {"ios": "https://dc.lft.to/lastmile_qr_scan", "android": "https://dc.lft.to/lastmile_qr_scan"}, "is_reserved": 0, "fusion_lon": 0.0, "lat": 38.878038333333336, "type": "electric_scooter", "name": "f3b5d977b421cea9553fb1c3d24f1762", "bike_id": "f3b5d977b421cea9553fb1c3d24f1762", "fusion_lat": 0.0, "lon": -76.98829533333333}, {"is_disabled": 0, "rental_uris": {"ios": "https://dc.lft.to/lastmile_qr_scan", "android": "https://dc.lft.to/lastmile_qr_scan"}, "is_reserved": 0, "fusion_lon": 0.0, "lat": 38.89621433333333, "type": "electric_bike", "name": "38f078b04c576fbb9fd2dd3a387c7278", "bike_id": "38f078b04c576fbb9fd2dd3a387c7278", "fusion_lat": 0.0, "lon": -76.9075625}, {"is_disabled": 0, "rental_uris": {"ios": "https://dc.lft.to/lastmile_qr_scan", "android": "https://dc.lft.to/lastmile_qr_scan"}, "is_reserved": 0, "fusion_lon": 0.0, "lat": 38.925013, "type": "electric_scooter", "name": "8ba91c9114d18e8874130027e051cad8", "bike_id": "8ba91c9114d18e8874130027e051cad8", "fusion_lat": 0.0, "lon": -77.0380345}, {"is_disabled": 0, "rental_uris": {"ios": "https://dc.lft.to/lastmile_qr_scan", "android": "https://dc.lft.to/lastmile_qr_scan"}, "is_reserved": 0, "fusion_lon": 0.0, "lat": 38.902483833333335, "type": "electric_scooter", "name": "2d2342c132b3c66f4846c1c434f25958", "bike_id": "2d2342c132b3c66f4846c1c434f25958", "fusion_lat": 0.0, "lon": -77.03956483333333}, {"is_disabled": 0, "rental_uris": {"ios": "https://dc.lft.to/lastmile_qr_scan", "android": "https://dc.lft.to/lastmile_qr_scan"}, "is_reserved": 0, "fusion_lon": 0.0, "lat": 38.87886483333333, "type": "electric_scooter", "name": "17dc86f74cdb8b795ee2b0083cab973e", "bike_id": "17dc86f74cdb8b795ee2b0083cab973e", "fusion_lat": 0.0, "lon": -76.96548816666666}, {"is_disabled": 0, "rental_uris": {"ios": "https://dc.lft.to/lastmile_qr_scan", "android": "https://dc.lft.to/lastmile_qr_scan"}, "is_reserved": 0, "fusion_lon": 0.0, "lat": 38.9568875, "type": "electric_scooter", "name": "b935ea9a6afdc14d0e8449b9d8857c74", "bike_id": "b935ea9a6afdc14d0e8449b9d8857c74", "fusion_lat": 0.0, "lon": -77.02234933333334}, {"is_disabled": 0, "rental_uris": {"ios": "https://dc.lft.to/lastmile_qr_scan", "android": "https://dc.lft.to/lastmile_qr_scan"}, "is_reserved": 0, "fusion_lon": 0.0, "lat": 38.92583, "type": "electric_scooter", "name": "e345c6b043cada48b12529c23b3811f1", "bike_id": "e345c6b043cada48b12529c23b3811f1", "fusion_lat": 0.0, "lon": -77.0376065}, {"is_disabled": 0, "rental_uris": {"ios": "https://dc.lft.to/lastmile_qr_scan", "android": "https://dc.lft.to/lastmile_qr_scan"}, "is_reserved": 0, "fusion_lon": 0.0, "lat": 38.95876483333333, "type": "electric_bike", "name": "d226c12bcedd1cd08e8d557c46d71b1c", "bike_id": "d226c12bcedd1cd08e8d557c46d71b1c", "fusion_lat": 0.0, "lon": -77.01403}, {"is_disabled": 0, "rental_uris": {"ios": "https://dc.lft.to/lastmile_qr_scan", "android": "https://dc.lft.to/lastmile_qr_scan"}, "is_reserved": 0, "fusion_lon": 0.0, "lat": 38.92421866666667, "type": "electric_scooter", "name": "60c8acc5ce65fc0c4e8c96e575613248", "bike_id": "60c8acc5ce65fc0c4e8c96e575613248", "fusion_lat": 0.0, "lon": -77.0201495}, {"is_disabled": 0, "rental_uris": {"ios": "https://dc.lft.to/lastmile_qr_scan", "android": "https://dc.lft.to/lastmile_qr_scan"}, "is_reserved": 0, "fusion_lon": 0.0, "lat": 38.91786233333333, "type": "electric_scooter", "name": "68b03558da50f4e79a7266ad53967322", "bike_id": "68b03558da50f4e79a7266ad53967322", "fusion_lat": 0.0, "lon": -77.01922866666666}, {"is_disabled": 0, "rental_uris": {"ios": "https://dc.lft.to/lastmile_qr_scan", "android": "https://dc.lft.to/lastmile_qr_scan"}, "is_reserved": 0, "fusion_lon": 0.0, "lat": 38.908521666666665, "type": "electric_scooter", "name": "36ae844639862a68e5c07f0cc29faed6", "bike_id": "36ae844639862a68e5c07f0cc29faed6", "fusion_lat": 0.0, "lon": -77.0019425}, {"is_disabled": 0, "rental_uris": {"ios": "https://dc.lft.to/lastmile_qr_scan", "android": "https://dc.lft.to/lastmile_qr_scan"}, "is_reserved": 0, "fusion_lon": 0.0, "lat": 38.91021933333333, "type": "electric_scooter", "name": "de6b45107476aa12877fb88034502698", "bike_id": "de6b45107476aa12877fb88034502698", "fusion_lat": 0.0, "lon": -77.03099616666667}, {"is_disabled": 0, "rental_uris": {"ios": "https://dc.lft.to/lastmile_qr_scan", "android": "https://dc.lft.to/lastmile_qr_scan"}, "is_reserved": 0, "fusion_lon": 0.0, "lat": 38.92247316666667, "type": "electric_scooter", "name": "ba5828be0216f1e5006bf9a5621b8f93", "bike_id": "ba5828be0216f1e5006bf9a5621b8f93", "fusion_lat": 0.0, "lon": -77.034216}, {"is_disabled": 0, "rental_uris": {"ios": "https://dc.lft.to/lastmile_qr_scan", "android": "https://dc.lft.to/lastmile_qr_scan"}, "is_reserved": 0, "fusion_lon": 0.0, "lat": 38.8938705, "type": "electric_scooter", "name": "86c4936c98273bcd00dd09db44163ff3", "bike_id": "86c4936c98273bcd00dd09db44163ff3", "fusion_lat": 0.0, "lon": -76.923125}, {"is_disabled": 0, "rental_uris": {"ios": "https://dc.lft.to/lastmile_qr_scan", "android": "https://dc.lft.to/lastmile_qr_scan"}, "is_reserved": 0, "fusion_lon": 0.0, "lat": 38.89452433333334, "type": "electric_scooter", "name": "52af29484c8578ede57776d24c250027", "bike_id": "52af29484c8578ede57776d24c250027", "fusion_lat": 0.0, "lon": -77.0317735}, {"is_disabled": 0, "rental_uris": {"ios": "https://dc.lft.to/lastmile_qr_scan", "android": "https://dc.lft.to/lastmile_qr_scan"}, "is_reserved": 0, "fusion_lon": 0.0, "lat": 38.884781, "type": "electric_scooter", "name": "ecc60943411d7deeafd69e681c35aa9d", "bike_id": "ecc60943411d7deeafd69e681c35aa9d", "fusion_lat": 0.0, "lon": -77.03352883333334}, {"is_disabled": 0, "rental_uris": {"ios": "https://dc.lft.to/lastmile_qr_scan", "android": "https://dc.lft.to/lastmile_qr_scan"}, "is_reserved": 0, "fusion_lon": 0.0, "lat": 38.9228375, "type": "electric_scooter", "name": "b8ab16a1d9bd2c392353de5246570024", "bike_id": "b8ab16a1d9bd2c392353de5246570024", "fusion_lat": 0.0, "lon": -77.036619}, {"is_disabled": 0, "rental_uris": {"ios": "https://dc.lft.to/lastmile_qr_scan", "android": "https://dc.lft.to/lastmile_qr_scan"}, "is_reserved": 0, "fusion_lon": 0.0, "lat": 38.911060166666665, "type": "electric_scooter", "name": "23b82e772da5239e62c71d465183e174", "bike_id": "23b82e772da5239e62c71d465183e174", "fusion_lat": 0.0, "lon": -77.02511333333334}, {"is_disabled": 0, "rental_uris": {"ios": "https://dc.lft.to/lastmile_qr_scan", "android": "https://dc.lft.to/lastmile_qr_scan"}, "is_reserved": 0, "fusion_lon": 0.0, "lat": 38.907215666666666, "type": "electric_scooter", "name": "166ecc07c7bbbc3782897f10b36c9d80", "bike_id": "166ecc07c7bbbc3782897f10b36c9d80", "fusion_lat": 0.0, "lon": -77.053106}, {"is_disabled": 0, "rental_uris": {"ios": "https://dc.lft.to/lastmile_qr_scan", "android": "https://dc.lft.to/lastmile_qr_scan"}, "is_reserved": 0, "fusion_lon": 0.0, "lat": 38.884890166666665, "type": "electric_scooter", "name": "b9c2a5ec87982cd3d5fc516f7bc8bcaa", "bike_id": "b9c2a5ec87982cd3d5fc516f7bc8bcaa", "fusion_lat": 0.0, "lon": -77.007096}, {"is_disabled": 0, "rental_uris": {"ios": "https://dc.lft.to/lastmile_qr_scan", "android": "https://dc.lft.to/lastmile_qr_scan"}, "is_reserved": 0, "fusion_lon": 0.0, "lat": 38.876457333333335, "type": "electric_bike", "name": "f251d2a89e0e1e295d78984946182440", "bike_id": "f251d2a89e0e1e295d78984946182440", "fusion_lat": 0.0, "lon": -76.93551116666667}, {"is_disabled": 0, "rental_uris": {"ios": "https://dc.lft.to/lastmile_qr_scan", "android": "https://dc.lft.to/lastmile_qr_scan"}, "is_reserved": 0, "fusion_lon": 0.0, "lat": 38.90435766666667, "type": "electric_scooter", "name": "b9a179334966802efcb68a2e9bbf464e", "bike_id": "b9a179334966802efcb68a2e9bbf464e", "fusion_lat": 0.0, "lon": -77.02591016666666}, {"is_disabled": 0, "rental_uris": {"ios": "https://dc.lft.to/lastmile_qr_scan", "android": "https://dc.lft.to/lastmile_qr_scan"}, "is_reserved": 0, "fusion_lon": 0.0, "lat": 38.92479433333333, "type": "electric_scooter", "name": "3cb2ba8a1463a2692e1131afe731213d", "bike_id": "3cb2ba8a1463a2692e1131afe731213d", "fusion_lat": 0.0, "lon": -77.02139216666667}, {"is_disabled": 0, "rental_uris": {"ios": "https://dc.lft.to/lastmile_qr_scan", "android": "https://dc.lft.to/lastmile_qr_scan"}, "is_reserved": 0, "fusion_lon": 0.0, "lat": 38.90792183333333, "type": "electric_scooter", "name": "d460bd43918c2f099f1f722942407129", "bike_id": "d460bd43918c2f099f1f722942407129", "fusion_lat": 0.0, "lon": -77.04245416666667}, {"is_disabled": 0, "rental_uris": {"ios": "https://dc.lft.to/lastmile_qr_scan", "android": "https://dc.lft.to/lastmile_qr_scan"}, "is_reserved": 0, "fusion_lon": 0.0, "lat": 38.91032366666666, "type": "electric_scooter", "name": "5bd9b5d5d837c7dc4537f0ffa9285cb0", "bike_id": "5bd9b5d5d837c7dc4537f0ffa9285cb0", "fusion_lat": 0.0, "lon": -77.02915633333333}, {"is_disabled": 0, "rental_uris": {"ios": "https://dc.lft.to/lastmile_qr_scan", "android": "https://dc.lft.to/lastmile_qr_scan"}, "is_reserved": 0, "fusion_lon": 0.0, "lat": 38.933149666666665, "type": "electric_scooter", "name": "7160f5c80067c4e24981333a6e1c5075", "bike_id": "7160f5c80067c4e24981333a6e1c5075", "fusion_lat": 0.0, "lon": -77.03196183333333}, {"is_disabled": 0, "rental_uris": {"ios": "https://dc.lft.to/lastmile_qr_scan", "android": "https://dc.lft.to/lastmile_qr_scan"}, "is_reserved": 0, "fusion_lon": 0.0, "lat": 38.892577, "type": "electric_scooter", "name": "b0449ca2f89ee75275a9f0efe07c5c02", "bike_id": "b0449ca2f89ee75275a9f0efe07c5c02", "fusion_lat": 0.0, "lon": -77.05032233333333}, {"is_disabled": 0, "rental_uris": {"ios": "https://dc.lft.to/lastmile_qr_scan", "android": "https://dc.lft.to/lastmile_qr_scan"}, "is_reserved": 0, "fusion_lon": 0.0, "lat": 38.8973645, "type": "electric_scooter", "name": "0c902029af0e8c9359a3457088541364", "bike_id": "0c902029af0e8c9359a3457088541364", "fusion_lat": 0.0, "lon": -77.009138}, {"is_disabled": 0, "rental_uris": {"ios": "https://dc.lft.to/lastmile_qr_scan", "android": "https://dc.lft.to/lastmile_qr_scan"}, "is_reserved": 0, "fusion_lon": 0.0, "lat": 38.91937316666667, "type": "electric_scooter", "name": "07af887a97fc7e52ff5088df6418a4ff", "bike_id": "07af887a97fc7e52ff5088df6418a4ff", "fusion_lat": 0.0, "lon": -77.01814583333334}, {"is_disabled": 0, "rental_uris": {"ios": "https://dc.lft.to/lastmile_qr_scan", "android": "https://dc.lft.to/lastmile_qr_scan"}, "is_reserved": 0, "fusion_lon": 0.0, "lat": 38.92222183333333, "type": "electric_scooter", "name": "567fad9a3bccd683650437980d055f68", "bike_id": "567fad9a3bccd683650437980d055f68", "fusion_lat": 0.0, "lon": -77.03904866666667}, {"is_disabled": 0, "rental_uris": {"ios": "https://dc.lft.to/lastmile_qr_scan", "android": "https://dc.lft.to/lastmile_qr_scan"}, "is_reserved": 0, "fusion_lon": 0.0, "lat": 38.90700666666667, "type": "electric_scooter", "name": "bc0fce21d365c56d5776a3d960ed8341", "bike_id": "bc0fce21d365c56d5776a3d960ed8341", "fusion_lat": 0.0, "lon": -77.0059295}, {"is_disabled": 0, "rental_uris": {"ios": "https://dc.lft.to/lastmile_qr_scan", "android": "https://dc.lft.to/lastmile_qr_scan"}, "is_reserved": 0, "fusion_lon": 0.0, "lat": 38.858199166666665, "type": "electric_scooter", "name": "31bbc16a509a8b123a7e0b7a5697e5ef", "bike_id": "31bbc16a509a8b123a7e0b7a5697e5ef", "fusion_lat": 0.0, "lon": -76.98908716666666}, {"is_disabled": 0, "rental_uris": {"ios": "https://dc.lft.to/lastmile_qr_scan", "android": "https://dc.lft.to/lastmile_qr_scan"}, "is_reserved": 0, "fusion_lon": 0.0, "lat": 38.864937, "type": "electric_bike", "name": "a88c9e74ceaf33b8c0827991b03dba21", "bike_id": "a88c9e74ceaf33b8c0827991b03dba21", "fusion_lat": 0.0, "lon": -76.96989766666667}, {"is_disabled": 0, "rental_uris": {"ios": "https://dc.lft.to/lastmile_qr_scan", "android": "https://dc.lft.to/lastmile_qr_scan"}, "is_reserved": 0, "fusion_lon": 0.0, "lat": 38.8789405, "type": "electric_scooter", "name": "ceb106d9dc7aef2d282ae4fd72ecd79d", "bike_id": "ceb106d9dc7aef2d282ae4fd72ecd79d", "fusion_lat": 0.0, "lon": -76.93533733333334}, {"is_disabled": 0, "rental_uris": {"ios": "https://dc.lft.to/lastmile_qr_scan", "android": "https://dc.lft.to/lastmile_qr_scan"}, "is_reserved": 0, "fusion_lon": 0.0, "lat": 38.92153733333333, "type": "electric_scooter", "name": "5d15fd94706480cef1cf7b7970deb746", "bike_id": "5d15fd94706480cef1cf7b7970deb746", "fusion_lat": 0.0, "lon": -77.04226433333334}, {"is_disabled": 0, "rental_uris": {"ios": "https://dc.lft.to/lastmile_qr_scan", "android": "https://dc.lft.to/lastmile_qr_scan"}, "is_reserved": 0, "fusion_lon": 0.0, "lat": 38.930462, "type": "electric_scooter", "name": "c147c4025fe52d56f8eb1fa1227df2d0", "bike_id": "c147c4025fe52d56f8eb1fa1227df2d0", "fusion_lat": 0.0, "lon": -77.03633933333333}, {"is_disabled": 0, "rental_uris": {"ios": "https://dc.lft.to/lastmile_qr_scan", "android": "https://dc.lft.to/lastmile_qr_scan"}, "is_reserved": 0, "fusion_lon": 0.0, "lat": 38.9237605, "type": "electric_scooter", "name": "a8300f4d372c8d38de315870306a3c9d", "bike_id": "a8300f4d372c8d38de315870306a3c9d", "fusion_lat": 0.0, "lon": -77.041093}, {"is_disabled": 0, "rental_uris": {"ios": "https://dc.lft.to/lastmile_qr_scan", "android": "https://dc.lft.to/lastmile_qr_scan"}, "is_reserved": 0, "fusion_lon": 0.0, "lat": 38.897492666666665, "type": "electric_scooter", "name": "a94ccdd547322dc00acbc7cecfeabe1e", "bike_id": "a94ccdd547322dc00acbc7cecfeabe1e", "fusion_lat": 0.0, "lon": -77.02521733333333}, {"is_disabled": 0, "rental_uris": {"ios": "https://dc.lft.to/lastmile_qr_scan", "android": "https://dc.lft.to/lastmile_qr_scan"}, "is_reserved": 0, "fusion_lon": 0.0, "lat": 38.9050105, "type": "electric_scooter", "name": "7c7d011a420ef55d3b979b1d499cf260", "bike_id": "7c7d011a420ef55d3b979b1d499cf260", "fusion_lat": 0.0, "lon": -77.05151466666666}, {"is_disabled": 0, "rental_uris": {"ios": "https://dc.lft.to/lastmile_qr_scan", "android": "https://dc.lft.to/lastmile_qr_scan"}, "is_reserved": 0, "fusion_lon": 0.0, "lat": 38.921520666666666, "type": "electric_scooter", "name": "871aa45fe48ceb3b3f4938b7e5ebfc52", "bike_id": "871aa45fe48ceb3b3f4938b7e5ebfc52", "fusion_lat": 0.0, "lon": -77.03870583333334}, {"is_disabled": 0, "rental_uris": {"ios": "https://dc.lft.to/lastmile_qr_scan", "android": "https://dc.lft.to/lastmile_qr_scan"}, "is_reserved": 0, "fusion_lon": 0.0, "lat": 38.898443666666665, "type": "electric_scooter", "name": "b3420379c04ec0866bd26adee0f862f5", "bike_id": "b3420379c04ec0866bd26adee0f862f5", "fusion_lat": 0.0, "lon": -77.02635066666667}, {"is_disabled": 0, "rental_uris": {"ios": "https://dc.lft.to/lastmile_qr_scan", "android": "https://dc.lft.to/lastmile_qr_scan"}, "is_reserved": 0, "fusion_lon": 0.0, "lat": 38.8974205, "type": "electric_scooter", "name": "ddf0d417d60f80f035f613ac642210f8", "bike_id": "ddf0d417d60f80f035f613ac642210f8", "fusion_lat": 0.0, "lon": -77.02689416666666}, {"is_disabled": 0, "rental_uris": {"ios": "https://dc.lft.to/lastmile_qr_scan", "android": "https://dc.lft.to/lastmile_qr_scan"}, "is_reserved": 0, "fusion_lon": 0.0, "lat": 38.95113633333333, "type": "electric_bike", "name": "098ec7edd686d292113f83a13068f74c", "bike_id": "098ec7edd686d292113f83a13068f74c", "fusion_lat": 0.0, "lon": -77.08874483333334}, {"is_disabled": 0, "rental_uris": {"ios": "https://dc.lft.to/lastmile_qr_scan", "android": "https://dc.lft.to/lastmile_qr_scan"}, "is_reserved": 0, "fusion_lon": 0.0, "lat": 38.9273065, "type": "electric_scooter", "name": "aa31495d962401c35bca7fa12e140f02", "bike_id": "aa31495d962401c35bca7fa12e140f02", "fusion_lat": 0.0, "lon": -77.02312833333333}, {"is_disabled": 0, "rental_uris": {"ios": "https://dc.lft.to/lastmile_qr_scan", "android": "https://dc.lft.to/lastmile_qr_scan"}, "is_reserved": 0, "fusion_lon": 0.0, "lat": 38.909326666666665, "type": "electric_scooter", "name": "e900aab5ad45770f2fef90afb09c2f0a", "bike_id": "e900aab5ad45770f2fef90afb09c2f0a", "fusion_lat": 0.0, "lon": -77.031846}, {"is_disabled": 0, "rental_uris": {"ios": "https://dc.lft.to/lastmile_qr_scan", "android": "https://dc.lft.to/lastmile_qr_scan"}, "is_reserved": 0, "fusion_lon": 0.0, "lat": 38.927899833333335, "type": "electric_scooter", "name": "d4b24bfddc5213eed34f1c78f70026f3", "bike_id": "d4b24bfddc5213eed34f1c78f70026f3", "fusion_lat": 0.0, "lon": -77.056047}, {"is_disabled": 0, "rental_uris": {"ios": "https://dc.lft.to/lastmile_qr_scan", "android": "https://dc.lft.to/lastmile_qr_scan"}, "is_reserved": 0, "fusion_lon": 0.0, "lat": 38.922731666666664, "type": "electric_scooter", "name": "642f8ff179c21c526b390147a48882f8", "bike_id": "642f8ff179c21c526b390147a48882f8", "fusion_lat": 0.0, "lon": -77.03676233333333}, {"is_disabled": 0, "rental_uris": {"ios": "https://dc.lft.to/lastmile_qr_scan", "android": "https://dc.lft.to/lastmile_qr_scan"}, "is_reserved": 0, "fusion_lon": 0.0, "lat": 38.916315166666664, "type": "electric_scooter", "name": "34caac0611ae73b5bb941fcd15ab075b", "bike_id": "34caac0611ae73b5bb941fcd15ab075b", "fusion_lat": 0.0, "lon": -77.0322065}, {"is_disabled": 0, "rental_uris": {"ios": "https://dc.lft.to/lastmile_qr_scan", "android": "https://dc.lft.to/lastmile_qr_scan"}, "is_reserved": 0, "fusion_lon": 0.0, "lat": 38.90268833333333, "type": "electric_scooter", "name": "d3b6357d07eda8159f1c4734e06f3367", "bike_id": "d3b6357d07eda8159f1c4734e06f3367", "fusion_lat": 0.0, "lon": -77.0183725}, {"is_disabled": 0, "rental_uris": {"ios": "https://dc.lft.to/lastmile_qr_scan", "android": "https://dc.lft.to/lastmile_qr_scan"}, "is_reserved": 0, "fusion_lon": 0.0, "lat": 38.899966166666665, "type": "electric_scooter", "name": "6f7e5f10290f8b8c83cdfc86783c9cf2", "bike_id": "6f7e5f10290f8b8c83cdfc86783c9cf2", "fusion_lat": 0.0, "lon": -77.02730333333334}, {"is_disabled": 0, "rental_uris": {"ios": "https://dc.lft.to/lastmile_qr_scan", "android": "https://dc.lft.to/lastmile_qr_scan"}, "is_reserved": 0, "fusion_lon": 0.0, "lat": 38.85595466666667, "type": "electric_bike", "name": "40e6558ea8fdea0c2ceea53601ea3bc0", "bike_id": "40e6558ea8fdea0c2ceea53601ea3bc0", "fusion_lat": 0.0, "lon": -76.972829}, {"is_disabled": 0, "rental_uris": {"ios": "https://dc.lft.to/lastmile_qr_scan", "android": "https://dc.lft.to/lastmile_qr_scan"}, "is_reserved": 0, "fusion_lon": 0.0, "lat": 38.91552566666667, "type": "electric_scooter", "name": "b5f6db2ecd6301752f4decca83718f0d", "bike_id": "b5f6db2ecd6301752f4decca83718f0d", "fusion_lat": 0.0, "lon": -77.0234}, {"is_disabled": 0, "rental_uris": {"ios": "https://dc.lft.to/lastmile_qr_scan", "android": "https://dc.lft.to/lastmile_qr_scan"}, "is_reserved": 0, "fusion_lon": 0.0, "lat": 38.806359666666665, "type": "electric_bike", "name": "2f7e00a749597bfa9fb963278b841d68", "bike_id": "2f7e00a749597bfa9fb963278b841d68", "fusion_lat": 0.0, "lon": -77.062653}, {"is_disabled": 0, "rental_uris": {"ios": "https://dc.lft.to/lastmile_qr_scan", "android": "https://dc.lft.to/lastmile_qr_scan"}, "is_reserved": 0, "fusion_lon": 0.0, "lat": 38.91692716666667, "type": "electric_scooter", "name": "ecf52f9909f3d867226659f9a6774444", "bike_id": "ecf52f9909f3d867226659f9a6774444", "fusion_lat": 0.0, "lon": -77.0321665}, {"is_disabled": 0, "rental_uris": {"ios": "https://dc.lft.to/lastmile_qr_scan", "android": "https://dc.lft.to/lastmile_qr_scan"}, "is_reserved": 0, "fusion_lon": 0.0, "lat": 38.915706166666666, "type": "electric_scooter", "name": "ab5bcffd38c105248161b6f6f04619e6", "bike_id": "ab5bcffd38c105248161b6f6f04619e6", "fusion_lat": 0.0, "lon": -77.02293116666667}, {"is_disabled": 0, "rental_uris": {"ios": "https://dc.lft.to/lastmile_qr_scan", "android": "https://dc.lft.to/lastmile_qr_scan"}, "is_reserved": 0, "fusion_lon": 0.0, "lat": 38.947489166666664, "type": "electric_scooter", "name": "bb8e4339db11d1aab6364c15b02f0af1", "bike_id": "bb8e4339db11d1aab6364c15b02f0af1", "fusion_lat": 0.0, "lon": -77.02359716666666}, {"is_disabled": 0, "rental_uris": {"ios": "https://dc.lft.to/lastmile_qr_scan", "android": "https://dc.lft.to/lastmile_qr_scan"}, "is_reserved": 0, "fusion_lon": 0.0, "lat": 38.892508166666666, "type": "electric_scooter", "name": "5a3a941b6407bddf8d8eea1e5b0281b5", "bike_id": "5a3a941b6407bddf8d8eea1e5b0281b5", "fusion_lat": 0.0, "lon": -77.04662716666667}, {"is_disabled": 0, "rental_uris": {"ios": "https://dc.lft.to/lastmile_qr_scan", "android": "https://dc.lft.to/lastmile_qr_scan"}, "is_reserved": 0, "fusion_lon": 0.0, "lat": 38.880899666666664, "type": "electric_scooter", "name": "e387649db6b05e1c5418ab433d05f8bd", "bike_id": "e387649db6b05e1c5418ab433d05f8bd", "fusion_lat": 0.0, "lon": -77.01752716666667}, {"is_disabled": 0, "rental_uris": {"ios": "https://dc.lft.to/lastmile_qr_scan", "android": "https://dc.lft.to/lastmile_qr_scan"}, "is_reserved": 0, "fusion_lon": 0.0, "lat": 38.89961516666666, "type": "electric_scooter", "name": "b550aa278e36129dcbaf4499223ea46f", "bike_id": "b550aa278e36129dcbaf4499223ea46f", "fusion_lat": 0.0, "lon": -77.016207}, {"is_disabled": 0, "rental_uris": {"ios": "https://dc.lft.to/lastmile_qr_scan", "android": "https://dc.lft.to/lastmile_qr_scan"}, "is_reserved": 0, "fusion_lon": 0.0, "lat": 39.0746885, "type": "electric_bike", "name": "55291ae7ff3a50f33829608f6f984512", "bike_id": "55291ae7ff3a50f33829608f6f984512", "fusion_lat": 0.0, "lon": -77.11537616666666}, {"is_disabled": 0, "rental_uris": {"ios": "https://dc.lft.to/lastmile_qr_scan", "android": "https://dc.lft.to/lastmile_qr_scan"}, "is_reserved": 0, "fusion_lon": 0.0, "lat": 38.915118666666665, "type": "electric_scooter", "name": "b890f78fd22549e9be1ac79610c5a1be", "bike_id": "b890f78fd22549e9be1ac79610c5a1be", "fusion_lat": 0.0, "lon": -77.0189035}, {"is_disabled": 0, "rental_uris": {"ios": "https://dc.lft.to/lastmile_qr_scan", "android": "https://dc.lft.to/lastmile_qr_scan"}, "is_reserved": 0, "fusion_lon": 0.0, "lat": 38.900773, "type": "electric_scooter", "name": "ce5f2ce6b63fcb144317689a5f855112", "bike_id": "ce5f2ce6b63fcb144317689a5f855112", "fusion_lat": 0.0, "lon": -77.04798783333334}, {"is_disabled": 0, "rental_uris": {"ios": "https://dc.lft.to/lastmile_qr_scan", "android": "https://dc.lft.to/lastmile_qr_scan"}, "is_reserved": 0, "fusion_lon": 0.0, "lat": 38.926713, "type": "electric_scooter", "name": "5f446dac778a72a623429002372d68df", "bike_id": "5f446dac778a72a623429002372d68df", "fusion_lat": 0.0, "lon": -77.01517116666666}, {"is_disabled": 0, "rental_uris": {"ios": "https://dc.lft.to/lastmile_qr_scan", "android": "https://dc.lft.to/lastmile_qr_scan"}, "is_reserved": 0, "fusion_lon": 0.0, "lat": 38.86261583333334, "type": "electric_bike", "name": "9e1b9dfda2dfd7cf8b2a836bbd0dfa35", "bike_id": "9e1b9dfda2dfd7cf8b2a836bbd0dfa35", "fusion_lat": 0.0, "lon": -76.9834735}, {"is_disabled": 0, "rental_uris": {"ios": "https://dc.lft.to/lastmile_qr_scan", "android": "https://dc.lft.to/lastmile_qr_scan"}, "is_reserved": 0, "fusion_lon": 0.0, "lat": 38.9260805, "type": "electric_scooter", "name": "ec6e5d6ecde7729602acd31e43e9b2c2", "bike_id": "ec6e5d6ecde7729602acd31e43e9b2c2", "fusion_lat": 0.0, "lon": -77.021667}, {"is_disabled": 0, "rental_uris": {"ios": "https://dc.lft.to/lastmile_qr_scan", "android": "https://dc.lft.to/lastmile_qr_scan"}, "is_reserved": 0, "fusion_lon": 0.0, "lat": 38.9285075, "type": "electric_scooter", "name": "0f4337e57ad2c4e286efb027c8ca8de6", "bike_id": "0f4337e57ad2c4e286efb027c8ca8de6", "fusion_lat": 0.0, "lon": -77.03621366666667}, {"is_disabled": 0, "rental_uris": {"ios": "https://dc.lft.to/lastmile_qr_scan", "android": "https://dc.lft.to/lastmile_qr_scan"}, "is_reserved": 0, "fusion_lon": 0.0, "lat": 38.891971, "type": "electric_scooter", "name": "9631c8b6fb92477888e2670f22dad83b", "bike_id": "9631c8b6fb92477888e2670f22dad83b", "fusion_lat": 0.0, "lon": -77.04388666666667}, {"is_disabled": 0, "rental_uris": {"ios": "https://dc.lft.to/lastmile_qr_scan", "android": "https://dc.lft.to/lastmile_qr_scan"}, "is_reserved": 0, "fusion_lon": 0.0, "lat": 38.90700116666667, "type": "electric_scooter", "name": "25b2d054b45afb103b056c6961741812", "bike_id": "25b2d054b45afb103b056c6961741812", "fusion_lat": 0.0, "lon": -77.005824}, {"is_disabled": 0, "rental_uris": {"ios": "https://dc.lft.to/lastmile_qr_scan", "android": "https://dc.lft.to/lastmile_qr_scan"}, "is_reserved": 0, "fusion_lon": 0.0, "lat": 38.89631833333333, "type": "electric_scooter", "name": "5d983c822d3bb93b73b2b867adfbba3a", "bike_id": "5d983c822d3bb93b73b2b867adfbba3a", "fusion_lat": 0.0, "lon": -77.04376833333333}, {"is_disabled": 0, "rental_uris": {"ios": "https://dc.lft.to/lastmile_qr_scan", "android": "https://dc.lft.to/lastmile_qr_scan"}, "is_reserved": 0, "fusion_lon": 0.0, "lat": 38.9113775, "type": "electric_scooter", "name": "b4e52c153c57be9ec364d2e47bf1856c", "bike_id": "b4e52c153c57be9ec364d2e47bf1856c", "fusion_lat": 0.0, "lon": -77.04864283333333}, {"is_disabled": 0, "rental_uris": {"ios": "https://dc.lft.to/lastmile_qr_scan", "android": "https://dc.lft.to/lastmile_qr_scan"}, "is_reserved": 0, "fusion_lon": 0.0, "lat": 38.915749166666664, "type": "electric_scooter", "name": "a88403b795143cb1de5ddd1a216d84ac", "bike_id": "a88403b795143cb1de5ddd1a216d84ac", "fusion_lat": 0.0, "lon": -77.04651533333333}, {"is_disabled": 0, "rental_uris": {"ios": "https://dc.lft.to/lastmile_qr_scan", "android": "https://dc.lft.to/lastmile_qr_scan"}, "is_reserved": 0, "fusion_lon": 0.0, "lat": 38.922991, "type": "electric_scooter", "name": "843a52ac31b6463843ab654a7b049481", "bike_id": "843a52ac31b6463843ab654a7b049481", "fusion_lat": 0.0, "lon": -77.04155133333333}, {"is_disabled": 0, "rental_uris": {"ios": "https://dc.lft.to/lastmile_qr_scan", "android": "https://dc.lft.to/lastmile_qr_scan"}, "is_reserved": 0, "fusion_lon": 0.0, "lat": 38.96570766666667, "type": "electric_scooter", "name": "9ee83f245a401cc6b2cf5f4727d79e9f", "bike_id": "9ee83f245a401cc6b2cf5f4727d79e9f", "fusion_lat": 0.0, "lon": -77.0277915}, {"is_disabled": 0, "rental_uris": {"ios": "https://dc.lft.to/lastmile_qr_scan", "android": "https://dc.lft.to/lastmile_qr_scan"}, "is_reserved": 0, "fusion_lon": 0.0, "lat": 38.9013045, "type": "electric_scooter", "name": "39c406cef78ba31845d26cd665263f1a", "bike_id": "39c406cef78ba31845d26cd665263f1a", "fusion_lat": 0.0, "lon": -77.0230345}, {"is_disabled": 0, "rental_uris": {"ios": "https://dc.lft.to/lastmile_qr_scan", "android": "https://dc.lft.to/lastmile_qr_scan"}, "is_reserved": 0, "fusion_lon": 0.0, "lat": 38.92139433333333, "type": "electric_scooter", "name": "8322aaf592e12fb7fc4a44221e25cff6", "bike_id": "8322aaf592e12fb7fc4a44221e25cff6", "fusion_lat": 0.0, "lon": -77.05158283333333}, {"is_disabled": 0, "rental_uris": {"ios": "https://dc.lft.to/lastmile_qr_scan", "android": "https://dc.lft.to/lastmile_qr_scan"}, "is_reserved": 0, "fusion_lon": 0.0, "lat": 38.9155405, "type": "electric_scooter", "name": "446b45d289ded5c8c4a6ddf1d1d4d038", "bike_id": "446b45d289ded5c8c4a6ddf1d1d4d038", "fusion_lat": 0.0, "lon": -77.025136}, {"is_disabled": 0, "rental_uris": {"ios": "https://dc.lft.to/lastmile_qr_scan", "android": "https://dc.lft.to/lastmile_qr_scan"}, "is_reserved": 0, "fusion_lon": 0.0, "lat": 38.974735833333334, "type": "electric_bike", "name": "5764a8a1cb9b93a1c1577ee8c3c07f40", "bike_id": "5764a8a1cb9b93a1c1577ee8c3c07f40", "fusion_lat": 0.0, "lon": -76.9866555}, {"is_disabled": 0, "rental_uris": {"ios": "https://dc.lft.to/lastmile_qr_scan", "android": "https://dc.lft.to/lastmile_qr_scan"}, "is_reserved": 0, "fusion_lon": 0.0, "lat": 38.88715933333334, "type": "electric_scooter", "name": "652bff3bb2f5e44842cfbbd68d8050ec", "bike_id": "652bff3bb2f5e44842cfbbd68d8050ec", "fusion_lat": 0.0, "lon": -76.99610816666667}, {"is_disabled": 0, "rental_uris": {"ios": "https://dc.lft.to/lastmile_qr_scan", "android": "https://dc.lft.to/lastmile_qr_scan"}, "is_reserved": 0, "fusion_lon": 0.0, "lat": 38.8464855, "type": "electric_bike", "name": "830eb9b8832e5539832948d9a4c47309", "bike_id": "830eb9b8832e5539832948d9a4c47309", "fusion_lat": 0.0, "lon": -76.97074766666667}, {"is_disabled": 0, "rental_uris": {"ios": "https://dc.lft.to/lastmile_qr_scan", "android": "https://dc.lft.to/lastmile_qr_scan"}, "is_reserved": 0, "fusion_lon": 0.0, "lat": 39.029258166666665, "type": "electric_bike", "name": "b7308f93715e0a0f5a2dbb3842ad6e1d", "bike_id": "b7308f93715e0a0f5a2dbb3842ad6e1d", "fusion_lat": 0.0, "lon": -77.01358}, {"is_disabled": 0, "rental_uris": {"ios": "https://dc.lft.to/lastmile_qr_scan", "android": "https://dc.lft.to/lastmile_qr_scan"}, "is_reserved": 0, "fusion_lon": 0.0, "lat": 38.892219, "type": "electric_scooter", "name": "4e0c210b13e865d43532b23778680dc3", "bike_id": "4e0c210b13e865d43532b23778680dc3", "fusion_lat": 0.0, "lon": -77.04640616666667}, {"is_disabled": 0, "rental_uris": {"ios": "https://dc.lft.to/lastmile_qr_scan", "android": "https://dc.lft.to/lastmile_qr_scan"}, "is_reserved": 0, "fusion_lon": 0.0, "lat": 38.92676, "type": "electric_scooter", "name": "562ed5c36c19bc58db4c458b09b51d90", "bike_id": "562ed5c36c19bc58db4c458b09b51d90", "fusion_lat": 0.0, "lon": -77.03058083333333}, {"is_disabled": 0, "rental_uris": {"ios": "https://dc.lft.to/lastmile_qr_scan", "android": "https://dc.lft.to/lastmile_qr_scan"}, "is_reserved": 0, "fusion_lon": 0.0, "lat": 38.8348945, "type": "electric_bike", "name": "3f58d1290cd4751349cb2588a944ffed", "bike_id": "3f58d1290cd4751349cb2588a944ffed", "fusion_lat": 0.0, "lon": -77.00436566666667}, {"is_disabled": 0, "rental_uris": {"ios": "https://dc.lft.to/lastmile_qr_scan", "android": "https://dc.lft.to/lastmile_qr_scan"}, "is_reserved": 0, "fusion_lon": 0.0, "lat": 38.903878666666664, "type": "electric_scooter", "name": "3c929443a414be2550fd79c7b24f2276", "bike_id": "3c929443a414be2550fd79c7b24f2276", "fusion_lat": 0.0, "lon": -76.97388183333334}, {"is_disabled": 0, "rental_uris": {"ios": "https://dc.lft.to/lastmile_qr_scan", "android": "https://dc.lft.to/lastmile_qr_scan"}, "is_reserved": 0, "fusion_lon": 0.0, "lat": 38.90736733333333, "type": "electric_scooter", "name": "116787d03545101ec7ee9e4bd4ce0f50", "bike_id": "116787d03545101ec7ee9e4bd4ce0f50", "fusion_lat": 0.0, "lon": -77.0433925}, {"is_disabled": 0, "rental_uris": {"ios": "https://dc.lft.to/lastmile_qr_scan", "android": "https://dc.lft.to/lastmile_qr_scan"}, "is_reserved": 0, "fusion_lon": 0.0, "lat": 38.92202916666667, "type": "electric_scooter", "name": "11d41bfcd6c0fffed523cdff0b294d51", "bike_id": "11d41bfcd6c0fffed523cdff0b294d51", "fusion_lat": 0.0, "lon": -77.04256233333334}, {"is_disabled": 0, "rental_uris": {"ios": "https://dc.lft.to/lastmile_qr_scan", "android": "https://dc.lft.to/lastmile_qr_scan"}, "is_reserved": 0, "fusion_lon": 0.0, "lat": 38.908482, "type": "electric_scooter", "name": "6a7461f4484cb27dd744c90e2d7b8c71", "bike_id": "6a7461f4484cb27dd744c90e2d7b8c71", "fusion_lat": 0.0, "lon": -76.99797583333333}, {"is_disabled": 0, "rental_uris": {"ios": "https://dc.lft.to/lastmile_qr_scan", "android": "https://dc.lft.to/lastmile_qr_scan"}, "is_reserved": 0, "fusion_lon": 0.0, "lat": 38.932409166666666, "type": "electric_scooter", "name": "5dc924711439f62a5b523d1e3025e943", "bike_id": "5dc924711439f62a5b523d1e3025e943", "fusion_lat": 0.0, "lon": -77.02951533333334}, {"is_disabled": 0, "rental_uris": {"ios": "https://dc.lft.to/lastmile_qr_scan", "android": "https://dc.lft.to/lastmile_qr_scan"}, "is_reserved": 0, "fusion_lon": 0.0, "lat": 38.919486166666665, "type": "electric_scooter", "name": "e28417c5ad7399a4771aaddfeae74971", "bike_id": "e28417c5ad7399a4771aaddfeae74971", "fusion_lat": 0.0, "lon": -77.04162733333334}, {"is_disabled": 0, "rental_uris": {"ios": "https://dc.lft.to/lastmile_qr_scan", "android": "https://dc.lft.to/lastmile_qr_scan"}, "is_reserved": 0, "fusion_lon": 0.0, "lat": 38.905314, "type": "electric_scooter", "name": "9988978c90fca46107782b3406a4c7e0", "bike_id": "9988978c90fca46107782b3406a4c7e0", "fusion_lat": 0.0, "lon": -77.06100383333333}, {"is_disabled": 0, "rental_uris": {"ios": "https://dc.lft.to/lastmile_qr_scan", "android": "https://dc.lft.to/lastmile_qr_scan"}, "is_reserved": 0, "fusion_lon": 0.0, "lat": 38.923373166666664, "type": "electric_scooter", "name": "eb5254eabf57325b07f787720eb517a0", "bike_id": "eb5254eabf57325b07f787720eb517a0", "fusion_lat": 0.0, "lon": -77.056843}, {"is_disabled": 0, "rental_uris": {"ios": "https://dc.lft.to/lastmile_qr_scan", "android": "https://dc.lft.to/lastmile_qr_scan"}, "is_reserved": 0, "fusion_lon": 0.0, "lat": 38.942939833333334, "type": "electric_scooter", "name": "887f3a96010ccde0ea8d01453a760187", "bike_id": "887f3a96010ccde0ea8d01453a760187", "fusion_lat": 0.0, "lon": -77.059421}, {"is_disabled": 0, "rental_uris": {"ios": "https://dc.lft.to/lastmile_qr_scan", "android": "https://dc.lft.to/lastmile_qr_scan"}, "is_reserved": 0, "fusion_lon": 0.0, "lat": 38.91111933333333, "type": "electric_scooter", "name": "a7de3ed497098b736450bdc9ff848915", "bike_id": "a7de3ed497098b736450bdc9ff848915", "fusion_lat": 0.0, "lon": -77.02605116666666}, {"is_disabled": 0, "rental_uris": {"ios": "https://dc.lft.to/lastmile_qr_scan", "android": "https://dc.lft.to/lastmile_qr_scan"}, "is_reserved": 0, "fusion_lon": 0.0, "lat": 38.855639333333336, "type": "electric_bike", "name": "f89e4986d532b8cb0147603eb6892784", "bike_id": "f89e4986d532b8cb0147603eb6892784", "fusion_lat": 0.0, "lon": -77.06335516666667}, {"is_disabled": 0, "rental_uris": {"ios": "https://dc.lft.to/lastmile_qr_scan", "android": "https://dc.lft.to/lastmile_qr_scan"}, "is_reserved": 0, "fusion_lon": 0.0, "lat": 38.9069835, "type": "electric_scooter", "name": "ca46f6f23d7cd2a5ba9b14feee4501f0", "bike_id": "ca46f6f23d7cd2a5ba9b14feee4501f0", "fusion_lat": 0.0, "lon": -77.02984016666667}, {"is_disabled": 0, "rental_uris": {"ios": "https://dc.lft.to/lastmile_qr_scan", "android": "https://dc.lft.to/lastmile_qr_scan"}, "is_reserved": 0, "fusion_lon": 0.0, "lat": 38.92112366666667, "type": "electric_scooter", "name": "0545645dd4af7d9ad17044d6b6aece24", "bike_id": "0545645dd4af7d9ad17044d6b6aece24", "fusion_lat": 0.0, "lon": -77.02213066666667}, {"is_disabled": 0, "rental_uris": {"ios": "https://dc.lft.to/lastmile_qr_scan", "android": "https://dc.lft.to/lastmile_qr_scan"}, "is_reserved": 0, "fusion_lon": 0.0, "lat": 38.846995, "type": "electric_scooter", "name": "808a11c57eed8214da555115dc0008d3", "bike_id": "808a11c57eed8214da555115dc0008d3", "fusion_lat": 0.0, "lon": -76.9962475}, {"is_disabled": 0, "rental_uris": {"ios": "https://dc.lft.to/lastmile_qr_scan", "android": "https://dc.lft.to/lastmile_qr_scan"}, "is_reserved": 0, "fusion_lon": 0.0, "lat": 38.84221483333334, "type": "electric_bike", "name": "e1c32497255ddd7fc955c0c1266b5da8", "bike_id": "e1c32497255ddd7fc955c0c1266b5da8", "fusion_lat": 0.0, "lon": -76.9489605}, {"is_disabled": 0, "rental_uris": {"ios": "https://dc.lft.to/lastmile_qr_scan", "android": "https://dc.lft.to/lastmile_qr_scan"}, "is_reserved": 0, "fusion_lon": 0.0, "lat": 38.8922745, "type": "electric_scooter", "name": "e0c34b0c3aaaf7ef529a286620a83156", "bike_id": "e0c34b0c3aaaf7ef529a286620a83156", "fusion_lat": 0.0, "lon": -77.05005783333333}, {"is_disabled": 0, "rental_uris": {"ios": "https://dc.lft.to/lastmile_qr_scan", "android": "https://dc.lft.to/lastmile_qr_scan"}, "is_reserved": 0, "fusion_lon": 0.0, "lat": 38.983661833333336, "type": "electric_bike", "name": "c1a6a857b6ffab2ad2ea873fe615d5ee", "bike_id": "c1a6a857b6ffab2ad2ea873fe615d5ee", "fusion_lat": 0.0, "lon": -76.98855733333333}, {"is_disabled": 0, "rental_uris": {"ios": "https://dc.lft.to/lastmile_qr_scan", "android": "https://dc.lft.to/lastmile_qr_scan"}, "is_reserved": 0, "fusion_lon": 0.0, "lat": 38.89480283333333, "type": "electric_scooter", "name": "8f5c9a5b7e9cd435b61ba8c4ba4ac8b0", "bike_id": "8f5c9a5b7e9cd435b61ba8c4ba4ac8b0", "fusion_lat": 0.0, "lon": -77.04177616666666}, {"is_disabled": 0, "rental_uris": {"ios": "https://dc.lft.to/lastmile_qr_scan", "android": "https://dc.lft.to/lastmile_qr_scan"}, "is_reserved": 0, "fusion_lon": 0.0, "lat": 38.91612966666667, "type": "electric_scooter", "name": "feac9550768dbf87c3bcf2b3a81676d6", "bike_id": "feac9550768dbf87c3bcf2b3a81676d6", "fusion_lat": 0.0, "lon": -77.04863566666667}, {"is_disabled": 0, "rental_uris": {"ios": "https://dc.lft.to/lastmile_qr_scan", "android": "https://dc.lft.to/lastmile_qr_scan"}, "is_reserved": 0, "fusion_lon": 0.0, "lat": 38.90427733333333, "type": "electric_scooter", "name": "d6835fe7806956d59cbafcc09def2818", "bike_id": "d6835fe7806956d59cbafcc09def2818", "fusion_lat": 0.0, "lon": -77.02697483333333}, {"is_disabled": 0, "rental_uris": {"ios": "https://dc.lft.to/lastmile_qr_scan", "android": "https://dc.lft.to/lastmile_qr_scan"}, "is_reserved": 0, "fusion_lon": 0.0, "lat": 38.915767833333334, "type": "electric_scooter", "name": "a861f2b3944a3e586a7617b53b1d527f", "bike_id": "a861f2b3944a3e586a7617b53b1d527f", "fusion_lat": 0.0, "lon": -77.0504025}, {"is_disabled": 0, "rental_uris": {"ios": "https://dc.lft.to/lastmile_qr_scan", "android": "https://dc.lft.to/lastmile_qr_scan"}, "is_reserved": 0, "fusion_lon": 0.0, "lat": 38.91617933333333, "type": "electric_scooter", "name": "e4da17754a7d1a5789ff2fd0afa6dc13", "bike_id": "e4da17754a7d1a5789ff2fd0afa6dc13", "fusion_lat": 0.0, "lon": -77.031442}, {"is_disabled": 0, "rental_uris": {"ios": "https://dc.lft.to/lastmile_qr_scan", "android": "https://dc.lft.to/lastmile_qr_scan"}, "is_reserved": 0, "fusion_lon": 0.0, "lat": 38.89588333333333, "type": "electric_scooter", "name": "922344c66d3119e61162350d66cedb3e", "bike_id": "922344c66d3119e61162350d66cedb3e", "fusion_lat": 0.0, "lon": -76.98318366666666}, {"is_disabled": 0, "rental_uris": {"ios": "https://dc.lft.to/lastmile_qr_scan", "android": "https://dc.lft.to/lastmile_qr_scan"}, "is_reserved": 0, "fusion_lon": 0.0, "lat": 38.886541, "type": "electric_scooter", "name": "a0e48626faa94ebb75eecbc075f02741", "bike_id": "a0e48626faa94ebb75eecbc075f02741", "fusion_lat": 0.0, "lon": -77.02826833333333}, {"is_disabled": 0, "rental_uris": {"ios": "https://dc.lft.to/lastmile_qr_scan", "android": "https://dc.lft.to/lastmile_qr_scan"}, "is_reserved": 0, "fusion_lon": 0.0, "lat": 38.868884, "type": "electric_scooter", "name": "e7d161992546b15cf3d33209bf3d2108", "bike_id": "e7d161992546b15cf3d33209bf3d2108", "fusion_lat": 0.0, "lon": -76.9900805}, {"is_disabled": 0, "rental_uris": {"ios": "https://dc.lft.to/lastmile_qr_scan", "android": "https://dc.lft.to/lastmile_qr_scan"}, "is_reserved": 0, "fusion_lon": 0.0, "lat": 38.90957616666667, "type": "electric_scooter", "name": "0fda8629d577dbdd36cdc15adea92024", "bike_id": "0fda8629d577dbdd36cdc15adea92024", "fusion_lat": 0.0, "lon": -77.01443583333334}, {"is_disabled": 0, "rental_uris": {"ios": "https://dc.lft.to/lastmile_qr_scan", "android": "https://dc.lft.to/lastmile_qr_scan"}, "is_reserved": 0, "fusion_lon": 0.0, "lat": 38.90051416666667, "type": "electric_scooter", "name": "b16ce038861c3371287e033dc42be0df", "bike_id": "b16ce038861c3371287e033dc42be0df", "fusion_lat": 0.0, "lon": -76.99151466666666}, {"is_disabled": 0, "rental_uris": {"ios": "https://dc.lft.to/lastmile_qr_scan", "android": "https://dc.lft.to/lastmile_qr_scan"}, "is_reserved": 0, "fusion_lon": 0.0, "lat": 38.919941666666666, "type": "electric_scooter", "name": "898be4f4882c5f4443a73bb08594e911", "bike_id": "898be4f4882c5f4443a73bb08594e911", "fusion_lat": 0.0, "lon": -77.0178805}, {"is_disabled": 0, "rental_uris": {"ios": "https://dc.lft.to/lastmile_qr_scan", "android": "https://dc.lft.to/lastmile_qr_scan"}, "is_reserved": 0, "fusion_lon": 0.0, "lat": 38.892417333333334, "type": "electric_scooter", "name": "a974476176928a329ffd2f65cfd03361", "bike_id": "a974476176928a329ffd2f65cfd03361", "fusion_lat": 0.0, "lon": -77.0318975}, {"is_disabled": 0, "rental_uris": {"ios": "https://dc.lft.to/lastmile_qr_scan", "android": "https://dc.lft.to/lastmile_qr_scan"}, "is_reserved": 0, "fusion_lon": 0.0, "lat": 38.92868683333333, "type": "electric_scooter", "name": "19a327f5a66dc0762509b14243274530", "bike_id": "19a327f5a66dc0762509b14243274530", "fusion_lat": 0.0, "lon": -77.03498833333333}, {"is_disabled": 0, "rental_uris": {"ios": "https://dc.lft.to/lastmile_qr_scan", "android": "https://dc.lft.to/lastmile_qr_scan"}, "is_reserved": 0, "fusion_lon": 0.0, "lat": 38.92173183333333, "type": "electric_scooter", "name": "c7d9512fb480a87143f59a416050d92c", "bike_id": "c7d9512fb480a87143f59a416050d92c", "fusion_lat": 0.0, "lon": -77.02667333333333}, {"is_disabled": 0, "rental_uris": {"ios": "https://dc.lft.to/lastmile_qr_scan", "android": "https://dc.lft.to/lastmile_qr_scan"}, "is_reserved": 0, "fusion_lon": 0.0, "lat": 38.896061833333334, "type": "electric_scooter", "name": "19d603a423a061894451f435f7be97bc", "bike_id": "19d603a423a061894451f435f7be97bc", "fusion_lat": 0.0, "lon": -77.04410266666666}, {"is_disabled": 0, "rental_uris": {"ios": "https://dc.lft.to/lastmile_qr_scan", "android": "https://dc.lft.to/lastmile_qr_scan"}, "is_reserved": 0, "fusion_lon": 0.0, "lat": 38.91777283333333, "type": "electric_scooter", "name": "c6ab6247b19be5550c51906d7a4a3175", "bike_id": "c6ab6247b19be5550c51906d7a4a3175", "fusion_lat": 0.0, "lon": -77.02417816666667}, {"is_disabled": 0, "rental_uris": {"ios": "https://dc.lft.to/lastmile_qr_scan", "android": "https://dc.lft.to/lastmile_qr_scan"}, "is_reserved": 0, "fusion_lon": 0.0, "lat": 38.9004915, "type": "electric_scooter", "name": "55b46db190ffd02a2f1022185406a6bb", "bike_id": "55b46db190ffd02a2f1022185406a6bb", "fusion_lat": 0.0, "lon": -77.048665}, {"is_disabled": 0, "rental_uris": {"ios": "https://dc.lft.to/lastmile_qr_scan", "android": "https://dc.lft.to/lastmile_qr_scan"}, "is_reserved": 0, "fusion_lon": 0.0, "lat": 38.92397783333333, "type": "electric_scooter", "name": "ebc77a49b2b83b7cbaa5324abaf6b8ab", "bike_id": "ebc77a49b2b83b7cbaa5324abaf6b8ab", "fusion_lat": 0.0, "lon": -77.0007185}, {"is_disabled": 0, "rental_uris": {"ios": "https://dc.lft.to/lastmile_qr_scan", "android": "https://dc.lft.to/lastmile_qr_scan"}, "is_reserved": 0, "fusion_lon": 0.0, "lat": 38.90433433333333, "type": "electric_scooter", "name": "159c04c7ff0b78fc8f1ad459dbdbdb32", "bike_id": "159c04c7ff0b78fc8f1ad459dbdbdb32", "fusion_lat": 0.0, "lon": -77.0535205}, {"is_disabled": 0, "rental_uris": {"ios": "https://dc.lft.to/lastmile_qr_scan", "android": "https://dc.lft.to/lastmile_qr_scan"}, "is_reserved": 0, "fusion_lon": 0.0, "lat": 38.965542, "type": "electric_bike", "name": "3ecabdf3003792ae790024f0159825b3", "bike_id": "3ecabdf3003792ae790024f0159825b3", "fusion_lat": 0.0, "lon": -77.023017}, {"is_disabled": 0, "rental_uris": {"ios": "https://dc.lft.to/lastmile_qr_scan", "android": "https://dc.lft.to/lastmile_qr_scan"}, "is_reserved": 0, "fusion_lon": 0.0, "lat": 38.95938833333334, "type": "electric_scooter", "name": "7995506d7d01e4a160e3906601d98adf", "bike_id": "7995506d7d01e4a160e3906601d98adf", "fusion_lat": 0.0, "lon": -77.0313045}, {"is_disabled": 0, "rental_uris": {"ios": "https://dc.lft.to/lastmile_qr_scan", "android": "https://dc.lft.to/lastmile_qr_scan"}, "is_reserved": 0, "fusion_lon": 0.0, "lat": 38.908432166666664, "type": "electric_bike", "name": "4c943695995dc796e97abb7104cb9561", "bike_id": "4c943695995dc796e97abb7104cb9561", "fusion_lat": 0.0, "lon": -77.02260916666667}, {"is_disabled": 0, "rental_uris": {"ios": "https://dc.lft.to/lastmile_qr_scan", "android": "https://dc.lft.to/lastmile_qr_scan"}, "is_reserved": 0, "fusion_lon": 0.0, "lat": 38.915155, "type": "electric_scooter", "name": "81286b7074020d4471ee5730b6b6f316", "bike_id": "81286b7074020d4471ee5730b6b6f316", "fusion_lat": 0.0, "lon": -77.0418315}, {"is_disabled": 0, "rental_uris": {"ios": "https://dc.lft.to/lastmile_qr_scan", "android": "https://dc.lft.to/lastmile_qr_scan"}, "is_reserved": 0, "fusion_lon": 0.0, "lat": 38.900179333333334, "type": "electric_scooter", "name": "4278b55e2a299f89f81ac86f5fbf45c2", "bike_id": "4278b55e2a299f89f81ac86f5fbf45c2", "fusion_lat": 0.0, "lon": -76.97969966666666}, {"is_disabled": 0, "rental_uris": {"ios": "https://dc.lft.to/lastmile_qr_scan", "android": "https://dc.lft.to/lastmile_qr_scan"}, "is_reserved": 0, "fusion_lon": 0.0, "lat": 38.892278833333336, "type": "electric_scooter", "name": "c8a5a8c34c28ed78cf7cf1167657e6b0", "bike_id": "c8a5a8c34c28ed78cf7cf1167657e6b0", "fusion_lat": 0.0, "lon": -77.04337066666666}, {"is_disabled": 0, "rental_uris": {"ios": "https://dc.lft.to/lastmile_qr_scan", "android": "https://dc.lft.to/lastmile_qr_scan"}, "is_reserved": 0, "fusion_lon": 0.0, "lat": 38.9424685, "type": "electric_scooter", "name": "0d5bc470071df5d56a1ad632f855e61d", "bike_id": "0d5bc470071df5d56a1ad632f855e61d", "fusion_lat": 0.0, "lon": -77.02178516666666}, {"is_disabled": 0, "rental_uris": {"ios": "https://dc.lft.to/lastmile_qr_scan", "android": "https://dc.lft.to/lastmile_qr_scan"}, "is_reserved": 0, "fusion_lon": 0.0, "lat": 38.897095, "type": "electric_scooter", "name": "b425d3ca905c9933d7414adbf94462b6", "bike_id": "b425d3ca905c9933d7414adbf94462b6", "fusion_lat": 0.0, "lon": -77.02685216666667}, {"is_disabled": 0, "rental_uris": {"ios": "https://dc.lft.to/lastmile_qr_scan", "android": "https://dc.lft.to/lastmile_qr_scan"}, "is_reserved": 0, "fusion_lon": 0.0, "lat": 38.90674416666667, "type": "electric_scooter", "name": "b164b134edfcf414d79a800fbe5fc7c7", "bike_id": "b164b134edfcf414d79a800fbe5fc7c7", "fusion_lat": 0.0, "lon": -76.97935283333334}, {"is_disabled": 0, "rental_uris": {"ios": "https://dc.lft.to/lastmile_qr_scan", "android": "https://dc.lft.to/lastmile_qr_scan"}, "is_reserved": 0, "fusion_lon": 0.0, "lat": 38.892355, "type": "electric_scooter", "name": "2d0b10be1e60a31e9849d7c37d7036e3", "bike_id": "2d0b10be1e60a31e9849d7c37d7036e3", "fusion_lat": 0.0, "lon": -77.0238695}, {"is_disabled": 0, "rental_uris": {"ios": "https://dc.lft.to/lastmile_qr_scan", "android": "https://dc.lft.to/lastmile_qr_scan"}, "is_reserved": 0, "fusion_lon": 0.0, "lat": 38.894433166666666, "type": "electric_scooter", "name": "7309ab845c3f63d9851701ff7c5883b3", "bike_id": "7309ab845c3f63d9851701ff7c5883b3", "fusion_lat": 0.0, "lon": -77.02224533333333}, {"is_disabled": 0, "rental_uris": {"ios": "https://dc.lft.to/lastmile_qr_scan", "android": "https://dc.lft.to/lastmile_qr_scan"}, "is_reserved": 0, "fusion_lon": 0.0, "lat": 38.92238866666667, "type": "electric_scooter", "name": "c204ccf97eb92944dd0c6e8c02e48f0b", "bike_id": "c204ccf97eb92944dd0c6e8c02e48f0b", "fusion_lat": 0.0, "lon": -77.035234}, {"is_disabled": 0, "rental_uris": {"ios": "https://dc.lft.to/lastmile_qr_scan", "android": "https://dc.lft.to/lastmile_qr_scan"}, "is_reserved": 0, "fusion_lon": 0.0, "lat": 38.924452333333335, "type": "electric_scooter", "name": "1dbad1a22c85566aa4cdc57f22c14a23", "bike_id": "1dbad1a22c85566aa4cdc57f22c14a23", "fusion_lat": 0.0, "lon": -77.0420295}, {"is_disabled": 0, "rental_uris": {"ios": "https://dc.lft.to/lastmile_qr_scan", "android": "https://dc.lft.to/lastmile_qr_scan"}, "is_reserved": 0, "fusion_lon": 0.0, "lat": 38.91019083333333, "type": "electric_scooter", "name": "45ceda186c90fd08865eaecfd1047c3f", "bike_id": "45ceda186c90fd08865eaecfd1047c3f", "fusion_lat": 0.0, "lon": -77.05276883333333}, {"is_disabled": 0, "rental_uris": {"ios": "https://dc.lft.to/lastmile_qr_scan", "android": "https://dc.lft.to/lastmile_qr_scan"}, "is_reserved": 0, "fusion_lon": 0.0, "lat": 38.90392333333333, "type": "electric_scooter", "name": "c124d8da77436147bd9fe3f52e20bfb6", "bike_id": "c124d8da77436147bd9fe3f52e20bfb6", "fusion_lat": 0.0, "lon": -76.99004333333333}, {"is_disabled": 0, "rental_uris": {"ios": "https://dc.lft.to/lastmile_qr_scan", "android": "https://dc.lft.to/lastmile_qr_scan"}, "is_reserved": 0, "fusion_lon": 0.0, "lat": 38.8850435, "type": "electric_scooter", "name": "cb8ca53e6db3a082c7e43ac4a5aada7d", "bike_id": "cb8ca53e6db3a082c7e43ac4a5aada7d", "fusion_lat": 0.0, "lon": -77.0056375}, {"is_disabled": 0, "rental_uris": {"ios": "https://dc.lft.to/lastmile_qr_scan", "android": "https://dc.lft.to/lastmile_qr_scan"}, "is_reserved": 0, "fusion_lon": 0.0, "lat": 38.90006866666667, "type": "electric_scooter", "name": "80920a5d4eb77d226ee11ad265d360f7", "bike_id": "80920a5d4eb77d226ee11ad265d360f7", "fusion_lat": 0.0, "lon": -77.00664433333333}, {"is_disabled": 0, "rental_uris": {"ios": "https://dc.lft.to/lastmile_qr_scan", "android": "https://dc.lft.to/lastmile_qr_scan"}, "is_reserved": 0, "fusion_lon": 0.0, "lat": 38.918932833333336, "type": "electric_bike", "name": "55176eded623d1ba796657f84f2d2038", "bike_id": "55176eded623d1ba796657f84f2d2038", "fusion_lat": 0.0, "lon": -77.10177166666666}, {"is_disabled": 0, "rental_uris": {"ios": "https://dc.lft.to/lastmile_qr_scan", "android": "https://dc.lft.to/lastmile_qr_scan"}, "is_reserved": 0, "fusion_lon": 0.0, "lat": 38.897777166666664, "type": "electric_scooter", "name": "abbb9ac377693d843239fff165a59c9e", "bike_id": "abbb9ac377693d843239fff165a59c9e", "fusion_lat": 0.0, "lon": -77.02739933333334}, {"is_disabled": 0, "rental_uris": {"ios": "https://dc.lft.to/lastmile_qr_scan", "android": "https://dc.lft.to/lastmile_qr_scan"}, "is_reserved": 0, "fusion_lon": 0.0, "lat": 38.921549, "type": "electric_scooter", "name": "cedd308bfb89489b8db0e383706ecf26", "bike_id": "cedd308bfb89489b8db0e383706ecf26", "fusion_lat": 0.0, "lon": -77.03393716666666}, {"is_disabled": 0, "rental_uris": {"ios": "https://dc.lft.to/lastmile_qr_scan", "android": "https://dc.lft.to/lastmile_qr_scan"}, "is_reserved": 0, "fusion_lon": 0.0, "lat": 38.905116, "type": "electric_scooter", "name": "4bcf2cebced77901556a6fd5ba97dd15", "bike_id": "4bcf2cebced77901556a6fd5ba97dd15", "fusion_lat": 0.0, "lon": -77.070121}, {"is_disabled": 0, "rental_uris": {"ios": "https://dc.lft.to/lastmile_qr_scan", "android": "https://dc.lft.to/lastmile_qr_scan"}, "is_reserved": 0, "fusion_lon": 0.0, "lat": 38.93590716666667, "type": "electric_scooter", "name": "9288a96577f6b4660477e8e983898b2b", "bike_id": "9288a96577f6b4660477e8e983898b2b", "fusion_lat": 0.0, "lon": -77.0387835}, {"is_disabled": 0, "rental_uris": {"ios": "https://dc.lft.to/lastmile_qr_scan", "android": "https://dc.lft.to/lastmile_qr_scan"}, "is_reserved": 0, "fusion_lon": 0.0, "lat": 38.8997895, "type": "electric_scooter", "name": "a817e66d3b466f34c6e69bbb05803f5c", "bike_id": "a817e66d3b466f34c6e69bbb05803f5c", "fusion_lat": 0.0, "lon": -77.021683}, {"is_disabled": 0, "rental_uris": {"ios": "https://dc.lft.to/lastmile_qr_scan", "android": "https://dc.lft.to/lastmile_qr_scan"}, "is_reserved": 0, "fusion_lon": 0.0, "lat": 38.906429333333335, "type": "electric_scooter", "name": "33be2f66aef346b0aeb3751d26b30785", "bike_id": "33be2f66aef346b0aeb3751d26b30785", "fusion_lat": 0.0, "lon": -77.0246485}, {"is_disabled": 0, "rental_uris": {"ios": "https://dc.lft.to/lastmile_qr_scan", "android": "https://dc.lft.to/lastmile_qr_scan"}, "is_reserved": 0, "fusion_lon": 0.0, "lat": 38.905793333333335, "type": "electric_scooter", "name": "244331c41a50d4044e1946a82f55fa88", "bike_id": "244331c41a50d4044e1946a82f55fa88", "fusion_lat": 0.0, "lon": -77.04039883333333}, {"is_disabled": 0, "rental_uris": {"ios": "https://dc.lft.to/lastmile_qr_scan", "android": "https://dc.lft.to/lastmile_qr_scan"}, "is_reserved": 0, "fusion_lon": 0.0, "lat": 38.92091766666667, "type": "electric_scooter", "name": "dac25042e0db3d912af3a4127cd54f2f", "bike_id": "dac25042e0db3d912af3a4127cd54f2f", "fusion_lat": 0.0, "lon": -77.03232316666667}, {"is_disabled": 0, "rental_uris": {"ios": "https://dc.lft.to/lastmile_qr_scan", "android": "https://dc.lft.to/lastmile_qr_scan"}, "is_reserved": 0, "fusion_lon": 0.0, "lat": 38.835851, "type": "electric_bike", "name": "f668cbda367821082ad9ac776ab05442", "bike_id": "f668cbda367821082ad9ac776ab05442", "fusion_lat": 0.0, "lon": -76.990282}, {"is_disabled": 0, "rental_uris": {"ios": "https://dc.lft.to/lastmile_qr_scan", "android": "https://dc.lft.to/lastmile_qr_scan"}, "is_reserved": 0, "fusion_lon": 0.0, "lat": 38.901583, "type": "electric_scooter", "name": "b1001bd62ca8e2b45806526257eb71e1", "bike_id": "b1001bd62ca8e2b45806526257eb71e1", "fusion_lat": 0.0, "lon": -77.04379633333333}, {"is_disabled": 0, "rental_uris": {"ios": "https://dc.lft.to/lastmile_qr_scan", "android": "https://dc.lft.to/lastmile_qr_scan"}, "is_reserved": 0, "fusion_lon": 0.0, "lat": 38.9286735, "type": "electric_scooter", "name": "dd2d8e21339645ac2d5a5bfa3513b0f4", "bike_id": "dd2d8e21339645ac2d5a5bfa3513b0f4", "fusion_lat": 0.0, "lon": -77.07891133333334}, {"is_disabled": 0, "rental_uris": {"ios": "https://dc.lft.to/lastmile_qr_scan", "android": "https://dc.lft.to/lastmile_qr_scan"}, "is_reserved": 0, "fusion_lon": 0.0, "lat": 38.90165366666667, "type": "electric_scooter", "name": "4d48710a0a626930202adbdb07c1c71a", "bike_id": "4d48710a0a626930202adbdb07c1c71a", "fusion_lat": 0.0, "lon": -77.02971633333334}, {"is_disabled": 0, "rental_uris": {"ios": "https://dc.lft.to/lastmile_qr_scan", "android": "https://dc.lft.to/lastmile_qr_scan"}, "is_reserved": 0, "fusion_lon": 0.0, "lat": 38.923303, "type": "electric_scooter", "name": "ba80974c0fd7ec30888ae228c59b0c33", "bike_id": "ba80974c0fd7ec30888ae228c59b0c33", "fusion_lat": 0.0, "lon": -77.05678833333333}, {"is_disabled": 0, "rental_uris": {"ios": "https://dc.lft.to/lastmile_qr_scan", "android": "https://dc.lft.to/lastmile_qr_scan"}, "is_reserved": 0, "fusion_lon": 0.0, "lat": 38.9238485, "type": "electric_scooter", "name": "e7f9c2c337dfb16c26d46aeeb4f9aef9", "bike_id": "e7f9c2c337dfb16c26d46aeeb4f9aef9", "fusion_lat": 0.0, "lon": -77.02564}, {"is_disabled": 0, "rental_uris": {"ios": "https://dc.lft.to/lastmile_qr_scan", "android": "https://dc.lft.to/lastmile_qr_scan"}, "is_reserved": 0, "fusion_lon": 0.0, "lat": 38.935316, "type": "electric_scooter", "name": "2a1081f36ef06d97fd7bbe92626c3035", "bike_id": "2a1081f36ef06d97fd7bbe92626c3035", "fusion_lat": 0.0, "lon": -77.03503316666666}, {"is_disabled": 0, "rental_uris": {"ios": "https://dc.lft.to/lastmile_qr_scan", "android": "https://dc.lft.to/lastmile_qr_scan"}, "is_reserved": 0, "fusion_lon": 0.0, "lat": 38.88378816666667, "type": "electric_scooter", "name": "a61238f0e08494958f6a2630f6776c5f", "bike_id": "a61238f0e08494958f6a2630f6776c5f", "fusion_lat": 0.0, "lon": -76.92847816666666}, {"is_disabled": 0, "rental_uris": {"ios": "https://dc.lft.to/lastmile_qr_scan", "android": "https://dc.lft.to/lastmile_qr_scan"}, "is_reserved": 0, "fusion_lon": 0.0, "lat": 38.8964065, "type": "electric_scooter", "name": "ece42b64a48bb454d67b083ed6747c7d", "bike_id": "ece42b64a48bb454d67b083ed6747c7d", "fusion_lat": 0.0, "lon": -77.00915383333333}, {"is_disabled": 0, "rental_uris": {"ios": "https://dc.lft.to/lastmile_qr_scan", "android": "https://dc.lft.to/lastmile_qr_scan"}, "is_reserved": 0, "fusion_lon": 0.0, "lat": 38.916281166666664, "type": "electric_bike", "name": "71416310aff6f3ee7e615f42b995e459", "bike_id": "71416310aff6f3ee7e615f42b995e459", "fusion_lat": 0.0, "lon": -77.008373}, {"is_disabled": 0, "rental_uris": {"ios": "https://dc.lft.to/lastmile_qr_scan", "android": "https://dc.lft.to/lastmile_qr_scan"}, "is_reserved": 0, "fusion_lon": 0.0, "lat": 38.948188, "type": "electric_scooter", "name": "82d3a6afa3daead756bad48255474f1c", "bike_id": "82d3a6afa3daead756bad48255474f1c", "fusion_lat": 0.0, "lon": -77.02547433333334}, {"is_disabled": 0, "rental_uris": {"ios": "https://dc.lft.to/lastmile_qr_scan", "android": "https://dc.lft.to/lastmile_qr_scan"}, "is_reserved": 0, "fusion_lon": 0.0, "lat": 38.85219466666667, "type": "electric_bike", "name": "ed83dda108733a733bea994ab19e6117", "bike_id": "ed83dda108733a733bea994ab19e6117", "fusion_lat": 0.0, "lon": -76.993715}, {"is_disabled": 0, "rental_uris": {"ios": "https://dc.lft.to/lastmile_qr_scan", "android": "https://dc.lft.to/lastmile_qr_scan"}, "is_reserved": 0, "fusion_lon": 0.0, "lat": 38.91663833333333, "type": "electric_scooter", "name": "c7e743def89450a8696371592d8cd723", "bike_id": "c7e743def89450a8696371592d8cd723", "fusion_lat": 0.0, "lon": -77.04391383333333}, {"is_disabled": 0, "rental_uris": {"ios": "https://dc.lft.to/lastmile_qr_scan", "android": "https://dc.lft.to/lastmile_qr_scan"}, "is_reserved": 0, "fusion_lon": 0.0, "lat": 38.91914533333333, "type": "electric_scooter", "name": "c595c0afdd47f34a806e5fe9a89ec683", "bike_id": "c595c0afdd47f34a806e5fe9a89ec683", "fusion_lat": 0.0, "lon": -77.03429783333333}, {"is_disabled": 0, "rental_uris": {"ios": "https://dc.lft.to/lastmile_qr_scan", "android": "https://dc.lft.to/lastmile_qr_scan"}, "is_reserved": 0, "fusion_lon": 0.0, "lat": 38.9045955, "type": "electric_scooter", "name": "c60a1990b893cc3f240914d58673b455", "bike_id": "c60a1990b893cc3f240914d58673b455", "fusion_lat": 0.0, "lon": -77.06298833333334}, {"is_disabled": 0, "rental_uris": {"ios": "https://dc.lft.to/lastmile_qr_scan", "android": "https://dc.lft.to/lastmile_qr_scan"}, "is_reserved": 0, "fusion_lon": 0.0, "lat": 38.896099666666665, "type": "electric_scooter", "name": "cc9dad18b44166b9db862438d4e30796", "bike_id": "cc9dad18b44166b9db862438d4e30796", "fusion_lat": 0.0, "lon": -77.044693}, {"is_disabled": 0, "rental_uris": {"ios": "https://dc.lft.to/lastmile_qr_scan", "android": "https://dc.lft.to/lastmile_qr_scan"}, "is_reserved": 0, "fusion_lon": 0.0, "lat": 38.938619833333334, "type": "electric_scooter", "name": "4085c31cdc8a2097523bce636ca63e2f", "bike_id": "4085c31cdc8a2097523bce636ca63e2f", "fusion_lat": 0.0, "lon": -77.030508}, {"is_disabled": 0, "rental_uris": {"ios": "https://dc.lft.to/lastmile_qr_scan", "android": "https://dc.lft.to/lastmile_qr_scan"}, "is_reserved": 0, "fusion_lon": 0.0, "lat": 38.8828215, "type": "electric_bike", "name": "2cac93d0eef02183ec5ba4d17f224c96", "bike_id": "2cac93d0eef02183ec5ba4d17f224c96", "fusion_lat": 0.0, "lon": -76.93239633333333}, {"is_disabled": 0, "rental_uris": {"ios": "https://dc.lft.to/lastmile_qr_scan", "android": "https://dc.lft.to/lastmile_qr_scan"}, "is_reserved": 0, "fusion_lon": 0.0, "lat": 38.90689183333333, "type": "electric_scooter", "name": "40c5f650ad7628b0bbda0a7cb1f9764b", "bike_id": "40c5f650ad7628b0bbda0a7cb1f9764b", "fusion_lat": 0.0, "lon": -77.0532385}, {"is_disabled": 0, "rental_uris": {"ios": "https://dc.lft.to/lastmile_qr_scan", "android": "https://dc.lft.to/lastmile_qr_scan"}, "is_reserved": 0, "fusion_lon": 0.0, "lat": 38.89749333333334, "type": "electric_scooter", "name": "5b05173e28bbc9d5a885f2664a2f316e", "bike_id": "5b05173e28bbc9d5a885f2664a2f316e", "fusion_lat": 0.0, "lon": -77.0332065}, {"is_disabled": 0, "rental_uris": {"ios": "https://dc.lft.to/lastmile_qr_scan", "android": "https://dc.lft.to/lastmile_qr_scan"}, "is_reserved": 0, "fusion_lon": 0.0, "lat": 38.90457933333333, "type": "electric_scooter", "name": "6d51537d43c1a00bfb504b1b889893e0", "bike_id": "6d51537d43c1a00bfb504b1b889893e0", "fusion_lat": 0.0, "lon": -77.06292116666667}, {"is_disabled": 0, "rental_uris": {"ios": "https://dc.lft.to/lastmile_qr_scan", "android": "https://dc.lft.to/lastmile_qr_scan"}, "is_reserved": 0, "fusion_lon": 0.0, "lat": 38.89930483333333, "type": "electric_scooter", "name": "022bc4883071b88e1b8debf3e4518558", "bike_id": "022bc4883071b88e1b8debf3e4518558", "fusion_lat": 0.0, "lon": -77.022256}, {"is_disabled": 0, "rental_uris": {"ios": "https://dc.lft.to/lastmile_qr_scan", "android": "https://dc.lft.to/lastmile_qr_scan"}, "is_reserved": 0, "fusion_lon": 0.0, "lat": 38.95370583333333, "type": "electric_scooter", "name": "2e2173db9d09b2ba9621cd6a3bff33d2", "bike_id": "2e2173db9d09b2ba9621cd6a3bff33d2", "fusion_lat": 0.0, "lon": -76.9916765}, {"is_disabled": 0, "rental_uris": {"ios": "https://dc.lft.to/lastmile_qr_scan", "android": "https://dc.lft.to/lastmile_qr_scan"}, "is_reserved": 0, "fusion_lon": 0.0, "lat": 38.93084733333333, "type": "electric_scooter", "name": "bdb1d87ea92e5baa3592680e2b040c10", "bike_id": "bdb1d87ea92e5baa3592680e2b040c10", "fusion_lat": 0.0, "lon": -77.03441583333333}, {"is_disabled": 0, "rental_uris": {"ios": "https://dc.lft.to/lastmile_qr_scan", "android": "https://dc.lft.to/lastmile_qr_scan"}, "is_reserved": 0, "fusion_lon": 0.0, "lat": 38.980279833333334, "type": "electric_bike", "name": "ccbc076aa618cc706f651bb2d25cac6b", "bike_id": "ccbc076aa618cc706f651bb2d25cac6b", "fusion_lat": 0.0, "lon": -76.9424875}, {"is_disabled": 0, "rental_uris": {"ios": "https://dc.lft.to/lastmile_qr_scan", "android": "https://dc.lft.to/lastmile_qr_scan"}, "is_reserved": 0, "fusion_lon": 0.0, "lat": 38.886183833333334, "type": "electric_scooter", "name": "7569891ccf2d121498b1ea55ce01e767", "bike_id": "7569891ccf2d121498b1ea55ce01e767", "fusion_lat": 0.0, "lon": -77.02205233333333}, {"is_disabled": 0, "rental_uris": {"ios": "https://dc.lft.to/lastmile_qr_scan", "android": "https://dc.lft.to/lastmile_qr_scan"}, "is_reserved": 0, "fusion_lon": 0.0, "lat": 38.937024666666666, "type": "electric_bike", "name": "b450666382ca623a0cf94222f6e137aa", "bike_id": "b450666382ca623a0cf94222f6e137aa", "fusion_lat": 0.0, "lon": -77.02122883333334}, {"is_disabled": 0, "rental_uris": {"ios": "https://dc.lft.to/lastmile_qr_scan", "android": "https://dc.lft.to/lastmile_qr_scan"}, "is_reserved": 0, "fusion_lon": 0.0, "lat": 38.9138265, "type": "electric_scooter", "name": "4f2fcf5a4e6186ceb4980913eb1daa79", "bike_id": "4f2fcf5a4e6186ceb4980913eb1daa79", "fusion_lat": 0.0, "lon": -77.02960583333333}, {"is_disabled": 0, "rental_uris": {"ios": "https://dc.lft.to/lastmile_qr_scan", "android": "https://dc.lft.to/lastmile_qr_scan"}, "is_reserved": 0, "fusion_lon": 0.0, "lat": 38.926461333333336, "type": "electric_scooter", "name": "59575311d0895f98e82aacec3bea81b3", "bike_id": "59575311d0895f98e82aacec3bea81b3", "fusion_lat": 0.0, "lon": -77.038487}, {"is_disabled": 0, "rental_uris": {"ios": "https://dc.lft.to/lastmile_qr_scan", "android": "https://dc.lft.to/lastmile_qr_scan"}, "is_reserved": 0, "fusion_lon": 0.0, "lat": 38.871752666666666, "type": "electric_bike", "name": "ce1dc59d5b6a469713774984e1a6351d", "bike_id": "ce1dc59d5b6a469713774984e1a6351d", "fusion_lat": 0.0, "lon": -77.233953}, {"is_disabled": 0, "rental_uris": {"ios": "https://dc.lft.to/lastmile_qr_scan", "android": "https://dc.lft.to/lastmile_qr_scan"}, "is_reserved": 0, "fusion_lon": 0.0, "lat": 38.88620516666667, "type": "electric_scooter", "name": "a00927ce61fab0dacde0978fe1035234", "bike_id": "a00927ce61fab0dacde0978fe1035234", "fusion_lat": 0.0, "lon": -76.977111}, {"is_disabled": 0, "rental_uris": {"ios": "https://dc.lft.to/lastmile_qr_scan", "android": "https://dc.lft.to/lastmile_qr_scan"}, "is_reserved": 0, "fusion_lon": 0.0, "lat": 38.90866183333333, "type": "electric_scooter", "name": "076d765019d38ffa6da7a26a0774f6c7", "bike_id": "076d765019d38ffa6da7a26a0774f6c7", "fusion_lat": 0.0, "lon": -77.0322335}, {"is_disabled": 0, "rental_uris": {"ios": "https://dc.lft.to/lastmile_qr_scan", "android": "https://dc.lft.to/lastmile_qr_scan"}, "is_reserved": 0, "fusion_lon": 0.0, "lat": 38.93696416666667, "type": "electric_scooter", "name": "e17b8e312fe8eabdef315b85125e0639", "bike_id": "e17b8e312fe8eabdef315b85125e0639", "fusion_lat": 0.0, "lon": -77.056045}, {"is_disabled": 0, "rental_uris": {"ios": "https://dc.lft.to/lastmile_qr_scan", "android": "https://dc.lft.to/lastmile_qr_scan"}, "is_reserved": 0, "fusion_lon": 0.0, "lat": 38.9056885, "type": "electric_scooter", "name": "f3c7eb1adf69ecc453f415bea4bf0211", "bike_id": "f3c7eb1adf69ecc453f415bea4bf0211", "fusion_lat": 0.0, "lon": -77.04338916666667}, {"is_disabled": 0, "rental_uris": {"ios": "https://dc.lft.to/lastmile_qr_scan", "android": "https://dc.lft.to/lastmile_qr_scan"}, "is_reserved": 0, "fusion_lon": 0.0, "lat": 38.8961215, "type": "electric_scooter", "name": "fad8364740d0fece2f08ab2f40efc3ea", "bike_id": "fad8364740d0fece2f08ab2f40efc3ea", "fusion_lat": 0.0, "lon": -77.04378416666667}, {"is_disabled": 0, "rental_uris": {"ios": "https://dc.lft.to/lastmile_qr_scan", "android": "https://dc.lft.to/lastmile_qr_scan"}, "is_reserved": 0, "fusion_lon": 0.0, "lat": 38.9085855, "type": "electric_scooter", "name": "ce38c4a71736cfc148b4253dcc07787d", "bike_id": "ce38c4a71736cfc148b4253dcc07787d", "fusion_lat": 0.0, "lon": -77.023548}, {"is_disabled": 0, "rental_uris": {"ios": "https://dc.lft.to/lastmile_qr_scan", "android": "https://dc.lft.to/lastmile_qr_scan"}, "is_reserved": 0, "fusion_lon": 0.0, "lat": 38.91997033333333, "type": "electric_scooter", "name": "1ece1e1f88d36dbf322772add9c1f105", "bike_id": "1ece1e1f88d36dbf322772add9c1f105", "fusion_lat": 0.0, "lon": -77.0316945}, {"is_disabled": 0, "rental_uris": {"ios": "https://dc.lft.to/lastmile_qr_scan", "android": "https://dc.lft.to/lastmile_qr_scan"}, "is_reserved": 0, "fusion_lon": 0.0, "lat": 38.89635233333333, "type": "electric_scooter", "name": "3fadfae52d44b1f330d502948aa32633", "bike_id": "3fadfae52d44b1f330d502948aa32633", "fusion_lat": 0.0, "lon": -77.02214766666667}, {"is_disabled": 0, "rental_uris": {"ios": "https://dc.lft.to/lastmile_qr_scan", "android": "https://dc.lft.to/lastmile_qr_scan"}, "is_reserved": 0, "fusion_lon": 0.0, "lat": 38.88426033333333, "type": "electric_scooter", "name": "b9d756e39f9cbd83d80d77706e79938f", "bike_id": "b9d756e39f9cbd83d80d77706e79938f", "fusion_lat": 0.0, "lon": -77.02928683333333}, {"is_disabled": 0, "rental_uris": {"ios": "https://dc.lft.to/lastmile_qr_scan", "android": "https://dc.lft.to/lastmile_qr_scan"}, "is_reserved": 0, "fusion_lon": 0.0, "lat": 38.90085916666666, "type": "electric_scooter", "name": "67fcc30ae12acfbb1304085c051fb1c7", "bike_id": "67fcc30ae12acfbb1304085c051fb1c7", "fusion_lat": 0.0, "lon": -76.99487516666667}, {"is_disabled": 0, "rental_uris": {"ios": "https://dc.lft.to/lastmile_qr_scan", "android": "https://dc.lft.to/lastmile_qr_scan"}, "is_reserved": 0, "fusion_lon": 0.0, "lat": 38.91289066666667, "type": "electric_scooter", "name": "9029c70f7dc935f4fd0753a0f06cddee", "bike_id": "9029c70f7dc935f4fd0753a0f06cddee", "fusion_lat": 0.0, "lon": -77.045154}, {"is_disabled": 0, "rental_uris": {"ios": "https://dc.lft.to/lastmile_qr_scan", "android": "https://dc.lft.to/lastmile_qr_scan"}, "is_reserved": 0, "fusion_lon": 0.0, "lat": 38.923596, "type": "electric_scooter", "name": "a7ba90e7c57c0ec59adbe96db87e1921", "bike_id": "a7ba90e7c57c0ec59adbe96db87e1921", "fusion_lat": 0.0, "lon": -77.033761}, {"is_disabled": 0, "rental_uris": {"ios": "https://dc.lft.to/lastmile_qr_scan", "android": "https://dc.lft.to/lastmile_qr_scan"}, "is_reserved": 0, "fusion_lon": 0.0, "lat": 38.9248335, "type": "electric_scooter", "name": "efa412b4a1194dc6dcb537e70aa0c625", "bike_id": "efa412b4a1194dc6dcb537e70aa0c625", "fusion_lat": 0.0, "lon": -77.02708783333334}, {"is_disabled": 0, "rental_uris": {"ios": "https://dc.lft.to/lastmile_qr_scan", "android": "https://dc.lft.to/lastmile_qr_scan"}, "is_reserved": 0, "fusion_lon": 0.0, "lat": 38.87164033333333, "type": "electric_scooter", "name": "6387c0e205b7f917abc6ee0220f42cc3", "bike_id": "6387c0e205b7f917abc6ee0220f42cc3", "fusion_lat": 0.0, "lon": -77.01358783333333}, {"is_disabled": 0, "rental_uris": {"ios": "https://dc.lft.to/lastmile_qr_scan", "android": "https://dc.lft.to/lastmile_qr_scan"}, "is_reserved": 0, "fusion_lon": 0.0, "lat": 38.892191333333336, "type": "electric_scooter", "name": "5253a4baa4f843fee19dcd21239e983e", "bike_id": "5253a4baa4f843fee19dcd21239e983e", "fusion_lat": 0.0, "lon": -77.04639083333333}, {"is_disabled": 0, "rental_uris": {"ios": "https://dc.lft.to/lastmile_qr_scan", "android": "https://dc.lft.to/lastmile_qr_scan"}, "is_reserved": 0, "fusion_lon": 0.0, "lat": 38.89751166666667, "type": "electric_scooter", "name": "f63844f9ed1f9637b84195600e0951bf", "bike_id": "f63844f9ed1f9637b84195600e0951bf", "fusion_lat": 0.0, "lon": -77.0249945}, {"is_disabled": 0, "rental_uris": {"ios": "https://dc.lft.to/lastmile_qr_scan", "android": "https://dc.lft.to/lastmile_qr_scan"}, "is_reserved": 0, "fusion_lon": 0.0, "lat": 38.94918283333333, "type": "electric_scooter", "name": "e704bb8625e31d03d8d1d0332677d818", "bike_id": "e704bb8625e31d03d8d1d0332677d818", "fusion_lat": 0.0, "lon": -77.01867366666667}, {"is_disabled": 0, "rental_uris": {"ios": "https://dc.lft.to/lastmile_qr_scan", "android": "https://dc.lft.to/lastmile_qr_scan"}, "is_reserved": 0, "fusion_lon": 0.0, "lat": 38.900639166666664, "type": "electric_scooter", "name": "026cad4f923c98f9995386bea1006e1f", "bike_id": "026cad4f923c98f9995386bea1006e1f", "fusion_lat": 0.0, "lon": -76.99629666666667}, {"is_disabled": 0, "rental_uris": {"ios": "https://dc.lft.to/lastmile_qr_scan", "android": "https://dc.lft.to/lastmile_qr_scan"}, "is_reserved": 0, "fusion_lon": 0.0, "lat": 38.9564005, "type": "electric_scooter", "name": "5933aa7148ff347ccb36ff4f40269117", "bike_id": "5933aa7148ff347ccb36ff4f40269117", "fusion_lat": 0.0, "lon": -77.0194895}, {"is_disabled": 0, "rental_uris": {"ios": "https://dc.lft.to/lastmile_qr_scan", "android": "https://dc.lft.to/lastmile_qr_scan"}, "is_reserved": 0, "fusion_lon": 0.0, "lat": 38.89235383333333, "type": "electric_scooter", "name": "af0973167a0b77a8b8a6568a9c46a898", "bike_id": "af0973167a0b77a8b8a6568a9c46a898", "fusion_lat": 0.0, "lon": -77.0418255}, {"is_disabled": 0, "rental_uris": {"ios": "https://dc.lft.to/lastmile_qr_scan", "android": "https://dc.lft.to/lastmile_qr_scan"}, "is_reserved": 0, "fusion_lon": 0.0, "lat": 38.901257, "type": "electric_scooter", "name": "78def7226ef756a6a6cc882d2fd310bd", "bike_id": "78def7226ef756a6a6cc882d2fd310bd", "fusion_lat": 0.0, "lon": -77.012459}, {"is_disabled": 0, "rental_uris": {"ios": "https://dc.lft.to/lastmile_qr_scan", "android": "https://dc.lft.to/lastmile_qr_scan"}, "is_reserved": 0, "fusion_lon": 0.0, "lat": 38.9047205, "type": "electric_scooter", "name": "78a17fdb9c153500b688116983990ba6", "bike_id": "78a17fdb9c153500b688116983990ba6", "fusion_lat": 0.0, "lon": -77.0291895}, {"is_disabled": 0, "rental_uris": {"ios": "https://dc.lft.to/lastmile_qr_scan", "android": "https://dc.lft.to/lastmile_qr_scan"}, "is_reserved": 0, "fusion_lon": 0.0, "lat": 38.921178833333336, "type": "electric_scooter", "name": "c406e4663745607f0050f1b411b903b2", "bike_id": "c406e4663745607f0050f1b411b903b2", "fusion_lat": 0.0, "lon": -77.020652}, {"is_disabled": 0, "rental_uris": {"ios": "https://dc.lft.to/lastmile_qr_scan", "android": "https://dc.lft.to/lastmile_qr_scan"}, "is_reserved": 0, "fusion_lon": 0.0, "lat": 38.90305683333333, "type": "electric_scooter", "name": "6404af3413edebab1c4638c1bfb401c8", "bike_id": "6404af3413edebab1c4638c1bfb401c8", "fusion_lat": 0.0, "lon": -77.04956083333333}, {"is_disabled": 0, "rental_uris": {"ios": "https://dc.lft.to/lastmile_qr_scan", "android": "https://dc.lft.to/lastmile_qr_scan"}, "is_reserved": 0, "fusion_lon": 0.0, "lat": 38.917373833333336, "type": "electric_scooter", "name": "1f3bf375a651a361f7f2faa128fc7162", "bike_id": "1f3bf375a651a361f7f2faa128fc7162", "fusion_lat": 0.0, "lon": -77.02497433333333}, {"is_disabled": 0, "rental_uris": {"ios": "https://dc.lft.to/lastmile_qr_scan", "android": "https://dc.lft.to/lastmile_qr_scan"}, "is_reserved": 0, "fusion_lon": 0.0, "lat": 38.91574266666667, "type": "electric_scooter", "name": "b144d687ce42474d5a8a63d22a22f6b8", "bike_id": "b144d687ce42474d5a8a63d22a22f6b8", "fusion_lat": 0.0, "lon": -77.024103}, {"is_disabled": 0, "rental_uris": {"ios": "https://dc.lft.to/lastmile_qr_scan", "android": "https://dc.lft.to/lastmile_qr_scan"}, "is_reserved": 0, "fusion_lon": 0.0, "lat": 38.907224, "type": "electric_scooter", "name": "ace0c4bda88d96c265dc33509f7d81e2", "bike_id": "ace0c4bda88d96c265dc33509f7d81e2", "fusion_lat": 0.0, "lon": -77.03956466666666}, {"is_disabled": 0, "rental_uris": {"ios": "https://dc.lft.to/lastmile_qr_scan", "android": "https://dc.lft.to/lastmile_qr_scan"}, "is_reserved": 0, "fusion_lon": 0.0, "lat": 38.8922305, "type": "electric_scooter", "name": "a20d238b9ee2d2fcdd27a9daf37cd502", "bike_id": "a20d238b9ee2d2fcdd27a9daf37cd502", "fusion_lat": 0.0, "lon": -77.04690616666667}, {"is_disabled": 0, "rental_uris": {"ios": "https://dc.lft.to/lastmile_qr_scan", "android": "https://dc.lft.to/lastmile_qr_scan"}, "is_reserved": 0, "fusion_lon": 0.0, "lat": 38.87659083333333, "type": "electric_scooter", "name": "533ba0b71cbd56ec10c5c031e423cbfb", "bike_id": "533ba0b71cbd56ec10c5c031e423cbfb", "fusion_lat": 0.0, "lon": -77.00957716666667}, {"is_disabled": 0, "rental_uris": {"ios": "https://dc.lft.to/lastmile_qr_scan", "android": "https://dc.lft.to/lastmile_qr_scan"}, "is_reserved": 0, "fusion_lon": 0.0, "lat": 38.96190716666667, "type": "electric_bike", "name": "66bc01e532f3a60a8607036884a5af13", "bike_id": "66bc01e532f3a60a8607036884a5af13", "fusion_lat": 0.0, "lon": -77.09903416666667}, {"is_disabled": 0, "rental_uris": {"ios": "https://dc.lft.to/lastmile_qr_scan", "android": "https://dc.lft.to/lastmile_qr_scan"}, "is_reserved": 0, "fusion_lon": 0.0, "lat": 38.90600383333334, "type": "electric_scooter", "name": "55b8fc27b5b566dfb0df50b1a08e2153", "bike_id": "55b8fc27b5b566dfb0df50b1a08e2153", "fusion_lat": 0.0, "lon": -77.04162366666667}, {"is_disabled": 0, "rental_uris": {"ios": "https://dc.lft.to/lastmile_qr_scan", "android": "https://dc.lft.to/lastmile_qr_scan"}, "is_reserved": 0, "fusion_lon": 0.0, "lat": 38.929193833333336, "type": "electric_scooter", "name": "1e55dd311be932163b27ba8353f04a9e", "bike_id": "1e55dd311be932163b27ba8353f04a9e", "fusion_lat": 0.0, "lon": -77.03251433333334}, {"is_disabled": 0, "rental_uris": {"ios": "https://dc.lft.to/lastmile_qr_scan", "android": "https://dc.lft.to/lastmile_qr_scan"},