{"data": {"bikes": [{"bike_id": "76473c094d0a5cdae62708deab189f20", "type": "electric_scooter", "is_disabled": 0, "lat": 38.897112166666666, "rental_uris": {"ios": "https://dc.lft.to/lastmile_qr_scan", "android": "https://dc.lft.to/lastmile_qr_scan"}, "is_reserved": 0, "fusion_lon": 0.0, "fusion_lat": 0.0, "lon": -77.02296966666667, "name": "76473c094d0a5cdae62708deab189f20"}, {"bike_id": "94b9c361e6efb152eccbea6d957afcda", "type": "electric_scooter", "is_disabled": 0, "lat": 38.922501, "rental_uris": {"ios": "https://dc.lft.to/lastmile_qr_scan", "android": "https://dc.lft.to/lastmile_qr_scan"}, "is_reserved": 0, "fusion_lon": 0.0, "fusion_lat": 0.0, "lon": -77.01970633333333, "name": "94b9c361e6efb152eccbea6d957afcda"}, {"bike_id": "7e7ac9dababc6e63a49563b041819895", "type": "electric_scooter", "is_disabled": 0, "lat": 38.88162483333333, "rental_uris": {"ios": "https://dc.lft.to/lastmile_qr_scan", "android": "https://dc.lft.to/lastmile_qr_scan"}, "is_reserved": 0, "fusion_lon": 0.0, "fusion_lat": 0.0, "lon": -77.02768916666666, "name": "7e7ac9dababc6e63a49563b041819895"}, {"bike_id": "e56c217224a88232d56fc19550592c7a", "type": "electric_scooter", "is_disabled": 0, "lat": 38.90329283333333, "rental_uris": {"ios": "https://dc.lft.to/lastmile_qr_scan", "android": "https://dc.lft.to/lastmile_qr_scan"}, "is_reserved": 0, "fusion_lon": 0.0, "fusion_lat": 0.0, "lon": -76.9912315, "name": "e56c217224a88232d56fc19550592c7a"}, {"bike_id": "9ed61821a2ef418f2614b9f990483462", "type": "electric_bike", "is_disabled": 0, "lat": 38.809759666666665, "rental_uris": {"ios": "https://dc.lft.to/lastmile_qr_scan", "android": "https://dc.lft.to/lastmile_qr_scan"}, "is_reserved": 0, "fusion_lon": 0.0, "fusion_lat": 0.0, "lon": -77.08629433333333, "name": "9ed61821a2ef418f2614b9f990483462"}, {"bike_id": "4cffd8d178b4d323a5f06cb108024c2a", "type": "electric_scooter", "is_disabled": 0, "lat": 38.8637345, "rental_uris": {"ios": "https://dc.lft.to/lastmile_qr_scan", "android": "https://dc.lft.to/lastmile_qr_scan"}, "is_reserved": 0, "fusion_lon": 0.0, "fusion_lat": 0.0, "lon": -76.990585, "name": "4cffd8d178b4d323a5f06cb108024c2a"}, {"bike_id": "ecf07c5d1ab6e9737204db4572ed9768", "type": "electric_scooter", "is_disabled": 0, "lat": 38.90025133333333, "rental_uris": {"ios": "https://dc.lft.to/lastmile_qr_scan", "android": "https://dc.lft.to/lastmile_qr_scan"}, "is_reserved": 0, "fusion_lon": 0.0, "fusion_lat": 0.0, "lon": -77.00181483333333, "name": "ecf07c5d1ab6e9737204db4572ed9768"}, {"bike_id": "a4d4315caeeeaf8bf85d9f7b53553cd6", "type": "electric_scooter", "is_disabled": 0, "lat": 38.912638333333334, "rental_uris": {"ios": "https://dc.lft.to/lastmile_qr_scan", "android": "https://dc.lft.to/lastmile_qr_scan"}, "is_reserved": 0, "fusion_lon": 0.0, "fusion_lat": 0.0, "lon": -77.03861866666666, "name": "a4d4315caeeeaf8bf85d9f7b53553cd6"}, {"bike_id": "9ca1f82e7e6924e279919647b259592d", "type": "electric_scooter", "is_disabled": 0, "lat": 38.892208833333335, "rental_uris": {"ios": "https://dc.lft.to/lastmile_qr_scan", "android": "https://dc.lft.to/lastmile_qr_scan"}, "is_reserved": 0, "fusion_lon": 0.0, "fusion_lat": 0.0, "lon": -77.03164416666667, "name": "9ca1f82e7e6924e279919647b259592d"}, {"bike_id": "e04e69fc496078990e1b303dddb6ef5f", "type": "electric_scooter", "is_disabled": 0, "lat": 38.928616833333336, "rental_uris": {"ios": "https://dc.lft.to/lastmile_qr_scan", "android": "https://dc.lft.to/lastmile_qr_scan"}, "is_reserved": 0, "fusion_lon": 0.0, "fusion_lat": 0.0, "lon": -77.03709383333333, "name": "e04e69fc496078990e1b303dddb6ef5f"}, {"bike_id": "49414ed58dd8d326adecc2fa2a09c70d", "type": "electric_scooter", "is_disabled": 0, "lat": 38.955775, "rental_uris": {"ios": "https://dc.lft.to/lastmile_qr_scan", "android": "https://dc.lft.to/lastmile_qr_scan"}, "is_reserved": 0, "fusion_lon": 0.0, "fusion_lat": 0.0, "lon": -77.08039083333334, "name": "49414ed58dd8d326adecc2fa2a09c70d"}, {"bike_id": "809a41f9d16b235ba5f673c283926a08", "type": "electric_scooter", "is_disabled": 0, "lat": 38.889346833333335, "rental_uris": {"ios": "https://dc.lft.to/lastmile_qr_scan", "android": "https://dc.lft.to/lastmile_qr_scan"}, "is_reserved": 0, "fusion_lon": 0.0, "fusion_lat": 0.0, "lon": -76.9914075, "name": "809a41f9d16b235ba5f673c283926a08"}, {"bike_id": "ff10ff4aec0227b638fc5a55943fb7bf", "type": "electric_scooter", "is_disabled": 0, "lat": 38.92836483333333, "rental_uris": {"ios": "https://dc.lft.to/lastmile_qr_scan", "android": "https://dc.lft.to/lastmile_qr_scan"}, "is_reserved": 0, "fusion_lon": 0.0, "fusion_lat": 0.0, "lon": -77.05509566666667, "name": "ff10ff4aec0227b638fc5a55943fb7bf"}, {"bike_id": "aa94f5ab6253f7a6a17a8e8d79862ae7", "type": "electric_bike", "is_disabled": 0, "lat": 38.955197, "rental_uris": {"ios": "https://dc.lft.to/lastmile_qr_scan", "android": "https://dc.lft.to/lastmile_qr_scan"}, "is_reserved": 0, "fusion_lon": 0.0, "fusion_lat": 0.0, "lon": -76.93912733333333, "name": "aa94f5ab6253f7a6a17a8e8d79862ae7"}, {"bike_id": "bedce9203506618f83b901aaa0b1ca3d", "type": "electric_scooter", "is_disabled": 0, "lat": 38.925622833333335, "rental_uris": {"ios": "https://dc.lft.to/lastmile_qr_scan", "android": "https://dc.lft.to/lastmile_qr_scan"}, "is_reserved": 0, "fusion_lon": 0.0, "fusion_lat": 0.0, "lon": -77.04155766666666, "name": "bedce9203506618f83b901aaa0b1ca3d"}, {"bike_id": "0e2082734406e30ac5481a4c1df73305", "type": "electric_scooter", "is_disabled": 0, "lat": 38.917547, "rental_uris": {"ios": "https://dc.lft.to/lastmile_qr_scan", "android": "https://dc.lft.to/lastmile_qr_scan"}, "is_reserved": 0, "fusion_lon": 0.0, "fusion_lat": 0.0, "lon": -77.04753583333333, "name": "0e2082734406e30ac5481a4c1df73305"}, {"bike_id": "1676e81d634342646a6d5c8dbbf140b2", "type": "electric_scooter", "is_disabled": 0, "lat": 38.886577833333334, "rental_uris": {"ios": "https://dc.lft.to/lastmile_qr_scan", "android": "https://dc.lft.to/lastmile_qr_scan"}, "is_reserved": 0, "fusion_lon": 0.0, "fusion_lat": 0.0, "lon": -77.02824733333334, "name": "1676e81d634342646a6d5c8dbbf140b2"}, {"bike_id": "60de3940162169d52825acd8f1ecf58d", "type": "electric_scooter", "is_disabled": 0, "lat": 38.913303166666665, "rental_uris": {"ios": "https://dc.lft.to/lastmile_qr_scan", "android": "https://dc.lft.to/lastmile_qr_scan"}, "is_reserved": 0, "fusion_lon": 0.0, "fusion_lat": 0.0, "lon": -77.02693183333334, "name": "60de3940162169d52825acd8f1ecf58d"}, {"bike_id": "e3b5d0baedd7f13999e1283831142f6c", "type": "electric_scooter", "is_disabled": 0, "lat": 38.923949, "rental_uris": {"ios": "https://dc.lft.to/lastmile_qr_scan", "android": "https://dc.lft.to/lastmile_qr_scan"}, "is_reserved": 0, "fusion_lon": 0.0, "fusion_lat": 0.0, "lon": -77.02975266666667, "name": "e3b5d0baedd7f13999e1283831142f6c"}, {"bike_id": "e4114b9dd370b57b7e27e9be25f1cb33", "type": "electric_scooter", "is_disabled": 0, "lat": 38.9198605, "rental_uris": {"ios": "https://dc.lft.to/lastmile_qr_scan", "android": "https://dc.lft.to/lastmile_qr_scan"}, "is_reserved": 0, "fusion_lon": 0.0, "fusion_lat": 0.0, "lon": -77.02457716666666, "name": "e4114b9dd370b57b7e27e9be25f1cb33"}, {"bike_id": "b43477eb3ac3647ba4fa5c4bb35d3899", "type": "electric_scooter", "is_disabled": 0, "lat": 38.897272, "rental_uris": {"ios": "https://dc.lft.to/lastmile_qr_scan", "android": "https://dc.lft.to/lastmile_qr_scan"}, "is_reserved": 0, "fusion_lon": 0.0, "fusion_lat": 0.0, "lon": -77.0452795, "name": "b43477eb3ac3647ba4fa5c4bb35d3899"}, {"bike_id": "19da303c09f47ddb8281b70364366a81", "type": "electric_scooter", "is_disabled": 0, "lat": 38.909701166666665, "rental_uris": {"ios": "https://dc.lft.to/lastmile_qr_scan", "android": "https://dc.lft.to/lastmile_qr_scan"}, "is_reserved": 0, "fusion_lon": 0.0, "fusion_lat": 0.0, "lon": -77.03224616666667, "name": "19da303c09f47ddb8281b70364366a81"}, {"bike_id": "c436d43fef4dfd06233eeb304d998be8", "type": "electric_scooter", "is_disabled": 0, "lat": 38.936369, "rental_uris": {"ios": "https://dc.lft.to/lastmile_qr_scan", "android": "https://dc.lft.to/lastmile_qr_scan"}, "is_reserved": 0, "fusion_lon": 0.0, "fusion_lat": 0.0, "lon": -77.05883883333334, "name": "c436d43fef4dfd06233eeb304d998be8"}, {"bike_id": "0493c2c0fa6288d3b0342f89cac2220d", "type": "electric_scooter", "is_disabled": 0, "lat": 38.9421145, "rental_uris": {"ios": "https://dc.lft.to/lastmile_qr_scan", "android": "https://dc.lft.to/lastmile_qr_scan"}, "is_reserved": 0, "fusion_lon": 0.0, "fusion_lat": 0.0, "lon": -77.02582683333333, "name": "0493c2c0fa6288d3b0342f89cac2220d"}, {"bike_id": "bab996a26e7b1701730deb52e435c3a5", "type": "electric_scooter", "is_disabled": 0, "lat": 38.91621716666667, "rental_uris": {"ios": "https://dc.lft.to/lastmile_qr_scan", "android": "https://dc.lft.to/lastmile_qr_scan"}, "is_reserved": 0, "fusion_lon": 0.0, "fusion_lat": 0.0, "lon": -77.030415, "name": "bab996a26e7b1701730deb52e435c3a5"}, {"bike_id": "8df293da73ea80eb52d97c7f0c3e40ce", "type": "electric_scooter", "is_disabled": 0, "lat": 38.931346833333336, "rental_uris": {"ios": "https://dc.lft.to/lastmile_qr_scan", "android": "https://dc.lft.to/lastmile_qr_scan"}, "is_reserved": 0, "fusion_lon": 0.0, "fusion_lat": 0.0, "lon": -77.04345833333333, "name": "8df293da73ea80eb52d97c7f0c3e40ce"}, {"bike_id": "604aabe8c5ac97df884dc3a9330a2811", "type": "electric_scooter", "is_disabled": 0, "lat": 38.920169666666666, "rental_uris": {"ios": "https://dc.lft.to/lastmile_qr_scan", "android": "https://dc.lft.to/lastmile_qr_scan"}, "is_reserved": 0, "fusion_lon": 0.0, "fusion_lat": 0.0, "lon": -77.0131805, "name": "604aabe8c5ac97df884dc3a9330a2811"}, {"bike_id": "688a186689d821ce480d1fec7f0804ad", "type": "electric_scooter", "is_disabled": 0, "lat": 38.93088983333333, "rental_uris": {"ios": "https://dc.lft.to/lastmile_qr_scan", "android": "https://dc.lft.to/lastmile_qr_scan"}, "is_reserved": 0, "fusion_lon": 0.0, "fusion_lat": 0.0, "lon": -77.03437233333334, "name": "688a186689d821ce480d1fec7f0804ad"}, {"bike_id": "13bc1d7dce2382c03bd6c1612278e4e5", "type": "electric_scooter", "is_disabled": 0, "lat": 38.922465333333335, "rental_uris": {"ios": "https://dc.lft.to/lastmile_qr_scan", "android": "https://dc.lft.to/lastmile_qr_scan"}, "is_reserved": 0, "fusion_lon": 0.0, "fusion_lat": 0.0, "lon": -77.04271483333333, "name": "13bc1d7dce2382c03bd6c1612278e4e5"}, {"bike_id": "4dea46a752f940fed6ae68662b270d6a", "type": "electric_scooter", "is_disabled": 0, "lat": 38.90082666666667, "rental_uris": {"ios": "https://dc.lft.to/lastmile_qr_scan", "android": "https://dc.lft.to/lastmile_qr_scan"}, "is_reserved": 0, "fusion_lon": 0.0, "fusion_lat": 0.0, "lon": -77.048333, "name": "4dea46a752f940fed6ae68662b270d6a"}, {"bike_id": "481b1a34fe7d7e1e646a8edbde2b8c74", "type": "electric_scooter", "is_disabled": 0, "lat": 38.90600416666667, "rental_uris": {"ios": "https://dc.lft.to/lastmile_qr_scan", "android": "https://dc.lft.to/lastmile_qr_scan"}, "is_reserved": 0, "fusion_lon": 0.0, "fusion_lat": 0.0, "lon": -77.04038733333333, "name": "481b1a34fe7d7e1e646a8edbde2b8c74"}, {"bike_id": "24aab785d347f494be5bb85b8b2ea399", "type": "electric_bike", "is_disabled": 0, "lat": 38.939645666666664, "rental_uris": {"ios": "https://dc.lft.to/lastmile_qr_scan", "android": "https://dc.lft.to/lastmile_qr_scan"}, "is_reserved": 0, "fusion_lon": 0.0, "fusion_lat": 0.0, "lon": -77.05256666666666, "name": "24aab785d347f494be5bb85b8b2ea399"}, {"bike_id": "bd2692586768dd0ba2c2b75bc5b279e2", "type": "electric_scooter", "is_disabled": 0, "lat": 38.924746999999996, "rental_uris": {"ios": "https://dc.lft.to/lastmile_qr_scan", "android": "https://dc.lft.to/lastmile_qr_scan"}, "is_reserved": 0, "fusion_lon": 0.0, "fusion_lat": 0.0, "lon": -77.02831383333333, "name": "bd2692586768dd0ba2c2b75bc5b279e2"}, {"bike_id": "05a6a40a632f6c4bb50baa11f9a5e5e0", "type": "electric_scooter", "is_disabled": 0, "lat": 38.925999833333336, "rental_uris": {"ios": "https://dc.lft.to/lastmile_qr_scan", "android": "https://dc.lft.to/lastmile_qr_scan"}, "is_reserved": 0, "fusion_lon": 0.0, "fusion_lat": 0.0, "lon": -77.02438183333334, "name": "05a6a40a632f6c4bb50baa11f9a5e5e0"}, {"bike_id": "afe5828e292826dbcab7e048df35e8f0", "type": "electric_scooter", "is_disabled": 0, "lat": 38.91697283333333, "rental_uris": {"ios": "https://dc.lft.to/lastmile_qr_scan", "android": "https://dc.lft.to/lastmile_qr_scan"}, "is_reserved": 0, "fusion_lon": 0.0, "fusion_lat": 0.0, "lon": -77.0316565, "name": "afe5828e292826dbcab7e048df35e8f0"}, {"bike_id": "ad3fd00365f01da8d735b2e014ccf5f6", "type": "electric_scooter", "is_disabled": 0, "lat": 38.89879916666667, "rental_uris": {"ios": "https://dc.lft.to/lastmile_qr_scan", "android": "https://dc.lft.to/lastmile_qr_scan"}, "is_reserved": 0, "fusion_lon": 0.0, "fusion_lat": 0.0, "lon": -76.931891, "name": "ad3fd00365f01da8d735b2e014ccf5f6"}, {"bike_id": "8c7bfd986d265aea2556d9351dbb6b96", "type": "electric_scooter", "is_disabled": 0, "lat": 38.892327, "rental_uris": {"ios": "https://dc.lft.to/lastmile_qr_scan", "android": "https://dc.lft.to/lastmile_qr_scan"}, "is_reserved": 0, "fusion_lon": 0.0, "fusion_lat": 0.0, "lon": -77.04672366666667, "name": "8c7bfd986d265aea2556d9351dbb6b96"}, {"bike_id": "846e6132c74ce02e5f82f64984f9861a", "type": "electric_scooter", "is_disabled": 0, "lat": 38.93061016666667, "rental_uris": {"ios": "https://dc.lft.to/lastmile_qr_scan", "android": "https://dc.lft.to/lastmile_qr_scan"}, "is_reserved": 0, "fusion_lon": 0.0, "fusion_lat": 0.0, "lon": -77.04122183333334, "name": "846e6132c74ce02e5f82f64984f9861a"}, {"bike_id": "05ad0c364043b3aacfa87fa0f9df9318", "type": "electric_scooter", "is_disabled": 0, "lat": 38.90703233333333, "rental_uris": {"ios": "https://dc.lft.to/lastmile_qr_scan", "android": "https://dc.lft.to/lastmile_qr_scan"}, "is_reserved": 0, "fusion_lon": 0.0, "fusion_lat": 0.0, "lon": -77.04335416666666, "name": "05ad0c364043b3aacfa87fa0f9df9318"}, {"bike_id": "f3677957a0a846cb5421f1633defb80d", "type": "electric_scooter", "is_disabled": 0, "lat": 38.921320333333334, "rental_uris": {"ios": "https://dc.lft.to/lastmile_qr_scan", "android": "https://dc.lft.to/lastmile_qr_scan"}, "is_reserved": 0, "fusion_lon": 0.0, "fusion_lat": 0.0, "lon": -77.0271685, "name": "f3677957a0a846cb5421f1633defb80d"}, {"bike_id": "9270f48de932a357dd2a0fd84ad41176", "type": "electric_scooter", "is_disabled": 0, "lat": 38.928608, "rental_uris": {"ios": "https://dc.lft.to/lastmile_qr_scan", "android": "https://dc.lft.to/lastmile_qr_scan"}, "is_reserved": 0, "fusion_lon": 0.0, "fusion_lat": 0.0, "lon": -77.03278366666666, "name": "9270f48de932a357dd2a0fd84ad41176"}, {"bike_id": "e5d25b245e944bbdc59f482aa37da292", "type": "electric_scooter", "is_disabled": 0, "lat": 38.90575183333333, "rental_uris": {"ios": "https://dc.lft.to/lastmile_qr_scan", "android": "https://dc.lft.to/lastmile_qr_scan"}, "is_reserved": 0, "fusion_lon": 0.0, "fusion_lat": 0.0, "lon": -77.04234783333334, "name": "e5d25b245e944bbdc59f482aa37da292"}, {"bike_id": "186c5e5cd2fc3a20176e487e95145a4b", "type": "electric_scooter", "is_disabled": 0, "lat": 38.916945, "rental_uris": {"ios": "https://dc.lft.to/lastmile_qr_scan", "android": "https://dc.lft.to/lastmile_qr_scan"}, "is_reserved": 0, "fusion_lon": 0.0, "fusion_lat": 0.0, "lon": -77.03771283333333, "name": "186c5e5cd2fc3a20176e487e95145a4b"}, {"bike_id": "7711fee0adfeb01417f96b2994e8067a", "type": "electric_scooter", "is_disabled": 0, "lat": 38.8819305, "rental_uris": {"ios": "https://dc.lft.to/lastmile_qr_scan", "android": "https://dc.lft.to/lastmile_qr_scan"}, "is_reserved": 0, "fusion_lon": 0.0, "fusion_lat": 0.0, "lon": -76.989303, "name": "7711fee0adfeb01417f96b2994e8067a"}, {"bike_id": "06375b944b8265fa16329c2b4015bd6b", "type": "electric_scooter", "is_disabled": 0, "lat": 38.91550566666667, "rental_uris": {"ios": "https://dc.lft.to/lastmile_qr_scan", "android": "https://dc.lft.to/lastmile_qr_scan"}, "is_reserved": 0, "fusion_lon": 0.0, "fusion_lat": 0.0, "lon": -77.0220275, "name": "06375b944b8265fa16329c2b4015bd6b"}, {"bike_id": "d113e5ef8a6895ce29175e6c3e947522", "type": "electric_scooter", "is_disabled": 0, "lat": 38.902529666666666, "rental_uris": {"ios": "https://dc.lft.to/lastmile_qr_scan", "android": "https://dc.lft.to/lastmile_qr_scan"}, "is_reserved": 0, "fusion_lon": 0.0, "fusion_lat": 0.0, "lon": -76.986691, "name": "d113e5ef8a6895ce29175e6c3e947522"}, {"bike_id": "cc6e4a9d5665ae0724bd832d7bdab495", "type": "electric_scooter", "is_disabled": 0, "lat": 38.89666583333333, "rental_uris": {"ios": "https://dc.lft.to/lastmile_qr_scan", "android": "https://dc.lft.to/lastmile_qr_scan"}, "is_reserved": 0, "fusion_lon": 0.0, "fusion_lat": 0.0, "lon": -77.02389016666666, "name": "cc6e4a9d5665ae0724bd832d7bdab495"}, {"bike_id": "407ee977992cac008162b5ea4173fcb4", "type": "electric_scooter", "is_disabled": 0, "lat": 38.915704, "rental_uris": {"ios": "https://dc.lft.to/lastmile_qr_scan", "android": "https://dc.lft.to/lastmile_qr_scan"}, "is_reserved": 0, "fusion_lon": 0.0, "fusion_lat": 0.0, "lon": -77.02012383333333, "name": "407ee977992cac008162b5ea4173fcb4"}, {"bike_id": "b264374a09c029dd7fadd231945b343e", "type": "electric_scooter", "is_disabled": 0, "lat": 38.92157433333333, "rental_uris": {"ios": "https://dc.lft.to/lastmile_qr_scan", "android": "https://dc.lft.to/lastmile_qr_scan"}, "is_reserved": 0, "fusion_lon": 0.0, "fusion_lat": 0.0, "lon": -77.0331535, "name": "b264374a09c029dd7fadd231945b343e"}, {"bike_id": "0d81aa1ba39096c88f95175c60644ced", "type": "electric_scooter", "is_disabled": 0, "lat": 38.900079166666664, "rental_uris": {"ios": "https://dc.lft.to/lastmile_qr_scan", "android": "https://dc.lft.to/lastmile_qr_scan"}, "is_reserved": 0, "fusion_lon": 0.0, "fusion_lat": 0.0, "lon": -77.01065883333334, "name": "0d81aa1ba39096c88f95175c60644ced"}, {"bike_id": "327bab850d8339161623200210f9a3c4", "type": "electric_scooter", "is_disabled": 0, "lat": 38.92135733333333, "rental_uris": {"ios": "https://dc.lft.to/lastmile_qr_scan", "android": "https://dc.lft.to/lastmile_qr_scan"}, "is_reserved": 0, "fusion_lon": 0.0, "fusion_lat": 0.0, "lon": -77.0183105, "name": "327bab850d8339161623200210f9a3c4"}, {"bike_id": "71f00d0a42d956e0c6255b81f140986d", "type": "electric_scooter", "is_disabled": 0, "lat": 38.917582333333335, "rental_uris": {"ios": "https://dc.lft.to/lastmile_qr_scan", "android": "https://dc.lft.to/lastmile_qr_scan"}, "is_reserved": 0, "fusion_lon": 0.0, "fusion_lat": 0.0, "lon": -77.02488966666667, "name": "71f00d0a42d956e0c6255b81f140986d"}, {"bike_id": "e7220128f4cfbc66b614c8a24f6c7688", "type": "electric_scooter", "is_disabled": 0, "lat": 38.881140333333335, "rental_uris": {"ios": "https://dc.lft.to/lastmile_qr_scan", "android": "https://dc.lft.to/lastmile_qr_scan"}, "is_reserved": 0, "fusion_lon": 0.0, "fusion_lat": 0.0, "lon": -77.02653283333333, "name": "e7220128f4cfbc66b614c8a24f6c7688"}, {"bike_id": "49d86bb0d0b0abdf7cfcd8a35d82db05", "type": "electric_scooter", "is_disabled": 0, "lat": 38.838341, "rental_uris": {"ios": "https://dc.lft.to/lastmile_qr_scan", "android": "https://dc.lft.to/lastmile_qr_scan"}, "is_reserved": 0, "fusion_lon": 0.0, "fusion_lat": 0.0, "lon": -77.00261283333333, "name": "49d86bb0d0b0abdf7cfcd8a35d82db05"}, {"bike_id": "4bfbc50ac4c859e8d928489c94a0de05", "type": "electric_scooter", "is_disabled": 0, "lat": 38.9048215, "rental_uris": {"ios": "https://dc.lft.to/lastmile_qr_scan", "android": "https://dc.lft.to/lastmile_qr_scan"}, "is_reserved": 0, "fusion_lon": 0.0, "fusion_lat": 0.0, "lon": -77.007101, "name": "4bfbc50ac4c859e8d928489c94a0de05"}, {"bike_id": "49160e599821205fdbe73ce85b6647fe", "type": "electric_scooter", "is_disabled": 0, "lat": 38.91479066666667, "rental_uris": {"ios": "https://dc.lft.to/lastmile_qr_scan", "android": "https://dc.lft.to/lastmile_qr_scan"}, "is_reserved": 0, "fusion_lon": 0.0, "fusion_lat": 0.0, "lon": -76.985688, "name": "49160e599821205fdbe73ce85b6647fe"}, {"bike_id": "271d50f5c08c63204a357ff2d2f360a6", "type": "electric_scooter", "is_disabled": 0, "lat": 38.9297435, "rental_uris": {"ios": "https://dc.lft.to/lastmile_qr_scan", "android": "https://dc.lft.to/lastmile_qr_scan"}, "is_reserved": 0, "fusion_lon": 0.0, "fusion_lat": 0.0, "lon": -77.01300333333333, "name": "271d50f5c08c63204a357ff2d2f360a6"}, {"bike_id": "1407cbfc3f97678a576cd68733256c01", "type": "electric_scooter", "is_disabled": 0, "lat": 38.9004685, "rental_uris": {"ios": "https://dc.lft.to/lastmile_qr_scan", "android": "https://dc.lft.to/lastmile_qr_scan"}, "is_reserved": 0, "fusion_lon": 0.0, "fusion_lat": 0.0, "lon": -77.00212016666667, "name": "1407cbfc3f97678a576cd68733256c01"}, {"bike_id": "c5d6a6ef05ba0c1f6bb51ab26b8fdf38", "type": "electric_scooter", "is_disabled": 0, "lat": 38.9142985, "rental_uris": {"ios": "https://dc.lft.to/lastmile_qr_scan", "android": "https://dc.lft.to/lastmile_qr_scan"}, "is_reserved": 0, "fusion_lon": 0.0, "fusion_lat": 0.0, "lon": -77.03178416666667, "name": "c5d6a6ef05ba0c1f6bb51ab26b8fdf38"}, {"bike_id": "47af268146ac7967da065fe793760d82", "type": "electric_scooter", "is_disabled": 0, "lat": 38.89739983333333, "rental_uris": {"ios": "https://dc.lft.to/lastmile_qr_scan", "android": "https://dc.lft.to/lastmile_qr_scan"}, "is_reserved": 0, "fusion_lon": 0.0, "fusion_lat": 0.0, "lon": -76.94724266666667, "name": "47af268146ac7967da065fe793760d82"}, {"bike_id": "19508232d4313a562dcf2e40df5431ac", "type": "electric_scooter", "is_disabled": 0, "lat": 38.90162616666667, "rental_uris": {"ios": "https://dc.lft.to/lastmile_qr_scan", "android": "https://dc.lft.to/lastmile_qr_scan"}, "is_reserved": 0, "fusion_lon": 0.0, "fusion_lat": 0.0, "lon": -77.0229785, "name": "19508232d4313a562dcf2e40df5431ac"}, {"bike_id": "4aba4e19ae4108f6edcd802764b9cca3", "type": "electric_scooter", "is_disabled": 0, "lat": 38.8953055, "rental_uris": {"ios": "https://dc.lft.to/lastmile_qr_scan", "android": "https://dc.lft.to/lastmile_qr_scan"}, "is_reserved": 0, "fusion_lon": 0.0, "fusion_lat": 0.0, "lon": -76.94892116666666, "name": "4aba4e19ae4108f6edcd802764b9cca3"}, {"bike_id": "aad05d759d93378fc369ffd2d029d9bf", "type": "electric_scooter", "is_disabled": 0, "lat": 38.94142333333333, "rental_uris": {"ios": "https://dc.lft.to/lastmile_qr_scan", "android": "https://dc.lft.to/lastmile_qr_scan"}, "is_reserved": 0, "fusion_lon": 0.0, "fusion_lat": 0.0, "lon": -77.02326283333333, "name": "aad05d759d93378fc369ffd2d029d9bf"}, {"bike_id": "8b1819fdbb4e852b610b09cea34c83ca", "type": "electric_scooter", "is_disabled": 0, "lat": 38.906404, "rental_uris": {"ios": "https://dc.lft.to/lastmile_qr_scan", "android": "https://dc.lft.to/lastmile_qr_scan"}, "is_reserved": 0, "fusion_lon": 0.0, "fusion_lat": 0.0, "lon": -77.03892083333334, "name": "8b1819fdbb4e852b610b09cea34c83ca"}, {"bike_id": "ed59e53683b04f2ac411b4a0ef688eb7", "type": "electric_scooter", "is_disabled": 0, "lat": 38.866892, "rental_uris": {"ios": "https://dc.lft.to/lastmile_qr_scan", "android": "https://dc.lft.to/lastmile_qr_scan"}, "is_reserved": 0, "fusion_lon": 0.0, "fusion_lat": 0.0, "lon": -76.98576733333333, "name": "ed59e53683b04f2ac411b4a0ef688eb7"}, {"bike_id": "cdb8922ade6f32ddcebd3ca5a0d79cdc", "type": "electric_scooter", "is_disabled": 0, "lat": 38.866491, "rental_uris": {"ios": "https://dc.lft.to/lastmile_qr_scan", "android": "https://dc.lft.to/lastmile_qr_scan"}, "is_reserved": 0, "fusion_lon": 0.0, "fusion_lat": 0.0, "lon": -76.98816883333333, "name": "cdb8922ade6f32ddcebd3ca5a0d79cdc"}, {"bike_id": "3a3af2766070a5d30359a9ab6d547651", "type": "electric_scooter", "is_disabled": 0, "lat": 38.927446, "rental_uris": {"ios": "https://dc.lft.to/lastmile_qr_scan", "android": "https://dc.lft.to/lastmile_qr_scan"}, "is_reserved": 0, "fusion_lon": 0.0, "fusion_lat": 0.0, "lon": -77.02533266666667, "name": "3a3af2766070a5d30359a9ab6d547651"}, {"bike_id": "5ad630d1cef44608fb82192e406e7aa0", "type": "electric_bike", "is_disabled": 0, "lat": 38.98362783333334, "rental_uris": {"ios": "https://dc.lft.to/lastmile_qr_scan", "android": "https://dc.lft.to/lastmile_qr_scan"}, "is_reserved": 0, "fusion_lon": 0.0, "fusion_lat": 0.0, "lon": -76.972114, "name": "5ad630d1cef44608fb82192e406e7aa0"}, {"bike_id": "cc75ada4f208c354f7d106868e7816b7", "type": "electric_scooter", "is_disabled": 0, "lat": 38.907143166666664, "rental_uris": {"ios": "https://dc.lft.to/lastmile_qr_scan", "android": "https://dc.lft.to/lastmile_qr_scan"}, "is_reserved": 0, "fusion_lon": 0.0, "fusion_lat": 0.0, "lon": -77.024058, "name": "cc75ada4f208c354f7d106868e7816b7"}, {"bike_id": "edf258dcacba7239c8b0154a4d1cd11e", "type": "electric_scooter", "is_disabled": 0, "lat": 38.89724416666667, "rental_uris": {"ios": "https://dc.lft.to/lastmile_qr_scan", "android": "https://dc.lft.to/lastmile_qr_scan"}, "is_reserved": 0, "fusion_lon": 0.0, "fusion_lat": 0.0, "lon": -77.04605133333334, "name": "edf258dcacba7239c8b0154a4d1cd11e"}, {"bike_id": "842508acad1b89e7d4eade0bc968cd21", "type": "electric_scooter", "is_disabled": 0, "lat": 38.934586, "rental_uris": {"ios": "https://dc.lft.to/lastmile_qr_scan", "android": "https://dc.lft.to/lastmile_qr_scan"}, "is_reserved": 0, "fusion_lon": 0.0, "fusion_lat": 0.0, "lon": -77.02763233333333, "name": "842508acad1b89e7d4eade0bc968cd21"}, {"bike_id": "928edf892f1541dbeec50efe1c15152c", "type": "electric_bike", "is_disabled": 0, "lat": 38.9371915, "rental_uris": {"ios": "https://dc.lft.to/lastmile_qr_scan", "android": "https://dc.lft.to/lastmile_qr_scan"}, "is_reserved": 0, "fusion_lon": 0.0, "fusion_lat": 0.0, "lon": -76.99147116666667, "name": "928edf892f1541dbeec50efe1c15152c"}, {"bike_id": "b34d1aaaa97a793822e053fbe6fa41b3", "type": "electric_scooter", "is_disabled": 0, "lat": 38.831011333333336, "rental_uris": {"ios": "https://dc.lft.to/lastmile_qr_scan", "android": "https://dc.lft.to/lastmile_qr_scan"}, "is_reserved": 0, "fusion_lon": 0.0, "fusion_lat": 0.0, "lon": -77.05158716666666, "name": "b34d1aaaa97a793822e053fbe6fa41b3"}, {"bike_id": "bf10fa7d4b59fef2652c212879ad8bd4", "type": "electric_scooter", "is_disabled": 0, "lat": 38.963930833333336, "rental_uris": {"ios": "https://dc.lft.to/lastmile_qr_scan", "android": "https://dc.lft.to/lastmile_qr_scan"}, "is_reserved": 0, "fusion_lon": 0.0, "fusion_lat": 0.0, "lon": -77.02591266666667, "name": "bf10fa7d4b59fef2652c212879ad8bd4"}, {"bike_id": "35f0504ccec25acc5be2b0e0e2cfc85b", "type": "electric_scooter", "is_disabled": 0, "lat": 38.9155135, "rental_uris": {"ios": "https://dc.lft.to/lastmile_qr_scan", "android": "https://dc.lft.to/lastmile_qr_scan"}, "is_reserved": 0, "fusion_lon": 0.0, "fusion_lat": 0.0, "lon": -77.040122, "name": "35f0504ccec25acc5be2b0e0e2cfc85b"}, {"bike_id": "88dcb942617d5a7484163a738e5dca29", "type": "electric_scooter", "is_disabled": 0, "lat": 38.91507583333333, "rental_uris": {"ios": "https://dc.lft.to/lastmile_qr_scan", "android": "https://dc.lft.to/lastmile_qr_scan"}, "is_reserved": 0, "fusion_lon": 0.0, "fusion_lat": 0.0, "lon": -77.0177175, "name": "88dcb942617d5a7484163a738e5dca29"}, {"bike_id": "f7c84754d54da9a1bd3288134913589d", "type": "electric_scooter", "is_disabled": 0, "lat": 38.92453016666666, "rental_uris": {"ios": "https://dc.lft.to/lastmile_qr_scan", "android": "https://dc.lft.to/lastmile_qr_scan"}, "is_reserved": 0, "fusion_lon": 0.0, "fusion_lat": 0.0, "lon": -77.04397416666667, "name": "f7c84754d54da9a1bd3288134913589d"}, {"bike_id": "f9b6c22b758c167479e2a89a3e6d6a81", "type": "electric_scooter", "is_disabled": 0, "lat": 38.88660733333333, "rental_uris": {"ios": "https://dc.lft.to/lastmile_qr_scan", "android": "https://dc.lft.to/lastmile_qr_scan"}, "is_reserved": 0, "fusion_lon": 0.0, "fusion_lat": 0.0, "lon": -77.00114366666666, "name": "f9b6c22b758c167479e2a89a3e6d6a81"}, {"bike_id": "d889a9189bb72c14e49355d17cf2355a", "type": "electric_scooter", "is_disabled": 0, "lat": 38.91841, "rental_uris": {"ios": "https://dc.lft.to/lastmile_qr_scan", "android": "https://dc.lft.to/lastmile_qr_scan"}, "is_reserved": 0, "fusion_lon": 0.0, "fusion_lat": 0.0, "lon": -76.96563416666666, "name": "d889a9189bb72c14e49355d17cf2355a"}, {"bike_id": "54a77c5b2a6a3d7e7ba296dc54dc1bab", "type": "electric_bike", "is_disabled": 0, "lat": 38.813288166666666, "rental_uris": {"ios": "https://dc.lft.to/lastmile_qr_scan", "android": "https://dc.lft.to/lastmile_qr_scan"}, "is_reserved": 0, "fusion_lon": 0.0, "fusion_lat": 0.0, "lon": -77.050926, "name": "54a77c5b2a6a3d7e7ba296dc54dc1bab"}, {"bike_id": "cdddd5a7c6125a4ab667e0fc5ac63b52", "type": "electric_scooter", "is_disabled": 0, "lat": 38.909779666666665, "rental_uris": {"ios": "https://dc.lft.to/lastmile_qr_scan", "android": "https://dc.lft.to/lastmile_qr_scan"}, "is_reserved": 0, "fusion_lon": 0.0, "fusion_lat": 0.0, "lon": -77.03381583333334, "name": "cdddd5a7c6125a4ab667e0fc5ac63b52"}, {"bike_id": "c0e7b47c26239dfaffc3e27fd282fb2e", "type": "electric_bike", "is_disabled": 0, "lat": 38.87475383333334, "rental_uris": {"ios": "https://dc.lft.to/lastmile_qr_scan", "android": "https://dc.lft.to/lastmile_qr_scan"}, "is_reserved": 0, "fusion_lon": 0.0, "fusion_lat": 0.0, "lon": -76.96529166666667, "name": "c0e7b47c26239dfaffc3e27fd282fb2e"}, {"bike_id": "64cdbf8dad035c84600f8f1e9222cc16", "type": "electric_scooter", "is_disabled": 0, "lat": 38.91110116666667, "rental_uris": {"ios": "https://dc.lft.to/lastmile_qr_scan", "android": "https://dc.lft.to/lastmile_qr_scan"}, "is_reserved": 0, "fusion_lon": 0.0, "fusion_lat": 0.0, "lon": -77.03830483333333, "name": "64cdbf8dad035c84600f8f1e9222cc16"}, {"bike_id": "665fce373f1479c8f9be9b87222bd0a6", "type": "electric_scooter", "is_disabled": 0, "lat": 38.90168966666667, "rental_uris": {"ios": "https://dc.lft.to/lastmile_qr_scan", "android": "https://dc.lft.to/lastmile_qr_scan"}, "is_reserved": 0, "fusion_lon": 0.0, "fusion_lat": 0.0, "lon": -76.930224, "name": "665fce373f1479c8f9be9b87222bd0a6"}, {"bike_id": "a3646b0f7bdcf4cc9e16d503560bf796", "type": "electric_scooter", "is_disabled": 0, "lat": 38.95654183333333, "rental_uris": {"ios": "https://dc.lft.to/lastmile_qr_scan", "android": "https://dc.lft.to/lastmile_qr_scan"}, "is_reserved": 0, "fusion_lon": 0.0, "fusion_lat": 0.0, "lon": -77.01000083333334, "name": "a3646b0f7bdcf4cc9e16d503560bf796"}, {"bike_id": "cdd21056ea91fa892b0fa612f321850b", "type": "electric_scooter", "is_disabled": 0, "lat": 38.95641366666667, "rental_uris": {"ios": "https://dc.lft.to/lastmile_qr_scan", "android": "https://dc.lft.to/lastmile_qr_scan"}, "is_reserved": 0, "fusion_lon": 0.0, "fusion_lat": 0.0, "lon": -77.01165366666666, "name": "cdd21056ea91fa892b0fa612f321850b"}, {"bike_id": "ec01e539c3fb113d0c2c65104949b266", "type": "electric_scooter", "is_disabled": 0, "lat": 38.93245533333333, "rental_uris": {"ios": "https://dc.lft.to/lastmile_qr_scan", "android": "https://dc.lft.to/lastmile_qr_scan"}, "is_reserved": 0, "fusion_lon": 0.0, "fusion_lat": 0.0, "lon": -77.038783, "name": "ec01e539c3fb113d0c2c65104949b266"}, {"bike_id": "26d15f0cca0e5664625a435244e52869", "type": "electric_scooter", "is_disabled": 0, "lat": 38.886970833333336, "rental_uris": {"ios": "https://dc.lft.to/lastmile_qr_scan", "android": "https://dc.lft.to/lastmile_qr_scan"}, "is_reserved": 0, "fusion_lon": 0.0, "fusion_lat": 0.0, "lon": -76.996137, "name": "26d15f0cca0e5664625a435244e52869"}, {"bike_id": "9db81344221c5aa1674d7a632db33f46", "type": "electric_bike", "is_disabled": 0, "lat": 38.865101, "rental_uris": {"ios": "https://dc.lft.to/lastmile_qr_scan", "android": "https://dc.lft.to/lastmile_qr_scan"}, "is_reserved": 0, "fusion_lon": 0.0, "fusion_lat": 0.0, "lon": -76.97340783333334, "name": "9db81344221c5aa1674d7a632db33f46"}, {"bike_id": "582d2ae5278065f18bcfa8af03ae2292", "type": "electric_scooter", "is_disabled": 0, "lat": 38.92222566666667, "rental_uris": {"ios": "https://dc.lft.to/lastmile_qr_scan", "android": "https://dc.lft.to/lastmile_qr_scan"}, "is_reserved": 0, "fusion_lon": 0.0, "fusion_lat": 0.0, "lon": -77.02377216666666, "name": "582d2ae5278065f18bcfa8af03ae2292"}, {"bike_id": "e9dfcb8af4060ddc8f53ce8e77f09ddc", "type": "electric_scooter", "is_disabled": 0, "lat": 38.91109983333333, "rental_uris": {"ios": "https://dc.lft.to/lastmile_qr_scan", "android": "https://dc.lft.to/lastmile_qr_scan"}, "is_reserved": 0, "fusion_lon": 0.0, "fusion_lat": 0.0, "lon": -77.04905566666666, "name": "e9dfcb8af4060ddc8f53ce8e77f09ddc"}, {"bike_id": "fab40a379b3f5e57051eaf20d244185c", "type": "electric_scooter", "is_disabled": 0, "lat": 38.907077666666666, "rental_uris": {"ios": "https://dc.lft.to/lastmile_qr_scan", "android": "https://dc.lft.to/lastmile_qr_scan"}, "is_reserved": 0, "fusion_lon": 0.0, "fusion_lat": 0.0, "lon": -77.024009, "name": "fab40a379b3f5e57051eaf20d244185c"}, {"bike_id": "e4d5802a5ab1465593355c302b3f784b", "type": "electric_scooter", "is_disabled": 0, "lat": 38.908339166666664, "rental_uris": {"ios": "https://dc.lft.to/lastmile_qr_scan", "android": "https://dc.lft.to/lastmile_qr_scan"}, "is_reserved": 0, "fusion_lon": 0.0, "fusion_lat": 0.0, "lon": -77.03466716666667, "name": "e4d5802a5ab1465593355c302b3f784b"}, {"bike_id": "4d250f227cdf9cf3df08a97b7cbfaeed", "type": "electric_bike", "is_disabled": 0, "lat": 38.948065166666666, "rental_uris": {"ios": "https://dc.lft.to/lastmile_qr_scan", "android": "https://dc.lft.to/lastmile_qr_scan"}, "is_reserved": 0, "fusion_lon": 0.0, "fusion_lat": 0.0, "lon": -76.95540616666666, "name": "4d250f227cdf9cf3df08a97b7cbfaeed"}, {"bike_id": "67b300b2aebb9c78caa3f5043bee88da", "type": "electric_scooter", "is_disabled": 0, "lat": 38.895377333333336, "rental_uris": {"ios": "https://dc.lft.to/lastmile_qr_scan", "android": "https://dc.lft.to/lastmile_qr_scan"}, "is_reserved": 0, "fusion_lon": 0.0, "fusion_lat": 0.0, "lon": -76.98860866666666, "name": "67b300b2aebb9c78caa3f5043bee88da"}, {"bike_id": "0e8ca471e25c4d5024ce0eddeab02372", "type": "electric_scooter", "is_disabled": 0, "lat": 38.91828316666667, "rental_uris": {"ios": "https://dc.lft.to/lastmile_qr_scan", "android": "https://dc.lft.to/lastmile_qr_scan"}, "is_reserved": 0, "fusion_lon": 0.0, "fusion_lat": 0.0, "lon": -77.03215383333334, "name": "0e8ca471e25c4d5024ce0eddeab02372"}, {"bike_id": "84156dc079c5b698b631b964d86c092a", "type": "electric_scooter", "is_disabled": 0, "lat": 38.843157, "rental_uris": {"ios": "https://dc.lft.to/lastmile_qr_scan", "android": "https://dc.lft.to/lastmile_qr_scan"}, "is_reserved": 0, "fusion_lon": 0.0, "fusion_lat": 0.0, "lon": -76.9992475, "name": "84156dc079c5b698b631b964d86c092a"}, {"bike_id": "aa3525016ead04727b562a2669a4a9f0", "type": "electric_scooter", "is_disabled": 0, "lat": 38.845379, "rental_uris": {"ios": "https://dc.lft.to/lastmile_qr_scan", "android": "https://dc.lft.to/lastmile_qr_scan"}, "is_reserved": 0, "fusion_lon": 0.0, "fusion_lat": 0.0, "lon": -76.98547383333333, "name": "aa3525016ead04727b562a2669a4a9f0"}, {"bike_id": "c32224d32794a47c51d4686094a326e5", "type": "electric_scooter", "is_disabled": 0, "lat": 38.91448716666667, "rental_uris": {"ios": "https://dc.lft.to/lastmile_qr_scan", "android": "https://dc.lft.to/lastmile_qr_scan"}, "is_reserved": 0, "fusion_lon": 0.0, "fusion_lat": 0.0, "lon": -77.04590033333334, "name": "c32224d32794a47c51d4686094a326e5"}, {"bike_id": "779a8b23f4c38e1a2a94b2a8e5780b7d", "type": "electric_scooter", "is_disabled": 0, "lat": 38.9231705, "rental_uris": {"ios": "https://dc.lft.to/lastmile_qr_scan", "android": "https://dc.lft.to/lastmile_qr_scan"}, "is_reserved": 0, "fusion_lon": 0.0, "fusion_lat": 0.0, "lon": -77.0464485, "name": "779a8b23f4c38e1a2a94b2a8e5780b7d"}, {"bike_id": "14833dc7f5815198437e05c58c09616b", "type": "electric_scooter", "is_disabled": 0, "lat": 38.9084655, "rental_uris": {"ios": "https://dc.lft.to/lastmile_qr_scan", "android": "https://dc.lft.to/lastmile_qr_scan"}, "is_reserved": 0, "fusion_lon": 0.0, "fusion_lat": 0.0, "lon": -77.02713783333333, "name": "14833dc7f5815198437e05c58c09616b"}, {"bike_id": "283bd348ef5bb8d4ff85b097bbae17d9", "type": "electric_scooter", "is_disabled": 0, "lat": 38.907214, "rental_uris": {"ios": "https://dc.lft.to/lastmile_qr_scan", "android": "https://dc.lft.to/lastmile_qr_scan"}, "is_reserved": 0, "fusion_lon": 0.0, "fusion_lat": 0.0, "lon": -77.02246966666667, "name": "283bd348ef5bb8d4ff85b097bbae17d9"}, {"bike_id": "b44df944f15808c93548e24402a59979", "type": "electric_scooter", "is_disabled": 0, "lat": 38.91835533333333, "rental_uris": {"ios": "https://dc.lft.to/lastmile_qr_scan", "android": "https://dc.lft.to/lastmile_qr_scan"}, "is_reserved": 0, "fusion_lon": 0.0, "fusion_lat": 0.0, "lon": -77.032203, "name": "b44df944f15808c93548e24402a59979"}, {"bike_id": "3cc0b34699d4c07093f9f328dc1627da", "type": "electric_scooter", "is_disabled": 0, "lat": 38.949008, "rental_uris": {"ios": "https://dc.lft.to/lastmile_qr_scan", "android": "https://dc.lft.to/lastmile_qr_scan"}, "is_reserved": 0, "fusion_lon": 0.0, "fusion_lat": 0.0, "lon": -77.02072283333334, "name": "3cc0b34699d4c07093f9f328dc1627da"}, {"bike_id": "c12d09995d6bb164c3fda353b5eafbdd", "type": "electric_scooter", "is_disabled": 0, "lat": 38.91558633333333, "rental_uris": {"ios": "https://dc.lft.to/lastmile_qr_scan", "android": "https://dc.lft.to/lastmile_qr_scan"}, "is_reserved": 0, "fusion_lon": 0.0, "fusion_lat": 0.0, "lon": -77.02638066666667, "name": "c12d09995d6bb164c3fda353b5eafbdd"}, {"bike_id": "5bfb629779e9afa5eefd5473e369f16f", "type": "electric_scooter", "is_disabled": 0, "lat": 38.844335666666666, "rental_uris": {"ios": "https://dc.lft.to/lastmile_qr_scan", "android": "https://dc.lft.to/lastmile_qr_scan"}, "is_reserved": 0, "fusion_lon": 0.0, "fusion_lat": 0.0, "lon": -76.9986835, "name": "5bfb629779e9afa5eefd5473e369f16f"}, {"bike_id": "bbfa468bdceb9d802e99a78bf063363c", "type": "electric_scooter", "is_disabled": 0, "lat": 38.912669666666666, "rental_uris": {"ios": "https://dc.lft.to/lastmile_qr_scan", "android": "https://dc.lft.to/lastmile_qr_scan"}, "is_reserved": 0, "fusion_lon": 0.0, "fusion_lat": 0.0, "lon": -77.03026483333333, "name": "bbfa468bdceb9d802e99a78bf063363c"}, {"bike_id": "97cf0c8082fdc6d7f1ad037ee454659b", "type": "electric_scooter", "is_disabled": 0, "lat": 38.909753333333335, "rental_uris": {"ios": "https://dc.lft.to/lastmile_qr_scan", "android": "https://dc.lft.to/lastmile_qr_scan"}, "is_reserved": 0, "fusion_lon": 0.0, "fusion_lat": 0.0, "lon": -77.03366383333334, "name": "97cf0c8082fdc6d7f1ad037ee454659b"}, {"bike_id": "364aba6e082c620f24deba1d3a366e57", "type": "electric_scooter", "is_disabled": 0, "lat": 38.917844833333334, "rental_uris": {"ios": "https://dc.lft.to/lastmile_qr_scan", "android": "https://dc.lft.to/lastmile_qr_scan"}, "is_reserved": 0, "fusion_lon": 0.0, "fusion_lat": 0.0, "lon": -77.0363755, "name": "364aba6e082c620f24deba1d3a366e57"}, {"bike_id": "f12d950cd36fc4154d7d8de12263d7c8", "type": "electric_scooter", "is_disabled": 0, "lat": 38.86436716666667, "rental_uris": {"ios": "https://dc.lft.to/lastmile_qr_scan", "android": "https://dc.lft.to/lastmile_qr_scan"}, "is_reserved": 0, "fusion_lon": 0.0, "fusion_lat": 0.0, "lon": -76.97997566666666, "name": "f12d950cd36fc4154d7d8de12263d7c8"}, {"bike_id": "ff2f2bc3cc527135078a56155523f4fc", "type": "electric_scooter", "is_disabled": 0, "lat": 38.880387166666665, "rental_uris": {"ios": "https://dc.lft.to/lastmile_qr_scan", "android": "https://dc.lft.to/lastmile_qr_scan"}, "is_reserved": 0, "fusion_lon": 0.0, "fusion_lat": 0.0, "lon": -77.0053855, "name": "ff2f2bc3cc527135078a56155523f4fc"}, {"bike_id": "d310755d96d62337549bd113fa553105", "type": "electric_scooter", "is_disabled": 0, "lat": 38.956563, "rental_uris": {"ios": "https://dc.lft.to/lastmile_qr_scan", "android": "https://dc.lft.to/lastmile_qr_scan"}, "is_reserved": 0, "fusion_lon": 0.0, "fusion_lat": 0.0, "lon": -77.02398883333333, "name": "d310755d96d62337549bd113fa553105"}, {"bike_id": "8b25b9ec0e463aa3f041245ef4e64b51", "type": "electric_scooter", "is_disabled": 0, "lat": 38.92149283333333, "rental_uris": {"ios": "https://dc.lft.to/lastmile_qr_scan", "android": "https://dc.lft.to/lastmile_qr_scan"}, "is_reserved": 0, "fusion_lon": 0.0, "fusion_lat": 0.0, "lon": -77.03372016666667, "name": "8b25b9ec0e463aa3f041245ef4e64b51"}, {"bike_id": "8854aa899d49dace6d866d2c760e23a4", "type": "electric_bike", "is_disabled": 0, "lat": 38.8767895, "rental_uris": {"ios": "https://dc.lft.to/lastmile_qr_scan", "android": "https://dc.lft.to/lastmile_qr_scan"}, "is_reserved": 0, "fusion_lon": 0.0, "fusion_lat": 0.0, "lon": -77.00710666666667, "name": "8854aa899d49dace6d866d2c760e23a4"}, {"bike_id": "c3030e5cd99fd3e50b73b775ebb59d04", "type": "electric_scooter", "is_disabled": 0, "lat": 38.920777666666666, "rental_uris": {"ios": "https://dc.lft.to/lastmile_qr_scan", "android": "https://dc.lft.to/lastmile_qr_scan"}, "is_reserved": 0, "fusion_lon": 0.0, "fusion_lat": 0.0, "lon": -77.0317125, "name": "c3030e5cd99fd3e50b73b775ebb59d04"}, {"bike_id": "8a44cbe491e4a4998983ada0b5c869d1", "type": "electric_scooter", "is_disabled": 0, "lat": 38.913984666666664, "rental_uris": {"ios": "https://dc.lft.to/lastmile_qr_scan", "android": "https://dc.lft.to/lastmile_qr_scan"}, "is_reserved": 0, "fusion_lon": 0.0, "fusion_lat": 0.0, "lon": -77.03186333333333, "name": "8a44cbe491e4a4998983ada0b5c869d1"}, {"bike_id": "dd95caf66ea22eb3075f6420fd2d8fbc", "type": "electric_bike", "is_disabled": 0, "lat": 38.99305616666667, "rental_uris": {"ios": "https://dc.lft.to/lastmile_qr_scan", "android": "https://dc.lft.to/lastmile_qr_scan"}, "is_reserved": 0, "fusion_lon": 0.0, "fusion_lat": 0.0, "lon": -77.0251985, "name": "dd95caf66ea22eb3075f6420fd2d8fbc"}, {"bike_id": "2e7e9458005c40e445957d9c0ec26fe0", "type": "electric_scooter", "is_disabled": 0, "lat": 38.909566833333336, "rental_uris": {"ios": "https://dc.lft.to/lastmile_qr_scan", "android": "https://dc.lft.to/lastmile_qr_scan"}, "is_reserved": 0, "fusion_lon": 0.0, "fusion_lat": 0.0, "lon": -77.03237166666666, "name": "2e7e9458005c40e445957d9c0ec26fe0"}, {"bike_id": "52d68e1f19567d28d1ed41901e1db3ed", "type": "electric_scooter", "is_disabled": 0, "lat": 38.902126, "rental_uris": {"ios": "https://dc.lft.to/lastmile_qr_scan", "android": "https://dc.lft.to/lastmile_qr_scan"}, "is_reserved": 0, "fusion_lon": 0.0, "fusion_lat": 0.0, "lon": -77.04143833333333, "name": "52d68e1f19567d28d1ed41901e1db3ed"}, {"bike_id": "9f42686849a6ad5d8db6236b13c3749e", "type": "electric_scooter", "is_disabled": 0, "lat": 38.917292833333335, "rental_uris": {"ios": "https://dc.lft.to/lastmile_qr_scan", "android": "https://dc.lft.to/lastmile_qr_scan"}, "is_reserved": 0, "fusion_lon": 0.0, "fusion_lat": 0.0, "lon": -77.0260465, "name": "9f42686849a6ad5d8db6236b13c3749e"}, {"bike_id": "276cde59ea3200ab62b4a0e23a784f39", "type": "electric_scooter", "is_disabled": 0, "lat": 38.8925265, "rental_uris": {"ios": "https://dc.lft.to/lastmile_qr_scan", "android": "https://dc.lft.to/lastmile_qr_scan"}, "is_reserved": 0, "fusion_lon": 0.0, "fusion_lat": 0.0, "lon": -76.92573783333333, "name": "276cde59ea3200ab62b4a0e23a784f39"}, {"bike_id": "6375d26461490eb2e45dfac486e1185c", "type": "electric_scooter", "is_disabled": 0, "lat": 38.9111285, "rental_uris": {"ios": "https://dc.lft.to/lastmile_qr_scan", "android": "https://dc.lft.to/lastmile_qr_scan"}, "is_reserved": 0, "fusion_lon": 0.0, "fusion_lat": 0.0, "lon": -77.03832416666667, "name": "6375d26461490eb2e45dfac486e1185c"}, {"bike_id": "61af7580c04c754cf484864b8832f1aa", "type": "electric_scooter", "is_disabled": 0, "lat": 38.921365333333334, "rental_uris": {"ios": "https://dc.lft.to/lastmile_qr_scan", "android": "https://dc.lft.to/lastmile_qr_scan"}, "is_reserved": 0, "fusion_lon": 0.0, "fusion_lat": 0.0, "lon": -77.0180675, "name": "61af7580c04c754cf484864b8832f1aa"}, {"bike_id": "151143eb9822d7bfdf8b84f418ab8d5e", "type": "electric_scooter", "is_disabled": 0, "lat": 38.92152633333333, "rental_uris": {"ios": "https://dc.lft.to/lastmile_qr_scan", "android": "https://dc.lft.to/lastmile_qr_scan"}, "is_reserved": 0, "fusion_lon": 0.0, "fusion_lat": 0.0, "lon": -77.03515183333333, "name": "151143eb9822d7bfdf8b84f418ab8d5e"}, {"bike_id": "c83b184d26a94e9a49efc15052effe4d", "type": "electric_scooter", "is_disabled": 0, "lat": 38.93533433333333, "rental_uris": {"ios": "https://dc.lft.to/lastmile_qr_scan", "android": "https://dc.lft.to/lastmile_qr_scan"}, "is_reserved": 0, "fusion_lon": 0.0, "fusion_lat": 0.0, "lon": -77.03405183333334, "name": "c83b184d26a94e9a49efc15052effe4d"}, {"bike_id": "5fe0d8713e5877cba9fbc12982266bd7", "type": "electric_scooter", "is_disabled": 0, "lat": 38.861903833333336, "rental_uris": {"ios": "https://dc.lft.to/lastmile_qr_scan", "android": "https://dc.lft.to/lastmile_qr_scan"}, "is_reserved": 0, "fusion_lon": 0.0, "fusion_lat": 0.0, "lon": -77.088639, "name": "5fe0d8713e5877cba9fbc12982266bd7"}, {"bike_id": "3eefc5f7a937150d9f680b2c2b5ad225", "type": "electric_scooter", "is_disabled": 0, "lat": 38.92370433333333, "rental_uris": {"ios": "https://dc.lft.to/lastmile_qr_scan", "android": "https://dc.lft.to/lastmile_qr_scan"}, "is_reserved": 0, "fusion_lon": 0.0, "fusion_lat": 0.0, "lon": -77.05148016666666, "name": "3eefc5f7a937150d9f680b2c2b5ad225"}, {"bike_id": "80b7b3f930bf2be5f22c871f4c77f216", "type": "electric_scooter", "is_disabled": 0, "lat": 38.9419525, "rental_uris": {"ios": "https://dc.lft.to/lastmile_qr_scan", "android": "https://dc.lft.to/lastmile_qr_scan"}, "is_reserved": 0, "fusion_lon": 0.0, "fusion_lat": 0.0, "lon": -77.02437283333333, "name": "80b7b3f930bf2be5f22c871f4c77f216"}, {"bike_id": "d3052a35f7a1e026f61f21dab1a1ffd8", "type": "electric_scooter", "is_disabled": 0, "lat": 38.898444166666664, "rental_uris": {"ios": "https://dc.lft.to/lastmile_qr_scan", "android": "https://dc.lft.to/lastmile_qr_scan"}, "is_reserved": 0, "fusion_lon": 0.0, "fusion_lat": 0.0, "lon": -76.94637533333334, "name": "d3052a35f7a1e026f61f21dab1a1ffd8"}, {"bike_id": "42aa3fb976891e9743f6d2b6d4f3b1d8", "type": "electric_scooter", "is_disabled": 0, "lat": 38.91459566666666, "rental_uris": {"ios": "https://dc.lft.to/lastmile_qr_scan", "android": "https://dc.lft.to/lastmile_qr_scan"}, "is_reserved": 0, "fusion_lon": 0.0, "fusion_lat": 0.0, "lon": -77.022908, "name": "42aa3fb976891e9743f6d2b6d4f3b1d8"}, {"bike_id": "c808d6c838c57e91c8d71a4179e9a2df", "type": "electric_bike", "is_disabled": 0, "lat": 38.952206333333336, "rental_uris": {"ios": "https://dc.lft.to/lastmile_qr_scan", "android": "https://dc.lft.to/lastmile_qr_scan"}, "is_reserved": 0, "fusion_lon": 0.0, "fusion_lat": 0.0, "lon": -77.002804, "name": "c808d6c838c57e91c8d71a4179e9a2df"}, {"bike_id": "2ed4921c58f165fa7aa5a80dd20c55f7", "type": "electric_bike", "is_disabled": 0, "lat": 38.9466115, "rental_uris": {"ios": "https://dc.lft.to/lastmile_qr_scan", "android": "https://dc.lft.to/lastmile_qr_scan"}, "is_reserved": 0, "fusion_lon": 0.0, "fusion_lat": 0.0, "lon": -76.95668133333334, "name": "2ed4921c58f165fa7aa5a80dd20c55f7"}, {"bike_id": "b83858603d7e435432cd1f24b6aa2b31", "type": "electric_scooter", "is_disabled": 0, "lat": 38.9067085, "rental_uris": {"ios": "https://dc.lft.to/lastmile_qr_scan", "android": "https://dc.lft.to/lastmile_qr_scan"}, "is_reserved": 0, "fusion_lon": 0.0, "fusion_lat": 0.0, "lon": -77.02378883333333, "name": "b83858603d7e435432cd1f24b6aa2b31"}, {"bike_id": "f4a116e45426960209f738e390f151bc", "type": "electric_scooter", "is_disabled": 0, "lat": 38.903669666666666, "rental_uris": {"ios": "https://dc.lft.to/lastmile_qr_scan", "android": "https://dc.lft.to/lastmile_qr_scan"}, "is_reserved": 0, "fusion_lon": 0.0, "fusion_lat": 0.0, "lon": -77.02922333333333, "name": "f4a116e45426960209f738e390f151bc"}, {"bike_id": "0affe0419806c1241977b6b820d17cd3", "type": "electric_bike", "is_disabled": 0, "lat": 38.92454516666667, "rental_uris": {"ios": "https://dc.lft.to/lastmile_qr_scan", "android": "https://dc.lft.to/lastmile_qr_scan"}, "is_reserved": 0, "fusion_lon": 0.0, "fusion_lat": 0.0, "lon": -77.22560316666667, "name": "0affe0419806c1241977b6b820d17cd3"}, {"bike_id": "e2a946fff40ab3990d24e9c9f79dd43d", "type": "electric_scooter", "is_disabled": 0, "lat": 38.906358, "rental_uris": {"ios": "https://dc.lft.to/lastmile_qr_scan", "android": "https://dc.lft.to/lastmile_qr_scan"}, "is_reserved": 0, "fusion_lon": 0.0, "fusion_lat": 0.0, "lon": -77.00971666666666, "name": "e2a946fff40ab3990d24e9c9f79dd43d"}, {"bike_id": "9ad7611b383ffce573b3d9f911debb04", "type": "electric_scooter", "is_disabled": 0, "lat": 38.90613866666666, "rental_uris": {"ios": "https://dc.lft.to/lastmile_qr_scan", "android": "https://dc.lft.to/lastmile_qr_scan"}, "is_reserved": 0, "fusion_lon": 0.0, "fusion_lat": 0.0, "lon": -77.0069365, "name": "9ad7611b383ffce573b3d9f911debb04"}, {"bike_id": "5110c427821d1b854b6bdac388c27319", "type": "electric_scooter", "is_disabled": 0, "lat": 38.9392725, "rental_uris": {"ios": "https://dc.lft.to/lastmile_qr_scan", "android": "https://dc.lft.to/lastmile_qr_scan"}, "is_reserved": 0, "fusion_lon": 0.0, "fusion_lat": 0.0, "lon": -77.03683266666667, "name": "5110c427821d1b854b6bdac388c27319"}, {"bike_id": "13703744bb58965da9e154de4107a4bb", "type": "electric_scooter", "is_disabled": 0, "lat": 38.906332666666664, "rental_uris": {"ios": "https://dc.lft.to/lastmile_qr_scan", "android": "https://dc.lft.to/lastmile_qr_scan"}, "is_reserved": 0, "fusion_lon": 0.0, "fusion_lat": 0.0, "lon": -77.03141216666667, "name": "13703744bb58965da9e154de4107a4bb"}, {"bike_id": "c5a2b28b2c3b0aa08f2a1c793e10d6f4", "type": "electric_scooter", "is_disabled": 0, "lat": 38.90046016666667, "rental_uris": {"ios": "https://dc.lft.to/lastmile_qr_scan", "android": "https://dc.lft.to/lastmile_qr_scan"}, "is_reserved": 0, "fusion_lon": 0.0, "fusion_lat": 0.0, "lon": -77.01329166666666, "name": "c5a2b28b2c3b0aa08f2a1c793e10d6f4"}, {"bike_id": "64384c465a11a33922216d5116482522", "type": "electric_scooter", "is_disabled": 0, "lat": 38.90064483333333, "rental_uris": {"ios": "https://dc.lft.to/lastmile_qr_scan", "android": "https://dc.lft.to/lastmile_qr_scan"}, "is_reserved": 0, "fusion_lon": 0.0, "fusion_lat": 0.0, "lon": -76.92742666666666, "name": "64384c465a11a33922216d5116482522"}, {"bike_id": "fccb10123409826f9b70de1438a49b34", "type": "electric_scooter", "is_disabled": 0, "lat": 38.949985833333336, "rental_uris": {"ios": "https://dc.lft.to/lastmile_qr_scan", "android": "https://dc.lft.to/lastmile_qr_scan"}, "is_reserved": 0, "fusion_lon": 0.0, "fusion_lat": 0.0, "lon": -77.01836066666667, "name": "fccb10123409826f9b70de1438a49b34"}, {"bike_id": "c771c892c03cce61d282b6c01fdb48f4", "type": "electric_scooter", "is_disabled": 0, "lat": 38.8962735, "rental_uris": {"ios": "https://dc.lft.to/lastmile_qr_scan", "android": "https://dc.lft.to/lastmile_qr_scan"}, "is_reserved": 0, "fusion_lon": 0.0, "fusion_lat": 0.0, "lon": -77.03962416666667, "name": "c771c892c03cce61d282b6c01fdb48f4"}, {"bike_id": "6965824db47868cbc86e09392f629e15", "type": "electric_scooter", "is_disabled": 0, "lat": 38.90499883333333, "rental_uris": {"ios": "https://dc.lft.to/lastmile_qr_scan", "android": "https://dc.lft.to/lastmile_qr_scan"}, "is_reserved": 0, "fusion_lon": 0.0, "fusion_lat": 0.0, "lon": -77.06882533333334, "name": "6965824db47868cbc86e09392f629e15"}, {"bike_id": "53db4b7e975b3fec0c5c1f201203bd87", "type": "electric_scooter", "is_disabled": 0, "lat": 38.9003995, "rental_uris": {"ios": "https://dc.lft.to/lastmile_qr_scan", "android": "https://dc.lft.to/lastmile_qr_scan"}, "is_reserved": 0, "fusion_lon": 0.0, "fusion_lat": 0.0, "lon": -76.98826633333333, "name": "53db4b7e975b3fec0c5c1f201203bd87"}, {"bike_id": "90c772482d8d82240b69826362aab45e", "type": "electric_scooter", "is_disabled": 0, "lat": 38.8762815, "rental_uris": {"ios": "https://dc.lft.to/lastmile_qr_scan", "android": "https://dc.lft.to/lastmile_qr_scan"}, "is_reserved": 0, "fusion_lon": 0.0, "fusion_lat": 0.0, "lon": -76.965244, "name": "90c772482d8d82240b69826362aab45e"}, {"bike_id": "5027370ec7ac74232a1a2d3fc39250b9", "type": "electric_scooter", "is_disabled": 0, "lat": 38.907668, "rental_uris": {"ios": "https://dc.lft.to/lastmile_qr_scan", "android": "https://dc.lft.to/lastmile_qr_scan"}, "is_reserved": 0, "fusion_lon": 0.0, "fusion_lat": 0.0, "lon": -77.03505433333333, "name": "5027370ec7ac74232a1a2d3fc39250b9"}, {"bike_id": "bb3f280bde28fe88f02762cad91913af", "type": "electric_scooter", "is_disabled": 0, "lat": 38.90171083333333, "rental_uris": {"ios": "https://dc.lft.to/lastmile_qr_scan", "android": "https://dc.lft.to/lastmile_qr_scan"}, "is_reserved": 0, "fusion_lon": 0.0, "fusion_lat": 0.0, "lon": -76.98076216666666, "name": "bb3f280bde28fe88f02762cad91913af"}, {"bike_id": "e3b85dc20bf6dff50d0fdf07dcadd15d", "type": "electric_scooter", "is_disabled": 0, "lat": 38.93103283333333, "rental_uris": {"ios": "https://dc.lft.to/lastmile_qr_scan", "android": "https://dc.lft.to/lastmile_qr_scan"}, "is_reserved": 0, "fusion_lon": 0.0, "fusion_lat": 0.0, "lon": -77.02482033333334, "name": "e3b85dc20bf6dff50d0fdf07dcadd15d"}, {"bike_id": "53a2dd9973d50396a1baa8d3f60e9879", "type": "electric_scooter", "is_disabled": 0, "lat": 38.918247, "rental_uris": {"ios": "https://dc.lft.to/lastmile_qr_scan", "android": "https://dc.lft.to/lastmile_qr_scan"}, "is_reserved": 0, "fusion_lon": 0.0, "fusion_lat": 0.0, "lon": -77.04941016666666, "name": "53a2dd9973d50396a1baa8d3f60e9879"}, {"bike_id": "1e397cf387e85663b761bae83fe9e9d0", "type": "electric_scooter", "is_disabled": 0, "lat": 38.866954, "rental_uris": {"ios": "https://dc.lft.to/lastmile_qr_scan", "android": "https://dc.lft.to/lastmile_qr_scan"}, "is_reserved": 0, "fusion_lon": 0.0, "fusion_lat": 0.0, "lon": -76.98711766666666, "name": "1e397cf387e85663b761bae83fe9e9d0"}, {"bike_id": "9faf137e56646fd7134b5536652b336d", "type": "electric_scooter", "is_disabled": 0, "lat": 38.931320166666666, "rental_uris": {"ios": "https://dc.lft.to/lastmile_qr_scan", "android": "https://dc.lft.to/lastmile_qr_scan"}, "is_reserved": 0, "fusion_lon": 0.0, "fusion_lat": 0.0, "lon": -76.99574883333334, "name": "9faf137e56646fd7134b5536652b336d"}, {"bike_id": "68934e37e52c732bbe7f598c624e06f0", "type": "electric_scooter", "is_disabled": 0, "lat": 38.88133166666667, "rental_uris": {"ios": "https://dc.lft.to/lastmile_qr_scan", "android": "https://dc.lft.to/lastmile_qr_scan"}, "is_reserved": 0, "fusion_lon": 0.0, "fusion_lat": 0.0, "lon": -76.98352183333333, "name": "68934e37e52c732bbe7f598c624e06f0"}, {"bike_id": "ca9b0546ce3e8abc3f193898f90d1768", "type": "electric_scooter", "is_disabled": 0, "lat": 38.898240666666666, "rental_uris": {"ios": "https://dc.lft.to/lastmile_qr_scan", "android": "https://dc.lft.to/lastmile_qr_scan"}, "is_reserved": 0, "fusion_lon": 0.0, "fusion_lat": 0.0, "lon": -77.02846416666667, "name": "ca9b0546ce3e8abc3f193898f90d1768"}, {"bike_id": "3f6ab1b3444c2acdcef27fadfe73681b", "type": "electric_scooter", "is_disabled": 0, "lat": 38.90713383333333, "rental_uris": {"ios": "https://dc.lft.to/lastmile_qr_scan", "android": "https://dc.lft.to/lastmile_qr_scan"}, "is_reserved": 0, "fusion_lon": 0.0, "fusion_lat": 0.0, "lon": -77.02399316666667, "name": "3f6ab1b3444c2acdcef27fadfe73681b"}, {"bike_id": "31a31b870fa53b19f62d8c1bc588beee", "type": "electric_scooter", "is_disabled": 0, "lat": 38.9475065, "rental_uris": {"ios": "https://dc.lft.to/lastmile_qr_scan", "android": "https://dc.lft.to/lastmile_qr_scan"}, "is_reserved": 0, "fusion_lon": 0.0, "fusion_lat": 0.0, "lon": -77.075855, "name": "31a31b870fa53b19f62d8c1bc588beee"}, {"bike_id": "a2b0735033e81420a3e35a34c51cc402", "type": "electric_scooter", "is_disabled": 0, "lat": 38.933385, "rental_uris": {"ios": "https://dc.lft.to/lastmile_qr_scan", "android": "https://dc.lft.to/lastmile_qr_scan"}, "is_reserved": 0, "fusion_lon": 0.0, "fusion_lat": 0.0, "lon": -77.020611, "name": "a2b0735033e81420a3e35a34c51cc402"}, {"bike_id": "482535703d8c346f902f1742860066a1", "type": "electric_scooter", "is_disabled": 0, "lat": 38.9127585, "rental_uris": {"ios": "https://dc.lft.to/lastmile_qr_scan", "android": "https://dc.lft.to/lastmile_qr_scan"}, "is_reserved": 0, "fusion_lon": 0.0, "fusion_lat": 0.0, "lon": -77.02271416666666, "name": "482535703d8c346f902f1742860066a1"}, {"bike_id": "9b2489917df724d3ead4bf0d1c7bbc32", "type": "electric_bike", "is_disabled": 0, "lat": 39.0527995, "rental_uris": {"ios": "https://dc.lft.to/lastmile_qr_scan", "android": "https://dc.lft.to/lastmile_qr_scan"}, "is_reserved": 0, "fusion_lon": 0.0, "fusion_lat": 0.0, "lon": -77.08069483333334, "name": "9b2489917df724d3ead4bf0d1c7bbc32"}, {"bike_id": "7467b0a5b772de7799d51ad5f89938ef", "type": "electric_scooter", "is_disabled": 0, "lat": 38.9097155, "rental_uris": {"ios": "https://dc.lft.to/lastmile_qr_scan", "android": "https://dc.lft.to/lastmile_qr_scan"}, "is_reserved": 0, "fusion_lon": 0.0, "fusion_lat": 0.0, "lon": -77.046545, "name": "7467b0a5b772de7799d51ad5f89938ef"}, {"bike_id": "921529ff7d5499ac0387fa12886d503b", "type": "electric_scooter", "is_disabled": 0, "lat": 38.917049166666665, "rental_uris": {"ios": "https://dc.lft.to/lastmile_qr_scan", "android": "https://dc.lft.to/lastmile_qr_scan"}, "is_reserved": 0, "fusion_lon": 0.0, "fusion_lat": 0.0, "lon": -77.006604, "name": "921529ff7d5499ac0387fa12886d503b"}, {"bike_id": "7469e4b3857e23ec78ff869d181cb70e", "type": "electric_scooter", "is_disabled": 0, "lat": 38.905629833333336, "rental_uris": {"ios": "https://dc.lft.to/lastmile_qr_scan", "android": "https://dc.lft.to/lastmile_qr_scan"}, "is_reserved": 0, "fusion_lon": 0.0, "fusion_lat": 0.0, "lon": -77.01634516666667, "name": "7469e4b3857e23ec78ff869d181cb70e"}, {"bike_id": "7a1d08c33cb5e8d8e22e7fc0d8761f76", "type": "electric_scooter", "is_disabled": 0, "lat": 38.88640733333333, "rental_uris": {"ios": "https://dc.lft.to/lastmile_qr_scan", "android": "https://dc.lft.to/lastmile_qr_scan"}, "is_reserved": 0, "fusion_lon": 0.0, "fusion_lat": 0.0, "lon": -77.02139516666666, "name": "7a1d08c33cb5e8d8e22e7fc0d8761f76"}, {"bike_id": "89142f6c8de7e661f60be51dc83a93a3", "type": "electric_scooter", "is_disabled": 0, "lat": 38.89210683333334, "rental_uris": {"ios": "https://dc.lft.to/lastmile_qr_scan", "android": "https://dc.lft.to/lastmile_qr_scan"}, "is_reserved": 0, "fusion_lon": 0.0, "fusion_lat": 0.0, "lon": -77.02502466666667, "name": "89142f6c8de7e661f60be51dc83a93a3"}, {"bike_id": "e814ca024fe0b3e62fd60a6e7c73c4c5", "type": "electric_scooter", "is_disabled": 0, "lat": 38.933628, "rental_uris": {"ios": "https://dc.lft.to/lastmile_qr_scan", "android": "https://dc.lft.to/lastmile_qr_scan"}, "is_reserved": 0, "fusion_lon": 0.0, "fusion_lat": 0.0, "lon": -77.08854383333333, "name": "e814ca024fe0b3e62fd60a6e7c73c4c5"}, {"bike_id": "549544d1e11ea1b2b869ae9da73e1314", "type": "electric_scooter", "is_disabled": 0, "lat": 38.8717975, "rental_uris": {"ios": "https://dc.lft.to/lastmile_qr_scan", "android": "https://dc.lft.to/lastmile_qr_scan"}, "is_reserved": 0, "fusion_lon": 0.0, "fusion_lat": 0.0, "lon": -77.00615366666666, "name": "549544d1e11ea1b2b869ae9da73e1314"}, {"bike_id": "dede22162cdfcce2f12ca80ce1e8f9ec", "type": "electric_scooter", "is_disabled": 0, "lat": 38.87511716666667, "rental_uris": {"ios": "https://dc.lft.to/lastmile_qr_scan", "android": "https://dc.lft.to/lastmile_qr_scan"}, "is_reserved": 0, "fusion_lon": 0.0, "fusion_lat": 0.0, "lon": -77.0003675, "name": "dede22162cdfcce2f12ca80ce1e8f9ec"}, {"bike_id": "8ed21557511d9f79a4a3edf80d9d25d0", "type": "electric_scooter", "is_disabled": 0, "lat": 38.971969666666666, "rental_uris": {"ios": "https://dc.lft.to/lastmile_qr_scan", "android": "https://dc.lft.to/lastmile_qr_scan"}, "is_reserved": 0, "fusion_lon": 0.0, "fusion_lat": 0.0, "lon": -77.02660866666666, "name": "8ed21557511d9f79a4a3edf80d9d25d0"}, {"bike_id": "b45ff7186499155bbedaa1dbc8646a5d", "type": "electric_scooter", "is_disabled": 0, "lat": 38.913258166666665, "rental_uris": {"ios": "https://dc.lft.to/lastmile_qr_scan", "android": "https://dc.lft.to/lastmile_qr_scan"}, "is_reserved": 0, "fusion_lon": 0.0, "fusion_lat": 0.0, "lon": -77.03183383333334, "name": "b45ff7186499155bbedaa1dbc8646a5d"}, {"bike_id": "ed425c57def1159aa783177f04090a25", "type": "electric_scooter", "is_disabled": 0, "lat": 38.9156405, "rental_uris": {"ios": "https://dc.lft.to/lastmile_qr_scan", "android": "https://dc.lft.to/lastmile_qr_scan"}, "is_reserved": 0, "fusion_lon": 0.0, "fusion_lat": 0.0, "lon": -77.03189083333334, "name": "ed425c57def1159aa783177f04090a25"}, {"bike_id": "3327ce108b4c99a8fdd39713b346f7fa", "type": "electric_scooter", "is_disabled": 0, "lat": 38.905500333333336, "rental_uris": {"ios": "https://dc.lft.to/lastmile_qr_scan", "android": "https://dc.lft.to/lastmile_qr_scan"}, "is_reserved": 0, "fusion_lon": 0.0, "fusion_lat": 0.0, "lon": -77.044404, "name": "3327ce108b4c99a8fdd39713b346f7fa"}, {"bike_id": "0641629a81ad999c257fcafe6014cdde", "type": "electric_scooter", "is_disabled": 0, "lat": 38.90915016666667, "rental_uris": {"ios": "https://dc.lft.to/lastmile_qr_scan", "android": "https://dc.lft.to/lastmile_qr_scan"}, "is_reserved": 0, "fusion_lon": 0.0, "fusion_lat": 0.0, "lon": -77.01899133333333, "name": "0641629a81ad999c257fcafe6014cdde"}, {"bike_id": "597f83a2dbc867ee6a5b887dce231ff1", "type": "electric_scooter", "is_disabled": 0, "lat": 38.8662225, "rental_uris": {"ios": "https://dc.lft.to/lastmile_qr_scan", "android": "https://dc.lft.to/lastmile_qr_scan"}, "is_reserved": 0, "fusion_lon": 0.0, "fusion_lat": 0.0, "lon": -76.98715833333333, "name": "597f83a2dbc867ee6a5b887dce231ff1"}, {"bike_id": "123d251c3e0d4b18d3aa6fd8e4c49243", "type": "electric_scooter", "is_disabled": 0, "lat": 38.89609383333333, "rental_uris": {"ios": "https://dc.lft.to/lastmile_qr_scan", "android": "https://dc.lft.to/lastmile_qr_scan"}, "is_reserved": 0, "fusion_lon": 0.0, "fusion_lat": 0.0, "lon": -77.04481783333334, "name": "123d251c3e0d4b18d3aa6fd8e4c49243"}, {"bike_id": "ce2efe4a2eeac11d6932a54b6797902a", "type": "electric_scooter", "is_disabled": 0, "lat": 38.9234315, "rental_uris": {"ios": "https://dc.lft.to/lastmile_qr_scan", "android": "https://dc.lft.to/lastmile_qr_scan"}, "is_reserved": 0, "fusion_lon": 0.0, "fusion_lat": 0.0, "lon": -77.03561383333333, "name": "ce2efe4a2eeac11d6932a54b6797902a"}, {"bike_id": "b6197c23b22c6ccf95a9c14fac291492", "type": "electric_scooter", "is_disabled": 0, "lat": 38.93624, "rental_uris": {"ios": "https://dc.lft.to/lastmile_qr_scan", "android": "https://dc.lft.to/lastmile_qr_scan"}, "is_reserved": 0, "fusion_lon": 0.0, "fusion_lat": 0.0, "lon": -77.0377, "name": "b6197c23b22c6ccf95a9c14fac291492"}, {"bike_id": "689521e7a1d57dddac02206478d7c507", "type": "electric_scooter", "is_disabled": 0, "lat": 38.9336075, "rental_uris": {"ios": "https://dc.lft.to/lastmile_qr_scan", "android": "https://dc.lft.to/lastmile_qr_scan"}, "is_reserved": 0, "fusion_lon": 0.0, "fusion_lat": 0.0, "lon": -77.06207033333334, "name": "689521e7a1d57dddac02206478d7c507"}, {"bike_id": "4ae1fb5eeb115f263e1b9ec34c608498", "type": "electric_scooter", "is_disabled": 0, "lat": 38.911392166666666, "rental_uris": {"ios": "https://dc.lft.to/lastmile_qr_scan", "android": "https://dc.lft.to/lastmile_qr_scan"}, "is_reserved": 0, "fusion_lon": 0.0, "fusion_lat": 0.0, "lon": -76.990112, "name": "4ae1fb5eeb115f263e1b9ec34c608498"}, {"bike_id": "9d37c630730ea56f95908b206a87865a", "type": "electric_scooter", "is_disabled": 0, "lat": 38.924203166666665, "rental_uris": {"ios": "https://dc.lft.to/lastmile_qr_scan", "android": "https://dc.lft.to/lastmile_qr_scan"}, "is_reserved": 0, "fusion_lon": 0.0, "fusion_lat": 0.0, "lon": -77.04238683333334, "name": "9d37c630730ea56f95908b206a87865a"}, {"bike_id": "200fbeee91399485d5095faa6fb04c84", "type": "electric_scooter", "is_disabled": 0, "lat": 38.938621166666664, "rental_uris": {"ios": "https://dc.lft.to/lastmile_qr_scan", "android": "https://dc.lft.to/lastmile_qr_scan"}, "is_reserved": 0, "fusion_lon": 0.0, "fusion_lat": 0.0, "lon": -77.02699916666667, "name": "200fbeee91399485d5095faa6fb04c84"}, {"bike_id": "23094b57b6cf9324eb10ccf7a4b6976c", "type": "electric_scooter", "is_disabled": 0, "lat": 38.90232733333333, "rental_uris": {"ios": "https://dc.lft.to/lastmile_qr_scan", "android": "https://dc.lft.to/lastmile_qr_scan"}, "is_reserved": 0, "fusion_lon": 0.0, "fusion_lat": 0.0, "lon": -77.0263185, "name": "23094b57b6cf9324eb10ccf7a4b6976c"}, {"bike_id": "1dcc981505221554331a158b6c2a3775", "type": "electric_bike", "is_disabled": 0, "lat": 38.87295, "rental_uris": {"ios": "https://dc.lft.to/lastmile_qr_scan", "android": "https://dc.lft.to/lastmile_qr_scan"}, "is_reserved": 0, "fusion_lon": 0.0, "fusion_lat": 0.0, "lon": -77.139268, "name": "1dcc981505221554331a158b6c2a3775"}, {"bike_id": "e1d9e7aa41e02fdf986a6833968fb502", "type": "electric_scooter", "is_disabled": 0, "lat": 38.95313516666667, "rental_uris": {"ios": "https://dc.lft.to/lastmile_qr_scan", "android": "https://dc.lft.to/lastmile_qr_scan"}, "is_reserved": 0, "fusion_lon": 0.0, "fusion_lat": 0.0, "lon": -77.06980483333334, "name": "e1d9e7aa41e02fdf986a6833968fb502"}, {"bike_id": "55ce4a7256bee3087293e211e723d0a2", "type": "electric_scooter", "is_disabled": 0, "lat": 38.9149095, "rental_uris": {"ios": "https://dc.lft.to/lastmile_qr_scan", "android": "https://dc.lft.to/lastmile_qr_scan"}, "is_reserved": 0, "fusion_lon": 0.0, "fusion_lat": 0.0, "lon": -77.00275566666667, "name": "55ce4a7256bee3087293e211e723d0a2"}, {"bike_id": "7c650d35834d0fc2c96e3be34d1abb19", "type": "electric_scooter", "is_disabled": 0, "lat": 38.9171265, "rental_uris": {"ios": "https://dc.lft.to/lastmile_qr_scan", "android": "https://dc.lft.to/lastmile_qr_scan"}, "is_reserved": 0, "fusion_lon": 0.0, "fusion_lat": 0.0, "lon": -77.02604166666667, "name": "7c650d35834d0fc2c96e3be34d1abb19"}, {"bike_id": "4b4195fb2d87c0b8d338a78177487ea0", "type": "electric_scooter", "is_disabled": 0, "lat": 38.915539333333335, "rental_uris": {"ios": "https://dc.lft.to/lastmile_qr_scan", "android": "https://dc.lft.to/lastmile_qr_scan"}, "is_reserved": 0, "fusion_lon": 0.0, "fusion_lat": 0.0, "lon": -77.025716, "name": "4b4195fb2d87c0b8d338a78177487ea0"}, {"bike_id": "bb97a6886d74988c1c867b6927e31936", "type": "electric_bike", "is_disabled": 0, "lat": 38.87301883333333, "rental_uris": {"ios": "https://dc.lft.to/lastmile_qr_scan", "android": "https://dc.lft.to/lastmile_qr_scan"}, "is_reserved": 0, "fusion_lon": 0.0, "fusion_lat": 0.0, "lon": -77.01087766666667, "name": "bb97a6886d74988c1c867b6927e31936"}, {"bike_id": "3d7574dcedbc2029fc34c5d3aade4481", "type": "electric_scooter", "is_disabled": 0, "lat": 38.93995433333333, "rental_uris": {"ios": "https://dc.lft.to/lastmile_qr_scan", "android": "https://dc.lft.to/lastmile_qr_scan"}, "is_reserved": 0, "fusion_lon": 0.0, "fusion_lat": 0.0, "lon": -77.0168905, "name": "3d7574dcedbc2029fc34c5d3aade4481"}, {"bike_id": "e01403855e614ad872c9960c4e2a93e1", "type": "electric_bike", "is_disabled": 0, "lat": 38.85353633333333, "rental_uris": {"ios": "https://dc.lft.to/lastmile_qr_scan", "android": "https://dc.lft.to/lastmile_qr_scan"}, "is_reserved": 0, "fusion_lon": 0.0, "fusion_lat": 0.0, "lon": -77.08685816666667, "name": "e01403855e614ad872c9960c4e2a93e1"}, {"bike_id": "a22aef1f0e3867c0e01d95816e417100", "type": "electric_scooter", "is_disabled": 0, "lat": 38.865053, "rental_uris": {"ios": "https://dc.lft.to/lastmile_qr_scan", "android": "https://dc.lft.to/lastmile_qr_scan"}, "is_reserved": 0, "fusion_lon": 0.0, "fusion_lat": 0.0, "lon": -76.99005066666666, "name": "a22aef1f0e3867c0e01d95816e417100"}, {"bike_id": "5f1468cb017d20ffee501ee77b9a2ff2", "type": "electric_scooter", "is_disabled": 0, "lat": 38.892266666666664, "rental_uris": {"ios": "https://dc.lft.to/lastmile_qr_scan", "android": "https://dc.lft.to/lastmile_qr_scan"}, "is_reserved": 0, "fusion_lon": 0.0, "fusion_lat": 0.0, "lon": -77.049976, "name": "5f1468cb017d20ffee501ee77b9a2ff2"}, {"bike_id": "90c6f258c9374e2fec8375186b259415", "type": "electric_scooter", "is_disabled": 0, "lat": 38.907325666666665, "rental_uris": {"ios": "https://dc.lft.to/lastmile_qr_scan", "android": "https://dc.lft.to/lastmile_qr_scan"}, "is_reserved": 0, "fusion_lon": 0.0, "fusion_lat": 0.0, "lon": -77.00941, "name": "90c6f258c9374e2fec8375186b259415"}, {"bike_id": "3089e618a005bef999ee54ed3fd80c1d", "type": "electric_scooter", "is_disabled": 0, "lat": 38.917827333333335, "rental_uris": {"ios": "https://dc.lft.to/lastmile_qr_scan", "android": "https://dc.lft.to/lastmile_qr_scan"}, "is_reserved": 0, "fusion_lon": 0.0, "fusion_lat": 0.0, "lon": -77.023148, "name": "3089e618a005bef999ee54ed3fd80c1d"}, {"bike_id": "5e2b7aae436c3feb03a6055b1f7968ec", "type": "electric_scooter", "is_disabled": 0, "lat": 38.942105, "rental_uris": {"ios": "https://dc.lft.to/lastmile_qr_scan", "android": "https://dc.lft.to/lastmile_qr_scan"}, "is_reserved": 0, "fusion_lon": 0.0, "fusion_lat": 0.0, "lon": -77.02589166666667, "name": "5e2b7aae436c3feb03a6055b1f7968ec"}, {"bike_id": "c6781485eac420585f8c941fbae6a593", "type": "electric_scooter", "is_disabled": 0, "lat": 38.8949855, "rental_uris": {"ios": "https://dc.lft.to/lastmile_qr_scan", "android": "https://dc.lft.to/lastmile_qr_scan"}, "is_reserved": 0, "fusion_lon": 0.0, "fusion_lat": 0.0, "lon": -77.00212983333333, "name": "c6781485eac420585f8c941fbae6a593"}, {"bike_id": "8a9f6238f8c4383541e7562842084b36", "type": "electric_bike", "is_disabled": 0, "lat": 39.056360166666664, "rental_uris": {"ios": "https://dc.lft.to/lastmile_qr_scan", "android": "https://dc.lft.to/lastmile_qr_scan"}, "is_reserved": 0, "fusion_lon": 0.0, "fusion_lat": 0.0, "lon": -77.12526883333334, "name": "8a9f6238f8c4383541e7562842084b36"}, {"bike_id": "5f19b87d5a654b3e5730047517c500b2", "type": "electric_scooter", "is_disabled": 0, "lat": 38.923429, "rental_uris": {"ios": "https://dc.lft.to/lastmile_qr_scan", "android": "https://dc.lft.to/lastmile_qr_scan"}, "is_reserved": 0, "fusion_lon": 0.0, "fusion_lat": 0.0, "lon": -77.05119466666666, "name": "5f19b87d5a654b3e5730047517c500b2"}, {"bike_id": "b8858a9ecd10dd5eca00b02684f49368", "type": "electric_scooter", "is_disabled": 0, "lat": 38.911162166666664, "rental_uris": {"ios": "https://dc.lft.to/lastmile_qr_scan", "android": "https://dc.lft.to/lastmile_qr_scan"}, "is_reserved": 0, "fusion_lon": 0.0, "fusion_lat": 0.0, "lon": -77.03254266666667, "name": "b8858a9ecd10dd5eca00b02684f49368"}, {"bike_id": "4cdd94aa6b4804f99e1019a26da9eae3", "type": "electric_scooter", "is_disabled": 0, "lat": 38.935867333333334, "rental_uris": {"ios": "https://dc.lft.to/lastmile_qr_scan", "android": "https://dc.lft.to/lastmile_qr_scan"}, "is_reserved": 0, "fusion_lon": 0.0, "fusion_lat": 0.0, "lon": -77.05821583333334, "name": "4cdd94aa6b4804f99e1019a26da9eae3"}, {"bike_id": "5d556f1b5421c31dade290ee1c28bff1", "type": "electric_scooter", "is_disabled": 0, "lat": 38.94787316666667, "rental_uris": {"ios": "https://dc.lft.to/lastmile_qr_scan", "android": "https://dc.lft.to/lastmile_qr_scan"}, "is_reserved": 0, "fusion_lon": 0.0, "fusion_lat": 0.0, "lon": -77.07938566666667, "name": "5d556f1b5421c31dade290ee1c28bff1"}, {"bike_id": "546605b0125fc3334ea088324b8a0923", "type": "electric_scooter", "is_disabled": 0, "lat": 38.923378, "rental_uris": {"ios": "https://dc.lft.to/lastmile_qr_scan", "android": "https://dc.lft.to/lastmile_qr_scan"}, "is_reserved": 0, "fusion_lon": 0.0, "fusion_lat": 0.0, "lon": -77.05300483333333, "name": "546605b0125fc3334ea088324b8a0923"}, {"bike_id": "03555dd2b0f07956988233ac50207e56", "type": "electric_scooter", "is_disabled": 0, "lat": 38.91066566666667, "rental_uris": {"ios": "https://dc.lft.to/lastmile_qr_scan", "android": "https://dc.lft.to/lastmile_qr_scan"}, "is_reserved": 0, "fusion_lon": 0.0, "fusion_lat": 0.0, "lon": -77.026087, "name": "03555dd2b0f07956988233ac50207e56"}, {"bike_id": "7745a97d1c5a2b6e1c13bd77902953b8", "type": "electric_scooter", "is_disabled": 0, "lat": 38.9157315, "rental_uris": {"ios": "https://dc.lft.to/lastmile_qr_scan", "android": "https://dc.lft.to/lastmile_qr_scan"}, "is_reserved": 0, "fusion_lon": 0.0, "fusion_lat": 0.0, "lon": -77.03186316666667, "name": "7745a97d1c5a2b6e1c13bd77902953b8"}, {"bike_id": "2121a83135d6e1a90d00f12bfafe3b50", "type": "electric_scooter", "is_disabled": 0, "lat": 38.89221766666667, "rental_uris": {"ios": "https://dc.lft.to/lastmile_qr_scan", "android": "https://dc.lft.to/lastmile_qr_scan"}, "is_reserved": 0, "fusion_lon": 0.0, "fusion_lat": 0.0, "lon": -77.04317, "name": "2121a83135d6e1a90d00f12bfafe3b50"}, {"bike_id": "d3d40f2376591dc2c1e30ae6caac44be", "type": "electric_scooter", "is_disabled": 0, "lat": 38.926381666666664, "rental_uris": {"ios": "https://dc.lft.to/lastmile_qr_scan", "android": "https://dc.lft.to/lastmile_qr_scan"}, "is_reserved": 0, "fusion_lon": 0.0, "fusion_lat": 0.0, "lon": -77.01381683333334, "name": "d3d40f2376591dc2c1e30ae6caac44be"}, {"bike_id": "48519e8527a9fb3bd1a6a6c23cddb83f", "type": "electric_scooter", "is_disabled": 0, "lat": 38.912203166666664, "rental_uris": {"ios": "https://dc.lft.to/lastmile_qr_scan", "android": "https://dc.lft.to/lastmile_qr_scan"}, "is_reserved": 0, "fusion_lon": 0.0, "fusion_lat": 0.0, "lon": -77.03200383333333, "name": "48519e8527a9fb3bd1a6a6c23cddb83f"}, {"bike_id": "dc7d99f5fb386c88d0f4d83ae2cfbd7b", "type": "electric_scooter", "is_disabled": 0, "lat": 38.922206333333335, "rental_uris": {"ios": "https://dc.lft.to/lastmile_qr_scan", "android": "https://dc.lft.to/lastmile_qr_scan"}, "is_reserved": 0, "fusion_lon": 0.0, "fusion_lat": 0.0, "lon": -77.02209283333333, "name": "dc7d99f5fb386c88d0f4d83ae2cfbd7b"}, {"bike_id": "7d07d8ca36850de9f92408307289a8f9", "type": "electric_scooter", "is_disabled": 0, "lat": 38.885323166666666, "rental_uris": {"ios": "https://dc.lft.to/lastmile_qr_scan", "android": "https://dc.lft.to/lastmile_qr_scan"}, "is_reserved": 0, "fusion_lon": 0.0, "fusion_lat": 0.0, "lon": -76.998292, "name": "7d07d8ca36850de9f92408307289a8f9"}, {"bike_id": "84055c249a82eed439b65d4bf0a683ae", "type": "electric_scooter", "is_disabled": 0, "lat": 38.9268695, "rental_uris": {"ios": "https://dc.lft.to/lastmile_qr_scan", "android": "https://dc.lft.to/lastmile_qr_scan"}, "is_reserved": 0, "fusion_lon": 0.0, "fusion_lat": 0.0, "lon": -77.07328566666666, "name": "84055c249a82eed439b65d4bf0a683ae"}, {"bike_id": "809501ee5cd81cbc9edb2c6b32e1bc9b", "type": "electric_scooter", "is_disabled": 0, "lat": 38.892445333333335, "rental_uris": {"ios": "https://dc.lft.to/lastmile_qr_scan", "android": "https://dc.lft.to/lastmile_qr_scan"}, "is_reserved": 0, "fusion_lon": 0.0, "fusion_lat": 0.0, "lon": -76.9533565, "name": "809501ee5cd81cbc9edb2c6b32e1bc9b"}, {"bike_id": "78409264cca978d965963fd9a7879a47", "type": "electric_scooter", "is_disabled": 0, "lat": 38.86505533333333, "rental_uris": {"ios": "https://dc.lft.to/lastmile_qr_scan", "android": "https://dc.lft.to/lastmile_qr_scan"}, "is_reserved": 0, "fusion_lon": 0.0, "fusion_lat": 0.0, "lon": -76.9900415, "name": "78409264cca978d965963fd9a7879a47"}, {"bike_id": "17d8ad01a2c45ace99e71482ed54feed", "type": "electric_scooter", "is_disabled": 0, "lat": 38.933731, "rental_uris": {"ios": "https://dc.lft.to/lastmile_qr_scan", "android": "https://dc.lft.to/lastmile_qr_scan"}, "is_reserved": 0, "fusion_lon": 0.0, "fusion_lat": 0.0, "lon": -77.05733833333333, "name": "17d8ad01a2c45ace99e71482ed54feed"}, {"bike_id": "aba608c6af352e20fcd732b7b7afa045", "type": "electric_scooter", "is_disabled": 0, "lat": 38.911515666666666, "rental_uris": {"ios": "https://dc.lft.to/lastmile_qr_scan", "android": "https://dc.lft.to/lastmile_qr_scan"}, "is_reserved": 0, "fusion_lon": 0.0, "fusion_lat": 0.0, "lon": -77.0295255, "name": "aba608c6af352e20fcd732b7b7afa045"}, {"bike_id": "cb74839a07758555583896be9a89ecc2", "type": "electric_scooter", "is_disabled": 0, "lat": 38.9096985, "rental_uris": {"ios": "https://dc.lft.to/lastmile_qr_scan", "android": "https://dc.lft.to/lastmile_qr_scan"}, "is_reserved": 0, "fusion_lon": 0.0, "fusion_lat": 0.0, "lon": -77.03339633333333, "name": "cb74839a07758555583896be9a89ecc2"}, {"bike_id": "ff18b1223858eaa85921428738ec09ae", "type": "electric_bike", "is_disabled": 0, "lat": 38.809126666666664, "rental_uris": {"ios": "https://dc.lft.to/lastmile_qr_scan", "android": "https://dc.lft.to/lastmile_qr_scan"}, "is_reserved": 0, "fusion_lon": 0.0, "fusion_lat": 0.0, "lon": -77.086514, "name": "ff18b1223858eaa85921428738ec09ae"}, {"bike_id": "2cc63cf50920ae109282deeeadc22fc8", "type": "electric_scooter", "is_disabled": 0, "lat": 38.90242816666667, "rental_uris": {"ios": "https://dc.lft.to/lastmile_qr_scan", "android": "https://dc.lft.to/lastmile_qr_scan"}, "is_reserved": 0, "fusion_lon": 0.0, "fusion_lat": 0.0, "lon": -77.04310783333334, "name": "2cc63cf50920ae109282deeeadc22fc8"}, {"bike_id": "fb43a165ac705603a15d7859e5157c40", "type": "electric_scooter", "is_disabled": 0, "lat": 38.91139583333333, "rental_uris": {"ios": "https://dc.lft.to/lastmile_qr_scan", "android": "https://dc.lft.to/lastmile_qr_scan"}, "is_reserved": 0, "fusion_lon": 0.0, "fusion_lat": 0.0, "lon": -77.02194166666666, "name": "fb43a165ac705603a15d7859e5157c40"}, {"bike_id": "c7ff27cb2e3c66fcdb271e55027a120a", "type": "electric_scooter", "is_disabled": 0, "lat": 38.922469, "rental_uris": {"ios": "https://dc.lft.to/lastmile_qr_scan", "android": "https://dc.lft.to/lastmile_qr_scan"}, "is_reserved": 0, "fusion_lon": 0.0, "fusion_lat": 0.0, "lon": -77.04285416666667, "name": "c7ff27cb2e3c66fcdb271e55027a120a"}, {"bike_id": "82a763951c25b83e82f2c1bf77313d44", "type": "electric_scooter", "is_disabled": 0, "lat": 38.905307, "rental_uris": {"ios": "https://dc.lft.to/lastmile_qr_scan", "android": "https://dc.lft.to/lastmile_qr_scan"}, "is_reserved": 0, "fusion_lon": 0.0, "fusion_lat": 0.0, "lon": -77.057243, "name": "82a763951c25b83e82f2c1bf77313d44"}, {"bike_id": "0ab08c10f4f75f7ff123d0a12f4cd434", "type": "electric_scooter", "is_disabled": 0, "lat": 38.8839985, "rental_uris": {"ios": "https://dc.lft.to/lastmile_qr_scan", "android": "https://dc.lft.to/lastmile_qr_scan"}, "is_reserved": 0, "fusion_lon": 0.0, "fusion_lat": 0.0, "lon": -76.95388366666667, "name": "0ab08c10f4f75f7ff123d0a12f4cd434"}, {"bike_id": "09329d3f79d963237b166f1ccdcb387a", "type": "electric_scooter", "is_disabled": 0, "lat": 38.89098766666667, "rental_uris": {"ios": "https://dc.lft.to/lastmile_qr_scan", "android": "https://dc.lft.to/lastmile_qr_scan"}, "is_reserved": 0, "fusion_lon": 0.0, "fusion_lat": 0.0, "lon": -76.93851016666666, "name": "09329d3f79d963237b166f1ccdcb387a"}, {"bike_id": "ef59093231ecb996640be28b8155f5e7", "type": "electric_scooter", "is_disabled": 0, "lat": 38.918369166666665, "rental_uris": {"ios": "https://dc.lft.to/lastmile_qr_scan", "android": "https://dc.lft.to/lastmile_qr_scan"}, "is_reserved": 0, "fusion_lon": 0.0, "fusion_lat": 0.0, "lon": -77.03219366666667, "name": "ef59093231ecb996640be28b8155f5e7"}, {"bike_id": "22ca6e1c185ed471cf6a7f11604f0080", "type": "electric_scooter", "is_disabled": 0, "lat": 38.932489833333335, "rental_uris": {"ios": "https://dc.lft.to/lastmile_qr_scan", "android": "https://dc.lft.to/lastmile_qr_scan"}, "is_reserved": 0, "fusion_lon": 0.0, "fusion_lat": 0.0, "lon": -77.03273783333333, "name": "22ca6e1c185ed471cf6a7f11604f0080"}, {"bike_id": "7950316b0ead32c58d6f1fb95317a231", "type": "electric_scooter", "is_disabled": 0, "lat": 38.898488, "rental_uris": {"ios": "https://dc.lft.to/lastmile_qr_scan", "android": "https://dc.lft.to/lastmile_qr_scan"}, "is_reserved": 0, "fusion_lon": 0.0, "fusion_lat": 0.0, "lon": -77.02597, "name": "7950316b0ead32c58d6f1fb95317a231"}, {"bike_id": "a8636eed6c6123311b18b78040d96123", "type": "electric_scooter", "is_disabled": 0, "lat": 38.9402235, "rental_uris": {"ios": "https://dc.lft.to/lastmile_qr_scan", "android": "https://dc.lft.to/lastmile_qr_scan"}, "is_reserved": 0, "fusion_lon": 0.0, "fusion_lat": 0.0, "lon": -77.03811883333333, "name": "a8636eed6c6123311b18b78040d96123"}, {"bike_id": "2f5c011cd2ad16a7e77972194447fb21", "type": "electric_scooter", "is_disabled": 0, "lat": 38.870871666666666, "rental_uris": {"ios": "https://dc.lft.to/lastmile_qr_scan", "android": "https://dc.lft.to/lastmile_qr_scan"}, "is_reserved": 0, "fusion_lon": 0.0, "fusion_lat": 0.0, "lon": -77.01211166666667, "name": "2f5c011cd2ad16a7e77972194447fb21"}, {"bike_id": "b07bae801baa33aceee34ccb825dd0f2", "type": "electric_scooter", "is_disabled": 0, "lat": 38.905737, "rental_uris": {"ios": "https://dc.lft.to/lastmile_qr_scan", "android": "https://dc.lft.to/lastmile_qr_scan"}, "is_reserved": 0, "fusion_lon": 0.0, "fusion_lat": 0.0, "lon": -76.97626883333334, "name": "b07bae801baa33aceee34ccb825dd0f2"}, {"bike_id": "0b3bc91576bde7f2772f18f2df3b250c", "type": "electric_scooter", "is_disabled": 0, "lat": 38.90871283333333, "rental_uris": {"ios": "https://dc.lft.to/lastmile_qr_scan", "android": "https://dc.lft.to/lastmile_qr_scan"}, "is_reserved": 0, "fusion_lon": 0.0, "fusion_lat": 0.0, "lon": -77.08582816666667, "name": "0b3bc91576bde7f2772f18f2df3b250c"}, {"bike_id": "a3bcd716af48985f233773b3a5cd74be", "type": "electric_scooter", "is_disabled": 0, "lat": 38.8463855, "rental_uris": {"ios": "https://dc.lft.to/lastmile_qr_scan", "android": "https://dc.lft.to/lastmile_qr_scan"}, "is_reserved": 0, "fusion_lon": 0.0, "fusion_lat": 0.0, "lon": -76.99128733333333, "name": "a3bcd716af48985f233773b3a5cd74be"}, {"bike_id": "d10a587355fa146600cf433497f03d3e", "type": "electric_scooter", "is_disabled": 0, "lat": 38.919707333333335, "rental_uris": {"ios": "https://dc.lft.to/lastmile_qr_scan", "android": "https://dc.lft.to/lastmile_qr_scan"}, "is_reserved": 0, "fusion_lon": 0.0, "fusion_lat": 0.0, "lon": -77.04273966666666, "name": "d10a587355fa146600cf433497f03d3e"}, {"bike_id": "1b4f4671aaa7f1d647b974dd842cda4c", "type": "electric_scooter", "is_disabled": 0, "lat": 38.8835265, "rental_uris": {"ios": "https://dc.lft.to/lastmile_qr_scan", "android": "https://dc.lft.to/lastmile_qr_scan"}, "is_reserved": 0, "fusion_lon": 0.0, "fusion_lat": 0.0, "lon": -76.9949025, "name": "1b4f4671aaa7f1d647b974dd842cda4c"}, {"bike_id": "7be2559aa9db2651fe6ddd45008f05b4", "type": "electric_scooter", "is_disabled": 0, "lat": 38.920554833333334, "rental_uris": {"ios": "https://dc.lft.to/lastmile_qr_scan", "android": "https://dc.lft.to/lastmile_qr_scan"}, "is_reserved": 0, "fusion_lon": 0.0, "fusion_lat": 0.0, "lon": -77.02444783333333, "name": "7be2559aa9db2651fe6ddd45008f05b4"}, {"bike_id": "0132865c0c8a7f9264e1885fd3dd6bd5", "type": "electric_scooter", "is_disabled": 0, "lat": 38.871592, "rental_uris": {"ios": "https://dc.lft.to/lastmile_qr_scan", "android": "https://dc.lft.to/lastmile_qr_scan"}, "is_reserved": 0, "fusion_lon": 0.0, "fusion_lat": 0.0, "lon": -77.01354766666667, "name": "0132865c0c8a7f9264e1885fd3dd6bd5"}, {"bike_id": "6e163c92b43e8d730ee8c5b64df2a30c", "type": "electric_scooter", "is_disabled": 0, "lat": 38.90424516666667, "rental_uris": {"ios": "https://dc.lft.to/lastmile_qr_scan", "android": "https://dc.lft.to/lastmile_qr_scan"}, "is_reserved": 0, "fusion_lon": 0.0, "fusion_lat": 0.0, "lon": -77.04886566666667, "name": "6e163c92b43e8d730ee8c5b64df2a30c"}, {"bike_id": "b407e38df083e8f74ba65cd86ec245b2", "type": "electric_scooter", "is_disabled": 0, "lat": 38.9309055, "rental_uris": {"ios": "https://dc.lft.to/lastmile_qr_scan", "android": "https://dc.lft.to/lastmile_qr_scan"}, "is_reserved": 0, "fusion_lon": 0.0, "fusion_lat": 0.0, "lon": -77.02559733333334, "name": "b407e38df083e8f74ba65cd86ec245b2"}, {"bike_id": "d6492145ed8072a05d85ecd0cda0850a", "type": "electric_scooter", "is_disabled": 0, "lat": 38.9036555, "rental_uris": {"ios": "https://dc.lft.to/lastmile_qr_scan", "android": "https://dc.lft.to/lastmile_qr_scan"}, "is_reserved": 0, "fusion_lon": 0.0, "fusion_lat": 0.0, "lon": -76.9994845, "name": "d6492145ed8072a05d85ecd0cda0850a"}, {"bike_id": "00c5a5a9d529587408b411163a285ba7", "type": "electric_scooter", "is_disabled": 0, "lat": 38.898310333333335, "rental_uris": {"ios": "https://dc.lft.to/lastmile_qr_scan", "android": "https://dc.lft.to/lastmile_qr_scan"}, "is_reserved": 0, "fusion_lon": 0.0, "fusion_lat": 0.0, "lon": -77.02860616666666, "name": "00c5a5a9d529587408b411163a285ba7"}, {"bike_id": "c0fe6c9323f5f2bc12b9eab4b1df48a5", "type": "electric_scooter", "is_disabled": 0, "lat": 38.889296, "rental_uris": {"ios": "https://dc.lft.to/lastmile_qr_scan", "android": "https://dc.lft.to/lastmile_qr_scan"}, "is_reserved": 0, "fusion_lon": 0.0, "fusion_lat": 0.0, "lon": -76.93578516666666, "name": "c0fe6c9323f5f2bc12b9eab4b1df48a5"}, {"bike_id": "d529ce266ac87587f71cf4600cbbc07c", "type": "electric_scooter", "is_disabled": 0, "lat": 38.9055905, "rental_uris": {"ios": "https://dc.lft.to/lastmile_qr_scan", "android": "https://dc.lft.to/lastmile_qr_scan"}, "is_reserved": 0, "fusion_lon": 0.0, "fusion_lat": 0.0, "lon": -77.06524933333333, "name": "d529ce266ac87587f71cf4600cbbc07c"}, {"bike_id": "d89a44f5b2b9eadcbcc852f98230e125", "type": "electric_scooter", "is_disabled": 0, "lat": 38.90574066666667, "rental_uris": {"ios": "https://dc.lft.to/lastmile_qr_scan", "android": "https://dc.lft.to/lastmile_qr_scan"}, "is_reserved": 0, "fusion_lon": 0.0, "fusion_lat": 0.0, "lon": -77.04255116666667, "name": "d89a44f5b2b9eadcbcc852f98230e125"}, {"bike_id": "7bd77598f5558afef10f9b1e1740a5ee", "type": "electric_scooter", "is_disabled": 0, "lat": 38.90965466666667, "rental_uris": {"ios": "https://dc.lft.to/lastmile_qr_scan", "android": "https://dc.lft.to/lastmile_qr_scan"}, "is_reserved": 0, "fusion_lon": 0.0, "fusion_lat": 0.0, "lon": -77.04228516666667, "name": "7bd77598f5558afef10f9b1e1740a5ee"}, {"bike_id": "a734ce302b0748a7a403b0028545656d", "type": "electric_bike", "is_disabled": 0, "lat": 38.8218085, "rental_uris": {"ios": "https://dc.lft.to/lastmile_qr_scan", "android": "https://dc.lft.to/lastmile_qr_scan"}, "is_reserved": 0, "fusion_lon": 0.0, "fusion_lat": 0.0, "lon": -76.99513, "name": "a734ce302b0748a7a403b0028545656d"}, {"bike_id": "493e95a70510efb0e139d15992b3cc0c", "type": "electric_bike", "is_disabled": 0, "lat": 39.04310233333333, "rental_uris": {"ios": "https://dc.lft.to/lastmile_qr_scan", "android": "https://dc.lft.to/lastmile_qr_scan"}, "is_reserved": 0, "fusion_lon": 0.0, "fusion_lat": 0.0, "lon": -77.0515965, "name": "493e95a70510efb0e139d15992b3cc0c"}, {"bike_id": "e2b66ff67ed5518d58121f9a8fc6f5a3", "type": "electric_scooter", "is_disabled": 0, "lat": 38.88036666666667, "rental_uris": {"ios": "https://dc.lft.to/lastmile_qr_scan", "android": "https://dc.lft.to/lastmile_qr_scan"}, "is_reserved": 0, "fusion_lon": 0.0, "fusion_lat": 0.0, "lon": -77.005399, "name": "e2b66ff67ed5518d58121f9a8fc6f5a3"}, {"bike_id": "953fe6d18f85f7fc65aa84bdbdfc5f80", "type": "electric_scooter", "is_disabled": 0, "lat": 38.89356316666667, "rental_uris": {"ios": "https://dc.lft.to/lastmile_qr_scan", "android": "https://dc.lft.to/lastmile_qr_scan"}, "is_reserved": 0, "fusion_lon": 0.0, "fusion_lat": 0.0, "lon": -76.94932916666667, "name": "953fe6d18f85f7fc65aa84bdbdfc5f80"}, {"bike_id": "5aa0a21143bfa4c43aabfb05c38b2957", "type": "electric_scooter", "is_disabled": 0, "lat": 38.888602166666665, "rental_uris": {"ios": "https://dc.lft.to/lastmile_qr_scan", "android": "https://dc.lft.to/lastmile_qr_scan"}, "is_reserved": 0, "fusion_lon": 0.0, "fusion_lat": 0.0, "lon": -76.991427, "name": "5aa0a21143bfa4c43aabfb05c38b2957"}, {"bike_id": "b62efc29d38a420154b51197967dbe2d", "type": "electric_scooter", "is_disabled": 0, "lat": 38.9167175, "rental_uris": {"ios": "https://dc.lft.to/lastmile_qr_scan", "android": "https://dc.lft.to/lastmile_qr_scan"}, "is_reserved": 0, "fusion_lon": 0.0, "fusion_lat": 0.0, "lon": -77.02281666666667, "name": "b62efc29d38a420154b51197967dbe2d"}, {"bike_id": "e98b5487809dffa9dea9242ce4c9cbe6", "type": "electric_scooter", "is_disabled": 0, "lat": 38.903651833333335, "rental_uris": {"ios": "https://dc.lft.to/lastmile_qr_scan", "android": "https://dc.lft.to/lastmile_qr_scan"}, "is_reserved": 0, "fusion_lon": 0.0, "fusion_lat": 0.0, "lon": -77.0627735, "name": "e98b5487809dffa9dea9242ce4c9cbe6"}, {"bike_id": "c4f2871b76ad3d7eef0fb1efc57d664e", "type": "electric_scooter", "is_disabled": 0, "lat": 38.89913683333333, "rental_uris": {"ios": "https://dc.lft.to/lastmile_qr_scan", "android": "https://dc.lft.to/lastmile_qr_scan"}, "is_reserved": 0, "fusion_lon": 0.0, "fusion_lat": 0.0, "lon": -76.93366383333333, "name": "c4f2871b76ad3d7eef0fb1efc57d664e"}, {"bike_id": "e43491012b6acd75c86bc780f96a063a", "type": "electric_scooter", "is_disabled": 0, "lat": 38.8923255, "rental_uris": {"ios": "https://dc.lft.to/lastmile_qr_scan", "android": "https://dc.lft.to/lastmile_qr_scan"}, "is_reserved": 0, "fusion_lon": 0.0, "fusion_lat": 0.0, "lon": -77.0467185, "name": "e43491012b6acd75c86bc780f96a063a"}, {"bike_id": "8d1ed943cfaac3b7c747aa9217fe4ec4", "type": "electric_scooter", "is_disabled": 0, "lat": 38.932703833333335, "rental_uris": {"ios": "https://dc.lft.to/lastmile_qr_scan", "android": "https://dc.lft.to/lastmile_qr_scan"}, "is_reserved": 0, "fusion_lon": 0.0, "fusion_lat": 0.0, "lon": -77.03931033333333, "name": "8d1ed943cfaac3b7c747aa9217fe4ec4"}, {"bike_id": "04c8b01bf79345f6b748dffff7cf3373", "type": "electric_scooter", "is_disabled": 0, "lat": 38.90409566666666, "rental_uris": {"ios": "https://dc.lft.to/lastmile_qr_scan", "android": "https://dc.lft.to/lastmile_qr_scan"}, "is_reserved": 0, "fusion_lon": 0.0, "fusion_lat": 0.0, "lon": -76.97332466666667, "name": "04c8b01bf79345f6b748dffff7cf3373"}, {"bike_id": "9d5b3d99e1c9b809d0db9e58848dbfc6", "type": "electric_scooter", "is_disabled": 0, "lat": 38.92266433333333, "rental_uris": {"ios": "https://dc.lft.to/lastmile_qr_scan", "android": "https://dc.lft.to/lastmile_qr_scan"}, "is_reserved": 0, "fusion_lon": 0.0, "fusion_lat": 0.0, "lon": -77.0424535, "name": "9d5b3d99e1c9b809d0db9e58848dbfc6"}, {"bike_id": "e125b708cf2e38d857ec376a8a514f51", "type": "electric_scooter", "is_disabled": 0, "lat": 38.901431333333335, "rental_uris": {"ios": "https://dc.lft.to/lastmile_qr_scan", "android": "https://dc.lft.to/lastmile_qr_scan"}, "is_reserved": 0, "fusion_lon": 0.0, "fusion_lat": 0.0, "lon": -76.93092316666667, "name": "e125b708cf2e38d857ec376a8a514f51"}, {"bike_id": "8ef6ab3e4d8b1ce52ff5b0b2eea88137", "type": "electric_scooter", "is_disabled": 0, "lat": 38.9062545, "rental_uris": {"ios": "https://dc.lft.to/lastmile_qr_scan", "android": "https://dc.lft.to/lastmile_qr_scan"}, "is_reserved": 0, "fusion_lon": 0.0, "fusion_lat": 0.0, "lon": -77.04127033333333, "name": "8ef6ab3e4d8b1ce52ff5b0b2eea88137"}, {"bike_id": "8e21148ff356e6ee3f4218f2586dbbfc", "type": "electric_bike", "is_disabled": 0, "lat": 38.9082835, "rental_uris": {"ios": "https://dc.lft.to/lastmile_qr_scan", "android": "https://dc.lft.to/lastmile_qr_scan"}, "is_reserved": 0, "fusion_lon": 0.0, "fusion_lat": 0.0, "lon": -76.94157366666667, "name": "8e21148ff356e6ee3f4218f2586dbbfc"}, {"bike_id": "57615ccc620fa36c5a651ead07b06a77", "type": "electric_bike", "is_disabled": 0, "lat": 38.88132516666667, "rental_uris": {"ios": "https://dc.lft.to/lastmile_qr_scan", "android": "https://dc.lft.to/lastmile_qr_scan"}, "is_reserved": 0, "fusion_lon": 0.0, "fusion_lat": 0.0, "lon": -77.093525, "name": "57615ccc620fa36c5a651ead07b06a77"}, {"bike_id": "f28cdb65f5655bc7ad5c04f600efd4a3", "type": "electric_scooter", "is_disabled": 0, "lat": 38.877417333333334, "rental_uris": {"ios": "https://dc.lft.to/lastmile_qr_scan", "android": "https://dc.lft.to/lastmile_qr_scan"}, "is_reserved": 0, "fusion_lon": 0.0, "fusion_lat": 0.0, "lon": -76.9972095, "name": "f28cdb65f5655bc7ad5c04f600efd4a3"}, {"bike_id": "7eb1b4fb102a31a1913da1924c169863", "type": "electric_bike", "is_disabled": 0, "lat": 39.037380166666665, "rental_uris": {"ios": "https://dc.lft.to/lastmile_qr_scan", "android": "https://dc.lft.to/lastmile_qr_scan"}, "is_reserved": 0, "fusion_lon": 0.0, "fusion_lat": 0.0, "lon": -77.05471333333334, "name": "7eb1b4fb102a31a1913da1924c169863"}, {"bike_id": "cab6861a4ac3559212466d16c1164487", "type": "electric_scooter", "is_disabled": 0, "lat": 38.916997, "rental_uris": {"ios": "https://dc.lft.to/lastmile_qr_scan", "android": "https://dc.lft.to/lastmile_qr_scan"}, "is_reserved": 0, "fusion_lon": 0.0, "fusion_lat": 0.0, "lon": -77.0235075, "name": "cab6861a4ac3559212466d16c1164487"}, {"bike_id": "528f0e577f500189727d019cf7672282", "type": "electric_bike", "is_disabled": 0, "lat": 39.054957, "rental_uris": {"ios": "https://dc.lft.to/lastmile_qr_scan", "android": "https://dc.lft.to/lastmile_qr_scan"}, "is_reserved": 0, "fusion_lon": 0.0, "fusion_lat": 0.0, "lon": -77.11789683333333, "name": "528f0e577f500189727d019cf7672282"}, {"bike_id": "d8cc06f341e6ba93085f0887b28324c5", "type": "electric_scooter", "is_disabled": 0, "lat": 38.957048666666665, "rental_uris": {"ios": "https://dc.lft.to/lastmile_qr_scan", "android": "https://dc.lft.to/lastmile_qr_scan"}, "is_reserved": 0, "fusion_lon": 0.0, "fusion_lat": 0.0, "lon": -77.07746116666667, "name": "d8cc06f341e6ba93085f0887b28324c5"}, {"bike_id": "0d982983dfc9a5209f27e85768451669", "type": "electric_scooter", "is_disabled": 0, "lat": 38.9083855, "rental_uris": {"ios": "https://dc.lft.to/lastmile_qr_scan", "android": "https://dc.lft.to/lastmile_qr_scan"}, "is_reserved": 0, "fusion_lon": 0.0, "fusion_lat": 0.0, "lon": -77.0219495, "name": "0d982983dfc9a5209f27e85768451669"}, {"bike_id": "bf3f6456bfa70292f3683892f23a50b6", "type": "electric_scooter", "is_disabled": 0, "lat": 38.920184666666664, "rental_uris": {"ios": "https://dc.lft.to/lastmile_qr_scan", "android": "https://dc.lft.to/lastmile_qr_scan"}, "is_reserved": 0, "fusion_lon": 0.0, "fusion_lat": 0.0, "lon": -77.04192216666667, "name": "bf3f6456bfa70292f3683892f23a50b6"}, {"bike_id": "f53e46ce62cbbe0121be42cd117af6fe", "type": "electric_scooter", "is_disabled": 0, "lat": 38.893478333333334, "rental_uris": {"ios": "https://dc.lft.to/lastmile_qr_scan", "android": "https://dc.lft.to/lastmile_qr_scan"}, "is_reserved": 0, "fusion_lon": 0.0, "fusion_lat": 0.0, "lon": -76.9927285, "name": "f53e46ce62cbbe0121be42cd117af6fe"}, {"bike_id": "c2c109acef1fbee8de31b80e5c73f85e", "type": "electric_scooter", "is_disabled": 0, "lat": 38.90961683333333, "rental_uris": {"ios": "https://dc.lft.to/lastmile_qr_scan", "android": "https://dc.lft.to/lastmile_qr_scan"}, "is_reserved": 0, "fusion_lon": 0.0, "fusion_lat": 0.0, "lon": -77.0323065, "name": "c2c109acef1fbee8de31b80e5c73f85e"}, {"bike_id": "57c0018a1a90fe90583ed16d87dd3622", "type": "electric_scooter", "is_disabled": 0, "lat": 38.868300166666664, "rental_uris": {"ios": "https://dc.lft.to/lastmile_qr_scan", "android": "https://dc.lft.to/lastmile_qr_scan"}, "is_reserved": 0, "fusion_lon": 0.0, "fusion_lat": 0.0, "lon": -77.01146066666666, "name": "57c0018a1a90fe90583ed16d87dd3622"}, {"bike_id": "2d161793473310ada3dab49723ffa2c2", "type": "electric_scooter", "is_disabled": 0, "lat": 38.892228833333334, "rental_uris": {"ios": "https://dc.lft.to/lastmile_qr_scan", "android": "https://dc.lft.to/lastmile_qr_scan"}, "is_reserved": 0, "fusion_lon": 0.0, "fusion_lat": 0.0, "lon": -77.04513683333333, "name": "2d161793473310ada3dab49723ffa2c2"}, {"bike_id": "554b0c84c050c5bb4f6d02d2517306be", "type": "electric_scooter", "is_disabled": 0, "lat": 38.91803433333333, "rental_uris": {"ios": "https://dc.lft.to/lastmile_qr_scan", "android": "https://dc.lft.to/lastmile_qr_scan"}, "is_reserved": 0, "fusion_lon": 0.0, "fusion_lat": 0.0, "lon": -77.03433283333334, "name": "554b0c84c050c5bb4f6d02d2517306be"}, {"bike_id": "9d89e6332ca02025a8cc6a39daef7b13", "type": "electric_scooter", "is_disabled": 0, "lat": 38.892207166666665, "rental_uris": {"ios": "https://dc.lft.to/lastmile_qr_scan", "android": "https://dc.lft.to/lastmile_qr_scan"}, "is_reserved": 0, "fusion_lon": 0.0, "fusion_lat": 0.0, "lon": -77.0398105, "name": "9d89e6332ca02025a8cc6a39daef7b13"}, {"bike_id": "1701e50c304d22d350eb0168f0afde45", "type": "electric_scooter", "is_disabled": 0, "lat": 38.98693866666667, "rental_uris": {"ios": "https://dc.lft.to/lastmile_qr_scan", "android": "https://dc.lft.to/lastmile_qr_scan"}, "is_reserved": 0, "fusion_lon": 0.0, "fusion_lat": 0.0, "lon": -77.02981066666666, "name": "1701e50c304d22d350eb0168f0afde45"}, {"bike_id": "e3f38bc41d02a3d6c554fc524e802e1a", "type": "electric_scooter", "is_disabled": 0, "lat": 38.89827483333333, "rental_uris": {"ios": "https://dc.lft.to/lastmile_qr_scan", "android": "https://dc.lft.to/lastmile_qr_scan"}, "is_reserved": 0, "fusion_lon": 0.0, "fusion_lat": 0.0, "lon": -77.04563083333333, "name": "e3f38bc41d02a3d6c554fc524e802e1a"}, {"bike_id": "dca5557ccc849bb28edd0a5f258440b4", "type": "electric_scooter", "is_disabled": 0, "lat": 38.92844266666667, "rental_uris": {"ios": "https://dc.lft.to/lastmile_qr_scan", "android": "https://dc.lft.to/lastmile_qr_scan"}, "is_reserved": 0, "fusion_lon": 0.0, "fusion_lat": 0.0, "lon": -77.03287716666667, "name": "dca5557ccc849bb28edd0a5f258440b4"}, {"bike_id": "6f63b29718b9c0edcd93e6696edd30c5", "type": "electric_scooter", "is_disabled": 0, "lat": 38.9025395, "rental_uris": {"ios": "https://dc.lft.to/lastmile_qr_scan", "android": "https://dc.lft.to/lastmile_qr_scan"}, "is_reserved": 0, "fusion_lon": 0.0, "fusion_lat": 0.0, "lon": -77.0174505, "name": "6f63b29718b9c0edcd93e6696edd30c5"}, {"bike_id": "c41cf9b5183361cf81ef093e61e35cfc", "type": "electric_scooter", "is_disabled": 0, "lat": 38.902342, "rental_uris": {"ios": "https://dc.lft.to/lastmile_qr_scan", "android": "https://dc.lft.to/lastmile_qr_scan"}, "is_reserved": 0, "fusion_lon": 0.0, "fusion_lat": 0.0, "lon": -77.02638433333334, "name": "c41cf9b5183361cf81ef093e61e35cfc"}, {"bike_id": "0464e4460f66a18106eb7bbbcbd2dcb2", "type": "electric_scooter", "is_disabled": 0, "lat": 38.910233, "rental_uris": {"ios": "https://dc.lft.to/lastmile_qr_scan", "android": "https://dc.lft.to/lastmile_qr_scan"}, "is_reserved": 0, "fusion_lon": 0.0, "fusion_lat": 0.0, "lon": -77.0281505, "name": "0464e4460f66a18106eb7bbbcbd2dcb2"}, {"bike_id": "07768a992d4610c30e830f948063b234", "type": "electric_scooter", "is_disabled": 0, "lat": 38.922638666666664, "rental_uris": {"ios": "https://dc.lft.to/lastmile_qr_scan", "android": "https://dc.lft.to/lastmile_qr_scan"}, "is_reserved": 0, "fusion_lon": 0.0, "fusion_lat": 0.0, "lon": -77.03403016666667, "name": "07768a992d4610c30e830f948063b234"}, {"bike_id": "d24cfdc5d98c3a9ae36e32cb1d8128de", "type": "electric_scooter", "is_disabled": 0, "lat": 38.917979, "rental_uris": {"ios": "https://dc.lft.to/lastmile_qr_scan", "android": "https://dc.lft.to/lastmile_qr_scan"}, "is_reserved": 0, "fusion_lon": 0.0, "fusion_lat": 0.0, "lon": -77.02399016666666, "name": "d24cfdc5d98c3a9ae36e32cb1d8128de"}, {"bike_id": "17baf121550c0e40b27ab72eacd1f2f9", "type": "electric_scooter", "is_disabled": 0, "lat": 38.90909116666667, "rental_uris": {"ios": "https://dc.lft.to/lastmile_qr_scan", "android": "https://dc.lft.to/lastmile_qr_scan"}, "is_reserved": 0, "fusion_lon": 0.0, "fusion_lat": 0.0, "lon": -77.04209116666667, "name": "17baf121550c0e40b27ab72eacd1f2f9"}, {"bike_id": "ca349d05dcb1c4138bf9d94aa76d238d", "type": "electric_scooter", "is_disabled": 0, "lat": 38.91841316666667, "rental_uris": {"ios": "https://dc.lft.to/lastmile_qr_scan", "android": "https://dc.lft.to/lastmile_qr_scan"}, "is_reserved": 0, "fusion_lon": 0.0, "fusion_lat": 0.0, "lon": -76.965563, "name": "ca349d05dcb1c4138bf9d94aa76d238d"}, {"bike_id": "7a6e07da4aa3acd9625b8021e7a3ed51", "type": "electric_scooter", "is_disabled": 0, "lat": 38.8865775, "rental_uris": {"ios": "https://dc.lft.to/lastmile_qr_scan", "android": "https://dc.lft.to/lastmile_qr_scan"}, "is_reserved": 0, "fusion_lon": 0.0, "fusion_lat": 0.0, "lon": -77.0283105, "name": "7a6e07da4aa3acd9625b8021e7a3ed51"}, {"bike_id": "a133d78c95f6f72ffbfc81eabd07dbb8", "type": "electric_scooter", "is_disabled": 0, "lat": 38.92154216666667, "rental_uris": {"ios": "https://dc.lft.to/lastmile_qr_scan", "android": "https://dc.lft.to/lastmile_qr_scan"}, "is_reserved": 0, "fusion_lon": 0.0, "fusion_lat": 0.0, "lon": -77.03873133333333, "name": "a133d78c95f6f72ffbfc81eabd07dbb8"},