{"data": {"bikes": [{"rental_uris": {"ios": "https://dc.lft.to/lastmile_qr_scan", "android": "https://dc.lft.to/lastmile_qr_scan"}, "lon": -77.004901, "type": "electric_scooter", "fusion_lat": 0.0, "lat": 38.87852783333334, "name": "3d2264b0f85b4748b022ade59fa56e7b", "fusion_lon": 0.0, "bike_id": "3d2264b0f85b4748b022ade59fa56e7b", "is_disabled": 0, "is_reserved": 0}, {"rental_uris": {"ios": "https://dc.lft.to/lastmile_qr_scan", "android": "https://dc.lft.to/lastmile_qr_scan"}, "lon": -77.032017, "type": "electric_scooter", "fusion_lat": 0.0, "lat": 38.90736533333333, "name": "f64c89c12e3ada1a9c48777f8caba05c", "fusion_lon": 0.0, "bike_id": "f64c89c12e3ada1a9c48777f8caba05c", "is_disabled": 0, "is_reserved": 0}, {"rental_uris": {"ios": "https://dc.lft.to/lastmile_qr_scan", "android": "https://dc.lft.to/lastmile_qr_scan"}, "lon": -76.92585366666667, "type": "electric_scooter", "fusion_lat": 0.0, "lat": 38.897307166666664, "name": "c0960aa5d115252f20290642138de1be", "fusion_lon": 0.0, "bike_id": "c0960aa5d115252f20290642138de1be", "is_disabled": 0, "is_reserved": 0}, {"rental_uris": {"ios": "https://dc.lft.to/lastmile_qr_scan", "android": "https://dc.lft.to/lastmile_qr_scan"}, "lon": -77.01275433333333, "type": "electric_bike", "fusion_lat": 0.0, "lat": 38.881197, "name": "f1a2373d5c3d920084c8a37c3e42b955", "fusion_lon": 0.0, "bike_id": "f1a2373d5c3d920084c8a37c3e42b955", "is_disabled": 0, "is_reserved": 0}, {"rental_uris": {"ios": "https://dc.lft.to/lastmile_qr_scan", "android": "https://dc.lft.to/lastmile_qr_scan"}, "lon": -77.10335, "type": "electric_bike", "fusion_lat": 0.0, "lat": 38.85231533333334, "name": "3f7fa0784601dbd93b870ac821986ae1", "fusion_lon": 0.0, "bike_id": "3f7fa0784601dbd93b870ac821986ae1", "is_disabled": 0, "is_reserved": 0}, {"rental_uris": {"ios": "https://dc.lft.to/lastmile_qr_scan", "android": "https://dc.lft.to/lastmile_qr_scan"}, "lon": -77.038494, "type": "electric_scooter", "fusion_lat": 0.0, "lat": 38.91319466666667, "name": "dd05a9a0fdf250b01678b94da1e16491", "fusion_lon": 0.0, "bike_id": "dd05a9a0fdf250b01678b94da1e16491", "is_disabled": 0, "is_reserved": 0}, {"rental_uris": {"ios": "https://dc.lft.to/lastmile_qr_scan", "android": "https://dc.lft.to/lastmile_qr_scan"}, "lon": -77.02975083333334, "type": "electric_scooter", "fusion_lat": 0.0, "lat": 38.96227616666667, "name": "15037aa8a5ee00405f0ccd23865eb6df", "fusion_lon": 0.0, "bike_id": "15037aa8a5ee00405f0ccd23865eb6df", "is_disabled": 0, "is_reserved": 0}, {"rental_uris": {"ios": "https://dc.lft.to/lastmile_qr_scan", "android": "https://dc.lft.to/lastmile_qr_scan"}, "lon": -77.02728833333333, "type": "electric_scooter", "fusion_lat": 0.0, "lat": 38.8813605, "name": "627ad826ce9931075981843a1d0058e0", "fusion_lon": 0.0, "bike_id": "627ad826ce9931075981843a1d0058e0", "is_disabled": 0, "is_reserved": 0}, {"rental_uris": {"ios": "https://dc.lft.to/lastmile_qr_scan", "android": "https://dc.lft.to/lastmile_qr_scan"}, "lon": -77.04705983333334, "type": "electric_scooter", "fusion_lat": 0.0, "lat": 38.90575483333333, "name": "529ff17a052cf488cb3343222e237ca6", "fusion_lon": 0.0, "bike_id": "529ff17a052cf488cb3343222e237ca6", "is_disabled": 0, "is_reserved": 0}, {"rental_uris": {"ios": "https://dc.lft.to/lastmile_qr_scan", "android": "https://dc.lft.to/lastmile_qr_scan"}, "lon": -76.92726433333333, "type": "electric_scooter", "fusion_lat": 0.0, "lat": 38.88041483333333, "name": "88925ba248b7d1434ef016a8614f0595", "fusion_lon": 0.0, "bike_id": "88925ba248b7d1434ef016a8614f0595", "is_disabled": 0, "is_reserved": 0}, {"rental_uris": {"ios": "https://dc.lft.to/lastmile_qr_scan", "android": "https://dc.lft.to/lastmile_qr_scan"}, "lon": -77.0013915, "type": "electric_scooter", "fusion_lat": 0.0, "lat": 38.904138333333336, "name": "884d95727a1069531f2f11fac4a54e02", "fusion_lon": 0.0, "bike_id": "884d95727a1069531f2f11fac4a54e02", "is_disabled": 0, "is_reserved": 0}, {"rental_uris": {"ios": "https://dc.lft.to/lastmile_qr_scan", "android": "https://dc.lft.to/lastmile_qr_scan"}, "lon": -77.00881883333334, "type": "electric_scooter", "fusion_lat": 0.0, "lat": 38.914076333333334, "name": "73ebb93859eb491a449b7636e422d3dd", "fusion_lon": 0.0, "bike_id": "73ebb93859eb491a449b7636e422d3dd", "is_disabled": 0, "is_reserved": 0}, {"rental_uris": {"ios": "https://dc.lft.to/lastmile_qr_scan", "android": "https://dc.lft.to/lastmile_qr_scan"}, "lon": -77.03442983333333, "type": "electric_scooter", "fusion_lat": 0.0, "lat": 38.907352, "name": "796a6406eeaf5d1c2782d3c4ebe4149b", "fusion_lon": 0.0, "bike_id": "796a6406eeaf5d1c2782d3c4ebe4149b", "is_disabled": 0, "is_reserved": 0}, {"rental_uris": {"ios": "https://dc.lft.to/lastmile_qr_scan", "android": "https://dc.lft.to/lastmile_qr_scan"}, "lon": -77.04254516666667, "type": "electric_scooter", "fusion_lat": 0.0, "lat": 38.91590383333333, "name": "7fb8eabb0937abc4e866e32a0f55879d", "fusion_lon": 0.0, "bike_id": "7fb8eabb0937abc4e866e32a0f55879d", "is_disabled": 0, "is_reserved": 0}, {"rental_uris": {"ios": "https://dc.lft.to/lastmile_qr_scan", "android": "https://dc.lft.to/lastmile_qr_scan"}, "lon": -77.058841, "type": "electric_scooter", "fusion_lat": 0.0, "lat": 38.936386, "name": "6e35cc542426f276fde00273a164012d", "fusion_lon": 0.0, "bike_id": "6e35cc542426f276fde00273a164012d", "is_disabled": 0, "is_reserved": 0}, {"rental_uris": {"ios": "https://dc.lft.to/lastmile_qr_scan", "android": "https://dc.lft.to/lastmile_qr_scan"}, "lon": -76.98714783333334, "type": "electric_scooter", "fusion_lat": 0.0, "lat": 38.867066333333334, "name": "697e4a9010692756cf5624b0060ff77c", "fusion_lon": 0.0, "bike_id": "697e4a9010692756cf5624b0060ff77c", "is_disabled": 0, "is_reserved": 0}, {"rental_uris": {"ios": "https://dc.lft.to/lastmile_qr_scan", "android": "https://dc.lft.to/lastmile_qr_scan"}, "lon": -77.02292516666667, "type": "electric_scooter", "fusion_lat": 0.0, "lat": 38.927623, "name": "881586232780fe6a2531c73ee799e3ff", "fusion_lon": 0.0, "bike_id": "881586232780fe6a2531c73ee799e3ff", "is_disabled": 0, "is_reserved": 0}, {"rental_uris": {"ios": "https://dc.lft.to/lastmile_qr_scan", "android": "https://dc.lft.to/lastmile_qr_scan"}, "lon": -77.03800266666667, "type": "electric_scooter", "fusion_lat": 0.0, "lat": 38.90567433333333, "name": "4f2d8305c9fbe5bec5c31a074a5d62b5", "fusion_lon": 0.0, "bike_id": "4f2d8305c9fbe5bec5c31a074a5d62b5", "is_disabled": 0, "is_reserved": 0}, {"rental_uris": {"ios": "https://dc.lft.to/lastmile_qr_scan", "android": "https://dc.lft.to/lastmile_qr_scan"}, "lon": -77.04813683333333, "type": "electric_scooter", "fusion_lat": 0.0, "lat": 38.896259, "name": "ec1b9aedd9187dbf5dea23b1cc1c7110", "fusion_lon": 0.0, "bike_id": "ec1b9aedd9187dbf5dea23b1cc1c7110", "is_disabled": 0, "is_reserved": 0}, {"rental_uris": {"ios": "https://dc.lft.to/lastmile_qr_scan", "android": "https://dc.lft.to/lastmile_qr_scan"}, "lon": -77.02223666666667, "type": "electric_scooter", "fusion_lat": 0.0, "lat": 38.938681833333334, "name": "34796215d0158c58fdbeb49994a6ea63", "fusion_lon": 0.0, "bike_id": "34796215d0158c58fdbeb49994a6ea63", "is_disabled": 0, "is_reserved": 0}, {"rental_uris": {"ios": "https://dc.lft.to/lastmile_qr_scan", "android": "https://dc.lft.to/lastmile_qr_scan"}, "lon": -77.02231816666666, "type": "electric_scooter", "fusion_lat": 0.0, "lat": 38.9142375, "name": "ab424ac254c2fd2900ad0eb98618106f", "fusion_lon": 0.0, "bike_id": "ab424ac254c2fd2900ad0eb98618106f", "is_disabled": 0, "is_reserved": 0}, {"rental_uris": {"ios": "https://dc.lft.to/lastmile_qr_scan", "android": "https://dc.lft.to/lastmile_qr_scan"}, "lon": -77.02162133333333, "type": "electric_scooter", "fusion_lat": 0.0, "lat": 38.926128, "name": "b8e47c54696a312add8c8325568c5178", "fusion_lon": 0.0, "bike_id": "b8e47c54696a312add8c8325568c5178", "is_disabled": 0, "is_reserved": 0}, {"rental_uris": {"ios": "https://dc.lft.to/lastmile_qr_scan", "android": "https://dc.lft.to/lastmile_qr_scan"}, "lon": -77.0322685, "type": "electric_scooter", "fusion_lat": 0.0, "lat": 38.91706716666667, "name": "3172c1356e6bc27bc0b1088cadd4ea4d", "fusion_lon": 0.0, "bike_id": "3172c1356e6bc27bc0b1088cadd4ea4d", "is_disabled": 0, "is_reserved": 0}, {"rental_uris": {"ios": "https://dc.lft.to/lastmile_qr_scan", "android": "https://dc.lft.to/lastmile_qr_scan"}, "lon": -77.03018416666667, "type": "electric_scooter", "fusion_lat": 0.0, "lat": 38.92047916666667, "name": "c651dfb85e8e855600a5bd019ffafac2", "fusion_lon": 0.0, "bike_id": "c651dfb85e8e855600a5bd019ffafac2", "is_disabled": 0, "is_reserved": 0}, {"rental_uris": {"ios": "https://dc.lft.to/lastmile_qr_scan", "android": "https://dc.lft.to/lastmile_qr_scan"}, "lon": -77.00214483333333, "type": "electric_scooter", "fusion_lat": 0.0, "lat": 38.91105666666667, "name": "8b56a1d388cd2bc498905ea2f16dcaf5", "fusion_lon": 0.0, "bike_id": "8b56a1d388cd2bc498905ea2f16dcaf5", "is_disabled": 0, "is_reserved": 0}, {"rental_uris": {"ios": "https://dc.lft.to/lastmile_qr_scan", "android": "https://dc.lft.to/lastmile_qr_scan"}, "lon": -77.0378695, "type": "electric_scooter", "fusion_lat": 0.0, "lat": 38.9302575, "name": "43bb45f82b24e94b1497dc8b08669d90", "fusion_lon": 0.0, "bike_id": "43bb45f82b24e94b1497dc8b08669d90", "is_disabled": 0, "is_reserved": 0}, {"rental_uris": {"ios": "https://dc.lft.to/lastmile_qr_scan", "android": "https://dc.lft.to/lastmile_qr_scan"}, "lon": -77.020047, "type": "electric_scooter", "fusion_lat": 0.0, "lat": 38.885651, "name": "555cc3e65c3c4430c2b354acd1a73471", "fusion_lon": 0.0, "bike_id": "555cc3e65c3c4430c2b354acd1a73471", "is_disabled": 0, "is_reserved": 0}, {"rental_uris": {"ios": "https://dc.lft.to/lastmile_qr_scan", "android": "https://dc.lft.to/lastmile_qr_scan"}, "lon": -77.0271925, "type": "electric_scooter", "fusion_lat": 0.0, "lat": 38.90691616666667, "name": "faa71ba65253ba6f5959e28feac42e69", "fusion_lon": 0.0, "bike_id": "faa71ba65253ba6f5959e28feac42e69", "is_disabled": 0, "is_reserved": 0}, {"rental_uris": {"ios": "https://dc.lft.to/lastmile_qr_scan", "android": "https://dc.lft.to/lastmile_qr_scan"}, "lon": -77.07820416666667, "type": "electric_scooter", "fusion_lat": 0.0, "lat": 38.941101, "name": "12702839489aaa5b5cb0650ab801c683", "fusion_lon": 0.0, "bike_id": "12702839489aaa5b5cb0650ab801c683", "is_disabled": 0, "is_reserved": 0}, {"rental_uris": {"ios": "https://dc.lft.to/lastmile_qr_scan", "android": "https://dc.lft.to/lastmile_qr_scan"}, "lon": -76.93956066666667, "type": "electric_scooter", "fusion_lat": 0.0, "lat": 38.894198333333335, "name": "6c2223caa6a937f10ff08da43e12ad5e", "fusion_lon": 0.0, "bike_id": "6c2223caa6a937f10ff08da43e12ad5e", "is_disabled": 0, "is_reserved": 0}, {"rental_uris": {"ios": "https://dc.lft.to/lastmile_qr_scan", "android": "https://dc.lft.to/lastmile_qr_scan"}, "lon": -77.0326735, "type": "electric_scooter", "fusion_lat": 0.0, "lat": 38.937613, "name": "6be2edb74f7d8d3e8d989488b658f63e", "fusion_lon": 0.0, "bike_id": "6be2edb74f7d8d3e8d989488b658f63e", "is_disabled": 0, "is_reserved": 0}, {"rental_uris": {"ios": "https://dc.lft.to/lastmile_qr_scan", "android": "https://dc.lft.to/lastmile_qr_scan"}, "lon": -77.007098, "type": "electric_scooter", "fusion_lat": 0.0, "lat": 38.913401, "name": "957ba82571a3f3742c54c4c4b5bde833", "fusion_lon": 0.0, "bike_id": "957ba82571a3f3742c54c4c4b5bde833", "is_disabled": 0, "is_reserved": 0}, {"rental_uris": {"ios": "https://dc.lft.to/lastmile_qr_scan", "android": "https://dc.lft.to/lastmile_qr_scan"}, "lon": -77.01592716666667, "type": "electric_scooter", "fusion_lat": 0.0, "lat": 38.8961595, "name": "8301556838b80e569ebfafcb40681115", "fusion_lon": 0.0, "bike_id": "8301556838b80e569ebfafcb40681115", "is_disabled": 0, "is_reserved": 0}, {"rental_uris": {"ios": "https://dc.lft.to/lastmile_qr_scan", "android": "https://dc.lft.to/lastmile_qr_scan"}, "lon": -77.05269733333333, "type": "electric_scooter", "fusion_lat": 0.0, "lat": 38.9101935, "name": "39558e4060e07f489d201dc9621502e5", "fusion_lon": 0.0, "bike_id": "39558e4060e07f489d201dc9621502e5", "is_disabled": 0, "is_reserved": 0}, {"rental_uris": {"ios": "https://dc.lft.to/lastmile_qr_scan", "android": "https://dc.lft.to/lastmile_qr_scan"}, "lon": -77.005778, "type": "electric_scooter", "fusion_lat": 0.0, "lat": 38.905714333333336, "name": "76436d04220b177203a490afee061a60", "fusion_lon": 0.0, "bike_id": "76436d04220b177203a490afee061a60", "is_disabled": 0, "is_reserved": 0}, {"rental_uris": {"ios": "https://dc.lft.to/lastmile_qr_scan", "android": "https://dc.lft.to/lastmile_qr_scan"}, "lon": -77.03174233333333, "type": "electric_scooter", "fusion_lat": 0.0, "lat": 38.91792733333333, "name": "939ecca5528b917a59c5b19b67afaeee", "fusion_lon": 0.0, "bike_id": "939ecca5528b917a59c5b19b67afaeee", "is_disabled": 0, "is_reserved": 0}, {"rental_uris": {"ios": "https://dc.lft.to/lastmile_qr_scan", "android": "https://dc.lft.to/lastmile_qr_scan"}, "lon": -76.929974, "type": "electric_bike", "fusion_lat": 0.0, "lat": 38.88798833333333, "name": "430df6212d6faa83dd94b5ea8b5697d4", "fusion_lon": 0.0, "bike_id": "430df6212d6faa83dd94b5ea8b5697d4", "is_disabled": 0, "is_reserved": 0}, {"rental_uris": {"ios": "https://dc.lft.to/lastmile_qr_scan", "android": "https://dc.lft.to/lastmile_qr_scan"}, "lon": -77.04921816666666, "type": "electric_scooter", "fusion_lat": 0.0, "lat": 38.8960215, "name": "22fbcb10d74dc6850e02ca54dd35a292", "fusion_lon": 0.0, "bike_id": "22fbcb10d74dc6850e02ca54dd35a292", "is_disabled": 0, "is_reserved": 0}, {"rental_uris": {"ios": "https://dc.lft.to/lastmile_qr_scan", "android": "https://dc.lft.to/lastmile_qr_scan"}, "lon": -77.0366895, "type": "electric_scooter", "fusion_lat": 0.0, "lat": 38.917126, "name": "46bedb8182063baf0bca0bd4f55d20aa", "fusion_lon": 0.0, "bike_id": "46bedb8182063baf0bca0bd4f55d20aa", "is_disabled": 0, "is_reserved": 0}, {"rental_uris": {"ios": "https://dc.lft.to/lastmile_qr_scan", "android": "https://dc.lft.to/lastmile_qr_scan"}, "lon": -77.03416033333333, "type": "electric_scooter", "fusion_lat": 0.0, "lat": 38.93538933333333, "name": "ab5d853c8222c14a0463d51be0b152fa", "fusion_lon": 0.0, "bike_id": "ab5d853c8222c14a0463d51be0b152fa", "is_disabled": 0, "is_reserved": 0}, {"rental_uris": {"ios": "https://dc.lft.to/lastmile_qr_scan", "android": "https://dc.lft.to/lastmile_qr_scan"}, "lon": -77.0296415, "type": "electric_scooter", "fusion_lat": 0.0, "lat": 38.90521916666667, "name": "d001cfba23a16d5445979f9d6d01e004", "fusion_lon": 0.0, "bike_id": "d001cfba23a16d5445979f9d6d01e004", "is_disabled": 0, "is_reserved": 0}, {"rental_uris": {"ios": "https://dc.lft.to/lastmile_qr_scan", "android": "https://dc.lft.to/lastmile_qr_scan"}, "lon": -77.05618366666667, "type": "electric_bike", "fusion_lat": 0.0, "lat": 38.924114833333334, "name": "4e4a141214de352bb4bfff1da267c4e3", "fusion_lon": 0.0, "bike_id": "4e4a141214de352bb4bfff1da267c4e3", "is_disabled": 0, "is_reserved": 0}, {"rental_uris": {"ios": "https://dc.lft.to/lastmile_qr_scan", "android": "https://dc.lft.to/lastmile_qr_scan"}, "lon": -77.03225683333334, "type": "electric_scooter", "fusion_lat": 0.0, "lat": 38.926730666666664, "name": "7f9bbc03fc693bd94973b9f07e5351a0", "fusion_lon": 0.0, "bike_id": "7f9bbc03fc693bd94973b9f07e5351a0", "is_disabled": 0, "is_reserved": 0}, {"rental_uris": {"ios": "https://dc.lft.to/lastmile_qr_scan", "android": "https://dc.lft.to/lastmile_qr_scan"}, "lon": -77.04113183333334, "type": "electric_scooter", "fusion_lat": 0.0, "lat": 38.924514, "name": "97a74d69ba15a356522d636bbdec3fa9", "fusion_lon": 0.0, "bike_id": "97a74d69ba15a356522d636bbdec3fa9", "is_disabled": 0, "is_reserved": 0}, {"rental_uris": {"ios": "https://dc.lft.to/lastmile_qr_scan", "android": "https://dc.lft.to/lastmile_qr_scan"}, "lon": -76.97485116666667, "type": "electric_bike", "fusion_lat": 0.0, "lat": 38.920041, "name": "38e472ff23ec277e80b648c33053b071", "fusion_lon": 0.0, "bike_id": "38e472ff23ec277e80b648c33053b071", "is_disabled": 0, "is_reserved": 0}, {"rental_uris": {"ios": "https://dc.lft.to/lastmile_qr_scan", "android": "https://dc.lft.to/lastmile_qr_scan"}, "lon": -77.00257983333333, "type": "electric_scooter", "fusion_lat": 0.0, "lat": 38.91193716666667, "name": "c0b760c0913f998bf5eebaecbcbe6424", "fusion_lon": 0.0, "bike_id": "c0b760c0913f998bf5eebaecbcbe6424", "is_disabled": 0, "is_reserved": 0}, {"rental_uris": {"ios": "https://dc.lft.to/lastmile_qr_scan", "android": "https://dc.lft.to/lastmile_qr_scan"}, "lon": -76.93717116666667, "type": "electric_scooter", "fusion_lat": 0.0, "lat": 38.895885, "name": "89ed80cc4e689c823a28cf615627ebb2", "fusion_lon": 0.0, "bike_id": "89ed80cc4e689c823a28cf615627ebb2", "is_disabled": 0, "is_reserved": 0}, {"rental_uris": {"ios": "https://dc.lft.to/lastmile_qr_scan", "android": "https://dc.lft.to/lastmile_qr_scan"}, "lon": -77.04000766666667, "type": "electric_scooter", "fusion_lat": 0.0, "lat": 38.90999433333333, "name": "410fcd531b8d809d4303f137004a5bcd", "fusion_lon": 0.0, "bike_id": "410fcd531b8d809d4303f137004a5bcd", "is_disabled": 0, "is_reserved": 0}, {"rental_uris": {"ios": "https://dc.lft.to/lastmile_qr_scan", "android": "https://dc.lft.to/lastmile_qr_scan"}, "lon": -76.97400633333334, "type": "electric_scooter", "fusion_lat": 0.0, "lat": 38.90157766666667, "name": "894d121dd1feb16436b5fdfb96cd8312", "fusion_lon": 0.0, "bike_id": "894d121dd1feb16436b5fdfb96cd8312", "is_disabled": 0, "is_reserved": 0}, {"rental_uris": {"ios": "https://dc.lft.to/lastmile_qr_scan", "android": "https://dc.lft.to/lastmile_qr_scan"}, "lon": -77.05457966666667, "type": "electric_scooter", "fusion_lat": 0.0, "lat": 38.929002833333335, "name": "7d75e172194313976a5e4ecb17c0ad00", "fusion_lon": 0.0, "bike_id": "7d75e172194313976a5e4ecb17c0ad00", "is_disabled": 0, "is_reserved": 0}, {"rental_uris": {"ios": "https://dc.lft.to/lastmile_qr_scan", "android": "https://dc.lft.to/lastmile_qr_scan"}, "lon": -76.989001, "type": "electric_scooter", "fusion_lat": 0.0, "lat": 38.8669435, "name": "792fc3f768ec57de7994ae362a32fbc6", "fusion_lon": 0.0, "bike_id": "792fc3f768ec57de7994ae362a32fbc6", "is_disabled": 0, "is_reserved": 0}, {"rental_uris": {"ios": "https://dc.lft.to/lastmile_qr_scan", "android": "https://dc.lft.to/lastmile_qr_scan"}, "lon": -76.9871455, "type": "electric_scooter", "fusion_lat": 0.0, "lat": 38.86703683333333, "name": "85cc541091a8999595e699fbbd3b179a", "fusion_lon": 0.0, "bike_id": "85cc541091a8999595e699fbbd3b179a", "is_disabled": 0, "is_reserved": 0}, {"rental_uris": {"ios": "https://dc.lft.to/lastmile_qr_scan", "android": "https://dc.lft.to/lastmile_qr_scan"}, "lon": -76.95358216666666, "type": "electric_bike", "fusion_lat": 0.0, "lat": 38.939537, "name": "5843c0bc8ff1fb0457963b521cc1e3e8", "fusion_lon": 0.0, "bike_id": "5843c0bc8ff1fb0457963b521cc1e3e8", "is_disabled": 0, "is_reserved": 0}, {"rental_uris": {"ios": "https://dc.lft.to/lastmile_qr_scan", "android": "https://dc.lft.to/lastmile_qr_scan"}, "lon": -77.04775316666667, "type": "electric_bike", "fusion_lat": 0.0, "lat": 39.053284, "name": "4cb21fd6ca8da4de6a3390375d705f19", "fusion_lon": 0.0, "bike_id": "4cb21fd6ca8da4de6a3390375d705f19", "is_disabled": 0, "is_reserved": 0}, {"rental_uris": {"ios": "https://dc.lft.to/lastmile_qr_scan", "android": "https://dc.lft.to/lastmile_qr_scan"}, "lon": -77.1784695, "type": "electric_bike", "fusion_lat": 0.0, "lat": 39.088638, "name": "7f1957e166824b3c12be454b7caf4e5e", "fusion_lon": 0.0, "bike_id": "7f1957e166824b3c12be454b7caf4e5e", "is_disabled": 0, "is_reserved": 0}, {"rental_uris": {"ios": "https://dc.lft.to/lastmile_qr_scan", "android": "https://dc.lft.to/lastmile_qr_scan"}, "lon": -77.03302583333334, "type": "electric_scooter", "fusion_lat": 0.0, "lat": 38.92865116666667, "name": "7b93fd676990be10dc6960fc709ed9df", "fusion_lon": 0.0, "bike_id": "7b93fd676990be10dc6960fc709ed9df", "is_disabled": 0, "is_reserved": 0}, {"rental_uris": {"ios": "https://dc.lft.to/lastmile_qr_scan", "android": "https://dc.lft.to/lastmile_qr_scan"}, "lon": -77.001158, "type": "electric_scooter", "fusion_lat": 0.0, "lat": 38.877925, "name": "1d20ae634759192556fdf0071bf91e10", "fusion_lon": 0.0, "bike_id": "1d20ae634759192556fdf0071bf91e10", "is_disabled": 0, "is_reserved": 0}, {"rental_uris": {"ios": "https://dc.lft.to/lastmile_qr_scan", "android": "https://dc.lft.to/lastmile_qr_scan"}, "lon": -77.05701833333333, "type": "electric_scooter", "fusion_lat": 0.0, "lat": 38.905438833333335, "name": "8346e690a3a15a09760dc019762ca4ee", "fusion_lon": 0.0, "bike_id": "8346e690a3a15a09760dc019762ca4ee", "is_disabled": 0, "is_reserved": 0}, {"rental_uris": {"ios": "https://dc.lft.to/lastmile_qr_scan", "android": "https://dc.lft.to/lastmile_qr_scan"}, "lon": -77.0363955, "type": "electric_scooter", "fusion_lat": 0.0, "lat": 38.912684166666665, "name": "f2b34a18b01fe8c82acee687eee3fb9c", "fusion_lon": 0.0, "bike_id": "f2b34a18b01fe8c82acee687eee3fb9c", "is_disabled": 0, "is_reserved": 0}, {"rental_uris": {"ios": "https://dc.lft.to/lastmile_qr_scan", "android": "https://dc.lft.to/lastmile_qr_scan"}, "lon": -77.048596, "type": "electric_scooter", "fusion_lat": 0.0, "lat": 38.90073066666667, "name": "430679134360a1937d48c7737cc8ed60", "fusion_lon": 0.0, "bike_id": "430679134360a1937d48c7737cc8ed60", "is_disabled": 0, "is_reserved": 0}, {"rental_uris": {"ios": "https://dc.lft.to/lastmile_qr_scan", "android": "https://dc.lft.to/lastmile_qr_scan"}, "lon": -77.00770433333334, "type": "electric_scooter", "fusion_lat": 0.0, "lat": 38.9073385, "name": "45f7b90053b27397bf7e21e3bfb6bf62", "fusion_lon": 0.0, "bike_id": "45f7b90053b27397bf7e21e3bfb6bf62", "is_disabled": 0, "is_reserved": 0}, {"rental_uris": {"ios": "https://dc.lft.to/lastmile_qr_scan", "android": "https://dc.lft.to/lastmile_qr_scan"}, "lon": -77.02365166666667, "type": "electric_scooter", "fusion_lat": 0.0, "lat": 38.93773233333334, "name": "a5d833bb34a6dd4b84520bfb4ee582a7", "fusion_lon": 0.0, "bike_id": "a5d833bb34a6dd4b84520bfb4ee582a7", "is_disabled": 0, "is_reserved": 0}, {"rental_uris": {"ios": "https://dc.lft.to/lastmile_qr_scan", "android": "https://dc.lft.to/lastmile_qr_scan"}, "lon": -77.03653733333333, "type": "electric_scooter", "fusion_lat": 0.0, "lat": 38.90786033333333, "name": "f71077682b16832cf6d2277467c951bc", "fusion_lon": 0.0, "bike_id": "f71077682b16832cf6d2277467c951bc", "is_disabled": 0, "is_reserved": 0}, {"rental_uris": {"ios": "https://dc.lft.to/lastmile_qr_scan", "android": "https://dc.lft.to/lastmile_qr_scan"}, "lon": -77.02315966666667, "type": "electric_scooter", "fusion_lat": 0.0, "lat": 38.92719833333334, "name": "8363d17e5e1e55c340af2cfec16b5cba", "fusion_lon": 0.0, "bike_id": "8363d17e5e1e55c340af2cfec16b5cba", "is_disabled": 0, "is_reserved": 0}, {"rental_uris": {"ios": "https://dc.lft.to/lastmile_qr_scan", "android": "https://dc.lft.to/lastmile_qr_scan"}, "lon": -77.02182983333333, "type": "electric_scooter", "fusion_lat": 0.0, "lat": 38.905439, "name": "db4cd4c7142ce993d7311bc01d643c23", "fusion_lon": 0.0, "bike_id": "db4cd4c7142ce993d7311bc01d643c23", "is_disabled": 0, "is_reserved": 0}, {"rental_uris": {"ios": "https://dc.lft.to/lastmile_qr_scan", "android": "https://dc.lft.to/lastmile_qr_scan"}, "lon": -76.95412866666666, "type": "electric_scooter", "fusion_lat": 0.0, "lat": 38.889974, "name": "c45207d58cf56b18b839698934de7454", "fusion_lon": 0.0, "bike_id": "c45207d58cf56b18b839698934de7454", "is_disabled": 0, "is_reserved": 0}, {"rental_uris": {"ios": "https://dc.lft.to/lastmile_qr_scan", "android": "https://dc.lft.to/lastmile_qr_scan"}, "lon": -77.02451083333334, "type": "electric_scooter", "fusion_lat": 0.0, "lat": 38.936513166666664, "name": "eed4bed9ead8f28f66c94e5248213559", "fusion_lon": 0.0, "bike_id": "eed4bed9ead8f28f66c94e5248213559", "is_disabled": 0, "is_reserved": 0}, {"rental_uris": {"ios": "https://dc.lft.to/lastmile_qr_scan", "android": "https://dc.lft.to/lastmile_qr_scan"}, "lon": -77.07122133333333, "type": "electric_scooter", "fusion_lat": 0.0, "lat": 38.914677833333336, "name": "d7570f40c0a4afcb6c3634af84f93b29", "fusion_lon": 0.0, "bike_id": "d7570f40c0a4afcb6c3634af84f93b29", "is_disabled": 0, "is_reserved": 0}, {"rental_uris": {"ios": "https://dc.lft.to/lastmile_qr_scan", "android": "https://dc.lft.to/lastmile_qr_scan"}, "lon": -77.04126133333334, "type": "electric_scooter", "fusion_lat": 0.0, "lat": 38.90629033333333, "name": "97164b873704ecd852df63d734cf1e59", "fusion_lon": 0.0, "bike_id": "97164b873704ecd852df63d734cf1e59", "is_disabled": 0, "is_reserved": 0}, {"rental_uris": {"ios": "https://dc.lft.to/lastmile_qr_scan", "android": "https://dc.lft.to/lastmile_qr_scan"}, "lon": -77.016506, "type": "electric_bike", "fusion_lat": 0.0, "lat": 38.88117366666667, "name": "58c3ae00108d115989114d48618208c9", "fusion_lon": 0.0, "bike_id": "58c3ae00108d115989114d48618208c9", "is_disabled": 0, "is_reserved": 0}, {"rental_uris": {"ios": "https://dc.lft.to/lastmile_qr_scan", "android": "https://dc.lft.to/lastmile_qr_scan"}, "lon": -77.01597516666666, "type": "electric_scooter", "fusion_lat": 0.0, "lat": 38.910124, "name": "b7a0d5ce75260bb7395b47d4f8694fab", "fusion_lon": 0.0, "bike_id": "b7a0d5ce75260bb7395b47d4f8694fab", "is_disabled": 0, "is_reserved": 0}, {"rental_uris": {"ios": "https://dc.lft.to/lastmile_qr_scan", "android": "https://dc.lft.to/lastmile_qr_scan"}, "lon": -77.07592416666667, "type": "electric_scooter", "fusion_lat": 0.0, "lat": 38.91219483333333, "name": "d92481fe0d4497f2fa996c7bc6aa86fe", "fusion_lon": 0.0, "bike_id": "d92481fe0d4497f2fa996c7bc6aa86fe", "is_disabled": 0, "is_reserved": 0}, {"rental_uris": {"ios": "https://dc.lft.to/lastmile_qr_scan", "android": "https://dc.lft.to/lastmile_qr_scan"}, "lon": -76.989924, "type": "electric_scooter", "fusion_lat": 0.0, "lat": 38.903879833333335, "name": "73d8555f6bfe44741eeca75fcb50f7c7", "fusion_lon": 0.0, "bike_id": "73d8555f6bfe44741eeca75fcb50f7c7", "is_disabled": 0, "is_reserved": 0}, {"rental_uris": {"ios": "https://dc.lft.to/lastmile_qr_scan", "android": "https://dc.lft.to/lastmile_qr_scan"}, "lon": -77.03559566666667, "type": "electric_scooter", "fusion_lat": 0.0, "lat": 38.927445166666665, "name": "ba834f789e040fb1be3f20d1b57e3028", "fusion_lon": 0.0, "bike_id": "ba834f789e040fb1be3f20d1b57e3028", "is_disabled": 0, "is_reserved": 0}, {"rental_uris": {"ios": "https://dc.lft.to/lastmile_qr_scan", "android": "https://dc.lft.to/lastmile_qr_scan"}, "lon": -77.0101875, "type": "electric_scooter", "fusion_lat": 0.0, "lat": 38.9181715, "name": "c2116abd5fdb54c030e2616c648b6323", "fusion_lon": 0.0, "bike_id": "c2116abd5fdb54c030e2616c648b6323", "is_disabled": 0, "is_reserved": 0}, {"rental_uris": {"ios": "https://dc.lft.to/lastmile_qr_scan", "android": "https://dc.lft.to/lastmile_qr_scan"}, "lon": -77.03519816666666, "type": "electric_scooter", "fusion_lat": 0.0, "lat": 38.93598983333333, "name": "fcf3608592ce01b22d0a921c1feee232", "fusion_lon": 0.0, "bike_id": "fcf3608592ce01b22d0a921c1feee232", "is_disabled": 0, "is_reserved": 0}, {"rental_uris": {"ios": "https://dc.lft.to/lastmile_qr_scan", "android": "https://dc.lft.to/lastmile_qr_scan"}, "lon": -77.0506535, "type": "electric_bike", "fusion_lat": 0.0, "lat": 39.06133166666667, "name": "117a05196d3378ba5134861ef0905bf7", "fusion_lon": 0.0, "bike_id": "117a05196d3378ba5134861ef0905bf7", "is_disabled": 0, "is_reserved": 0}, {"rental_uris": {"ios": "https://dc.lft.to/lastmile_qr_scan", "android": "https://dc.lft.to/lastmile_qr_scan"}, "lon": -77.019902, "type": "electric_scooter", "fusion_lat": 0.0, "lat": 38.937816166666664, "name": "446ac99e6bfc413efdb9ea70facfb66f", "fusion_lon": 0.0, "bike_id": "446ac99e6bfc413efdb9ea70facfb66f", "is_disabled": 0, "is_reserved": 0}, {"rental_uris": {"ios": "https://dc.lft.to/lastmile_qr_scan", "android": "https://dc.lft.to/lastmile_qr_scan"}, "lon": -77.02838566666667, "type": "electric_scooter", "fusion_lat": 0.0, "lat": 38.9285855, "name": "00b0a69a70170ec842289b1398030fd7", "fusion_lon": 0.0, "bike_id": "00b0a69a70170ec842289b1398030fd7", "is_disabled": 0, "is_reserved": 0}, {"rental_uris": {"ios": "https://dc.lft.to/lastmile_qr_scan", "android": "https://dc.lft.to/lastmile_qr_scan"}, "lon": -77.059206, "type": "electric_scooter", "fusion_lat": 0.0, "lat": 38.90955483333333, "name": "b41900de7d2226ab73890861b582e5a1", "fusion_lon": 0.0, "bike_id": "b41900de7d2226ab73890861b582e5a1", "is_disabled": 0, "is_reserved": 0}, {"rental_uris": {"ios": "https://dc.lft.to/lastmile_qr_scan", "android": "https://dc.lft.to/lastmile_qr_scan"}, "lon": -76.988749, "type": "electric_scooter", "fusion_lat": 0.0, "lat": 38.832409166666665, "name": "fb4407d1681a64ac414b7a3d18ea5f63", "fusion_lon": 0.0, "bike_id": "fb4407d1681a64ac414b7a3d18ea5f63", "is_disabled": 0, "is_reserved": 0}, {"rental_uris": {"ios": "https://dc.lft.to/lastmile_qr_scan", "android": "https://dc.lft.to/lastmile_qr_scan"}, "lon": -77.017641, "type": "electric_scooter", "fusion_lat": 0.0, "lat": 38.9056295, "name": "5dc9d97205200c241e5c4cd4bbd6c5c9", "fusion_lon": 0.0, "bike_id": "5dc9d97205200c241e5c4cd4bbd6c5c9", "is_disabled": 0, "is_reserved": 0}, {"rental_uris": {"ios": "https://dc.lft.to/lastmile_qr_scan", "android": "https://dc.lft.to/lastmile_qr_scan"}, "lon": -77.06403983333334, "type": "electric_bike", "fusion_lat": 0.0, "lat": 38.84351783333334, "name": "5b577ef4c89ede90894459f2b4664de8", "fusion_lon": 0.0, "bike_id": "5b577ef4c89ede90894459f2b4664de8", "is_disabled": 0, "is_reserved": 0}, {"rental_uris": {"ios": "https://dc.lft.to/lastmile_qr_scan", "android": "https://dc.lft.to/lastmile_qr_scan"}, "lon": -77.05387383333333, "type": "electric_scooter", "fusion_lat": 0.0, "lat": 38.902753833333335, "name": "be804ab8a62bd12101f60e63fbbdd2ea", "fusion_lon": 0.0, "bike_id": "be804ab8a62bd12101f60e63fbbdd2ea", "is_disabled": 0, "is_reserved": 0}, {"rental_uris": {"ios": "https://dc.lft.to/lastmile_qr_scan", "android": "https://dc.lft.to/lastmile_qr_scan"}, "lon": -76.99276066666667, "type": "electric_scooter", "fusion_lat": 0.0, "lat": 38.92133366666667, "name": "9bfea2dd51af5649589ec9dd353ec874", "fusion_lon": 0.0, "bike_id": "9bfea2dd51af5649589ec9dd353ec874", "is_disabled": 0, "is_reserved": 0}, {"rental_uris": {"ios": "https://dc.lft.to/lastmile_qr_scan", "android": "https://dc.lft.to/lastmile_qr_scan"}, "lon": -77.0295665, "type": "electric_scooter", "fusion_lat": 0.0, "lat": 38.916747, "name": "507f16a944bddb2c63fa8530db0e894a", "fusion_lon": 0.0, "bike_id": "507f16a944bddb2c63fa8530db0e894a", "is_disabled": 0, "is_reserved": 0}, {"rental_uris": {"ios": "https://dc.lft.to/lastmile_qr_scan", "android": "https://dc.lft.to/lastmile_qr_scan"}, "lon": -77.026854, "type": "electric_scooter", "fusion_lat": 0.0, "lat": 38.9072355, "name": "12ec8193ee83d11f4afdd6f1e078ab01", "fusion_lon": 0.0, "bike_id": "12ec8193ee83d11f4afdd6f1e078ab01", "is_disabled": 0, "is_reserved": 0}, {"rental_uris": {"ios": "https://dc.lft.to/lastmile_qr_scan", "android": "https://dc.lft.to/lastmile_qr_scan"}, "lon": -77.0426785, "type": "electric_scooter", "fusion_lat": 0.0, "lat": 38.9028555, "name": "5a8fc7b4326e64b411de550a6d264fb6", "fusion_lon": 0.0, "bike_id": "5a8fc7b4326e64b411de550a6d264fb6", "is_disabled": 0, "is_reserved": 0}, {"rental_uris": {"ios": "https://dc.lft.to/lastmile_qr_scan", "android": "https://dc.lft.to/lastmile_qr_scan"}, "lon": -77.0065895, "type": "electric_scooter", "fusion_lat": 0.0, "lat": 38.944641833333336, "name": "bd3c7adf458fdade98f0fdd36b47a339", "fusion_lon": 0.0, "bike_id": "bd3c7adf458fdade98f0fdd36b47a339", "is_disabled": 0, "is_reserved": 0}, {"rental_uris": {"ios": "https://dc.lft.to/lastmile_qr_scan", "android": "https://dc.lft.to/lastmile_qr_scan"}, "lon": -77.03840916666667, "type": "electric_scooter", "fusion_lat": 0.0, "lat": 38.907626, "name": "7013e48b914bbd658823db5b19104aad", "fusion_lon": 0.0, "bike_id": "7013e48b914bbd658823db5b19104aad", "is_disabled": 0, "is_reserved": 0}, {"rental_uris": {"ios": "https://dc.lft.to/lastmile_qr_scan", "android": "https://dc.lft.to/lastmile_qr_scan"}, "lon": -77.03176016666667, "type": "electric_scooter", "fusion_lat": 0.0, "lat": 38.917943, "name": "0687796ce90c59772dce1a1d1d434675", "fusion_lon": 0.0, "bike_id": "0687796ce90c59772dce1a1d1d434675", "is_disabled": 0, "is_reserved": 0}, {"rental_uris": {"ios": "https://dc.lft.to/lastmile_qr_scan", "android": "https://dc.lft.to/lastmile_qr_scan"}, "lon": -77.04333866666667, "type": "electric_scooter", "fusion_lat": 0.0, "lat": 38.89587383333333, "name": "11d9c5ebf0acb4589b93c97a141aa215", "fusion_lon": 0.0, "bike_id": "11d9c5ebf0acb4589b93c97a141aa215", "is_disabled": 0, "is_reserved": 0}, {"rental_uris": {"ios": "https://dc.lft.to/lastmile_qr_scan", "android": "https://dc.lft.to/lastmile_qr_scan"}, "lon": -77.04029433333334, "type": "electric_scooter", "fusion_lat": 0.0, "lat": 38.918054166666664, "name": "b1df312dba202d4430ba9cb4b0bc7e73", "fusion_lon": 0.0, "bike_id": "b1df312dba202d4430ba9cb4b0bc7e73", "is_disabled": 0, "is_reserved": 0}, {"rental_uris": {"ios": "https://dc.lft.to/lastmile_qr_scan", "android": "https://dc.lft.to/lastmile_qr_scan"}, "lon": -77.03180416666666, "type": "electric_scooter", "fusion_lat": 0.0, "lat": 38.919333333333334, "name": "fff2e44db0baee244f88fc7e4fe3959f", "fusion_lon": 0.0, "bike_id": "fff2e44db0baee244f88fc7e4fe3959f", "is_disabled": 0, "is_reserved": 0}, {"rental_uris": {"ios": "https://dc.lft.to/lastmile_qr_scan", "android": "https://dc.lft.to/lastmile_qr_scan"}, "lon": -77.03267216666667, "type": "electric_scooter", "fusion_lat": 0.0, "lat": 38.9254785, "name": "600fe0aba9210566f84af9ab08c0c7ff", "fusion_lon": 0.0, "bike_id": "600fe0aba9210566f84af9ab08c0c7ff", "is_disabled": 0, "is_reserved": 0}, {"rental_uris": {"ios": "https://dc.lft.to/lastmile_qr_scan", "android": "https://dc.lft.to/lastmile_qr_scan"}, "lon": -77.03457216666666, "type": "electric_scooter", "fusion_lat": 0.0, "lat": 38.916849, "name": "039baf516a67d37b23fd5da1ba6cd7e5", "fusion_lon": 0.0, "bike_id": "039baf516a67d37b23fd5da1ba6cd7e5", "is_disabled": 0, "is_reserved": 0}, {"rental_uris": {"ios": "https://dc.lft.to/lastmile_qr_scan", "android": "https://dc.lft.to/lastmile_qr_scan"}, "lon": -77.09189, "type": "electric_scooter", "fusion_lat": 0.0, "lat": 38.913691, "name": "0724a6bb8735c9a023ae63dced622d51", "fusion_lon": 0.0, "bike_id": "0724a6bb8735c9a023ae63dced622d51", "is_disabled": 0, "is_reserved": 0}, {"rental_uris": {"ios": "https://dc.lft.to/lastmile_qr_scan", "android": "https://dc.lft.to/lastmile_qr_scan"}, "lon": -77.04666366666666, "type": "electric_scooter", "fusion_lat": 0.0, "lat": 38.91480983333334, "name": "2b3cb1debacd199957fe07cd652c4ea7", "fusion_lon": 0.0, "bike_id": "2b3cb1debacd199957fe07cd652c4ea7", "is_disabled": 0, "is_reserved": 0}, {"rental_uris": {"ios": "https://dc.lft.to/lastmile_qr_scan", "android": "https://dc.lft.to/lastmile_qr_scan"}, "lon": -77.10686783333334, "type": "electric_bike", "fusion_lat": 0.0, "lat": 38.93582216666667, "name": "5a7e89aba3dfc4d6a6da544705b14ed6", "fusion_lon": 0.0, "bike_id": "5a7e89aba3dfc4d6a6da544705b14ed6", "is_disabled": 0, "is_reserved": 0}, {"rental_uris": {"ios": "https://dc.lft.to/lastmile_qr_scan", "android": "https://dc.lft.to/lastmile_qr_scan"}, "lon": -77.03507616666667, "type": "electric_scooter", "fusion_lat": 0.0, "lat": 38.921514, "name": "1b2c365e4dd666de9f3f7ea4ed8951cc", "fusion_lon": 0.0, "bike_id": "1b2c365e4dd666de9f3f7ea4ed8951cc", "is_disabled": 0, "is_reserved": 0}, {"rental_uris": {"ios": "https://dc.lft.to/lastmile_qr_scan", "android": "https://dc.lft.to/lastmile_qr_scan"}, "lon": -76.9487765, "type": "electric_scooter", "fusion_lat": 0.0, "lat": 38.895024166666666, "name": "82d6ef77029cabd69f1cb41c811b17cd", "fusion_lon": 0.0, "bike_id": "82d6ef77029cabd69f1cb41c811b17cd", "is_disabled": 0, "is_reserved": 0}, {"rental_uris": {"ios": "https://dc.lft.to/lastmile_qr_scan", "android": "https://dc.lft.to/lastmile_qr_scan"}, "lon": -77.02958516666666, "type": "electric_scooter", "fusion_lat": 0.0, "lat": 38.90520266666667, "name": "ab90304e01ebd791b7331cdad041abf6", "fusion_lon": 0.0, "bike_id": "ab90304e01ebd791b7331cdad041abf6", "is_disabled": 0, "is_reserved": 0}, {"rental_uris": {"ios": "https://dc.lft.to/lastmile_qr_scan", "android": "https://dc.lft.to/lastmile_qr_scan"}, "lon": -77.03588216666667, "type": "electric_scooter", "fusion_lat": 0.0, "lat": 38.93229616666667, "name": "79bfdc0d77e42fe4a53b63d91a902f5c", "fusion_lon": 0.0, "bike_id": "79bfdc0d77e42fe4a53b63d91a902f5c", "is_disabled": 0, "is_reserved": 0}, {"rental_uris": {"ios": "https://dc.lft.to/lastmile_qr_scan", "android": "https://dc.lft.to/lastmile_qr_scan"}, "lon": -77.063312, "type": "electric_bike", "fusion_lat": 0.0, "lat": 38.921094833333335, "name": "4360e9c2dcb8db2086fe0bd97e44b7e4", "fusion_lon": 0.0, "bike_id": "4360e9c2dcb8db2086fe0bd97e44b7e4", "is_disabled": 0, "is_reserved": 0}, {"rental_uris": {"ios": "https://dc.lft.to/lastmile_qr_scan", "android": "https://dc.lft.to/lastmile_qr_scan"}, "lon": -77.0156245, "type": "electric_scooter", "fusion_lat": 0.0, "lat": 38.8996235, "name": "b177d41b46c9642b8099ef36192f42f3", "fusion_lon": 0.0, "bike_id": "b177d41b46c9642b8099ef36192f42f3", "is_disabled": 0, "is_reserved": 0}, {"rental_uris": {"ios": "https://dc.lft.to/lastmile_qr_scan", "android": "https://dc.lft.to/lastmile_qr_scan"}, "lon": -77.03218816666667, "type": "electric_scooter", "fusion_lat": 0.0, "lat": 38.916925666666664, "name": "59ffc8b4502874464b0628fe37d122d8", "fusion_lon": 0.0, "bike_id": "59ffc8b4502874464b0628fe37d122d8", "is_disabled": 0, "is_reserved": 0}, {"rental_uris": {"ios": "https://dc.lft.to/lastmile_qr_scan", "android": "https://dc.lft.to/lastmile_qr_scan"}, "lon": -77.021728, "type": "electric_scooter", "fusion_lat": 0.0, "lat": 38.94295066666667, "name": "5eea4089ab26dae90106972c1b9d2a98", "fusion_lon": 0.0, "bike_id": "5eea4089ab26dae90106972c1b9d2a98", "is_disabled": 0, "is_reserved": 0}, {"rental_uris": {"ios": "https://dc.lft.to/lastmile_qr_scan", "android": "https://dc.lft.to/lastmile_qr_scan"}, "lon": -77.04822583333333, "type": "electric_scooter", "fusion_lat": 0.0, "lat": 38.90797383333334, "name": "cc912940bc90aa30151bd507eec6d960", "fusion_lon": 0.0, "bike_id": "cc912940bc90aa30151bd507eec6d960", "is_disabled": 0, "is_reserved": 0}, {"rental_uris": {"ios": "https://dc.lft.to/lastmile_qr_scan", "android": "https://dc.lft.to/lastmile_qr_scan"}, "lon": -77.013632, "type": "electric_scooter", "fusion_lat": 0.0, "lat": 38.863699, "name": "ad23247369a5b202dc691e0ecd664e6b", "fusion_lon": 0.0, "bike_id": "ad23247369a5b202dc691e0ecd664e6b", "is_disabled": 0, "is_reserved": 0}, {"rental_uris": {"ios": "https://dc.lft.to/lastmile_qr_scan", "android": "https://dc.lft.to/lastmile_qr_scan"}, "lon": -76.94631366666667, "type": "electric_scooter", "fusion_lat": 0.0, "lat": 38.89842316666667, "name": "9dc5e27cbd679456e15235c9e8ed469c", "fusion_lon": 0.0, "bike_id": "9dc5e27cbd679456e15235c9e8ed469c", "is_disabled": 0, "is_reserved": 0}, {"rental_uris": {"ios": "https://dc.lft.to/lastmile_qr_scan", "android": "https://dc.lft.to/lastmile_qr_scan"}, "lon": -77.05865266666666, "type": "electric_scooter", "fusion_lat": 0.0, "lat": 38.936036333333334, "name": "8ecc2a1eccf6cb08081fe03a847efed3", "fusion_lon": 0.0, "bike_id": "8ecc2a1eccf6cb08081fe03a847efed3", "is_disabled": 0, "is_reserved": 0}, {"rental_uris": {"ios": "https://dc.lft.to/lastmile_qr_scan", "android": "https://dc.lft.to/lastmile_qr_scan"}, "lon": -77.060422, "type": "electric_scooter", "fusion_lat": 0.0, "lat": 38.9391125, "name": "aa40f87a1908935f0360363df9f57da4", "fusion_lon": 0.0, "bike_id": "aa40f87a1908935f0360363df9f57da4", "is_disabled": 0, "is_reserved": 0}, {"rental_uris": {"ios": "https://dc.lft.to/lastmile_qr_scan", "android": "https://dc.lft.to/lastmile_qr_scan"}, "lon": -77.0247835, "type": "electric_scooter", "fusion_lat": 0.0, "lat": 38.9181665, "name": "96cbaedf115dd35cc1b04750720b61ba", "fusion_lon": 0.0, "bike_id": "96cbaedf115dd35cc1b04750720b61ba", "is_disabled": 0, "is_reserved": 0}, {"rental_uris": {"ios": "https://dc.lft.to/lastmile_qr_scan", "android": "https://dc.lft.to/lastmile_qr_scan"}, "lon": -77.031683, "type": "electric_scooter", "fusion_lat": 0.0, "lat": 38.92, "name": "8208afb6536e737963a1ffa6a1b65a03", "fusion_lon": 0.0, "bike_id": "8208afb6536e737963a1ffa6a1b65a03", "is_disabled": 0, "is_reserved": 0}, {"rental_uris": {"ios": "https://dc.lft.to/lastmile_qr_scan", "android": "https://dc.lft.to/lastmile_qr_scan"}, "lon": -77.0367865, "type": "electric_scooter", "fusion_lat": 0.0, "lat": 38.91817783333333, "name": "c7d241639f0c70ce84f3e716c5096311", "fusion_lon": 0.0, "bike_id": "c7d241639f0c70ce84f3e716c5096311", "is_disabled": 0, "is_reserved": 0}, {"rental_uris": {"ios": "https://dc.lft.to/lastmile_qr_scan", "android": "https://dc.lft.to/lastmile_qr_scan"}, "lon": -77.09762683333334, "type": "electric_bike", "fusion_lat": 0.0, "lat": 38.85856066666667, "name": "ad82ceeb252f34df6412c2c00df3423c", "fusion_lon": 0.0, "bike_id": "ad82ceeb252f34df6412c2c00df3423c", "is_disabled": 0, "is_reserved": 0}, {"rental_uris": {"ios": "https://dc.lft.to/lastmile_qr_scan", "android": "https://dc.lft.to/lastmile_qr_scan"}, "lon": -77.02371933333333, "type": "electric_scooter", "fusion_lat": 0.0, "lat": 38.91992583333333, "name": "98dcf49760d3855e0807acbb54ef2b44", "fusion_lon": 0.0, "bike_id": "98dcf49760d3855e0807acbb54ef2b44", "is_disabled": 0, "is_reserved": 0}, {"rental_uris": {"ios": "https://dc.lft.to/lastmile_qr_scan", "android": "https://dc.lft.to/lastmile_qr_scan"}, "lon": -77.09866416666667, "type": "electric_bike", "fusion_lat": 0.0, "lat": 38.853767500000004, "name": "829ab36e70c6674d4771ab86fd42aa4e", "fusion_lon": 0.0, "bike_id": "829ab36e70c6674d4771ab86fd42aa4e", "is_disabled": 0, "is_reserved": 0}, {"rental_uris": {"ios": "https://dc.lft.to/lastmile_qr_scan", "android": "https://dc.lft.to/lastmile_qr_scan"}, "lon": -77.02228383333333, "type": "electric_scooter", "fusion_lat": 0.0, "lat": 38.8919615, "name": "8720a84cfb1803b4a2637e05e7252d70", "fusion_lon": 0.0, "bike_id": "8720a84cfb1803b4a2637e05e7252d70", "is_disabled": 0, "is_reserved": 0}, {"rental_uris": {"ios": "https://dc.lft.to/lastmile_qr_scan", "android": "https://dc.lft.to/lastmile_qr_scan"}, "lon": -77.06939516666667, "type": "electric_scooter", "fusion_lat": 0.0, "lat": 38.90512183333333, "name": "2c326474e94f5a648f546460792ecc84", "fusion_lon": 0.0, "bike_id": "2c326474e94f5a648f546460792ecc84", "is_disabled": 0, "is_reserved": 0}, {"rental_uris": {"ios": "https://dc.lft.to/lastmile_qr_scan", "android": "https://dc.lft.to/lastmile_qr_scan"}, "lon": -77.033792, "type": "electric_scooter", "fusion_lat": 0.0, "lat": 38.938421166666664, "name": "2d18a5ec4e73576601d1581a9bdcbb62", "fusion_lon": 0.0, "bike_id": "2d18a5ec4e73576601d1581a9bdcbb62", "is_disabled": 0, "is_reserved": 0}, {"rental_uris": {"ios": "https://dc.lft.to/lastmile_qr_scan", "android": "https://dc.lft.to/lastmile_qr_scan"}, "lon": -77.026729, "type": "electric_scooter", "fusion_lat": 0.0, "lat": 38.901587, "name": "cb778ab99db25265074c3fa3f95068c6", "fusion_lon": 0.0, "bike_id": "cb778ab99db25265074c3fa3f95068c6", "is_disabled": 0, "is_reserved": 0}, {"rental_uris": {"ios": "https://dc.lft.to/lastmile_qr_scan", "android": "https://dc.lft.to/lastmile_qr_scan"}, "lon": -77.02485133333333, "type": "electric_scooter", "fusion_lat": 0.0, "lat": 38.9418425, "name": "52dabc71233c6165372ac313acf52bba", "fusion_lon": 0.0, "bike_id": "52dabc71233c6165372ac313acf52bba", "is_disabled": 0, "is_reserved": 0}, {"rental_uris": {"ios": "https://dc.lft.to/lastmile_qr_scan", "android": "https://dc.lft.to/lastmile_qr_scan"}, "lon": -77.03443166666666, "type": "electric_scooter", "fusion_lat": 0.0, "lat": 38.91826366666667, "name": "0f06b677de9b7269e4ceae61e17afbd8", "fusion_lon": 0.0, "bike_id": "0f06b677de9b7269e4ceae61e17afbd8", "is_disabled": 0, "is_reserved": 0}, {"rental_uris": {"ios": "https://dc.lft.to/lastmile_qr_scan", "android": "https://dc.lft.to/lastmile_qr_scan"}, "lon": -77.0405705, "type": "electric_scooter", "fusion_lat": 0.0, "lat": 38.9271665, "name": "493e11622502d7e1982862178b4e6636", "fusion_lon": 0.0, "bike_id": "493e11622502d7e1982862178b4e6636", "is_disabled": 0, "is_reserved": 0}, {"rental_uris": {"ios": "https://dc.lft.to/lastmile_qr_scan", "android": "https://dc.lft.to/lastmile_qr_scan"}, "lon": -77.00580166666667, "type": "electric_scooter", "fusion_lat": 0.0, "lat": 38.9056455, "name": "30becff917ca38d7f6dc021533c70dc5", "fusion_lon": 0.0, "bike_id": "30becff917ca38d7f6dc021533c70dc5", "is_disabled": 0, "is_reserved": 0}, {"rental_uris": {"ios": "https://dc.lft.to/lastmile_qr_scan", "android": "https://dc.lft.to/lastmile_qr_scan"}, "lon": -77.04563666666667, "type": "electric_scooter", "fusion_lat": 0.0, "lat": 38.90855216666667, "name": "294a54efc25d281a819136c94a2fa005", "fusion_lon": 0.0, "bike_id": "294a54efc25d281a819136c94a2fa005", "is_disabled": 0, "is_reserved": 0}, {"rental_uris": {"ios": "https://dc.lft.to/lastmile_qr_scan", "android": "https://dc.lft.to/lastmile_qr_scan"}, "lon": -77.01751983333334, "type": "electric_scooter", "fusion_lat": 0.0, "lat": 38.9159085, "name": "b64bf0790412993944ea34b2bb86cd02", "fusion_lon": 0.0, "bike_id": "b64bf0790412993944ea34b2bb86cd02", "is_disabled": 0, "is_reserved": 0}, {"rental_uris": {"ios": "https://dc.lft.to/lastmile_qr_scan", "android": "https://dc.lft.to/lastmile_qr_scan"}, "lon": -77.073268, "type": "electric_scooter", "fusion_lat": 0.0, "lat": 38.92497383333333, "name": "7c9369f715dfbdfb8542569f1ae68e21", "fusion_lon": 0.0, "bike_id": "7c9369f715dfbdfb8542569f1ae68e21", "is_disabled": 0, "is_reserved": 0}, {"rental_uris": {"ios": "https://dc.lft.to/lastmile_qr_scan", "android": "https://dc.lft.to/lastmile_qr_scan"}, "lon": -77.044905, "type": "electric_scooter", "fusion_lat": 0.0, "lat": 38.91099966666667, "name": "f76dbeb0a06be21fc74d6cd0b8cc57fd", "fusion_lon": 0.0, "bike_id": "f76dbeb0a06be21fc74d6cd0b8cc57fd", "is_disabled": 0, "is_reserved": 0}, {"rental_uris": {"ios": "https://dc.lft.to/lastmile_qr_scan", "android": "https://dc.lft.to/lastmile_qr_scan"}, "lon": -77.027957, "type": "electric_scooter", "fusion_lat": 0.0, "lat": 38.896237, "name": "415c89eb0243983409c2689283ec6ed7", "fusion_lon": 0.0, "bike_id": "415c89eb0243983409c2689283ec6ed7", "is_disabled": 0, "is_reserved": 0}, {"rental_uris": {"ios": "https://dc.lft.to/lastmile_qr_scan", "android": "https://dc.lft.to/lastmile_qr_scan"}, "lon": -77.03656533333333, "type": "electric_scooter", "fusion_lat": 0.0, "lat": 38.9293275, "name": "21d419e53ab99e7abeee700ba7c43492", "fusion_lon": 0.0, "bike_id": "21d419e53ab99e7abeee700ba7c43492", "is_disabled": 0, "is_reserved": 0}, {"rental_uris": {"ios": "https://dc.lft.to/lastmile_qr_scan", "android": "https://dc.lft.to/lastmile_qr_scan"}, "lon": -77.03832, "type": "electric_scooter", "fusion_lat": 0.0, "lat": 38.91122083333333, "name": "dab8dd1fcd76fc07b00a489288dc6703", "fusion_lon": 0.0, "bike_id": "dab8dd1fcd76fc07b00a489288dc6703", "is_disabled": 0, "is_reserved": 0}, {"rental_uris": {"ios": "https://dc.lft.to/lastmile_qr_scan", "android": "https://dc.lft.to/lastmile_qr_scan"}, "lon": -77.02232233333334, "type": "electric_scooter", "fusion_lat": 0.0, "lat": 38.891969333333336, "name": "d84ac13340ab37c42549d4e7b6bd9ffd", "fusion_lon": 0.0, "bike_id": "d84ac13340ab37c42549d4e7b6bd9ffd", "is_disabled": 0, "is_reserved": 0}, {"rental_uris": {"ios": "https://dc.lft.to/lastmile_qr_scan", "android": "https://dc.lft.to/lastmile_qr_scan"}, "lon": -77.01935883333333, "type": "electric_scooter", "fusion_lat": 0.0, "lat": 38.94929416666667, "name": "b258725e1c5f88d327eb374f64c5c826", "fusion_lon": 0.0, "bike_id": "b258725e1c5f88d327eb374f64c5c826", "is_disabled": 0, "is_reserved": 0}, {"rental_uris": {"ios": "https://dc.lft.to/lastmile_qr_scan", "android": "https://dc.lft.to/lastmile_qr_scan"}, "lon": -77.07557616666666, "type": "electric_scooter", "fusion_lat": 0.0, "lat": 38.91426833333333, "name": "7f00234957dee3ef00cc29325a1f4d06", "fusion_lon": 0.0, "bike_id": "7f00234957dee3ef00cc29325a1f4d06", "is_disabled": 0, "is_reserved": 0}, {"rental_uris": {"ios": "https://dc.lft.to/lastmile_qr_scan", "android": "https://dc.lft.to/lastmile_qr_scan"}, "lon": -77.037921, "type": "electric_scooter", "fusion_lat": 0.0, "lat": 38.90560033333333, "name": "87902720f71a54a36d8da6c17c712e22", "fusion_lon": 0.0, "bike_id": "87902720f71a54a36d8da6c17c712e22", "is_disabled": 0, "is_reserved": 0}, {"rental_uris": {"ios": "https://dc.lft.to/lastmile_qr_scan", "android": "https://dc.lft.to/lastmile_qr_scan"}, "lon": -77.0529155, "type": "electric_scooter", "fusion_lat": 0.0, "lat": 38.92798766666667, "name": "96e57f72e2e8410b225d132d8e6c6957", "fusion_lon": 0.0, "bike_id": "96e57f72e2e8410b225d132d8e6c6957", "is_disabled": 0, "is_reserved": 0}, {"rental_uris": {"ios": "https://dc.lft.to/lastmile_qr_scan", "android": "https://dc.lft.to/lastmile_qr_scan"}, "lon": -77.03661766666667, "type": "electric_bike", "fusion_lat": 0.0, "lat": 38.9363205, "name": "86a0eab6df471e5b53a2fd0d47f4bcb7", "fusion_lon": 0.0, "bike_id": "86a0eab6df471e5b53a2fd0d47f4bcb7", "is_disabled": 0, "is_reserved": 0}, {"rental_uris": {"ios": "https://dc.lft.to/lastmile_qr_scan", "android": "https://dc.lft.to/lastmile_qr_scan"}, "lon": -77.03222383333333, "type": "electric_scooter", "fusion_lat": 0.0, "lat": 38.926707, "name": "41cc09a888d5e50a17a61f3e50679dd2", "fusion_lon": 0.0, "bike_id": "41cc09a888d5e50a17a61f3e50679dd2", "is_disabled": 0, "is_reserved": 0}, {"rental_uris": {"ios": "https://dc.lft.to/lastmile_qr_scan", "android": "https://dc.lft.to/lastmile_qr_scan"}, "lon": -77.03787433333333, "type": "electric_scooter", "fusion_lat": 0.0, "lat": 38.93600383333333, "name": "a096869b895be7cd57fc0e59cee9e474", "fusion_lon": 0.0, "bike_id": "a096869b895be7cd57fc0e59cee9e474", "is_disabled": 0, "is_reserved": 0}, {"rental_uris": {"ios": "https://dc.lft.to/lastmile_qr_scan", "android": "https://dc.lft.to/lastmile_qr_scan"}, "lon": -77.04875583333333, "type": "electric_scooter", "fusion_lat": 0.0, "lat": 38.902998333333336, "name": "f6abc158941f4a1717e2640317873e08", "fusion_lon": 0.0, "bike_id": "f6abc158941f4a1717e2640317873e08", "is_disabled": 0, "is_reserved": 0}, {"rental_uris": {"ios": "https://dc.lft.to/lastmile_qr_scan", "android": "https://dc.lft.to/lastmile_qr_scan"}, "lon": -76.971858, "type": "electric_scooter", "fusion_lat": 0.0, "lat": 38.91764116666667, "name": "b93076ccbf3d67dac5c6168490f75ccc", "fusion_lon": 0.0, "bike_id": "b93076ccbf3d67dac5c6168490f75ccc", "is_disabled": 0, "is_reserved": 0}, {"rental_uris": {"ios": "https://dc.lft.to/lastmile_qr_scan", "android": "https://dc.lft.to/lastmile_qr_scan"}, "lon": -77.03265033333334, "type": "electric_scooter", "fusion_lat": 0.0, "lat": 38.932305, "name": "a6aacd59157bcb5fcc0cdc37db9ffe50", "fusion_lon": 0.0, "bike_id": "a6aacd59157bcb5fcc0cdc37db9ffe50", "is_disabled": 0, "is_reserved": 0}, {"rental_uris": {"ios": "https://dc.lft.to/lastmile_qr_scan", "android": "https://dc.lft.to/lastmile_qr_scan"}, "lon": -76.9895995, "type": "electric_scooter", "fusion_lat": 0.0, "lat": 38.90033, "name": "5185cd2510bcfd556f02724a7dcf9cda", "fusion_lon": 0.0, "bike_id": "5185cd2510bcfd556f02724a7dcf9cda", "is_disabled": 0, "is_reserved": 0}, {"rental_uris": {"ios": "https://dc.lft.to/lastmile_qr_scan", "android": "https://dc.lft.to/lastmile_qr_scan"}, "lon": -77.128995, "type": "electric_bike", "fusion_lat": 0.0, "lat": 38.86377183333333, "name": "b2947a268edc5ac9088f5ae205396c59", "fusion_lon": 0.0, "bike_id": "b2947a268edc5ac9088f5ae205396c59", "is_disabled": 0, "is_reserved": 0}, {"rental_uris": {"ios": "https://dc.lft.to/lastmile_qr_scan", "android": "https://dc.lft.to/lastmile_qr_scan"}, "lon": -76.93929783333333, "type": "electric_scooter", "fusion_lat": 0.0, "lat": 38.89297666666667, "name": "11ffa36bbeb50cb2d1cedb9c6c79b0e7", "fusion_lon": 0.0, "bike_id": "11ffa36bbeb50cb2d1cedb9c6c79b0e7", "is_disabled": 0, "is_reserved": 0}, {"rental_uris": {"ios": "https://dc.lft.to/lastmile_qr_scan", "android": "https://dc.lft.to/lastmile_qr_scan"}, "lon": -76.98029116666666, "type": "electric_scooter", "fusion_lat": 0.0, "lat": 38.902089833333335, "name": "337da35151f126cd1ab13a10556d8725", "fusion_lon": 0.0, "bike_id": "337da35151f126cd1ab13a10556d8725", "is_disabled": 0, "is_reserved": 0}, {"rental_uris": {"ios": "https://dc.lft.to/lastmile_qr_scan", "android": "https://dc.lft.to/lastmile_qr_scan"}, "lon": -77.01431233333334, "type": "electric_scooter", "fusion_lat": 0.0, "lat": 38.90648633333333, "name": "fe4099aadb3a8f4fe104853322be048c", "fusion_lon": 0.0, "bike_id": "fe4099aadb3a8f4fe104853322be048c", "is_disabled": 0, "is_reserved": 0}, {"rental_uris": {"ios": "https://dc.lft.to/lastmile_qr_scan", "android": "https://dc.lft.to/lastmile_qr_scan"}, "lon": -77.00710683333334, "type": "electric_scooter", "fusion_lat": 0.0, "lat": 38.88492683333333, "name": "36e15f9031bbdc1796c209f6f9bdc54d", "fusion_lon": 0.0, "bike_id": "36e15f9031bbdc1796c209f6f9bdc54d", "is_disabled": 0, "is_reserved": 0}, {"rental_uris": {"ios": "https://dc.lft.to/lastmile_qr_scan", "android": "https://dc.lft.to/lastmile_qr_scan"}, "lon": -76.94625633333334, "type": "electric_bike", "fusion_lat": 0.0, "lat": 38.8323855, "name": "8ae51a4bab2eba7d4dd0d1da95fc9afa", "fusion_lon": 0.0, "bike_id": "8ae51a4bab2eba7d4dd0d1da95fc9afa", "is_disabled": 0, "is_reserved": 0}, {"rental_uris": {"ios": "https://dc.lft.to/lastmile_qr_scan", "android": "https://dc.lft.to/lastmile_qr_scan"}, "lon": -77.05465316666667, "type": "electric_scooter", "fusion_lat": 0.0, "lat": 38.8967165, "name": "aa65f4531faa66b536df14620e21ae85", "fusion_lon": 0.0, "bike_id": "aa65f4531faa66b536df14620e21ae85", "is_disabled": 0, "is_reserved": 0}, {"rental_uris": {"ios": "https://dc.lft.to/lastmile_qr_scan", "android": "https://dc.lft.to/lastmile_qr_scan"}, "lon": -77.01647166666666, "type": "electric_bike", "fusion_lat": 0.0, "lat": 38.8811305, "name": "c247c09f8da3e950adecf2cd67d331a4", "fusion_lon": 0.0, "bike_id": "c247c09f8da3e950adecf2cd67d331a4", "is_disabled": 0, "is_reserved": 0}, {"rental_uris": {"ios": "https://dc.lft.to/lastmile_qr_scan", "android": "https://dc.lft.to/lastmile_qr_scan"}, "lon": -77.029627, "type": "electric_scooter", "fusion_lat": 0.0, "lat": 38.88756083333333, "name": "3df545bbfdd7ec4f8ec5a30fd0e14e41", "fusion_lon": 0.0, "bike_id": "3df545bbfdd7ec4f8ec5a30fd0e14e41", "is_disabled": 0, "is_reserved": 0}, {"rental_uris": {"ios": "https://dc.lft.to/lastmile_qr_scan", "android": "https://dc.lft.to/lastmile_qr_scan"}, "lon": -77.043699, "type": "electric_scooter", "fusion_lat": 0.0, "lat": 38.93343933333333, "name": "7d2d51f680091ef7506e0420ed726790", "fusion_lon": 0.0, "bike_id": "7d2d51f680091ef7506e0420ed726790", "is_disabled": 0, "is_reserved": 0}, {"rental_uris": {"ios": "https://dc.lft.to/lastmile_qr_scan", "android": "https://dc.lft.to/lastmile_qr_scan"}, "lon": -76.98543966666666, "type": "electric_scooter", "fusion_lat": 0.0, "lat": 38.90426033333333, "name": "a4df7a123560237657777aa901593db9", "fusion_lon": 0.0, "bike_id": "a4df7a123560237657777aa901593db9", "is_disabled": 0, "is_reserved": 0}, {"rental_uris": {"ios": "https://dc.lft.to/lastmile_qr_scan", "android": "https://dc.lft.to/lastmile_qr_scan"}, "lon": -77.03235316666667, "type": "electric_scooter", "fusion_lat": 0.0, "lat": 38.9275795, "name": "de224edd3534d6636a5715ff6da7008c", "fusion_lon": 0.0, "bike_id": "de224edd3534d6636a5715ff6da7008c", "is_disabled": 0, "is_reserved": 0}, {"rental_uris": {"ios": "https://dc.lft.to/lastmile_qr_scan", "android": "https://dc.lft.to/lastmile_qr_scan"}, "lon": -77.03778316666667, "type": "electric_scooter", "fusion_lat": 0.0, "lat": 38.930197, "name": "f9e3d495b5b0cf66f3f2d202e7fb33c1", "fusion_lon": 0.0, "bike_id": "f9e3d495b5b0cf66f3f2d202e7fb33c1", "is_disabled": 0, "is_reserved": 0}, {"rental_uris": {"ios": "https://dc.lft.to/lastmile_qr_scan", "android": "https://dc.lft.to/lastmile_qr_scan"}, "lon": -77.02387633333333, "type": "electric_scooter", "fusion_lat": 0.0, "lat": 38.936121166666666, "name": "79ad1e69452fa41174f5c31843e165db", "fusion_lon": 0.0, "bike_id": "79ad1e69452fa41174f5c31843e165db", "is_disabled": 0, "is_reserved": 0}, {"rental_uris": {"ios": "https://dc.lft.to/lastmile_qr_scan", "android": "https://dc.lft.to/lastmile_qr_scan"}, "lon": -77.013698, "type": "electric_scooter", "fusion_lat": 0.0, "lat": 38.886508166666665, "name": "85e45dfed34d8dd45704774c2f4f94d9", "fusion_lon": 0.0, "bike_id": "85e45dfed34d8dd45704774c2f4f94d9", "is_disabled": 0, "is_reserved": 0}, {"rental_uris": {"ios": "https://dc.lft.to/lastmile_qr_scan", "android": "https://dc.lft.to/lastmile_qr_scan"}, "lon": -77.05259733333334, "type": "electric_scooter", "fusion_lat": 0.0, "lat": 38.9342865, "name": "4c62acc2926e68e63c6fe7764cccfb56", "fusion_lon": 0.0, "bike_id": "4c62acc2926e68e63c6fe7764cccfb56", "is_disabled": 0, "is_reserved": 0}, {"rental_uris": {"ios": "https://dc.lft.to/lastmile_qr_scan", "android": "https://dc.lft.to/lastmile_qr_scan"}, "lon": -77.03839833333333, "type": "electric_scooter", "fusion_lat": 0.0, "lat": 38.90937383333333, "name": "0f9e652f08c5e06c7a3e30ab75b36ac7", "fusion_lon": 0.0, "bike_id": "0f9e652f08c5e06c7a3e30ab75b36ac7", "is_disabled": 0, "is_reserved": 0}, {"rental_uris": {"ios": "https://dc.lft.to/lastmile_qr_scan", "android": "https://dc.lft.to/lastmile_qr_scan"}, "lon": -77.04281216666666, "type": "electric_scooter", "fusion_lat": 0.0, "lat": 38.8952185, "name": "b21ea8a4a77a628229b308f93cfd0a7e", "fusion_lon": 0.0, "bike_id": "b21ea8a4a77a628229b308f93cfd0a7e", "is_disabled": 0, "is_reserved": 0}, {"rental_uris": {"ios": "https://dc.lft.to/lastmile_qr_scan", "android": "https://dc.lft.to/lastmile_qr_scan"}, "lon": -77.028727, "type": "electric_scooter", "fusion_lat": 0.0, "lat": 38.908764, "name": "0cd7326a5f80b2344a53d73dac8ad62c", "fusion_lon": 0.0, "bike_id": "0cd7326a5f80b2344a53d73dac8ad62c", "is_disabled": 0, "is_reserved": 0}, {"rental_uris": {"ios": "https://dc.lft.to/lastmile_qr_scan", "android": "https://dc.lft.to/lastmile_qr_scan"}, "lon": -77.002166, "type": "electric_scooter", "fusion_lat": 0.0, "lat": 38.90022966666667, "name": "ff3d4f26b75e63527128df29d53b49d1", "fusion_lon": 0.0, "bike_id": "ff3d4f26b75e63527128df29d53b49d1", "is_disabled": 0, "is_reserved": 0}, {"rental_uris": {"ios": "https://dc.lft.to/lastmile_qr_scan", "android": "https://dc.lft.to/lastmile_qr_scan"}, "lon": -77.0328605, "type": "electric_scooter", "fusion_lat": 0.0, "lat": 38.93882283333333, "name": "33c90c2cb36718a11f8d8c2608034812", "fusion_lon": 0.0, "bike_id": "33c90c2cb36718a11f8d8c2608034812", "is_disabled": 0, "is_reserved": 0}, {"rental_uris": {"ios": "https://dc.lft.to/lastmile_qr_scan", "android": "https://dc.lft.to/lastmile_qr_scan"}, "lon": -76.93171783333334, "type": "electric_scooter", "fusion_lat": 0.0, "lat": 38.898847833333335, "name": "e899842104a7302c70593e00a57c332d", "fusion_lon": 0.0, "bike_id": "e899842104a7302c70593e00a57c332d", "is_disabled": 0, "is_reserved": 0}, {"rental_uris": {"ios": "https://dc.lft.to/lastmile_qr_scan", "android": "https://dc.lft.to/lastmile_qr_scan"}, "lon": -76.979908, "type": "electric_bike", "fusion_lat": 0.0, "lat": 38.9002855, "name": "2a655a53c659a9bca53e4bbbaee7af2e", "fusion_lon": 0.0, "bike_id": "2a655a53c659a9bca53e4bbbaee7af2e", "is_disabled": 0, "is_reserved": 0}, {"rental_uris": {"ios": "https://dc.lft.to/lastmile_qr_scan", "android": "https://dc.lft.to/lastmile_qr_scan"}, "lon": -77.0366235, "type": "electric_scooter", "fusion_lat": 0.0, "lat": 38.9187115, "name": "b43ef6a836762af024f672125352dd90", "fusion_lon": 0.0, "bike_id": "b43ef6a836762af024f672125352dd90", "is_disabled": 0, "is_reserved": 0}, {"rental_uris": {"ios": "https://dc.lft.to/lastmile_qr_scan", "android": "https://dc.lft.to/lastmile_qr_scan"}, "lon": -76.95902083333333, "type": "electric_scooter", "fusion_lat": 0.0, "lat": 38.926926, "name": "82d5dc85574720ef13c0730ce2b39158", "fusion_lon": 0.0, "bike_id": "82d5dc85574720ef13c0730ce2b39158", "is_disabled": 0, "is_reserved": 0}, {"rental_uris": {"ios": "https://dc.lft.to/lastmile_qr_scan", "android": "https://dc.lft.to/lastmile_qr_scan"}, "lon": -77.010997, "type": "electric_scooter", "fusion_lat": 0.0, "lat": 38.903634333333336, "name": "286f9176eaaa87f80d6452e79e5d1e32", "fusion_lon": 0.0, "bike_id": "286f9176eaaa87f80d6452e79e5d1e32", "is_disabled": 0, "is_reserved": 0}, {"rental_uris": {"ios": "https://dc.lft.to/lastmile_qr_scan", "android": "https://dc.lft.to/lastmile_qr_scan"}, "lon": -77.0486925, "type": "electric_scooter", "fusion_lat": 0.0, "lat": 38.905692333333334, "name": "3654665883d5a1f30bbc575f3b5593a4", "fusion_lon": 0.0, "bike_id": "3654665883d5a1f30bbc575f3b5593a4", "is_disabled": 0, "is_reserved": 0}, {"rental_uris": {"ios": "https://dc.lft.to/lastmile_qr_scan", "android": "https://dc.lft.to/lastmile_qr_scan"}, "lon": -77.04414316666667, "type": "electric_scooter", "fusion_lat": 0.0, "lat": 38.91314216666667, "name": "c40b2c6eea0ebdaf01831f198d7b65bd", "fusion_lon": 0.0, "bike_id": "c40b2c6eea0ebdaf01831f198d7b65bd", "is_disabled": 0, "is_reserved": 0}, {"rental_uris": {"ios": "https://dc.lft.to/lastmile_qr_scan", "android": "https://dc.lft.to/lastmile_qr_scan"}, "lon": -77.013168, "type": "electric_scooter", "fusion_lat": 0.0, "lat": 38.89742066666667, "name": "8434454880368b28c0ffe5ed4cfb7094", "fusion_lon": 0.0, "bike_id": "8434454880368b28c0ffe5ed4cfb7094", "is_disabled": 0, "is_reserved": 0}, {"rental_uris": {"ios": "https://dc.lft.to/lastmile_qr_scan", "android": "https://dc.lft.to/lastmile_qr_scan"}, "lon": -76.95188783333333, "type": "electric_bike", "fusion_lat": 0.0, "lat": 38.90687666666667, "name": "28c4370b3b7190040c7a461a277efa3e", "fusion_lon": 0.0, "bike_id": "28c4370b3b7190040c7a461a277efa3e", "is_disabled": 0, "is_reserved": 0}, {"rental_uris": {"ios": "https://dc.lft.to/lastmile_qr_scan", "android": "https://dc.lft.to/lastmile_qr_scan"}, "lon": -77.03869133333333, "type": "electric_scooter", "fusion_lat": 0.0, "lat": 38.91559266666667, "name": "7f6a8b02dfbdf5eb6a7de79e8ba12fdd", "fusion_lon": 0.0, "bike_id": "7f6a8b02dfbdf5eb6a7de79e8ba12fdd", "is_disabled": 0, "is_reserved": 0}, {"rental_uris": {"ios": "https://dc.lft.to/lastmile_qr_scan", "android": "https://dc.lft.to/lastmile_qr_scan"}, "lon": -77.06694566666667, "type": "electric_scooter", "fusion_lat": 0.0, "lat": 38.9098225, "name": "db5117cd6db8c60c54c3e4c530912ccf", "fusion_lon": 0.0, "bike_id": "db5117cd6db8c60c54c3e4c530912ccf", "is_disabled": 0, "is_reserved": 0}, {"rental_uris": {"ios": "https://dc.lft.to/lastmile_qr_scan", "android": "https://dc.lft.to/lastmile_qr_scan"}, "lon": -77.03513533333333, "type": "electric_scooter", "fusion_lat": 0.0, "lat": 38.92347316666667, "name": "93c106dad3ea40c9e7dab761f3ae4334", "fusion_lon": 0.0, "bike_id": "93c106dad3ea40c9e7dab761f3ae4334", "is_disabled": 0, "is_reserved": 0}, {"rental_uris": {"ios": "https://dc.lft.to/lastmile_qr_scan", "android": "https://dc.lft.to/lastmile_qr_scan"}, "lon": -77.03963816666666, "type": "electric_scooter", "fusion_lat": 0.0, "lat": 38.91634783333333, "name": "4f948f99c762d8678e1c0e3600675eeb", "fusion_lon": 0.0, "bike_id": "4f948f99c762d8678e1c0e3600675eeb", "is_disabled": 0, "is_reserved": 0}, {"rental_uris": {"ios": "https://dc.lft.to/lastmile_qr_scan", "android": "https://dc.lft.to/lastmile_qr_scan"}, "lon": -76.99037316666667, "type": "electric_scooter", "fusion_lat": 0.0, "lat": 38.858715333333336, "name": "e669215f5238f1d1bb306c1cf9ce2377", "fusion_lon": 0.0, "bike_id": "e669215f5238f1d1bb306c1cf9ce2377", "is_disabled": 0, "is_reserved": 0}, {"rental_uris": {"ios": "https://dc.lft.to/lastmile_qr_scan", "android": "https://dc.lft.to/lastmile_qr_scan"}, "lon": -77.029551, "type": "electric_scooter", "fusion_lat": 0.0, "lat": 38.90520983333333, "name": "5c80c8a9d5df48995c1e554c990ad06b", "fusion_lon": 0.0, "bike_id": "5c80c8a9d5df48995c1e554c990ad06b", "is_disabled": 0, "is_reserved": 0}, {"rental_uris": {"ios": "https://dc.lft.to/lastmile_qr_scan", "android": "https://dc.lft.to/lastmile_qr_scan"}, "lon": -77.0091385, "type": "electric_scooter", "fusion_lat": 0.0, "lat": 38.912383166666665, "name": "f5ebc33b1a0453aae7b1c64d01c8f348", "fusion_lon": 0.0, "bike_id": "f5ebc33b1a0453aae7b1c64d01c8f348", "is_disabled": 0, "is_reserved": 0}, {"rental_uris": {"ios": "https://dc.lft.to/lastmile_qr_scan", "android": "https://dc.lft.to/lastmile_qr_scan"}, "lon": -77.02853833333333, "type": "electric_scooter", "fusion_lat": 0.0, "lat": 38.923724666666665, "name": "3a4aa2f610efb27a7fb99f9b903f0442", "fusion_lon": 0.0, "bike_id": "3a4aa2f610efb27a7fb99f9b903f0442", "is_disabled": 0, "is_reserved": 0}, {"rental_uris": {"ios": "https://dc.lft.to/lastmile_qr_scan", "android": "https://dc.lft.to/lastmile_qr_scan"}, "lon": -77.04708233333334, "type": "electric_scooter", "fusion_lat": 0.0, "lat": 38.908641833333334, "name": "8436685591b9d33eb096e776ba93f89c", "fusion_lon": 0.0, "bike_id": "8436685591b9d33eb096e776ba93f89c", "is_disabled": 0, "is_reserved": 0}, {"rental_uris": {"ios": "https://dc.lft.to/lastmile_qr_scan", "android": "https://dc.lft.to/lastmile_qr_scan"}, "lon": -76.97611733333333, "type": "electric_bike", "fusion_lat": 0.0, "lat": 38.913116333333335, "name": "dc1c418b9a49f86c5be3ad58f099b3f4", "fusion_lon": 0.0, "bike_id": "dc1c418b9a49f86c5be3ad58f099b3f4", "is_disabled": 0, "is_reserved": 0}, {"rental_uris": {"ios": "https://dc.lft.to/lastmile_qr_scan", "android": "https://dc.lft.to/lastmile_qr_scan"}, "lon": -77.0660965, "type": "electric_bike", "fusion_lat": 0.0, "lat": 38.91128483333333, "name": "301e090e8777293616a439cb46e5f3fc", "fusion_lon": 0.0, "bike_id": "301e090e8777293616a439cb46e5f3fc", "is_disabled": 0, "is_reserved": 0}, {"rental_uris": {"ios": "https://dc.lft.to/lastmile_qr_scan", "android": "https://dc.lft.to/lastmile_qr_scan"}, "lon": -77.0423665, "type": "electric_scooter", "fusion_lat": 0.0, "lat": 38.9214885, "name": "ccbd8c9a6475c6a368903736199aa025", "fusion_lon": 0.0, "bike_id": "ccbd8c9a6475c6a368903736199aa025", "is_disabled": 0, "is_reserved": 0}, {"rental_uris": {"ios": "https://dc.lft.to/lastmile_qr_scan", "android": "https://dc.lft.to/lastmile_qr_scan"}, "lon": -77.0366775, "type": "electric_scooter", "fusion_lat": 0.0, "lat": 38.91708666666667, "name": "2e9460dff501bdb095d3f59479159220", "fusion_lon": 0.0, "bike_id": "2e9460dff501bdb095d3f59479159220", "is_disabled": 0, "is_reserved": 0}, {"rental_uris": {"ios": "https://dc.lft.to/lastmile_qr_scan", "android": "https://dc.lft.to/lastmile_qr_scan"}, "lon": -77.061153, "type": "electric_scooter", "fusion_lat": 0.0, "lat": 38.912961333333335, "name": "dd061f3b5b5c4c2a92447da51b420bed", "fusion_lon": 0.0, "bike_id": "dd061f3b5b5c4c2a92447da51b420bed", "is_disabled": 0, "is_reserved": 0}, {"rental_uris": {"ios": "https://dc.lft.to/lastmile_qr_scan", "android": "https://dc.lft.to/lastmile_qr_scan"}, "lon": -77.00314416666667, "type": "electric_scooter", "fusion_lat": 0.0, "lat": 38.894840333333335, "name": "ff91b58d478e8236b7d94a324221c4ec", "fusion_lon": 0.0, "bike_id": "ff91b58d478e8236b7d94a324221c4ec", "is_disabled": 0, "is_reserved": 0}, {"rental_uris": {"ios": "https://dc.lft.to/lastmile_qr_scan", "android": "https://dc.lft.to/lastmile_qr_scan"}, "lon": -77.03862466666666, "type": "electric_scooter", "fusion_lat": 0.0, "lat": 38.94200933333333, "name": "e51a38413e97cef51e10d3b10e10e4d0", "fusion_lon": 0.0, "bike_id": "e51a38413e97cef51e10d3b10e10e4d0", "is_disabled": 0, "is_reserved": 0}, {"rental_uris": {"ios": "https://dc.lft.to/lastmile_qr_scan", "android": "https://dc.lft.to/lastmile_qr_scan"}, "lon": -76.99000183333334, "type": "electric_scooter", "fusion_lat": 0.0, "lat": 38.8650005, "name": "5ab63c40043c969ccf47ca538d389365", "fusion_lon": 0.0, "bike_id": "5ab63c40043c969ccf47ca538d389365", "is_disabled": 0, "is_reserved": 0}, {"rental_uris": {"ios": "https://dc.lft.to/lastmile_qr_scan", "android": "https://dc.lft.to/lastmile_qr_scan"}, "lon": -77.02487666666667, "type": "electric_scooter", "fusion_lat": 0.0, "lat": 38.941828666666666, "name": "15f1bf8bd50e4c1478cb41508155c833", "fusion_lon": 0.0, "bike_id": "15f1bf8bd50e4c1478cb41508155c833", "is_disabled": 0, "is_reserved": 0}, {"rental_uris": {"ios": "https://dc.lft.to/lastmile_qr_scan", "android": "https://dc.lft.to/lastmile_qr_scan"}, "lon": -77.0058695, "type": "electric_scooter", "fusion_lat": 0.0, "lat": 38.90572183333333, "name": "a37312ab1d2b78166020c5e41cc3b4c0", "fusion_lon": 0.0, "bike_id": "a37312ab1d2b78166020c5e41cc3b4c0", "is_disabled": 0, "is_reserved": 0}, {"rental_uris": {"ios": "https://dc.lft.to/lastmile_qr_scan", "android": "https://dc.lft.to/lastmile_qr_scan"}, "lon": -77.03249333333333, "type": "electric_scooter", "fusion_lat": 0.0, "lat": 38.91265416666667, "name": "e438ecc7f4ef68ef4e1e3d2c84997403", "fusion_lon": 0.0, "bike_id": "e438ecc7f4ef68ef4e1e3d2c84997403", "is_disabled": 0, "is_reserved": 0}, {"rental_uris": {"ios": "https://dc.lft.to/lastmile_qr_scan", "android": "https://dc.lft.to/lastmile_qr_scan"}, "lon": -77.04885283333333, "type": "electric_scooter", "fusion_lat": 0.0, "lat": 38.9057535, "name": "ec863f0eca9b94f29f90a9722171d49a", "fusion_lon": 0.0, "bike_id": "ec863f0eca9b94f29f90a9722171d49a", "is_disabled": 0, "is_reserved": 0}, {"rental_uris": {"ios": "https://dc.lft.to/lastmile_qr_scan", "android": "https://dc.lft.to/lastmile_qr_scan"}, "lon": -77.03868533333333, "type": "electric_scooter", "fusion_lat": 0.0, "lat": 38.915637833333335, "name": "957da4b2123dd511c35ae828e960e71e", "fusion_lon": 0.0, "bike_id": "957da4b2123dd511c35ae828e960e71e", "is_disabled": 0, "is_reserved": 0}, {"rental_uris": {"ios": "https://dc.lft.to/lastmile_qr_scan", "android": "https://dc.lft.to/lastmile_qr_scan"}, "lon": -77.0322335, "type": "electric_scooter", "fusion_lat": 0.0, "lat": 38.925882, "name": "22a4be45647c0db62c1f27f6e6743636", "fusion_lon": 0.0, "bike_id": "22a4be45647c0db62c1f27f6e6743636", "is_disabled": 0, "is_reserved": 0}, {"rental_uris": {"ios": "https://dc.lft.to/lastmile_qr_scan", "android": "https://dc.lft.to/lastmile_qr_scan"}, "lon": -77.01111133333333, "type": "electric_scooter", "fusion_lat": 0.0, "lat": 38.90351, "name": "1e9a77537eddeab8ef0ae519b03ec7f0", "fusion_lon": 0.0, "bike_id": "1e9a77537eddeab8ef0ae519b03ec7f0", "is_disabled": 0, "is_reserved": 0}, {"rental_uris": {"ios": "https://dc.lft.to/lastmile_qr_scan", "android": "https://dc.lft.to/lastmile_qr_scan"}, "lon": -77.0247255, "type": "electric_scooter", "fusion_lat": 0.0, "lat": 38.93825416666667, "name": "be4c389b36ef30242fff9beb70f88dac", "fusion_lon": 0.0, "bike_id": "be4c389b36ef30242fff9beb70f88dac", "is_disabled": 0, "is_reserved": 0}, {"rental_uris": {"ios": "https://dc.lft.to/lastmile_qr_scan", "android": "https://dc.lft.to/lastmile_qr_scan"}, "lon": -77.036398, "type": "electric_scooter", "fusion_lat": 0.0, "lat": 38.91729766666667, "name": "749c97d9aeccc90215f941bef381a535", "fusion_lon": 0.0, "bike_id": "749c97d9aeccc90215f941bef381a535", "is_disabled": 0, "is_reserved": 0}, {"rental_uris": {"ios": "https://dc.lft.to/lastmile_qr_scan", "android": "https://dc.lft.to/lastmile_qr_scan"}, "lon": -76.96525316666667, "type": "electric_scooter", "fusion_lat": 0.0, "lat": 38.876268, "name": "1af4297e933508ec217166f647081f6b", "fusion_lon": 0.0, "bike_id": "1af4297e933508ec217166f647081f6b", "is_disabled": 0, "is_reserved": 0}, {"rental_uris": {"ios": "https://dc.lft.to/lastmile_qr_scan", "android": "https://dc.lft.to/lastmile_qr_scan"}, "lon": -77.04485733333334, "type": "electric_bike", "fusion_lat": 0.0, "lat": 38.91285766666667, "name": "582a808c6b3a54b41d8de06969a0dd43", "fusion_lon": 0.0, "bike_id": "582a808c6b3a54b41d8de06969a0dd43", "is_disabled": 0, "is_reserved": 0}, {"rental_uris": {"ios": "https://dc.lft.to/lastmile_qr_scan", "android": "https://dc.lft.to/lastmile_qr_scan"}, "lon": -76.9475975, "type": "electric_scooter", "fusion_lat": 0.0, "lat": 38.900609, "name": "75acc786f7b2e32183a5c1191eb6936d", "fusion_lon": 0.0, "bike_id": "75acc786f7b2e32183a5c1191eb6936d", "is_disabled": 0, "is_reserved": 0}, {"rental_uris": {"ios": "https://dc.lft.to/lastmile_qr_scan", "android": "https://dc.lft.to/lastmile_qr_scan"}, "lon": -77.03173766666667, "type": "electric_scooter", "fusion_lat": 0.0, "lat": 38.91792616666667, "name": "eed8b6c07ea5c5b39938f7f6c567b6a1", "fusion_lon": 0.0, "bike_id": "eed8b6c07ea5c5b39938f7f6c567b6a1", "is_disabled": 0, "is_reserved": 0}, {"rental_uris": {"ios": "https://dc.lft.to/lastmile_qr_scan", "android": "https://dc.lft.to/lastmile_qr_scan"}, "lon": -77.09670533333333, "type": "electric_scooter", "fusion_lat": 0.0, "lat": 38.917639, "name": "c4879237b6d410097ec85f4c43598e59", "fusion_lon": 0.0, "bike_id": "c4879237b6d410097ec85f4c43598e59", "is_disabled": 0, "is_reserved": 0}, {"rental_uris": {"ios": "https://dc.lft.to/lastmile_qr_scan", "android": "https://dc.lft.to/lastmile_qr_scan"}, "lon": -77.0322655, "type": "electric_scooter", "fusion_lat": 0.0, "lat": 38.90871, "name": "0aeca4ab2ada073834ef61340467b092", "fusion_lon": 0.0, "bike_id": "0aeca4ab2ada073834ef61340467b092", "is_disabled": 0, "is_reserved": 0}, {"rental_uris": {"ios": "https://dc.lft.to/lastmile_qr_scan", "android": "https://dc.lft.to/lastmile_qr_scan"}, "lon": -76.98883616666667, "type": "electric_scooter", "fusion_lat": 0.0, "lat": 38.866598833333335, "name": "2c1371a9700e7dc07299354b0598af2f", "fusion_lon": 0.0, "bike_id": "2c1371a9700e7dc07299354b0598af2f", "is_disabled": 0, "is_reserved": 0}, {"rental_uris": {"ios": "https://dc.lft.to/lastmile_qr_scan", "android": "https://dc.lft.to/lastmile_qr_scan"}, "lon": -77.03710866666667, "type": "electric_scooter", "fusion_lat": 0.0, "lat": 38.9262835, "name": "4c85b1f9934e334c027b8b71468a154a", "fusion_lon": 0.0, "bike_id": "4c85b1f9934e334c027b8b71468a154a", "is_disabled": 0, "is_reserved": 0}, {"rental_uris": {"ios": "https://dc.lft.to/lastmile_qr_scan", "android": "https://dc.lft.to/lastmile_qr_scan"}, "lon": -77.04444266666667, "type": "electric_scooter", "fusion_lat": 0.0, "lat": 38.91930466666667, "name": "dfd3a859ce46cf754f9e62163a40cafe", "fusion_lon": 0.0, "bike_id": "dfd3a859ce46cf754f9e62163a40cafe", "is_disabled": 0, "is_reserved": 0}, {"rental_uris": {"ios": "https://dc.lft.to/lastmile_qr_scan", "android": "https://dc.lft.to/lastmile_qr_scan"}, "lon": -76.937432, "type": "electric_scooter", "fusion_lat": 0.0, "lat": 38.91289033333334, "name": "bf3607e0744f24da034054be53807e55", "fusion_lon": 0.0, "bike_id": "bf3607e0744f24da034054be53807e55", "is_disabled": 0, "is_reserved": 0}, {"rental_uris": {"ios": "https://dc.lft.to/lastmile_qr_scan", "android": "https://dc.lft.to/lastmile_qr_scan"}, "lon": -76.97706216666667, "type": "electric_scooter", "fusion_lat": 0.0, "lat": 38.902603, "name": "00184be8d94fa93268eb9a6b3e2035d4", "fusion_lon": 0.0, "bike_id": "00184be8d94fa93268eb9a6b3e2035d4", "is_disabled": 0, "is_reserved": 0}, {"rental_uris": {"ios": "https://dc.lft.to/lastmile_qr_scan", "android": "https://dc.lft.to/lastmile_qr_scan"}, "lon": -77.03280816666667, "type": "electric_scooter", "fusion_lat": 0.0, "lat": 38.9349215, "name": "65dd2575e01202fa4521cc5b2c3eaa21", "fusion_lon": 0.0, "bike_id": "65dd2575e01202fa4521cc5b2c3eaa21", "is_disabled": 0, "is_reserved": 0}, {"rental_uris": {"ios": "https://dc.lft.to/lastmile_qr_scan", "android": "https://dc.lft.to/lastmile_qr_scan"}, "lon": -77.02235516666667, "type": "electric_scooter", "fusion_lat": 0.0, "lat": 38.891922666666666, "name": "2c5820c401ca6800ae73c09f9168254c", "fusion_lon": 0.0, "bike_id": "2c5820c401ca6800ae73c09f9168254c", "is_disabled": 0, "is_reserved": 0}, {"rental_uris": {"ios": "https://dc.lft.to/lastmile_qr_scan", "android": "https://dc.lft.to/lastmile_qr_scan"}, "lon": -77.01390566666667, "type": "electric_scooter", "fusion_lat": 0.0, "lat": 38.919452, "name": "cb0091817c864bee1151cd4969724cbf", "fusion_lon": 0.0, "bike_id": "cb0091817c864bee1151cd4969724cbf", "is_disabled": 0, "is_reserved": 0}, {"rental_uris": {"ios": "https://dc.lft.to/lastmile_qr_scan", "android": "https://dc.lft.to/lastmile_qr_scan"}, "lon": -77.04258516666667, "type": "electric_scooter", "fusion_lat": 0.0, "lat": 38.92063566666667, "name": "6986d36c1c8f7aa28943db620e4e1ae7", "fusion_lon": 0.0, "bike_id": "6986d36c1c8f7aa28943db620e4e1ae7", "is_disabled": 0, "is_reserved": 0}, {"rental_uris": {"ios": "https://dc.lft.to/lastmile_qr_scan", "android": "https://dc.lft.to/lastmile_qr_scan"}, "lon": -76.98596883333333, "type": "electric_bike", "fusion_lat": 0.0, "lat": 38.906208166666666, "name": "ac40c76165b25780f593c704d589b4f0", "fusion_lon": 0.0, "bike_id": "ac40c76165b25780f593c704d589b4f0", "is_disabled": 0, "is_reserved": 0}, {"rental_uris": {"ios": "https://dc.lft.to/lastmile_qr_scan", "android": "https://dc.lft.to/lastmile_qr_scan"}, "lon": -77.03706233333334, "type": "electric_scooter", "fusion_lat": 0.0, "lat": 38.926228, "name": "a8de455a37c7b1bbbfb5730b09106476", "fusion_lon": 0.0, "bike_id": "a8de455a37c7b1bbbfb5730b09106476", "is_disabled": 0, "is_reserved": 0}, {"rental_uris": {"ios": "https://dc.lft.to/lastmile_qr_scan", "android": "https://dc.lft.to/lastmile_qr_scan"}, "lon": -76.9856915, "type": "electric_scooter", "fusion_lat": 0.0, "lat": 38.89956433333333, "name": "dabf280e4f097d1ad19c2c5e71f480d2", "fusion_lon": 0.0, "bike_id": "dabf280e4f097d1ad19c2c5e71f480d2", "is_disabled": 0, "is_reserved": 0}, {"rental_uris": {"ios": "https://dc.lft.to/lastmile_qr_scan", "android": "https://dc.lft.to/lastmile_qr_scan"}, "lon": -76.93175833333333, "type": "electric_scooter", "fusion_lat": 0.0, "lat": 38.89884966666666, "name": "623517d1ad6665157f73670983f6758b", "fusion_lon": 0.0, "bike_id": "623517d1ad6665157f73670983f6758b", "is_disabled": 0, "is_reserved": 0}, {"rental_uris": {"ios": "https://dc.lft.to/lastmile_qr_scan", "android": "https://dc.lft.to/lastmile_qr_scan"}, "lon": -76.9379135, "type": "electric_scooter", "fusion_lat": 0.0, "lat": 38.89087083333333, "name": "227626be852a98d9587b348dd2146e5d", "fusion_lon": 0.0, "bike_id": "227626be852a98d9587b348dd2146e5d", "is_disabled": 0, "is_reserved": 0}, {"rental_uris": {"ios": "https://dc.lft.to/lastmile_qr_scan", "android": "https://dc.lft.to/lastmile_qr_scan"}, "lon": -77.01077683333334, "type": "electric_scooter", "fusion_lat": 0.0, "lat": 38.894875, "name": "b8b51e6201b1b23d642065aaf79196a9", "fusion_lon": 0.0, "bike_id": "b8b51e6201b1b23d642065aaf79196a9", "is_disabled": 0, "is_reserved": 0}, {"rental_uris": {"ios": "https://dc.lft.to/lastmile_qr_scan", "android": "https://dc.lft.to/lastmile_qr_scan"}, "lon": -76.95759633333333, "type": "electric_scooter", "fusion_lat": 0.0, "lat": 38.884341166666665, "name": "0ade3db919a8f254c5904de0aa681699", "fusion_lon": 0.0, "bike_id": "0ade3db919a8f254c5904de0aa681699", "is_disabled": 0, "is_reserved": 0}, {"rental_uris": {"ios": "https://dc.lft.to/lastmile_qr_scan", "android": "https://dc.lft.to/lastmile_qr_scan"}, "lon": -77.0308135, "type": "electric_scooter", "fusion_lat": 0.0, "lat": 38.880316, "name": "076502b6fe2d0fce7cd23406186b57ac", "fusion_lon": 0.0, "bike_id": "076502b6fe2d0fce7cd23406186b57ac", "is_disabled": 0, "is_reserved": 0}, {"rental_uris": {"ios": "https://dc.lft.to/lastmile_qr_scan", "android": "https://dc.lft.to/lastmile_qr_scan"}, "lon": -76.96503633333333, "type": "electric_scooter", "fusion_lat": 0.0, "lat": 38.876476, "name": "30ac774cfdda060b3e830c1352651a65", "fusion_lon": 0.0, "bike_id": "30ac774cfdda060b3e830c1352651a65", "is_disabled": 0, "is_reserved": 0}, {"rental_uris": {"ios": "https://dc.lft.to/lastmile_qr_scan", "android": "https://dc.lft.to/lastmile_qr_scan"}, "lon": -77.031691, "type": "electric_scooter", "fusion_lat": 0.0, "lat": 38.899488166666664, "name": "3c5e83f7c2cce98034e7e829667f562e", "fusion_lon": 0.0, "bike_id": "3c5e83f7c2cce98034e7e829667f562e", "is_disabled": 0, "is_reserved": 0}, {"rental_uris": {"ios": "https://dc.lft.to/lastmile_qr_scan", "android": "https://dc.lft.to/lastmile_qr_scan"}, "lon": -77.02487033333334, "type": "electric_scooter", "fusion_lat": 0.0, "lat": 38.94183666666667, "name": "5042990198a9db2ceae05210cef9e5ee", "fusion_lon": 0.0, "bike_id": "5042990198a9db2ceae05210cef9e5ee", "is_disabled": 0, "is_reserved": 0}, {"rental_uris": {"ios": "https://dc.lft.to/lastmile_qr_scan", "android": "https://dc.lft.to/lastmile_qr_scan"}, "lon": -77.01720066666667, "type": "electric_scooter", "fusion_lat": 0.0, "lat": 38.911740333333334, "name": "b8eb7c260b46f0b5f88b71d5430b18bf", "fusion_lon": 0.0, "bike_id": "b8eb7c260b46f0b5f88b71d5430b18bf", "is_disabled": 0, "is_reserved": 0}, {"rental_uris": {"ios": "https://dc.lft.to/lastmile_qr_scan", "android": "https://dc.lft.to/lastmile_qr_scan"}, "lon": -77.15271116666666, "type": "electric_bike", "fusion_lat": 0.0, "lat": 39.105678, "name": "03f24e51311d27885b0312cf2b56d401", "fusion_lon": 0.0, "bike_id": "03f24e51311d27885b0312cf2b56d401", "is_disabled": 0, "is_reserved": 0}, {"rental_uris": {"ios": "https://dc.lft.to/lastmile_qr_scan", "android": "https://dc.lft.to/lastmile_qr_scan"}, "lon": -77.02224766666667, "type": "electric_scooter", "fusion_lat": 0.0, "lat": 38.89358266666667, "name": "a278964a68a1c7998ed4063cb467a8c9", "fusion_lon": 0.0, "bike_id": "a278964a68a1c7998ed4063cb467a8c9", "is_disabled": 0, "is_reserved": 0}, {"rental_uris": {"ios": "https://dc.lft.to/lastmile_qr_scan", "android": "https://dc.lft.to/lastmile_qr_scan"}, "lon": -77.0389515, "type": "electric_scooter", "fusion_lat": 0.0, "lat": 38.921897666666666, "name": "af3671032fc300636417a26ed569227f", "fusion_lon": 0.0, "bike_id": "af3671032fc300636417a26ed569227f", "is_disabled": 0, "is_reserved": 0}, {"rental_uris": {"ios": "https://dc.lft.to/lastmile_qr_scan", "android": "https://dc.lft.to/lastmile_qr_scan"}, "lon": -77.017884, "type": "electric_scooter", "fusion_lat": 0.0, "lat": 38.941130333333334, "name": "846cf726c52763a47542547c6239e1ef", "fusion_lon": 0.0, "bike_id": "846cf726c52763a47542547c6239e1ef", "is_disabled": 0, "is_reserved": 0}, {"rental_uris": {"ios": "https://dc.lft.to/lastmile_qr_scan", "android": "https://dc.lft.to/lastmile_qr_scan"}, "lon": -77.03352883333334, "type": "electric_scooter", "fusion_lat": 0.0, "lat": 38.898331666666664, "name": "d9f6f9b1bba92e25232b12b5217760e8", "fusion_lon": 0.0, "bike_id": "d9f6f9b1bba92e25232b12b5217760e8", "is_disabled": 0, "is_reserved": 0}, {"rental_uris": {"ios": "https://dc.lft.to/lastmile_qr_scan", "android": "https://dc.lft.to/lastmile_qr_scan"}, "lon": -77.06605616666667, "type": "electric_scooter", "fusion_lat": 0.0, "lat": 38.90531133333333, "name": "2817d799914e621489083870c5a5e65e", "fusion_lon": 0.0, "bike_id": "2817d799914e621489083870c5a5e65e", "is_disabled": 0, "is_reserved": 0}, {"rental_uris": {"ios": "https://dc.lft.to/lastmile_qr_scan", "android": "https://dc.lft.to/lastmile_qr_scan"}, "lon": -77.03255183333333, "type": "electric_scooter", "fusion_lat": 0.0, "lat": 38.94420366666667, "name": "8ac58fdc5af60e5c79b97be88fbb07dc", "fusion_lon": 0.0, "bike_id": "8ac58fdc5af60e5c79b97be88fbb07dc", "is_disabled": 0, "is_reserved": 0}, {"rental_uris": {"ios": "https://dc.lft.to/lastmile_qr_scan", "android": "https://dc.lft.to/lastmile_qr_scan"}, "lon": -77.04825683333334, "type": "electric_scooter", "fusion_lat": 0.0, "lat": 38.91636883333334, "name": "5c6400730de47ef91d72a1c7a0025e18", "fusion_lon": 0.0, "bike_id": "5c6400730de47ef91d72a1c7a0025e18", "is_disabled": 0, "is_reserved": 0}, {"rental_uris": {"ios": "https://dc.lft.to/lastmile_qr_scan", "android": "https://dc.lft.to/lastmile_qr_scan"}, "lon": -76.9977505, "type": "electric_scooter", "fusion_lat": 0.0, "lat": 38.84423833333334, "name": "29cd3ad26f1308fbcd16e8aabcb2d94d", "fusion_lon": 0.0, "bike_id": "29cd3ad26f1308fbcd16e8aabcb2d94d", "is_disabled": 0, "is_reserved": 0}, {"rental_uris": {"ios": "https://dc.lft.to/lastmile_qr_scan", "android": "https://dc.lft.to/lastmile_qr_scan"}, "lon": -77.03037433333333, "type": "electric_scooter", "fusion_lat": 0.0, "lat": 38.92243066666666, "name": "62b36c6e674cf4673582154e71b86fcd", "fusion_lon": 0.0, "bike_id": "62b36c6e674cf4673582154e71b86fcd", "is_disabled": 0, "is_reserved": 0}, {"rental_uris": {"ios": "https://dc.lft.to/lastmile_qr_scan", "android": "https://dc.lft.to/lastmile_qr_scan"}, "lon": -77.01282416666666, "type": "electric_scooter", "fusion_lat": 0.0, "lat": 38.906175833333336, "name": "d999a39e9d39b98ecde6a3dec755c5c8", "fusion_lon": 0.0, "bike_id": "d999a39e9d39b98ecde6a3dec755c5c8", "is_disabled": 0, "is_reserved": 0}, {"rental_uris": {"ios": "https://dc.lft.to/lastmile_qr_scan", "android": "https://dc.lft.to/lastmile_qr_scan"}, "lon": -77.042477, "type": "electric_scooter", "fusion_lat": 0.0, "lat": 38.922037, "name": "4caa956d0f63be60a950573b60239d67", "fusion_lon": 0.0, "bike_id": "4caa956d0f63be60a950573b60239d67", "is_disabled": 0, "is_reserved": 0}, {"rental_uris": {"ios": "https://dc.lft.to/lastmile_qr_scan", "android": "https://dc.lft.to/lastmile_qr_scan"}, "lon": -77.0320325, "type": "electric_scooter", "fusion_lat": 0.0, "lat": 38.90753733333333, "name": "0014e412364c94b0023bc4806db9433a", "fusion_lon": 0.0, "bike_id": "0014e412364c94b0023bc4806db9433a", "is_disabled": 0, "is_reserved": 0}, {"rental_uris": {"ios": "https://dc.lft.to/lastmile_qr_scan", "android": "https://dc.lft.to/lastmile_qr_scan"}, "lon": -77.01882283333333, "type": "electric_scooter", "fusion_lat": 0.0, "lat": 38.91748316666666, "name": "0631c1100e7c817a26c8ce0d9a4e216d", "fusion_lon": 0.0, "bike_id": "0631c1100e7c817a26c8ce0d9a4e216d", "is_disabled": 0, "is_reserved": 0}, {"rental_uris": {"ios": "https://dc.lft.to/lastmile_qr_scan", "android": "https://dc.lft.to/lastmile_qr_scan"}, "lon": -77.0777755, "type": "electric_scooter", "fusion_lat": 0.0, "lat": 38.94566316666667, "name": "4f6278fa7ec8d0326bc1968ff28b9fd2", "fusion_lon": 0.0, "bike_id": "4f6278fa7ec8d0326bc1968ff28b9fd2", "is_disabled": 0, "is_reserved": 0}, {"rental_uris": {"ios": "https://dc.lft.to/lastmile_qr_scan", "android": "https://dc.lft.to/lastmile_qr_scan"}, "lon": -76.98843266666667, "type": "electric_bike", "fusion_lat": 0.0, "lat": 38.84274333333333, "name": "767bc4fc908090f2c82e057c6ee30f41", "fusion_lon": 0.0, "bike_id": "767bc4fc908090f2c82e057c6ee30f41", "is_disabled": 0, "is_reserved": 0}, {"rental_uris": {"ios": "https://dc.lft.to/lastmile_qr_scan", "android": "https://dc.lft.to/lastmile_qr_scan"}, "lon": -77.005679, "type": "electric_scooter", "fusion_lat": 0.0, "lat": 38.8792825, "name": "55327814306a4283f82d3efaa5b8c7de", "fusion_lon": 0.0, "bike_id": "55327814306a4283f82d3efaa5b8c7de", "is_disabled": 0, "is_reserved": 0}, {"rental_uris": {"ios": "https://dc.lft.to/lastmile_qr_scan", "android": "https://dc.lft.to/lastmile_qr_scan"}, "lon": -77.03281433333333, "type": "electric_scooter", "fusion_lat": 0.0, "lat": 38.9349275, "name": "4d260575af9e508097a8b69dd8bab7d7", "fusion_lon": 0.0, "bike_id": "4d260575af9e508097a8b69dd8bab7d7", "is_disabled": 0, "is_reserved": 0}, {"rental_uris": {"ios": "https://dc.lft.to/lastmile_qr_scan", "android": "https://dc.lft.to/lastmile_qr_scan"}, "lon": -77.002628, "type": "electric_scooter", "fusion_lat": 0.0, "lat": 38.898998, "name": "0399491abfa9639cef6f7f18e80582b2", "fusion_lon": 0.0, "bike_id": "0399491abfa9639cef6f7f18e80582b2", "is_disabled": 0, "is_reserved": 0}, {"rental_uris": {"ios": "https://dc.lft.to/lastmile_qr_scan", "android": "https://dc.lft.to/lastmile_qr_scan"}, "lon": -77.037845, "type": "electric_scooter", "fusion_lat": 0.0, "lat": 38.92627516666667, "name": "ac530cf41a08c5f1637d67ed5bd632b8", "fusion_lon": 0.0, "bike_id": "ac530cf41a08c5f1637d67ed5bd632b8", "is_disabled": 0, "is_reserved": 0}, {"rental_uris": {"ios": "https://dc.lft.to/lastmile_qr_scan", "android": "https://dc.lft.to/lastmile_qr_scan"}, "lon": -76.99624933333334, "type": "electric_scooter", "fusion_lat": 0.0, "lat": 38.877329333333336, "name": "7cbc6c106604fc7619556c8831bd317b", "fusion_lon": 0.0, "bike_id": "7cbc6c106604fc7619556c8831bd317b", "is_disabled": 0, "is_reserved": 0}, {"rental_uris": {"ios": "https://dc.lft.to/lastmile_qr_scan", "android": "https://dc.lft.to/lastmile_qr_scan"}, "lon": -77.0482135, "type": "electric_scooter", "fusion_lat": 0.0, "lat": 38.90961716666666, "name": "32c18af4d50f40b6b9c5755798d66814", "fusion_lon": 0.0, "bike_id": "32c18af4d50f40b6b9c5755798d66814", "is_disabled": 0, "is_reserved": 0}, {"rental_uris": {"ios": "https://dc.lft.to/lastmile_qr_scan", "android": "https://dc.lft.to/lastmile_qr_scan"}, "lon": -77.0107415, "type": "electric_bike", "fusion_lat": 0.0, "lat": 38.9565235, "name": "01ec8e050a82293ced5d2cdba38f75ce", "fusion_lon": 0.0, "bike_id": "01ec8e050a82293ced5d2cdba38f75ce", "is_disabled": 0, "is_reserved": 0}, {"rental_uris": {"ios": "https://dc.lft.to/lastmile_qr_scan", "android": "https://dc.lft.to/lastmile_qr_scan"}, "lon": -77.03405933333333, "type": "electric_scooter", "fusion_lat": 0.0, "lat": 38.90611533333333, "name": "265359d07f7023471ebb6f3fc8ff2c29", "fusion_lon": 0.0, "bike_id": "265359d07f7023471ebb6f3fc8ff2c29", "is_disabled": 0, "is_reserved": 0}, {"rental_uris": {"ios": "https://dc.lft.to/lastmile_qr_scan", "android": "https://dc.lft.to/lastmile_qr_scan"}, "lon": -76.98956433333333, "type": "electric_scooter", "fusion_lat": 0.0, "lat": 38.90134666666667, "name": "034ca61294b65234eb2dee57b2d52ad1", "fusion_lon": 0.0, "bike_id": "034ca61294b65234eb2dee57b2d52ad1", "is_disabled": 0, "is_reserved": 0}, {"rental_uris": {"ios": "https://dc.lft.to/lastmile_qr_scan", "android": "https://dc.lft.to/lastmile_qr_scan"}, "lon": -77.03124116666666, "type": "electric_scooter", "fusion_lat": 0.0, "lat": 38.96309266666667, "name": "f0a9cdb43605039af7706dd5cc69a847", "fusion_lon": 0.0, "bike_id": "f0a9cdb43605039af7706dd5cc69a847", "is_disabled": 0, "is_reserved": 0}, {"rental_uris": {"ios": "https://dc.lft.to/lastmile_qr_scan", "android": "https://dc.lft.to/lastmile_qr_scan"}, "lon": -76.98009033333334, "type": "electric_scooter", "fusion_lat": 0.0, "lat": 38.85320016666667, "name": "6b8635d49e7a21546d04ee55917445c3", "fusion_lon": 0.0, "bike_id": "6b8635d49e7a21546d04ee55917445c3", "is_disabled": 0, "is_reserved": 0}, {"rental_uris": {"ios": "https://dc.lft.to/lastmile_qr_scan", "android": "https://dc.lft.to/lastmile_qr_scan"}, "lon": -77.0320665, "type": "electric_scooter", "fusion_lat": 0.0, "lat": 38.909878166666665, "name": "ebe425093562e32e4aa75451a6e45dbc", "fusion_lon": 0.0, "bike_id": "ebe425093562e32e4aa75451a6e45dbc", "is_disabled": 0, "is_reserved": 0}, {"rental_uris": {"ios": "https://dc.lft.to/lastmile_qr_scan", "android": "https://dc.lft.to/lastmile_qr_scan"}, "lon": -76.9865685, "type": "electric_scooter", "fusion_lat": 0.0, "lat": 38.858061, "name": "0f30359dbe4d2aa35ff3e558dbc24923", "fusion_lon": 0.0, "bike_id": "0f30359dbe4d2aa35ff3e558dbc24923", "is_disabled": 0, "is_reserved": 0}, {"rental_uris": {"ios": "https://dc.lft.to/lastmile_qr_scan", "android": "https://dc.lft.to/lastmile_qr_scan"}, "lon": -76.97925783333334, "type": "electric_scooter", "fusion_lat": 0.0, "lat": 38.90503016666667, "name": "86180458abcd5164b1950b4875d0511d", "fusion_lon": 0.0, "bike_id": "86180458abcd5164b1950b4875d0511d", "is_disabled": 0, "is_reserved": 0}, {"rental_uris": {"ios": "https://dc.lft.to/lastmile_qr_scan", "android": "https://dc.lft.to/lastmile_qr_scan"}, "lon": -77.04802133333334, "type": "electric_scooter", "fusion_lat": 0.0, "lat": 38.911084333333335, "name": "3ca0335e0cd69de0bfc419dcf0c7d278", "fusion_lon": 0.0, "bike_id": "3ca0335e0cd69de0bfc419dcf0c7d278", "is_disabled": 0, "is_reserved": 0}, {"rental_uris": {"ios": "https://dc.lft.to/lastmile_qr_scan", "android": "https://dc.lft.to/lastmile_qr_scan"}, "lon": -77.03661316666667, "type": "electric_scooter", "fusion_lat": 0.0, "lat": 38.92212083333333, "name": "7f66051b6bc30406f45a2a064ba5bb79", "fusion_lon": 0.0, "bike_id": "7f66051b6bc30406f45a2a064ba5bb79", "is_disabled": 0, "is_reserved": 0}, {"rental_uris": {"ios": "https://dc.lft.to/lastmile_qr_scan", "android": "https://dc.lft.to/lastmile_qr_scan"}, "lon": -77.04189583333333, "type": "electric_scooter", "fusion_lat": 0.0, "lat": 38.92053283333333, "name": "5dab7240b951e34bb98020f8a15362dd", "fusion_lon": 0.0, "bike_id": "5dab7240b951e34bb98020f8a15362dd", "is_disabled": 0, "is_reserved": 0}, {"rental_uris": {"ios": "https://dc.lft.to/lastmile_qr_scan", "android": "https://dc.lft.to/lastmile_qr_scan"}, "lon": -77.100322, "type": "electric_bike", "fusion_lat": 0.0, "lat": 38.99064083333333, "name": "35846c63765f58adb8cbe1a803325d7f", "fusion_lon": 0.0, "bike_id": "35846c63765f58adb8cbe1a803325d7f", "is_disabled": 0, "is_reserved": 0}, {"rental_uris": {"ios": "https://dc.lft.to/lastmile_qr_scan", "android": "https://dc.lft.to/lastmile_qr_scan"}, "lon": -76.98554983333334, "type": "electric_scooter", "fusion_lat": 0.0, "lat": 38.856214, "name": "888e713ec2d8cc17b984d6add38b0df6", "fusion_lon": 0.0, "bike_id": "888e713ec2d8cc17b984d6add38b0df6", "is_disabled": 0, "is_reserved": 0}, {"rental_uris": {"ios": "https://dc.lft.to/lastmile_qr_scan", "android": "https://dc.lft.to/lastmile_qr_scan"}, "lon": -77.04903933333334, "type": "electric_bike", "fusion_lat": 0.0, "lat": 38.87493833333333, "name": "9324f661eab2b09358cf00ed999cf181", "fusion_lon": 0.0, "bike_id": "9324f661eab2b09358cf00ed999cf181", "is_disabled": 0, "is_reserved": 0}, {"rental_uris": {"ios": "https://dc.lft.to/lastmile_qr_scan", "android": "https://dc.lft.to/lastmile_qr_scan"}, "lon": -77.00355383333333, "type": "electric_scooter", "fusion_lat": 0.0, "lat": 38.89760066666667, "name": "4d6ef43cbfd52e32f66ce49d49499fb4", "fusion_lon": 0.0, "bike_id": "4d6ef43cbfd52e32f66ce49d49499fb4", "is_disabled": 0, "is_reserved": 0}, {"rental_uris": {"ios": "https://dc.lft.to/lastmile_qr_scan", "android": "https://dc.lft.to/lastmile_qr_scan"}, "lon": -77.02225033333333, "type": "electric_scooter", "fusion_lat": 0.0, "lat": 38.893570833333335, "name": "abe4f55e870a929f20f0f806ceb6798b", "fusion_lon": 0.0, "bike_id": "abe4f55e870a929f20f0f806ceb6798b", "is_disabled": 0, "is_reserved": 0}, {"rental_uris": {"ios": "https://dc.lft.to/lastmile_qr_scan", "android": "https://dc.lft.to/lastmile_qr_scan"}, "lon": -77.02339216666667, "type": "electric_scooter", "fusion_lat": 0.0, "lat": 38.930515, "name": "01347450b474c0498d490b34f4835849", "fusion_lon": 0.0, "bike_id": "01347450b474c0498d490b34f4835849", "is_disabled": 0, "is_reserved": 0}, {"rental_uris": {"ios": "https://dc.lft.to/lastmile_qr_scan", "android": "https://dc.lft.to/lastmile_qr_scan"}, "lon": -76.98571083333333, "type": "electric_scooter", "fusion_lat": 0.0, "lat": 38.898854166666666, "name": "56f94dcae2793a5c99ac0b8d6608cefe", "fusion_lon": 0.0, "bike_id": "56f94dcae2793a5c99ac0b8d6608cefe", "is_disabled": 0, "is_reserved": 0}, {"rental_uris": {"ios": "https://dc.lft.to/lastmile_qr_scan", "android": "https://dc.lft.to/lastmile_qr_scan"}, "lon": -76.98658233333333, "type": "electric_scooter", "fusion_lat": 0.0, "lat": 38.858073166666664, "name": "f15bdef0a64bcb7e5f76f9f7e904474c", "fusion_lon": 0.0, "bike_id": "f15bdef0a64bcb7e5f76f9f7e904474c", "is_disabled": 0, "is_reserved": 0}, {"rental_uris": {"ios": "https://dc.lft.to/lastmile_qr_scan", "android": "https://dc.lft.to/lastmile_qr_scan"}, "lon": -76.94653616666666, "type": "electric_scooter", "fusion_lat": 0.0, "lat": 38.898270833333335, "name": "dfcf2aa35d04804bcf3e02eaddee1be2", "fusion_lon": 0.0, "bike_id": "dfcf2aa35d04804bcf3e02eaddee1be2", "is_disabled": 0, "is_reserved": 0}, {"rental_uris": {"ios": "https://dc.lft.to/lastmile_qr_scan", "android": "https://dc.lft.to/lastmile_qr_scan"}, "lon": -77.03232166666666, "type": "electric_scooter", "fusion_lat": 0.0, "lat": 38.927574166666666, "name": "eea884f852f2860968a767daa4b5f782", "fusion_lon": 0.0, "bike_id": "eea884f852f2860968a767daa4b5f782", "is_disabled": 0, "is_reserved": 0}, {"rental_uris": {"ios": "https://dc.lft.to/lastmile_qr_scan", "android": "https://dc.lft.to/lastmile_qr_scan"}, "lon": -77.033375, "type": "electric_bike", "fusion_lat": 0.0, "lat": 38.961356, "name": "cec682dcd9cb634ce5bfd38c3445be12", "fusion_lon": 0.0, "bike_id": "cec682dcd9cb634ce5bfd38c3445be12", "is_disabled": 0, "is_reserved": 0}, {"rental_uris": {"ios": "https://dc.lft.to/lastmile_qr_scan", "android": "https://dc.lft.to/lastmile_qr_scan"}, "lon": -77.04163366666667, "type": "electric_scooter", "fusion_lat": 0.0, "lat": 38.9139125, "name": "368ea82c377762cd89af89af3b4a315f", "fusion_lon": 0.0, "bike_id": "368ea82c377762cd89af89af3b4a315f", "is_disabled": 0, "is_reserved": 0}, {"rental_uris": {"ios": "https://dc.lft.to/lastmile_qr_scan", "android": "https://dc.lft.to/lastmile_qr_scan"}, "lon": -76.9888405, "type": "electric_scooter", "fusion_lat": 0.0, "lat": 38.8665955, "name": "5525eb75ee98909c6d460cc51a1ed262", "fusion_lon": 0.0, "bike_id": "5525eb75ee98909c6d460cc51a1ed262", "is_disabled": 0, "is_reserved": 0}, {"rental_uris": {"ios": "https://dc.lft.to/lastmile_qr_scan", "android": "https://dc.lft.to/lastmile_qr_scan"}, "lon": -77.07170833333333, "type": "electric_scooter", "fusion_lat": 0.0, "lat": 38.9144875, "name": "da15f6d04edbcdf463e241d54866fa1b", "fusion_lon": 0.0, "bike_id": "da15f6d04edbcdf463e241d54866fa1b", "is_disabled": 0, "is_reserved": 0}, {"rental_uris": {"ios": "https://dc.lft.to/lastmile_qr_scan", "android": "https://dc.lft.to/lastmile_qr_scan"}, "lon": -77.023301, "type": "electric_scooter", "fusion_lat": 0.0, "lat": 38.93783766666667, "name": "f845ae41045ec6b5607c17ca5db4974a", "fusion_lon": 0.0, "bike_id": "f845ae41045ec6b5607c17ca5db4974a", "is_disabled": 0, "is_reserved": 0}, {"rental_uris": {"ios": "https://dc.lft.to/lastmile_qr_scan", "android": "https://dc.lft.to/lastmile_qr_scan"}, "lon": -77.06944066666667, "type": "electric_scooter", "fusion_lat": 0.0, "lat": 38.9052495, "name": "c1499fb36f5b49d3eaebae50f8f330d0", "fusion_lon": 0.0, "bike_id": "c1499fb36f5b49d3eaebae50f8f330d0", "is_disabled": 0, "is_reserved": 0}, {"rental_uris": {"ios": "https://dc.lft.to/lastmile_qr_scan", "android": "https://dc.lft.to/lastmile_qr_scan"}, "lon": -77.04205083333333, "type": "electric_scooter", "fusion_lat": 0.0, "lat": 38.91107516666667, "name": "b650cbe456517f08b30824f28e576db0", "fusion_lon": 0.0, "bike_id": "b650cbe456517f08b30824f28e576db0", "is_disabled": 0, "is_reserved": 0}, {"rental_uris": {"ios": "https://dc.lft.to/lastmile_qr_scan", "android": "https://dc.lft.to/lastmile_qr_scan"}, "lon": -77.03670033333333, "type": "electric_scooter", "fusion_lat": 0.0, "lat": 38.902794666666665, "name": "4b2eeba912bb6241bc189d6f8b69bd06", "fusion_lon": 0.0, "bike_id": "4b2eeba912bb6241bc189d6f8b69bd06", "is_disabled": 0, "is_reserved": 0}, {"rental_uris": {"ios": "https://dc.lft.to/lastmile_qr_scan", "android": "https://dc.lft.to/lastmile_qr_scan"}, "lon": -77.02904583333333, "type": "electric_scooter", "fusion_lat": 0.0, "lat": 38.8861275, "name": "64d8dc14e250949728f2d214f6c1cf07", "fusion_lon": 0.0, "bike_id": "64d8dc14e250949728f2d214f6c1cf07", "is_disabled": 0, "is_reserved": 0}, {"rental_uris": {"ios": "https://dc.lft.to/lastmile_qr_scan", "android": "https://dc.lft.to/lastmile_qr_scan"}, "lon": -77.03893583333333, "type": "electric_scooter", "fusion_lat": 0.0, "lat": 38.918386166666664, "name": "12360f09fcae14d7979831d2d1d253db", "fusion_lon": 0.0, "bike_id": "12360f09fcae14d7979831d2d1d253db", "is_disabled": 0, "is_reserved": 0}, {"rental_uris": {"ios": "https://dc.lft.to/lastmile_qr_scan", "android": "https://dc.lft.to/lastmile_qr_scan"}, "lon": -77.00774033333333, "type": "electric_scooter", "fusion_lat": 0.0, "lat": 38.9064505, "name": "b89ef251fb360b0c6200e4db8cd2ed39", "fusion_lon": 0.0, "bike_id": "b89ef251fb360b0c6200e4db8cd2ed39", "is_disabled": 0, "is_reserved": 0}, {"rental_uris": {"ios": "https://dc.lft.to/lastmile_qr_scan", "android": "https://dc.lft.to/lastmile_qr_scan"},