{"data": {"bikes": [{"rental_uris": {"ios": "https://dc.lft.to/lastmile_qr_scan", "android": "https://dc.lft.to/lastmile_qr_scan"}, "lon": -77.027235, "type": "electric_scooter", "fusion_lat": 0.0, "lat": 38.89928616666667, "name": "b21a446bf71f74c689bf3127f5d7a91a", "fusion_lon": 0.0, "bike_id": "b21a446bf71f74c689bf3127f5d7a91a", "is_disabled": 0, "is_reserved": 0}, {"rental_uris": {"ios": "https://dc.lft.to/lastmile_qr_scan", "android": "https://dc.lft.to/lastmile_qr_scan"}, "lon": -77.04460683333333, "type": "electric_scooter", "fusion_lat": 0.0, "lat": 38.91879216666667, "name": "661cd559b01916475f26e54f007298d1", "fusion_lon": 0.0, "bike_id": "661cd559b01916475f26e54f007298d1", "is_disabled": 0, "is_reserved": 0}, {"rental_uris": {"ios": "https://dc.lft.to/lastmile_qr_scan", "android": "https://dc.lft.to/lastmile_qr_scan"}, "lon": -77.03414033333334, "type": "electric_scooter", "fusion_lat": 0.0, "lat": 38.92317283333333, "name": "74fe04a27d8a6c45956988bf67ced627", "fusion_lon": 0.0, "bike_id": "74fe04a27d8a6c45956988bf67ced627", "is_disabled": 0, "is_reserved": 0}, {"rental_uris": {"ios": "https://dc.lft.to/lastmile_qr_scan", "android": "https://dc.lft.to/lastmile_qr_scan"}, "lon": -77.04192766666667, "type": "electric_scooter", "fusion_lat": 0.0, "lat": 38.92047683333333, "name": "78419bca02ad117f9a0862f8657c2081", "fusion_lon": 0.0, "bike_id": "78419bca02ad117f9a0862f8657c2081", "is_disabled": 0, "is_reserved": 0}, {"rental_uris": {"ios": "https://dc.lft.to/lastmile_qr_scan", "android": "https://dc.lft.to/lastmile_qr_scan"}, "lon": -77.0807185, "type": "electric_scooter", "fusion_lat": 0.0, "lat": 38.959132333333336, "name": "9e779712b36d4a9121c5c7384d1fcfd5", "fusion_lon": 0.0, "bike_id": "9e779712b36d4a9121c5c7384d1fcfd5", "is_disabled": 0, "is_reserved": 0}, {"rental_uris": {"ios": "https://dc.lft.to/lastmile_qr_scan", "android": "https://dc.lft.to/lastmile_qr_scan"}, "lon": -77.01128466666667, "type": "electric_scooter", "fusion_lat": 0.0, "lat": 38.89541966666667, "name": "d00b86061c541c1f29b00af55fdd0d84", "fusion_lon": 0.0, "bike_id": "d00b86061c541c1f29b00af55fdd0d84", "is_disabled": 0, "is_reserved": 0}, {"rental_uris": {"ios": "https://dc.lft.to/lastmile_qr_scan", "android": "https://dc.lft.to/lastmile_qr_scan"}, "lon": -77.01792666666667, "type": "electric_scooter", "fusion_lat": 0.0, "lat": 38.90823266666666, "name": "278371da13cd158127311b252613e383", "fusion_lon": 0.0, "bike_id": "278371da13cd158127311b252613e383", "is_disabled": 0, "is_reserved": 0}, {"rental_uris": {"ios": "https://dc.lft.to/lastmile_qr_scan", "android": "https://dc.lft.to/lastmile_qr_scan"}, "lon": -76.94653116666667, "type": "electric_scooter", "fusion_lat": 0.0, "lat": 38.8982745, "name": "eb5877012c723e91765dae31e9772fca", "fusion_lon": 0.0, "bike_id": "eb5877012c723e91765dae31e9772fca", "is_disabled": 0, "is_reserved": 0}, {"rental_uris": {"ios": "https://dc.lft.to/lastmile_qr_scan", "android": "https://dc.lft.to/lastmile_qr_scan"}, "lon": -77.0337705, "type": "electric_scooter", "fusion_lat": 0.0, "lat": 38.90629883333333, "name": "01c01e9657142491c980df280e2c4341", "fusion_lon": 0.0, "bike_id": "01c01e9657142491c980df280e2c4341", "is_disabled": 0, "is_reserved": 0}, {"rental_uris": {"ios": "https://dc.lft.to/lastmile_qr_scan", "android": "https://dc.lft.to/lastmile_qr_scan"}, "lon": -77.029774, "type": "electric_scooter", "fusion_lat": 0.0, "lat": 38.900537166666666, "name": "c99e98123c540991ded3735950e1ce7c", "fusion_lon": 0.0, "bike_id": "c99e98123c540991ded3735950e1ce7c", "is_disabled": 0, "is_reserved": 0}, {"rental_uris": {"ios": "https://dc.lft.to/lastmile_qr_scan", "android": "https://dc.lft.to/lastmile_qr_scan"}, "lon": -76.97670683333334, "type": "electric_bike", "fusion_lat": 0.0, "lat": 38.966247333333335, "name": "35ff477862b00c3c229051999fc84d10", "fusion_lon": 0.0, "bike_id": "35ff477862b00c3c229051999fc84d10", "is_disabled": 0, "is_reserved": 0}, {"rental_uris": {"ios": "https://dc.lft.to/lastmile_qr_scan", "android": "https://dc.lft.to/lastmile_qr_scan"}, "lon": -77.03198483333334, "type": "electric_scooter", "fusion_lat": 0.0, "lat": 38.90984783333333, "name": "b57580cc6b1562ec75e97883d91b6319", "fusion_lon": 0.0, "bike_id": "b57580cc6b1562ec75e97883d91b6319", "is_disabled": 0, "is_reserved": 0}, {"rental_uris": {"ios": "https://dc.lft.to/lastmile_qr_scan", "android": "https://dc.lft.to/lastmile_qr_scan"}, "lon": -77.01131216666667, "type": "electric_scooter", "fusion_lat": 0.0, "lat": 38.912630166666666, "name": "c9807f03a874f043963ed3aeae9759f4", "fusion_lon": 0.0, "bike_id": "c9807f03a874f043963ed3aeae9759f4", "is_disabled": 0, "is_reserved": 0}, {"rental_uris": {"ios": "https://dc.lft.to/lastmile_qr_scan", "android": "https://dc.lft.to/lastmile_qr_scan"}, "lon": -76.94442233333334, "type": "electric_bike", "fusion_lat": 0.0, "lat": 38.90297433333333, "name": "d867ad3267e34944d3e61859a4b670d4", "fusion_lon": 0.0, "bike_id": "d867ad3267e34944d3e61859a4b670d4", "is_disabled": 0, "is_reserved": 0}, {"rental_uris": {"ios": "https://dc.lft.to/lastmile_qr_scan", "android": "https://dc.lft.to/lastmile_qr_scan"}, "lon": -77.04184283333333, "type": "electric_scooter", "fusion_lat": 0.0, "lat": 38.920522, "name": "4f44145b7b27b52604b7451f64209c3d", "fusion_lon": 0.0, "bike_id": "4f44145b7b27b52604b7451f64209c3d", "is_disabled": 0, "is_reserved": 0}, {"rental_uris": {"ios": "https://dc.lft.to/lastmile_qr_scan", "android": "https://dc.lft.to/lastmile_qr_scan"}, "lon": -77.03214866666667, "type": "electric_scooter", "fusion_lat": 0.0, "lat": 38.933816, "name": "805a052e4b0873014c413c70200fa6f5", "fusion_lon": 0.0, "bike_id": "805a052e4b0873014c413c70200fa6f5", "is_disabled": 0, "is_reserved": 0}, {"rental_uris": {"ios": "https://dc.lft.to/lastmile_qr_scan", "android": "https://dc.lft.to/lastmile_qr_scan"}, "lon": -76.9721705, "type": "electric_bike", "fusion_lat": 0.0, "lat": 38.84479066666667, "name": "2f345de15bb1704af1ce50b407e654da", "fusion_lon": 0.0, "bike_id": "2f345de15bb1704af1ce50b407e654da", "is_disabled": 0, "is_reserved": 0}, {"rental_uris": {"ios": "https://dc.lft.to/lastmile_qr_scan", "android": "https://dc.lft.to/lastmile_qr_scan"}, "lon": -76.98188833333333, "type": "electric_scooter", "fusion_lat": 0.0, "lat": 38.8957945, "name": "1a76ea54535986253a6d01b506c97580", "fusion_lon": 0.0, "bike_id": "1a76ea54535986253a6d01b506c97580", "is_disabled": 0, "is_reserved": 0}, {"rental_uris": {"ios": "https://dc.lft.to/lastmile_qr_scan", "android": "https://dc.lft.to/lastmile_qr_scan"}, "lon": -77.04406966666667, "type": "electric_scooter", "fusion_lat": 0.0, "lat": 38.92017333333333, "name": "72d7d38eb9a9cef45d8f0d87450ef9cd", "fusion_lon": 0.0, "bike_id": "72d7d38eb9a9cef45d8f0d87450ef9cd", "is_disabled": 0, "is_reserved": 0}, {"rental_uris": {"ios": "https://dc.lft.to/lastmile_qr_scan", "android": "https://dc.lft.to/lastmile_qr_scan"}, "lon": -77.03498233333333, "type": "electric_scooter", "fusion_lat": 0.0, "lat": 38.91692416666667, "name": "172d2bba199c49b870cbdf73657407a5", "fusion_lon": 0.0, "bike_id": "172d2bba199c49b870cbdf73657407a5", "is_disabled": 0, "is_reserved": 0}, {"rental_uris": {"ios": "https://dc.lft.to/lastmile_qr_scan", "android": "https://dc.lft.to/lastmile_qr_scan"}, "lon": -77.01307066666666, "type": "electric_scooter", "fusion_lat": 0.0, "lat": 38.9212485, "name": "9197b7a58c3e93c49b19200b73e82860", "fusion_lon": 0.0, "bike_id": "9197b7a58c3e93c49b19200b73e82860", "is_disabled": 0, "is_reserved": 0}, {"rental_uris": {"ios": "https://dc.lft.to/lastmile_qr_scan", "android": "https://dc.lft.to/lastmile_qr_scan"}, "lon": -77.023571, "type": "electric_scooter", "fusion_lat": 0.0, "lat": 38.925044166666666, "name": "813e99cb460dd3df18b412e84893eb7e", "fusion_lon": 0.0, "bike_id": "813e99cb460dd3df18b412e84893eb7e", "is_disabled": 0, "is_reserved": 0}, {"rental_uris": {"ios": "https://dc.lft.to/lastmile_qr_scan", "android": "https://dc.lft.to/lastmile_qr_scan"}, "lon": -77.03678433333333, "type": "electric_scooter", "fusion_lat": 0.0, "lat": 38.93928233333333, "name": "cf4c3abe2224f980d3627dc4191e7778", "fusion_lon": 0.0, "bike_id": "cf4c3abe2224f980d3627dc4191e7778", "is_disabled": 0, "is_reserved": 0}, {"rental_uris": {"ios": "https://dc.lft.to/lastmile_qr_scan", "android": "https://dc.lft.to/lastmile_qr_scan"}, "lon": -77.03302483333333, "type": "electric_scooter", "fusion_lat": 0.0, "lat": 38.918068833333336, "name": "d325c62712545bdc24c8223d9ae23bf4", "fusion_lon": 0.0, "bike_id": "d325c62712545bdc24c8223d9ae23bf4", "is_disabled": 0, "is_reserved": 0}, {"rental_uris": {"ios": "https://dc.lft.to/lastmile_qr_scan", "android": "https://dc.lft.to/lastmile_qr_scan"}, "lon": -77.02734983333333, "type": "electric_scooter", "fusion_lat": 0.0, "lat": 38.91694066666667, "name": "611eb4d5dcbc792de2796c661ff7972c", "fusion_lon": 0.0, "bike_id": "611eb4d5dcbc792de2796c661ff7972c", "is_disabled": 0, "is_reserved": 0}, {"rental_uris": {"ios": "https://dc.lft.to/lastmile_qr_scan", "android": "https://dc.lft.to/lastmile_qr_scan"}, "lon": -77.02402183333334, "type": "electric_scooter", "fusion_lat": 0.0, "lat": 38.93500366666667, "name": "e1e510c70cfd870f100d6b1a6d68127e", "fusion_lon": 0.0, "bike_id": "e1e510c70cfd870f100d6b1a6d68127e", "is_disabled": 0, "is_reserved": 0}, {"rental_uris": {"ios": "https://dc.lft.to/lastmile_qr_scan", "android": "https://dc.lft.to/lastmile_qr_scan"}, "lon": -76.909387, "type": "electric_bike", "fusion_lat": 0.0, "lat": 38.85416266666667, "name": "b678366fd00e866a6eca6e67dfa026a4", "fusion_lon": 0.0, "bike_id": "b678366fd00e866a6eca6e67dfa026a4", "is_disabled": 0, "is_reserved": 0}, {"rental_uris": {"ios": "https://dc.lft.to/lastmile_qr_scan", "android": "https://dc.lft.to/lastmile_qr_scan"}, "lon": -77.035044, "type": "electric_scooter", "fusion_lat": 0.0, "lat": 38.9187205, "name": "0da8012e20325d848a542f3127cf4923", "fusion_lon": 0.0, "bike_id": "0da8012e20325d848a542f3127cf4923", "is_disabled": 0, "is_reserved": 0}, {"rental_uris": {"ios": "https://dc.lft.to/lastmile_qr_scan", "android": "https://dc.lft.to/lastmile_qr_scan"}, "lon": -76.94891533333333, "type": "electric_scooter", "fusion_lat": 0.0, "lat": 38.89529016666667, "name": "05ccd47ea19ebfe015d3d86e25759cab", "fusion_lon": 0.0, "bike_id": "05ccd47ea19ebfe015d3d86e25759cab", "is_disabled": 0, "is_reserved": 0}, {"rental_uris": {"ios": "https://dc.lft.to/lastmile_qr_scan", "android": "https://dc.lft.to/lastmile_qr_scan"}, "lon": -77.005565, "type": "electric_scooter", "fusion_lat": 0.0, "lat": 38.90572916666667, "name": "2cac4099b73857bf2f0a9b03461b19ef", "fusion_lon": 0.0, "bike_id": "2cac4099b73857bf2f0a9b03461b19ef", "is_disabled": 0, "is_reserved": 0}, {"rental_uris": {"ios": "https://dc.lft.to/lastmile_qr_scan", "android": "https://dc.lft.to/lastmile_qr_scan"}, "lon": -77.02756966666666, "type": "electric_scooter", "fusion_lat": 0.0, "lat": 38.971509, "name": "3e55279dfa99389cb9de0369c7095e47", "fusion_lon": 0.0, "bike_id": "3e55279dfa99389cb9de0369c7095e47", "is_disabled": 0, "is_reserved": 0}, {"rental_uris": {"ios": "https://dc.lft.to/lastmile_qr_scan", "android": "https://dc.lft.to/lastmile_qr_scan"}, "lon": -77.04192433333333, "type": "electric_scooter", "fusion_lat": 0.0, "lat": 38.922041666666665, "name": "ecce8120ce627b699486e273607efc57", "fusion_lon": 0.0, "bike_id": "ecce8120ce627b699486e273607efc57", "is_disabled": 0, "is_reserved": 0}, {"rental_uris": {"ios": "https://dc.lft.to/lastmile_qr_scan", "android": "https://dc.lft.to/lastmile_qr_scan"}, "lon": -77.0531745, "type": "electric_scooter", "fusion_lat": 0.0, "lat": 38.901609, "name": "4c664090ce7fa7ae46c6a863d988b527", "fusion_lon": 0.0, "bike_id": "4c664090ce7fa7ae46c6a863d988b527", "is_disabled": 0, "is_reserved": 0}, {"rental_uris": {"ios": "https://dc.lft.to/lastmile_qr_scan", "android": "https://dc.lft.to/lastmile_qr_scan"}, "lon": -77.05047416666666, "type": "electric_scooter", "fusion_lat": 0.0, "lat": 38.92360083333333, "name": "ff72efae3dbad0a325bf4355c2e84bf3", "fusion_lon": 0.0, "bike_id": "ff72efae3dbad0a325bf4355c2e84bf3", "is_disabled": 0, "is_reserved": 0}, {"rental_uris": {"ios": "https://dc.lft.to/lastmile_qr_scan", "android": "https://dc.lft.to/lastmile_qr_scan"}, "lon": -76.93238366666667, "type": "electric_bike", "fusion_lat": 0.0, "lat": 38.882780333333336, "name": "33f855305e06b47732ff09857a3a4a97", "fusion_lon": 0.0, "bike_id": "33f855305e06b47732ff09857a3a4a97", "is_disabled": 0, "is_reserved": 0}, {"rental_uris": {"ios": "https://dc.lft.to/lastmile_qr_scan", "android": "https://dc.lft.to/lastmile_qr_scan"}, "lon": -76.9961515, "type": "electric_scooter", "fusion_lat": 0.0, "lat": 38.89748266666667, "name": "9861cc104a406b921260445c67dae4aa", "fusion_lon": 0.0, "bike_id": "9861cc104a406b921260445c67dae4aa", "is_disabled": 0, "is_reserved": 0}, {"rental_uris": {"ios": "https://dc.lft.to/lastmile_qr_scan", "android": "https://dc.lft.to/lastmile_qr_scan"}, "lon": -77.03659483333334, "type": "electric_scooter", "fusion_lat": 0.0, "lat": 38.921178, "name": "2ab1a9d5a54fef6fc143f1b707da835d", "fusion_lon": 0.0, "bike_id": "2ab1a9d5a54fef6fc143f1b707da835d", "is_disabled": 0, "is_reserved": 0}, {"rental_uris": {"ios": "https://dc.lft.to/lastmile_qr_scan", "android": "https://dc.lft.to/lastmile_qr_scan"}, "lon": -76.9821225, "type": "electric_scooter", "fusion_lat": 0.0, "lat": 38.8908635, "name": "0b149b9e5656f5581798246de1e1e8d5", "fusion_lon": 0.0, "bike_id": "0b149b9e5656f5581798246de1e1e8d5", "is_disabled": 0, "is_reserved": 0}, {"rental_uris": {"ios": "https://dc.lft.to/lastmile_qr_scan", "android": "https://dc.lft.to/lastmile_qr_scan"}, "lon": -77.070986, "type": "electric_scooter", "fusion_lat": 0.0, "lat": 38.93365033333333, "name": "9b8b23db8cf515be2c66c288e8bebd55", "fusion_lon": 0.0, "bike_id": "9b8b23db8cf515be2c66c288e8bebd55", "is_disabled": 0, "is_reserved": 0}, {"rental_uris": {"ios": "https://dc.lft.to/lastmile_qr_scan", "android": "https://dc.lft.to/lastmile_qr_scan"}, "lon": -77.02372283333334, "type": "electric_scooter", "fusion_lat": 0.0, "lat": 38.935526833333334, "name": "17928175d52cc1573b6c0c6fee47b12e", "fusion_lon": 0.0, "bike_id": "17928175d52cc1573b6c0c6fee47b12e", "is_disabled": 0, "is_reserved": 0}, {"rental_uris": {"ios": "https://dc.lft.to/lastmile_qr_scan", "android": "https://dc.lft.to/lastmile_qr_scan"}, "lon": -77.054992, "type": "electric_scooter", "fusion_lat": 0.0, "lat": 38.92967183333333, "name": "447a7f5cbcf0687734ec1b83da893884", "fusion_lon": 0.0, "bike_id": "447a7f5cbcf0687734ec1b83da893884", "is_disabled": 0, "is_reserved": 0}, {"rental_uris": {"ios": "https://dc.lft.to/lastmile_qr_scan", "android": "https://dc.lft.to/lastmile_qr_scan"}, "lon": -77.032241, "type": "electric_scooter", "fusion_lat": 0.0, "lat": 38.920687666666666, "name": "4d1905c8786c97b6b128f8f46943ad7c", "fusion_lon": 0.0, "bike_id": "4d1905c8786c97b6b128f8f46943ad7c", "is_disabled": 0, "is_reserved": 0}, {"rental_uris": {"ios": "https://dc.lft.to/lastmile_qr_scan", "android": "https://dc.lft.to/lastmile_qr_scan"}, "lon": -77.03661966666667, "type": "electric_scooter", "fusion_lat": 0.0, "lat": 38.9030935, "name": "1bce00ef760f81045a613786544b1116", "fusion_lon": 0.0, "bike_id": "1bce00ef760f81045a613786544b1116", "is_disabled": 0, "is_reserved": 0}, {"rental_uris": {"ios": "https://dc.lft.to/lastmile_qr_scan", "android": "https://dc.lft.to/lastmile_qr_scan"}, "lon": -77.05208233333333, "type": "electric_scooter", "fusion_lat": 0.0, "lat": 38.9243385, "name": "e1f077e099128c5aeaf028d69274236f", "fusion_lon": 0.0, "bike_id": "e1f077e099128c5aeaf028d69274236f", "is_disabled": 0, "is_reserved": 0}, {"rental_uris": {"ios": "https://dc.lft.to/lastmile_qr_scan", "android": "https://dc.lft.to/lastmile_qr_scan"}, "lon": -77.02719916666666, "type": "electric_scooter", "fusion_lat": 0.0, "lat": 38.909069, "name": "bd52d04732fc55d1e9610af81bd84612", "fusion_lon": 0.0, "bike_id": "bd52d04732fc55d1e9610af81bd84612", "is_disabled": 0, "is_reserved": 0}, {"rental_uris": {"ios": "https://dc.lft.to/lastmile_qr_scan", "android": "https://dc.lft.to/lastmile_qr_scan"}, "lon": -77.00367666666666, "type": "electric_scooter", "fusion_lat": 0.0, "lat": 38.838027833333335, "name": "a208328c911cb5db519f4af5870b8924", "fusion_lon": 0.0, "bike_id": "a208328c911cb5db519f4af5870b8924", "is_disabled": 0, "is_reserved": 0}, {"rental_uris": {"ios": "https://dc.lft.to/lastmile_qr_scan", "android": "https://dc.lft.to/lastmile_qr_scan"}, "lon": -77.03893283333333, "type": "electric_scooter", "fusion_lat": 0.0, "lat": 38.9439455, "name": "b37e3a9a9beaee9c48cad4b9e0ed2b18", "fusion_lon": 0.0, "bike_id": "b37e3a9a9beaee9c48cad4b9e0ed2b18", "is_disabled": 0, "is_reserved": 0}, {"rental_uris": {"ios": "https://dc.lft.to/lastmile_qr_scan", "android": "https://dc.lft.to/lastmile_qr_scan"}, "lon": -76.94141, "type": "electric_scooter", "fusion_lat": 0.0, "lat": 38.89679066666667, "name": "e6f8820900c90807215633bbc039943a", "fusion_lon": 0.0, "bike_id": "e6f8820900c90807215633bbc039943a", "is_disabled": 0, "is_reserved": 0}, {"rental_uris": {"ios": "https://dc.lft.to/lastmile_qr_scan", "android": "https://dc.lft.to/lastmile_qr_scan"}, "lon": -77.02780366666667, "type": "electric_scooter", "fusion_lat": 0.0, "lat": 38.961483, "name": "744d2652d4248773ed54784f208157d3", "fusion_lon": 0.0, "bike_id": "744d2652d4248773ed54784f208157d3", "is_disabled": 0, "is_reserved": 0}, {"rental_uris": {"ios": "https://dc.lft.to/lastmile_qr_scan", "android": "https://dc.lft.to/lastmile_qr_scan"}, "lon": -77.0289, "type": "electric_scooter", "fusion_lat": 0.0, "lat": 38.907217333333335, "name": "9f5065b95febf761c24968a788d64966", "fusion_lon": 0.0, "bike_id": "9f5065b95febf761c24968a788d64966", "is_disabled": 0, "is_reserved": 0}, {"rental_uris": {"ios": "https://dc.lft.to/lastmile_qr_scan", "android": "https://dc.lft.to/lastmile_qr_scan"}, "lon": -77.09551183333333, "type": "electric_bike", "fusion_lat": 0.0, "lat": 38.83732216666667, "name": "ef13d9c8e3cbaaf9aaaf0629ade4939e", "fusion_lon": 0.0, "bike_id": "ef13d9c8e3cbaaf9aaaf0629ade4939e", "is_disabled": 0, "is_reserved": 0}, {"rental_uris": {"ios": "https://dc.lft.to/lastmile_qr_scan", "android": "https://dc.lft.to/lastmile_qr_scan"}, "lon": -77.00378866666667, "type": "electric_bike", "fusion_lat": 0.0, "lat": 38.836026, "name": "ad36d2e1744463953a5b6ea38ef8c5bb", "fusion_lon": 0.0, "bike_id": "ad36d2e1744463953a5b6ea38ef8c5bb", "is_disabled": 0, "is_reserved": 0}, {"rental_uris": {"ios": "https://dc.lft.to/lastmile_qr_scan", "android": "https://dc.lft.to/lastmile_qr_scan"}, "lon": -77.05320183333333, "type": "electric_scooter", "fusion_lat": 0.0, "lat": 38.90470066666666, "name": "9b6a6472ba830a12d143a5494e4c62e0", "fusion_lon": 0.0, "bike_id": "9b6a6472ba830a12d143a5494e4c62e0", "is_disabled": 0, "is_reserved": 0}, {"rental_uris": {"ios": "https://dc.lft.to/lastmile_qr_scan", "android": "https://dc.lft.to/lastmile_qr_scan"}, "lon": -76.93159583333333, "type": "electric_bike", "fusion_lat": 0.0, "lat": 38.908643833333336, "name": "a43839bc659826ead97ae90401eb6730", "fusion_lon": 0.0, "bike_id": "a43839bc659826ead97ae90401eb6730", "is_disabled": 0, "is_reserved": 0}, {"rental_uris": {"ios": "https://dc.lft.to/lastmile_qr_scan", "android": "https://dc.lft.to/lastmile_qr_scan"}, "lon": -76.99061033333334, "type": "electric_scooter", "fusion_lat": 0.0, "lat": 38.86353316666667, "name": "5d8feeb3e492199eb692aac4226a08ca", "fusion_lon": 0.0, "bike_id": "5d8feeb3e492199eb692aac4226a08ca", "is_disabled": 0, "is_reserved": 0}, {"rental_uris": {"ios": "https://dc.lft.to/lastmile_qr_scan", "android": "https://dc.lft.to/lastmile_qr_scan"}, "lon": -77.02593666666667, "type": "electric_scooter", "fusion_lat": 0.0, "lat": 38.92984766666667, "name": "c9229be2d937e65b6a94036ae4770a9a", "fusion_lon": 0.0, "bike_id": "c9229be2d937e65b6a94036ae4770a9a", "is_disabled": 0, "is_reserved": 0}, {"rental_uris": {"ios": "https://dc.lft.to/lastmile_qr_scan", "android": "https://dc.lft.to/lastmile_qr_scan"}, "lon": -77.02825266666666, "type": "electric_scooter", "fusion_lat": 0.0, "lat": 38.911183, "name": "d55a436031a321199bb2d437cd93719f", "fusion_lon": 0.0, "bike_id": "d55a436031a321199bb2d437cd93719f", "is_disabled": 0, "is_reserved": 0}, {"rental_uris": {"ios": "https://dc.lft.to/lastmile_qr_scan", "android": "https://dc.lft.to/lastmile_qr_scan"}, "lon": -76.946346, "type": "electric_scooter", "fusion_lat": 0.0, "lat": 38.89831733333333, "name": "191d2881824fda71288e6af15a87d395", "fusion_lon": 0.0, "bike_id": "191d2881824fda71288e6af15a87d395", "is_disabled": 0, "is_reserved": 0}, {"rental_uris": {"ios": "https://dc.lft.to/lastmile_qr_scan", "android": "https://dc.lft.to/lastmile_qr_scan"}, "lon": -77.04551183333334, "type": "electric_scooter", "fusion_lat": 0.0, "lat": 38.934081166666665, "name": "0d3942493c206113091e29fb234dec9d", "fusion_lon": 0.0, "bike_id": "0d3942493c206113091e29fb234dec9d", "is_disabled": 0, "is_reserved": 0}, {"rental_uris": {"ios": "https://dc.lft.to/lastmile_qr_scan", "android": "https://dc.lft.to/lastmile_qr_scan"}, "lon": -77.03287916666666, "type": "electric_scooter", "fusion_lat": 0.0, "lat": 38.923522166666665, "name": "faae4aaf9739a660fd552f0ef519dd1d", "fusion_lon": 0.0, "bike_id": "faae4aaf9739a660fd552f0ef519dd1d", "is_disabled": 0, "is_reserved": 0}, {"rental_uris": {"ios": "https://dc.lft.to/lastmile_qr_scan", "android": "https://dc.lft.to/lastmile_qr_scan"}, "lon": -77.044795, "type": "electric_scooter", "fusion_lat": 0.0, "lat": 38.908732, "name": "d145764bbe48023c5a593b89cd8172b3", "fusion_lon": 0.0, "bike_id": "d145764bbe48023c5a593b89cd8172b3", "is_disabled": 0, "is_reserved": 0}, {"rental_uris": {"ios": "https://dc.lft.to/lastmile_qr_scan", "android": "https://dc.lft.to/lastmile_qr_scan"}, "lon": -77.000964, "type": "electric_scooter", "fusion_lat": 0.0, "lat": 38.90850366666667, "name": "85e09b093c8a7403e9ebafc1f851bb4f", "fusion_lon": 0.0, "bike_id": "85e09b093c8a7403e9ebafc1f851bb4f", "is_disabled": 0, "is_reserved": 0}, {"rental_uris": {"ios": "https://dc.lft.to/lastmile_qr_scan", "android": "https://dc.lft.to/lastmile_qr_scan"}, "lon": -77.044392, "type": "electric_scooter", "fusion_lat": 0.0, "lat": 38.910151166666665, "name": "da7d9931956dec59ae70f1523518a559", "fusion_lon": 0.0, "bike_id": "da7d9931956dec59ae70f1523518a559", "is_disabled": 0, "is_reserved": 0}, {"rental_uris": {"ios": "https://dc.lft.to/lastmile_qr_scan", "android": "https://dc.lft.to/lastmile_qr_scan"}, "lon": -77.10459883333333, "type": "electric_bike", "fusion_lat": 0.0, "lat": 38.89635833333333, "name": "8209b438c5e0e9b61b70dd2abbbe7f49", "fusion_lon": 0.0, "bike_id": "8209b438c5e0e9b61b70dd2abbbe7f49", "is_disabled": 0, "is_reserved": 0}, {"rental_uris": {"ios": "https://dc.lft.to/lastmile_qr_scan", "android": "https://dc.lft.to/lastmile_qr_scan"}, "lon": -77.02861, "type": "electric_scooter", "fusion_lat": 0.0, "lat": 38.92819033333333, "name": "c9d0dbf91429676a6614e5b77efbc0e5", "fusion_lon": 0.0, "bike_id": "c9d0dbf91429676a6614e5b77efbc0e5", "is_disabled": 0, "is_reserved": 0}, {"rental_uris": {"ios": "https://dc.lft.to/lastmile_qr_scan", "android": "https://dc.lft.to/lastmile_qr_scan"}, "lon": -77.04140916666667, "type": "electric_bike", "fusion_lat": 0.0, "lat": 38.91686883333333, "name": "26beaade5d107d4790a8bf017540823d", "fusion_lon": 0.0, "bike_id": "26beaade5d107d4790a8bf017540823d", "is_disabled": 0, "is_reserved": 0}, {"rental_uris": {"ios": "https://dc.lft.to/lastmile_qr_scan", "android": "https://dc.lft.to/lastmile_qr_scan"}, "lon": -77.02358416666667, "type": "electric_scooter", "fusion_lat": 0.0, "lat": 38.92504116666667, "name": "5bc9732411ae21103919fb296f5be485", "fusion_lon": 0.0, "bike_id": "5bc9732411ae21103919fb296f5be485", "is_disabled": 0, "is_reserved": 0}, {"rental_uris": {"ios": "https://dc.lft.to/lastmile_qr_scan", "android": "https://dc.lft.to/lastmile_qr_scan"}, "lon": -77.01708783333333, "type": "electric_scooter", "fusion_lat": 0.0, "lat": 38.92029983333333, "name": "4a63bf113cf65877fd98a8c7ea3e9bbc", "fusion_lon": 0.0, "bike_id": "4a63bf113cf65877fd98a8c7ea3e9bbc", "is_disabled": 0, "is_reserved": 0}, {"rental_uris": {"ios": "https://dc.lft.to/lastmile_qr_scan", "android": "https://dc.lft.to/lastmile_qr_scan"}, "lon": -77.02243466666667, "type": "electric_scooter", "fusion_lat": 0.0, "lat": 38.9247575, "name": "f155ec8091f80a6c1e7abe6c303cf6fb", "fusion_lon": 0.0, "bike_id": "f155ec8091f80a6c1e7abe6c303cf6fb", "is_disabled": 0, "is_reserved": 0}, {"rental_uris": {"ios": "https://dc.lft.to/lastmile_qr_scan", "android": "https://dc.lft.to/lastmile_qr_scan"}, "lon": -77.03343783333334, "type": "electric_scooter", "fusion_lat": 0.0, "lat": 38.934180166666664, "name": "b83b316508a633636a8cfa96e0dcadf8", "fusion_lon": 0.0, "bike_id": "b83b316508a633636a8cfa96e0dcadf8", "is_disabled": 0, "is_reserved": 0}, {"rental_uris": {"ios": "https://dc.lft.to/lastmile_qr_scan", "android": "https://dc.lft.to/lastmile_qr_scan"}, "lon": -77.03544983333333, "type": "electric_scooter", "fusion_lat": 0.0, "lat": 38.93281983333333, "name": "c474698eedfbe4809ebc36a94de614aa", "fusion_lon": 0.0, "bike_id": "c474698eedfbe4809ebc36a94de614aa", "is_disabled": 0, "is_reserved": 0}, {"rental_uris": {"ios": "https://dc.lft.to/lastmile_qr_scan", "android": "https://dc.lft.to/lastmile_qr_scan"}, "lon": -77.04802383333333, "type": "electric_scooter", "fusion_lat": 0.0, "lat": 38.9203405, "name": "551aa896347ef80c707cd7d623379a2d", "fusion_lon": 0.0, "bike_id": "551aa896347ef80c707cd7d623379a2d", "is_disabled": 0, "is_reserved": 0}, {"rental_uris": {"ios": "https://dc.lft.to/lastmile_qr_scan", "android": "https://dc.lft.to/lastmile_qr_scan"}, "lon": -77.0129715, "type": "electric_scooter", "fusion_lat": 0.0, "lat": 38.90051733333333, "name": "dfbba1bce2008ca891f26df915a227d9", "fusion_lon": 0.0, "bike_id": "dfbba1bce2008ca891f26df915a227d9", "is_disabled": 0, "is_reserved": 0}, {"rental_uris": {"ios": "https://dc.lft.to/lastmile_qr_scan", "android": "https://dc.lft.to/lastmile_qr_scan"}, "lon": -77.03420583333333, "type": "electric_scooter", "fusion_lat": 0.0, "lat": 38.93539233333333, "name": "76cc38746758bd8c9d805f5fd1c5a005", "fusion_lon": 0.0, "bike_id": "76cc38746758bd8c9d805f5fd1c5a005", "is_disabled": 0, "is_reserved": 0}, {"rental_uris": {"ios": "https://dc.lft.to/lastmile_qr_scan", "android": "https://dc.lft.to/lastmile_qr_scan"}, "lon": -77.03670716666667, "type": "electric_scooter", "fusion_lat": 0.0, "lat": 38.917096, "name": "7517ebc58133769a6549cbcd11471ca7", "fusion_lon": 0.0, "bike_id": "7517ebc58133769a6549cbcd11471ca7", "is_disabled": 0, "is_reserved": 0}, {"rental_uris": {"ios": "https://dc.lft.to/lastmile_qr_scan", "android": "https://dc.lft.to/lastmile_qr_scan"}, "lon": -77.04229416666666, "type": "electric_scooter", "fusion_lat": 0.0, "lat": 38.90581983333333, "name": "7a589e32b28df97ab183a3dd3f0b8c55", "fusion_lon": 0.0, "bike_id": "7a589e32b28df97ab183a3dd3f0b8c55", "is_disabled": 0, "is_reserved": 0}, {"rental_uris": {"ios": "https://dc.lft.to/lastmile_qr_scan", "android": "https://dc.lft.to/lastmile_qr_scan"}, "lon": -77.0353365, "type": "electric_scooter", "fusion_lat": 0.0, "lat": 38.92333766666667, "name": "996bcfa7ca08b01d5a0416680261f4e8", "fusion_lon": 0.0, "bike_id": "996bcfa7ca08b01d5a0416680261f4e8", "is_disabled": 0, "is_reserved": 0}, {"rental_uris": {"ios": "https://dc.lft.to/lastmile_qr_scan", "android": "https://dc.lft.to/lastmile_qr_scan"}, "lon": -77.03958033333333, "type": "electric_scooter", "fusion_lat": 0.0, "lat": 38.91623666666667, "name": "42ceaf5481bb415ccbee6ef7e8bdde4e", "fusion_lon": 0.0, "bike_id": "42ceaf5481bb415ccbee6ef7e8bdde4e", "is_disabled": 0, "is_reserved": 0}, {"rental_uris": {"ios": "https://dc.lft.to/lastmile_qr_scan", "android": "https://dc.lft.to/lastmile_qr_scan"}, "lon": -76.990337, "type": "electric_scooter", "fusion_lat": 0.0, "lat": 38.85865666666667, "name": "46606999a51a38bdd10b7d3b3f9fe233", "fusion_lon": 0.0, "bike_id": "46606999a51a38bdd10b7d3b3f9fe233", "is_disabled": 0, "is_reserved": 0}, {"rental_uris": {"ios": "https://dc.lft.to/lastmile_qr_scan", "android": "https://dc.lft.to/lastmile_qr_scan"}, "lon": -77.00923083333333, "type": "electric_scooter", "fusion_lat": 0.0, "lat": 38.912409333333336, "name": "0ed2f1ecabe4a6bd8347a687be461782", "fusion_lon": 0.0, "bike_id": "0ed2f1ecabe4a6bd8347a687be461782", "is_disabled": 0, "is_reserved": 0}, {"rental_uris": {"ios": "https://dc.lft.to/lastmile_qr_scan", "android": "https://dc.lft.to/lastmile_qr_scan"}, "lon": -77.02974233333333, "type": "electric_scooter", "fusion_lat": 0.0, "lat": 38.90531083333333, "name": "375d5c616cd404a87c14776bbf1f7015", "fusion_lon": 0.0, "bike_id": "375d5c616cd404a87c14776bbf1f7015", "is_disabled": 0, "is_reserved": 0}, {"rental_uris": {"ios": "https://dc.lft.to/lastmile_qr_scan", "android": "https://dc.lft.to/lastmile_qr_scan"}, "lon": -77.02864583333333, "type": "electric_scooter", "fusion_lat": 0.0, "lat": 38.9238445, "name": "eafb09fc938071b2613e1a55e746d36c", "fusion_lon": 0.0, "bike_id": "eafb09fc938071b2613e1a55e746d36c", "is_disabled": 0, "is_reserved": 0}, {"rental_uris": {"ios": "https://dc.lft.to/lastmile_qr_scan", "android": "https://dc.lft.to/lastmile_qr_scan"}, "lon": -77.04711783333333, "type": "electric_scooter", "fusion_lat": 0.0, "lat": 38.908642, "name": "00926dba1b40d82c9cf25948cc44b954", "fusion_lon": 0.0, "bike_id": "00926dba1b40d82c9cf25948cc44b954", "is_disabled": 0, "is_reserved": 0}, {"rental_uris": {"ios": "https://dc.lft.to/lastmile_qr_scan", "android": "https://dc.lft.to/lastmile_qr_scan"}, "lon": -76.97613566666666, "type": "electric_bike", "fusion_lat": 0.0, "lat": 38.9131325, "name": "2aa306c5474da331baa6946103645629", "fusion_lon": 0.0, "bike_id": "2aa306c5474da331baa6946103645629", "is_disabled": 0, "is_reserved": 0}, {"rental_uris": {"ios": "https://dc.lft.to/lastmile_qr_scan", "android": "https://dc.lft.to/lastmile_qr_scan"}, "lon": -77.06598383333333, "type": "electric_bike", "fusion_lat": 0.0, "lat": 38.91133383333333, "name": "d928f414be53a35f3efed1d76efd7512", "fusion_lon": 0.0, "bike_id": "d928f414be53a35f3efed1d76efd7512", "is_disabled": 0, "is_reserved": 0}, {"rental_uris": {"ios": "https://dc.lft.to/lastmile_qr_scan", "android": "https://dc.lft.to/lastmile_qr_scan"}, "lon": -77.03866283333333, "type": "electric_scooter", "fusion_lat": 0.0, "lat": 38.91561733333333, "name": "535f24581fec64bf3b7f1a8f42826a01", "fusion_lon": 0.0, "bike_id": "535f24581fec64bf3b7f1a8f42826a01", "is_disabled": 0, "is_reserved": 0}, {"rental_uris": {"ios": "https://dc.lft.to/lastmile_qr_scan", "android": "https://dc.lft.to/lastmile_qr_scan"}, "lon": -77.06692666666666, "type": "electric_scooter", "fusion_lat": 0.0, "lat": 38.909731, "name": "595c12b5082ba9574637dcff1e4dbcd8", "fusion_lon": 0.0, "bike_id": "595c12b5082ba9574637dcff1e4dbcd8", "is_disabled": 0, "is_reserved": 0}, {"rental_uris": {"ios": "https://dc.lft.to/lastmile_qr_scan", "android": "https://dc.lft.to/lastmile_qr_scan"}, "lon": -77.03972716666667, "type": "electric_scooter", "fusion_lat": 0.0, "lat": 38.91978533333333, "name": "96c6c15f3e4b609877d4a37613ea5a40", "fusion_lon": 0.0, "bike_id": "96c6c15f3e4b609877d4a37613ea5a40", "is_disabled": 0, "is_reserved": 0}, {"rental_uris": {"ios": "https://dc.lft.to/lastmile_qr_scan", "android": "https://dc.lft.to/lastmile_qr_scan"}, "lon": -77.03426733333333, "type": "electric_scooter", "fusion_lat": 0.0, "lat": 38.919204666666666, "name": "2928f32eca172a285e30f473a65d7aef", "fusion_lon": 0.0, "bike_id": "2928f32eca172a285e30f473a65d7aef", "is_disabled": 0, "is_reserved": 0}, {"rental_uris": {"ios": "https://dc.lft.to/lastmile_qr_scan", "android": "https://dc.lft.to/lastmile_qr_scan"}, "lon": -77.0098845, "type": "electric_scooter", "fusion_lat": 0.0, "lat": 38.914869333333336, "name": "9018f50ef7962445a569694d8add95f9", "fusion_lon": 0.0, "bike_id": "9018f50ef7962445a569694d8add95f9", "is_disabled": 0, "is_reserved": 0}, {"rental_uris": {"ios": "https://dc.lft.to/lastmile_qr_scan", "android": "https://dc.lft.to/lastmile_qr_scan"}, "lon": -77.0318505, "type": "electric_scooter", "fusion_lat": 0.0, "lat": 38.92110566666667, "name": "cd4f290e352d7c8ec7f0431a49761961", "fusion_lon": 0.0, "bike_id": "cd4f290e352d7c8ec7f0431a49761961", "is_disabled": 0, "is_reserved": 0}, {"rental_uris": {"ios": "https://dc.lft.to/lastmile_qr_scan", "android": "https://dc.lft.to/lastmile_qr_scan"}, "lon": -76.928923, "type": "electric_scooter", "fusion_lat": 0.0, "lat": 38.8933255, "name": "84d42e17ddf6261939e650ee810bf5c2", "fusion_lon": 0.0, "bike_id": "84d42e17ddf6261939e650ee810bf5c2", "is_disabled": 0, "is_reserved": 0}, {"rental_uris": {"ios": "https://dc.lft.to/lastmile_qr_scan", "android": "https://dc.lft.to/lastmile_qr_scan"}, "lon": -77.01207133333334, "type": "electric_bike", "fusion_lat": 0.0, "lat": 38.870974833333335, "name": "2e37fa253234035b444aeb2867273c10", "fusion_lon": 0.0, "bike_id": "2e37fa253234035b444aeb2867273c10", "is_disabled": 0, "is_reserved": 0}, {"rental_uris": {"ios": "https://dc.lft.to/lastmile_qr_scan", "android": "https://dc.lft.to/lastmile_qr_scan"}, "lon": -77.0269865, "type": "electric_scooter", "fusion_lat": 0.0, "lat": 38.94980433333333, "name": "c9ec3a02746171ed585a84b47826c543", "fusion_lon": 0.0, "bike_id": "c9ec3a02746171ed585a84b47826c543", "is_disabled": 0, "is_reserved": 0}, {"rental_uris": {"ios": "https://dc.lft.to/lastmile_qr_scan", "android": "https://dc.lft.to/lastmile_qr_scan"}, "lon": -77.03176566666667, "type": "electric_scooter", "fusion_lat": 0.0, "lat": 38.89970183333333, "name": "96c1874f060a61817e4f90d2a38aef4e", "fusion_lon": 0.0, "bike_id": "96c1874f060a61817e4f90d2a38aef4e", "is_disabled": 0, "is_reserved": 0}, {"rental_uris": {"ios": "https://dc.lft.to/lastmile_qr_scan", "android": "https://dc.lft.to/lastmile_qr_scan"}, "lon": -77.04655483333333, "type": "electric_scooter", "fusion_lat": 0.0, "lat": 38.9055095, "name": "47dbe567807b7278eed986cafb0a914c", "fusion_lon": 0.0, "bike_id": "47dbe567807b7278eed986cafb0a914c", "is_disabled": 0, "is_reserved": 0}, {"rental_uris": {"ios": "https://dc.lft.to/lastmile_qr_scan", "android": "https://dc.lft.to/lastmile_qr_scan"}, "lon": -77.021015, "type": "electric_scooter", "fusion_lat": 0.0, "lat": 38.913085833333334, "name": "4ccd5a044097256cc6f0ba6eab92b30b", "fusion_lon": 0.0, "bike_id": "4ccd5a044097256cc6f0ba6eab92b30b", "is_disabled": 0, "is_reserved": 0}, {"rental_uris": {"ios": "https://dc.lft.to/lastmile_qr_scan", "android": "https://dc.lft.to/lastmile_qr_scan"}, "lon": -77.01054933333333, "type": "electric_scooter", "fusion_lat": 0.0, "lat": 38.87933, "name": "8925ae13d5e94f8995b3b725658657ef", "fusion_lon": 0.0, "bike_id": "8925ae13d5e94f8995b3b725658657ef", "is_disabled": 0, "is_reserved": 0}, {"rental_uris": {"ios": "https://dc.lft.to/lastmile_qr_scan", "android": "https://dc.lft.to/lastmile_qr_scan"}, "lon": -76.96627733333334, "type": "electric_bike", "fusion_lat": 0.0, "lat": 38.941975, "name": "d40ee418cc624628bcd64aeff912d602", "fusion_lon": 0.0, "bike_id": "d40ee418cc624628bcd64aeff912d602", "is_disabled": 0, "is_reserved": 0}, {"rental_uris": {"ios": "https://dc.lft.to/lastmile_qr_scan", "android": "https://dc.lft.to/lastmile_qr_scan"}, "lon": -77.03224983333334, "type": "electric_scooter", "fusion_lat": 0.0, "lat": 38.90865, "name": "2c430bf6609ac36db7a63e04a5524a1c", "fusion_lon": 0.0, "bike_id": "2c430bf6609ac36db7a63e04a5524a1c", "is_disabled": 0, "is_reserved": 0}, {"rental_uris": {"ios": "https://dc.lft.to/lastmile_qr_scan", "android": "https://dc.lft.to/lastmile_qr_scan"}, "lon": -77.03960083333334, "type": "electric_scooter", "fusion_lat": 0.0, "lat": 38.901273333333336, "name": "e3470ce64eea5eeff38759fdac2387bd", "fusion_lon": 0.0, "bike_id": "e3470ce64eea5eeff38759fdac2387bd", "is_disabled": 0, "is_reserved": 0}, {"rental_uris": {"ios": "https://dc.lft.to/lastmile_qr_scan", "android": "https://dc.lft.to/lastmile_qr_scan"}, "lon": -76.93175483333333, "type": "electric_scooter", "fusion_lat": 0.0, "lat": 38.898856, "name": "8eff22142f5cb1ccdd4a5cb84ee0805b", "fusion_lon": 0.0, "bike_id": "8eff22142f5cb1ccdd4a5cb84ee0805b", "is_disabled": 0, "is_reserved": 0}, {"rental_uris": {"ios": "https://dc.lft.to/lastmile_qr_scan", "android": "https://dc.lft.to/lastmile_qr_scan"}, "lon": -77.034633, "type": "electric_scooter", "fusion_lat": 0.0, "lat": 38.91827416666667, "name": "7de2bca7c1d99883a63a0a73a1f61ff5", "fusion_lon": 0.0, "bike_id": "7de2bca7c1d99883a63a0a73a1f61ff5", "is_disabled": 0, "is_reserved": 0}, {"rental_uris": {"ios": "https://dc.lft.to/lastmile_qr_scan", "android": "https://dc.lft.to/lastmile_qr_scan"}, "lon": -77.04988583333333, "type": "electric_scooter", "fusion_lat": 0.0, "lat": 38.9012625, "name": "ba7ffcb29e5df88ef4ed86cce629aa12", "fusion_lon": 0.0, "bike_id": "ba7ffcb29e5df88ef4ed86cce629aa12", "is_disabled": 0, "is_reserved": 0}, {"rental_uris": {"ios": "https://dc.lft.to/lastmile_qr_scan", "android": "https://dc.lft.to/lastmile_qr_scan"}, "lon": -77.03516916666666, "type": "electric_scooter", "fusion_lat": 0.0, "lat": 38.9233955, "name": "0cc9c1f5ce2861086a721ec9c4338a56", "fusion_lon": 0.0, "bike_id": "0cc9c1f5ce2861086a721ec9c4338a56", "is_disabled": 0, "is_reserved": 0}, {"rental_uris": {"ios": "https://dc.lft.to/lastmile_qr_scan", "android": "https://dc.lft.to/lastmile_qr_scan"}, "lon": -77.3531195, "type": "electric_bike", "fusion_lat": 0.0, "lat": 38.949999, "name": "e6e7ff65e5a6d96022f8633a74d0bda7", "fusion_lon": 0.0, "bike_id": "e6e7ff65e5a6d96022f8633a74d0bda7", "is_disabled": 0, "is_reserved": 0}, {"rental_uris": {"ios": "https://dc.lft.to/lastmile_qr_scan", "android": "https://dc.lft.to/lastmile_qr_scan"}, "lon": -77.032218, "type": "electric_scooter", "fusion_lat": 0.0, "lat": 38.92586516666667, "name": "881ef6494baab0acc2a8b912eac5d2e5", "fusion_lon": 0.0, "bike_id": "881ef6494baab0acc2a8b912eac5d2e5", "is_disabled": 0, "is_reserved": 0}, {"rental_uris": {"ios": "https://dc.lft.to/lastmile_qr_scan", "android": "https://dc.lft.to/lastmile_qr_scan"}, "lon": -76.9948165, "type": "electric_scooter", "fusion_lat": 0.0, "lat": 38.899581, "name": "6f21ae0cc9a7a84eac4f6bd16cecb163", "fusion_lon": 0.0, "bike_id": "6f21ae0cc9a7a84eac4f6bd16cecb163", "is_disabled": 0, "is_reserved": 0}, {"rental_uris": {"ios": "https://dc.lft.to/lastmile_qr_scan", "android": "https://dc.lft.to/lastmile_qr_scan"}, "lon": -76.98725816666666, "type": "electric_scooter", "fusion_lat": 0.0, "lat": 38.88414383333333, "name": "accfc8c19dfbde27542b06ce25335fc1", "fusion_lon": 0.0, "bike_id": "accfc8c19dfbde27542b06ce25335fc1", "is_disabled": 0, "is_reserved": 0}, {"rental_uris": {"ios": "https://dc.lft.to/lastmile_qr_scan", "android": "https://dc.lft.to/lastmile_qr_scan"}, "lon": -77.04527066666667, "type": "electric_scooter", "fusion_lat": 0.0, "lat": 38.90363683333333, "name": "d71c82b778db67d1b1d0a03505219a0d", "fusion_lon": 0.0, "bike_id": "d71c82b778db67d1b1d0a03505219a0d", "is_disabled": 0, "is_reserved": 0}, {"rental_uris": {"ios": "https://dc.lft.to/lastmile_qr_scan", "android": "https://dc.lft.to/lastmile_qr_scan"}, "lon": -77.00231883333333, "type": "electric_scooter", "fusion_lat": 0.0, "lat": 38.90573066666666, "name": "e212c62d9e483619c53812cd15ce27cf", "fusion_lon": 0.0, "bike_id": "e212c62d9e483619c53812cd15ce27cf", "is_disabled": 0, "is_reserved": 0}, {"rental_uris": {"ios": "https://dc.lft.to/lastmile_qr_scan", "android": "https://dc.lft.to/lastmile_qr_scan"}, "lon": -76.9841265, "type": "electric_scooter", "fusion_lat": 0.0, "lat": 38.913868, "name": "e06ee7d94c7a8524ea149a58ba57aa77", "fusion_lon": 0.0, "bike_id": "e06ee7d94c7a8524ea149a58ba57aa77", "is_disabled": 0, "is_reserved": 0}, {"rental_uris": {"ios": "https://dc.lft.to/lastmile_qr_scan", "android": "https://dc.lft.to/lastmile_qr_scan"}, "lon": -76.99385183333334, "type": "electric_scooter", "fusion_lat": 0.0, "lat": 38.887212166666664, "name": "31847adba42016e757648973f39ee373", "fusion_lon": 0.0, "bike_id": "31847adba42016e757648973f39ee373", "is_disabled": 0, "is_reserved": 0}, {"rental_uris": {"ios": "https://dc.lft.to/lastmile_qr_scan", "android": "https://dc.lft.to/lastmile_qr_scan"}, "lon": -77.02695566666667, "type": "electric_scooter", "fusion_lat": 0.0, "lat": 38.908444833333334, "name": "6d5f683a657582c82700870b644dea31", "fusion_lon": 0.0, "bike_id": "6d5f683a657582c82700870b644dea31", "is_disabled": 0, "is_reserved": 0}, {"rental_uris": {"ios": "https://dc.lft.to/lastmile_qr_scan", "android": "https://dc.lft.to/lastmile_qr_scan"}, "lon": -77.03633516666666, "type": "electric_scooter", "fusion_lat": 0.0, "lat": 38.918196, "name": "d1648b42f7fff7bb098c9faa711f67ca", "fusion_lon": 0.0, "bike_id": "d1648b42f7fff7bb098c9faa711f67ca", "is_disabled": 0, "is_reserved": 0}, {"rental_uris": {"ios": "https://dc.lft.to/lastmile_qr_scan", "android": "https://dc.lft.to/lastmile_qr_scan"}, "lon": -77.002961, "type": "electric_scooter", "fusion_lat": 0.0, "lat": 38.909398, "name": "45ce8dba7903214918d31e698330e9b0", "fusion_lon": 0.0, "bike_id": "45ce8dba7903214918d31e698330e9b0", "is_disabled": 0, "is_reserved": 0}, {"rental_uris": {"ios": "https://dc.lft.to/lastmile_qr_scan", "android": "https://dc.lft.to/lastmile_qr_scan"}, "lon": -76.96774766666667, "type": "electric_scooter", "fusion_lat": 0.0, "lat": 38.86144566666667, "name": "b16fbb90ddbe02ed3f302f6ea9697141", "fusion_lon": 0.0, "bike_id": "b16fbb90ddbe02ed3f302f6ea9697141", "is_disabled": 0, "is_reserved": 0}, {"rental_uris": {"ios": "https://dc.lft.to/lastmile_qr_scan", "android": "https://dc.lft.to/lastmile_qr_scan"}, "lon": -77.11429283333334, "type": "electric_bike", "fusion_lat": 0.0, "lat": 38.8524625, "name": "84eb18f7fd5f6502f8d5f6886d35ce9e", "fusion_lon": 0.0, "bike_id": "84eb18f7fd5f6502f8d5f6886d35ce9e", "is_disabled": 0, "is_reserved": 0}, {"rental_uris": {"ios": "https://dc.lft.to/lastmile_qr_scan", "android": "https://dc.lft.to/lastmile_qr_scan"}, "lon": -77.03165166666666, "type": "electric_scooter", "fusion_lat": 0.0, "lat": 38.89982083333334, "name": "4832634f557ec7407f1bab8535812525", "fusion_lon": 0.0, "bike_id": "4832634f557ec7407f1bab8535812525", "is_disabled": 0, "is_reserved": 0}, {"rental_uris": {"ios": "https://dc.lft.to/lastmile_qr_scan", "android": "https://dc.lft.to/lastmile_qr_scan"}, "lon": -77.0502685, "type": "electric_scooter", "fusion_lat": 0.0, "lat": 38.896542833333335, "name": "9f598e431d1d65201d1b39a6e3bd8d6c", "fusion_lon": 0.0, "bike_id": "9f598e431d1d65201d1b39a6e3bd8d6c", "is_disabled": 0, "is_reserved": 0}, {"rental_uris": {"ios": "https://dc.lft.to/lastmile_qr_scan", "android": "https://dc.lft.to/lastmile_qr_scan"}, "lon": -77.0347225, "type": "electric_scooter", "fusion_lat": 0.0, "lat": 38.90275033333333, "name": "d43cb259619849e6938c64fd6ca3e35b", "fusion_lon": 0.0, "bike_id": "d43cb259619849e6938c64fd6ca3e35b", "is_disabled": 0, "is_reserved": 0}, {"rental_uris": {"ios": "https://dc.lft.to/lastmile_qr_scan", "android": "https://dc.lft.to/lastmile_qr_scan"}, "lon": -77.03324766666667, "type": "electric_scooter", "fusion_lat": 0.0, "lat": 38.921577, "name": "b508e78a4823a3de249749f78f2d53bb", "fusion_lon": 0.0, "bike_id": "b508e78a4823a3de249749f78f2d53bb", "is_disabled": 0, "is_reserved": 0}, {"rental_uris": {"ios": "https://dc.lft.to/lastmile_qr_scan", "android": "https://dc.lft.to/lastmile_qr_scan"}, "lon": -77.07491083333333, "type": "electric_scooter", "fusion_lat": 0.0, "lat": 38.914886833333334, "name": "2bc0fdf42b958e70dee1dd2fc33e4c7a", "fusion_lon": 0.0, "bike_id": "2bc0fdf42b958e70dee1dd2fc33e4c7a", "is_disabled": 0, "is_reserved": 0}, {"rental_uris": {"ios": "https://dc.lft.to/lastmile_qr_scan", "android": "https://dc.lft.to/lastmile_qr_scan"}, "lon": -76.98499633333333, "type": "electric_scooter", "fusion_lat": 0.0, "lat": 38.86049383333334, "name": "d4422d9b6ba076ba06e4d9a01fc60d65", "fusion_lon": 0.0, "bike_id": "d4422d9b6ba076ba06e4d9a01fc60d65", "is_disabled": 0, "is_reserved": 0}, {"rental_uris": {"ios": "https://dc.lft.to/lastmile_qr_scan", "android": "https://dc.lft.to/lastmile_qr_scan"}, "lon": -77.042394, "type": "electric_scooter", "fusion_lat": 0.0, "lat": 38.9060065, "name": "87645d3855b5ddaa2e143f184ba44873", "fusion_lon": 0.0, "bike_id": "87645d3855b5ddaa2e143f184ba44873", "is_disabled": 0, "is_reserved": 0}, {"rental_uris": {"ios": "https://dc.lft.to/lastmile_qr_scan", "android": "https://dc.lft.to/lastmile_qr_scan"}, "lon": -77.03905366666666, "type": "electric_scooter", "fusion_lat": 0.0, "lat": 38.89920583333333, "name": "dc490efa7deed471788f6636f1636595", "fusion_lon": 0.0, "bike_id": "dc490efa7deed471788f6636f1636595", "is_disabled": 0, "is_reserved": 0}, {"rental_uris": {"ios": "https://dc.lft.to/lastmile_qr_scan", "android": "https://dc.lft.to/lastmile_qr_scan"}, "lon": -77.10095266666667, "type": "electric_bike", "fusion_lat": 0.0, "lat": 38.95956433333333, "name": "a3ada7b3f4a92af47e797b1116099e3a", "fusion_lon": 0.0, "bike_id": "a3ada7b3f4a92af47e797b1116099e3a", "is_disabled": 0, "is_reserved": 0}, {"rental_uris": {"ios": "https://dc.lft.to/lastmile_qr_scan", "android": "https://dc.lft.to/lastmile_qr_scan"}, "lon": -76.97889483333333, "type": "electric_scooter", "fusion_lat": 0.0, "lat": 38.904218666666665, "name": "7a181a51883a2f559e63d215ceeaf5ff", "fusion_lon": 0.0, "bike_id": "7a181a51883a2f559e63d215ceeaf5ff", "is_disabled": 0, "is_reserved": 0}, {"rental_uris": {"ios": "https://dc.lft.to/lastmile_qr_scan", "android": "https://dc.lft.to/lastmile_qr_scan"}, "lon": -77.03912266666667, "type": "electric_scooter", "fusion_lat": 0.0, "lat": 38.891985, "name": "8b74b903c510a6f6715749cd20d38015", "fusion_lon": 0.0, "bike_id": "8b74b903c510a6f6715749cd20d38015", "is_disabled": 0, "is_reserved": 0}, {"rental_uris": {"ios": "https://dc.lft.to/lastmile_qr_scan", "android": "https://dc.lft.to/lastmile_qr_scan"}, "lon": -77.03148066666667, "type": "electric_scooter", "fusion_lat": 0.0, "lat": 38.9156915, "name": "90a8548c37075a590474ade9d5e9320d", "fusion_lon": 0.0, "bike_id": "90a8548c37075a590474ade9d5e9320d", "is_disabled": 0, "is_reserved": 0}, {"rental_uris": {"ios": "https://dc.lft.to/lastmile_qr_scan", "android": "https://dc.lft.to/lastmile_qr_scan"}, "lon": -77.01391033333333, "type": "electric_scooter", "fusion_lat": 0.0, "lat": 38.970168666666666, "name": "12d0104d7abc6e5cfea78fed2aa2e2f9", "fusion_lon": 0.0, "bike_id": "12d0104d7abc6e5cfea78fed2aa2e2f9", "is_disabled": 0, "is_reserved": 0}, {"rental_uris": {"ios": "https://dc.lft.to/lastmile_qr_scan", "android": "https://dc.lft.to/lastmile_qr_scan"}, "lon": -77.01531066666666, "type": "electric_scooter", "fusion_lat": 0.0, "lat": 38.902036, "name": "4b43026d6abfff7e9dc57e1851a51e55", "fusion_lon": 0.0, "bike_id": "4b43026d6abfff7e9dc57e1851a51e55", "is_disabled": 0, "is_reserved": 0}, {"rental_uris": {"ios": "https://dc.lft.to/lastmile_qr_scan", "android": "https://dc.lft.to/lastmile_qr_scan"}, "lon": -77.02720033333334, "type": "electric_scooter", "fusion_lat": 0.0, "lat": 38.91817116666667, "name": "75d3ffea9cb91d401ccb44f3f786ccdb", "fusion_lon": 0.0, "bike_id": "75d3ffea9cb91d401ccb44f3f786ccdb", "is_disabled": 0, "is_reserved": 0}, {"rental_uris": {"ios": "https://dc.lft.to/lastmile_qr_scan", "android": "https://dc.lft.to/lastmile_qr_scan"}, "lon": -77.03442333333334, "type": "electric_scooter", "fusion_lat": 0.0, "lat": 38.90282666666667, "name": "7fd5f48442d743ccfa21434e098133a7", "fusion_lon": 0.0, "bike_id": "7fd5f48442d743ccfa21434e098133a7", "is_disabled": 0, "is_reserved": 0}, {"rental_uris": {"ios": "https://dc.lft.to/lastmile_qr_scan", "android": "https://dc.lft.to/lastmile_qr_scan"}, "lon": -76.99797033333333, "type": "electric_scooter", "fusion_lat": 0.0, "lat": 38.9218025, "name": "c4b33f4ec8bd56a081340f4ce215acc2", "fusion_lon": 0.0, "bike_id": "c4b33f4ec8bd56a081340f4ce215acc2", "is_disabled": 0, "is_reserved": 0}, {"rental_uris": {"ios": "https://dc.lft.to/lastmile_qr_scan", "android": "https://dc.lft.to/lastmile_qr_scan"}, "lon": -77.03665816666667, "type": "electric_scooter", "fusion_lat": 0.0, "lat": 38.91818266666667, "name": "622a2b3702e59d95a673942bebf096ef", "fusion_lon": 0.0, "bike_id": "622a2b3702e59d95a673942bebf096ef", "is_disabled": 0, "is_reserved": 0}, {"rental_uris": {"ios": "https://dc.lft.to/lastmile_qr_scan", "android": "https://dc.lft.to/lastmile_qr_scan"}, "lon": -76.995935, "type": "electric_scooter", "fusion_lat": 0.0, "lat": 38.845398833333334, "name": "b8bd21f5c894609b27e40d079378c64c", "fusion_lon": 0.0, "bike_id": "b8bd21f5c894609b27e40d079378c64c", "is_disabled": 0, "is_reserved": 0}, {"rental_uris": {"ios": "https://dc.lft.to/lastmile_qr_scan", "android": "https://dc.lft.to/lastmile_qr_scan"}, "lon": -77.02973983333334, "type": "electric_scooter", "fusion_lat": 0.0, "lat": 38.905224833333335, "name": "ca9143ba1a1d14edfc9f549bbdf31299", "fusion_lon": 0.0, "bike_id": "ca9143ba1a1d14edfc9f549bbdf31299", "is_disabled": 0, "is_reserved": 0}, {"rental_uris": {"ios": "https://dc.lft.to/lastmile_qr_scan", "android": "https://dc.lft.to/lastmile_qr_scan"}, "lon": -76.9874345, "type": "electric_bike", "fusion_lat": 0.0, "lat": 38.857920166666666, "name": "8d4d4f97a85bef617f7caa67255f5066", "fusion_lon": 0.0, "bike_id": "8d4d4f97a85bef617f7caa67255f5066", "is_disabled": 0, "is_reserved": 0}, {"rental_uris": {"ios": "https://dc.lft.to/lastmile_qr_scan", "android": "https://dc.lft.to/lastmile_qr_scan"}, "lon": -77.0470445, "type": "electric_scooter", "fusion_lat": 0.0, "lat": 38.92175983333333, "name": "34798cf97247aa28a1d8e5001f336973", "fusion_lon": 0.0, "bike_id": "34798cf97247aa28a1d8e5001f336973", "is_disabled": 0, "is_reserved": 0}, {"rental_uris": {"ios": "https://dc.lft.to/lastmile_qr_scan", "android": "https://dc.lft.to/lastmile_qr_scan"}, "lon": -77.0271405, "type": "electric_scooter", "fusion_lat": 0.0, "lat": 38.92468733333333, "name": "9df24bfcc4cb55c365f15cae9ecb3cd9", "fusion_lon": 0.0, "bike_id": "9df24bfcc4cb55c365f15cae9ecb3cd9", "is_disabled": 0, "is_reserved": 0}, {"rental_uris": {"ios": "https://dc.lft.to/lastmile_qr_scan", "android": "https://dc.lft.to/lastmile_qr_scan"}, "lon": -77.05470683333333, "type": "electric_scooter", "fusion_lat": 0.0, "lat": 38.920953833333336, "name": "691bdb0615e47b59d71ebf710b1af4ab", "fusion_lon": 0.0, "bike_id": "691bdb0615e47b59d71ebf710b1af4ab", "is_disabled": 0, "is_reserved": 0}, {"rental_uris": {"ios": "https://dc.lft.to/lastmile_qr_scan", "android": "https://dc.lft.to/lastmile_qr_scan"}, "lon": -76.95529816666667, "type": "electric_scooter", "fusion_lat": 0.0, "lat": 38.88782766666667, "name": "ae9be3c01bca26e7aaca656627733ccc", "fusion_lon": 0.0, "bike_id": "ae9be3c01bca26e7aaca656627733ccc", "is_disabled": 0, "is_reserved": 0}, {"rental_uris": {"ios": "https://dc.lft.to/lastmile_qr_scan", "android": "https://dc.lft.to/lastmile_qr_scan"}, "lon": -77.03736166666667, "type": "electric_scooter", "fusion_lat": 0.0, "lat": 38.929051333333334, "name": "1d63962ec4b7da881b07c2ea6a3921cd", "fusion_lon": 0.0, "bike_id": "1d63962ec4b7da881b07c2ea6a3921cd", "is_disabled": 0, "is_reserved": 0}, {"rental_uris": {"ios": "https://dc.lft.to/lastmile_qr_scan", "android": "https://dc.lft.to/lastmile_qr_scan"}, "lon": -77.06012066666666, "type": "electric_scooter", "fusion_lat": 0.0, "lat": 38.912608166666665, "name": "cf6a1cdad5650f011134e13146e6a74b", "fusion_lon": 0.0, "bike_id": "cf6a1cdad5650f011134e13146e6a74b", "is_disabled": 0, "is_reserved": 0}, {"rental_uris": {"ios": "https://dc.lft.to/lastmile_qr_scan", "android": "https://dc.lft.to/lastmile_qr_scan"}, "lon": -77.02092516666667, "type": "electric_scooter", "fusion_lat": 0.0, "lat": 38.91421783333333, "name": "685de473cec17f5cbc54c7d4723251e9", "fusion_lon": 0.0, "bike_id": "685de473cec17f5cbc54c7d4723251e9", "is_disabled": 0, "is_reserved": 0}, {"rental_uris": {"ios": "https://dc.lft.to/lastmile_qr_scan", "android": "https://dc.lft.to/lastmile_qr_scan"}, "lon": -77.0386565, "type": "electric_scooter", "fusion_lat": 0.0, "lat": 38.91559483333333, "name": "96369b0e2dd2cd81f0129fcea9fe63d2", "fusion_lon": 0.0, "bike_id": "96369b0e2dd2cd81f0129fcea9fe63d2", "is_disabled": 0, "is_reserved": 0}, {"rental_uris": {"ios": "https://dc.lft.to/lastmile_qr_scan", "android": "https://dc.lft.to/lastmile_qr_scan"}, "lon": -76.98720266666666, "type": "electric_scooter", "fusion_lat": 0.0, "lat": 38.862599, "name": "aa635fd18360d4cb244ae6f67c3aaacd", "fusion_lon": 0.0, "bike_id": "aa635fd18360d4cb244ae6f67c3aaacd", "is_disabled": 0, "is_reserved": 0}, {"rental_uris": {"ios": "https://dc.lft.to/lastmile_qr_scan", "android": "https://dc.lft.to/lastmile_qr_scan"}, "lon": -77.036225, "type": "electric_scooter", "fusion_lat": 0.0, "lat": 38.93254533333333, "name": "97b56586e3d6949a2fd12f15d2f543b2", "fusion_lon": 0.0, "bike_id": "97b56586e3d6949a2fd12f15d2f543b2", "is_disabled": 0, "is_reserved": 0}, {"rental_uris": {"ios": "https://dc.lft.to/lastmile_qr_scan", "android": "https://dc.lft.to/lastmile_qr_scan"}, "lon": -76.94180033333333, "type": "electric_scooter", "fusion_lat": 0.0, "lat": 38.8822325, "name": "9a6a749f3dd2bc2f0e339ddca5e02afb", "fusion_lon": 0.0, "bike_id": "9a6a749f3dd2bc2f0e339ddca5e02afb", "is_disabled": 0, "is_reserved": 0}, {"rental_uris": {"ios": "https://dc.lft.to/lastmile_qr_scan", "android": "https://dc.lft.to/lastmile_qr_scan"}, "lon": -77.03452966666667, "type": "electric_scooter", "fusion_lat": 0.0, "lat": 38.90735166666666, "name": "be433417cf2ae8704016380eafc79d78", "fusion_lon": 0.0, "bike_id": "be433417cf2ae8704016380eafc79d78", "is_disabled": 0, "is_reserved": 0}, {"rental_uris": {"ios": "https://dc.lft.to/lastmile_qr_scan", "android": "https://dc.lft.to/lastmile_qr_scan"}, "lon": -76.9872275, "type": "electric_scooter", "fusion_lat": 0.0, "lat": 38.86256083333333, "name": "fa2ec987e8dbbb3e94bceb9dec87e279", "fusion_lon": 0.0, "bike_id": "fa2ec987e8dbbb3e94bceb9dec87e279", "is_disabled": 0, "is_reserved": 0}, {"rental_uris": {"ios": "https://dc.lft.to/lastmile_qr_scan", "android": "https://dc.lft.to/lastmile_qr_scan"}, "lon": -77.0334355, "type": "electric_scooter", "fusion_lat": 0.0, "lat": 38.91914516666667, "name": "7040f0a229858199f568c81a32a266b1", "fusion_lon": 0.0, "bike_id": "7040f0a229858199f568c81a32a266b1", "is_disabled": 0, "is_reserved": 0}, {"rental_uris": {"ios": "https://dc.lft.to/lastmile_qr_scan", "android": "https://dc.lft.to/lastmile_qr_scan"}, "lon": -77.135946, "type": "electric_bike", "fusion_lat": 0.0, "lat": 39.05347783333333, "name": "ba7c0c327901c43dd037741764bb3cb8", "fusion_lon": 0.0, "bike_id": "ba7c0c327901c43dd037741764bb3cb8", "is_disabled": 0, "is_reserved": 0}, {"rental_uris": {"ios": "https://dc.lft.to/lastmile_qr_scan", "android": "https://dc.lft.to/lastmile_qr_scan"}, "lon": -76.98615783333334, "type": "electric_scooter", "fusion_lat": 0.0, "lat": 38.86824933333333, "name": "205a7ffaf812b289132eaa56974846f1", "fusion_lon": 0.0, "bike_id": "205a7ffaf812b289132eaa56974846f1", "is_disabled": 0, "is_reserved": 0}, {"rental_uris": {"ios": "https://dc.lft.to/lastmile_qr_scan", "android": "https://dc.lft.to/lastmile_qr_scan"}, "lon": -77.07879516666667, "type": "electric_scooter", "fusion_lat": 0.0, "lat": 38.92547366666667, "name": "2ad27d4a8215c13d6f79dbe7d4d700f3", "fusion_lon": 0.0, "bike_id": "2ad27d4a8215c13d6f79dbe7d4d700f3", "is_disabled": 0, "is_reserved": 0}, {"rental_uris": {"ios": "https://dc.lft.to/lastmile_qr_scan", "android": "https://dc.lft.to/lastmile_qr_scan"}, "lon": -77.03414633333334, "type": "electric_scooter", "fusion_lat": 0.0, "lat": 38.902602, "name": "9951dbaec82ee8e1dc3dbfea31c375a1", "fusion_lon": 0.0, "bike_id": "9951dbaec82ee8e1dc3dbfea31c375a1", "is_disabled": 0, "is_reserved": 0}, {"rental_uris": {"ios": "https://dc.lft.to/lastmile_qr_scan", "android": "https://dc.lft.to/lastmile_qr_scan"}, "lon": -77.04184666666667, "type": "electric_scooter", "fusion_lat": 0.0, "lat": 38.9005715, "name": "9c2fcb24ee67190ee9490d20b863c91c", "fusion_lon": 0.0, "bike_id": "9c2fcb24ee67190ee9490d20b863c91c", "is_disabled": 0, "is_reserved": 0}, {"rental_uris": {"ios": "https://dc.lft.to/lastmile_qr_scan", "android": "https://dc.lft.to/lastmile_qr_scan"}, "lon": -77.01258366666667, "type": "electric_scooter", "fusion_lat": 0.0, "lat": 38.899669, "name": "051642fc5ab3d56a44537c0f68f76370", "fusion_lon": 0.0, "bike_id": "051642fc5ab3d56a44537c0f68f76370", "is_disabled": 0, "is_reserved": 0}, {"rental_uris": {"ios": "https://dc.lft.to/lastmile_qr_scan", "android": "https://dc.lft.to/lastmile_qr_scan"}, "lon": -77.04050383333333, "type": "electric_scooter", "fusion_lat": 0.0, "lat": 38.916968833333335, "name": "323942c0b958194247b983afa657d1d6", "fusion_lon": 0.0, "bike_id": "323942c0b958194247b983afa657d1d6", "is_disabled": 0, "is_reserved": 0}, {"rental_uris": {"ios": "https://dc.lft.to/lastmile_qr_scan", "android": "https://dc.lft.to/lastmile_qr_scan"}, "lon": -77.0481765, "type": "electric_scooter", "fusion_lat": 0.0, "lat": 38.913367666666666, "name": "b4775917e836bffe7e563d447b949a7e", "fusion_lon": 0.0, "bike_id": "b4775917e836bffe7e563d447b949a7e", "is_disabled": 0, "is_reserved": 0}, {"rental_uris": {"ios": "https://dc.lft.to/lastmile_qr_scan", "android": "https://dc.lft.to/lastmile_qr_scan"}, "lon": -77.02135733333333, "type": "electric_scooter", "fusion_lat": 0.0, "lat": 38.897093, "name": "ec1e0c83fdfaddef528a26a9387be45f", "fusion_lon": 0.0, "bike_id": "ec1e0c83fdfaddef528a26a9387be45f", "is_disabled": 0, "is_reserved": 0}, {"rental_uris": {"ios": "https://dc.lft.to/lastmile_qr_scan", "android": "https://dc.lft.to/lastmile_qr_scan"}, "lon": -77.03474683333333, "type": "electric_scooter", "fusion_lat": 0.0, "lat": 38.930411666666664, "name": "bd4d3d6256a30e5d4534a5d4d55db4ee", "fusion_lon": 0.0, "bike_id": "bd4d3d6256a30e5d4534a5d4d55db4ee", "is_disabled": 0, "is_reserved": 0}, {"rental_uris": {"ios": "https://dc.lft.to/lastmile_qr_scan", "android": "https://dc.lft.to/lastmile_qr_scan"}, "lon": -77.04524066666667, "type": "electric_scooter", "fusion_lat": 0.0, "lat": 38.90361083333333, "name": "f01a522ec85fbc4f16bd4fc02dc1cb6e", "fusion_lon": 0.0, "bike_id": "f01a522ec85fbc4f16bd4fc02dc1cb6e", "is_disabled": 0, "is_reserved": 0}, {"rental_uris": {"ios": "https://dc.lft.to/lastmile_qr_scan", "android": "https://dc.lft.to/lastmile_qr_scan"}, "lon": -77.00565366666666, "type": "electric_scooter", "fusion_lat": 0.0, "lat": 38.903536333333335, "name": "1fead5b4a2345a73845b689642343de1", "fusion_lon": 0.0, "bike_id": "1fead5b4a2345a73845b689642343de1", "is_disabled": 0, "is_reserved": 0}, {"rental_uris": {"ios": "https://dc.lft.to/lastmile_qr_scan", "android": "https://dc.lft.to/lastmile_qr_scan"}, "lon": -77.0269685, "type": "electric_scooter", "fusion_lat": 0.0, "lat": 38.925976166666665, "name": "bea78238297dbe392b3c80fe9f266c1b", "fusion_lon": 0.0, "bike_id": "bea78238297dbe392b3c80fe9f266c1b", "is_disabled": 0, "is_reserved": 0}, {"rental_uris": {"ios": "https://dc.lft.to/lastmile_qr_scan", "android": "https://dc.lft.to/lastmile_qr_scan"}, "lon": -77.02836833333333, "type": "electric_scooter", "fusion_lat": 0.0, "lat": 38.93193633333333, "name": "c62774166eb4a789d1105987becf7fea", "fusion_lon": 0.0, "bike_id": "c62774166eb4a789d1105987becf7fea", "is_disabled": 0, "is_reserved": 0}, {"rental_uris": {"ios": "https://dc.lft.to/lastmile_qr_scan", "android": "https://dc.lft.to/lastmile_qr_scan"}, "lon": -77.0248275, "type": "electric_scooter", "fusion_lat": 0.0, "lat": 38.930967, "name": "dae1072b35ebde9d0009b2e623f2e061", "fusion_lon": 0.0, "bike_id": "dae1072b35ebde9d0009b2e623f2e061", "is_disabled": 0, "is_reserved": 0}, {"rental_uris": {"ios": "https://dc.lft.to/lastmile_qr_scan", "android": "https://dc.lft.to/lastmile_qr_scan"}, "lon": -77.0113565, "type": "electric_scooter", "fusion_lat": 0.0, "lat": 38.895366333333335, "name": "02690d4fc73a73ad1f8468ea705d4c73", "fusion_lon": 0.0, "bike_id": "02690d4fc73a73ad1f8468ea705d4c73", "is_disabled": 0, "is_reserved": 0}, {"rental_uris": {"ios": "https://dc.lft.to/lastmile_qr_scan", "android": "https://dc.lft.to/lastmile_qr_scan"}, "lon": -77.081965, "type": "electric_scooter", "fusion_lat": 0.0, "lat": 38.949293, "name": "c1361eff8f8bc18dd2cdd89fe2d67107", "fusion_lon": 0.0, "bike_id": "c1361eff8f8bc18dd2cdd89fe2d67107", "is_disabled": 0, "is_reserved": 0}, {"rental_uris": {"ios": "https://dc.lft.to/lastmile_qr_scan", "android": "https://dc.lft.to/lastmile_qr_scan"}, "lon": -76.90818616666667, "type": "electric_bike", "fusion_lat": 0.0, "lat": 38.9945485, "name": "0b782b718069c146f0cf2fcd0c085d01", "fusion_lon": 0.0, "bike_id": "0b782b718069c146f0cf2fcd0c085d01", "is_disabled": 0, "is_reserved": 0}, {"rental_uris": {"ios": "https://dc.lft.to/lastmile_qr_scan", "android": "https://dc.lft.to/lastmile_qr_scan"}, "lon": -76.98934483333333, "type": "electric_bike", "fusion_lat": 0.0, "lat": 38.92859083333333, "name": "4a9d7aabae9ff463785f46c5cc819265", "fusion_lon": 0.0, "bike_id": "4a9d7aabae9ff463785f46c5cc819265", "is_disabled": 0, "is_reserved": 0}, {"rental_uris": {"ios": "https://dc.lft.to/lastmile_qr_scan", "android": "https://dc.lft.to/lastmile_qr_scan"}, "lon": -76.96067216666667, "type": "electric_bike", "fusion_lat": 0.0, "lat": 38.88407866666667, "name": "f8330cfb804eda92c00f1b0965d686bf", "fusion_lon": 0.0, "bike_id": "f8330cfb804eda92c00f1b0965d686bf", "is_disabled": 0, "is_reserved": 0}, {"rental_uris": {"ios": "https://dc.lft.to/lastmile_qr_scan", "android": "https://dc.lft.to/lastmile_qr_scan"}, "lon": -77.01021866666666, "type": "electric_scooter", "fusion_lat": 0.0, "lat": 38.918055333333335, "name": "a0efada054712a2f3947f865bd26413f", "fusion_lon": 0.0, "bike_id": "a0efada054712a2f3947f865bd26413f", "is_disabled": 0, "is_reserved": 0}, {"rental_uris": {"ios": "https://dc.lft.to/lastmile_qr_scan", "android": "https://dc.lft.to/lastmile_qr_scan"}, "lon": -77.03531833333334, "type": "electric_scooter", "fusion_lat": 0.0, "lat": 38.93587483333334, "name": "6805f9358f88d8eae30a964b8a1e2669", "fusion_lon": 0.0, "bike_id": "6805f9358f88d8eae30a964b8a1e2669", "is_disabled": 0, "is_reserved": 0}, {"rental_uris": {"ios": "https://dc.lft.to/lastmile_qr_scan", "android": "https://dc.lft.to/lastmile_qr_scan"}, "lon": -77.05070866666667, "type": "electric_bike", "fusion_lat": 0.0, "lat": 39.061297333333336, "name": "1a09ea3048f520b2a315b835bf77bc54", "fusion_lon": 0.0, "bike_id": "1a09ea3048f520b2a315b835bf77bc54", "is_disabled": 0, "is_reserved": 0}, {"rental_uris": {"ios": "https://dc.lft.to/lastmile_qr_scan", "android": "https://dc.lft.to/lastmile_qr_scan"}, "lon": -77.01987216666667, "type": "electric_scooter", "fusion_lat": 0.0, "lat": 38.93786166666667, "name": "4956fd4e022046a8c1f74a3c84531b1f", "fusion_lon": 0.0, "bike_id": "4956fd4e022046a8c1f74a3c84531b1f", "is_disabled": 0, "is_reserved": 0}, {"rental_uris": {"ios": "https://dc.lft.to/lastmile_qr_scan", "android": "https://dc.lft.to/lastmile_qr_scan"}, "lon": -77.02838683333333, "type": "electric_scooter", "fusion_lat": 0.0, "lat": 38.92858716666667, "name": "b06cf845cda070f89bd1f51e7af05968", "fusion_lon": 0.0, "bike_id": "b06cf845cda070f89bd1f51e7af05968", "is_disabled": 0, "is_reserved": 0}, {"rental_uris": {"ios": "https://dc.lft.to/lastmile_qr_scan", "android": "https://dc.lft.to/lastmile_qr_scan"}, "lon": -77.05925283333333, "type": "electric_scooter", "fusion_lat": 0.0, "lat": 38.90955666666667, "name": "0e87b3dc65d34644d4668c5fabbbf92f", "fusion_lon": 0.0, "bike_id": "0e87b3dc65d34644d4668c5fabbbf92f", "is_disabled": 0, "is_reserved": 0}, {"rental_uris": {"ios": "https://dc.lft.to/lastmile_qr_scan", "android": "https://dc.lft.to/lastmile_qr_scan"}, "lon": -76.9899615, "type": "electric_scooter", "fusion_lat": 0.0, "lat": 38.9039245, "name": "ff62de7bd20c3dccd7f35488fe51c4e2", "fusion_lon": 0.0, "bike_id": "ff62de7bd20c3dccd7f35488fe51c4e2", "is_disabled": 0, "is_reserved": 0}, {"rental_uris": {"ios": "https://dc.lft.to/lastmile_qr_scan", "android": "https://dc.lft.to/lastmile_qr_scan"}, "lon": -77.035636, "type": "electric_scooter", "fusion_lat": 0.0, "lat": 38.9274645, "name": "8c2eb8d87eb5c6cc28d2dbd96288f26d", "fusion_lon": 0.0, "bike_id": "8c2eb8d87eb5c6cc28d2dbd96288f26d", "is_disabled": 0, "is_reserved": 0}, {"rental_uris": {"ios": "https://dc.lft.to/lastmile_qr_scan", "android": "https://dc.lft.to/lastmile_qr_scan"}, "lon": -77.05687816666666, "type": "electric_scooter", "fusion_lat": 0.0, "lat": 38.9370305, "name": "46f6d9f9195e913775fbd2a4ef1416ce", "fusion_lon": 0.0, "bike_id": "46f6d9f9195e913775fbd2a4ef1416ce", "is_disabled": 0, "is_reserved": 0}, {"rental_uris": {"ios": "https://dc.lft.to/lastmile_qr_scan", "android": "https://dc.lft.to/lastmile_qr_scan"}, "lon": -77.048148, "type": "electric_scooter", "fusion_lat": 0.0, "lat": 38.89738966666667, "name": "0e683c8972505277b57957f40b001acb", "fusion_lon": 0.0, "bike_id": "0e683c8972505277b57957f40b001acb", "is_disabled": 0, "is_reserved": 0}, {"rental_uris": {"ios": "https://dc.lft.to/lastmile_qr_scan", "android": "https://dc.lft.to/lastmile_qr_scan"}, "lon": -76.99872833333333, "type": "electric_scooter", "fusion_lat": 0.0, "lat": 38.9003115, "name": "f0541e51a077b8ba00ab8562cfb8fa8b", "fusion_lon": 0.0, "bike_id": "f0541e51a077b8ba00ab8562cfb8fa8b", "is_disabled": 0, "is_reserved": 0}, {"rental_uris": {"ios": "https://dc.lft.to/lastmile_qr_scan", "android": "https://dc.lft.to/lastmile_qr_scan"}, "lon": -77.00113666666667, "type": "electric_scooter", "fusion_lat": 0.0, "lat": 38.8732425, "name": "39ce570e02ca23078bf9c0501c63c336", "fusion_lon": 0.0, "bike_id": "39ce570e02ca23078bf9c0501c63c336", "is_disabled": 0, "is_reserved": 0}, {"rental_uris": {"ios": "https://dc.lft.to/lastmile_qr_scan", "android": "https://dc.lft.to/lastmile_qr_scan"}, "lon": -77.03571116666667, "type": "electric_scooter", "fusion_lat": 0.0, "lat": 38.918159, "name": "286d28f05806b065e1feb08c3443841e", "fusion_lon": 0.0, "bike_id": "286d28f05806b065e1feb08c3443841e", "is_disabled": 0, "is_reserved": 0}, {"rental_uris": {"ios": "https://dc.lft.to/lastmile_qr_scan", "android": "https://dc.lft.to/lastmile_qr_scan"}, "lon": -76.935455, "type": "electric_bike", "fusion_lat": 0.0, "lat": 38.9518415, "name": "412f242c0b8c404f425e248f5273c55b", "fusion_lon": 0.0, "bike_id": "412f242c0b8c404f425e248f5273c55b", "is_disabled": 0, "is_reserved": 0}, {"rental_uris": {"ios": "https://dc.lft.to/lastmile_qr_scan", "android": "https://dc.lft.to/lastmile_qr_scan"}, "lon": -77.05087516666667, "type": "electric_bike", "fusion_lat": 0.0, "lat": 38.81332733333333, "name": "8a8e9822ce459e44b1892ba63019fc42", "fusion_lon": 0.0, "bike_id": "8a8e9822ce459e44b1892ba63019fc42", "is_disabled": 0, "is_reserved": 0}, {"rental_uris": {"ios": "https://dc.lft.to/lastmile_qr_scan", "android": "https://dc.lft.to/lastmile_qr_scan"}, "lon": -77.0308225, "type": "electric_scooter", "fusion_lat": 0.0, "lat": 38.92247716666667, "name": "8bf40bdf6895ecf866d88845f27463b5", "fusion_lon": 0.0, "bike_id": "8bf40bdf6895ecf866d88845f27463b5", "is_disabled": 0, "is_reserved": 0}, {"rental_uris": {"ios": "https://dc.lft.to/lastmile_qr_scan", "android": "https://dc.lft.to/lastmile_qr_scan"}, "lon": -76.97329733333333, "type": "electric_scooter", "fusion_lat": 0.0, "lat": 38.90477816666667, "name": "8890b535f19057b0212ab56cec195f00", "fusion_lon": 0.0, "bike_id": "8890b535f19057b0212ab56cec195f00", "is_disabled": 0, "is_reserved": 0}, {"rental_uris": {"ios": "https://dc.lft.to/lastmile_qr_scan", "android": "https://dc.lft.to/lastmile_qr_scan"}, "lon": -77.05817633333334, "type": "electric_scooter", "fusion_lat": 0.0, "lat": 38.90294933333333, "name": "de9454feacd6c62dac42bdc02a0bd87f", "fusion_lon": 0.0, "bike_id": "de9454feacd6c62dac42bdc02a0bd87f", "is_disabled": 0, "is_reserved": 0}, {"rental_uris": {"ios": "https://dc.lft.to/lastmile_qr_scan", "android": "https://dc.lft.to/lastmile_qr_scan"}, "lon": -76.99546883333333, "type": "electric_scooter", "fusion_lat": 0.0, "lat": 38.9231225, "name": "2c5bd7ee3ab57b8ccb603458c06d71cf", "fusion_lon": 0.0, "bike_id": "2c5bd7ee3ab57b8ccb603458c06d71cf", "is_disabled": 0, "is_reserved": 0}, {"rental_uris": {"ios": "https://dc.lft.to/lastmile_qr_scan", "android": "https://dc.lft.to/lastmile_qr_scan"}, "lon": -77.00621483333333, "type": "electric_scooter", "fusion_lat": 0.0, "lat": 38.905801, "name": "75e1f55a57c3a7e9a9fd3faf79e6d152", "fusion_lon": 0.0, "bike_id": "75e1f55a57c3a7e9a9fd3faf79e6d152", "is_disabled": 0, "is_reserved": 0}, {"rental_uris": {"ios": "https://dc.lft.to/lastmile_qr_scan", "android": "https://dc.lft.to/lastmile_qr_scan"}, "lon": -77.0243295, "type": "electric_scooter", "fusion_lat": 0.0, "lat": 38.907158833333334, "name": "8e5746367b9c66ddbca56929e7638b92", "fusion_lon": 0.0, "bike_id": "8e5746367b9c66ddbca56929e7638b92", "is_disabled": 0, "is_reserved": 0}, {"rental_uris": {"ios": "https://dc.lft.to/lastmile_qr_scan", "android": "https://dc.lft.to/lastmile_qr_scan"}, "lon": -76.97706983333333, "type": "electric_scooter", "fusion_lat": 0.0, "lat": 38.89709116666667, "name": "377aa25a7f89e25360411085fce6851e", "fusion_lon": 0.0, "bike_id": "377aa25a7f89e25360411085fce6851e", "is_disabled": 0, "is_reserved": 0}, {"rental_uris": {"ios": "https://dc.lft.to/lastmile_qr_scan", "android": "https://dc.lft.to/lastmile_qr_scan"}, "lon": -77.03520966666666, "type": "electric_scooter", "fusion_lat": 0.0, "lat": 38.90040183333333, "name": "6aa49998d8a6d5fd66486c328b9a0d8b", "fusion_lon": 0.0, "bike_id": "6aa49998d8a6d5fd66486c328b9a0d8b", "is_disabled": 0, "is_reserved": 0}, {"rental_uris": {"ios": "https://dc.lft.to/lastmile_qr_scan", "android": "https://dc.lft.to/lastmile_qr_scan"}, "lon": -77.032605, "type": "electric_scooter", "fusion_lat": 0.0, "lat": 38.93740616666667, "name": "a876e7a52dc617b40d021ec2d4554b76", "fusion_lon": 0.0, "bike_id": "a876e7a52dc617b40d021ec2d4554b76", "is_disabled": 0, "is_reserved": 0}, {"rental_uris": {"ios": "https://dc.lft.to/lastmile_qr_scan", "android": "https://dc.lft.to/lastmile_qr_scan"}, "lon": -77.04884783333334, "type": "electric_scooter", "fusion_lat": 0.0, "lat": 38.8966445, "name": "b891440899294e8dbade500a93c2bbcf", "fusion_lon": 0.0, "bike_id": "b891440899294e8dbade500a93c2bbcf", "is_disabled": 0, "is_reserved": 0}, {"rental_uris": {"ios": "https://dc.lft.to/lastmile_qr_scan", "android": "https://dc.lft.to/lastmile_qr_scan"}, "lon": -77.03575766666667, "type": "electric_scooter", "fusion_lat": 0.0, "lat": 38.90746933333333, "name": "1a4ffed55f7a1c9bf2aed92958e93f87", "fusion_lon": 0.0, "bike_id": "1a4ffed55f7a1c9bf2aed92958e93f87", "is_disabled": 0, "is_reserved": 0}, {"rental_uris": {"ios": "https://dc.lft.to/lastmile_qr_scan", "android": "https://dc.lft.to/lastmile_qr_scan"}, "lon": -77.02227666666667, "type": "electric_scooter", "fusion_lat": 0.0, "lat": 38.9127095, "name": "b6d7a40483e049cbc888ebb5bf9ef309", "fusion_lon": 0.0, "bike_id": "b6d7a40483e049cbc888ebb5bf9ef309", "is_disabled": 0, "is_reserved": 0}, {"rental_uris": {"ios": "https://dc.lft.to/lastmile_qr_scan", "android": "https://dc.lft.to/lastmile_qr_scan"}, "lon": -76.94638383333333, "type": "electric_scooter", "fusion_lat": 0.0, "lat": 38.8984485, "name": "f16a6c044cc1b3011ed62d7fb4463854", "fusion_lon": 0.0, "bike_id": "f16a6c044cc1b3011ed62d7fb4463854", "is_disabled": 0, "is_reserved": 0}, {"rental_uris": {"ios": "https://dc.lft.to/lastmile_qr_scan", "android": "https://dc.lft.to/lastmile_qr_scan"}, "lon": -77.024235, "type": "electric_scooter", "fusion_lat": 0.0, "lat": 38.926536, "name": "5f41fd05080e5745799fcdfa16909870", "fusion_lon": 0.0, "bike_id": "5f41fd05080e5745799fcdfa16909870", "is_disabled": 0, "is_reserved": 0}, {"rental_uris": {"ios": "https://dc.lft.to/lastmile_qr_scan", "android": "https://dc.lft.to/lastmile_qr_scan"}, "lon": -77.03560833333333, "type": "electric_scooter", "fusion_lat": 0.0, "lat": 38.91800833333333, "name": "1156b38b45519139c651eaa6b8d669c9", "fusion_lon": 0.0, "bike_id": "1156b38b45519139c651eaa6b8d669c9", "is_disabled": 0, "is_reserved": 0}, {"rental_uris": {"ios": "https://dc.lft.to/lastmile_qr_scan", "android": "https://dc.lft.to/lastmile_qr_scan"}, "lon": -77.03462616666667, "type": "electric_scooter", "fusion_lat": 0.0, "lat": 38.917098333333335, "name": "54b28e59fbac40676292eb854cc06389", "fusion_lon": 0.0, "bike_id": "54b28e59fbac40676292eb854cc06389", "is_disabled": 0, "is_reserved": 0}, {"rental_uris": {"ios": "https://dc.lft.to/lastmile_qr_scan", "android": "https://dc.lft.to/lastmile_qr_scan"}, "lon": -77.0550125, "type": "electric_scooter", "fusion_lat": 0.0, "lat": 38.929754833333334, "name": "aa1ebb984c7a2872dd05f16a3b367495", "fusion_lon": 0.0, "bike_id": "aa1ebb984c7a2872dd05f16a3b367495", "is_disabled": 0, "is_reserved": 0}, {"rental_uris": {"ios": "https://dc.lft.to/lastmile_qr_scan", "android": "https://dc.lft.to/lastmile_qr_scan"}, "lon": -77.07066533333334, "type": "electric_scooter", "fusion_lat": 0.0, "lat": 38.952188666666665, "name": "6659e2eb0cc02212842a50ac1bd9d929", "fusion_lon": 0.0, "bike_id": "6659e2eb0cc02212842a50ac1bd9d929", "is_disabled": 0, "is_reserved": 0}, {"rental_uris": {"ios": "https://dc.lft.to/lastmile_qr_scan", "android": "https://dc.lft.to/lastmile_qr_scan"}, "lon": -76.9856955, "type": "electric_scooter", "fusion_lat": 0.0, "lat": 38.855885, "name": "069c60cf40b78a91db07d28c4156b5c0", "fusion_lon": 0.0, "bike_id": "069c60cf40b78a91db07d28c4156b5c0", "is_disabled": 0, "is_reserved": 0}, {"rental_uris": {"ios": "https://dc.lft.to/lastmile_qr_scan", "android": "https://dc.lft.to/lastmile_qr_scan"}, "lon": -76.99000816666667, "type": "electric_scooter", "fusion_lat": 0.0, "lat": 38.865051333333334, "name": "b815aa3c0caa6dd857e3e02f69a07b4b", "fusion_lon": 0.0, "bike_id": "b815aa3c0caa6dd857e3e02f69a07b4b", "is_disabled": 0, "is_reserved": 0}, {"rental_uris": {"ios": "https://dc.lft.to/lastmile_qr_scan", "android": "https://dc.lft.to/lastmile_qr_scan"}, "lon": -76.948956, "type": "electric_scooter", "fusion_lat": 0.0, "lat": 38.8952935, "name": "6c61b08e45281ecfd492e1739c5158d4", "fusion_lon": 0.0, "bike_id": "6c61b08e45281ecfd492e1739c5158d4", "is_disabled": 0, "is_reserved": 0}, {"rental_uris": {"ios": "https://dc.lft.to/lastmile_qr_scan", "android": "https://dc.lft.to/lastmile_qr_scan"}, "lon": -77.04170716666667, "type": "electric_scooter", "fusion_lat": 0.0, "lat": 38.90349483333333, "name": "51834f7e397c0efdde847cf4a8fc4536", "fusion_lon": 0.0, "bike_id": "51834f7e397c0efdde847cf4a8fc4536", "is_disabled": 0, "is_reserved": 0}, {"rental_uris": {"ios": "https://dc.lft.to/lastmile_qr_scan", "android": "https://dc.lft.to/lastmile_qr_scan"}, "lon": -77.05406183333334, "type": "electric_scooter", "fusion_lat": 0.0, "lat": 38.90264483333333, "name": "c1c25c9c504206c15462f71b23244e20", "fusion_lon": 0.0, "bike_id": "c1c25c9c504206c15462f71b23244e20", "is_disabled": 0, "is_reserved": 0}, {"rental_uris": {"ios": "https://dc.lft.to/lastmile_qr_scan", "android": "https://dc.lft.to/lastmile_qr_scan"}, "lon": -77.01946983333333, "type": "electric_scooter", "fusion_lat": 0.0, "lat": 38.924183, "name": "3725f9c293073d3c9f472e2b17aaa08d", "fusion_lon": 0.0, "bike_id": "3725f9c293073d3c9f472e2b17aaa08d", "is_disabled": 0, "is_reserved": 0}, {"rental_uris": {"ios": "https://dc.lft.to/lastmile_qr_scan", "android": "https://dc.lft.to/lastmile_qr_scan"}, "lon": -77.04718133333333, "type": "electric_scooter", "fusion_lat": 0.0, "lat": 38.922345, "name": "ad8b715376b885f9ec852819debae828", "fusion_lon": 0.0, "bike_id": "ad8b715376b885f9ec852819debae828", "is_disabled": 0, "is_reserved": 0}, {"rental_uris": {"ios": "https://dc.lft.to/lastmile_qr_scan", "android": "https://dc.lft.to/lastmile_qr_scan"}, "lon": -77.0350505, "type": "electric_scooter", "fusion_lat": 0.0, "lat": 38.921449333333335, "name": "41b39f8ee62a2b5a1b2e0d21ab1fd194", "fusion_lon": 0.0, "bike_id": "41b39f8ee62a2b5a1b2e0d21ab1fd194", "is_disabled": 0, "is_reserved": 0}, {"rental_uris": {"ios": "https://dc.lft.to/lastmile_qr_scan", "android": "https://dc.lft.to/lastmile_qr_scan"}, "lon": -77.03151516666667, "type": "electric_scooter", "fusion_lat": 0.0, "lat": 38.9141775, "name": "bf9d27b3f0ee4ab630dd6a61cca40362", "fusion_lon": 0.0, "bike_id": "bf9d27b3f0ee4ab630dd6a61cca40362", "is_disabled": 0, "is_reserved": 0}, {"rental_uris": {"ios": "https://dc.lft.to/lastmile_qr_scan", "android": "https://dc.lft.to/lastmile_qr_scan"}, "lon": -77.01760366666667, "type": "electric_scooter", "fusion_lat": 0.0, "lat": 38.92109883333333, "name": "5502c770cf588251b3b8699d67e47ba0", "fusion_lon": 0.0, "bike_id": "5502c770cf588251b3b8699d67e47ba0", "is_disabled": 0, "is_reserved": 0}, {"rental_uris": {"ios": "https://dc.lft.to/lastmile_qr_scan", "android": "https://dc.lft.to/lastmile_qr_scan"}, "lon": -77.008632, "type": "electric_bike", "fusion_lat": 0.0, "lat": 38.827320666666665, "name": "7a055a75a9244e2276f40a48ac019152", "fusion_lon": 0.0, "bike_id": "7a055a75a9244e2276f40a48ac019152", "is_disabled": 0, "is_reserved": 0}, {"rental_uris": {"ios": "https://dc.lft.to/lastmile_qr_scan", "android": "https://dc.lft.to/lastmile_qr_scan"}, "lon": -77.03798183333333, "type": "electric_scooter", "fusion_lat": 0.0, "lat": 38.90136116666667, "name": "963a69ff0b6d4dc84d57f40412386d51", "fusion_lon": 0.0, "bike_id": "963a69ff0b6d4dc84d57f40412386d51", "is_disabled": 0, "is_reserved": 0}, {"rental_uris": {"ios": "https://dc.lft.to/lastmile_qr_scan", "android": "https://dc.lft.to/lastmile_qr_scan"}, "lon": -77.021777, "type": "electric_scooter", "fusion_lat": 0.0, "lat": 38.90544333333333, "name": "8a6223b09998917b828b565137592c2f", "fusion_lon": 0.0, "bike_id": "8a6223b09998917b828b565137592c2f", "is_disabled": 0, "is_reserved": 0}, {"rental_uris": {"ios": "https://dc.lft.to/lastmile_qr_scan", "android": "https://dc.lft.to/lastmile_qr_scan"}, "lon": -77.052885, "type": "electric_scooter", "fusion_lat": 0.0, "lat": 38.918906, "name": "6ad94bbb0f11a30172090115b4599898", "fusion_lon": 0.0, "bike_id": "6ad94bbb0f11a30172090115b4599898", "is_disabled": 0, "is_reserved": 0}, {"rental_uris": {"ios": "https://dc.lft.to/lastmile_qr_scan", "android": "https://dc.lft.to/lastmile_qr_scan"}, "lon": -77.03276566666666, "type": "electric_scooter", "fusion_lat": 0.0, "lat": 38.892210666666664, "name": "e8a0a3f1565348b0cce179cda76839e4", "fusion_lon": 0.0, "bike_id": "e8a0a3f1565348b0cce179cda76839e4", "is_disabled": 0, "is_reserved": 0}, {"rental_uris": {"ios": "https://dc.lft.to/lastmile_qr_scan", "android": "https://dc.lft.to/lastmile_qr_scan"}, "lon": -77.02728283333333, "type": "electric_scooter", "fusion_lat": 0.0, "lat": 38.916955, "name": "9ccf0e6e44d68b79660958e544c9bb6b", "fusion_lon": 0.0, "bike_id": "9ccf0e6e44d68b79660958e544c9bb6b", "is_disabled": 0, "is_reserved": 0}, {"rental_uris": {"ios": "https://dc.lft.to/lastmile_qr_scan", "android": "https://dc.lft.to/lastmile_qr_scan"}, "lon": -77.038547, "type": "electric_scooter", "fusion_lat": 0.0, "lat": 38.90775216666667, "name": "ee419f65fd5c7498cca3d701ea9938fe", "fusion_lon": 0.0, "bike_id": "ee419f65fd5c7498cca3d701ea9938fe", "is_disabled": 0, "is_reserved": 0}, {"rental_uris": {"ios": "https://dc.lft.to/lastmile_qr_scan", "android": "https://dc.lft.to/lastmile_qr_scan"}, "lon": -77.0319415, "type": "electric_scooter", "fusion_lat": 0.0, "lat": 38.9179995, "name": "a9e78a616abc9acfb7188f4f645ac46b", "fusion_lon": 0.0, "bike_id": "a9e78a616abc9acfb7188f4f645ac46b", "is_disabled": 0, "is_reserved": 0}, {"rental_uris": {"ios": "https://dc.lft.to/lastmile_qr_scan", "android": "https://dc.lft.to/lastmile_qr_scan"}, "lon": -77.043329, "type": "electric_scooter", "fusion_lat": 0.0, "lat": 38.895857, "name": "b9dc133439f0a426988616a366a6e93c", "fusion_lon": 0.0, "bike_id": "b9dc133439f0a426988616a366a6e93c", "is_disabled": 0, "is_reserved": 0}, {"rental_uris": {"ios": "https://dc.lft.to/lastmile_qr_scan", "android": "https://dc.lft.to/lastmile_qr_scan"}, "lon": -77.03262733333334, "type": "electric_scooter", "fusion_lat": 0.0, "lat": 38.925493833333334, "name": "d32a1771e4e8a18e7818c465eef55a0e", "fusion_lon": 0.0, "bike_id": "d32a1771e4e8a18e7818c465eef55a0e", "is_disabled": 0, "is_reserved": 0}, {"rental_uris": {"ios": "https://dc.lft.to/lastmile_qr_scan", "android": "https://dc.lft.to/lastmile_qr_scan"}, "lon": -77.04034483333334, "type": "electric_scooter", "fusion_lat": 0.0, "lat": 38.918057833333336, "name": "c572cefb4d57e8f28cad7859eb6c1577", "fusion_lon": 0.0, "bike_id": "c572cefb4d57e8f28cad7859eb6c1577", "is_disabled": 0, "is_reserved": 0}, {"rental_uris": {"ios": "https://dc.lft.to/lastmile_qr_scan", "android": "https://dc.lft.to/lastmile_qr_scan"}, "lon": -77.09191633333333, "type": "electric_scooter", "fusion_lat": 0.0, "lat": 38.91366766666667, "name": "f0bac121bd63f899da12a6292cb8dde4", "fusion_lon": 0.0, "bike_id": "f0bac121bd63f899da12a6292cb8dde4", "is_disabled": 0, "is_reserved": 0}, {"rental_uris": {"ios": "https://dc.lft.to/lastmile_qr_scan", "android": "https://dc.lft.to/lastmile_qr_scan"}, "lon": -77.03467216666667, "type": "electric_scooter", "fusion_lat": 0.0, "lat": 38.916876, "name": "5ced22a2a321b5d493c1027f9e5c3a83", "fusion_lon": 0.0, "bike_id": "5ced22a2a321b5d493c1027f9e5c3a83", "is_disabled": 0, "is_reserved": 0}, {"rental_uris": {"ios": "https://dc.lft.to/lastmile_qr_scan", "android": "https://dc.lft.to/lastmile_qr_scan"}, "lon": -77.0061275, "type": "electric_bike", "fusion_lat": 0.0, "lat": 38.90588283333334, "name": "9cace221879ef8779e04c552ca68c3f3", "fusion_lon": 0.0, "bike_id": "9cace221879ef8779e04c552ca68c3f3", "is_disabled": 0, "is_reserved": 0}, {"rental_uris": {"ios": "https://dc.lft.to/lastmile_qr_scan", "android": "https://dc.lft.to/lastmile_qr_scan"}, "lon": -77.04669116666666, "type": "electric_scooter", "fusion_lat": 0.0, "lat": 38.91480633333333, "name": "9a6f873914267167a21426d889e34ea2", "fusion_lon": 0.0, "bike_id": "9a6f873914267167a21426d889e34ea2", "is_disabled": 0, "is_reserved": 0}, {"rental_uris": {"ios": "https://dc.lft.to/lastmile_qr_scan", "android": "https://dc.lft.to/lastmile_qr_scan"}, "lon": -77.106869, "type": "electric_bike", "fusion_lat": 0.0, "lat": 38.935802833333334, "name": "3c764b4ff6f072ea784935eb137cd938", "fusion_lon": 0.0, "bike_id": "3c764b4ff6f072ea784935eb137cd938", "is_disabled": 0, "is_reserved": 0}, {"rental_uris": {"ios": "https://dc.lft.to/lastmile_qr_scan", "android": "https://dc.lft.to/lastmile_qr_scan"}, "lon": -77.03510766666666, "type": "electric_scooter", "fusion_lat": 0.0, "lat": 38.92152333333333, "name": "f15376c66c01957e9b7a8db13a89c883", "fusion_lon": 0.0, "bike_id": "f15376c66c01957e9b7a8db13a89c883", "is_disabled": 0, "is_reserved": 0}, {"rental_uris": {"ios": "https://dc.lft.to/lastmile_qr_scan", "android": "https://dc.lft.to/lastmile_qr_scan"}, "lon": -76.94882283333334, "type": "electric_scooter", "fusion_lat": 0.0, "lat": 38.89504383333333, "name": "698ffb6ccf5b3beae8f6aaac29df5a85", "fusion_lon": 0.0, "bike_id": "698ffb6ccf5b3beae8f6aaac29df5a85", "is_disabled": 0, "is_reserved": 0}, {"rental_uris": {"ios": "https://dc.lft.to/lastmile_qr_scan", "android": "https://dc.lft.to/lastmile_qr_scan"}, "lon": -77.02971483333333, "type": "electric_scooter", "fusion_lat": 0.0, "lat": 38.90529383333333, "name": "450fc7c22d8435b29a11d94f43cab86f", "fusion_lon": 0.0, "bike_id": "450fc7c22d8435b29a11d94f43cab86f", "is_disabled": 0, "is_reserved": 0}, {"rental_uris": {"ios": "https://dc.lft.to/lastmile_qr_scan", "android": "https://dc.lft.to/lastmile_qr_scan"}, "lon": -77.00658716666666, "type": "electric_scooter", "fusion_lat": 0.0, "lat": 38.94465, "name": "9e65d056619731c729505cb2f53299c4", "fusion_lon": 0.0, "bike_id": "9e65d056619731c729505cb2f53299c4", "is_disabled": 0, "is_reserved": 0}, {"rental_uris": {"ios": "https://dc.lft.to/lastmile_qr_scan", "android": "https://dc.lft.to/lastmile_qr_scan"}, "lon": -77.0425535, "type": "electric_scooter", "fusion_lat": 0.0, "lat": 38.9027515, "name": "3cc05ab3540866567554d2ff79c3bbfa", "fusion_lon": 0.0, "bike_id": "3cc05ab3540866567554d2ff79c3bbfa", "is_disabled": 0, "is_reserved": 0}, {"rental_uris": {"ios": "https://dc.lft.to/lastmile_qr_scan", "android": "https://dc.lft.to/lastmile_qr_scan"}, "lon": -77.03178033333333, "type": "electric_scooter", "fusion_lat": 0.0, "lat": 38.919292666666664, "name": "89b4ea95726cd62e828ccb4772366b80", "fusion_lon": 0.0, "bike_id": "89b4ea95726cd62e828ccb4772366b80", "is_disabled": 0, "is_reserved": 0}, {"rental_uris": {"ios": "https://dc.lft.to/lastmile_qr_scan", "android": "https://dc.lft.to/lastmile_qr_scan"}, "lon": -77.04227666666667, "type": "electric_scooter", "fusion_lat": 0.0, "lat": 38.921352666666664, "name": "dc51fef4bbb3cb9e97005997eb0d88eb", "fusion_lon": 0.0, "bike_id": "dc51fef4bbb3cb9e97005997eb0d88eb", "is_disabled": 0, "is_reserved": 0}, {"rental_uris": {"ios": "https://dc.lft.to/lastmile_qr_scan", "android": "https://dc.lft.to/lastmile_qr_scan"}, "lon": -76.98578583333334, "type": "electric_scooter", "fusion_lat": 0.0, "lat": 38.8614735, "name": "19929845c10ce311ced8bccf357fdf26", "fusion_lon": 0.0, "bike_id": "19929845c10ce311ced8bccf357fdf26", "is_disabled": 0, "is_reserved": 0}, {"rental_uris": {"ios": "https://dc.lft.to/lastmile_qr_scan", "android": "https://dc.lft.to/lastmile_qr_scan"}, "lon": -77.04904716666667, "type": "electric_scooter", "fusion_lat": 0.0, "lat": 38.918870166666665, "name": "77698655f80c9178d4065c8c36f399ee", "fusion_lon": 0.0, "bike_id": "77698655f80c9178d4065c8c36f399ee", "is_disabled": 0, "is_reserved": 0}, {"rental_uris": {"ios": "https://dc.lft.to/lastmile_qr_scan", "android": "https://dc.lft.to/lastmile_qr_scan"}, "lon": -76.99610183333333, "type": "electric_scooter", "fusion_lat": 0.0, "lat": 38.886234333333334, "name": "018f249a6574929ae8453ac8b494e99c", "fusion_lon": 0.0, "bike_id": "018f249a6574929ae8453ac8b494e99c", "is_disabled": 0, "is_reserved": 0}, {"rental_uris": {"ios": "https://dc.lft.to/lastmile_qr_scan", "android": "https://dc.lft.to/lastmile_qr_scan"}, "lon": -77.00353316666667, "type": "electric_scooter", "fusion_lat": 0.0, "lat": 38.907229666666666, "name": "b8ff3f6bd1a5aa1a1f987988724e62b6", "fusion_lon": 0.0, "bike_id": "b8ff3f6bd1a5aa1a1f987988724e62b6", "is_disabled": 0, "is_reserved": 0}, {"rental_uris": {"ios": "https://dc.lft.to/lastmile_qr_scan", "android": "https://dc.lft.to/lastmile_qr_scan"}, "lon": -77.00282083333333, "type": "electric_scooter", "fusion_lat": 0.0, "lat": 38.901238, "name": "ba98f87a3c902421ebdb1fda7af37c14", "fusion_lon": 0.0, "bike_id": "ba98f87a3c902421ebdb1fda7af37c14", "is_disabled": 0, "is_reserved": 0}, {"rental_uris": {"ios": "https://dc.lft.to/lastmile_qr_scan", "android": "https://dc.lft.to/lastmile_qr_scan"}, "lon": -77.05001716666666, "type": "electric_scooter", "fusion_lat": 0.0, "lat": 38.900262, "name": "ffcb8e4fc570e595572179c7df078411", "fusion_lon": 0.0, "bike_id": "ffcb8e4fc570e595572179c7df078411", "is_disabled": 0, "is_reserved": 0}, {"rental_uris": {"ios": "https://dc.lft.to/lastmile_qr_scan", "android": "https://dc.lft.to/lastmile_qr_scan"}, "lon": -76.98886, "type": "electric_scooter", "fusion_lat": 0.0, "lat": 38.86659783333333, "name": "39495f5ce09b1646401cd7ed735afaa7", "fusion_lon": 0.0, "bike_id": "39495f5ce09b1646401cd7ed735afaa7", "is_disabled": 0, "is_reserved": 0}, {"rental_uris": {"ios": "https://dc.lft.to/lastmile_qr_scan", "android": "https://dc.lft.to/lastmile_qr_scan"}, "lon": -77.03837, "type": "electric_scooter", "fusion_lat": 0.0, "lat": 38.931145, "name": "b980ec767851442644fa75c5c3b2faa9", "fusion_lon": 0.0, "bike_id": "b980ec767851442644fa75c5c3b2faa9", "is_disabled": 0, "is_reserved": 0}, {"rental_uris": {"ios": "https://dc.lft.to/lastmile_qr_scan", "android": "https://dc.lft.to/lastmile_qr_scan"}, "lon": -76.99770216666667, "type": "electric_bike", "fusion_lat": 0.0, "lat": 38.909258, "name": "8b1e6d3af4fd0362847012edad18ead0", "fusion_lon": 0.0, "bike_id": "8b1e6d3af4fd0362847012edad18ead0", "is_disabled": 0, "is_reserved": 0}, {"rental_uris": {"ios": "https://dc.lft.to/lastmile_qr_scan", "android": "https://dc.lft.to/lastmile_qr_scan"}, "lon": -77.04503183333334, "type": "electric_scooter", "fusion_lat": 0.0, "lat": 38.91942516666667, "name": "31f7e754cde2d31b2be6f0bbe60282d1", "fusion_lon": 0.0, "bike_id": "31f7e754cde2d31b2be6f0bbe60282d1", "is_disabled": 0, "is_reserved": 0}, {"rental_uris": {"ios": "https://dc.lft.to/lastmile_qr_scan", "android": "https://dc.lft.to/lastmile_qr_scan"}, "lon": -76.97559116666666, "type": "electric_scooter", "fusion_lat": 0.0, "lat": 38.90447133333333, "name": "82f996bb751464f717e24d4284efb311", "fusion_lon": 0.0, "bike_id": "82f996bb751464f717e24d4284efb311", "is_disabled": 0, "is_reserved": 0}, {"rental_uris": {"ios": "https://dc.lft.to/lastmile_qr_scan", "android": "https://dc.lft.to/lastmile_qr_scan"}, "lon": -77.04851216666667, "type": "electric_scooter", "fusion_lat": 0.0, "lat": 38.9097125, "name": "c0dd764b898926fe7b9b1b4603873ffc", "fusion_lon": 0.0, "bike_id": "c0dd764b898926fe7b9b1b4603873ffc", "is_disabled": 0, "is_reserved": 0}, {"rental_uris": {"ios": "https://dc.lft.to/lastmile_qr_scan", "android": "https://dc.lft.to/lastmile_qr_scan"}, "lon": -77.01135716666667, "type": "electric_scooter", "fusion_lat": 0.0, "lat": 38.89507016666667, "name": "db75d824e90e2a9515e00addd0c3f76a", "fusion_lon": 0.0, "bike_id": "db75d824e90e2a9515e00addd0c3f76a", "is_disabled": 0, "is_reserved": 0}, {"rental_uris": {"ios": "https://dc.lft.to/lastmile_qr_scan", "android": "https://dc.lft.to/lastmile_qr_scan"}, "lon": -77.07318266666667, "type": "electric_scooter", "fusion_lat": 0.0, "lat": 38.924865, "name": "636541dab24bb57500d1c2faa8f07045", "fusion_lon": 0.0, "bike_id": "636541dab24bb57500d1c2faa8f07045", "is_disabled": 0, "is_reserved": 0}, {"rental_uris": {"ios": "https://dc.lft.to/lastmile_qr_scan", "android": "https://dc.lft.to/lastmile_qr_scan"}, "lon": -77.0367535, "type": "electric_scooter", "fusion_lat": 0.0, "lat": 38.929404, "name": "b873eb719a581fac11a9d65d67a1d8eb", "fusion_lon": 0.0, "bike_id": "b873eb719a581fac11a9d65d67a1d8eb", "is_disabled": 0, "is_reserved": 0}, {"rental_uris": {"ios": "https://dc.lft.to/lastmile_qr_scan", "android": "https://dc.lft.to/lastmile_qr_scan"}, "lon": -77.02229533333333, "type": "electric_scooter", "fusion_lat": 0.0, "lat": 38.89194616666666, "name": "efb26693cce1175c6c77695325dfab51", "fusion_lon": 0.0, "bike_id": "efb26693cce1175c6c77695325dfab51", "is_disabled": 0, "is_reserved": 0}, {"rental_uris": {"ios": "https://dc.lft.to/lastmile_qr_scan", "android": "https://dc.lft.to/lastmile_qr_scan"}, "lon": -77.03835416666666, "type": "electric_scooter", "fusion_lat": 0.0, "lat": 38.91118216666667, "name": "f0caa2e77f6dc48371b2e1f2fdef37bd", "fusion_lon": 0.0, "bike_id": "f0caa2e77f6dc48371b2e1f2fdef37bd", "is_disabled": 0, "is_reserved": 0}, {"rental_uris": {"ios": "https://dc.lft.to/lastmile_qr_scan", "android": "https://dc.lft.to/lastmile_qr_scan"}, "lon": -77.0756385, "type": "electric_scooter", "fusion_lat": 0.0, "lat": 38.91425566666667, "name": "2a64d0dc72a6afb958512917dfa5be97", "fusion_lon": 0.0, "bike_id": "2a64d0dc72a6afb958512917dfa5be97", "is_disabled": 0, "is_reserved": 0}, {"rental_uris": {"ios": "https://dc.lft.to/lastmile_qr_scan", "android": "https://dc.lft.to/lastmile_qr_scan"}, "lon": -77.017497, "type": "electric_scooter", "fusion_lat": 0.0, "lat": 38.915873500000004, "name": "4acae38ae432a7c94529d45899a7d39d", "fusion_lon": 0.0, "bike_id": "4acae38ae432a7c94529d45899a7d39d", "is_disabled": 0, "is_reserved": 0}, {"rental_uris": {"ios": "https://dc.lft.to/lastmile_qr_scan", "android": "https://dc.lft.to/lastmile_qr_scan"}, "lon": -77.02811933333334, "type": "electric_scooter", "fusion_lat": 0.0, "lat": 38.89642833333333, "name": "81f0add7ae922a52c3cc1c4717ded525", "fusion_lon": 0.0, "bike_id": "81f0add7ae922a52c3cc1c4717ded525", "is_disabled": 0, "is_reserved": 0}, {"rental_uris": {"ios": "https://dc.lft.to/lastmile_qr_scan", "android": "https://dc.lft.to/lastmile_qr_scan"}, "lon": -77.0449405, "type": "electric_scooter", "fusion_lat": 0.0, "lat": 38.911019, "name": "b0e1267521bef1c15d629e2b396abfad", "fusion_lon": 0.0, "bike_id": "b0e1267521bef1c15d629e2b396abfad", "is_disabled": 0, "is_reserved": 0}, {"rental_uris": {"ios": "https://dc.lft.to/lastmile_qr_scan", "android": "https://dc.lft.to/lastmile_qr_scan"}, "lon": -77.03209383333333, "type": "electric_scooter", "fusion_lat": 0.0, "lat": 38.916662, "name": "6e44fdf8daa42138f523af0a67cc3a48", "fusion_lon": 0.0, "bike_id": "6e44fdf8daa42138f523af0a67cc3a48", "is_disabled": 0, "is_reserved": 0}, {"rental_uris": {"ios": "https://dc.lft.to/lastmile_qr_scan", "android": "https://dc.lft.to/lastmile_qr_scan"}, "lon": -77.04257233333334, "type": "electric_scooter", "fusion_lat": 0.0, "lat": 38.905586166666666, "name": "9e11a29e5fa40292532fa6a9ac6d995c", "fusion_lon": 0.0, "bike_id": "9e11a29e5fa40292532fa6a9ac6d995c", "is_disabled": 0, "is_reserved": 0}, {"rental_uris": {"ios": "https://dc.lft.to/lastmile_qr_scan", "android": "https://dc.lft.to/lastmile_qr_scan"}, "lon": -77.02752366666667, "type": "electric_scooter", "fusion_lat": 0.0, "lat": 38.8960565, "name": "8125f511f991173e5ef1b8b965b5fde9", "fusion_lon": 0.0, "bike_id": "8125f511f991173e5ef1b8b965b5fde9", "is_disabled": 0, "is_reserved": 0}, {"rental_uris": {"ios": "https://dc.lft.to/lastmile_qr_scan", "android": "https://dc.lft.to/lastmile_qr_scan"}, "lon": -77.0553145, "type": "electric_scooter", "fusion_lat": 0.0, "lat": 38.898985, "name": "e1a9a7977ffb2a7eb0d7d3eb38702f51", "fusion_lon": 0.0, "bike_id": "e1a9a7977ffb2a7eb0d7d3eb38702f51", "is_disabled": 0, "is_reserved": 0}, {"rental_uris": {"ios": "https://dc.lft.to/lastmile_qr_scan", "android": "https://dc.lft.to/lastmile_qr_scan"}, "lon": -77.01439233333333, "type": "electric_scooter", "fusion_lat": 0.0, "lat": 38.92991083333333, "name": "846fb7ac64eef5ce728d6d5585c8db4a", "fusion_lon": 0.0, "bike_id": "846fb7ac64eef5ce728d6d5585c8db4a", "is_disabled": 0, "is_reserved": 0}, {"rental_uris": {"ios": "https://dc.lft.to/lastmile_qr_scan", "android": "https://dc.lft.to/lastmile_qr_scan"}, "lon": -77.0323385, "type": "electric_scooter", "fusion_lat": 0.0, "lat": 38.92761266666667, "name": "d56e8d4267069c1a5709acee72e33c12", "fusion_lon": 0.0, "bike_id": "d56e8d4267069c1a5709acee72e33c12", "is_disabled": 0, "is_reserved": 0}, {"rental_uris": {"ios": "https://dc.lft.to/lastmile_qr_scan", "android": "https://dc.lft.to/lastmile_qr_scan"}, "lon": -77.00200216666667, "type": "electric_scooter", "fusion_lat": 0.0, "lat": 38.8998435, "name": "23126b1a1978580e432d7c12c596de34", "fusion_lon": 0.0, "bike_id": "23126b1a1978580e432d7c12c596de34", "is_disabled": 0, "is_reserved": 0}, {"rental_uris": {"ios": "https://dc.lft.to/lastmile_qr_scan", "android": "https://dc.lft.to/lastmile_qr_scan"}, "lon": -77.03868733333333, "type": "electric_scooter", "fusion_lat": 0.0, "lat": 38.915542333333335, "name": "4c6abf575d97b88838ff9feae8ceaecc", "fusion_lon": 0.0, "bike_id": "4c6abf575d97b88838ff9feae8ceaecc", "is_disabled": 0, "is_reserved": 0}, {"rental_uris": {"ios": "https://dc.lft.to/lastmile_qr_scan", "android": "https://dc.lft.to/lastmile_qr_scan"}, "lon": -77.02891366666667, "type": "electric_scooter", "fusion_lat": 0.0, "lat": 38.925693, "name": "061a1d8b80a9ed218148f481a8950351", "fusion_lon": 0.0, "bike_id": "061a1d8b80a9ed218148f481a8950351", "is_disabled": 0, "is_reserved": 0}, {"rental_uris": {"ios": "https://dc.lft.to/lastmile_qr_scan", "android": "https://dc.lft.to/lastmile_qr_scan"}, "lon": -77.0200975, "type": "electric_scooter", "fusion_lat": 0.0, "lat": 38.902679666666664, "name": "f81cc19150bd1e1ffe6637d0915d8cd1", "fusion_lon": 0.0, "bike_id": "f81cc19150bd1e1ffe6637d0915d8cd1", "is_disabled": 0, "is_reserved": 0}, {"rental_uris": {"ios": "https://dc.lft.to/lastmile_qr_scan", "android": "https://dc.lft.to/lastmile_qr_scan"}, "lon": -77.04786533333333, "type": "electric_scooter", "fusion_lat": 0.0, "lat": 38.908526333333334, "name": "13b66aa6c1c950a4dc76544e05384056", "fusion_lon": 0.0, "bike_id": "13b66aa6c1c950a4dc76544e05384056", "is_disabled": 0, "is_reserved": 0}, {"rental_uris": {"ios": "https://dc.lft.to/lastmile_qr_scan", "android": "https://dc.lft.to/lastmile_qr_scan"}, "lon": -76.9867985, "type": "electric_scooter", "fusion_lat": 0.0, "lat": 38.88219, "name": "5e096c232804dff2e95b196a5eefee68", "fusion_lon": 0.0, "bike_id": "5e096c232804dff2e95b196a5eefee68", "is_disabled": 0, "is_reserved": 0}, {"rental_uris": {"ios": "https://dc.lft.to/lastmile_qr_scan", "android": "https://dc.lft.to/lastmile_qr_scan"}, "lon": -77.0088275, "type": "electric_scooter", "fusion_lat": 0.0, "lat": 38.91676416666667, "name": "79b3cbf3e9ac1042676daa76040877e8", "fusion_lon": 0.0, "bike_id": "79b3cbf3e9ac1042676daa76040877e8", "is_disabled": 0, "is_reserved": 0}, {"rental_uris": {"ios": "https://dc.lft.to/lastmile_qr_scan", "android": "https://dc.lft.to/lastmile_qr_scan"}, "lon": -76.98313366666666, "type": "electric_scooter", "fusion_lat": 0.0, "lat": 38.8688415, "name": "db05761da253a5a7b841fc09cbdfeeb4", "fusion_lon": 0.0, "bike_id": "db05761da253a5a7b841fc09cbdfeeb4", "is_disabled": 0, "is_reserved": 0}, {"rental_uris": {"ios": "https://dc.lft.to/lastmile_qr_scan", "android": "https://dc.lft.to/lastmile_qr_scan"}, "lon": -77.03126833333333, "type": "electric_scooter", "fusion_lat": 0.0, "lat": 38.91335383333333, "name": "35916c15ae47067b18e41fb5933235a5", "fusion_lon": 0.0, "bike_id": "35916c15ae47067b18e41fb5933235a5", "is_disabled": 0, "is_reserved": 0}, {"rental_uris": {"ios": "https://dc.lft.to/lastmile_qr_scan", "android": "https://dc.lft.to/lastmile_qr_scan"}, "lon": -77.002029, "type": "electric_bike", "fusion_lat": 0.0, "lat": 38.883065333333334, "name": "848abec140ea05dd91b9f6847b54a8cf", "fusion_lon": 0.0, "bike_id": "848abec140ea05dd91b9f6847b54a8cf", "is_disabled": 0, "is_reserved": 0}, {"rental_uris": {"ios": "https://dc.lft.to/lastmile_qr_scan", "android": "https://dc.lft.to/lastmile_qr_scan"}, "lon": -76.97631333333334, "type": "electric_scooter", "fusion_lat": 0.0, "lat": 38.90573233333333, "name": "1c932ef5b3875c5615f5df8318a9ae60", "fusion_lon": 0.0, "bike_id": "1c932ef5b3875c5615f5df8318a9ae60", "is_disabled": 0, "is_reserved": 0}, {"rental_uris": {"ios": "https://dc.lft.to/lastmile_qr_scan", "android": "https://dc.lft.to/lastmile_qr_scan"}, "lon": -77.05881566666666, "type": "electric_scooter", "fusion_lat": 0.0, "lat": 38.936354, "name": "9a3becd4e34a8f6680d7d988ecb6d387", "fusion_lon": 0.0, "bike_id": "9a3becd4e34a8f6680d7d988ecb6d387", "is_disabled": 0, "is_reserved": 0}, {"rental_uris": {"ios": "https://dc.lft.to/lastmile_qr_scan", "android": "https://dc.lft.to/lastmile_qr_scan"}, "lon": -77.0520145, "type": "electric_scooter", "fusion_lat": 0.0, "lat": 38.924398, "name": "88911d4300bffebb6734d00862cc37e9", "fusion_lon": 0.0, "bike_id": "88911d4300bffebb6734d00862cc37e9", "is_disabled": 0, "is_reserved": 0}, {"rental_uris": {"ios": "https://dc.lft.to/lastmile_qr_scan", "android": "https://dc.lft.to/lastmile_qr_scan"}, "lon": -77.02952616666667, "type": "electric_scooter", "fusion_lat": 0.0, "lat": 38.916781, "name": "e21c138e9791e8ad452076a1ecf5d498", "fusion_lon": 0.0, "bike_id": "e21c138e9791e8ad452076a1ecf5d498", "is_disabled": 0, "is_reserved": 0}, {"rental_uris": {"ios": "https://dc.lft.to/lastmile_qr_scan", "android": "https://dc.lft.to/lastmile_qr_scan"}, "lon": -76.99486033333334, "type": "electric_bike", "fusion_lat": 0.0, "lat": 38.89989683333334, "name": "4eca2c98ca615cabb4a08384f1c07678", "fusion_lon": 0.0, "bike_id": "4eca2c98ca615cabb4a08384f1c07678", "is_disabled": 0, "is_reserved": 0}, {"rental_uris": {"ios": "https://dc.lft.to/lastmile_qr_scan", "android": "https://dc.lft.to/lastmile_qr_scan"}, "lon": -76.99519566666666, "type": "electric_scooter", "fusion_lat": 0.0, "lat": 38.86261833333333, "name": "a0fa5fe900ca86959e97a96a6839f1ec", "fusion_lon": 0.0, "bike_id": "a0fa5fe900ca86959e97a96a6839f1ec", "is_disabled": 0, "is_reserved": 0}, {"rental_uris": {"ios": "https://dc.lft.to/lastmile_qr_scan", "android": "https://dc.lft.to/lastmile_qr_scan"},