{"data": {"bikes": [{"rental_uris": {"ios": "https://dc.lft.to/lastmile_qr_scan", "android": "https://dc.lft.to/lastmile_qr_scan"}, "lon": -77.03305783333333, "type": "electric_scooter", "fusion_lat": 0.0, "lat": 38.8984325, "name": "d7e9ce473218c3463aee1445f1fac509", "fusion_lon": 0.0, "bike_id": "d7e9ce473218c3463aee1445f1fac509", "is_disabled": 0, "is_reserved": 0}, {"rental_uris": {"ios": "https://dc.lft.to/lastmile_qr_scan", "android": "https://dc.lft.to/lastmile_qr_scan"}, "lon": -77.01872016666667, "type": "electric_scooter", "fusion_lat": 0.0, "lat": 38.948936333333336, "name": "91cd8c80d8c15c6e920ea3025cf164b5", "fusion_lon": 0.0, "bike_id": "91cd8c80d8c15c6e920ea3025cf164b5", "is_disabled": 0, "is_reserved": 0}, {"rental_uris": {"ios": "https://dc.lft.to/lastmile_qr_scan", "android": "https://dc.lft.to/lastmile_qr_scan"}, "lon": -77.04490083333333, "type": "electric_scooter", "fusion_lat": 0.0, "lat": 38.91883633333333, "name": "e307eb509637376ebf0b6c9a2160aae2", "fusion_lon": 0.0, "bike_id": "e307eb509637376ebf0b6c9a2160aae2", "is_disabled": 0, "is_reserved": 0}, {"rental_uris": {"ios": "https://dc.lft.to/lastmile_qr_scan", "android": "https://dc.lft.to/lastmile_qr_scan"}, "lon": -77.03238583333334, "type": "electric_scooter", "fusion_lat": 0.0, "lat": 38.9170605, "name": "af3626081eb7639387f63e6291095fc7", "fusion_lon": 0.0, "bike_id": "af3626081eb7639387f63e6291095fc7", "is_disabled": 0, "is_reserved": 0}, {"rental_uris": {"ios": "https://dc.lft.to/lastmile_qr_scan", "android": "https://dc.lft.to/lastmile_qr_scan"}, "lon": -77.04335533333334, "type": "electric_scooter", "fusion_lat": 0.0, "lat": 38.911309833333334, "name": "bca0bc74947f1ae44d8d05cdc82ffcf4", "fusion_lon": 0.0, "bike_id": "bca0bc74947f1ae44d8d05cdc82ffcf4", "is_disabled": 0, "is_reserved": 0}, {"rental_uris": {"ios": "https://dc.lft.to/lastmile_qr_scan", "android": "https://dc.lft.to/lastmile_qr_scan"}, "lon": -77.08818333333333, "type": "electric_bike", "fusion_lat": 0.0, "lat": 38.9116815, "name": "d05f50a8737e38494d4b9c3cce32336b", "fusion_lon": 0.0, "bike_id": "d05f50a8737e38494d4b9c3cce32336b", "is_disabled": 0, "is_reserved": 0}, {"rental_uris": {"ios": "https://dc.lft.to/lastmile_qr_scan", "android": "https://dc.lft.to/lastmile_qr_scan"}, "lon": -77.04781066666666, "type": "electric_scooter", "fusion_lat": 0.0, "lat": 38.89774033333333, "name": "ed2a46a810838e88be96df4f7ba0ec55", "fusion_lon": 0.0, "bike_id": "ed2a46a810838e88be96df4f7ba0ec55", "is_disabled": 0, "is_reserved": 0}, {"rental_uris": {"ios": "https://dc.lft.to/lastmile_qr_scan", "android": "https://dc.lft.to/lastmile_qr_scan"}, "lon": -76.9653185, "type": "electric_scooter", "fusion_lat": 0.0, "lat": 38.87629916666667, "name": "b7b9dce35c1cca883edd48066487ddc1", "fusion_lon": 0.0, "bike_id": "b7b9dce35c1cca883edd48066487ddc1", "is_disabled": 0, "is_reserved": 0}, {"rental_uris": {"ios": "https://dc.lft.to/lastmile_qr_scan", "android": "https://dc.lft.to/lastmile_qr_scan"}, "lon": -77.06608483333333, "type": "electric_scooter", "fusion_lat": 0.0, "lat": 38.905384166666664, "name": "e85a5d973e99896026f211e2549a8fe6", "fusion_lon": 0.0, "bike_id": "e85a5d973e99896026f211e2549a8fe6", "is_disabled": 0, "is_reserved": 0}, {"rental_uris": {"ios": "https://dc.lft.to/lastmile_qr_scan", "android": "https://dc.lft.to/lastmile_qr_scan"}, "lon": -77.04185483333333, "type": "electric_scooter", "fusion_lat": 0.0, "lat": 38.903469, "name": "78ef24120cfff8d2adbbe4c54ecfa39d", "fusion_lon": 0.0, "bike_id": "78ef24120cfff8d2adbbe4c54ecfa39d", "is_disabled": 0, "is_reserved": 0}, {"rental_uris": {"ios": "https://dc.lft.to/lastmile_qr_scan", "android": "https://dc.lft.to/lastmile_qr_scan"}, "lon": -77.05419316666666, "type": "electric_scooter", "fusion_lat": 0.0, "lat": 38.90242516666667, "name": "a347da573eecc360eb9ff4264be95eed", "fusion_lon": 0.0, "bike_id": "a347da573eecc360eb9ff4264be95eed", "is_disabled": 0, "is_reserved": 0}, {"rental_uris": {"ios": "https://dc.lft.to/lastmile_qr_scan", "android": "https://dc.lft.to/lastmile_qr_scan"}, "lon": -77.02409483333334, "type": "electric_scooter", "fusion_lat": 0.0, "lat": 38.89508816666667, "name": "6d8edf1ef7d83b59f9ff86fa6f954f8a", "fusion_lon": 0.0, "bike_id": "6d8edf1ef7d83b59f9ff86fa6f954f8a", "is_disabled": 0, "is_reserved": 0}, {"rental_uris": {"ios": "https://dc.lft.to/lastmile_qr_scan", "android": "https://dc.lft.to/lastmile_qr_scan"}, "lon": -77.04721566666667, "type": "electric_scooter", "fusion_lat": 0.0, "lat": 38.92241516666667, "name": "98e22fef905366d6f6ad5f84841fce6e", "fusion_lon": 0.0, "bike_id": "98e22fef905366d6f6ad5f84841fce6e", "is_disabled": 0, "is_reserved": 0}, {"rental_uris": {"ios": "https://dc.lft.to/lastmile_qr_scan", "android": "https://dc.lft.to/lastmile_qr_scan"}, "lon": -77.019889, "type": "electric_scooter", "fusion_lat": 0.0, "lat": 38.89976466666667, "name": "fdb81daed4b055f971df38eb6a1c7d57", "fusion_lon": 0.0, "bike_id": "fdb81daed4b055f971df38eb6a1c7d57", "is_disabled": 0, "is_reserved": 0}, {"rental_uris": {"ios": "https://dc.lft.to/lastmile_qr_scan", "android": "https://dc.lft.to/lastmile_qr_scan"}, "lon": -77.03405833333333, "type": "electric_scooter", "fusion_lat": 0.0, "lat": 38.9226675, "name": "cbab7ca752ed724673063fd050ea3849", "fusion_lon": 0.0, "bike_id": "cbab7ca752ed724673063fd050ea3849", "is_disabled": 0, "is_reserved": 0}, {"rental_uris": {"ios": "https://dc.lft.to/lastmile_qr_scan", "android": "https://dc.lft.to/lastmile_qr_scan"}, "lon": -77.03111116666666, "type": "electric_scooter", "fusion_lat": 0.0, "lat": 38.91415933333333, "name": "7530f465158a7196cb96a8ecc94396e3", "fusion_lon": 0.0, "bike_id": "7530f465158a7196cb96a8ecc94396e3", "is_disabled": 0, "is_reserved": 0}, {"rental_uris": {"ios": "https://dc.lft.to/lastmile_qr_scan", "android": "https://dc.lft.to/lastmile_qr_scan"}, "lon": -77.05503983333334, "type": "electric_scooter", "fusion_lat": 0.0, "lat": 38.92976933333333, "name": "b0fbb6267494bfbb7be63473fa7c15ff", "fusion_lon": 0.0, "bike_id": "b0fbb6267494bfbb7be63473fa7c15ff", "is_disabled": 0, "is_reserved": 0}, {"rental_uris": {"ios": "https://dc.lft.to/lastmile_qr_scan", "android": "https://dc.lft.to/lastmile_qr_scan"}, "lon": -77.02688016666667, "type": "electric_scooter", "fusion_lat": 0.0, "lat": 38.905429, "name": "7940de2772613b89092510a541870009", "fusion_lon": 0.0, "bike_id": "7940de2772613b89092510a541870009", "is_disabled": 0, "is_reserved": 0}, {"rental_uris": {"ios": "https://dc.lft.to/lastmile_qr_scan", "android": "https://dc.lft.to/lastmile_qr_scan"}, "lon": -77.02717883333334, "type": "electric_scooter", "fusion_lat": 0.0, "lat": 38.901395666666666, "name": "acc216f9253e9423ec2b8c674381fbfe", "fusion_lon": 0.0, "bike_id": "acc216f9253e9423ec2b8c674381fbfe", "is_disabled": 0, "is_reserved": 0}, {"rental_uris": {"ios": "https://dc.lft.to/lastmile_qr_scan", "android": "https://dc.lft.to/lastmile_qr_scan"}, "lon": -76.94888666666667, "type": "electric_scooter", "fusion_lat": 0.0, "lat": 38.89527983333333, "name": "f250a0955cd27bcb9f9008c5b3dd5423", "fusion_lon": 0.0, "bike_id": "f250a0955cd27bcb9f9008c5b3dd5423", "is_disabled": 0, "is_reserved": 0}, {"rental_uris": {"ios": "https://dc.lft.to/lastmile_qr_scan", "android": "https://dc.lft.to/lastmile_qr_scan"}, "lon": -77.05285083333334, "type": "electric_scooter", "fusion_lat": 0.0, "lat": 38.91891, "name": "75af19ec1911626000217c5e5fbb2772", "fusion_lon": 0.0, "bike_id": "75af19ec1911626000217c5e5fbb2772", "is_disabled": 0, "is_reserved": 0}, {"rental_uris": {"ios": "https://dc.lft.to/lastmile_qr_scan", "android": "https://dc.lft.to/lastmile_qr_scan"}, "lon": -76.99002433333334, "type": "electric_scooter", "fusion_lat": 0.0, "lat": 38.86504683333333, "name": "bfb728f1f141d646a1db3326db441720", "fusion_lon": 0.0, "bike_id": "bfb728f1f141d646a1db3326db441720", "is_disabled": 0, "is_reserved": 0}, {"rental_uris": {"ios": "https://dc.lft.to/lastmile_qr_scan", "android": "https://dc.lft.to/lastmile_qr_scan"}, "lon": -77.00864533333333, "type": "electric_bike", "fusion_lat": 0.0, "lat": 38.827285333333336, "name": "8d2d07e96cb4eb7b999a19055f1a181d", "fusion_lon": 0.0, "bike_id": "8d2d07e96cb4eb7b999a19055f1a181d", "is_disabled": 0, "is_reserved": 0}, {"rental_uris": {"ios": "https://dc.lft.to/lastmile_qr_scan", "android": "https://dc.lft.to/lastmile_qr_scan"}, "lon": -77.0706675, "type": "electric_scooter", "fusion_lat": 0.0, "lat": 38.95219083333333, "name": "a54bb79fca89cb9097f656f47d9234a2", "fusion_lon": 0.0, "bike_id": "a54bb79fca89cb9097f656f47d9234a2", "is_disabled": 0, "is_reserved": 0}, {"rental_uris": {"ios": "https://dc.lft.to/lastmile_qr_scan", "android": "https://dc.lft.to/lastmile_qr_scan"}, "lon": -77.03205933333334, "type": "electric_bike", "fusion_lat": 0.0, "lat": 38.909253, "name": "0a147d63df78fe92bd4f0e917909cd4d", "fusion_lon": 0.0, "bike_id": "0a147d63df78fe92bd4f0e917909cd4d", "is_disabled": 0, "is_reserved": 0}, {"rental_uris": {"ios": "https://dc.lft.to/lastmile_qr_scan", "android": "https://dc.lft.to/lastmile_qr_scan"}, "lon": -77.00739783333333, "type": "electric_scooter", "fusion_lat": 0.0, "lat": 38.9162695, "name": "183d0f8bca93390811ef7db4f5522e3c", "fusion_lon": 0.0, "bike_id": "183d0f8bca93390811ef7db4f5522e3c", "is_disabled": 0, "is_reserved": 0}, {"rental_uris": {"ios": "https://dc.lft.to/lastmile_qr_scan", "android": "https://dc.lft.to/lastmile_qr_scan"}, "lon": -77.03267116666666, "type": "electric_scooter", "fusion_lat": 0.0, "lat": 38.909623333333336, "name": "01e0f208f660b9fcb256c60c87645eb2", "fusion_lon": 0.0, "bike_id": "01e0f208f660b9fcb256c60c87645eb2", "is_disabled": 0, "is_reserved": 0}, {"rental_uris": {"ios": "https://dc.lft.to/lastmile_qr_scan", "android": "https://dc.lft.to/lastmile_qr_scan"}, "lon": -76.98022633333333, "type": "electric_scooter", "fusion_lat": 0.0, "lat": 38.887676, "name": "24b95e449c79c58513780e62a97a8804", "fusion_lon": 0.0, "bike_id": "24b95e449c79c58513780e62a97a8804", "is_disabled": 0, "is_reserved": 0}, {"rental_uris": {"ios": "https://dc.lft.to/lastmile_qr_scan", "android": "https://dc.lft.to/lastmile_qr_scan"}, "lon": -77.02427633333333, "type": "electric_scooter", "fusion_lat": 0.0, "lat": 38.90974816666667, "name": "2579e44fd8f59826290d13bb0316eae8", "fusion_lon": 0.0, "bike_id": "2579e44fd8f59826290d13bb0316eae8", "is_disabled": 0, "is_reserved": 0}, {"rental_uris": {"ios": "https://dc.lft.to/lastmile_qr_scan", "android": "https://dc.lft.to/lastmile_qr_scan"}, "lon": -77.01736983333333, "type": "electric_scooter", "fusion_lat": 0.0, "lat": 38.87725183333333, "name": "dac54e1b7cd2f5c10b9b761623ddd777", "fusion_lon": 0.0, "bike_id": "dac54e1b7cd2f5c10b9b761623ddd777", "is_disabled": 0, "is_reserved": 0}, {"rental_uris": {"ios": "https://dc.lft.to/lastmile_qr_scan", "android": "https://dc.lft.to/lastmile_qr_scan"}, "lon": -76.99567216666667, "type": "electric_scooter", "fusion_lat": 0.0, "lat": 38.884272833333334, "name": "2f24cba320f89fd7e87a25301db69c9e", "fusion_lon": 0.0, "bike_id": "2f24cba320f89fd7e87a25301db69c9e", "is_disabled": 0, "is_reserved": 0}, {"rental_uris": {"ios": "https://dc.lft.to/lastmile_qr_scan", "android": "https://dc.lft.to/lastmile_qr_scan"}, "lon": -77.02599266666667, "type": "electric_scooter", "fusion_lat": 0.0, "lat": 38.916934, "name": "b6a93aa4c38132059f72d08014fd4aa2", "fusion_lon": 0.0, "bike_id": "b6a93aa4c38132059f72d08014fd4aa2", "is_disabled": 0, "is_reserved": 0}, {"rental_uris": {"ios": "https://dc.lft.to/lastmile_qr_scan", "android": "https://dc.lft.to/lastmile_qr_scan"}, "lon": -77.03181766666667, "type": "electric_scooter", "fusion_lat": 0.0, "lat": 38.9297245, "name": "c220dd786d2936d042e5528285886e7b", "fusion_lon": 0.0, "bike_id": "c220dd786d2936d042e5528285886e7b", "is_disabled": 0, "is_reserved": 0}, {"rental_uris": {"ios": "https://dc.lft.to/lastmile_qr_scan", "android": "https://dc.lft.to/lastmile_qr_scan"}, "lon": -77.031445, "type": "electric_scooter", "fusion_lat": 0.0, "lat": 38.9156095, "name": "7c8111d189a072ce64c42100a18058b6", "fusion_lon": 0.0, "bike_id": "7c8111d189a072ce64c42100a18058b6", "is_disabled": 0, "is_reserved": 0}, {"rental_uris": {"ios": "https://dc.lft.to/lastmile_qr_scan", "android": "https://dc.lft.to/lastmile_qr_scan"}, "lon": -77.02375933333333, "type": "electric_scooter", "fusion_lat": 0.0, "lat": 38.93694766666667, "name": "fb01957b2fadba207299d3771e98019b", "fusion_lon": 0.0, "bike_id": "fb01957b2fadba207299d3771e98019b", "is_disabled": 0, "is_reserved": 0}, {"rental_uris": {"ios": "https://dc.lft.to/lastmile_qr_scan", "android": "https://dc.lft.to/lastmile_qr_scan"}, "lon": -77.03319116666667, "type": "electric_scooter", "fusion_lat": 0.0, "lat": 38.92664116666667, "name": "4012f7a7969ae674840d26ca66395e5e", "fusion_lon": 0.0, "bike_id": "4012f7a7969ae674840d26ca66395e5e", "is_disabled": 0, "is_reserved": 0}, {"rental_uris": {"ios": "https://dc.lft.to/lastmile_qr_scan", "android": "https://dc.lft.to/lastmile_qr_scan"}, "lon": -77.04055033333333, "type": "electric_scooter", "fusion_lat": 0.0, "lat": 38.92469233333333, "name": "9b92ee5df39599cf8870f70300c57de1", "fusion_lon": 0.0, "bike_id": "9b92ee5df39599cf8870f70300c57de1", "is_disabled": 0, "is_reserved": 0}, {"rental_uris": {"ios": "https://dc.lft.to/lastmile_qr_scan", "android": "https://dc.lft.to/lastmile_qr_scan"}, "lon": -76.972868, "type": "electric_bike", "fusion_lat": 0.0, "lat": 38.91977416666667, "name": "ceea113ba82d161973cfc9429e47a069", "fusion_lon": 0.0, "bike_id": "ceea113ba82d161973cfc9429e47a069", "is_disabled": 0, "is_reserved": 0}, {"rental_uris": {"ios": "https://dc.lft.to/lastmile_qr_scan", "android": "https://dc.lft.to/lastmile_qr_scan"}, "lon": -77.11037166666667, "type": "electric_bike", "fusion_lat": 0.0, "lat": 38.8708755, "name": "8757b058a2df1f2f2615375d7f4167fa", "fusion_lon": 0.0, "bike_id": "8757b058a2df1f2f2615375d7f4167fa", "is_disabled": 0, "is_reserved": 0}, {"rental_uris": {"ios": "https://dc.lft.to/lastmile_qr_scan", "android": "https://dc.lft.to/lastmile_qr_scan"}, "lon": -77.0448315, "type": "electric_scooter", "fusion_lat": 0.0, "lat": 38.91268383333333, "name": "2e671588e68a4b51908c35aa2711710c", "fusion_lon": 0.0, "bike_id": "2e671588e68a4b51908c35aa2711710c", "is_disabled": 0, "is_reserved": 0}, {"rental_uris": {"ios": "https://dc.lft.to/lastmile_qr_scan", "android": "https://dc.lft.to/lastmile_qr_scan"}, "lon": -76.97927016666667, "type": "electric_scooter", "fusion_lat": 0.0, "lat": 38.90494016666667, "name": "7fa348838493889b5fd7478f83317170", "fusion_lon": 0.0, "bike_id": "7fa348838493889b5fd7478f83317170", "is_disabled": 0, "is_reserved": 0}, {"rental_uris": {"ios": "https://dc.lft.to/lastmile_qr_scan", "android": "https://dc.lft.to/lastmile_qr_scan"}, "lon": -77.02242633333333, "type": "electric_scooter", "fusion_lat": 0.0, "lat": 38.9622315, "name": "d827f94910fea43d016c3f3b209b10c4", "fusion_lon": 0.0, "bike_id": "d827f94910fea43d016c3f3b209b10c4", "is_disabled": 0, "is_reserved": 0}, {"rental_uris": {"ios": "https://dc.lft.to/lastmile_qr_scan", "android": "https://dc.lft.to/lastmile_qr_scan"}, "lon": -77.0417175, "type": "electric_scooter", "fusion_lat": 0.0, "lat": 38.915254166666664, "name": "6612c9ba2ea399da5971c46ed1ee21b0", "fusion_lon": 0.0, "bike_id": "6612c9ba2ea399da5971c46ed1ee21b0", "is_disabled": 0, "is_reserved": 0}, {"rental_uris": {"ios": "https://dc.lft.to/lastmile_qr_scan", "android": "https://dc.lft.to/lastmile_qr_scan"}, "lon": -77.00572533333333, "type": "electric_scooter", "fusion_lat": 0.0, "lat": 38.90541566666667, "name": "38f5456de94f06c349c3cbe3fadc5b3c", "fusion_lon": 0.0, "bike_id": "38f5456de94f06c349c3cbe3fadc5b3c", "is_disabled": 0, "is_reserved": 0}, {"rental_uris": {"ios": "https://dc.lft.to/lastmile_qr_scan", "android": "https://dc.lft.to/lastmile_qr_scan"}, "lon": -76.98654616666667, "type": "electric_scooter", "fusion_lat": 0.0, "lat": 38.8580525, "name": "08948f2041411f3d1b15c5025e1c6deb", "fusion_lon": 0.0, "bike_id": "08948f2041411f3d1b15c5025e1c6deb", "is_disabled": 0, "is_reserved": 0}, {"rental_uris": {"ios": "https://dc.lft.to/lastmile_qr_scan", "android": "https://dc.lft.to/lastmile_qr_scan"}, "lon": -77.02222666666667, "type": "electric_scooter", "fusion_lat": 0.0, "lat": 38.89354083333333, "name": "5cc2647501321ce5c942a561a85c518e", "fusion_lon": 0.0, "bike_id": "5cc2647501321ce5c942a561a85c518e", "is_disabled": 0, "is_reserved": 0}, {"rental_uris": {"ios": "https://dc.lft.to/lastmile_qr_scan", "android": "https://dc.lft.to/lastmile_qr_scan"}, "lon": -76.94654266666667, "type": "electric_scooter", "fusion_lat": 0.0, "lat": 38.898237, "name": "66ab5cdc34eb5749645c7ac7ad95120a", "fusion_lon": 0.0, "bike_id": "66ab5cdc34eb5749645c7ac7ad95120a", "is_disabled": 0, "is_reserved": 0}, {"rental_uris": {"ios": "https://dc.lft.to/lastmile_qr_scan", "android": "https://dc.lft.to/lastmile_qr_scan"}, "lon": -77.003607, "type": "electric_scooter", "fusion_lat": 0.0, "lat": 38.89765416666667, "name": "4f69a7e227ed2d515b553d84883126bf", "fusion_lon": 0.0, "bike_id": "4f69a7e227ed2d515b553d84883126bf", "is_disabled": 0, "is_reserved": 0}, {"rental_uris": {"ios": "https://dc.lft.to/lastmile_qr_scan", "android": "https://dc.lft.to/lastmile_qr_scan"}, "lon": -77.10030533333334, "type": "electric_bike", "fusion_lat": 0.0, "lat": 38.99066216666667, "name": "f416a9e8ab4aea2bfe4e4f10cb7c7156", "fusion_lon": 0.0, "bike_id": "f416a9e8ab4aea2bfe4e4f10cb7c7156", "is_disabled": 0, "is_reserved": 0}, {"rental_uris": {"ios": "https://dc.lft.to/lastmile_qr_scan", "android": "https://dc.lft.to/lastmile_qr_scan"}, "lon": -77.16273516666666, "type": "electric_bike", "fusion_lat": 0.0, "lat": 38.88667016666667, "name": "12811e1b5b7ee1101ed6015fd75de6be", "fusion_lon": 0.0, "bike_id": "12811e1b5b7ee1101ed6015fd75de6be", "is_disabled": 0, "is_reserved": 0}, {"rental_uris": {"ios": "https://dc.lft.to/lastmile_qr_scan", "android": "https://dc.lft.to/lastmile_qr_scan"}, "lon": -77.02333466666667, "type": "electric_scooter", "fusion_lat": 0.0, "lat": 38.930536333333336, "name": "084398ffb186943dcc9a44a7600a1757", "fusion_lon": 0.0, "bike_id": "084398ffb186943dcc9a44a7600a1757", "is_disabled": 0, "is_reserved": 0}, {"rental_uris": {"ios": "https://dc.lft.to/lastmile_qr_scan", "android": "https://dc.lft.to/lastmile_qr_scan"}, "lon": -77.0383985, "type": "electric_scooter", "fusion_lat": 0.0, "lat": 38.91191766666667, "name": "e6799cce568d2968d39967b8d3e99415", "fusion_lon": 0.0, "bike_id": "e6799cce568d2968d39967b8d3e99415", "is_disabled": 0, "is_reserved": 0}, {"rental_uris": {"ios": "https://dc.lft.to/lastmile_qr_scan", "android": "https://dc.lft.to/lastmile_qr_scan"}, "lon": -77.04649316666666, "type": "electric_scooter", "fusion_lat": 0.0, "lat": 38.8935125, "name": "6bdbbc454e14f51d86e0b5f8404681ea", "fusion_lon": 0.0, "bike_id": "6bdbbc454e14f51d86e0b5f8404681ea", "is_disabled": 0, "is_reserved": 0}, {"rental_uris": {"ios": "https://dc.lft.to/lastmile_qr_scan", "android": "https://dc.lft.to/lastmile_qr_scan"}, "lon": -76.98571633333333, "type": "electric_scooter", "fusion_lat": 0.0, "lat": 38.898919, "name": "304371591cf530a72485ad24940616cf", "fusion_lon": 0.0, "bike_id": "304371591cf530a72485ad24940616cf", "is_disabled": 0, "is_reserved": 0}, {"rental_uris": {"ios": "https://dc.lft.to/lastmile_qr_scan", "android": "https://dc.lft.to/lastmile_qr_scan"}, "lon": -77.02590583333334, "type": "electric_scooter", "fusion_lat": 0.0, "lat": 38.896449, "name": "fb72a19623d9589facb8891a9979a8f8", "fusion_lon": 0.0, "bike_id": "fb72a19623d9589facb8891a9979a8f8", "is_disabled": 0, "is_reserved": 0}, {"rental_uris": {"ios": "https://dc.lft.to/lastmile_qr_scan", "android": "https://dc.lft.to/lastmile_qr_scan"}, "lon": -76.98760300000001, "type": "electric_scooter", "fusion_lat": 0.0, "lat": 38.84500766666667, "name": "ee46a640cc81207a354c06f99cc0fbee", "fusion_lon": 0.0, "bike_id": "ee46a640cc81207a354c06f99cc0fbee", "is_disabled": 0, "is_reserved": 0}, {"rental_uris": {"ios": "https://dc.lft.to/lastmile_qr_scan", "android": "https://dc.lft.to/lastmile_qr_scan"}, "lon": -76.99203666666666, "type": "electric_scooter", "fusion_lat": 0.0, "lat": 38.846847833333335, "name": "e092b525e3552744277f109971369d14", "fusion_lon": 0.0, "bike_id": "e092b525e3552744277f109971369d14", "is_disabled": 0, "is_reserved": 0}, {"rental_uris": {"ios": "https://dc.lft.to/lastmile_qr_scan", "android": "https://dc.lft.to/lastmile_qr_scan"}, "lon": -76.98086983333333, "type": "electric_scooter", "fusion_lat": 0.0, "lat": 38.85720116666667, "name": "893b5bde0ed1a00ba65e619b012c1000", "fusion_lon": 0.0, "bike_id": "893b5bde0ed1a00ba65e619b012c1000", "is_disabled": 0, "is_reserved": 0}, {"rental_uris": {"ios": "https://dc.lft.to/lastmile_qr_scan", "android": "https://dc.lft.to/lastmile_qr_scan"}, "lon": -77.03465133333333, "type": "electric_scooter", "fusion_lat": 0.0, "lat": 38.921552166666665, "name": "a654e6ee274101ae1d0eb366264fb543", "fusion_lon": 0.0, "bike_id": "a654e6ee274101ae1d0eb366264fb543", "is_disabled": 0, "is_reserved": 0}, {"rental_uris": {"ios": "https://dc.lft.to/lastmile_qr_scan", "android": "https://dc.lft.to/lastmile_qr_scan"}, "lon": -77.0134545, "type": "electric_bike", "fusion_lat": 0.0, "lat": 38.99997716666667, "name": "94deaf1161f565c11f77f1c1b21b4b78", "fusion_lon": 0.0, "bike_id": "94deaf1161f565c11f77f1c1b21b4b78", "is_disabled": 0, "is_reserved": 0}, {"rental_uris": {"ios": "https://dc.lft.to/lastmile_qr_scan", "android": "https://dc.lft.to/lastmile_qr_scan"}, "lon": -77.00656116666667, "type": "electric_scooter", "fusion_lat": 0.0, "lat": 38.8718305, "name": "14e788ecb8323cfb89d1d810901103ff", "fusion_lon": 0.0, "bike_id": "14e788ecb8323cfb89d1d810901103ff", "is_disabled": 0, "is_reserved": 0}, {"rental_uris": {"ios": "https://dc.lft.to/lastmile_qr_scan", "android": "https://dc.lft.to/lastmile_qr_scan"}, "lon": -77.055433, "type": "electric_scooter", "fusion_lat": 0.0, "lat": 38.927953, "name": "0bac3b0f1b8f157304a9de486f108233", "fusion_lon": 0.0, "bike_id": "0bac3b0f1b8f157304a9de486f108233", "is_disabled": 0, "is_reserved": 0}, {"rental_uris": {"ios": "https://dc.lft.to/lastmile_qr_scan", "android": "https://dc.lft.to/lastmile_qr_scan"}, "lon": -77.01894933333334, "type": "electric_scooter", "fusion_lat": 0.0, "lat": 38.876603333333335, "name": "e91e0e7bbf67c4ec6920fa11c4788a26", "fusion_lon": 0.0, "bike_id": "e91e0e7bbf67c4ec6920fa11c4788a26", "is_disabled": 0, "is_reserved": 0}, {"rental_uris": {"ios": "https://dc.lft.to/lastmile_qr_scan", "android": "https://dc.lft.to/lastmile_qr_scan"}, "lon": -77.02750066666667, "type": "electric_scooter", "fusion_lat": 0.0, "lat": 38.9396145, "name": "4f5c64bcc27d12e9b8f6ff39aa27b0ac", "fusion_lon": 0.0, "bike_id": "4f5c64bcc27d12e9b8f6ff39aa27b0ac", "is_disabled": 0, "is_reserved": 0}, {"rental_uris": {"ios": "https://dc.lft.to/lastmile_qr_scan", "android": "https://dc.lft.to/lastmile_qr_scan"}, "lon": -77.027274, "type": "electric_scooter", "fusion_lat": 0.0, "lat": 38.913816, "name": "9d0c7bd480444041172ee0615dd56d42", "fusion_lon": 0.0, "bike_id": "9d0c7bd480444041172ee0615dd56d42", "is_disabled": 0, "is_reserved": 0}, {"rental_uris": {"ios": "https://dc.lft.to/lastmile_qr_scan", "android": "https://dc.lft.to/lastmile_qr_scan"}, "lon": -77.02138166666667, "type": "electric_scooter", "fusion_lat": 0.0, "lat": 38.89502683333333, "name": "7194063a6e355af671c30d1308d55dd3", "fusion_lon": 0.0, "bike_id": "7194063a6e355af671c30d1308d55dd3", "is_disabled": 0, "is_reserved": 0}, {"rental_uris": {"ios": "https://dc.lft.to/lastmile_qr_scan", "android": "https://dc.lft.to/lastmile_qr_scan"}, "lon": -77.01118, "type": "electric_scooter", "fusion_lat": 0.0, "lat": 38.903754166666666, "name": "03afaeb8dd5a71ff592350e4f144a2fb", "fusion_lon": 0.0, "bike_id": "03afaeb8dd5a71ff592350e4f144a2fb", "is_disabled": 0, "is_reserved": 0}, {"rental_uris": {"ios": "https://dc.lft.to/lastmile_qr_scan", "android": "https://dc.lft.to/lastmile_qr_scan"}, "lon": -77.03842583333333, "type": "electric_scooter", "fusion_lat": 0.0, "lat": 38.908459, "name": "ae77e5c56ca46ec072f59e9ebeed8e10", "fusion_lon": 0.0, "bike_id": "ae77e5c56ca46ec072f59e9ebeed8e10", "is_disabled": 0, "is_reserved": 0}, {"rental_uris": {"ios": "https://dc.lft.to/lastmile_qr_scan", "android": "https://dc.lft.to/lastmile_qr_scan"}, "lon": -77.08543433333334, "type": "electric_bike", "fusion_lat": 0.0, "lat": 38.85620266666667, "name": "efc170d183f5e3c81374dbfb085941e6", "fusion_lon": 0.0, "bike_id": "efc170d183f5e3c81374dbfb085941e6", "is_disabled": 0, "is_reserved": 0}, {"rental_uris": {"ios": "https://dc.lft.to/lastmile_qr_scan", "android": "https://dc.lft.to/lastmile_qr_scan"}, "lon": -77.046806, "type": "electric_scooter", "fusion_lat": 0.0, "lat": 38.897354166666666, "name": "7e020a65f1aecbc3f91afd9dbd915094", "fusion_lon": 0.0, "bike_id": "7e020a65f1aecbc3f91afd9dbd915094", "is_disabled": 0, "is_reserved": 0}, {"rental_uris": {"ios": "https://dc.lft.to/lastmile_qr_scan", "android": "https://dc.lft.to/lastmile_qr_scan"}, "lon": -77.02656166666667, "type": "electric_scooter", "fusion_lat": 0.0, "lat": 38.91698816666667, "name": "8e5f699cf782fa0f3ef22e60e7f50f9c", "fusion_lon": 0.0, "bike_id": "8e5f699cf782fa0f3ef22e60e7f50f9c", "is_disabled": 0, "is_reserved": 0}, {"rental_uris": {"ios": "https://dc.lft.to/lastmile_qr_scan", "android": "https://dc.lft.to/lastmile_qr_scan"}, "lon": -76.98883833333333, "type": "electric_scooter", "fusion_lat": 0.0, "lat": 38.86661083333333, "name": "758ca247114de17b9a4a2bb04713f0be", "fusion_lon": 0.0, "bike_id": "758ca247114de17b9a4a2bb04713f0be", "is_disabled": 0, "is_reserved": 0}, {"rental_uris": {"ios": "https://dc.lft.to/lastmile_qr_scan", "android": "https://dc.lft.to/lastmile_qr_scan"}, "lon": -77.0116125, "type": "electric_scooter", "fusion_lat": 0.0, "lat": 38.90015666666667, "name": "ac40cc751d0c537670e703c3b78e4486", "fusion_lon": 0.0, "bike_id": "ac40cc751d0c537670e703c3b78e4486", "is_disabled": 0, "is_reserved": 0}, {"rental_uris": {"ios": "https://dc.lft.to/lastmile_qr_scan", "android": "https://dc.lft.to/lastmile_qr_scan"}, "lon": -77.0436215, "type": "electric_scooter", "fusion_lat": 0.0, "lat": 38.923507666666666, "name": "a1a91376637719de1d84420f21da3da8", "fusion_lon": 0.0, "bike_id": "a1a91376637719de1d84420f21da3da8", "is_disabled": 0, "is_reserved": 0}, {"rental_uris": {"ios": "https://dc.lft.to/lastmile_qr_scan", "android": "https://dc.lft.to/lastmile_qr_scan"}, "lon": -77.034851, "type": "electric_scooter", "fusion_lat": 0.0, "lat": 38.930427, "name": "84c094c720db946b3061a8977669a26d", "fusion_lon": 0.0, "bike_id": "84c094c720db946b3061a8977669a26d", "is_disabled": 0, "is_reserved": 0}, {"rental_uris": {"ios": "https://dc.lft.to/lastmile_qr_scan", "android": "https://dc.lft.to/lastmile_qr_scan"}, "lon": -77.0481415, "type": "electric_scooter", "fusion_lat": 0.0, "lat": 38.913281833333336, "name": "cf05f9a7b60dfffa522096229f9387dd", "fusion_lon": 0.0, "bike_id": "cf05f9a7b60dfffa522096229f9387dd", "is_disabled": 0, "is_reserved": 0}, {"rental_uris": {"ios": "https://dc.lft.to/lastmile_qr_scan", "android": "https://dc.lft.to/lastmile_qr_scan"}, "lon": -77.04537833333333, "type": "electric_scooter", "fusion_lat": 0.0, "lat": 38.90379716666666, "name": "09cade94912c48e963c1641eb0c66260", "fusion_lon": 0.0, "bike_id": "09cade94912c48e963c1641eb0c66260", "is_disabled": 0, "is_reserved": 0}, {"rental_uris": {"ios": "https://dc.lft.to/lastmile_qr_scan", "android": "https://dc.lft.to/lastmile_qr_scan"}, "lon": -77.02703516666666, "type": "electric_scooter", "fusion_lat": 0.0, "lat": 38.925973, "name": "679938734a61f9ad88b16e89adb7b666", "fusion_lon": 0.0, "bike_id": "679938734a61f9ad88b16e89adb7b666", "is_disabled": 0, "is_reserved": 0}, {"rental_uris": {"ios": "https://dc.lft.to/lastmile_qr_scan", "android": "https://dc.lft.to/lastmile_qr_scan"}, "lon": -77.01122866666667, "type": "electric_scooter", "fusion_lat": 0.0, "lat": 38.89516583333333, "name": "d863062cf9e6ecf21cefd7f1b91fa51a", "fusion_lon": 0.0, "bike_id": "d863062cf9e6ecf21cefd7f1b91fa51a", "is_disabled": 0, "is_reserved": 0}, {"rental_uris": {"ios": "https://dc.lft.to/lastmile_qr_scan", "android": "https://dc.lft.to/lastmile_qr_scan"}, "lon": -77.08198233333333, "type": "electric_scooter", "fusion_lat": 0.0, "lat": 38.94924783333333, "name": "ab3338c9f31aa5c5b82b7bc67f7a9918", "fusion_lon": 0.0, "bike_id": "ab3338c9f31aa5c5b82b7bc67f7a9918", "is_disabled": 0, "is_reserved": 0}, {"rental_uris": {"ios": "https://dc.lft.to/lastmile_qr_scan", "android": "https://dc.lft.to/lastmile_qr_scan"}, "lon": -77.03872283333334, "type": "electric_scooter", "fusion_lat": 0.0, "lat": 38.932510666666666, "name": "0053df50f61e196f38743624cfc5f959", "fusion_lon": 0.0, "bike_id": "0053df50f61e196f38743624cfc5f959", "is_disabled": 0, "is_reserved": 0}, {"rental_uris": {"ios": "https://dc.lft.to/lastmile_qr_scan", "android": "https://dc.lft.to/lastmile_qr_scan"}, "lon": -77.02584083333333, "type": "electric_scooter", "fusion_lat": 0.0, "lat": 38.8873865, "name": "fb577750eb0a780e2152da6b9fbd7854", "fusion_lon": 0.0, "bike_id": "fb577750eb0a780e2152da6b9fbd7854", "is_disabled": 0, "is_reserved": 0}, {"rental_uris": {"ios": "https://dc.lft.to/lastmile_qr_scan", "android": "https://dc.lft.to/lastmile_qr_scan"}, "lon": -77.03204416666667, "type": "electric_scooter", "fusion_lat": 0.0, "lat": 38.91539133333333, "name": "161e1f3f8be03b7b2dfb6db8bf379c7b", "fusion_lon": 0.0, "bike_id": "161e1f3f8be03b7b2dfb6db8bf379c7b", "is_disabled": 0, "is_reserved": 0}, {"rental_uris": {"ios": "https://dc.lft.to/lastmile_qr_scan", "android": "https://dc.lft.to/lastmile_qr_scan"}, "lon": -76.90819066666667, "type": "electric_bike", "fusion_lat": 0.0, "lat": 38.99461466666666, "name": "ae97221614555d97fd4c475550cae34f", "fusion_lon": 0.0, "bike_id": "ae97221614555d97fd4c475550cae34f", "is_disabled": 0, "is_reserved": 0}, {"rental_uris": {"ios": "https://dc.lft.to/lastmile_qr_scan", "android": "https://dc.lft.to/lastmile_qr_scan"}, "lon": -77.00755083333334, "type": "electric_scooter", "fusion_lat": 0.0, "lat": 38.898380833333334, "name": "1f326baf7b785266c18c05ecceef1255", "fusion_lon": 0.0, "bike_id": "1f326baf7b785266c18c05ecceef1255", "is_disabled": 0, "is_reserved": 0}, {"rental_uris": {"ios": "https://dc.lft.to/lastmile_qr_scan", "android": "https://dc.lft.to/lastmile_qr_scan"}, "lon": -76.9605885, "type": "electric_bike", "fusion_lat": 0.0, "lat": 38.88404966666667, "name": "c1a73423c4ce37d2a2f20242da3d367b", "fusion_lon": 0.0, "bike_id": "c1a73423c4ce37d2a2f20242da3d367b", "is_disabled": 0, "is_reserved": 0}, {"rental_uris": {"ios": "https://dc.lft.to/lastmile_qr_scan", "android": "https://dc.lft.to/lastmile_qr_scan"}, "lon": -76.989347, "type": "electric_bike", "fusion_lat": 0.0, "lat": 38.928600333333335, "name": "5142f6168c91b041e2a472db2b86083b", "fusion_lon": 0.0, "bike_id": "5142f6168c91b041e2a472db2b86083b", "is_disabled": 0, "is_reserved": 0}, {"rental_uris": {"ios": "https://dc.lft.to/lastmile_qr_scan", "android": "https://dc.lft.to/lastmile_qr_scan"}, "lon": -77.03275633333334, "type": "electric_scooter", "fusion_lat": 0.0, "lat": 38.93231883333333, "name": "8b93b76c5382577070f18ce425aa2832", "fusion_lon": 0.0, "bike_id": "8b93b76c5382577070f18ce425aa2832", "is_disabled": 0, "is_reserved": 0}, {"rental_uris": {"ios": "https://dc.lft.to/lastmile_qr_scan", "android": "https://dc.lft.to/lastmile_qr_scan"}, "lon": -77.12900416666666, "type": "electric_bike", "fusion_lat": 0.0, "lat": 38.863772, "name": "991d07d3d777aa6d1ccf303cd9f2c3a8", "fusion_lon": 0.0, "bike_id": "991d07d3d777aa6d1ccf303cd9f2c3a8", "is_disabled": 0, "is_reserved": 0}, {"rental_uris": {"ios": "https://dc.lft.to/lastmile_qr_scan", "android": "https://dc.lft.to/lastmile_qr_scan"}, "lon": -77.03227366666667, "type": "electric_scooter", "fusion_lat": 0.0, "lat": 38.9267095, "name": "e52ea304f13675ee895341c9781655a4", "fusion_lon": 0.0, "bike_id": "e52ea304f13675ee895341c9781655a4", "is_disabled": 0, "is_reserved": 0}, {"rental_uris": {"ios": "https://dc.lft.to/lastmile_qr_scan", "android": "https://dc.lft.to/lastmile_qr_scan"}, "lon": -76.9896045, "type": "electric_scooter", "fusion_lat": 0.0, "lat": 38.90023816666667, "name": "4066c9a6722946701cdf777fc068cec2", "fusion_lon": 0.0, "bike_id": "4066c9a6722946701cdf777fc068cec2", "is_disabled": 0, "is_reserved": 0}, {"rental_uris": {"ios": "https://dc.lft.to/lastmile_qr_scan", "android": "https://dc.lft.to/lastmile_qr_scan"}, "lon": -77.04893483333333, "type": "electric_scooter", "fusion_lat": 0.0, "lat": 38.902987833333334, "name": "6d07c9f8f726a0ab6b5201da9913a8f2", "fusion_lon": 0.0, "bike_id": "6d07c9f8f726a0ab6b5201da9913a8f2", "is_disabled": 0, "is_reserved": 0}, {"rental_uris": {"ios": "https://dc.lft.to/lastmile_qr_scan", "android": "https://dc.lft.to/lastmile_qr_scan"}, "lon": -77.17847533333334, "type": "electric_bike", "fusion_lat": 0.0, "lat": 39.08901983333333, "name": "29a4e44541d25de3e7df74c76735df58", "fusion_lon": 0.0, "bike_id": "29a4e44541d25de3e7df74c76735df58", "is_disabled": 0, "is_reserved": 0}, {"rental_uris": {"ios": "https://dc.lft.to/lastmile_qr_scan", "android": "https://dc.lft.to/lastmile_qr_scan"}, "lon": -76.978331, "type": "electric_bike", "fusion_lat": 0.0, "lat": 38.84613, "name": "37b3ad578524081b9882684c9d6e10e3", "fusion_lon": 0.0, "bike_id": "37b3ad578524081b9882684c9d6e10e3", "is_disabled": 0, "is_reserved": 0}, {"rental_uris": {"ios": "https://dc.lft.to/lastmile_qr_scan", "android": "https://dc.lft.to/lastmile_qr_scan"}, "lon": -77.0026785, "type": "electric_bike", "fusion_lat": 0.0, "lat": 38.9521905, "name": "13c49e279a1316bedc5ebcaf88a730de", "fusion_lon": 0.0, "bike_id": "13c49e279a1316bedc5ebcaf88a730de", "is_disabled": 0, "is_reserved": 0}, {"rental_uris": {"ios": "https://dc.lft.to/lastmile_qr_scan", "android": "https://dc.lft.to/lastmile_qr_scan"}, "lon": -77.0467745, "type": "electric_scooter", "fusion_lat": 0.0, "lat": 38.90540216666667, "name": "c21f13dddef0775a5afdc9cd0dec9cfe", "fusion_lon": 0.0, "bike_id": "c21f13dddef0775a5afdc9cd0dec9cfe", "is_disabled": 0, "is_reserved": 0}, {"rental_uris": {"ios": "https://dc.lft.to/lastmile_qr_scan", "android": "https://dc.lft.to/lastmile_qr_scan"}, "lon": -77.01413016666666, "type": "electric_scooter", "fusion_lat": 0.0, "lat": 38.928076833333336, "name": "6730c8c988726fce9e37b6f70ee3d42b", "fusion_lon": 0.0, "bike_id": "6730c8c988726fce9e37b6f70ee3d42b", "is_disabled": 0, "is_reserved": 0}, {"rental_uris": {"ios": "https://dc.lft.to/lastmile_qr_scan", "android": "https://dc.lft.to/lastmile_qr_scan"}, "lon": -77.039202, "type": "electric_scooter", "fusion_lat": 0.0, "lat": 38.92105083333333, "name": "17b33a331af280be1c40a569b5a88095", "fusion_lon": 0.0, "bike_id": "17b33a331af280be1c40a569b5a88095", "is_disabled": 0, "is_reserved": 0}, {"rental_uris": {"ios": "https://dc.lft.to/lastmile_qr_scan", "android": "https://dc.lft.to/lastmile_qr_scan"}, "lon": -77.038635, "type": "electric_scooter", "fusion_lat": 0.0, "lat": 38.909712, "name": "12747e15cc9122cda4fa90d31b65ea32", "fusion_lon": 0.0, "bike_id": "12747e15cc9122cda4fa90d31b65ea32", "is_disabled": 0, "is_reserved": 0}, {"rental_uris": {"ios": "https://dc.lft.to/lastmile_qr_scan", "android": "https://dc.lft.to/lastmile_qr_scan"}, "lon": -77.12628733333334, "type": "electric_bike", "fusion_lat": 0.0, "lat": 39.058119, "name": "e5891d4651b4385a52d758e279bde801", "fusion_lon": 0.0, "bike_id": "e5891d4651b4385a52d758e279bde801", "is_disabled": 0, "is_reserved": 0}, {"rental_uris": {"ios": "https://dc.lft.to/lastmile_qr_scan", "android": "https://dc.lft.to/lastmile_qr_scan"}, "lon": -77.0319695, "type": "electric_scooter", "fusion_lat": 0.0, "lat": 38.907636333333336, "name": "f402ced44c7d27573385489f3ee9ae70", "fusion_lon": 0.0, "bike_id": "f402ced44c7d27573385489f3ee9ae70", "is_disabled": 0, "is_reserved": 0}, {"rental_uris": {"ios": "https://dc.lft.to/lastmile_qr_scan", "android": "https://dc.lft.to/lastmile_qr_scan"}, "lon": -77.01617883333333, "type": "electric_scooter", "fusion_lat": 0.0, "lat": 38.903419666666665, "name": "d0e08f850c190257225a1581fa5861e3", "fusion_lon": 0.0, "bike_id": "d0e08f850c190257225a1581fa5861e3", "is_disabled": 0, "is_reserved": 0}, {"rental_uris": {"ios": "https://dc.lft.to/lastmile_qr_scan", "android": "https://dc.lft.to/lastmile_qr_scan"}, "lon": -77.02339366666666, "type": "electric_scooter", "fusion_lat": 0.0, "lat": 38.92939466666667, "name": "58d0f8a8daad96b0306520cde06a980d", "fusion_lon": 0.0, "bike_id": "58d0f8a8daad96b0306520cde06a980d", "is_disabled": 0, "is_reserved": 0}, {"rental_uris": {"ios": "https://dc.lft.to/lastmile_qr_scan", "android": "https://dc.lft.to/lastmile_qr_scan"}, "lon": -76.9871295, "type": "electric_scooter", "fusion_lat": 0.0, "lat": 38.8670135, "name": "bef4e4ca29107adb966db0452291fa9f", "fusion_lon": 0.0, "bike_id": "bef4e4ca29107adb966db0452291fa9f", "is_disabled": 0, "is_reserved": 0}, {"rental_uris": {"ios": "https://dc.lft.to/lastmile_qr_scan", "android": "https://dc.lft.to/lastmile_qr_scan"}, "lon": -77.0221155, "type": "electric_scooter", "fusion_lat": 0.0, "lat": 38.922283166666666, "name": "5816cec8770adfe1c9c314aeafcb377c", "fusion_lon": 0.0, "bike_id": "5816cec8770adfe1c9c314aeafcb377c", "is_disabled": 0, "is_reserved": 0}, {"rental_uris": {"ios": "https://dc.lft.to/lastmile_qr_scan", "android": "https://dc.lft.to/lastmile_qr_scan"}, "lon": -76.9317725, "type": "electric_scooter", "fusion_lat": 0.0, "lat": 38.89885533333333, "name": "9cd3ecf840fe94b703bafdb8a845b2c3", "fusion_lon": 0.0, "bike_id": "9cd3ecf840fe94b703bafdb8a845b2c3", "is_disabled": 0, "is_reserved": 0}, {"rental_uris": {"ios": "https://dc.lft.to/lastmile_qr_scan", "android": "https://dc.lft.to/lastmile_qr_scan"}, "lon": -76.9191745, "type": "electric_scooter", "fusion_lat": 0.0, "lat": 38.90041683333333, "name": "dadf99fcd89641edf1fb360acd6fefbc", "fusion_lon": 0.0, "bike_id": "dadf99fcd89641edf1fb360acd6fefbc", "is_disabled": 0, "is_reserved": 0}, {"rental_uris": {"ios": "https://dc.lft.to/lastmile_qr_scan", "android": "https://dc.lft.to/lastmile_qr_scan"}, "lon": -77.07328166666667, "type": "electric_scooter", "fusion_lat": 0.0, "lat": 38.9249245, "name": "fc5824d505c21a2d904bd4c9e1a76aff", "fusion_lon": 0.0, "bike_id": "fc5824d505c21a2d904bd4c9e1a76aff", "is_disabled": 0, "is_reserved": 0}, {"rental_uris": {"ios": "https://dc.lft.to/lastmile_qr_scan", "android": "https://dc.lft.to/lastmile_qr_scan"}, "lon": -77.03213216666667, "type": "electric_scooter", "fusion_lat": 0.0, "lat": 38.911176, "name": "d146a62bf2e7f77c829214e17ed94fe4", "fusion_lon": 0.0, "bike_id": "d146a62bf2e7f77c829214e17ed94fe4", "is_disabled": 0, "is_reserved": 0}, {"rental_uris": {"ios": "https://dc.lft.to/lastmile_qr_scan", "android": "https://dc.lft.to/lastmile_qr_scan"}, "lon": -76.99779466666666, "type": "electric_scooter", "fusion_lat": 0.0, "lat": 38.908684, "name": "17f16a1a39d5d86b7f8afef74b1a9d88", "fusion_lon": 0.0, "bike_id": "17f16a1a39d5d86b7f8afef74b1a9d88", "is_disabled": 0, "is_reserved": 0}, {"rental_uris": {"ios": "https://dc.lft.to/lastmile_qr_scan", "android": "https://dc.lft.to/lastmile_qr_scan"}, "lon": -77.02229483333333, "type": "electric_scooter", "fusion_lat": 0.0, "lat": 38.89196066666667, "name": "4d7dbe0dbc049fa4ff1add2505ea245f", "fusion_lon": 0.0, "bike_id": "4d7dbe0dbc049fa4ff1add2505ea245f", "is_disabled": 0, "is_reserved": 0}, {"rental_uris": {"ios": "https://dc.lft.to/lastmile_qr_scan", "android": "https://dc.lft.to/lastmile_qr_scan"}, "lon": -77.03304566666667, "type": "electric_scooter", "fusion_lat": 0.0, "lat": 38.9285855, "name": "ad42fde1503808df581077fc947f7f23", "fusion_lon": 0.0, "bike_id": "ad42fde1503808df581077fc947f7f23", "is_disabled": 0, "is_reserved": 0}, {"rental_uris": {"ios": "https://dc.lft.to/lastmile_qr_scan", "android": "https://dc.lft.to/lastmile_qr_scan"}, "lon": -77.036806, "type": "electric_scooter", "fusion_lat": 0.0, "lat": 38.92941833333333, "name": "9cc137a97fcd6e8134a8b5bf956e61b5", "fusion_lon": 0.0, "bike_id": "9cc137a97fcd6e8134a8b5bf956e61b5", "is_disabled": 0, "is_reserved": 0}, {"rental_uris": {"ios": "https://dc.lft.to/lastmile_qr_scan", "android": "https://dc.lft.to/lastmile_qr_scan"}, "lon": -77.04501583333334, "type": "electric_scooter", "fusion_lat": 0.0, "lat": 38.91117666666667, "name": "7e93134fc3ec3ac42665cd2da5003745", "fusion_lon": 0.0, "bike_id": "7e93134fc3ec3ac42665cd2da5003745", "is_disabled": 0, "is_reserved": 0}, {"rental_uris": {"ios": "https://dc.lft.to/lastmile_qr_scan", "android": "https://dc.lft.to/lastmile_qr_scan"}, "lon": -77.0174175, "type": "electric_scooter", "fusion_lat": 0.0, "lat": 38.884125, "name": "baf4185486dac94b5707c95bff1fc791", "fusion_lon": 0.0, "bike_id": "baf4185486dac94b5707c95bff1fc791", "is_disabled": 0, "is_reserved": 0}, {"rental_uris": {"ios": "https://dc.lft.to/lastmile_qr_scan", "android": "https://dc.lft.to/lastmile_qr_scan"}, "lon": -77.02797283333334, "type": "electric_scooter", "fusion_lat": 0.0, "lat": 38.896437166666665, "name": "da705dc5ce2a526d379ad0d837c67378", "fusion_lon": 0.0, "bike_id": "da705dc5ce2a526d379ad0d837c67378", "is_disabled": 0, "is_reserved": 0}, {"rental_uris": {"ios": "https://dc.lft.to/lastmile_qr_scan", "android": "https://dc.lft.to/lastmile_qr_scan"}, "lon": -77.044745, "type": "electric_scooter", "fusion_lat": 0.0, "lat": 38.91119066666667, "name": "778ac37490ac8f575f2aa2ea79441b17", "fusion_lon": 0.0, "bike_id": "778ac37490ac8f575f2aa2ea79441b17", "is_disabled": 0, "is_reserved": 0}, {"rental_uris": {"ios": "https://dc.lft.to/lastmile_qr_scan", "android": "https://dc.lft.to/lastmile_qr_scan"}, "lon": -76.981959, "type": "electric_scooter", "fusion_lat": 0.0, "lat": 38.9039315, "name": "a4ff5064b7e7608954576aed703a8661", "fusion_lon": 0.0, "bike_id": "a4ff5064b7e7608954576aed703a8661", "is_disabled": 0, "is_reserved": 0}, {"rental_uris": {"ios": "https://dc.lft.to/lastmile_qr_scan", "android": "https://dc.lft.to/lastmile_qr_scan"}, "lon": -77.02382833333333, "type": "electric_scooter", "fusion_lat": 0.0, "lat": 38.937687833333335, "name": "33293476655f6b65c746273b2cdec980", "fusion_lon": 0.0, "bike_id": "33293476655f6b65c746273b2cdec980", "is_disabled": 0, "is_reserved": 0}, {"rental_uris": {"ios": "https://dc.lft.to/lastmile_qr_scan", "android": "https://dc.lft.to/lastmile_qr_scan"}, "lon": -77.03178766666667, "type": "electric_scooter", "fusion_lat": 0.0, "lat": 38.88734433333333, "name": "978d36ae025b1b325d95d8871f200518", "fusion_lon": 0.0, "bike_id": "978d36ae025b1b325d95d8871f200518", "is_disabled": 0, "is_reserved": 0}, {"rental_uris": {"ios": "https://dc.lft.to/lastmile_qr_scan", "android": "https://dc.lft.to/lastmile_qr_scan"}, "lon": -77.02867533333334, "type": "electric_scooter", "fusion_lat": 0.0, "lat": 38.89850416666667, "name": "62353a9fa674c1c1911268238ad35483", "fusion_lon": 0.0, "bike_id": "62353a9fa674c1c1911268238ad35483", "is_disabled": 0, "is_reserved": 0}, {"rental_uris": {"ios": "https://dc.lft.to/lastmile_qr_scan", "android": "https://dc.lft.to/lastmile_qr_scan"}, "lon": -77.0550485, "type": "electric_scooter", "fusion_lat": 0.0, "lat": 38.92976566666667, "name": "5cdd2ac15eb78d1c84df478491250881", "fusion_lon": 0.0, "bike_id": "5cdd2ac15eb78d1c84df478491250881", "is_disabled": 0, "is_reserved": 0}, {"rental_uris": {"ios": "https://dc.lft.to/lastmile_qr_scan", "android": "https://dc.lft.to/lastmile_qr_scan"}, "lon": -77.03138883333334, "type": "electric_scooter", "fusion_lat": 0.0, "lat": 38.91123266666666, "name": "0881d4a7662e0fbf7468bff6bdeac68c", "fusion_lon": 0.0, "bike_id": "0881d4a7662e0fbf7468bff6bdeac68c", "is_disabled": 0, "is_reserved": 0}, {"rental_uris": {"ios": "https://dc.lft.to/lastmile_qr_scan", "android": "https://dc.lft.to/lastmile_qr_scan"}, "lon": -76.99256616666666, "type": "electric_scooter", "fusion_lat": 0.0, "lat": 38.919723833333336, "name": "df8ba2f64ac18fddddb0f2d59753f620", "fusion_lon": 0.0, "bike_id": "df8ba2f64ac18fddddb0f2d59753f620", "is_disabled": 0, "is_reserved": 0}, {"rental_uris": {"ios": "https://dc.lft.to/lastmile_qr_scan", "android": "https://dc.lft.to/lastmile_qr_scan"}, "lon": -77.115245, "type": "electric_bike", "fusion_lat": 0.0, "lat": 38.85493233333333, "name": "c3bef61c406ea6fc32f7ed8d3b21ef1d", "fusion_lon": 0.0, "bike_id": "c3bef61c406ea6fc32f7ed8d3b21ef1d", "is_disabled": 0, "is_reserved": 0}, {"rental_uris": {"ios": "https://dc.lft.to/lastmile_qr_scan", "android": "https://dc.lft.to/lastmile_qr_scan"}, "lon": -77.00745266666667, "type": "electric_scooter", "fusion_lat": 0.0, "lat": 38.878306, "name": "f94413dd7be1bfa6c8b940ebd91f7064", "fusion_lon": 0.0, "bike_id": "f94413dd7be1bfa6c8b940ebd91f7064", "is_disabled": 0, "is_reserved": 0}, {"rental_uris": {"ios": "https://dc.lft.to/lastmile_qr_scan", "android": "https://dc.lft.to/lastmile_qr_scan"}, "lon": -77.02153583333333, "type": "electric_scooter", "fusion_lat": 0.0, "lat": 38.879145, "name": "5fa88b4efa606513c7d0e547a5c141c7", "fusion_lon": 0.0, "bike_id": "5fa88b4efa606513c7d0e547a5c141c7", "is_disabled": 0, "is_reserved": 0}, {"rental_uris": {"ios": "https://dc.lft.to/lastmile_qr_scan", "android": "https://dc.lft.to/lastmile_qr_scan"}, "lon": -76.98700883333333, "type": "electric_scooter", "fusion_lat": 0.0, "lat": 38.907044666666664, "name": "99913a003f34ea3ba720036a88cfa062", "fusion_lon": 0.0, "bike_id": "99913a003f34ea3ba720036a88cfa062", "is_disabled": 0, "is_reserved": 0}, {"rental_uris": {"ios": "https://dc.lft.to/lastmile_qr_scan", "android": "https://dc.lft.to/lastmile_qr_scan"}, "lon": -77.065272, "type": "electric_bike", "fusion_lat": 0.0, "lat": 38.904535833333334, "name": "9ae0b145cedf109eb3d4a20361afa5be", "fusion_lon": 0.0, "bike_id": "9ae0b145cedf109eb3d4a20361afa5be", "is_disabled": 0, "is_reserved": 0}, {"rental_uris": {"ios": "https://dc.lft.to/lastmile_qr_scan", "android": "https://dc.lft.to/lastmile_qr_scan"}, "lon": -77.05400766666666, "type": "electric_bike", "fusion_lat": 0.0, "lat": 38.903832666666666, "name": "2c809660b2e7a319281492bca148dc3a", "fusion_lon": 0.0, "bike_id": "2c809660b2e7a319281492bca148dc3a", "is_disabled": 0, "is_reserved": 0}, {"rental_uris": {"ios": "https://dc.lft.to/lastmile_qr_scan", "android": "https://dc.lft.to/lastmile_qr_scan"}, "lon": -77.02787916666666, "type": "electric_bike", "fusion_lat": 0.0, "lat": 38.968928166666664, "name": "ab9be11f2ebf71d91d1c81fe9a8704c0", "fusion_lon": 0.0, "bike_id": "ab9be11f2ebf71d91d1c81fe9a8704c0", "is_disabled": 0, "is_reserved": 0}, {"rental_uris": {"ios": "https://dc.lft.to/lastmile_qr_scan", "android": "https://dc.lft.to/lastmile_qr_scan"}, "lon": -77.0406755, "type": "electric_scooter", "fusion_lat": 0.0, "lat": 38.90271766666667, "name": "89362eeb8926f3ac5a404606d68567bf", "fusion_lon": 0.0, "bike_id": "89362eeb8926f3ac5a404606d68567bf", "is_disabled": 0, "is_reserved": 0}, {"rental_uris": {"ios": "https://dc.lft.to/lastmile_qr_scan", "android": "https://dc.lft.to/lastmile_qr_scan"}, "lon": -77.038672, "type": "electric_scooter", "fusion_lat": 0.0, "lat": 38.92020983333333, "name": "9936d8dc7cf35e184bac62379277f6ed", "fusion_lon": 0.0, "bike_id": "9936d8dc7cf35e184bac62379277f6ed", "is_disabled": 0, "is_reserved": 0}, {"rental_uris": {"ios": "https://dc.lft.to/lastmile_qr_scan", "android": "https://dc.lft.to/lastmile_qr_scan"}, "lon": -77.0117535, "type": "electric_scooter", "fusion_lat": 0.0, "lat": 38.90019083333333, "name": "f08445e11a25b969a7ec733c4de20967", "fusion_lon": 0.0, "bike_id": "f08445e11a25b969a7ec733c4de20967", "is_disabled": 0, "is_reserved": 0}, {"rental_uris": {"ios": "https://dc.lft.to/lastmile_qr_scan", "android": "https://dc.lft.to/lastmile_qr_scan"}, "lon": -76.97878033333333, "type": "electric_scooter", "fusion_lat": 0.0, "lat": 38.88511, "name": "c916818080272155a105530a7782e61d", "fusion_lon": 0.0, "bike_id": "c916818080272155a105530a7782e61d", "is_disabled": 0, "is_reserved": 0}, {"rental_uris": {"ios": "https://dc.lft.to/lastmile_qr_scan", "android": "https://dc.lft.to/lastmile_qr_scan"}, "lon": -77.01090333333333, "type": "electric_scooter", "fusion_lat": 0.0, "lat": 38.894317666666666, "name": "728394082c79efa167e5906502f027d5", "fusion_lon": 0.0, "bike_id": "728394082c79efa167e5906502f027d5", "is_disabled": 0, "is_reserved": 0}, {"rental_uris": {"ios": "https://dc.lft.to/lastmile_qr_scan", "android": "https://dc.lft.to/lastmile_qr_scan"}, "lon": -77.0358975, "type": "electric_scooter", "fusion_lat": 0.0, "lat": 38.932382833333335, "name": "8309b2eb85dc87258a7e6387dcbf09c1", "fusion_lon": 0.0, "bike_id": "8309b2eb85dc87258a7e6387dcbf09c1", "is_disabled": 0, "is_reserved": 0}, {"rental_uris": {"ios": "https://dc.lft.to/lastmile_qr_scan", "android": "https://dc.lft.to/lastmile_qr_scan"}, "lon": -77.03313566666667, "type": "electric_scooter", "fusion_lat": 0.0, "lat": 38.8984645, "name": "7053d754516c7612c5f961ade4b0e969", "fusion_lon": 0.0, "bike_id": "7053d754516c7612c5f961ade4b0e969", "is_disabled": 0, "is_reserved": 0}, {"rental_uris": {"ios": "https://dc.lft.to/lastmile_qr_scan", "android": "https://dc.lft.to/lastmile_qr_scan"}, "lon": -77.06288333333333, "type": "electric_scooter", "fusion_lat": 0.0, "lat": 38.9064795, "name": "0736143b164e3257d420b92f2c42f5b1", "fusion_lon": 0.0, "bike_id": "0736143b164e3257d420b92f2c42f5b1", "is_disabled": 0, "is_reserved": 0}, {"rental_uris": {"ios": "https://dc.lft.to/lastmile_qr_scan", "android": "https://dc.lft.to/lastmile_qr_scan"}, "lon": -77.03216316666666, "type": "electric_scooter", "fusion_lat": 0.0, "lat": 38.9169085, "name": "0f428b983d1e59c9eb3b4d1f1e59f135", "fusion_lon": 0.0, "bike_id": "0f428b983d1e59c9eb3b4d1f1e59f135", "is_disabled": 0, "is_reserved": 0}, {"rental_uris": {"ios": "https://dc.lft.to/lastmile_qr_scan", "android": "https://dc.lft.to/lastmile_qr_scan"}, "lon": -77.04817333333334, "type": "electric_scooter", "fusion_lat": 0.0, "lat": 38.90792883333334, "name": "4e7503ad73d93e01fbd6673e8aa7d853", "fusion_lon": 0.0, "bike_id": "4e7503ad73d93e01fbd6673e8aa7d853", "is_disabled": 0, "is_reserved": 0}, {"rental_uris": {"ios": "https://dc.lft.to/lastmile_qr_scan", "android": "https://dc.lft.to/lastmile_qr_scan"}, "lon": -77.02174483333333, "type": "electric_scooter", "fusion_lat": 0.0, "lat": 38.942967833333334, "name": "cee182b35adb50c272da570a387fe3b6", "fusion_lon": 0.0, "bike_id": "cee182b35adb50c272da570a387fe3b6", "is_disabled": 0, "is_reserved": 0}, {"rental_uris": {"ios": "https://dc.lft.to/lastmile_qr_scan", "android": "https://dc.lft.to/lastmile_qr_scan"}, "lon": -77.06329416666667, "type": "electric_bike", "fusion_lat": 0.0, "lat": 38.921095333333334, "name": "c3560de0823a0d64bed8d5d849d7422d", "fusion_lon": 0.0, "bike_id": "c3560de0823a0d64bed8d5d849d7422d", "is_disabled": 0, "is_reserved": 0}, {"rental_uris": {"ios": "https://dc.lft.to/lastmile_qr_scan", "android": "https://dc.lft.to/lastmile_qr_scan"}, "lon": -77.03171266666666, "type": "electric_scooter", "fusion_lat": 0.0, "lat": 38.91335616666667, "name": "b9a6bdb526da8905fe06170a0973a85c", "fusion_lon": 0.0, "bike_id": "b9a6bdb526da8905fe06170a0973a85c", "is_disabled": 0, "is_reserved": 0}, {"rental_uris": {"ios": "https://dc.lft.to/lastmile_qr_scan", "android": "https://dc.lft.to/lastmile_qr_scan"}, "lon": -77.05862783333333, "type": "electric_scooter", "fusion_lat": 0.0, "lat": 38.936044333333335, "name": "e6d70ff32b5ce89985cb247ce7f7f11a", "fusion_lon": 0.0, "bike_id": "e6d70ff32b5ce89985cb247ce7f7f11a", "is_disabled": 0, "is_reserved": 0}, {"rental_uris": {"ios": "https://dc.lft.to/lastmile_qr_scan", "android": "https://dc.lft.to/lastmile_qr_scan"}, "lon": -77.0137175, "type": "electric_scooter", "fusion_lat": 0.0, "lat": 38.863706, "name": "647874e675fc3e8a6096c906299fcabb", "fusion_lon": 0.0, "bike_id": "647874e675fc3e8a6096c906299fcabb", "is_disabled": 0, "is_reserved": 0}, {"rental_uris": {"ios": "https://dc.lft.to/lastmile_qr_scan", "android": "https://dc.lft.to/lastmile_qr_scan"}, "lon": -76.9463005, "type": "electric_scooter", "fusion_lat": 0.0, "lat": 38.898444, "name": "2cacb498f02a70ac4c063ac3464f9275", "fusion_lon": 0.0, "bike_id": "2cacb498f02a70ac4c063ac3464f9275", "is_disabled": 0, "is_reserved": 0}, {"rental_uris": {"ios": "https://dc.lft.to/lastmile_qr_scan", "android": "https://dc.lft.to/lastmile_qr_scan"}, "lon": -77.02426483333333, "type": "electric_scooter", "fusion_lat": 0.0, "lat": 38.9071985, "name": "4bfb5b66804cacd1313e131c4c8f563f", "fusion_lon": 0.0, "bike_id": "4bfb5b66804cacd1313e131c4c8f563f", "is_disabled": 0, "is_reserved": 0}, {"rental_uris": {"ios": "https://dc.lft.to/lastmile_qr_scan", "android": "https://dc.lft.to/lastmile_qr_scan"}, "lon": -77.08054816666667, "type": "electric_bike", "fusion_lat": 0.0, "lat": 38.84844283333334, "name": "8d96be99c926a64eef38410d44ec6159", "fusion_lon": 0.0, "bike_id": "8d96be99c926a64eef38410d44ec6159", "is_disabled": 0, "is_reserved": 0}, {"rental_uris": {"ios": "https://dc.lft.to/lastmile_qr_scan", "android": "https://dc.lft.to/lastmile_qr_scan"}, "lon": -76.981329, "type": "electric_scooter", "fusion_lat": 0.0, "lat": 38.85712183333333, "name": "56f4a0f74c4b05e5367452df09f87a8b", "fusion_lon": 0.0, "bike_id": "56f4a0f74c4b05e5367452df09f87a8b", "is_disabled": 0, "is_reserved": 0}, {"rental_uris": {"ios": "https://dc.lft.to/lastmile_qr_scan", "android": "https://dc.lft.to/lastmile_qr_scan"}, "lon": -77.0386145, "type": "electric_scooter", "fusion_lat": 0.0, "lat": 38.90769516666667, "name": "944d20c61197104c65750bc8cfea0a16", "fusion_lon": 0.0, "bike_id": "944d20c61197104c65750bc8cfea0a16", "is_disabled": 0, "is_reserved": 0}, {"rental_uris": {"ios": "https://dc.lft.to/lastmile_qr_scan", "android": "https://dc.lft.to/lastmile_qr_scan"}, "lon": -77.02621666666667, "type": "electric_scooter", "fusion_lat": 0.0, "lat": 38.91527933333333, "name": "613051e089c193af3ef96c161d88d2be", "fusion_lon": 0.0, "bike_id": "613051e089c193af3ef96c161d88d2be", "is_disabled": 0, "is_reserved": 0}, {"rental_uris": {"ios": "https://dc.lft.to/lastmile_qr_scan", "android": "https://dc.lft.to/lastmile_qr_scan"}, "lon": -77.05474333333333, "type": "electric_scooter", "fusion_lat": 0.0, "lat": 38.910669166666665, "name": "4c4be503a644a953ed70c8934d878814", "fusion_lon": 0.0, "bike_id": "4c4be503a644a953ed70c8934d878814", "is_disabled": 0, "is_reserved": 0}, {"rental_uris": {"ios": "https://dc.lft.to/lastmile_qr_scan", "android": "https://dc.lft.to/lastmile_qr_scan"}, "lon": -77.04726883333333, "type": "electric_scooter", "fusion_lat": 0.0, "lat": 38.89952516666666, "name": "8867dc5303457ddc8f19cc89f7c0afe0", "fusion_lon": 0.0, "bike_id": "8867dc5303457ddc8f19cc89f7c0afe0", "is_disabled": 0, "is_reserved": 0}, {"rental_uris": {"ios": "https://dc.lft.to/lastmile_qr_scan", "android": "https://dc.lft.to/lastmile_qr_scan"}, "lon": -76.99462333333334, "type": "electric_scooter", "fusion_lat": 0.0, "lat": 38.851622166666665, "name": "9aa1f3e78f8dcc20e959b12b9d2d9280", "fusion_lon": 0.0, "bike_id": "9aa1f3e78f8dcc20e959b12b9d2d9280", "is_disabled": 0, "is_reserved": 0}, {"rental_uris": {"ios": "https://dc.lft.to/lastmile_qr_scan", "android": "https://dc.lft.to/lastmile_qr_scan"}, "lon": -77.019746, "type": "electric_bike", "fusion_lat": 0.0, "lat": 38.91527116666666, "name": "160c001d9e9d6f93310f692dbd44c49b", "fusion_lon": 0.0, "bike_id": "160c001d9e9d6f93310f692dbd44c49b", "is_disabled": 0, "is_reserved": 0}, {"rental_uris": {"ios": "https://dc.lft.to/lastmile_qr_scan", "android": "https://dc.lft.to/lastmile_qr_scan"}, "lon": -77.035688, "type": "electric_scooter", "fusion_lat": 0.0, "lat": 38.93984583333334, "name": "a3f9f0779586d3fb10163002e47eabef", "fusion_lon": 0.0, "bike_id": "a3f9f0779586d3fb10163002e47eabef", "is_disabled": 0, "is_reserved": 0}, {"rental_uris": {"ios": "https://dc.lft.to/lastmile_qr_scan", "android": "https://dc.lft.to/lastmile_qr_scan"}, "lon": -77.05553533333334, "type": "electric_scooter", "fusion_lat": 0.0, "lat": 38.925324333333336, "name": "d085aaf8d6eadfea53206d587e198ede", "fusion_lon": 0.0, "bike_id": "d085aaf8d6eadfea53206d587e198ede", "is_disabled": 0, "is_reserved": 0}, {"rental_uris": {"ios": "https://dc.lft.to/lastmile_qr_scan", "android": "https://dc.lft.to/lastmile_qr_scan"}, "lon": -77.04178533333334, "type": "electric_scooter", "fusion_lat": 0.0, "lat": 38.90529816666667, "name": "007256f668cb42825e55e6a028f9f2ea", "fusion_lon": 0.0, "bike_id": "007256f668cb42825e55e6a028f9f2ea", "is_disabled": 0, "is_reserved": 0}, {"rental_uris": {"ios": "https://dc.lft.to/lastmile_qr_scan", "android": "https://dc.lft.to/lastmile_qr_scan"}, "lon": -77.0213585, "type": "electric_scooter", "fusion_lat": 0.0, "lat": 38.8949725, "name": "07a0c5ce0f41ea159de5a437fcc3746e", "fusion_lon": 0.0, "bike_id": "07a0c5ce0f41ea159de5a437fcc3746e", "is_disabled": 0, "is_reserved": 0}, {"rental_uris": {"ios": "https://dc.lft.to/lastmile_qr_scan", "android": "https://dc.lft.to/lastmile_qr_scan"}, "lon": -76.93965483333334, "type": "electric_scooter", "fusion_lat": 0.0, "lat": 38.899680000000004, "name": "c1eda60a1061d3cb3d2f47ed62ce9c79", "fusion_lon": 0.0, "bike_id": "c1eda60a1061d3cb3d2f47ed62ce9c79", "is_disabled": 0, "is_reserved": 0}, {"rental_uris": {"ios": "https://dc.lft.to/lastmile_qr_scan", "android": "https://dc.lft.to/lastmile_qr_scan"}, "lon": -76.95749933333333, "type": "electric_scooter", "fusion_lat": 0.0, "lat": 38.884265, "name": "86ce68bc193404188ef133f4d157adc0", "fusion_lon": 0.0, "bike_id": "86ce68bc193404188ef133f4d157adc0", "is_disabled": 0, "is_reserved": 0}, {"rental_uris": {"ios": "https://dc.lft.to/lastmile_qr_scan", "android": "https://dc.lft.to/lastmile_qr_scan"}, "lon": -76.9576245, "type": "electric_bike", "fusion_lat": 0.0, "lat": 38.88419416666667, "name": "8651d8508397c68498d26a2e961acda2", "fusion_lon": 0.0, "bike_id": "8651d8508397c68498d26a2e961acda2", "is_disabled": 0, "is_reserved": 0}, {"rental_uris": {"ios": "https://dc.lft.to/lastmile_qr_scan", "android": "https://dc.lft.to/lastmile_qr_scan"}, "lon": -76.87822233333333, "type": "electric_bike", "fusion_lat": 0.0, "lat": 38.99233816666667, "name": "bc1f0e0f0fb31dfa0a9d2f6f5bd993b8", "fusion_lon": 0.0, "bike_id": "bc1f0e0f0fb31dfa0a9d2f6f5bd993b8", "is_disabled": 0, "is_reserved": 0}, {"rental_uris": {"ios": "https://dc.lft.to/lastmile_qr_scan", "android": "https://dc.lft.to/lastmile_qr_scan"}, "lon": -77.03196683333333, "type": "electric_scooter", "fusion_lat": 0.0, "lat": 38.91413883333333, "name": "01b4a3f0e53d32f64423869381a54837", "fusion_lon": 0.0, "bike_id": "01b4a3f0e53d32f64423869381a54837", "is_disabled": 0, "is_reserved": 0}, {"rental_uris": {"ios": "https://dc.lft.to/lastmile_qr_scan", "android": "https://dc.lft.to/lastmile_qr_scan"}, "lon": -76.94667433333333, "type": "electric_scooter", "fusion_lat": 0.0, "lat": 38.90338633333333, "name": "afe70d77a1e99b9121663fefffa0fc4c", "fusion_lon": 0.0, "bike_id": "afe70d77a1e99b9121663fefffa0fc4c", "is_disabled": 0, "is_reserved": 0}, {"rental_uris": {"ios": "https://dc.lft.to/lastmile_qr_scan", "android": "https://dc.lft.to/lastmile_qr_scan"}, "lon": -77.0321935, "type": "electric_scooter", "fusion_lat": 0.0, "lat": 38.928825333333336, "name": "f2167f25c78c51b2c40e0e65978e347e", "fusion_lon": 0.0, "bike_id": "f2167f25c78c51b2c40e0e65978e347e", "is_disabled": 0, "is_reserved": 0}, {"rental_uris": {"ios": "https://dc.lft.to/lastmile_qr_scan", "android": "https://dc.lft.to/lastmile_qr_scan"}, "lon": -77.002958, "type": "electric_bike", "fusion_lat": 0.0, "lat": 38.916118833333336, "name": "6cbe365d05365aa2998938f0498bfcb9", "fusion_lon": 0.0, "bike_id": "6cbe365d05365aa2998938f0498bfcb9", "is_disabled": 0, "is_reserved": 0}, {"rental_uris": {"ios": "https://dc.lft.to/lastmile_qr_scan", "android": "https://dc.lft.to/lastmile_qr_scan"}, "lon": -77.02624583333333, "type": "electric_scooter", "fusion_lat": 0.0, "lat": 38.892233166666664, "name": "0e7507977e9da3e39344cea6c6bdc7ad", "fusion_lon": 0.0, "bike_id": "0e7507977e9da3e39344cea6c6bdc7ad", "is_disabled": 0, "is_reserved": 0}, {"rental_uris": {"ios": "https://dc.lft.to/lastmile_qr_scan", "android": "https://dc.lft.to/lastmile_qr_scan"}, "lon": -76.99368916666667, "type": "electric_scooter", "fusion_lat": 0.0, "lat": 38.90034716666667, "name": "dbd01c4211ae1e429f4d649640de883c", "fusion_lon": 0.0, "bike_id": "dbd01c4211ae1e429f4d649640de883c", "is_disabled": 0, "is_reserved": 0}, {"rental_uris": {"ios": "https://dc.lft.to/lastmile_qr_scan", "android": "https://dc.lft.to/lastmile_qr_scan"}, "lon": -76.99522666666667, "type": "electric_scooter", "fusion_lat": 0.0, "lat": 38.8948395, "name": "27a5dbf9b6fdcd718d2d1707f0e05fd9", "fusion_lon": 0.0, "bike_id": "27a5dbf9b6fdcd718d2d1707f0e05fd9", "is_disabled": 0, "is_reserved": 0}, {"rental_uris": {"ios": "https://dc.lft.to/lastmile_qr_scan", "android": "https://dc.lft.to/lastmile_qr_scan"}, "lon": -77.04669, "type": "electric_scooter", "fusion_lat": 0.0, "lat": 38.932989666666664, "name": "13010c7ba8844ee5dd4964535417e68d", "fusion_lon": 0.0, "bike_id": "13010c7ba8844ee5dd4964535417e68d", "is_disabled": 0, "is_reserved": 0}, {"rental_uris": {"ios": "https://dc.lft.to/lastmile_qr_scan", "android": "https://dc.lft.to/lastmile_qr_scan"}, "lon": -77.04498883333333, "type": "electric_scooter", "fusion_lat": 0.0, "lat": 38.91111216666667, "name": "5102d9766c448a77a9b9a75cc1e9f564", "fusion_lon": 0.0, "bike_id": "5102d9766c448a77a9b9a75cc1e9f564", "is_disabled": 0, "is_reserved": 0}, {"rental_uris": {"ios": "https://dc.lft.to/lastmile_qr_scan", "android": "https://dc.lft.to/lastmile_qr_scan"}, "lon": -77.0552405, "type": "electric_scooter", "fusion_lat": 0.0, "lat": 38.8973345, "name": "26cf1b452bf3f7d030277b8f805ce643", "fusion_lon": 0.0, "bike_id": "26cf1b452bf3f7d030277b8f805ce643", "is_disabled": 0, "is_reserved": 0}, {"rental_uris": {"ios": "https://dc.lft.to/lastmile_qr_scan", "android": "https://dc.lft.to/lastmile_qr_scan"}, "lon": -77.03175616666667, "type": "electric_scooter", "fusion_lat": 0.0, "lat": 38.887331833333334, "name": "3c4dc4ae784fc84e5c0f72ddf7699904", "fusion_lon": 0.0, "bike_id": "3c4dc4ae784fc84e5c0f72ddf7699904", "is_disabled": 0, "is_reserved": 0}, {"rental_uris": {"ios": "https://dc.lft.to/lastmile_qr_scan", "android": "https://dc.lft.to/lastmile_qr_scan"}, "lon": -77.046466, "type": "electric_bike", "fusion_lat": 0.0, "lat": 38.852110333333336, "name": "b8dacf1dee0ea1fb06096f5f072215fc", "fusion_lon": 0.0, "bike_id": "b8dacf1dee0ea1fb06096f5f072215fc", "is_disabled": 0, "is_reserved": 0}, {"rental_uris": {"ios": "https://dc.lft.to/lastmile_qr_scan", "android": "https://dc.lft.to/lastmile_qr_scan"}, "lon": -77.01608566666667, "type": "electric_scooter", "fusion_lat": 0.0, "lat": 38.90191816666667, "name": "255e8ed2d499bb48ecf58dee2a4317d3", "fusion_lon": 0.0, "bike_id": "255e8ed2d499bb48ecf58dee2a4317d3", "is_disabled": 0, "is_reserved": 0}, {"rental_uris": {"ios": "https://dc.lft.to/lastmile_qr_scan", "android": "https://dc.lft.to/lastmile_qr_scan"}, "lon": -77.03206966666667, "type": "electric_scooter", "fusion_lat": 0.0, "lat": 38.91539816666667, "name": "4fc47e116d030261d4f34854e983d18f", "fusion_lon": 0.0, "bike_id": "4fc47e116d030261d4f34854e983d18f", "is_disabled": 0, "is_reserved": 0}, {"rental_uris": {"ios": "https://dc.lft.to/lastmile_qr_scan", "android": "https://dc.lft.to/lastmile_qr_scan"}, "lon": -76.99043983333334, "type": "electric_scooter", "fusion_lat": 0.0, "lat": 38.856606166666666, "name": "9fdf189585eb29d6b7858037055077f4", "fusion_lon": 0.0, "bike_id": "9fdf189585eb29d6b7858037055077f4", "is_disabled": 0, "is_reserved": 0}, {"rental_uris": {"ios": "https://dc.lft.to/lastmile_qr_scan", "android": "https://dc.lft.to/lastmile_qr_scan"}, "lon": -76.932445, "type": "electric_scooter", "fusion_lat": 0.0, "lat": 38.894073166666665, "name": "edf35157d36e9115309974e55e4968aa", "fusion_lon": 0.0, "bike_id": "edf35157d36e9115309974e55e4968aa", "is_disabled": 0, "is_reserved": 0}, {"rental_uris": {"ios": "https://dc.lft.to/lastmile_qr_scan", "android": "https://dc.lft.to/lastmile_qr_scan"}, "lon": -77.12971533333334, "type": "electric_bike", "fusion_lat": 0.0, "lat": 38.80793883333333, "name": "9880d8117934324747e3d5eb6e547755", "fusion_lon": 0.0, "bike_id": "9880d8117934324747e3d5eb6e547755", "is_disabled": 0, "is_reserved": 0}, {"rental_uris": {"ios": "https://dc.lft.to/lastmile_qr_scan", "android": "https://dc.lft.to/lastmile_qr_scan"}, "lon": -77.01296283333333, "type": "electric_bike", "fusion_lat": 0.0, "lat": 39.003837, "name": "1b8595058b94a35bb5bb72a964e3d634", "fusion_lon": 0.0, "bike_id": "1b8595058b94a35bb5bb72a964e3d634", "is_disabled": 0, "is_reserved": 0}, {"rental_uris": {"ios": "https://dc.lft.to/lastmile_qr_scan", "android": "https://dc.lft.to/lastmile_qr_scan"}, "lon": -77.08393833333334, "type": "electric_scooter", "fusion_lat": 0.0, "lat": 38.9609625, "name": "65c8f87d44603bd12a441b02cb751014", "fusion_lon": 0.0, "bike_id": "65c8f87d44603bd12a441b02cb751014", "is_disabled": 0, "is_reserved": 0}, {"rental_uris": {"ios": "https://dc.lft.to/lastmile_qr_scan", "android": "https://dc.lft.to/lastmile_qr_scan"}, "lon": -77.023314, "type": "electric_scooter", "fusion_lat": 0.0, "lat": 38.93050133333333, "name": "4af6d5fe587735644e4abb03c1e20af1", "fusion_lon": 0.0, "bike_id": "4af6d5fe587735644e4abb03c1e20af1", "is_disabled": 0, "is_reserved": 0}, {"rental_uris": {"ios": "https://dc.lft.to/lastmile_qr_scan", "android": "https://dc.lft.to/lastmile_qr_scan"}, "lon": -76.99669133333333, "type": "electric_scooter", "fusion_lat": 0.0, "lat": 38.90028066666667, "name": "9e9f1467e6daceeb8b9c9643702c5e7d", "fusion_lon": 0.0, "bike_id": "9e9f1467e6daceeb8b9c9643702c5e7d", "is_disabled": 0, "is_reserved": 0}, {"rental_uris": {"ios": "https://dc.lft.to/lastmile_qr_scan", "android": "https://dc.lft.to/lastmile_qr_scan"}, "lon": -77.01448083333334, "type": "electric_scooter", "fusion_lat": 0.0, "lat": 38.92977583333333, "name": "6c8c7bf801bb7ac6d3adf41a6c128a35", "fusion_lon": 0.0, "bike_id": "6c8c7bf801bb7ac6d3adf41a6c128a35", "is_disabled": 0, "is_reserved": 0}, {"rental_uris": {"ios": "https://dc.lft.to/lastmile_qr_scan", "android": "https://dc.lft.to/lastmile_qr_scan"}, "lon": -77.00267083333334, "type": "electric_scooter", "fusion_lat": 0.0, "lat": 38.887594, "name": "9b8683c8be7733eff5713072e450c3eb", "fusion_lon": 0.0, "bike_id": "9b8683c8be7733eff5713072e450c3eb", "is_disabled": 0, "is_reserved": 0}, {"rental_uris": {"ios": "https://dc.lft.to/lastmile_qr_scan", "android": "https://dc.lft.to/lastmile_qr_scan"}, "lon": -77.03189233333333, "type": "electric_scooter", "fusion_lat": 0.0, "lat": 38.91822116666667, "name": "a6f32704d90291ad6b79aa4bf7d01cff", "fusion_lon": 0.0, "bike_id": "a6f32704d90291ad6b79aa4bf7d01cff", "is_disabled": 0, "is_reserved": 0}, {"rental_uris": {"ios": "https://dc.lft.to/lastmile_qr_scan", "android": "https://dc.lft.to/lastmile_qr_scan"}, "lon": -77.02967633333333, "type": "electric_scooter", "fusion_lat": 0.0, "lat": 38.9268505, "name": "be39b0ad01277b1ef970cf3b61b587f2", "fusion_lon": 0.0, "bike_id": "be39b0ad01277b1ef970cf3b61b587f2", "is_disabled": 0, "is_reserved": 0}, {"rental_uris": {"ios": "https://dc.lft.to/lastmile_qr_scan", "android": "https://dc.lft.to/lastmile_qr_scan"}, "lon": -77.04815433333333, "type": "electric_scooter", "fusion_lat": 0.0, "lat": 38.92035883333333, "name": "051afd109106bc39762f2a5169e0fa35", "fusion_lon": 0.0, "bike_id": "051afd109106bc39762f2a5169e0fa35", "is_disabled": 0, "is_reserved": 0}, {"rental_uris": {"ios": "https://dc.lft.to/lastmile_qr_scan", "android": "https://dc.lft.to/lastmile_qr_scan"}, "lon": -76.99818916666666, "type": "electric_bike", "fusion_lat": 0.0, "lat": 38.84432283333334, "name": "596caa586a44a57ba61f9e5e1eca28ea", "fusion_lon": 0.0, "bike_id": "596caa586a44a57ba61f9e5e1eca28ea", "is_disabled": 0, "is_reserved": 0}, {"rental_uris": {"ios": "https://dc.lft.to/lastmile_qr_scan", "android": "https://dc.lft.to/lastmile_qr_scan"}, "lon": -77.0372685, "type": "electric_scooter", "fusion_lat": 0.0, "lat": 38.91040666666667, "name": "10e6d15ff2d30c5eb4d20c35569b9854", "fusion_lon": 0.0, "bike_id": "10e6d15ff2d30c5eb4d20c35569b9854", "is_disabled": 0, "is_reserved": 0}, {"rental_uris": {"ios": "https://dc.lft.to/lastmile_qr_scan", "android": "https://dc.lft.to/lastmile_qr_scan"}, "lon": -77.04009983333333, "type": "electric_scooter", "fusion_lat": 0.0, "lat": 38.9325, "name": "163bfede7669b03693e262004e9e2cb1", "fusion_lon": 0.0, "bike_id": "163bfede7669b03693e262004e9e2cb1", "is_disabled": 0, "is_reserved": 0}, {"rental_uris": {"ios": "https://dc.lft.to/lastmile_qr_scan", "android": "https://dc.lft.to/lastmile_qr_scan"}, "lon": -77.02112983333333, "type": "electric_scooter", "fusion_lat": 0.0, "lat": 38.9140985, "name": "afab6c77c7a1b7cad23383136a6149a2", "fusion_lon": 0.0, "bike_id": "afab6c77c7a1b7cad23383136a6149a2", "is_disabled": 0, "is_reserved": 0}, {"rental_uris": {"ios": "https://dc.lft.to/lastmile_qr_scan", "android": "https://dc.lft.to/lastmile_qr_scan"}, "lon": -77.02200616666667, "type": "electric_scooter", "fusion_lat": 0.0, "lat": 38.897813666666664, "name": "5363c18e9e6f55ed5c0b458b0528887e", "fusion_lon": 0.0, "bike_id": "5363c18e9e6f55ed5c0b458b0528887e", "is_disabled": 0, "is_reserved": 0}, {"rental_uris": {"ios": "https://dc.lft.to/lastmile_qr_scan", "android": "https://dc.lft.to/lastmile_qr_scan"}, "lon": -76.97500683333334, "type": "electric_scooter", "fusion_lat": 0.0, "lat": 38.869180166666666, "name": "aef9f74948473699271c1c79b74fa101", "fusion_lon": 0.0, "bike_id": "aef9f74948473699271c1c79b74fa101", "is_disabled": 0, "is_reserved": 0}, {"rental_uris": {"ios": "https://dc.lft.to/lastmile_qr_scan", "android": "https://dc.lft.to/lastmile_qr_scan"}, "lon": -77.05003533333333, "type": "electric_scooter", "fusion_lat": 0.0, "lat": 38.901146833333335, "name": "0256b13c45ea9c292fe296061d35f200", "fusion_lon": 0.0, "bike_id": "0256b13c45ea9c292fe296061d35f200", "is_disabled": 0, "is_reserved": 0}, {"rental_uris": {"ios": "https://dc.lft.to/lastmile_qr_scan", "android": "https://dc.lft.to/lastmile_qr_scan"}, "lon": -77.03519766666666, "type": "electric_scooter", "fusion_lat": 0.0, "lat": 38.9234225, "name": "2d498529e1e81d563fd47d1107f636ea", "fusion_lon": 0.0, "bike_id": "2d498529e1e81d563fd47d1107f636ea", "is_disabled": 0, "is_reserved": 0}, {"rental_uris": {"ios": "https://dc.lft.to/lastmile_qr_scan", "android": "https://dc.lft.to/lastmile_qr_scan"}, "lon": -77.020708, "type": "electric_scooter", "fusion_lat": 0.0, "lat": 38.91545716666667, "name": "d3a7488258f08aab2a21c27dcdb76e99", "fusion_lon": 0.0, "bike_id": "d3a7488258f08aab2a21c27dcdb76e99", "is_disabled": 0, "is_reserved": 0}, {"rental_uris": {"ios": "https://dc.lft.to/lastmile_qr_scan", "android": "https://dc.lft.to/lastmile_qr_scan"}, "lon": -76.99495966666667, "type": "electric_scooter", "fusion_lat": 0.0, "lat": 38.89957066666667, "name": "803836b94f7f17c34efcddd1ff7ca0d1", "fusion_lon": 0.0, "bike_id": "803836b94f7f17c34efcddd1ff7ca0d1", "is_disabled": 0, "is_reserved": 0}, {"rental_uris": {"ios": "https://dc.lft.to/lastmile_qr_scan", "android": "https://dc.lft.to/lastmile_qr_scan"}, "lon": -77.35310533333333, "type": "electric_bike", "fusion_lat": 0.0, "lat": 38.950002, "name": "09872f553f6ebbeaa35d69e8fb9c3345", "fusion_lon": 0.0, "bike_id": "09872f553f6ebbeaa35d69e8fb9c3345", "is_disabled": 0, "is_reserved": 0}, {"rental_uris": {"ios": "https://dc.lft.to/lastmile_qr_scan", "android": "https://dc.lft.to/lastmile_qr_scan"}, "lon": -77.02280083333333, "type": "electric_scooter", "fusion_lat": 0.0, "lat": 38.91659216666667, "name": "377b47f4e7be26a5127beaf9d36a1e0c", "fusion_lon": 0.0, "bike_id": "377b47f4e7be26a5127beaf9d36a1e0c", "is_disabled": 0, "is_reserved": 0}, {"rental_uris": {"ios": "https://dc.lft.to/lastmile_qr_scan", "android": "https://dc.lft.to/lastmile_qr_scan"}, "lon": -77.045385, "type": "electric_scooter", "fusion_lat": 0.0, "lat": 38.90378833333333, "name": "464dd74441f30a78a43426e151600824", "fusion_lon": 0.0, "bike_id": "464dd74441f30a78a43426e151600824", "is_disabled": 0, "is_reserved": 0}, {"rental_uris": {"ios": "https://dc.lft.to/lastmile_qr_scan", "android": "https://dc.lft.to/lastmile_qr_scan"}, "lon": -76.93175333333333, "type": "electric_scooter", "fusion_lat": 0.0, "lat": 38.8988355, "name": "223852606e7a8e1cfc4c9e360f7f5603", "fusion_lon": 0.0, "bike_id": "223852606e7a8e1cfc4c9e360f7f5603", "is_disabled": 0, "is_reserved": 0}, {"rental_uris": {"ios": "https://dc.lft.to/lastmile_qr_scan", "android": "https://dc.lft.to/lastmile_qr_scan"}, "lon": -77.04167833333334, "type": "electric_scooter", "fusion_lat": 0.0, "lat": 38.9140615, "name": "dec3751212962cb2f64859cacab5ae0c", "fusion_lon": 0.0, "bike_id": "dec3751212962cb2f64859cacab5ae0c", "is_disabled": 0, "is_reserved": 0}, {"rental_uris": {"ios": "https://dc.lft.to/lastmile_qr_scan", "android": "https://dc.lft.to/lastmile_qr_scan"}, "lon": -76.988872, "type": "electric_scooter", "fusion_lat": 0.0, "lat": 38.866581333333336, "name": "da478bb474dd1ed8d1e8fb99fad391d2", "fusion_lon": 0.0, "bike_id": "da478bb474dd1ed8d1e8fb99fad391d2", "is_disabled": 0, "is_reserved": 0}, {"rental_uris": {"ios": "https://dc.lft.to/lastmile_qr_scan", "android": "https://dc.lft.to/lastmile_qr_scan"}, "lon": -77.02419733333333, "type": "electric_scooter", "fusion_lat": 0.0, "lat": 38.90981516666667, "name": "bc389991c8518a73febc787a91524add", "fusion_lon": 0.0, "bike_id": "bc389991c8518a73febc787a91524add", "is_disabled": 0, "is_reserved": 0}, {"rental_uris": {"ios": "https://dc.lft.to/lastmile_qr_scan", "android": "https://dc.lft.to/lastmile_qr_scan"}, "lon": -77.0388005, "type": "electric_scooter", "fusion_lat": 0.0, "lat": 38.93253033333333, "name": "016790b4d4565613becc02bf15eefa59", "fusion_lon": 0.0, "bike_id": "016790b4d4565613becc02bf15eefa59", "is_disabled": 0, "is_reserved": 0}, {"rental_uris": {"ios": "https://dc.lft.to/lastmile_qr_scan", "android": "https://dc.lft.to/lastmile_qr_scan"}, "lon": -77.06385883333333, "type": "electric_scooter", "fusion_lat": 0.0, "lat": 38.908215, "name": "cf99a8ce5a529851304588246621ce10", "fusion_lon": 0.0, "bike_id": "cf99a8ce5a529851304588246621ce10", "is_disabled": 0, "is_reserved": 0}, {"rental_uris": {"ios": "https://dc.lft.to/lastmile_qr_scan", "android": "https://dc.lft.to/lastmile_qr_scan"}, "lon": -77.032767, "type": "electric_scooter", "fusion_lat": 0.0, "lat": 38.92858233333333, "name": "45b4c6675aeb004c30902c4543c40c95", "fusion_lon": 0.0, "bike_id": "45b4c6675aeb004c30902c4543c40c95", "is_disabled": 0, "is_reserved": 0}, {"rental_uris": {"ios": "https://dc.lft.to/lastmile_qr_scan", "android": "https://dc.lft.to/lastmile_qr_scan"}, "lon": -76.93103383333333, "type": "electric_scooter", "fusion_lat": 0.0, "lat": 38.901424, "name": "d54a1635faf5439734c5557941a69597", "fusion_lon": 0.0, "bike_id": "d54a1635faf5439734c5557941a69597", "is_disabled": 0, "is_reserved": 0}, {"rental_uris": {"ios": "https://dc.lft.to/lastmile_qr_scan", "android": "https://dc.lft.to/lastmile_qr_scan"}, "lon": -77.00770933333334, "type": "electric_scooter", "fusion_lat": 0.0, "lat": 38.911181, "name": "adfce1d92a7367913676b97f68ee0764", "fusion_lon": 0.0, "bike_id": "adfce1d92a7367913676b97f68ee0764", "is_disabled": 0, "is_reserved": 0}, {"rental_uris": {"ios": "https://dc.lft.to/lastmile_qr_scan", "android": "https://dc.lft.to/lastmile_qr_scan"}, "lon": -77.0264475, "type": "electric_scooter", "fusion_lat": 0.0, "lat": 38.9239205, "name": "730d668cd9c1444d7a967bef79a6467e", "fusion_lon": 0.0, "bike_id": "730d668cd9c1444d7a967bef79a6467e", "is_disabled": 0, "is_reserved": 0}, {"rental_uris": {"ios": "https://dc.lft.to/lastmile_qr_scan", "android": "https://dc.lft.to/lastmile_qr_scan"}, "lon": -77.053489, "type": "electric_scooter", "fusion_lat": 0.0, "lat": 38.902461833333334, "name": "7a5b289b0e3e5e72cc14fddf94c011fb", "fusion_lon": 0.0, "bike_id": "7a5b289b0e3e5e72cc14fddf94c011fb", "is_disabled": 0, "is_reserved": 0}, {"rental_uris": {"ios": "https://dc.lft.to/lastmile_qr_scan", "android": "https://dc.lft.to/lastmile_qr_scan"}, "lon": -77.02401833333333, "type": "electric_scooter", "fusion_lat": 0.0, "lat": 38.894975, "name": "ab5ad4fcba00a076bc97fbc677faf6ad", "fusion_lon": 0.0, "bike_id": "ab5ad4fcba00a076bc97fbc677faf6ad", "is_disabled": 0, "is_reserved": 0}, {"rental_uris": {"ios": "https://dc.lft.to/lastmile_qr_scan", "android": "https://dc.lft.to/lastmile_qr_scan"}, "lon": -77.04688033333333, "type": "electric_scooter", "fusion_lat": 0.0, "lat": 38.896088666666664, "name": "16df0af1f66db3d092ce8003f1a39dcd", "fusion_lon": 0.0, "bike_id": "16df0af1f66db3d092ce8003f1a39dcd", "is_disabled": 0, "is_reserved": 0}, {"rental_uris": {"ios": "https://dc.lft.to/lastmile_qr_scan", "android": "https://dc.lft.to/lastmile_qr_scan"}, "lon": -76.9868415, "type": "electric_scooter", "fusion_lat": 0.0, "lat": 38.88211666666667, "name": "d8a742ee5fb3d8796285eb4a5ca868a8", "fusion_lon": 0.0, "bike_id": "d8a742ee5fb3d8796285eb4a5ca868a8", "is_disabled": 0, "is_reserved": 0}, {"rental_uris": {"ios": "https://dc.lft.to/lastmile_qr_scan", "android": "https://dc.lft.to/lastmile_qr_scan"}, "lon": -77.04797933333333, "type": "electric_scooter", "fusion_lat": 0.0, "lat": 38.90858216666667, "name": "eaeb2108a49d0faff44f634e4207ac03", "fusion_lon": 0.0, "bike_id": "eaeb2108a49d0faff44f634e4207ac03", "is_disabled": 0, "is_reserved": 0}, {"rental_uris": {"ios": "https://dc.lft.to/lastmile_qr_scan", "android": "https://dc.lft.to/lastmile_qr_scan"}, "lon": -77.03865566666667, "type": "electric_scooter", "fusion_lat": 0.0, "lat": 38.9155315, "name": "b319489a689e4ce79a95371f94170bf2", "fusion_lon": 0.0, "bike_id": "b319489a689e4ce79a95371f94170bf2", "is_disabled": 0, "is_reserved": 0}, {"rental_uris": {"ios": "https://dc.lft.to/lastmile_qr_scan", "android": "https://dc.lft.to/lastmile_qr_scan"}, "lon": -77.03194316666666, "type": "electric_scooter", "fusion_lat": 0.0, "lat": 38.907770666666664, "name": "bd3e6cdbe22a977ab387ac34cca22780", "fusion_lon": 0.0, "bike_id": "bd3e6cdbe22a977ab387ac34cca22780", "is_disabled": 0, "is_reserved": 0}, {"rental_uris": {"ios": "https://dc.lft.to/lastmile_qr_scan", "android": "https://dc.lft.to/lastmile_qr_scan"}, "lon": -77.0317075, "type": "electric_scooter", "fusion_lat": 0.0, "lat": 38.911218, "name": "09071c896aa551cf0bc4ef4ed3bf045c", "fusion_lon": 0.0, "bike_id": "09071c896aa551cf0bc4ef4ed3bf045c", "is_disabled": 0, "is_reserved": 0}, {"rental_uris": {"ios": "https://dc.lft.to/lastmile_qr_scan", "android": "https://dc.lft.to/lastmile_qr_scan"}, "lon": -77.03115149999999, "type": "electric_scooter", "fusion_lat": 0.0, "lat": 38.91334116666667, "name": "28ea9acd1a2a212f809aaf35d82fdbb0", "fusion_lon": 0.0, "bike_id": "28ea9acd1a2a212f809aaf35d82fdbb0", "is_disabled": 0, "is_reserved": 0}, {"rental_uris": {"ios": "https://dc.lft.to/lastmile_qr_scan", "android": "https://dc.lft.to/lastmile_qr_scan"}, "lon": -77.02895333333333, "type": "electric_scooter", "fusion_lat": 0.0, "lat": 38.925701833333335, "name": "dd66a30734e4ad93c1bea05f7a69a052", "fusion_lon": 0.0, "bike_id": "dd66a30734e4ad93c1bea05f7a69a052", "is_disabled": 0, "is_reserved": 0}, {"rental_uris": {"ios": "https://dc.lft.to/lastmile_qr_scan", "android": "https://dc.lft.to/lastmile_qr_scan"}, "lon": -77.05883216666666, "type": "electric_scooter", "fusion_lat": 0.0, "lat": 38.9363525, "name": "b0b3e5c468add5e8e14893037985356f", "fusion_lon": 0.0, "bike_id": "b0b3e5c468add5e8e14893037985356f", "is_disabled": 0, "is_reserved": 0}, {"rental_uris": {"ios": "https://dc.lft.to/lastmile_qr_scan", "android": "https://dc.lft.to/lastmile_qr_scan"}, "lon": -77.04497166666667, "type": "electric_scooter", "fusion_lat": 0.0, "lat": 38.912234166666664, "name": "68af8250f85f187cb0a6df41ab2727a2", "fusion_lon": 0.0, "bike_id": "68af8250f85f187cb0a6df41ab2727a2", "is_disabled": 0, "is_reserved": 0}, {"rental_uris": {"ios": "https://dc.lft.to/lastmile_qr_scan", "android": "https://dc.lft.to/lastmile_qr_scan"}, "lon": -77.02388066666667, "type": "electric_scooter", "fusion_lat": 0.0, "lat": 38.899759833333334, "name": "1f38285963d5d620e4fc0696b407a751", "fusion_lon": 0.0, "bike_id": "1f38285963d5d620e4fc0696b407a751", "is_disabled": 0, "is_reserved": 0}, {"rental_uris": {"ios": "https://dc.lft.to/lastmile_qr_scan", "android": "https://dc.lft.to/lastmile_qr_scan"}, "lon": -77.002079, "type": "electric_bike", "fusion_lat": 0.0, "lat": 38.8830855, "name": "451f36c2dc8615f231d97ac8cd80c710", "fusion_lon": 0.0, "bike_id": "451f36c2dc8615f231d97ac8cd80c710", "is_disabled": 0, "is_reserved": 0}, {"rental_uris": {"ios": "https://dc.lft.to/lastmile_qr_scan", "android": "https://dc.lft.to/lastmile_qr_scan"}, "lon": -76.994949, "type": "electric_scooter", "fusion_lat": 0.0, "lat": 38.86240766666667, "name": "abcb1fcccf69df8eec26a9be9b8e76f2", "fusion_lon": 0.0, "bike_id": "abcb1fcccf69df8eec26a9be9b8e76f2", "is_disabled": 0, "is_reserved": 0}, {"rental_uris": {"ios": "https://dc.lft.to/lastmile_qr_scan", "android": "https://dc.lft.to/lastmile_qr_scan"}, "lon": -77.03345266666666, "type": "electric_bike", "fusion_lat": 0.0, "lat": 38.968058166666665, "name": "18abd586af413ecdc2c357d99710380a", "fusion_lon": 0.0, "bike_id": "18abd586af413ecdc2c357d99710380a", "is_disabled": 0, "is_reserved": 0}, {"rental_uris": {"ios": "https://dc.lft.to/lastmile_qr_scan", "android": "https://dc.lft.to/lastmile_qr_scan"}, "lon": -77.12741, "type": "electric_bike", "fusion_lat": 0.0, "lat": 38.8882225, "name": "f7f01f682fc176d0e48e7c5bd21f9f02", "fusion_lon": 0.0, "bike_id": "f7f01f682fc176d0e48e7c5bd21f9f02", "is_disabled": 0, "is_reserved": 0}, {"rental_uris": {"ios": "https://dc.lft.to/lastmile_qr_scan", "android": "https://dc.lft.to/lastmile_qr_scan"}, "lon": -77.083675, "type": "electric_scooter", "fusion_lat": 0.0, "lat": 38.93037283333334, "name": "5360d81b336a0c66d207ea42395b937d", "fusion_lon": 0.0, "bike_id": "5360d81b336a0c66d207ea42395b937d", "is_disabled": 0, "is_reserved": 0}, {"rental_uris": {"ios": "https://dc.lft.to/lastmile_qr_scan", "android": "https://dc.lft.to/lastmile_qr_scan"}, "lon": -76.99540733333333, "type": "electric_scooter", "fusion_lat": 0.0, "lat": 38.9266985, "name": "572013ad5ca113b9d0601c4a3b782d46", "fusion_lon": 0.0, "bike_id": "572013ad5ca113b9d0601c4a3b782d46", "is_disabled": 0, "is_reserved": 0}, {"rental_uris": {"ios": "https://dc.lft.to/lastmile_qr_scan", "android": "https://dc.lft.to/lastmile_qr_scan"}, "lon": -77.0512785, "type": "electric_scooter", "fusion_lat": 0.0, "lat": 38.90239783333333, "name": "464f2854ad0d42648f474b6befae0834", "fusion_lon": 0.0, "bike_id": "464f2854ad0d42648f474b6befae0834", "is_disabled": 0, "is_reserved": 0}, {"rental_uris": {"ios": "https://dc.lft.to/lastmile_qr_scan", "android": "https://dc.lft.to/lastmile_qr_scan"}, "lon": -76.98768366666667, "type": "electric_scooter", "fusion_lat": 0.0, "lat": 38.9117295, "name": "f640ddd2f1c36840f79cbb18d2c3418d", "fusion_lon": 0.0, "bike_id": "f640ddd2f1c36840f79cbb18d2c3418d", "is_disabled": 0, "is_reserved": 0}, {"rental_uris": {"ios": "https://dc.lft.to/lastmile_qr_scan", "android": "https://dc.lft.to/lastmile_qr_scan"}, "lon": -77.0492245, "type": "electric_scooter", "fusion_lat": 0.0, "lat": 38.89680716666667, "name": "2d8a0caa3ed6bb4218c383e87a27c30e", "fusion_lon": 0.0, "bike_id": "2d8a0caa3ed6bb4218c383e87a27c30e", "is_disabled": 0, "is_reserved": 0}, {"rental_uris": {"ios": "https://dc.lft.to/lastmile_qr_scan", "android": "https://dc.lft.to/lastmile_qr_scan"}, "lon": -77.0424805, "type": "electric_scooter", "fusion_lat": 0.0, "lat": 38.908375166666666, "name": "6194b6bb32c02bc540a794701a9c828e", "fusion_lon": 0.0, "bike_id": "6194b6bb32c02bc540a794701a9c828e", "is_disabled": 0, "is_reserved": 0}, {"rental_uris": {"ios": "https://dc.lft.to/lastmile_qr_scan", "android": "https://dc.lft.to/lastmile_qr_scan"}, "lon": -77.05113316666667, "type": "electric_scooter", "fusion_lat": 0.0, "lat": 38.905191333333335, "name": "84abb5055eef2c20939ecbcd6f520aa7", "fusion_lon": 0.0, "bike_id": "84abb5055eef2c20939ecbcd6f520aa7", "is_disabled": 0, "is_reserved": 0}, {"rental_uris": {"ios": "https://dc.lft.to/lastmile_qr_scan", "android": "https://dc.lft.to/lastmile_qr_scan"}, "lon": -77.026096, "type": "electric_scooter", "fusion_lat": 0.0, "lat": 38.916928166666665, "name": "9e9d473cb14ee659f483cd19064af1cc", "fusion_lon": 0.0, "bike_id": "9e9d473cb14ee659f483cd19064af1cc", "is_disabled": 0, "is_reserved": 0}, {"rental_uris": {"ios": "https://dc.lft.to/lastmile_qr_scan", "android": "https://dc.lft.to/lastmile_qr_scan"}, "lon": -77.0271535, "type": "electric_scooter", "fusion_lat": 0.0, "lat": 38.92482316666667, "name": "f42f1f10e2793d064d6ca5b7c329beab", "fusion_lon": 0.0, "bike_id": "f42f1f10e2793d064d6ca5b7c329beab", "is_disabled": 0, "is_reserved": 0}, {"rental_uris": {"ios": "https://dc.lft.to/lastmile_qr_scan", "android": "https://dc.lft.to/lastmile_qr_scan"}, "lon": -77.02966216666667, "type": "electric_scooter", "fusion_lat": 0.0, "lat": 38.906488, "name": "d861775591b796cc69241ec5e51ef150", "fusion_lon": 0.0, "bike_id": "d861775591b796cc69241ec5e51ef150", "is_disabled": 0, "is_reserved": 0}, {"rental_uris": {"ios": "https://dc.lft.to/lastmile_qr_scan", "android": "https://dc.lft.to/lastmile_qr_scan"}, "lon": -77.0308845, "type": "electric_scooter", "fusion_lat": 0.0, "lat": 38.9347625, "name": "3b793a5c9e20b5f998ecc6168f31cc84", "fusion_lon": 0.0, "bike_id": "3b793a5c9e20b5f998ecc6168f31cc84", "is_disabled": 0, "is_reserved": 0}, {"rental_uris": {"ios": "https://dc.lft.to/lastmile_qr_scan", "android": "https://dc.lft.to/lastmile_qr_scan"}, "lon": -77.04823516666667, "type": "electric_scooter", "fusion_lat": 0.0, "lat": 38.896140333333335, "name": "f67d610424fa8a5cf32365c2a08a444a", "fusion_lon": 0.0, "bike_id": "f67d610424fa8a5cf32365c2a08a444a", "is_disabled": 0, "is_reserved": 0}, {"rental_uris": {"ios": "https://dc.lft.to/lastmile_qr_scan", "android": "https://dc.lft.to/lastmile_qr_scan"}, "lon": -77.008571, "type": "electric_scooter", "fusion_lat": 0.0, "lat": 38.92592366666667, "name": "3ea5fd72ae2062c8523612e995f6e609", "fusion_lon": 0.0, "bike_id": "3ea5fd72ae2062c8523612e995f6e609", "is_disabled": 0, "is_reserved": 0}, {"rental_uris": {"ios": "https://dc.lft.to/lastmile_qr_scan", "android": "https://dc.lft.to/lastmile_qr_scan"}, "lon": -77.0175825, "type": "electric_scooter", "fusion_lat": 0.0, "lat": 38.938954, "name": "5fe885a58f69f1ef8ea5433579a2bf7c", "fusion_lon": 0.0, "bike_id": "5fe885a58f69f1ef8ea5433579a2bf7c", "is_disabled": 0, "is_reserved": 0}, {"rental_uris": {"ios": "https://dc.lft.to/lastmile_qr_scan", "android": "https://dc.lft.to/lastmile_qr_scan"}, "lon": -76.97886883333334, "type": "electric_scooter", "fusion_lat": 0.0, "lat": 38.91673633333333, "name": "a079bc84fc790cd96ad0e87031bb83f3", "fusion_lon": 0.0, "bike_id": "a079bc84fc790cd96ad0e87031bb83f3", "is_disabled": 0, "is_reserved": 0}, {"rental_uris": {"ios": "https://dc.lft.to/lastmile_qr_scan", "android": "https://dc.lft.to/lastmile_qr_scan"}, "lon": -76.9379615, "type": "electric_scooter", "fusion_lat": 0.0, "lat": 38.9128395, "name": "c0532f8bd301fe41c22011b37c8bba0b", "fusion_lon": 0.0, "bike_id": "c0532f8bd301fe41c22011b37c8bba0b", "is_disabled": 0, "is_reserved": 0}, {"rental_uris": {"ios": "https://dc.lft.to/lastmile_qr_scan", "android": "https://dc.lft.to/lastmile_qr_scan"}, "lon": -76.98841816666666, "type": "electric_bike", "fusion_lat": 0.0, "lat": 38.842727, "name": "71975a366f5e5a9478ac27a252305dc9", "fusion_lon": 0.0, "bike_id": "71975a366f5e5a9478ac27a252305dc9", "is_disabled": 0, "is_reserved": 0}, {"rental_uris": {"ios": "https://dc.lft.to/lastmile_qr_scan", "android": "https://dc.lft.to/lastmile_qr_scan"}, "lon": -77.002632, "type": "electric_scooter", "fusion_lat": 0.0, "lat": 38.898976, "name": "91a9ee8b127008e7d46515f275e0dcf7", "fusion_lon": 0.0, "bike_id": "91a9ee8b127008e7d46515f275e0dcf7", "is_disabled": 0, "is_reserved": 0}, {"rental_uris": {"ios": "https://dc.lft.to/lastmile_qr_scan", "android": "https://dc.lft.to/lastmile_qr_scan"}, "lon": -77.04833, "type": "electric_scooter", "fusion_lat": 0.0, "lat": 38.909732166666664, "name": "6141759ac41af90fd09e8920a884475d", "fusion_lon": 0.0, "bike_id": "6141759ac41af90fd09e8920a884475d", "is_disabled": 0, "is_reserved": 0}, {"rental_uris": {"ios": "https://dc.lft.to/lastmile_qr_scan", "android": "https://dc.lft.to/lastmile_qr_scan"}, "lon": -77.01228716666667, "type": "electric_scooter", "fusion_lat": 0.0, "lat": 38.900418, "name": "0e90b545fdd7b0e67cdf3d0f1612741d", "fusion_lon": 0.0, "bike_id": "0e90b545fdd7b0e67cdf3d0f1612741d", "is_disabled": 0, "is_reserved": 0}, {"rental_uris": {"ios": "https://dc.lft.to/lastmile_qr_scan", "android": "https://dc.lft.to/lastmile_qr_scan"}, "lon": -76.99828883333333, "type": "electric_scooter", "fusion_lat": 0.0, "lat": 38.88122283333333, "name": "010b6596e513eef4c64f270bb9712331", "fusion_lon": 0.0, "bike_id": "010b6596e513eef4c64f270bb9712331", "is_disabled": 0, "is_reserved": 0}, {"rental_uris": {"ios": "https://dc.lft.to/lastmile_qr_scan", "android": "https://dc.lft.to/lastmile_qr_scan"}, "lon": -77.0328705, "type": "electric_scooter", "fusion_lat": 0.0, "lat": 38.934895166666664, "name": "4188ce68b31556f9aec387264ef4e50c", "fusion_lon": 0.0, "bike_id": "4188ce68b31556f9aec387264ef4e50c", "is_disabled": 0, "is_reserved": 0}, {"rental_uris": {"ios": "https://dc.lft.to/lastmile_qr_scan", "android": "https://dc.lft.to/lastmile_qr_scan"}, "lon": -76.98956383333334, "type": "electric_scooter", "fusion_lat": 0.0, "lat": 38.901367666666665, "name": "55d03c7959047d60076649033ddc8c65", "fusion_lon": 0.0, "bike_id": "55d03c7959047d60076649033ddc8c65", "is_disabled": 0, "is_reserved": 0}, {"rental_uris": {"ios": "https://dc.lft.to/lastmile_qr_scan", "android": "https://dc.lft.to/lastmile_qr_scan"}, "lon": -77.0778205, "type": "electric_scooter", "fusion_lat": 0.0, "lat": 38.94560766666667, "name": "4ad55e4a691a79347dd6eeb81f75aa6e", "fusion_lon": 0.0, "bike_id": "4ad55e4a691a79347dd6eeb81f75aa6e", "is_disabled": 0, "is_reserved": 0}, {"rental_uris": {"ios": "https://dc.lft.to/lastmile_qr_scan", "android": "https://dc.lft.to/lastmile_qr_scan"}, "lon": -77.03188083333333, "type": "electric_scooter", "fusion_lat": 0.0, "lat": 38.907617333333334, "name": "e9cafeabf41dffe3d8bace881c56993d", "fusion_lon": 0.0, "bike_id": "e9cafeabf41dffe3d8bace881c56993d", "is_disabled": 0, "is_reserved": 0}, {"rental_uris": {"ios": "https://dc.lft.to/lastmile_qr_scan", "android": "https://dc.lft.to/lastmile_qr_scan"}, "lon": -77.01874916666667, "type": "electric_scooter", "fusion_lat": 0.0, "lat": 38.91742466666667, "name": "ef72ed5cfb66d9d23262bdf37ec6596b", "fusion_lon": 0.0, "bike_id": "ef72ed5cfb66d9d23262bdf37ec6596b", "is_disabled": 0, "is_reserved": 0}, {"rental_uris": {"ios": "https://dc.lft.to/lastmile_qr_scan", "android": "https://dc.lft.to/lastmile_qr_scan"}, "lon": -77.00555616666666, "type": "electric_scooter", "fusion_lat": 0.0, "lat": 38.87901183333334, "name": "11190a930611e4deb463e500a9bc7208", "fusion_lon": 0.0, "bike_id": "11190a930611e4deb463e500a9bc7208", "is_disabled": 0, "is_reserved": 0}, {"rental_uris": {"ios": "https://dc.lft.to/lastmile_qr_scan", "android": "https://dc.lft.to/lastmile_qr_scan"}, "lon": -77.03785316666666, "type": "electric_scooter", "fusion_lat": 0.0, "lat": 38.92627133333333, "name": "6380e20bdf09002e186fa32600ae53d1", "fusion_lon": 0.0, "bike_id": "6380e20bdf09002e186fa32600ae53d1", "is_disabled": 0, "is_reserved": 0}, {"rental_uris": {"ios": "https://dc.lft.to/lastmile_qr_scan", "android": "https://dc.lft.to/lastmile_qr_scan"}, "lon": -77.03401133333334, "type": "electric_scooter", "fusion_lat": 0.0, "lat": 38.9059855, "name": "168548f1ed9edfff79eefc62210f44dd", "fusion_lon": 0.0, "bike_id": "168548f1ed9edfff79eefc62210f44dd", "is_disabled": 0, "is_reserved": 0}, {"rental_uris": {"ios": "https://dc.lft.to/lastmile_qr_scan", "android": "https://dc.lft.to/lastmile_qr_scan"}, "lon": -77.01095133333334, "type": "electric_scooter", "fusion_lat": 0.0, "lat": 38.9072885, "name": "7b7fb4e72bb80fd9f263d56c2d0b570b", "fusion_lon": 0.0, "bike_id": "7b7fb4e72bb80fd9f263d56c2d0b570b", "is_disabled": 0, "is_reserved": 0}, {"rental_uris": {"ios": "https://dc.lft.to/lastmile_qr_scan", "android": "https://dc.lft.to/lastmile_qr_scan"}, "lon": -77.04441233333333, "type": "electric_scooter", "fusion_lat": 0.0, "lat": 38.910099, "name": "08cf5c8ec9bc89689489bfe735d7493c", "fusion_lon": 0.0, "bike_id": "08cf5c8ec9bc89689489bfe735d7493c", "is_disabled": 0, "is_reserved": 0}, {"rental_uris": {"ios": "https://dc.lft.to/lastmile_qr_scan", "android": "https://dc.lft.to/lastmile_qr_scan"}, "lon": -77.03448733333333, "type": "electric_scooter", "fusion_lat": 0.0, "lat": 38.91824866666666, "name": "ac0ba8b43dffab62aab6f0c227ebb670", "fusion_lon": 0.0, "bike_id": "ac0ba8b43dffab62aab6f0c227ebb670", "is_disabled": 0, "is_reserved": 0}, {"rental_uris": {"ios": "https://dc.lft.to/lastmile_qr_scan", "android": "https://dc.lft.to/lastmile_qr_scan"}, "lon": -76.99494383333334, "type": "electric_scooter", "fusion_lat": 0.0, "lat": 38.86244, "name": "f597161097051ebe0504f869a39d2478", "fusion_lon": 0.0, "bike_id": "f597161097051ebe0504f869a39d2478", "is_disabled": 0, "is_reserved": 0}, {"rental_uris": {"ios": "https://dc.lft.to/lastmile_qr_scan", "android": "https://dc.lft.to/lastmile_qr_scan"}, "lon": -76.93177983333334, "type": "electric_scooter", "fusion_lat": 0.0, "lat": 38.89885566666667, "name": "5cb491454c3c032601c434fe9addcbd8", "fusion_lon": 0.0, "bike_id": "5cb491454c3c032601c434fe9addcbd8", "is_disabled": 0, "is_reserved": 0}, {"rental_uris": {"ios": "https://dc.lft.to/lastmile_qr_scan", "android": "https://dc.lft.to/lastmile_qr_scan"}, "lon": -77.01353216666666, "type": "electric_scooter", "fusion_lat": 0.0, "lat": 38.91937133333333, "name": "5c83fbd1afe89d767b169136089fa797", "fusion_lon": 0.0, "bike_id": "5c83fbd1afe89d767b169136089fa797", "is_disabled": 0, "is_reserved": 0}, {"rental_uris": {"ios": "https://dc.lft.to/lastmile_qr_scan", "android": "https://dc.lft.to/lastmile_qr_scan"}, "lon": -77.036673, "type": "electric_scooter", "fusion_lat": 0.0, "lat": 38.918159333333335, "name": "594744632e33215427d1c4d6a93540cf", "fusion_lon": 0.0, "bike_id": "594744632e33215427d1c4d6a93540cf", "is_disabled": 0, "is_reserved": 0}, {"rental_uris": {"ios": "https://dc.lft.to/lastmile_qr_scan", "android": "https://dc.lft.to/lastmile_qr_scan"}, "lon": -77.02980783333334, "type": "electric_scooter", "fusion_lat": 0.0, "lat": 38.94603766666667, "name": "06796c7069d7688ec83a0829b7b4d1f2", "fusion_lon": 0.0, "bike_id": "06796c7069d7688ec83a0829b7b4d1f2", "is_disabled": 0, "is_reserved": 0}, {"rental_uris": {"ios": "https://dc.lft.to/lastmile_qr_scan", "android": "https://dc.lft.to/lastmile_qr_scan"}, "lon": -77.040278, "type": "electric_scooter", "fusion_lat": 0.0, "lat": 38.905736833333336, "name": "c10ddf86fe61367ab432d14a2ed694c2", "fusion_lon": 0.0, "bike_id": "c10ddf86fe61367ab432d14a2ed694c2", "is_disabled": 0, "is_reserved": 0}, {"rental_uris": {"ios": "https://dc.lft.to/lastmile_qr_scan", "android": "https://dc.lft.to/lastmile_qr_scan"}, "lon": -77.0252815, "type": "electric_scooter", "fusion_lat": 0.0, "lat": 38.9430155, "name": "d554cc7759d1b9f88aafda000e98aca8", "fusion_lon": 0.0, "bike_id": "d554cc7759d1b9f88aafda000e98aca8", "is_disabled": 0, "is_reserved": 0}, {"rental_uris": {"ios": "https://dc.lft.to/lastmile_qr_scan", "android": "https://dc.lft.to/lastmile_qr_scan"}, "lon": -76.97881666666666, "type": "electric_scooter", "fusion_lat": 0.0, "lat": 38.88766866666667, "name": "6da1d6be9fbdac18bc2fff1c72f16965", "fusion_lon": 0.0, "bike_id": "6da1d6be9fbdac18bc2fff1c72f16965", "is_disabled": 0, "is_reserved": 0}, {"rental_uris": {"ios": "https://dc.lft.to/lastmile_qr_scan", "android": "https://dc.lft.to/lastmile_qr_scan"}, "lon": -77.06227783333334, "type": "electric_bike", "fusion_lat": 0.0, "lat": 38.90931633333334, "name": "8b77d5b280cd25b60913e4d6043730e5", "fusion_lon": 0.0, "bike_id": "8b77d5b280cd25b60913e4d6043730e5", "is_disabled": 0, "is_reserved": 0}, {"rental_uris": {"ios": "https://dc.lft.to/lastmile_qr_scan", "android": "https://dc.lft.to/lastmile_qr_scan"}, "lon": -77.038094, "type": "electric_scooter", "fusion_lat": 0.0, "lat": 38.898421666666664, "name": "e6b4fd3e85e40284d6b5ed49f2c20c77", "fusion_lon": 0.0, "bike_id": "e6b4fd3e85e40284d6b5ed49f2c20c77", "is_disabled": 0, "is_reserved": 0}, {"rental_uris": {"ios": "https://dc.lft.to/lastmile_qr_scan", "android": "https://dc.lft.to/lastmile_qr_scan"}, "lon": -77.03803833333333, "type": "electric_scooter", "fusion_lat": 0.0, "lat": 38.93395316666667, "name": "0045f806c9cea5921142ea79df81bde9", "fusion_lon": 0.0, "bike_id": "0045f806c9cea5921142ea79df81bde9", "is_disabled": 0, "is_reserved": 0}, {"rental_uris": {"ios": "https://dc.lft.to/lastmile_qr_scan", "android": "https://dc.lft.to/lastmile_qr_scan"}, "lon": -76.95095516666666, "type": "electric_scooter", "fusion_lat": 0.0, "lat": 38.884504166666666, "name": "b0553ec4695ce6637e422c96b7272d2d", "fusion_lon": 0.0, "bike_id": "b0553ec4695ce6637e422c96b7272d2d", "is_disabled": 0, "is_reserved": 0}, {"rental_uris": {"ios": "https://dc.lft.to/lastmile_qr_scan", "android": "https://dc.lft.to/lastmile_qr_scan"}, "lon": -77.00481683333334, "type": "electric_scooter", "fusion_lat": 0.0, "lat": 38.94406816666667, "name": "26fb8849e08790e3442240c41d00bb39", "fusion_lon": 0.0, "bike_id": "26fb8849e08790e3442240c41d00bb39", "is_disabled": 0, "is_reserved": 0}, {"rental_uris": {"ios": "https://dc.lft.to/lastmile_qr_scan", "android": "https://dc.lft.to/lastmile_qr_scan"}, "lon": -76.98973116666667, "type": "electric_scooter", "fusion_lat": 0.0, "lat": 38.859293, "name": "72cdeadb32871f7a145306df3b8bd114", "fusion_lon": 0.0, "bike_id": "72cdeadb32871f7a145306df3b8bd114", "is_disabled": 0, "is_reserved": 0}, {"rental_uris": {"ios": "https://dc.lft.to/lastmile_qr_scan", "android": "https://dc.lft.to/lastmile_qr_scan"}, "lon": -77.02174616666667, "type": "electric_scooter", "fusion_lat": 0.0, "lat": 38.942909666666665, "name": "6461bed281f6a0a3ee95059826188d22", "fusion_lon": 0.0, "bike_id": "6461bed281f6a0a3ee95059826188d22", "is_disabled": 0, "is_reserved": 0}, {"rental_uris": {"ios": "https://dc.lft.to/lastmile_qr_scan", "android": "https://dc.lft.to/lastmile_qr_scan"}, "lon": -76.94998716666667, "type": "electric_scooter", "fusion_lat": 0.0, "lat": 38.89372216666667, "name": "62ea3c0b3bd75daa785c3186f9694128", "fusion_lon": 0.0, "bike_id": "62ea3c0b3bd75daa785c3186f9694128", "is_disabled": 0, "is_reserved": 0}, {"rental_uris": {"ios": "https://dc.lft.to/lastmile_qr_scan", "android": "https://dc.lft.to/lastmile_qr_scan"}, "lon": -77.0413685, "type": "electric_scooter", "fusion_lat": 0.0, "lat": 38.893491833333336, "name": "e77ade9693e38d5c11eb58133d0b1560", "fusion_lon": 0.0, "bike_id": "e77ade9693e38d5c11eb58133d0b1560", "is_disabled": 0, "is_reserved": 0}, {"rental_uris": {"ios": "https://dc.lft.to/lastmile_qr_scan", "android": "https://dc.lft.to/lastmile_qr_scan"}, "lon": -77.0482285, "type": "electric_scooter", "fusion_lat": 0.0, "lat": 38.896211, "name": "0bb7408c55a94d62ebd499d36988bfde", "fusion_lon": 0.0, "bike_id": "0bb7408c55a94d62ebd499d36988bfde", "is_disabled": 0, "is_reserved": 0}, {"rental_uris": {"ios": "https://dc.lft.to/lastmile_qr_scan", "android": "https://dc.lft.to/lastmile_qr_scan"}, "lon": -77.02227166666667, "type": "electric_scooter", "fusion_lat": 0.0, "lat": 38.93869883333333, "name": "ab4af452360730e45c9479f034d96fe1", "fusion_lon": 0.0, "bike_id": "ab4af452360730e45c9479f034d96fe1", "is_disabled": 0, "is_reserved": 0}, {"rental_uris": {"ios": "https://dc.lft.to/lastmile_qr_scan", "android": "https://dc.lft.to/lastmile_qr_scan"}, "lon": -77.0486935, "type": "electric_scooter", "fusion_lat": 0.0, "lat": 38.892210166666665, "name": "c42d1e67c35c8a63af571ad900a0d381", "fusion_lon": 0.0, "bike_id": "c42d1e67c35c8a63af571ad900a0d381", "is_disabled": 0, "is_reserved": 0}, {"rental_uris": {"ios": "https://dc.lft.to/lastmile_qr_scan", "android": "https://dc.lft.to/lastmile_qr_scan"},