{"data": {"bikes": [{"rental_uris": {"ios": "https://dc.lft.to/lastmile_qr_scan", "android": "https://dc.lft.to/lastmile_qr_scan"}, "type": "electric_scooter", "name": "88d3e8e1a838c86e6ce5b60126edb704", "is_reserved": 0, "lon": -77.01808583333333, "is_disabled": 0, "fusion_lat": 0.0, "lat": 38.921368333333334, "bike_id": "88d3e8e1a838c86e6ce5b60126edb704", "fusion_lon": 0.0}, {"rental_uris": {"ios": "https://dc.lft.to/lastmile_qr_scan", "android": "https://dc.lft.to/lastmile_qr_scan"}, "type": "electric_scooter", "name": "aee7b6465c2caf240ae51e39bf53e3a9", "is_reserved": 0, "lon": -76.98209466666667, "is_disabled": 0, "fusion_lat": 0.0, "lat": 38.8864265, "bike_id": "aee7b6465c2caf240ae51e39bf53e3a9", "fusion_lon": 0.0}, {"rental_uris": {"ios": "https://dc.lft.to/lastmile_qr_scan", "android": "https://dc.lft.to/lastmile_qr_scan"}, "type": "electric_scooter", "name": "0de181cd85e0563cd4a05994a6d057ab", "is_reserved": 0, "lon": -77.033468, "is_disabled": 0, "fusion_lat": 0.0, "lat": 38.932203666666666, "bike_id": "0de181cd85e0563cd4a05994a6d057ab", "fusion_lon": 0.0}, {"rental_uris": {"ios": "https://dc.lft.to/lastmile_qr_scan", "android": "https://dc.lft.to/lastmile_qr_scan"}, "type": "electric_scooter", "name": "feb0f010c9705050637cb69c94871b4c", "is_reserved": 0, "lon": -77.01765933333333, "is_disabled": 0, "fusion_lat": 0.0, "lat": 38.900357666666665, "bike_id": "feb0f010c9705050637cb69c94871b4c", "fusion_lon": 0.0}, {"rental_uris": {"ios": "https://dc.lft.to/lastmile_qr_scan", "android": "https://dc.lft.to/lastmile_qr_scan"}, "type": "electric_scooter", "name": "bafba240ed60c7355b3b6251d47586c8", "is_reserved": 0, "lon": -77.078334, "is_disabled": 0, "fusion_lat": 0.0, "lat": 38.945712666666665, "bike_id": "bafba240ed60c7355b3b6251d47586c8", "fusion_lon": 0.0}, {"rental_uris": {"ios": "https://dc.lft.to/lastmile_qr_scan", "android": "https://dc.lft.to/lastmile_qr_scan"}, "type": "electric_scooter", "name": "801d9f5e0529149a4b57c56cfd630d3a", "is_reserved": 0, "lon": -77.00793816666666, "is_disabled": 0, "fusion_lat": 0.0, "lat": 38.912688333333335, "bike_id": "801d9f5e0529149a4b57c56cfd630d3a", "fusion_lon": 0.0}, {"rental_uris": {"ios": "https://dc.lft.to/lastmile_qr_scan", "android": "https://dc.lft.to/lastmile_qr_scan"}, "type": "electric_scooter", "name": "ba7676ee61ea0caa0b4dbcad04b0a0dc", "is_reserved": 0, "lon": -77.00281116666666, "is_disabled": 0, "fusion_lat": 0.0, "lat": 38.8462215, "bike_id": "ba7676ee61ea0caa0b4dbcad04b0a0dc", "fusion_lon": 0.0}, {"rental_uris": {"ios": "https://dc.lft.to/lastmile_qr_scan", "android": "https://dc.lft.to/lastmile_qr_scan"}, "type": "electric_scooter", "name": "7edb86ef0380160581bfd4bcb3ba4966", "is_reserved": 0, "lon": -76.95846983333334, "is_disabled": 0, "fusion_lat": 0.0, "lat": 38.91862666666667, "bike_id": "7edb86ef0380160581bfd4bcb3ba4966", "fusion_lon": 0.0}, {"rental_uris": {"ios": "https://dc.lft.to/lastmile_qr_scan", "android": "https://dc.lft.to/lastmile_qr_scan"}, "type": "electric_scooter", "name": "080d80fb994f8fbfa9d8a98d1c59ab0c", "is_reserved": 0, "lon": -77.03969916666667, "is_disabled": 0, "fusion_lat": 0.0, "lat": 38.90248, "bike_id": "080d80fb994f8fbfa9d8a98d1c59ab0c", "fusion_lon": 0.0}, {"rental_uris": {"ios": "https://dc.lft.to/lastmile_qr_scan", "android": "https://dc.lft.to/lastmile_qr_scan"}, "type": "electric_scooter", "name": "65cd7d7c9793ad85c8a539385b87b7b2", "is_reserved": 0, "lon": -77.04609733333334, "is_disabled": 0, "fusion_lat": 0.0, "lat": 38.905822666666666, "bike_id": "65cd7d7c9793ad85c8a539385b87b7b2", "fusion_lon": 0.0}, {"rental_uris": {"ios": "https://dc.lft.to/lastmile_qr_scan", "android": "https://dc.lft.to/lastmile_qr_scan"}, "type": "electric_scooter", "name": "7623af3d1aa79b39697e7b71ebc593d9", "is_reserved": 0, "lon": -77.04651316666667, "is_disabled": 0, "fusion_lat": 0.0, "lat": 38.917895333333334, "bike_id": "7623af3d1aa79b39697e7b71ebc593d9", "fusion_lon": 0.0}, {"rental_uris": {"ios": "https://dc.lft.to/lastmile_qr_scan", "android": "https://dc.lft.to/lastmile_qr_scan"}, "type": "electric_scooter", "name": "8fbf55f6a444321c2845362e33c85d11", "is_reserved": 0, "lon": -77.06601183333333, "is_disabled": 0, "fusion_lat": 0.0, "lat": 38.904021666666665, "bike_id": "8fbf55f6a444321c2845362e33c85d11", "fusion_lon": 0.0}, {"rental_uris": {"ios": "https://dc.lft.to/lastmile_qr_scan", "android": "https://dc.lft.to/lastmile_qr_scan"}, "type": "electric_scooter", "name": "ef0ac08a04b2b7b0fad3de8d2956b2a0", "is_reserved": 0, "lon": -77.07921266666666, "is_disabled": 0, "fusion_lat": 0.0, "lat": 38.94562966666667, "bike_id": "ef0ac08a04b2b7b0fad3de8d2956b2a0", "fusion_lon": 0.0}, {"rental_uris": {"ios": "https://dc.lft.to/lastmile_qr_scan", "android": "https://dc.lft.to/lastmile_qr_scan"}, "type": "electric_scooter", "name": "7fbd16b543040a6adee3a3589f1f6120", "is_reserved": 0, "lon": -77.00328516666667, "is_disabled": 0, "fusion_lat": 0.0, "lat": 38.877327, "bike_id": "7fbd16b543040a6adee3a3589f1f6120", "fusion_lon": 0.0}, {"rental_uris": {"ios": "https://dc.lft.to/lastmile_qr_scan", "android": "https://dc.lft.to/lastmile_qr_scan"}, "type": "electric_scooter", "name": "d895a1ad51365e7af0fe1e86a27bdecc", "is_reserved": 0, "lon": -76.996174, "is_disabled": 0, "fusion_lat": 0.0, "lat": 38.90322716666667, "bike_id": "d895a1ad51365e7af0fe1e86a27bdecc", "fusion_lon": 0.0}, {"rental_uris": {"ios": "https://dc.lft.to/lastmile_qr_scan", "android": "https://dc.lft.to/lastmile_qr_scan"}, "type": "electric_scooter", "name": "3a55c88de77f48ef53af76adffaa4da9", "is_reserved": 0, "lon": -77.01890016666667, "is_disabled": 0, "fusion_lat": 0.0, "lat": 38.897495166666666, "bike_id": "3a55c88de77f48ef53af76adffaa4da9", "fusion_lon": 0.0}, {"rental_uris": {"ios": "https://dc.lft.to/lastmile_qr_scan", "android": "https://dc.lft.to/lastmile_qr_scan"}, "type": "electric_scooter", "name": "9ec3d374ef8ec0bc08f4126a37c3666c", "is_reserved": 0, "lon": -77.0249865, "is_disabled": 0, "fusion_lat": 0.0, "lat": 38.94050383333333, "bike_id": "9ec3d374ef8ec0bc08f4126a37c3666c", "fusion_lon": 0.0}, {"rental_uris": {"ios": "https://dc.lft.to/lastmile_qr_scan", "android": "https://dc.lft.to/lastmile_qr_scan"}, "type": "electric_scooter", "name": "bd8e773a0db6fed26bfa162d8fd4eba0", "is_reserved": 0, "lon": -77.077043, "is_disabled": 0, "fusion_lat": 0.0, "lat": 38.893415166666664, "bike_id": "bd8e773a0db6fed26bfa162d8fd4eba0", "fusion_lon": 0.0}, {"rental_uris": {"ios": "https://dc.lft.to/lastmile_qr_scan", "android": "https://dc.lft.to/lastmile_qr_scan"}, "type": "electric_scooter", "name": "ebe64d5df0bebb836ea7c1fb423c4d1e", "is_reserved": 0, "lon": -77.00749483333334, "is_disabled": 0, "fusion_lat": 0.0, "lat": 38.916211833333335, "bike_id": "ebe64d5df0bebb836ea7c1fb423c4d1e", "fusion_lon": 0.0}, {"rental_uris": {"ios": "https://dc.lft.to/lastmile_qr_scan", "android": "https://dc.lft.to/lastmile_qr_scan"}, "type": "electric_scooter", "name": "c492227fac4e4c709f42ff0eefe71061", "is_reserved": 0, "lon": -77.036351, "is_disabled": 0, "fusion_lat": 0.0, "lat": 38.93486683333333, "bike_id": "c492227fac4e4c709f42ff0eefe71061", "fusion_lon": 0.0}, {"rental_uris": {"ios": "https://dc.lft.to/lastmile_qr_scan", "android": "https://dc.lft.to/lastmile_qr_scan"}, "type": "electric_bike", "name": "28b5412e5606bb82c2be1402e343a6f8", "is_reserved": 0, "lon": -76.980228, "is_disabled": 0, "fusion_lat": 0.0, "lat": 38.853128, "bike_id": "28b5412e5606bb82c2be1402e343a6f8", "fusion_lon": 0.0}, {"rental_uris": {"ios": "https://dc.lft.to/lastmile_qr_scan", "android": "https://dc.lft.to/lastmile_qr_scan"}, "type": "electric_scooter", "name": "72eee609b9fcfc4a82c50fe08269a86b", "is_reserved": 0, "lon": -76.98160516666667, "is_disabled": 0, "fusion_lat": 0.0, "lat": 38.8994125, "bike_id": "72eee609b9fcfc4a82c50fe08269a86b", "fusion_lon": 0.0}, {"rental_uris": {"ios": "https://dc.lft.to/lastmile_qr_scan", "android": "https://dc.lft.to/lastmile_qr_scan"}, "type": "electric_scooter", "name": "ec722677a01f6dc4668535d567580b08", "is_reserved": 0, "lon": -77.01966366666667, "is_disabled": 0, "fusion_lat": 0.0, "lat": 38.92327433333333, "bike_id": "ec722677a01f6dc4668535d567580b08", "fusion_lon": 0.0}, {"rental_uris": {"ios": "https://dc.lft.to/lastmile_qr_scan", "android": "https://dc.lft.to/lastmile_qr_scan"}, "type": "electric_scooter", "name": "fdb7444d7c0ec0e052a4d6f3fca44ad2", "is_reserved": 0, "lon": -77.032049, "is_disabled": 0, "fusion_lat": 0.0, "lat": 38.921791166666665, "bike_id": "fdb7444d7c0ec0e052a4d6f3fca44ad2", "fusion_lon": 0.0}, {"rental_uris": {"ios": "https://dc.lft.to/lastmile_qr_scan", "android": "https://dc.lft.to/lastmile_qr_scan"}, "type": "electric_scooter", "name": "0d53ac38b9288f17206eaf520533a7fe", "is_reserved": 0, "lon": -77.00627, "is_disabled": 0, "fusion_lat": 0.0, "lat": 38.871707666666666, "bike_id": "0d53ac38b9288f17206eaf520533a7fe", "fusion_lon": 0.0}, {"rental_uris": {"ios": "https://dc.lft.to/lastmile_qr_scan", "android": "https://dc.lft.to/lastmile_qr_scan"}, "type": "electric_scooter", "name": "c5dc2ea32d866d6d6f8c3a9e02d0afad", "is_reserved": 0, "lon": -77.03668716666667, "is_disabled": 0, "fusion_lat": 0.0, "lat": 38.921287166666666, "bike_id": "c5dc2ea32d866d6d6f8c3a9e02d0afad", "fusion_lon": 0.0}, {"rental_uris": {"ios": "https://dc.lft.to/lastmile_qr_scan", "android": "https://dc.lft.to/lastmile_qr_scan"}, "type": "electric_scooter", "name": "95c5e46bf25998533552456294e69d93", "is_reserved": 0, "lon": -77.04176333333334, "is_disabled": 0, "fusion_lat": 0.0, "lat": 38.9160455, "bike_id": "95c5e46bf25998533552456294e69d93", "fusion_lon": 0.0}, {"rental_uris": {"ios": "https://dc.lft.to/lastmile_qr_scan", "android": "https://dc.lft.to/lastmile_qr_scan"}, "type": "electric_scooter", "name": "1c379e8bb600f4581d4f6db803a43323", "is_reserved": 0, "lon": -77.04571566666667, "is_disabled": 0, "fusion_lat": 0.0, "lat": 38.9206965, "bike_id": "1c379e8bb600f4581d4f6db803a43323", "fusion_lon": 0.0}, {"rental_uris": {"ios": "https://dc.lft.to/lastmile_qr_scan", "android": "https://dc.lft.to/lastmile_qr_scan"}, "type": "electric_scooter", "name": "0fecb0213b8bd5582e808ded5cad6cf6", "is_reserved": 0, "lon": -77.005674, "is_disabled": 0, "fusion_lat": 0.0, "lat": 38.878513, "bike_id": "0fecb0213b8bd5582e808ded5cad6cf6", "fusion_lon": 0.0}, {"rental_uris": {"ios": "https://dc.lft.to/lastmile_qr_scan", "android": "https://dc.lft.to/lastmile_qr_scan"}, "type": "electric_scooter", "name": "02c30bda41776a6213605a119d9edfe5", "is_reserved": 0, "lon": -77.02968666666666, "is_disabled": 0, "fusion_lat": 0.0, "lat": 38.905073, "bike_id": "02c30bda41776a6213605a119d9edfe5", "fusion_lon": 0.0}, {"rental_uris": {"ios": "https://dc.lft.to/lastmile_qr_scan", "android": "https://dc.lft.to/lastmile_qr_scan"}, "type": "electric_scooter", "name": "80551d00da3458808b5cd831e5835fe8", "is_reserved": 0, "lon": -77.03818333333334, "is_disabled": 0, "fusion_lat": 0.0, "lat": 38.914266, "bike_id": "80551d00da3458808b5cd831e5835fe8", "fusion_lon": 0.0}, {"rental_uris": {"ios": "https://dc.lft.to/lastmile_qr_scan", "android": "https://dc.lft.to/lastmile_qr_scan"}, "type": "electric_scooter", "name": "26e7b099d63cb47bd53278c2e8a8347b", "is_reserved": 0, "lon": -77.04083766666666, "is_disabled": 0, "fusion_lat": 0.0, "lat": 38.947892333333336, "bike_id": "26e7b099d63cb47bd53278c2e8a8347b", "fusion_lon": 0.0}, {"rental_uris": {"ios": "https://dc.lft.to/lastmile_qr_scan", "android": "https://dc.lft.to/lastmile_qr_scan"}, "type": "electric_bike", "name": "11a3d947c479456ca33e93fdbb080435", "is_reserved": 0, "lon": -76.9824925, "is_disabled": 0, "fusion_lat": 0.0, "lat": 38.9524185, "bike_id": "11a3d947c479456ca33e93fdbb080435", "fusion_lon": 0.0}, {"rental_uris": {"ios": "https://dc.lft.to/lastmile_qr_scan", "android": "https://dc.lft.to/lastmile_qr_scan"}, "type": "electric_scooter", "name": "7d022b08768ad1f37a2c53751f08f846", "is_reserved": 0, "lon": -77.0199135, "is_disabled": 0, "fusion_lat": 0.0, "lat": 38.93048183333333, "bike_id": "7d022b08768ad1f37a2c53751f08f846", "fusion_lon": 0.0}, {"rental_uris": {"ios": "https://dc.lft.to/lastmile_qr_scan", "android": "https://dc.lft.to/lastmile_qr_scan"}, "type": "electric_scooter", "name": "e06b79ccd93f51ba4dc8affeab68bc83", "is_reserved": 0, "lon": -76.986492, "is_disabled": 0, "fusion_lat": 0.0, "lat": 38.9053615, "bike_id": "e06b79ccd93f51ba4dc8affeab68bc83", "fusion_lon": 0.0}, {"rental_uris": {"ios": "https://dc.lft.to/lastmile_qr_scan", "android": "https://dc.lft.to/lastmile_qr_scan"}, "type": "electric_bike", "name": "34d78673b6630f1d99bf8221e7b5a160", "is_reserved": 0, "lon": -77.102938, "is_disabled": 0, "fusion_lat": 0.0, "lat": 38.85251083333333, "bike_id": "34d78673b6630f1d99bf8221e7b5a160", "fusion_lon": 0.0}, {"rental_uris": {"ios": "https://dc.lft.to/lastmile_qr_scan", "android": "https://dc.lft.to/lastmile_qr_scan"}, "type": "electric_scooter", "name": "b56af30c21e9926f61c360f57a42fd88", "is_reserved": 0, "lon": -77.02284733333333, "is_disabled": 0, "fusion_lat": 0.0, "lat": 38.91680066666667, "bike_id": "b56af30c21e9926f61c360f57a42fd88", "fusion_lon": 0.0}, {"rental_uris": {"ios": "https://dc.lft.to/lastmile_qr_scan", "android": "https://dc.lft.to/lastmile_qr_scan"}, "type": "electric_scooter", "name": "0969740ef2db73f5647e7de593decb1a", "is_reserved": 0, "lon": -77.01626583333334, "is_disabled": 0, "fusion_lat": 0.0, "lat": 38.903637333333336, "bike_id": "0969740ef2db73f5647e7de593decb1a", "fusion_lon": 0.0}, {"rental_uris": {"ios": "https://dc.lft.to/lastmile_qr_scan", "android": "https://dc.lft.to/lastmile_qr_scan"}, "type": "electric_scooter", "name": "fdf2cd9557f8cbe3221186cc6d54ca3c", "is_reserved": 0, "lon": -76.94637183333333, "is_disabled": 0, "fusion_lat": 0.0, "lat": 38.89865566666667, "bike_id": "fdf2cd9557f8cbe3221186cc6d54ca3c", "fusion_lon": 0.0}, {"rental_uris": {"ios": "https://dc.lft.to/lastmile_qr_scan", "android": "https://dc.lft.to/lastmile_qr_scan"}, "type": "electric_scooter", "name": "5e49a0d4bd7585e936d53ecb445dd7b7", "is_reserved": 0, "lon": -77.0416865, "is_disabled": 0, "fusion_lat": 0.0, "lat": 38.91856933333333, "bike_id": "5e49a0d4bd7585e936d53ecb445dd7b7", "fusion_lon": 0.0}, {"rental_uris": {"ios": "https://dc.lft.to/lastmile_qr_scan", "android": "https://dc.lft.to/lastmile_qr_scan"}, "type": "electric_scooter", "name": "be167c9acfd6eae4790720c1d7d1b2c9", "is_reserved": 0, "lon": -77.02653066666667, "is_disabled": 0, "fusion_lat": 0.0, "lat": 38.931021666666666, "bike_id": "be167c9acfd6eae4790720c1d7d1b2c9", "fusion_lon": 0.0}, {"rental_uris": {"ios": "https://dc.lft.to/lastmile_qr_scan", "android": "https://dc.lft.to/lastmile_qr_scan"}, "type": "electric_scooter", "name": "6a1a536bcb286f7df14fdd5cb7f5217c", "is_reserved": 0, "lon": -77.03208633333334, "is_disabled": 0, "fusion_lat": 0.0, "lat": 38.9218525, "bike_id": "6a1a536bcb286f7df14fdd5cb7f5217c", "fusion_lon": 0.0}, {"rental_uris": {"ios": "https://dc.lft.to/lastmile_qr_scan", "android": "https://dc.lft.to/lastmile_qr_scan"}, "type": "electric_scooter", "name": "4d7b2499ff79a486f6432d29feb8937f", "is_reserved": 0, "lon": -77.02008416666666, "is_disabled": 0, "fusion_lat": 0.0, "lat": 38.9280535, "bike_id": "4d7b2499ff79a486f6432d29feb8937f", "fusion_lon": 0.0}, {"rental_uris": {"ios": "https://dc.lft.to/lastmile_qr_scan", "android": "https://dc.lft.to/lastmile_qr_scan"}, "type": "electric_bike", "name": "da9dbf0f6a3ecc1da37cc1669174829a", "is_reserved": 0, "lon": -77.02453983333334, "is_disabled": 0, "fusion_lat": 0.0, "lat": 38.9330265, "bike_id": "da9dbf0f6a3ecc1da37cc1669174829a", "fusion_lon": 0.0}, {"rental_uris": {"ios": "https://dc.lft.to/lastmile_qr_scan", "android": "https://dc.lft.to/lastmile_qr_scan"}, "type": "electric_bike", "name": "3f28401ef36ca3f84dc30f50232805f7", "is_reserved": 0, "lon": -76.97922866666667, "is_disabled": 0, "fusion_lat": 0.0, "lat": 38.92007666666667, "bike_id": "3f28401ef36ca3f84dc30f50232805f7", "fusion_lon": 0.0}, {"rental_uris": {"ios": "https://dc.lft.to/lastmile_qr_scan", "android": "https://dc.lft.to/lastmile_qr_scan"}, "type": "electric_bike", "name": "1460e9cceeb9470c833f1bfa90e2fdb9", "is_reserved": 0, "lon": -77.2317655, "is_disabled": 0, "fusion_lat": 0.0, "lat": 38.92896016666667, "bike_id": "1460e9cceeb9470c833f1bfa90e2fdb9", "fusion_lon": 0.0}, {"rental_uris": {"ios": "https://dc.lft.to/lastmile_qr_scan", "android": "https://dc.lft.to/lastmile_qr_scan"}, "type": "electric_scooter", "name": "da4ed73d99bbe6a88604657d2d09edcb", "is_reserved": 0, "lon": -77.0150075, "is_disabled": 0, "fusion_lat": 0.0, "lat": 38.90656766666667, "bike_id": "da4ed73d99bbe6a88604657d2d09edcb", "fusion_lon": 0.0}, {"rental_uris": {"ios": "https://dc.lft.to/lastmile_qr_scan", "android": "https://dc.lft.to/lastmile_qr_scan"}, "type": "electric_scooter", "name": "d43137d2cf61cdb80d32b77d267ceae4", "is_reserved": 0, "lon": -77.03416416666667, "is_disabled": 0, "fusion_lat": 0.0, "lat": 38.90132466666667, "bike_id": "d43137d2cf61cdb80d32b77d267ceae4", "fusion_lon": 0.0}, {"rental_uris": {"ios": "https://dc.lft.to/lastmile_qr_scan", "android": "https://dc.lft.to/lastmile_qr_scan"}, "type": "electric_scooter", "name": "f4d94f756bffb26e92b7932c3fb3c999", "is_reserved": 0, "lon": -77.0055905, "is_disabled": 0, "fusion_lat": 0.0, "lat": 38.87663666666667, "bike_id": "f4d94f756bffb26e92b7932c3fb3c999", "fusion_lon": 0.0}, {"rental_uris": {"ios": "https://dc.lft.to/lastmile_qr_scan", "android": "https://dc.lft.to/lastmile_qr_scan"}, "type": "electric_scooter", "name": "c562160b1354798e435fe11b91726151", "is_reserved": 0, "lon": -77.02570583333333, "is_disabled": 0, "fusion_lat": 0.0, "lat": 38.948539333333336, "bike_id": "c562160b1354798e435fe11b91726151", "fusion_lon": 0.0}, {"rental_uris": {"ios": "https://dc.lft.to/lastmile_qr_scan", "android": "https://dc.lft.to/lastmile_qr_scan"}, "type": "electric_scooter", "name": "dfbce1da4bc9996ae38dd499a506c7d8", "is_reserved": 0, "lon": -76.92303383333333, "is_disabled": 0, "fusion_lat": 0.0, "lat": 38.89390866666667, "bike_id": "dfbce1da4bc9996ae38dd499a506c7d8", "fusion_lon": 0.0}, {"rental_uris": {"ios": "https://dc.lft.to/lastmile_qr_scan", "android": "https://dc.lft.to/lastmile_qr_scan"}, "type": "electric_scooter", "name": "7aae4ed0a96799b05bf2216bc6cdda80", "is_reserved": 0, "lon": -77.04526766666666, "is_disabled": 0, "fusion_lat": 0.0, "lat": 38.91109683333333, "bike_id": "7aae4ed0a96799b05bf2216bc6cdda80", "fusion_lon": 0.0}, {"rental_uris": {"ios": "https://dc.lft.to/lastmile_qr_scan", "android": "https://dc.lft.to/lastmile_qr_scan"}, "type": "electric_scooter", "name": "5b3f1d9ca2842cfbc35708d009f1abf2", "is_reserved": 0, "lon": -77.03171066666667, "is_disabled": 0, "fusion_lat": 0.0, "lat": 38.92908883333333, "bike_id": "5b3f1d9ca2842cfbc35708d009f1abf2", "fusion_lon": 0.0}, {"rental_uris": {"ios": "https://dc.lft.to/lastmile_qr_scan", "android": "https://dc.lft.to/lastmile_qr_scan"}, "type": "electric_scooter", "name": "fe06a33e72b36d3cd836d46405b3ec3b", "is_reserved": 0, "lon": -77.00339133333334, "is_disabled": 0, "fusion_lat": 0.0, "lat": 38.876674, "bike_id": "fe06a33e72b36d3cd836d46405b3ec3b", "fusion_lon": 0.0}, {"rental_uris": {"ios": "https://dc.lft.to/lastmile_qr_scan", "android": "https://dc.lft.to/lastmile_qr_scan"}, "type": "electric_scooter", "name": "3e144f21f7588524d1276524e8572871", "is_reserved": 0, "lon": -77.0022145, "is_disabled": 0, "fusion_lat": 0.0, "lat": 38.894564833333334, "bike_id": "3e144f21f7588524d1276524e8572871", "fusion_lon": 0.0}, {"rental_uris": {"ios": "https://dc.lft.to/lastmile_qr_scan", "android": "https://dc.lft.to/lastmile_qr_scan"}, "type": "electric_scooter", "name": "3505e59dcd7d5e9a4a9c75edb70c74f6", "is_reserved": 0, "lon": -77.002756, "is_disabled": 0, "fusion_lat": 0.0, "lat": 38.887697, "bike_id": "3505e59dcd7d5e9a4a9c75edb70c74f6", "fusion_lon": 0.0}, {"rental_uris": {"ios": "https://dc.lft.to/lastmile_qr_scan", "android": "https://dc.lft.to/lastmile_qr_scan"}, "type": "electric_scooter", "name": "231ac48f2bcc56f2eadaeee3f04da410", "is_reserved": 0, "lon": -77.0345535, "is_disabled": 0, "fusion_lat": 0.0, "lat": 38.907348999999996, "bike_id": "231ac48f2bcc56f2eadaeee3f04da410", "fusion_lon": 0.0}, {"rental_uris": {"ios": "https://dc.lft.to/lastmile_qr_scan", "android": "https://dc.lft.to/lastmile_qr_scan"}, "type": "electric_scooter", "name": "cd0cbfaac9374efdb74d6b635962be8a", "is_reserved": 0, "lon": -77.033729, "is_disabled": 0, "fusion_lat": 0.0, "lat": 38.93868616666666, "bike_id": "cd0cbfaac9374efdb74d6b635962be8a", "fusion_lon": 0.0}, {"rental_uris": {"ios": "https://dc.lft.to/lastmile_qr_scan", "android": "https://dc.lft.to/lastmile_qr_scan"}, "type": "electric_scooter", "name": "39ff4fae5baba78039111128142c627e", "is_reserved": 0, "lon": -77.04481016666666, "is_disabled": 0, "fusion_lat": 0.0, "lat": 38.91595866666667, "bike_id": "39ff4fae5baba78039111128142c627e", "fusion_lon": 0.0}, {"rental_uris": {"ios": "https://dc.lft.to/lastmile_qr_scan", "android": "https://dc.lft.to/lastmile_qr_scan"}, "type": "electric_scooter", "name": "beddd47b92989dabb95b3536ac30c865", "is_reserved": 0, "lon": -76.98535116666666, "is_disabled": 0, "fusion_lat": 0.0, "lat": 38.85858066666667, "bike_id": "beddd47b92989dabb95b3536ac30c865", "fusion_lon": 0.0}, {"rental_uris": {"ios": "https://dc.lft.to/lastmile_qr_scan", "android": "https://dc.lft.to/lastmile_qr_scan"}, "type": "electric_bike", "name": "d3aafa7f2cc9aa9e5a6f32533078f789", "is_reserved": 0, "lon": -77.10075116666667, "is_disabled": 0, "fusion_lat": 0.0, "lat": 38.85738833333333, "bike_id": "d3aafa7f2cc9aa9e5a6f32533078f789", "fusion_lon": 0.0}, {"rental_uris": {"ios": "https://dc.lft.to/lastmile_qr_scan", "android": "https://dc.lft.to/lastmile_qr_scan"}, "type": "electric_scooter", "name": "ac1a1e49d8cfd331bd15f2f1145f585a", "is_reserved": 0, "lon": -77.0229675, "is_disabled": 0, "fusion_lat": 0.0, "lat": 38.89854116666667, "bike_id": "ac1a1e49d8cfd331bd15f2f1145f585a", "fusion_lon": 0.0}, {"rental_uris": {"ios": "https://dc.lft.to/lastmile_qr_scan", "android": "https://dc.lft.to/lastmile_qr_scan"}, "type": "electric_scooter", "name": "c741c21b6c93b98d9a37e6951f5040f2", "is_reserved": 0, "lon": -77.03193666666667, "is_disabled": 0, "fusion_lat": 0.0, "lat": 38.899733499999996, "bike_id": "c741c21b6c93b98d9a37e6951f5040f2", "fusion_lon": 0.0}, {"rental_uris": {"ios": "https://dc.lft.to/lastmile_qr_scan", "android": "https://dc.lft.to/lastmile_qr_scan"}, "type": "electric_scooter", "name": "d4a1d81a644adf75a34b3ad4f304cb71", "is_reserved": 0, "lon": -77.03152433333334, "is_disabled": 0, "fusion_lat": 0.0, "lat": 38.90590683333333, "bike_id": "d4a1d81a644adf75a34b3ad4f304cb71", "fusion_lon": 0.0}, {"rental_uris": {"ios": "https://dc.lft.to/lastmile_qr_scan", "android": "https://dc.lft.to/lastmile_qr_scan"}, "type": "electric_scooter", "name": "c61802a00aead9bb349619a625a57ea7", "is_reserved": 0, "lon": -76.97655933333333, "is_disabled": 0, "fusion_lat": 0.0, "lat": 38.90369116666667, "bike_id": "c61802a00aead9bb349619a625a57ea7", "fusion_lon": 0.0}, {"rental_uris": {"ios": "https://dc.lft.to/lastmile_qr_scan", "android": "https://dc.lft.to/lastmile_qr_scan"}, "type": "electric_scooter", "name": "595d23c0fce5fc8864c39533e55acb54", "is_reserved": 0, "lon": -77.02497466666667, "is_disabled": 0, "fusion_lat": 0.0, "lat": 38.919485, "bike_id": "595d23c0fce5fc8864c39533e55acb54", "fusion_lon": 0.0}, {"rental_uris": {"ios": "https://dc.lft.to/lastmile_qr_scan", "android": "https://dc.lft.to/lastmile_qr_scan"}, "type": "electric_scooter", "name": "56e8a518e3cd4bea7a63e2edeaae8f66", "is_reserved": 0, "lon": -77.01777733333333, "is_disabled": 0, "fusion_lat": 0.0, "lat": 38.8791675, "bike_id": "56e8a518e3cd4bea7a63e2edeaae8f66", "fusion_lon": 0.0}, {"rental_uris": {"ios": "https://dc.lft.to/lastmile_qr_scan", "android": "https://dc.lft.to/lastmile_qr_scan"}, "type": "electric_scooter", "name": "19a884cbead9e4715cd5ac0d6db4a4ed", "is_reserved": 0, "lon": -77.04098983333333, "is_disabled": 0, "fusion_lat": 0.0, "lat": 38.92077166666667, "bike_id": "19a884cbead9e4715cd5ac0d6db4a4ed", "fusion_lon": 0.0}, {"rental_uris": {"ios": "https://dc.lft.to/lastmile_qr_scan", "android": "https://dc.lft.to/lastmile_qr_scan"}, "type": "electric_scooter", "name": "50aa192f160857a673f5f81e43a0bbea", "is_reserved": 0, "lon": -77.00755616666666, "is_disabled": 0, "fusion_lat": 0.0, "lat": 38.871137166666664, "bike_id": "50aa192f160857a673f5f81e43a0bbea", "fusion_lon": 0.0}, {"rental_uris": {"ios": "https://dc.lft.to/lastmile_qr_scan", "android": "https://dc.lft.to/lastmile_qr_scan"}, "type": "electric_scooter", "name": "39819dc9bf0c89653034e387e210c9a7", "is_reserved": 0, "lon": -77.03190666666667, "is_disabled": 0, "fusion_lat": 0.0, "lat": 38.899679166666665, "bike_id": "39819dc9bf0c89653034e387e210c9a7", "fusion_lon": 0.0}, {"rental_uris": {"ios": "https://dc.lft.to/lastmile_qr_scan", "android": "https://dc.lft.to/lastmile_qr_scan"}, "type": "electric_scooter", "name": "6a958a635ef27672b393891cf3b724e4", "is_reserved": 0, "lon": -77.02770133333334, "is_disabled": 0, "fusion_lat": 0.0, "lat": 38.965852166666664, "bike_id": "6a958a635ef27672b393891cf3b724e4", "fusion_lon": 0.0}, {"rental_uris": {"ios": "https://dc.lft.to/lastmile_qr_scan", "android": "https://dc.lft.to/lastmile_qr_scan"}, "type": "electric_scooter", "name": "0ec5381f843c5d5c1d2727930e4db56a", "is_reserved": 0, "lon": -76.94154983333334, "is_disabled": 0, "fusion_lat": 0.0, "lat": 38.901765833333336, "bike_id": "0ec5381f843c5d5c1d2727930e4db56a", "fusion_lon": 0.0}, {"rental_uris": {"ios": "https://dc.lft.to/lastmile_qr_scan", "android": "https://dc.lft.to/lastmile_qr_scan"}, "type": "electric_scooter", "name": "9c5261e7d474a559aa53b1ab75e20015", "is_reserved": 0, "lon": -77.02707033333333, "is_disabled": 0, "fusion_lat": 0.0, "lat": 38.918054166666664, "bike_id": "9c5261e7d474a559aa53b1ab75e20015", "fusion_lon": 0.0}, {"rental_uris": {"ios": "https://dc.lft.to/lastmile_qr_scan", "android": "https://dc.lft.to/lastmile_qr_scan"}, "type": "electric_scooter", "name": "947f675d6fdbe800cf6516386c1d7599", "is_reserved": 0, "lon": -77.03270433333333, "is_disabled": 0, "fusion_lat": 0.0, "lat": 38.921723166666666, "bike_id": "947f675d6fdbe800cf6516386c1d7599", "fusion_lon": 0.0}, {"rental_uris": {"ios": "https://dc.lft.to/lastmile_qr_scan", "android": "https://dc.lft.to/lastmile_qr_scan"}, "type": "electric_bike", "name": "50ff3de8d17d987aefd0d89a0e425da4", "is_reserved": 0, "lon": -77.09960933333333, "is_disabled": 0, "fusion_lat": 0.0, "lat": 38.8579115, "bike_id": "50ff3de8d17d987aefd0d89a0e425da4", "fusion_lon": 0.0}, {"rental_uris": {"ios": "https://dc.lft.to/lastmile_qr_scan", "android": "https://dc.lft.to/lastmile_qr_scan"}, "type": "electric_scooter", "name": "6c9f8bacf495a2ba7764915740608c68", "is_reserved": 0, "lon": -77.04757833333333, "is_disabled": 0, "fusion_lat": 0.0, "lat": 38.940965, "bike_id": "6c9f8bacf495a2ba7764915740608c68", "fusion_lon": 0.0}, {"rental_uris": {"ios": "https://dc.lft.to/lastmile_qr_scan", "android": "https://dc.lft.to/lastmile_qr_scan"}, "type": "electric_scooter", "name": "ce9dd8e374b72a5376396d567f25c579", "is_reserved": 0, "lon": -77.03833, "is_disabled": 0, "fusion_lat": 0.0, "lat": 38.931501833333336, "bike_id": "ce9dd8e374b72a5376396d567f25c579", "fusion_lon": 0.0}, {"rental_uris": {"ios": "https://dc.lft.to/lastmile_qr_scan", "android": "https://dc.lft.to/lastmile_qr_scan"}, "type": "electric_scooter", "name": "a519301389f9076446a8afbc294d156f", "is_reserved": 0, "lon": -77.01229666666667, "is_disabled": 0, "fusion_lat": 0.0, "lat": 38.867230666666664, "bike_id": "a519301389f9076446a8afbc294d156f", "fusion_lon": 0.0}, {"rental_uris": {"ios": "https://dc.lft.to/lastmile_qr_scan", "android": "https://dc.lft.to/lastmile_qr_scan"}, "type": "electric_scooter", "name": "2ef98906aec4a4b415afc714288f1fb7", "is_reserved": 0, "lon": -76.99233766666667, "is_disabled": 0, "fusion_lat": 0.0, "lat": 38.88759816666666, "bike_id": "2ef98906aec4a4b415afc714288f1fb7", "fusion_lon": 0.0}, {"rental_uris": {"ios": "https://dc.lft.to/lastmile_qr_scan", "android": "https://dc.lft.to/lastmile_qr_scan"}, "type": "electric_scooter", "name": "390beeb27ccadcc9d6e0698ed60851cb", "is_reserved": 0, "lon": -77.0321025, "is_disabled": 0, "fusion_lat": 0.0, "lat": 38.884766166666665, "bike_id": "390beeb27ccadcc9d6e0698ed60851cb", "fusion_lon": 0.0}, {"rental_uris": {"ios": "https://dc.lft.to/lastmile_qr_scan", "android": "https://dc.lft.to/lastmile_qr_scan"}, "type": "electric_scooter", "name": "0694ff6309be6b5d9fa2b322b12ee57b", "is_reserved": 0, "lon": -76.99911433333334, "is_disabled": 0, "fusion_lat": 0.0, "lat": 38.92462583333333, "bike_id": "0694ff6309be6b5d9fa2b322b12ee57b", "fusion_lon": 0.0}, {"rental_uris": {"ios": "https://dc.lft.to/lastmile_qr_scan", "android": "https://dc.lft.to/lastmile_qr_scan"}, "type": "electric_bike", "name": "c77b76b87d26114f6f9ed132c4c5613e", "is_reserved": 0, "lon": -76.9073265, "is_disabled": 0, "fusion_lat": 0.0, "lat": 38.89621433333333, "bike_id": "c77b76b87d26114f6f9ed132c4c5613e", "fusion_lon": 0.0}, {"rental_uris": {"ios": "https://dc.lft.to/lastmile_qr_scan", "android": "https://dc.lft.to/lastmile_qr_scan"}, "type": "electric_scooter", "name": "96c449e0d6e81f6f01e270f425f61ca7", "is_reserved": 0, "lon": -77.0083205, "is_disabled": 0, "fusion_lat": 0.0, "lat": 38.913752, "bike_id": "96c449e0d6e81f6f01e270f425f61ca7", "fusion_lon": 0.0}, {"rental_uris": {"ios": "https://dc.lft.to/lastmile_qr_scan", "android": "https://dc.lft.to/lastmile_qr_scan"}, "type": "electric_scooter", "name": "012b9fdadc2b08880cba2954926f663f", "is_reserved": 0, "lon": -77.03665866666667, "is_disabled": 0, "fusion_lat": 0.0, "lat": 38.906842166666664, "bike_id": "012b9fdadc2b08880cba2954926f663f", "fusion_lon": 0.0}, {"rental_uris": {"ios": "https://dc.lft.to/lastmile_qr_scan", "android": "https://dc.lft.to/lastmile_qr_scan"}, "type": "electric_scooter", "name": "e9bdd0558d631ad598eb004dad0b313f", "is_reserved": 0, "lon": -77.04088566666667, "is_disabled": 0, "fusion_lat": 0.0, "lat": 38.9271185, "bike_id": "e9bdd0558d631ad598eb004dad0b313f", "fusion_lon": 0.0}, {"rental_uris": {"ios": "https://dc.lft.to/lastmile_qr_scan", "android": "https://dc.lft.to/lastmile_qr_scan"}, "type": "electric_scooter", "name": "0ec64554a9f48f71cae4d32cb2aa6a37", "is_reserved": 0, "lon": -77.02173633333334, "is_disabled": 0, "fusion_lat": 0.0, "lat": 38.89493433333333, "bike_id": "0ec64554a9f48f71cae4d32cb2aa6a37", "fusion_lon": 0.0}, {"rental_uris": {"ios": "https://dc.lft.to/lastmile_qr_scan", "android": "https://dc.lft.to/lastmile_qr_scan"}, "type": "electric_scooter", "name": "ed76e2a923801c4e43217a870202345e", "is_reserved": 0, "lon": -77.03449816666667, "is_disabled": 0, "fusion_lat": 0.0, "lat": 38.901148, "bike_id": "ed76e2a923801c4e43217a870202345e", "fusion_lon": 0.0}, {"rental_uris": {"ios": "https://dc.lft.to/lastmile_qr_scan", "android": "https://dc.lft.to/lastmile_qr_scan"}, "type": "electric_scooter", "name": "1524872fe27ccd927802f63cf8a49bfa", "is_reserved": 0, "lon": -77.03906316666666, "is_disabled": 0, "fusion_lat": 0.0, "lat": 38.922469166666666, "bike_id": "1524872fe27ccd927802f63cf8a49bfa", "fusion_lon": 0.0}, {"rental_uris": {"ios": "https://dc.lft.to/lastmile_qr_scan", "android": "https://dc.lft.to/lastmile_qr_scan"}, "type": "electric_bike", "name": "018ac46007d8f9f2aaf6c23856ac2912", "is_reserved": 0, "lon": -77.0075745, "is_disabled": 0, "fusion_lat": 0.0, "lat": 38.99783383333333, "bike_id": "018ac46007d8f9f2aaf6c23856ac2912", "fusion_lon": 0.0}, {"rental_uris": {"ios": "https://dc.lft.to/lastmile_qr_scan", "android": "https://dc.lft.to/lastmile_qr_scan"}, "type": "electric_scooter", "name": "5b8076c8b4948d2e6ce0c84dfca31034", "is_reserved": 0, "lon": -77.0033925, "is_disabled": 0, "fusion_lat": 0.0, "lat": 38.877219, "bike_id": "5b8076c8b4948d2e6ce0c84dfca31034", "fusion_lon": 0.0}, {"rental_uris": {"ios": "https://dc.lft.to/lastmile_qr_scan", "android": "https://dc.lft.to/lastmile_qr_scan"}, "type": "electric_scooter", "name": "993ab2b4902d4ec4a1b3fe298649792c", "is_reserved": 0, "lon": -77.039574, "is_disabled": 0, "fusion_lat": 0.0, "lat": 38.89835383333333, "bike_id": "993ab2b4902d4ec4a1b3fe298649792c", "fusion_lon": 0.0}, {"rental_uris": {"ios": "https://dc.lft.to/lastmile_qr_scan", "android": "https://dc.lft.to/lastmile_qr_scan"}, "type": "electric_bike", "name": "a39a5d2424a549b8789511b249f3bed1", "is_reserved": 0, "lon": -76.95241483333334, "is_disabled": 0, "fusion_lat": 0.0, "lat": 38.884705333333336, "bike_id": "a39a5d2424a549b8789511b249f3bed1", "fusion_lon": 0.0}, {"rental_uris": {"ios": "https://dc.lft.to/lastmile_qr_scan", "android": "https://dc.lft.to/lastmile_qr_scan"}, "type": "electric_scooter", "name": "48d3db1f2128b644da1fe25c6a1c6342", "is_reserved": 0, "lon": -77.000691, "is_disabled": 0, "fusion_lat": 0.0, "lat": 38.87692166666667, "bike_id": "48d3db1f2128b644da1fe25c6a1c6342", "fusion_lon": 0.0}, {"rental_uris": {"ios": "https://dc.lft.to/lastmile_qr_scan", "android": "https://dc.lft.to/lastmile_qr_scan"}, "type": "electric_scooter", "name": "7b797cae0745b58edc77fc3106a68589", "is_reserved": 0, "lon": -77.026108, "is_disabled": 0, "fusion_lat": 0.0, "lat": 38.91693733333334, "bike_id": "7b797cae0745b58edc77fc3106a68589", "fusion_lon": 0.0}, {"rental_uris": {"ios": "https://dc.lft.to/lastmile_qr_scan", "android": "https://dc.lft.to/lastmile_qr_scan"}, "type": "electric_scooter", "name": "d8721fe2605680032e97f9436548a4b8", "is_reserved": 0, "lon": -77.04007233333333, "is_disabled": 0, "fusion_lat": 0.0, "lat": 38.918176, "bike_id": "d8721fe2605680032e97f9436548a4b8", "fusion_lon": 0.0}, {"rental_uris": {"ios": "https://dc.lft.to/lastmile_qr_scan", "android": "https://dc.lft.to/lastmile_qr_scan"}, "type": "electric_scooter", "name": "e4bf08b93f63e6092aa340deb26f045d", "is_reserved": 0, "lon": -77.084031, "is_disabled": 0, "fusion_lat": 0.0, "lat": 38.90810316666666, "bike_id": "e4bf08b93f63e6092aa340deb26f045d", "fusion_lon": 0.0}, {"rental_uris": {"ios": "https://dc.lft.to/lastmile_qr_scan", "android": "https://dc.lft.to/lastmile_qr_scan"}, "type": "electric_bike", "name": "32850422002ac0c72ea988f3e77fda4b", "is_reserved": 0, "lon": -76.9454975, "is_disabled": 0, "fusion_lat": 0.0, "lat": 38.98311983333333, "bike_id": "32850422002ac0c72ea988f3e77fda4b", "fusion_lon": 0.0}, {"rental_uris": {"ios": "https://dc.lft.to/lastmile_qr_scan", "android": "https://dc.lft.to/lastmile_qr_scan"}, "type": "electric_scooter", "name": "6f5c7dd6cc1bd5ce47c7554b8726b22c", "is_reserved": 0, "lon": -77.03355933333333, "is_disabled": 0, "fusion_lat": 0.0, "lat": 38.899715666666665, "bike_id": "6f5c7dd6cc1bd5ce47c7554b8726b22c", "fusion_lon": 0.0}, {"rental_uris": {"ios": "https://dc.lft.to/lastmile_qr_scan", "android": "https://dc.lft.to/lastmile_qr_scan"}, "type": "electric_scooter", "name": "e1141b948f1e788c8b66051c88f14a32", "is_reserved": 0, "lon": -77.01206483333333, "is_disabled": 0, "fusion_lat": 0.0, "lat": 38.921196, "bike_id": "e1141b948f1e788c8b66051c88f14a32", "fusion_lon": 0.0}, {"rental_uris": {"ios": "https://dc.lft.to/lastmile_qr_scan", "android": "https://dc.lft.to/lastmile_qr_scan"}, "type": "electric_scooter", "name": "8c3183176ef64428533eb574f2b8acf4", "is_reserved": 0, "lon": -77.0033145, "is_disabled": 0, "fusion_lat": 0.0, "lat": 38.913372333333335, "bike_id": "8c3183176ef64428533eb574f2b8acf4", "fusion_lon": 0.0}, {"rental_uris": {"ios": "https://dc.lft.to/lastmile_qr_scan", "android": "https://dc.lft.to/lastmile_qr_scan"}, "type": "electric_scooter", "name": "be76edb3560851793a79497a9fc9c319", "is_reserved": 0, "lon": -77.028436, "is_disabled": 0, "fusion_lat": 0.0, "lat": 38.90449483333333, "bike_id": "be76edb3560851793a79497a9fc9c319", "fusion_lon": 0.0}, {"rental_uris": {"ios": "https://dc.lft.to/lastmile_qr_scan", "android": "https://dc.lft.to/lastmile_qr_scan"}, "type": "electric_scooter", "name": "d34383bfe1639979f35227b5db96f94a", "is_reserved": 0, "lon": -77.05786866666666, "is_disabled": 0, "fusion_lat": 0.0, "lat": 38.901023, "bike_id": "d34383bfe1639979f35227b5db96f94a", "fusion_lon": 0.0}, {"rental_uris": {"ios": "https://dc.lft.to/lastmile_qr_scan", "android": "https://dc.lft.to/lastmile_qr_scan"}, "type": "electric_scooter", "name": "c901556308d988949db2c9948e1a4ad1", "is_reserved": 0, "lon": -77.020738, "is_disabled": 0, "fusion_lat": 0.0, "lat": 38.92708483333333, "bike_id": "c901556308d988949db2c9948e1a4ad1", "fusion_lon": 0.0}, {"rental_uris": {"ios": "https://dc.lft.to/lastmile_qr_scan", "android": "https://dc.lft.to/lastmile_qr_scan"}, "type": "electric_scooter", "name": "8ed95021d5fc93fd872dde969a552841", "is_reserved": 0, "lon": -77.009134, "is_disabled": 0, "fusion_lat": 0.0, "lat": 38.882083, "bike_id": "8ed95021d5fc93fd872dde969a552841", "fusion_lon": 0.0}, {"rental_uris": {"ios": "https://dc.lft.to/lastmile_qr_scan", "android": "https://dc.lft.to/lastmile_qr_scan"}, "type": "electric_scooter", "name": "c7ebdaca84581bac58e36aee5433d7cc", "is_reserved": 0, "lon": -77.022565, "is_disabled": 0, "fusion_lat": 0.0, "lat": 38.92824483333333, "bike_id": "c7ebdaca84581bac58e36aee5433d7cc", "fusion_lon": 0.0}, {"rental_uris": {"ios": "https://dc.lft.to/lastmile_qr_scan", "android": "https://dc.lft.to/lastmile_qr_scan"}, "type": "electric_scooter", "name": "d59c9aa457fadeef31fa66e6ff3ce7c3", "is_reserved": 0, "lon": -77.04175833333333, "is_disabled": 0, "fusion_lat": 0.0, "lat": 38.9038885, "bike_id": "d59c9aa457fadeef31fa66e6ff3ce7c3", "fusion_lon": 0.0}, {"rental_uris": {"ios": "https://dc.lft.to/lastmile_qr_scan", "android": "https://dc.lft.to/lastmile_qr_scan"}, "type": "electric_bike", "name": "685a2edb1e0b3f73d4668913c867a34d", "is_reserved": 0, "lon": -76.9877295, "is_disabled": 0, "fusion_lat": 0.0, "lat": 38.844738166666666, "bike_id": "685a2edb1e0b3f73d4668913c867a34d", "fusion_lon": 0.0}, {"rental_uris": {"ios": "https://dc.lft.to/lastmile_qr_scan", "android": "https://dc.lft.to/lastmile_qr_scan"}, "type": "electric_scooter", "name": "96dca8219ddc8830599821e004a32b40", "is_reserved": 0, "lon": -77.0485705, "is_disabled": 0, "fusion_lat": 0.0, "lat": 38.91265883333333, "bike_id": "96dca8219ddc8830599821e004a32b40", "fusion_lon": 0.0}, {"rental_uris": {"ios": "https://dc.lft.to/lastmile_qr_scan", "android": "https://dc.lft.to/lastmile_qr_scan"}, "type": "electric_scooter", "name": "ff12563a44af57f06c3cb8e498fee3f8", "is_reserved": 0, "lon": -77.0253595, "is_disabled": 0, "fusion_lat": 0.0, "lat": 38.9453615, "bike_id": "ff12563a44af57f06c3cb8e498fee3f8", "fusion_lon": 0.0}, {"rental_uris": {"ios": "https://dc.lft.to/lastmile_qr_scan", "android": "https://dc.lft.to/lastmile_qr_scan"}, "type": "electric_scooter", "name": "c4a70af7d9826412fc7cfc82ac02ca1c", "is_reserved": 0, "lon": -77.0384095, "is_disabled": 0, "fusion_lat": 0.0, "lat": 38.91660733333333, "bike_id": "c4a70af7d9826412fc7cfc82ac02ca1c", "fusion_lon": 0.0}, {"rental_uris": {"ios": "https://dc.lft.to/lastmile_qr_scan", "android": "https://dc.lft.to/lastmile_qr_scan"}, "type": "electric_scooter", "name": "bd2c73ac019e5f95a8fc897fe67f65ef", "is_reserved": 0, "lon": -77.03202116666667, "is_disabled": 0, "fusion_lat": 0.0, "lat": 38.918268166666664, "bike_id": "bd2c73ac019e5f95a8fc897fe67f65ef", "fusion_lon": 0.0}, {"rental_uris": {"ios": "https://dc.lft.to/lastmile_qr_scan", "android": "https://dc.lft.to/lastmile_qr_scan"}, "type": "electric_scooter", "name": "c6be57a4d44e7732e15106f33dd6623a", "is_reserved": 0, "lon": -77.04941483333333, "is_disabled": 0, "fusion_lat": 0.0, "lat": 38.909804666666666, "bike_id": "c6be57a4d44e7732e15106f33dd6623a", "fusion_lon": 0.0}, {"rental_uris": {"ios": "https://dc.lft.to/lastmile_qr_scan", "android": "https://dc.lft.to/lastmile_qr_scan"}, "type": "electric_scooter", "name": "3d08d6b52e285afb1c171bf6bf25e3d9", "is_reserved": 0, "lon": -77.03662916666667, "is_disabled": 0, "fusion_lat": 0.0, "lat": 38.932091666666665, "bike_id": "3d08d6b52e285afb1c171bf6bf25e3d9", "fusion_lon": 0.0}, {"rental_uris": {"ios": "https://dc.lft.to/lastmile_qr_scan", "android": "https://dc.lft.to/lastmile_qr_scan"}, "type": "electric_scooter", "name": "651e4842604d0b88b00d1a783160ea48", "is_reserved": 0, "lon": -76.93373733333334, "is_disabled": 0, "fusion_lat": 0.0, "lat": 38.89876266666667, "bike_id": "651e4842604d0b88b00d1a783160ea48", "fusion_lon": 0.0}, {"rental_uris": {"ios": "https://dc.lft.to/lastmile_qr_scan", "android": "https://dc.lft.to/lastmile_qr_scan"}, "type": "electric_scooter", "name": "2fe1c5272c9750a2cf58d2d58dd44d8e", "is_reserved": 0, "lon": -77.03176383333333, "is_disabled": 0, "fusion_lat": 0.0, "lat": 38.918213333333334, "bike_id": "2fe1c5272c9750a2cf58d2d58dd44d8e", "fusion_lon": 0.0}, {"rental_uris": {"ios": "https://dc.lft.to/lastmile_qr_scan", "android": "https://dc.lft.to/lastmile_qr_scan"}, "type": "electric_scooter", "name": "1a8e7ff5f6e4c2cf174ce652ccccba82", "is_reserved": 0, "lon": -76.98888983333333, "is_disabled": 0, "fusion_lat": 0.0, "lat": 38.9065515, "bike_id": "1a8e7ff5f6e4c2cf174ce652ccccba82", "fusion_lon": 0.0}, {"rental_uris": {"ios": "https://dc.lft.to/lastmile_qr_scan", "android": "https://dc.lft.to/lastmile_qr_scan"}, "type": "electric_bike", "name": "346e7176179f947cccf1ed84c7c182c0", "is_reserved": 0, "lon": -76.99439683333334, "is_disabled": 0, "fusion_lat": 0.0, "lat": 38.83109183333333, "bike_id": "346e7176179f947cccf1ed84c7c182c0", "fusion_lon": 0.0}, {"rental_uris": {"ios": "https://dc.lft.to/lastmile_qr_scan", "android": "https://dc.lft.to/lastmile_qr_scan"}, "type": "electric_scooter", "name": "e3a5887f2f8415ad35f8d07b270db846", "is_reserved": 0, "lon": -77.02055583333333, "is_disabled": 0, "fusion_lat": 0.0, "lat": 38.9292995, "bike_id": "e3a5887f2f8415ad35f8d07b270db846", "fusion_lon": 0.0}, {"rental_uris": {"ios": "https://dc.lft.to/lastmile_qr_scan", "android": "https://dc.lft.to/lastmile_qr_scan"}, "type": "electric_scooter", "name": "252f50599e90f7ee3a6a8507e3d37593", "is_reserved": 0, "lon": -77.02151166666667, "is_disabled": 0, "fusion_lat": 0.0, "lat": 38.88746483333333, "bike_id": "252f50599e90f7ee3a6a8507e3d37593", "fusion_lon": 0.0}, {"rental_uris": {"ios": "https://dc.lft.to/lastmile_qr_scan", "android": "https://dc.lft.to/lastmile_qr_scan"}, "type": "electric_scooter", "name": "2f2f09f9f62dfda887871c149ca3f5f0", "is_reserved": 0, "lon": -77.03664333333333, "is_disabled": 0, "fusion_lat": 0.0, "lat": 38.92123316666667, "bike_id": "2f2f09f9f62dfda887871c149ca3f5f0", "fusion_lon": 0.0}, {"rental_uris": {"ios": "https://dc.lft.to/lastmile_qr_scan", "android": "https://dc.lft.to/lastmile_qr_scan"}, "type": "electric_scooter", "name": "ae0b4241242acae3705acaf98477d309", "is_reserved": 0, "lon": -76.99557466666667, "is_disabled": 0, "fusion_lat": 0.0, "lat": 38.926815500000004, "bike_id": "ae0b4241242acae3705acaf98477d309", "fusion_lon": 0.0}, {"rental_uris": {"ios": "https://dc.lft.to/lastmile_qr_scan", "android": "https://dc.lft.to/lastmile_qr_scan"}, "type": "electric_scooter", "name": "03ff834a7cda2769d941bef4531df2e4", "is_reserved": 0, "lon": -77.04195083333333, "is_disabled": 0, "fusion_lat": 0.0, "lat": 38.92210016666667, "bike_id": "03ff834a7cda2769d941bef4531df2e4", "fusion_lon": 0.0}, {"rental_uris": {"ios": "https://dc.lft.to/lastmile_qr_scan", "android": "https://dc.lft.to/lastmile_qr_scan"}, "type": "electric_scooter", "name": "808b11129d45a8b13d211e9964709e10", "is_reserved": 0, "lon": -76.98731416666666, "is_disabled": 0, "fusion_lat": 0.0, "lat": 38.842231, "bike_id": "808b11129d45a8b13d211e9964709e10", "fusion_lon": 0.0}, {"rental_uris": {"ios": "https://dc.lft.to/lastmile_qr_scan", "android": "https://dc.lft.to/lastmile_qr_scan"}, "type": "electric_scooter", "name": "1d0e18d169a784b0b5850caf2e9f0a70", "is_reserved": 0, "lon": -76.9292465, "is_disabled": 0, "fusion_lat": 0.0, "lat": 38.886577833333334, "bike_id": "1d0e18d169a784b0b5850caf2e9f0a70", "fusion_lon": 0.0}, {"rental_uris": {"ios": "https://dc.lft.to/lastmile_qr_scan", "android": "https://dc.lft.to/lastmile_qr_scan"}, "type": "electric_scooter", "name": "ebb1f3a2f66b6cbac695bbee4a0bda7e", "is_reserved": 0, "lon": -77.055195, "is_disabled": 0, "fusion_lat": 0.0, "lat": 38.90772666666667, "bike_id": "ebb1f3a2f66b6cbac695bbee4a0bda7e", "fusion_lon": 0.0}, {"rental_uris": {"ios": "https://dc.lft.to/lastmile_qr_scan", "android": "https://dc.lft.to/lastmile_qr_scan"}, "type": "electric_scooter", "name": "571fd0f826f95be16379c2ab0f2d028e", "is_reserved": 0, "lon": -77.01986683333334, "is_disabled": 0, "fusion_lat": 0.0, "lat": 38.930783, "bike_id": "571fd0f826f95be16379c2ab0f2d028e", "fusion_lon": 0.0}, {"rental_uris": {"ios": "https://dc.lft.to/lastmile_qr_scan", "android": "https://dc.lft.to/lastmile_qr_scan"}, "type": "electric_scooter", "name": "f9b4c141c64dc6795a56f1077185946f", "is_reserved": 0, "lon": -77.043343, "is_disabled": 0, "fusion_lat": 0.0, "lat": 38.922384, "bike_id": "f9b4c141c64dc6795a56f1077185946f", "fusion_lon": 0.0}, {"rental_uris": {"ios": "https://dc.lft.to/lastmile_qr_scan", "android": "https://dc.lft.to/lastmile_qr_scan"}, "type": "electric_scooter", "name": "03df7a28e0c749121573590bc1f8b88e", "is_reserved": 0, "lon": -77.07089883333333, "is_disabled": 0, "fusion_lat": 0.0, "lat": 38.953214333333335, "bike_id": "03df7a28e0c749121573590bc1f8b88e", "fusion_lon": 0.0}, {"rental_uris": {"ios": "https://dc.lft.to/lastmile_qr_scan", "android": "https://dc.lft.to/lastmile_qr_scan"}, "type": "electric_scooter", "name": "bfada50026be2d80ddb2e24994f0583b", "is_reserved": 0, "lon": -77.0467565, "is_disabled": 0, "fusion_lat": 0.0, "lat": 38.8922415, "bike_id": "bfada50026be2d80ddb2e24994f0583b", "fusion_lon": 0.0}, {"rental_uris": {"ios": "https://dc.lft.to/lastmile_qr_scan", "android": "https://dc.lft.to/lastmile_qr_scan"}, "type": "electric_scooter", "name": "94bf6d632bc576fa1e6ace5ff71a24ea", "is_reserved": 0, "lon": -77.02441, "is_disabled": 0, "fusion_lat": 0.0, "lat": 38.95639333333333, "bike_id": "94bf6d632bc576fa1e6ace5ff71a24ea", "fusion_lon": 0.0}, {"rental_uris": {"ios": "https://dc.lft.to/lastmile_qr_scan", "android": "https://dc.lft.to/lastmile_qr_scan"}, "type": "electric_scooter", "name": "760dc5c7e400560e29966dcf1393919d", "is_reserved": 0, "lon": -77.036527, "is_disabled": 0, "fusion_lat": 0.0, "lat": 38.954635333333336, "bike_id": "760dc5c7e400560e29966dcf1393919d", "fusion_lon": 0.0}, {"rental_uris": {"ios": "https://dc.lft.to/lastmile_qr_scan", "android": "https://dc.lft.to/lastmile_qr_scan"}, "type": "electric_scooter", "name": "1aa91883fde0cf7e4c6f59e160339b6f", "is_reserved": 0, "lon": -77.01984583333333, "is_disabled": 0, "fusion_lat": 0.0, "lat": 38.87610033333333, "bike_id": "1aa91883fde0cf7e4c6f59e160339b6f", "fusion_lon": 0.0}, {"rental_uris": {"ios": "https://dc.lft.to/lastmile_qr_scan", "android": "https://dc.lft.to/lastmile_qr_scan"}, "type": "electric_scooter", "name": "e52bdc9790b6e4895162e871d3c505bd", "is_reserved": 0, "lon": -76.97133116666667, "is_disabled": 0, "fusion_lat": 0.0, "lat": 38.87865333333333, "bike_id": "e52bdc9790b6e4895162e871d3c505bd", "fusion_lon": 0.0}, {"rental_uris": {"ios": "https://dc.lft.to/lastmile_qr_scan", "android": "https://dc.lft.to/lastmile_qr_scan"}, "type": "electric_scooter", "name": "14f2a58ba49ce7b4a84a7644150a1c79", "is_reserved": 0, "lon": -77.00529716666667, "is_disabled": 0, "fusion_lat": 0.0, "lat": 38.87940433333333, "bike_id": "14f2a58ba49ce7b4a84a7644150a1c79", "fusion_lon": 0.0}, {"rental_uris": {"ios": "https://dc.lft.to/lastmile_qr_scan", "android": "https://dc.lft.to/lastmile_qr_scan"}, "type": "electric_scooter", "name": "88a48a5354f342566d493794a3c60368", "is_reserved": 0, "lon": -76.9995685, "is_disabled": 0, "fusion_lat": 0.0, "lat": 38.90857033333333, "bike_id": "88a48a5354f342566d493794a3c60368", "fusion_lon": 0.0}, {"rental_uris": {"ios": "https://dc.lft.to/lastmile_qr_scan", "android": "https://dc.lft.to/lastmile_qr_scan"}, "type": "electric_scooter", "name": "271bace306f639077187de50775b3752", "is_reserved": 0, "lon": -77.0364185, "is_disabled": 0, "fusion_lat": 0.0, "lat": 38.91654466666667, "bike_id": "271bace306f639077187de50775b3752", "fusion_lon": 0.0}, {"rental_uris": {"ios": "https://dc.lft.to/lastmile_qr_scan", "android": "https://dc.lft.to/lastmile_qr_scan"}, "type": "electric_scooter", "name": "32e41342d43de39cc89083431b467071", "is_reserved": 0, "lon": -76.96525883333334, "is_disabled": 0, "fusion_lat": 0.0, "lat": 38.8763185, "bike_id": "32e41342d43de39cc89083431b467071", "fusion_lon": 0.0}, {"rental_uris": {"ios": "https://dc.lft.to/lastmile_qr_scan", "android": "https://dc.lft.to/lastmile_qr_scan"}, "type": "electric_bike", "name": "8b5651c6cf994761212cd7a94bd272fb", "is_reserved": 0, "lon": -76.97314266666666, "is_disabled": 0, "fusion_lat": 0.0, "lat": 38.91760516666667, "bike_id": "8b5651c6cf994761212cd7a94bd272fb", "fusion_lon": 0.0}, {"rental_uris": {"ios": "https://dc.lft.to/lastmile_qr_scan", "android": "https://dc.lft.to/lastmile_qr_scan"}, "type": "electric_scooter", "name": "9b0ecba483e68d27ad5b5e1b691f7779", "is_reserved": 0, "lon": -76.99255216666667, "is_disabled": 0, "fusion_lat": 0.0, "lat": 38.94071983333333, "bike_id": "9b0ecba483e68d27ad5b5e1b691f7779", "fusion_lon": 0.0}, {"rental_uris": {"ios": "https://dc.lft.to/lastmile_qr_scan", "android": "https://dc.lft.to/lastmile_qr_scan"}, "type": "electric_scooter", "name": "1027e2532764edab789877a704be8015", "is_reserved": 0, "lon": -77.04886783333333, "is_disabled": 0, "fusion_lat": 0.0, "lat": 38.9072375, "bike_id": "1027e2532764edab789877a704be8015", "fusion_lon": 0.0}, {"rental_uris": {"ios": "https://dc.lft.to/lastmile_qr_scan", "android": "https://dc.lft.to/lastmile_qr_scan"}, "type": "electric_scooter", "name": "8990b3f4ef3c225eed9dfe12ea84c744", "is_reserved": 0, "lon": -77.02562616666667, "is_disabled": 0, "fusion_lat": 0.0, "lat": 38.95397616666666, "bike_id": "8990b3f4ef3c225eed9dfe12ea84c744", "fusion_lon": 0.0}, {"rental_uris": {"ios": "https://dc.lft.to/lastmile_qr_scan", "android": "https://dc.lft.to/lastmile_qr_scan"}, "type": "electric_bike", "name": "045e7e7d4778cf21119ca789e1b57270", "is_reserved": 0, "lon": -77.07752816666667, "is_disabled": 0, "fusion_lat": 0.0, "lat": 38.841973333333335, "bike_id": "045e7e7d4778cf21119ca789e1b57270", "fusion_lon": 0.0}, {"rental_uris": {"ios": "https://dc.lft.to/lastmile_qr_scan", "android": "https://dc.lft.to/lastmile_qr_scan"}, "type": "electric_scooter", "name": "f6606c1150e59a9c5ecfbf820846a2fb", "is_reserved": 0, "lon": -77.00097, "is_disabled": 0, "fusion_lat": 0.0, "lat": 38.919585833333336, "bike_id": "f6606c1150e59a9c5ecfbf820846a2fb", "fusion_lon": 0.0}, {"rental_uris": {"ios": "https://dc.lft.to/lastmile_qr_scan", "android": "https://dc.lft.to/lastmile_qr_scan"}, "type": "electric_bike", "name": "405ade3c763d2195eb436f0ddf2e3c49", "is_reserved": 0, "lon": -76.96089483333333, "is_disabled": 0, "fusion_lat": 0.0, "lat": 38.91866616666667, "bike_id": "405ade3c763d2195eb436f0ddf2e3c49", "fusion_lon": 0.0}, {"rental_uris": {"ios": "https://dc.lft.to/lastmile_qr_scan", "android": "https://dc.lft.to/lastmile_qr_scan"}, "type": "electric_scooter", "name": "628ef9b5d8950938adc699bd4b78d1bb", "is_reserved": 0, "lon": -77.0347065, "is_disabled": 0, "fusion_lat": 0.0, "lat": 38.908064833333334, "bike_id": "628ef9b5d8950938adc699bd4b78d1bb", "fusion_lon": 0.0}, {"rental_uris": {"ios": "https://dc.lft.to/lastmile_qr_scan", "android": "https://dc.lft.to/lastmile_qr_scan"}, "type": "electric_scooter", "name": "67aa85540ec6753552993ad3ac728988", "is_reserved": 0, "lon": -77.04441183333333, "is_disabled": 0, "fusion_lat": 0.0, "lat": 38.9012985, "bike_id": "67aa85540ec6753552993ad3ac728988", "fusion_lon": 0.0}, {"rental_uris": {"ios": "https://dc.lft.to/lastmile_qr_scan", "android": "https://dc.lft.to/lastmile_qr_scan"}, "type": "electric_scooter", "name": "5bd07c98fc980406149cc7303d7d19fc", "is_reserved": 0, "lon": -76.94898116666667, "is_disabled": 0, "fusion_lat": 0.0, "lat": 38.89525183333333, "bike_id": "5bd07c98fc980406149cc7303d7d19fc", "fusion_lon": 0.0}, {"rental_uris": {"ios": "https://dc.lft.to/lastmile_qr_scan", "android": "https://dc.lft.to/lastmile_qr_scan"}, "type": "electric_scooter", "name": "94219fc00f3b59485b622756c142e83a", "is_reserved": 0, "lon": -77.04668683333334, "is_disabled": 0, "fusion_lat": 0.0, "lat": 38.892837666666665, "bike_id": "94219fc00f3b59485b622756c142e83a", "fusion_lon": 0.0}, {"rental_uris": {"ios": "https://dc.lft.to/lastmile_qr_scan", "android": "https://dc.lft.to/lastmile_qr_scan"}, "type": "electric_scooter", "name": "05b1cba69cafb160ddbaea5ef04dc039", "is_reserved": 0, "lon": -77.06608933333334, "is_disabled": 0, "fusion_lat": 0.0, "lat": 38.91116916666667, "bike_id": "05b1cba69cafb160ddbaea5ef04dc039", "fusion_lon": 0.0}, {"rental_uris": {"ios": "https://dc.lft.to/lastmile_qr_scan", "android": "https://dc.lft.to/lastmile_qr_scan"}, "type": "electric_scooter", "name": "d63eac41ac3fbc9e9f09eba5faca40df", "is_reserved": 0, "lon": -77.047585, "is_disabled": 0, "fusion_lat": 0.0, "lat": 38.8959055, "bike_id": "d63eac41ac3fbc9e9f09eba5faca40df", "fusion_lon": 0.0}, {"rental_uris": {"ios": "https://dc.lft.to/lastmile_qr_scan", "android": "https://dc.lft.to/lastmile_qr_scan"}, "type": "electric_scooter", "name": "090067f61d4e28454762cef065053d16", "is_reserved": 0, "lon": -77.04602466666667, "is_disabled": 0, "fusion_lat": 0.0, "lat": 38.9234645, "bike_id": "090067f61d4e28454762cef065053d16", "fusion_lon": 0.0}, {"rental_uris": {"ios": "https://dc.lft.to/lastmile_qr_scan", "android": "https://dc.lft.to/lastmile_qr_scan"}, "type": "electric_scooter", "name": "b13321312d4aed0a9d1a0a076268a0d4", "is_reserved": 0, "lon": -77.04179683333334, "is_disabled": 0, "fusion_lat": 0.0, "lat": 38.91105816666666, "bike_id": "b13321312d4aed0a9d1a0a076268a0d4", "fusion_lon": 0.0}, {"rental_uris": {"ios": "https://dc.lft.to/lastmile_qr_scan", "android": "https://dc.lft.to/lastmile_qr_scan"}, "type": "electric_scooter", "name": "5ed8bd9932ed1b13c00e287f9977612c", "is_reserved": 0, "lon": -77.0684035, "is_disabled": 0, "fusion_lat": 0.0, "lat": 38.952761, "bike_id": "5ed8bd9932ed1b13c00e287f9977612c", "fusion_lon": 0.0}, {"rental_uris": {"ios": "https://dc.lft.to/lastmile_qr_scan", "android": "https://dc.lft.to/lastmile_qr_scan"}, "type": "electric_scooter", "name": "0f69c90848fdf7a5efe40a292f4c7bb0", "is_reserved": 0, "lon": -77.01749, "is_disabled": 0, "fusion_lat": 0.0, "lat": 38.91418433333333, "bike_id": "0f69c90848fdf7a5efe40a292f4c7bb0", "fusion_lon": 0.0}, {"rental_uris": {"ios": "https://dc.lft.to/lastmile_qr_scan", "android": "https://dc.lft.to/lastmile_qr_scan"}, "type": "electric_bike", "name": "9465e844090808237ed08a482ae962e9", "is_reserved": 0, "lon": -76.99918716666667, "is_disabled": 0, "fusion_lat": 0.0, "lat": 38.99469766666667, "bike_id": "9465e844090808237ed08a482ae962e9", "fusion_lon": 0.0}, {"rental_uris": {"ios": "https://dc.lft.to/lastmile_qr_scan", "android": "https://dc.lft.to/lastmile_qr_scan"}, "type": "electric_scooter", "name": "bcb05457a2131ffad2a8501dd7337fca", "is_reserved": 0, "lon": -76.99487616666667, "is_disabled": 0, "fusion_lat": 0.0, "lat": 38.89977966666667, "bike_id": "bcb05457a2131ffad2a8501dd7337fca", "fusion_lon": 0.0}, {"rental_uris": {"ios": "https://dc.lft.to/lastmile_qr_scan", "android": "https://dc.lft.to/lastmile_qr_scan"}, "type": "electric_scooter", "name": "34dd83cbab6d799c64e4dea64610a7e7", "is_reserved": 0, "lon": -77.03272383333334, "is_disabled": 0, "fusion_lat": 0.0, "lat": 38.904598166666666, "bike_id": "34dd83cbab6d799c64e4dea64610a7e7", "fusion_lon": 0.0}, {"rental_uris": {"ios": "https://dc.lft.to/lastmile_qr_scan", "android": "https://dc.lft.to/lastmile_qr_scan"}, "type": "electric_scooter", "name": "b43bafd4e13cd81d4fc74d07cc9128b6", "is_reserved": 0, "lon": -77.05925233333333, "is_disabled": 0, "fusion_lat": 0.0, "lat": 38.9027795, "bike_id": "b43bafd4e13cd81d4fc74d07cc9128b6", "fusion_lon": 0.0}, {"rental_uris": {"ios": "https://dc.lft.to/lastmile_qr_scan", "android": "https://dc.lft.to/lastmile_qr_scan"}, "type": "electric_scooter", "name": "a24892d194d47060f25d1f02af5eedf2", "is_reserved": 0, "lon": -77.025042, "is_disabled": 0, "fusion_lat": 0.0, "lat": 38.935489, "bike_id": "a24892d194d47060f25d1f02af5eedf2", "fusion_lon": 0.0}, {"rental_uris": {"ios": "https://dc.lft.to/lastmile_qr_scan", "android": "https://dc.lft.to/lastmile_qr_scan"}, "type": "electric_scooter", "name": "083c0d6cfae2538af318d74bbf9a08ed", "is_reserved": 0, "lon": -77.05153583333333, "is_disabled": 0, "fusion_lat": 0.0, "lat": 38.906461166666666, "bike_id": "083c0d6cfae2538af318d74bbf9a08ed", "fusion_lon": 0.0}, {"rental_uris": {"ios": "https://dc.lft.to/lastmile_qr_scan", "android": "https://dc.lft.to/lastmile_qr_scan"}, "type": "electric_scooter", "name": "5a3d54a5fd458283cda5a2ee625a397f", "is_reserved": 0, "lon": -77.06630883333334, "is_disabled": 0, "fusion_lat": 0.0, "lat": 38.905235166666664, "bike_id": "5a3d54a5fd458283cda5a2ee625a397f", "fusion_lon": 0.0}, {"rental_uris": {"ios": "https://dc.lft.to/lastmile_qr_scan", "android": "https://dc.lft.to/lastmile_qr_scan"}, "type": "electric_scooter", "name": "c1571b02b856a9bc6339160ba0fd5c9b", "is_reserved": 0, "lon": -77.03416033333333, "is_disabled": 0, "fusion_lat": 0.0, "lat": 38.921962, "bike_id": "c1571b02b856a9bc6339160ba0fd5c9b", "fusion_lon": 0.0}, {"rental_uris": {"ios": "https://dc.lft.to/lastmile_qr_scan", "android": "https://dc.lft.to/lastmile_qr_scan"}, "type": "electric_bike", "name": "8b72433becf0714eaf9c150089a93e45", "is_reserved": 0, "lon": -77.12655283333334, "is_disabled": 0, "fusion_lat": 0.0, "lat": 38.819138, "bike_id": "8b72433becf0714eaf9c150089a93e45", "fusion_lon": 0.0}, {"rental_uris": {"ios": "https://dc.lft.to/lastmile_qr_scan", "android": "https://dc.lft.to/lastmile_qr_scan"}, "type": "electric_scooter", "name": "079d75a2da6caef4432f83aed1c8d281", "is_reserved": 0, "lon": -77.00551416666667, "is_disabled": 0, "fusion_lat": 0.0, "lat": 38.87644983333333, "bike_id": "079d75a2da6caef4432f83aed1c8d281", "fusion_lon": 0.0}, {"rental_uris": {"ios": "https://dc.lft.to/lastmile_qr_scan", "android": "https://dc.lft.to/lastmile_qr_scan"}, "type": "electric_scooter", "name": "537b44399600115fd0ae5d12d58717cc", "is_reserved": 0, "lon": -76.98508133333333, "is_disabled": 0, "fusion_lat": 0.0, "lat": 38.880064, "bike_id": "537b44399600115fd0ae5d12d58717cc", "fusion_lon": 0.0}, {"rental_uris": {"ios": "https://dc.lft.to/lastmile_qr_scan", "android": "https://dc.lft.to/lastmile_qr_scan"}, "type": "electric_bike", "name": "e411142dce0395a69e311055c46f6268", "is_reserved": 0, "lon": -77.08524433333334, "is_disabled": 0, "fusion_lat": 0.0, "lat": 38.8565265, "bike_id": "e411142dce0395a69e311055c46f6268", "fusion_lon": 0.0}, {"rental_uris": {"ios": "https://dc.lft.to/lastmile_qr_scan", "android": "https://dc.lft.to/lastmile_qr_scan"}, "type": "electric_scooter", "name": "cb52a1eb9460c60530d00375f26cd14d", "is_reserved": 0, "lon": -76.98355683333334, "is_disabled": 0, "fusion_lat": 0.0, "lat": 38.88742383333334, "bike_id": "cb52a1eb9460c60530d00375f26cd14d", "fusion_lon": 0.0}, {"rental_uris": {"ios": "https://dc.lft.to/lastmile_qr_scan", "android": "https://dc.lft.to/lastmile_qr_scan"}, "type": "electric_scooter", "name": "7f4ea67392994934c38b8256440e02cb", "is_reserved": 0, "lon": -77.00757666666667, "is_disabled": 0, "fusion_lat": 0.0, "lat": 38.92529233333333, "bike_id": "7f4ea67392994934c38b8256440e02cb", "fusion_lon": 0.0}, {"rental_uris": {"ios": "https://dc.lft.to/lastmile_qr_scan", "android": "https://dc.lft.to/lastmile_qr_scan"}, "type": "electric_bike", "name": "ca1da08f90df8ea8b83e69b5746dc175", "is_reserved": 0, "lon": -77.1269875, "is_disabled": 0, "fusion_lat": 0.0, "lat": 38.895726333333336, "bike_id": "ca1da08f90df8ea8b83e69b5746dc175", "fusion_lon": 0.0}, {"rental_uris": {"ios": "https://dc.lft.to/lastmile_qr_scan", "android": "https://dc.lft.to/lastmile_qr_scan"}, "type": "electric_scooter", "name": "a052cfd1599ad151a604486b8980ce8d", "is_reserved": 0, "lon": -77.0266715, "is_disabled": 0, "fusion_lat": 0.0, "lat": 38.884904666666664, "bike_id": "a052cfd1599ad151a604486b8980ce8d", "fusion_lon": 0.0}, {"rental_uris": {"ios": "https://dc.lft.to/lastmile_qr_scan", "android": "https://dc.lft.to/lastmile_qr_scan"}, "type": "electric_scooter", "name": "6a05af747cec6ea33cd7a048f7cebdf1", "is_reserved": 0, "lon": -77.026093, "is_disabled": 0, "fusion_lat": 0.0, "lat": 38.916993833333336, "bike_id": "6a05af747cec6ea33cd7a048f7cebdf1", "fusion_lon": 0.0}, {"rental_uris": {"ios": "https://dc.lft.to/lastmile_qr_scan", "android": "https://dc.lft.to/lastmile_qr_scan"}, "type": "electric_scooter", "name": "0f130b91b4a1a8aea3d64df5da81fd07", "is_reserved": 0, "lon": -77.0106095, "is_disabled": 0, "fusion_lat": 0.0, "lat": 38.8741215, "bike_id": "0f130b91b4a1a8aea3d64df5da81fd07", "fusion_lon": 0.0}, {"rental_uris": {"ios": "https://dc.lft.to/lastmile_qr_scan", "android": "https://dc.lft.to/lastmile_qr_scan"}, "type": "electric_scooter", "name": "58c21e251f6151930b316b295ac1be06", "is_reserved": 0, "lon": -77.04619066666666, "is_disabled": 0, "fusion_lat": 0.0, "lat": 38.905778, "bike_id": "58c21e251f6151930b316b295ac1be06", "fusion_lon": 0.0}, {"rental_uris": {"ios": "https://dc.lft.to/lastmile_qr_scan", "android": "https://dc.lft.to/lastmile_qr_scan"}, "type": "electric_scooter", "name": "15a77196f05ef91c9cef2e0f6bb4a20d", "is_reserved": 0, "lon": -77.02560283333334, "is_disabled": 0, "fusion_lat": 0.0, "lat": 38.93860566666667, "bike_id": "15a77196f05ef91c9cef2e0f6bb4a20d", "fusion_lon": 0.0}, {"rental_uris": {"ios": "https://dc.lft.to/lastmile_qr_scan", "android": "https://dc.lft.to/lastmile_qr_scan"}, "type": "electric_bike", "name": "66e1c9bfaff48a0338bd9ab4cdd439cd", "is_reserved": 0, "lon": -76.9570215, "is_disabled": 0, "fusion_lat": 0.0, "lat": 38.850955, "bike_id": "66e1c9bfaff48a0338bd9ab4cdd439cd", "fusion_lon": 0.0}, {"rental_uris": {"ios": "https://dc.lft.to/lastmile_qr_scan", "android": "https://dc.lft.to/lastmile_qr_scan"}, "type": "electric_bike", "name": "9129fdcd329a5465fc0dbb1ac79ff983", "is_reserved": 0, "lon": -77.09014766666667, "is_disabled": 0, "fusion_lat": 0.0, "lat": 38.9265285, "bike_id": "9129fdcd329a5465fc0dbb1ac79ff983", "fusion_lon": 0.0}, {"rental_uris": {"ios": "https://dc.lft.to/lastmile_qr_scan", "android": "https://dc.lft.to/lastmile_qr_scan"}, "type": "electric_scooter", "name": "885163aa3ebd48b844189a0c907a1b97", "is_reserved": 0, "lon": -76.95739816666666, "is_disabled": 0, "fusion_lat": 0.0, "lat": 38.883935, "bike_id": "885163aa3ebd48b844189a0c907a1b97", "fusion_lon": 0.0}, {"rental_uris": {"ios": "https://dc.lft.to/lastmile_qr_scan", "android": "https://dc.lft.to/lastmile_qr_scan"}, "type": "electric_scooter", "name": "290a44a430f348fa29e721ae47cb9e67", "is_reserved": 0, "lon": -77.0241975, "is_disabled": 0, "fusion_lat": 0.0, "lat": 38.90571633333333, "bike_id": "290a44a430f348fa29e721ae47cb9e67", "fusion_lon": 0.0}, {"rental_uris": {"ios": "https://dc.lft.to/lastmile_qr_scan", "android": "https://dc.lft.to/lastmile_qr_scan"}, "type": "electric_scooter", "name": "a5e2dc8c2abfe9be4f8e014c4e59f5fa", "is_reserved": 0, "lon": -77.041214, "is_disabled": 0, "fusion_lat": 0.0, "lat": 38.931045833333336, "bike_id": "a5e2dc8c2abfe9be4f8e014c4e59f5fa", "fusion_lon": 0.0}, {"rental_uris": {"ios": "https://dc.lft.to/lastmile_qr_scan", "android": "https://dc.lft.to/lastmile_qr_scan"}, "type": "electric_bike", "name": "2287f23d706d40bd6884dd429e2eac69", "is_reserved": 0, "lon": -77.00008283333334, "is_disabled": 0, "fusion_lat": 0.0, "lat": 38.923978, "bike_id": "2287f23d706d40bd6884dd429e2eac69", "fusion_lon": 0.0}, {"rental_uris": {"ios": "https://dc.lft.to/lastmile_qr_scan", "android": "https://dc.lft.to/lastmile_qr_scan"}, "type": "electric_scooter", "name": "161794f11b3ee536ec0ac07e8954907c", "is_reserved": 0, "lon": -77.023549, "is_disabled": 0, "fusion_lat": 0.0, "lat": 38.9452635, "bike_id": "161794f11b3ee536ec0ac07e8954907c", "fusion_lon": 0.0}, {"rental_uris": {"ios": "https://dc.lft.to/lastmile_qr_scan", "android": "https://dc.lft.to/lastmile_qr_scan"}, "type": "electric_scooter", "name": "01cdbbd57a16e0609a487c52919ba9c9", "is_reserved": 0, "lon": -77.04506833333333, "is_disabled": 0, "fusion_lat": 0.0, "lat": 38.89228266666667, "bike_id": "01cdbbd57a16e0609a487c52919ba9c9", "fusion_lon": 0.0}, {"rental_uris": {"ios": "https://dc.lft.to/lastmile_qr_scan", "android": "https://dc.lft.to/lastmile_qr_scan"}, "type": "electric_bike", "name": "e0b0cabf07036e8ad1e14ce5b9ca89f1", "is_reserved": 0, "lon": -77.01229316666667, "is_disabled": 0, "fusion_lat": 0.0, "lat": 38.95088716666667, "bike_id": "e0b0cabf07036e8ad1e14ce5b9ca89f1", "fusion_lon": 0.0}, {"rental_uris": {"ios": "https://dc.lft.to/lastmile_qr_scan", "android": "https://dc.lft.to/lastmile_qr_scan"}, "type": "electric_scooter", "name": "541fbb046032e0b5fe28d9490814023d", "is_reserved": 0, "lon": -77.02283433333334, "is_disabled": 0, "fusion_lat": 0.0, "lat": 38.909621333333334, "bike_id": "541fbb046032e0b5fe28d9490814023d", "fusion_lon": 0.0}, {"rental_uris": {"ios": "https://dc.lft.to/lastmile_qr_scan", "android": "https://dc.lft.to/lastmile_qr_scan"}, "type": "electric_scooter", "name": "2d565e23be5edc39e6d9040ee643df2e", "is_reserved": 0, "lon": -77.03025683333334, "is_disabled": 0, "fusion_lat": 0.0, "lat": 38.922463666666665, "bike_id": "2d565e23be5edc39e6d9040ee643df2e", "fusion_lon": 0.0}, {"rental_uris": {"ios": "https://dc.lft.to/lastmile_qr_scan", "android": "https://dc.lft.to/lastmile_qr_scan"}, "type": "electric_scooter", "name": "8ce6d70630555d733367bc55a564d19d", "is_reserved": 0, "lon": -77.022201, "is_disabled": 0, "fusion_lat": 0.0, "lat": 38.89359016666667, "bike_id": "8ce6d70630555d733367bc55a564d19d", "fusion_lon": 0.0}, {"rental_uris": {"ios": "https://dc.lft.to/lastmile_qr_scan", "android": "https://dc.lft.to/lastmile_qr_scan"}, "type": "electric_scooter", "name": "cc50d65700ad03cb9763cb9a06548d29", "is_reserved": 0, "lon": -77.02713866666667, "is_disabled": 0, "fusion_lat": 0.0, "lat": 38.90602633333334, "bike_id": "cc50d65700ad03cb9763cb9a06548d29", "fusion_lon": 0.0}, {"rental_uris": {"ios": "https://dc.lft.to/lastmile_qr_scan", "android": "https://dc.lft.to/lastmile_qr_scan"}, "type": "electric_scooter", "name": "6948226c8be07f204e967a0977f1bbcb", "is_reserved": 0, "lon": -77.03868816666666, "is_disabled": 0, "fusion_lat": 0.0, "lat": 38.9215225, "bike_id": "6948226c8be07f204e967a0977f1bbcb", "fusion_lon": 0.0}, {"rental_uris": {"ios": "https://dc.lft.to/lastmile_qr_scan", "android": "https://dc.lft.to/lastmile_qr_scan"}, "type": "electric_scooter", "name": "4080a863b38b7bdfb6648da5c0e79c60", "is_reserved": 0, "lon": -76.99872433333333, "is_disabled": 0, "fusion_lat": 0.0, "lat": 38.90034883333333, "bike_id": "4080a863b38b7bdfb6648da5c0e79c60", "fusion_lon": 0.0}, {"rental_uris": {"ios": "https://dc.lft.to/lastmile_qr_scan", "android": "https://dc.lft.to/lastmile_qr_scan"}, "type": "electric_scooter", "name": "46614d4a0eee0f7e10b60ca842807cc1", "is_reserved": 0, "lon": -77.03191666666666, "is_disabled": 0, "fusion_lat": 0.0, "lat": 38.899645166666666, "bike_id": "46614d4a0eee0f7e10b60ca842807cc1", "fusion_lon": 0.0}, {"rental_uris": {"ios": "https://dc.lft.to/lastmile_qr_scan", "android": "https://dc.lft.to/lastmile_qr_scan"}, "type": "electric_scooter", "name": "ab57c95a2323d6c653da222cf2e1af8f", "is_reserved": 0, "lon": -77.028293, "is_disabled": 0, "fusion_lat": 0.0, "lat": 38.90274466666666, "bike_id": "ab57c95a2323d6c653da222cf2e1af8f", "fusion_lon": 0.0}, {"rental_uris": {"ios": "https://dc.lft.to/lastmile_qr_scan", "android": "https://dc.lft.to/lastmile_qr_scan"}, "type": "electric_scooter", "name": "e07786589e016067ee88dc2280553567", "is_reserved": 0, "lon": -76.98581566666667, "is_disabled": 0, "fusion_lat": 0.0, "lat": 38.8544885, "bike_id": "e07786589e016067ee88dc2280553567", "fusion_lon": 0.0}, {"rental_uris": {"ios": "https://dc.lft.to/lastmile_qr_scan", "android": "https://dc.lft.to/lastmile_qr_scan"}, "type": "electric_scooter", "name": "25ebedb087a984f46d4d1d54fa436b18", "is_reserved": 0, "lon": -77.01782933333334, "is_disabled": 0, "fusion_lat": 0.0, "lat": 38.90258983333333, "bike_id": "25ebedb087a984f46d4d1d54fa436b18", "fusion_lon": 0.0}, {"rental_uris": {"ios": "https://dc.lft.to/lastmile_qr_scan", "android": "https://dc.lft.to/lastmile_qr_scan"}, "type": "electric_scooter", "name": "76866fb4a076f00b25cced9e808a6e61", "is_reserved": 0, "lon": -77.03862333333333, "is_disabled": 0, "fusion_lat": 0.0, "lat": 38.911796833333334, "bike_id": "76866fb4a076f00b25cced9e808a6e61", "fusion_lon": 0.0}, {"rental_uris": {"ios": "https://dc.lft.to/lastmile_qr_scan", "android": "https://dc.lft.to/lastmile_qr_scan"}, "type": "electric_scooter", "name": "153623b2541b5694930a8e842dce4f4d", "is_reserved": 0, "lon": -77.01294983333334, "is_disabled": 0, "fusion_lat": 0.0, "lat": 38.90185983333333, "bike_id": "153623b2541b5694930a8e842dce4f4d", "fusion_lon": 0.0}, {"rental_uris": {"ios": "https://dc.lft.to/lastmile_qr_scan", "android": "https://dc.lft.to/lastmile_qr_scan"}, "type": "electric_scooter", "name": "bc0153ca94aa52ee35fa52afe4e68614", "is_reserved": 0, "lon": -77.0303755, "is_disabled": 0, "fusion_lat": 0.0, "lat": 38.92672483333333, "bike_id": "bc0153ca94aa52ee35fa52afe4e68614", "fusion_lon": 0.0}, {"rental_uris": {"ios": "https://dc.lft.to/lastmile_qr_scan", "android": "https://dc.lft.to/lastmile_qr_scan"}, "type": "electric_scooter", "name": "a56a40289f2a3475d8b9e26fc1a32c6a", "is_reserved": 0, "lon": -76.99910316666667, "is_disabled": 0, "fusion_lat": 0.0, "lat": 38.93754, "bike_id": "a56a40289f2a3475d8b9e26fc1a32c6a", "fusion_lon": 0.0}, {"rental_uris": {"ios": "https://dc.lft.to/lastmile_qr_scan", "android": "https://dc.lft.to/lastmile_qr_scan"}, "type": "electric_bike", "name": "8957a9f400bd0b5550e846ce1a2b38b5", "is_reserved": 0, "lon": -76.98687783333334, "is_disabled": 0, "fusion_lat": 0.0, "lat": 38.94481116666667, "bike_id": "8957a9f400bd0b5550e846ce1a2b38b5", "fusion_lon": 0.0}, {"rental_uris": {"ios": "https://dc.lft.to/lastmile_qr_scan", "android": "https://dc.lft.to/lastmile_qr_scan"}, "type": "electric_scooter", "name": "c50dd86f078dd236c806d14ad92a19f3", "is_reserved": 0, "lon": -77.0240565, "is_disabled": 0, "fusion_lat": 0.0, "lat": 38.9338645, "bike_id": "c50dd86f078dd236c806d14ad92a19f3", "fusion_lon": 0.0}, {"rental_uris": {"ios": "https://dc.lft.to/lastmile_qr_scan", "android": "https://dc.lft.to/lastmile_qr_scan"}, "type": "electric_scooter", "name": "f8850e96e8949f85e36f50045cb984cf", "is_reserved": 0, "lon": -76.946511, "is_disabled": 0, "fusion_lat": 0.0, "lat": 38.898281, "bike_id": "f8850e96e8949f85e36f50045cb984cf", "fusion_lon": 0.0}, {"rental_uris": {"ios": "https://dc.lft.to/lastmile_qr_scan", "android": "https://dc.lft.to/lastmile_qr_scan"}, "type": "electric_scooter", "name": "84005c0d633560d855978aee89fee180", "is_reserved": 0, "lon": -77.04506, "is_disabled": 0, "fusion_lat": 0.0, "lat": 38.8922655, "bike_id": "84005c0d633560d855978aee89fee180", "fusion_lon": 0.0}, {"rental_uris": {"ios": "https://dc.lft.to/lastmile_qr_scan", "android": "https://dc.lft.to/lastmile_qr_scan"}, "type": "electric_bike", "name": "990828b8a9b3801bffeec1d94545574c", "is_reserved": 0, "lon": -77.01915616666666, "is_disabled": 0, "fusion_lat": 0.0, "lat": 38.976673166666664, "bike_id": "990828b8a9b3801bffeec1d94545574c", "fusion_lon": 0.0}, {"rental_uris": {"ios": "https://dc.lft.to/lastmile_qr_scan", "android": "https://dc.lft.to/lastmile_qr_scan"}, "type": "electric_scooter", "name": "38c4b6e3197c4feeca7213431a0f6a61", "is_reserved": 0, "lon": -76.99030483333334, "is_disabled": 0, "fusion_lat": 0.0, "lat": 38.888833166666664, "bike_id": "38c4b6e3197c4feeca7213431a0f6a61", "fusion_lon": 0.0}, {"rental_uris": {"ios": "https://dc.lft.to/lastmile_qr_scan", "android": "https://dc.lft.to/lastmile_qr_scan"}, "type": "electric_scooter", "name": "33aa0ebf0fb351bb3d71e1284a89cc0f", "is_reserved": 0, "lon": -77.0609145, "is_disabled": 0, "fusion_lat": 0.0, "lat": 38.9399485, "bike_id": "33aa0ebf0fb351bb3d71e1284a89cc0f", "fusion_lon": 0.0}, {"rental_uris": {"ios": "https://dc.lft.to/lastmile_qr_scan", "android": "https://dc.lft.to/lastmile_qr_scan"}, "type": "electric_bike", "name": "764a42a16d2dd46e943d7eb6926896ad", "is_reserved": 0, "lon": -77.07661033333333, "is_disabled": 0, "fusion_lat": 0.0, "lat": 38.80982183333333, "bike_id": "764a42a16d2dd46e943d7eb6926896ad", "fusion_lon": 0.0}, {"rental_uris": {"ios": "https://dc.lft.to/lastmile_qr_scan", "android": "https://dc.lft.to/lastmile_qr_scan"}, "type": "electric_scooter", "name": "05907e1aeea45cdf94cfa80833fbb6e1", "is_reserved": 0, "lon": -77.06032483333334, "is_disabled": 0, "fusion_lat": 0.0, "lat": 38.93878983333333, "bike_id": "05907e1aeea45cdf94cfa80833fbb6e1", "fusion_lon": 0.0}, {"rental_uris": {"ios": "https://dc.lft.to/lastmile_qr_scan", "android": "https://dc.lft.to/lastmile_qr_scan"}, "type": "electric_scooter", "name": "41196b6f1f5a9a4a4c6cf0078b845b40", "is_reserved": 0, "lon": -77.03266316666667, "is_disabled": 0, "fusion_lat": 0.0, "lat": 38.925494, "bike_id": "41196b6f1f5a9a4a4c6cf0078b845b40", "fusion_lon": 0.0}, {"rental_uris": {"ios": "https://dc.lft.to/lastmile_qr_scan", "android": "https://dc.lft.to/lastmile_qr_scan"}, "type": "electric_scooter", "name": "b48067386eb9f7adf68282533590b8af", "is_reserved": 0, "lon": -77.04666666666667, "is_disabled": 0, "fusion_lat": 0.0, "lat": 38.91253566666666, "bike_id": "b48067386eb9f7adf68282533590b8af", "fusion_lon": 0.0}, {"rental_uris": {"ios": "https://dc.lft.to/lastmile_qr_scan", "android": "https://dc.lft.to/lastmile_qr_scan"}, "type": "electric_bike", "name": "59f50aca2af8f60b2c47d488a847ea48", "is_reserved": 0, "lon": -77.02070833333333, "is_disabled": 0, "fusion_lat": 0.0, "lat": 38.964414833333336, "bike_id": "59f50aca2af8f60b2c47d488a847ea48", "fusion_lon": 0.0}, {"rental_uris": {"ios": "https://dc.lft.to/lastmile_qr_scan", "android": "https://dc.lft.to/lastmile_qr_scan"}, "type": "electric_scooter", "name": "eac59c814df4aac507c8fbbdb7e9ea0a", "is_reserved": 0, "lon": -77.02305166666666, "is_disabled": 0, "fusion_lat": 0.0, "lat": 38.91845466666667, "bike_id": "eac59c814df4aac507c8fbbdb7e9ea0a", "fusion_lon": 0.0}, {"rental_uris": {"ios": "https://dc.lft.to/lastmile_qr_scan", "android": "https://dc.lft.to/lastmile_qr_scan"}, "type": "electric_scooter", "name": "cdaf9395283a95e74687d7b66c8cb1c4", "is_reserved": 0, "lon": -77.02841816666667, "is_disabled": 0, "fusion_lat": 0.0, "lat": 38.91027733333333, "bike_id": "cdaf9395283a95e74687d7b66c8cb1c4", "fusion_lon": 0.0}, {"rental_uris": {"ios": "https://dc.lft.to/lastmile_qr_scan", "android": "https://dc.lft.to/lastmile_qr_scan"}, "type": "electric_scooter", "name": "2f85b9fdccba1e489bf9edf1b9dc17d2", "is_reserved": 0, "lon": -77.03276816666667, "is_disabled": 0, "fusion_lat": 0.0, "lat": 38.907228333333336, "bike_id": "2f85b9fdccba1e489bf9edf1b9dc17d2", "fusion_lon": 0.0}, {"rental_uris": {"ios": "https://dc.lft.to/lastmile_qr_scan", "android": "https://dc.lft.to/lastmile_qr_scan"}, "type": "electric_scooter", "name": "c321e9b2934835fd465d8cd0b200ad8c", "is_reserved": 0, "lon": -77.02349816666667, "is_disabled": 0, "fusion_lat": 0.0, "lat": 38.93137566666667, "bike_id": "c321e9b2934835fd465d8cd0b200ad8c", "fusion_lon": 0.0}, {"rental_uris": {"ios": "https://dc.lft.to/lastmile_qr_scan", "android": "https://dc.lft.to/lastmile_qr_scan"}, "type": "electric_scooter", "name": "6a56a154764626f90fcbb576f9101f3c", "is_reserved": 0, "lon": -77.04187633333333, "is_disabled": 0, "fusion_lat": 0.0, "lat": 38.903960833333336, "bike_id": "6a56a154764626f90fcbb576f9101f3c", "fusion_lon": 0.0}, {"rental_uris": {"ios": "https://dc.lft.to/lastmile_qr_scan", "android": "https://dc.lft.to/lastmile_qr_scan"}, "type": "electric_scooter", "name": "651d63796184b004088fbc7f63ec2575", "is_reserved": 0, "lon": -76.95851583333334, "is_disabled": 0, "fusion_lat": 0.0, "lat": 38.91856283333333, "bike_id": "651d63796184b004088fbc7f63ec2575", "fusion_lon": 0.0}, {"rental_uris": {"ios": "https://dc.lft.to/lastmile_qr_scan", "android": "https://dc.lft.to/lastmile_qr_scan"}, "type": "electric_bike", "name": "069d9e44ad8a8434439b9f4c4450e72c", "is_reserved": 0, "lon": -77.012348, "is_disabled": 0, "fusion_lat": 0.0, "lat": 38.95082433333334, "bike_id": "069d9e44ad8a8434439b9f4c4450e72c", "fusion_lon": 0.0}, {"rental_uris": {"ios": "https://dc.lft.to/lastmile_qr_scan", "android": "https://dc.lft.to/lastmile_qr_scan"}, "type": "electric_scooter", "name": "96a5d3bdad58545188eef5d6ebe6fa5c", "is_reserved": 0, "lon": -77.0386095, "is_disabled": 0, "fusion_lat": 0.0, "lat": 38.917169333333334, "bike_id": "96a5d3bdad58545188eef5d6ebe6fa5c", "fusion_lon": 0.0}, {"rental_uris": {"ios": "https://dc.lft.to/lastmile_qr_scan", "android": "https://dc.lft.to/lastmile_qr_scan"}, "type": "electric_scooter", "name": "9b8a9eaf8c1f8ab7f923a7f6674477f6", "is_reserved": 0, "lon": -77.02127783333333, "is_disabled": 0, "fusion_lat": 0.0, "lat": 38.9279965, "bike_id": "9b8a9eaf8c1f8ab7f923a7f6674477f6", "fusion_lon": 0.0}, {"rental_uris": {"ios": "https://dc.lft.to/lastmile_qr_scan", "android": "https://dc.lft.to/lastmile_qr_scan"}, "type": "electric_scooter", "name": "f1f7a666f8545c22eea65fce29bd5f5e", "is_reserved": 0, "lon": -77.03467416666666, "is_disabled": 0, "fusion_lat": 0.0, "lat": 38.9215545, "bike_id": "f1f7a666f8545c22eea65fce29bd5f5e", "fusion_lon": 0.0}, {"rental_uris": {"ios": "https://dc.lft.to/lastmile_qr_scan", "android": "https://dc.lft.to/lastmile_qr_scan"}, "type": "electric_scooter", "name": "b7c21a010f98abc62bb1cba53a05497a", "is_reserved": 0, "lon": -77.01757216666667, "is_disabled": 0, "fusion_lat": 0.0, "lat": 38.876908, "bike_id": "b7c21a010f98abc62bb1cba53a05497a", "fusion_lon": 0.0}, {"rental_uris": {"ios": "https://dc.lft.to/lastmile_qr_scan", "android": "https://dc.lft.to/lastmile_qr_scan"}, "type": "electric_scooter", "name": "16c154d3ea189ea61aca293db5647349", "is_reserved": 0, "lon": -77.0685, "is_disabled": 0, "fusion_lat": 0.0, "lat": 38.904174, "bike_id": "16c154d3ea189ea61aca293db5647349", "fusion_lon": 0.0}, {"rental_uris": {"ios": "https://dc.lft.to/lastmile_qr_scan", "android": "https://dc.lft.to/lastmile_qr_scan"}, "type": "electric_scooter", "name": "0ecf63f8d1dec3aafced56d802db5c9d", "is_reserved": 0, "lon": -76.93438, "is_disabled": 0, "fusion_lat": 0.0, "lat": 38.89349833333333, "bike_id": "0ecf63f8d1dec3aafced56d802db5c9d", "fusion_lon": 0.0}, {"rental_uris": {"ios": "https://dc.lft.to/lastmile_qr_scan", "android": "https://dc.lft.to/lastmile_qr_scan"}, "type": "electric_scooter", "name": "77505bca97e7ca7d003e139cfeee3051", "is_reserved": 0, "lon": -77.03385533333334, "is_disabled": 0, "fusion_lat": 0.0, "lat": 38.89930483333333, "bike_id": "77505bca97e7ca7d003e139cfeee3051", "fusion_lon": 0.0}, {"rental_uris": {"ios": "https://dc.lft.to/lastmile_qr_scan", "android": "https://dc.lft.to/lastmile_qr_scan"}, "type": "electric_scooter", "name": "1b8f37ccabe2be0d13809bc839ac2014", "is_reserved": 0, "lon": -77.02384816666667, "is_disabled": 0, "fusion_lat": 0.0, "lat": 38.908489, "bike_id": "1b8f37ccabe2be0d13809bc839ac2014", "fusion_lon": 0.0}, {"rental_uris": {"ios": "https://dc.lft.to/lastmile_qr_scan", "android": "https://dc.lft.to/lastmile_qr_scan"}, "type": "electric_scooter", "name": "05583e17dd5c2dcfa172e1dfb24d7713", "is_reserved": 0, "lon": -77.01089866666666, "is_disabled": 0, "fusion_lat": 0.0, "lat": 38.9033555, "bike_id": "05583e17dd5c2dcfa172e1dfb24d7713", "fusion_lon": 0.0}, {"rental_uris": {"ios": "https://dc.lft.to/lastmile_qr_scan", "android": "https://dc.lft.to/lastmile_qr_scan"}, "type": "electric_bike", "name": "a9caf21cefe5649ac2e1b369d8bff1b1", "is_reserved": 0, "lon": -77.08982516666667, "is_disabled": 0, "fusion_lat": 0.0, "lat": 38.91169766666667, "bike_id": "a9caf21cefe5649ac2e1b369d8bff1b1", "fusion_lon": 0.0}, {"rental_uris": {"ios": "https://dc.lft.to/lastmile_qr_scan", "android": "https://dc.lft.to/lastmile_qr_scan"}, "type": "electric_scooter", "name": "5248741e0571fd06cf78699c18777331", "is_reserved": 0, "lon": -77.04321933333334, "is_disabled": 0, "fusion_lat": 0.0, "lat": 38.91789683333333, "bike_id": "5248741e0571fd06cf78699c18777331", "fusion_lon": 0.0}, {"rental_uris": {"ios": "https://dc.lft.to/lastmile_qr_scan", "android": "https://dc.lft.to/lastmile_qr_scan"}, "type": "electric_scooter", "name": "06c4bea6afc32efd07c1f045b2431b8c", "is_reserved": 0, "lon": -77.01628533333333, "is_disabled": 0, "fusion_lat": 0.0, "lat": 38.903636, "bike_id": "06c4bea6afc32efd07c1f045b2431b8c", "fusion_lon": 0.0}, {"rental_uris": {"ios": "https://dc.lft.to/lastmile_qr_scan", "android": "https://dc.lft.to/lastmile_qr_scan"}, "type": "electric_scooter", "name": "ebb8ed0a8e4a7be2141b26ed7ed40412", "is_reserved": 0, "lon": -77.03871766666667, "is_disabled": 0, "fusion_lat": 0.0, "lat": 38.91564316666667, "bike_id": "ebb8ed0a8e4a7be2141b26ed7ed40412", "fusion_lon": 0.0}, {"rental_uris": {"ios": "https://dc.lft.to/lastmile_qr_scan", "android": "https://dc.lft.to/lastmile_qr_scan"}, "type": "electric_scooter", "name": "4349a51b80159ad53f7d80630c08789c", "is_reserved": 0, "lon": -77.02178483333333, "is_disabled": 0, "fusion_lat": 0.0, "lat": 38.917887, "bike_id": "4349a51b80159ad53f7d80630c08789c", "fusion_lon": 0.0}, {"rental_uris": {"ios": "https://dc.lft.to/lastmile_qr_scan", "android": "https://dc.lft.to/lastmile_qr_scan"}, "type": "electric_scooter", "name": "83ba968b8c04d8b1961558b6f343ed8d", "is_reserved": 0, "lon": -77.0060885, "is_disabled": 0, "fusion_lat": 0.0, "lat": 38.905811666666665, "bike_id": "83ba968b8c04d8b1961558b6f343ed8d", "fusion_lon": 0.0}, {"rental_uris": {"ios": "https://dc.lft.to/lastmile_qr_scan", "android": "https://dc.lft.to/lastmile_qr_scan"}, "type": "electric_scooter", "name": "e1c2f2f4f69ec87599bbf1b2285c857c", "is_reserved": 0, "lon": -77.03615116666667, "is_disabled": 0, "fusion_lat": 0.0, "lat": 38.903347333333336, "bike_id": "e1c2f2f4f69ec87599bbf1b2285c857c", "fusion_lon": 0.0}, {"rental_uris": {"ios": "https://dc.lft.to/lastmile_qr_scan", "android": "https://dc.lft.to/lastmile_qr_scan"}, "type": "electric_scooter", "name": "915b41f562c6db0975018fdb5eb73314", "is_reserved": 0, "lon": -77.03336383333334, "is_disabled": 0, "fusion_lat": 0.0, "lat": 38.91558533333333, "bike_id": "915b41f562c6db0975018fdb5eb73314", "fusion_lon": 0.0}, {"rental_uris": {"ios": "https://dc.lft.to/lastmile_qr_scan", "android": "https://dc.lft.to/lastmile_qr_scan"}, "type": "electric_scooter", "name": "558e1c55e91b6d8757dfd70d604d3499", "is_reserved": 0, "lon": -76.99957866666666, "is_disabled": 0, "fusion_lat": 0.0, "lat": 38.89201516666667, "bike_id": "558e1c55e91b6d8757dfd70d604d3499", "fusion_lon": 0.0}, {"rental_uris": {"ios": "https://dc.lft.to/lastmile_qr_scan", "android": "https://dc.lft.to/lastmile_qr_scan"}, "type": "electric_scooter", "name": "1a15ddb724ac6838d27f5a25b3a4311e", "is_reserved": 0, "lon": -77.02837866666667, "is_disabled": 0, "fusion_lat": 0.0, "lat": 38.93234916666667, "bike_id": "1a15ddb724ac6838d27f5a25b3a4311e", "fusion_lon": 0.0}, {"rental_uris": {"ios": "https://dc.lft.to/lastmile_qr_scan", "android": "https://dc.lft.to/lastmile_qr_scan"}, "type": "electric_scooter", "name": "11ac728a77a09506d8e799bb0bd59b8c", "is_reserved": 0, "lon": -77.072628, "is_disabled": 0, "fusion_lat": 0.0, "lat": 38.934444, "bike_id": "11ac728a77a09506d8e799bb0bd59b8c", "fusion_lon": 0.0}, {"rental_uris": {"ios": "https://dc.lft.to/lastmile_qr_scan", "android": "https://dc.lft.to/lastmile_qr_scan"}, "type": "electric_scooter", "name": "841b9ab8d6dbd574b430e6f2bace59e2", "is_reserved": 0, "lon": -76.937292, "is_disabled": 0, "fusion_lat": 0.0, "lat": 38.89036566666667, "bike_id": "841b9ab8d6dbd574b430e6f2bace59e2", "fusion_lon": 0.0}, {"rental_uris": {"ios": "https://dc.lft.to/lastmile_qr_scan", "android": "https://dc.lft.to/lastmile_qr_scan"}, "type": "electric_scooter", "name": "649a6cb8c0cde1fea49d85f4de59a0a8", "is_reserved": 0, "lon": -77.04369116666666, "is_disabled": 0, "fusion_lat": 0.0, "lat": 38.89222216666667, "bike_id": "649a6cb8c0cde1fea49d85f4de59a0a8", "fusion_lon": 0.0}, {"rental_uris": {"ios": "https://dc.lft.to/lastmile_qr_scan", "android": "https://dc.lft.to/lastmile_qr_scan"}, "type": "electric_scooter", "name": "08fa0f7491b21af14bed8d1cf17a4b0f", "is_reserved": 0, "lon": -77.02395683333333, "is_disabled": 0, "fusion_lat": 0.0, "lat": 38.9207865, "bike_id": "08fa0f7491b21af14bed8d1cf17a4b0f", "fusion_lon": 0.0}, {"rental_uris": {"ios": "https://dc.lft.to/lastmile_qr_scan", "android": "https://dc.lft.to/lastmile_qr_scan"}, "type": "electric_scooter", "name": "2888339f4659480ab1963a551c6370ca", "is_reserved": 0, "lon": -77.05063516666667, "is_disabled": 0, "fusion_lat": 0.0, "lat": 38.92362383333333, "bike_id": "2888339f4659480ab1963a551c6370ca", "fusion_lon": 0.0}, {"rental_uris": {"ios": "https://dc.lft.to/lastmile_qr_scan", "android": "https://dc.lft.to/lastmile_qr_scan"}, "type": "electric_scooter", "name": "42bf9d449fb81ad7727b77277cfaaae9", "is_reserved": 0, "lon": -77.07167466666667, "is_disabled": 0, "fusion_lat": 0.0, "lat": 38.907802, "bike_id": "42bf9d449fb81ad7727b77277cfaaae9", "fusion_lon": 0.0}, {"rental_uris": {"ios": "https://dc.lft.to/lastmile_qr_scan", "android": "https://dc.lft.to/lastmile_qr_scan"}, "type": "electric_scooter", "name": "5e4348521cb69feee501ca315562b0c8", "is_reserved": 0, "lon": -77.0177435, "is_disabled": 0, "fusion_lat": 0.0, "lat": 38.92043616666667, "bike_id": "5e4348521cb69feee501ca315562b0c8", "fusion_lon": 0.0}, {"rental_uris": {"ios": "https://dc.lft.to/lastmile_qr_scan", "android": "https://dc.lft.to/lastmile_qr_scan"}, "type": "electric_scooter", "name": "6669614482405428d02858822ce5d177", "is_reserved": 0, "lon": -77.0257855, "is_disabled": 0, "fusion_lat": 0.0, "lat": 38.88726783333333, "bike_id": "6669614482405428d02858822ce5d177", "fusion_lon": 0.0}, {"rental_uris": {"ios": "https://dc.lft.to/lastmile_qr_scan", "android": "https://dc.lft.to/lastmile_qr_scan"}, "type": "electric_scooter", "name": "2de685203a7314b8e8c8c69d3fc21947", "is_reserved": 0, "lon": -77.04121266666667, "is_disabled": 0, "fusion_lat": 0.0, "lat": 38.92883633333334, "bike_id": "2de685203a7314b8e8c8c69d3fc21947", "fusion_lon": 0.0}, {"rental_uris": {"ios": "https://dc.lft.to/lastmile_qr_scan", "android": "https://dc.lft.to/lastmile_qr_scan"}, "type": "electric_scooter", "name": "cd4e7ce2fd50b9c303febaa5fb4cbaa9", "is_reserved": 0, "lon": -77.05512716666667, "is_disabled": 0, "fusion_lat": 0.0, "lat": 38.92845766666667, "bike_id": "cd4e7ce2fd50b9c303febaa5fb4cbaa9", "fusion_lon": 0.0}, {"rental_uris": {"ios": "https://dc.lft.to/lastmile_qr_scan", "android": "https://dc.lft.to/lastmile_qr_scan"}, "type": "electric_scooter", "name": "bc9b9e187b3ba8e1950d057eab45113f", "is_reserved": 0, "lon": -77.00567033333333, "is_disabled": 0, "fusion_lat": 0.0, "lat": 38.9056045, "bike_id": "bc9b9e187b3ba8e1950d057eab45113f", "fusion_lon": 0.0}, {"rental_uris": {"ios": "https://dc.lft.to/lastmile_qr_scan", "android": "https://dc.lft.to/lastmile_qr_scan"}, "type": "electric_scooter", "name": "503bbd8ac0fc83088f02783cba006d5d", "is_reserved": 0, "lon": -77.02815166666667, "is_disabled": 0, "fusion_lat": 0.0, "lat": 38.89924766666667, "bike_id": "503bbd8ac0fc83088f02783cba006d5d", "fusion_lon": 0.0}, {"rental_uris": {"ios": "https://dc.lft.to/lastmile_qr_scan", "android": "https://dc.lft.to/lastmile_qr_scan"}, "type": "electric_scooter", "name": "d5a0588f5739ff9a88fd97b138759b9c", "is_reserved": 0, "lon": -77.045203, "is_disabled": 0, "fusion_lat": 0.0, "lat": 38.923215, "bike_id": "d5a0588f5739ff9a88fd97b138759b9c", "fusion_lon": 0.0}, {"rental_uris": {"ios": "https://dc.lft.to/lastmile_qr_scan", "android": "https://dc.lft.to/lastmile_qr_scan"}, "type": "electric_scooter", "name": "75170c51deb2e1943df860e8801242d8", "is_reserved": 0, "lon": -77.0387005, "is_disabled": 0, "fusion_lat": 0.0, "lat": 38.92156133333334, "bike_id": "75170c51deb2e1943df860e8801242d8", "fusion_lon": 0.0}, {"rental_uris": {"ios": "https://dc.lft.to/lastmile_qr_scan", "android": "https://dc.lft.to/lastmile_qr_scan"}, "type": "electric_scooter", "name": "07695ed7b220d64cc418033326b105a2", "is_reserved": 0, "lon": -77.02959633333333, "is_disabled": 0, "fusion_lat": 0.0, "lat": 38.90422933333333, "bike_id": "07695ed7b220d64cc418033326b105a2", "fusion_lon": 0.0}, {"rental_uris": {"ios": "https://dc.lft.to/lastmile_qr_scan", "android": "https://dc.lft.to/lastmile_qr_scan"}, "type": "electric_scooter", "name": "73387178c8fcd2b18d3e130ca0dc59d4", "is_reserved": 0, "lon": -77.033355, "is_disabled": 0, "fusion_lat": 0.0, "lat": 38.9192115, "bike_id": "73387178c8fcd2b18d3e130ca0dc59d4", "fusion_lon": 0.0}, {"rental_uris": {"ios": "https://dc.lft.to/lastmile_qr_scan", "android": "https://dc.lft.to/lastmile_qr_scan"}, "type": "electric_scooter", "name": "03aa3d8bd40dfb0e3137ebbaf5b86ffa", "is_reserved": 0, "lon": -77.06286683333333, "is_disabled": 0, "fusion_lat": 0.0, "lat": 38.91250333333333, "bike_id": "03aa3d8bd40dfb0e3137ebbaf5b86ffa", "fusion_lon": 0.0}, {"rental_uris": {"ios": "https://dc.lft.to/lastmile_qr_scan", "android": "https://dc.lft.to/lastmile_qr_scan"}, "type": "electric_scooter", "name": "9f0f00690746e23dfd080d7043b1a32d", "is_reserved": 0, "lon": -77.0318695, "is_disabled": 0, "fusion_lat": 0.0, "lat": 38.91557, "bike_id": "9f0f00690746e23dfd080d7043b1a32d", "fusion_lon": 0.0}, {"rental_uris": {"ios": "https://dc.lft.to/lastmile_qr_scan", "android": "https://dc.lft.to/lastmile_qr_scan"}, "type": "electric_scooter", "name": "fc5c81f4f449f82153426062bf9513d9", "is_reserved": 0, "lon": -77.02111616666667, "is_disabled": 0, "fusion_lat": 0.0, "lat": 38.92690016666667, "bike_id": "fc5c81f4f449f82153426062bf9513d9", "fusion_lon": 0.0}, {"rental_uris": {"ios": "https://dc.lft.to/lastmile_qr_scan", "android": "https://dc.lft.to/lastmile_qr_scan"}, "type": "electric_scooter", "name": "b8bf37e56d77e7dcc7da8db13f360f68", "is_reserved": 0, "lon": -77.03443133333333, "is_disabled": 0, "fusion_lat": 0.0, "lat": 38.91798766666667, "bike_id": "b8bf37e56d77e7dcc7da8db13f360f68", "fusion_lon": 0.0}, {"rental_uris": {"ios": "https://dc.lft.to/lastmile_qr_scan", "android": "https://dc.lft.to/lastmile_qr_scan"}, "type": "electric_scooter", "name": "77c1679733114b63e552ba182584a581", "is_reserved": 0, "lon": -76.98541366666667, "is_disabled": 0, "fusion_lat": 0.0, "lat": 38.913022, "bike_id": "77c1679733114b63e552ba182584a581", "fusion_lon": 0.0}, {"rental_uris": {"ios": "https://dc.lft.to/lastmile_qr_scan", "android": "https://dc.lft.to/lastmile_qr_scan"}, "type": "electric_scooter", "name": "a177816c69530f7c48ea8d5a55bca64c", "is_reserved": 0, "lon": -77.02604383333333, "is_disabled": 0, "fusion_lat": 0.0, "lat": 38.924273166666666, "bike_id": "a177816c69530f7c48ea8d5a55bca64c", "fusion_lon": 0.0}, {"rental_uris": {"ios": "https://dc.lft.to/lastmile_qr_scan", "android": "https://dc.lft.to/lastmile_qr_scan"}, "type": "electric_scooter", "name": "bd1d4ea7733aa90936478cfb198a3ed2", "is_reserved": 0, "lon": -77.0336185, "is_disabled": 0, "fusion_lat": 0.0, "lat": 38.91122033333333, "bike_id": "bd1d4ea7733aa90936478cfb198a3ed2", "fusion_lon": 0.0}, {"rental_uris": {"ios": "https://dc.lft.to/lastmile_qr_scan", "android": "https://dc.lft.to/lastmile_qr_scan"}, "type": "electric_scooter", "name": "364fbd193cb9f25be8efc52a7fff49cd", "is_reserved": 0, "lon": -76.95740933333333, "is_disabled": 0, "fusion_lat": 0.0, "lat": 38.88393466666667, "bike_id": "364fbd193cb9f25be8efc52a7fff49cd", "fusion_lon": 0.0}, {"rental_uris": {"ios": "https://dc.lft.to/lastmile_qr_scan", "android": "https://dc.lft.to/lastmile_qr_scan"}, "type": "electric_scooter", "name": "51e5091b0f0b59e2e291cb7491e05a68", "is_reserved": 0, "lon": -77.0269195, "is_disabled": 0, "fusion_lat": 0.0, "lat": 38.92575, "bike_id": "51e5091b0f0b59e2e291cb7491e05a68", "fusion_lon": 0.0}, {"rental_uris": {"ios": "https://dc.lft.to/lastmile_qr_scan", "android": "https://dc.lft.to/lastmile_qr_scan"}, "type": "electric_scooter", "name": "135092ca4208eb9c6165b86f78ab61ab", "is_reserved": 0, "lon": -77.03428683333334, "is_disabled": 0, "fusion_lat": 0.0, "lat": 38.919186333333336, "bike_id": "135092ca4208eb9c6165b86f78ab61ab", "fusion_lon": 0.0}, {"rental_uris": {"ios": "https://dc.lft.to/lastmile_qr_scan", "android": "https://dc.lft.to/lastmile_qr_scan"}, "type": "electric_scooter", "name": "eae1364d057c8a6df05d66a685b97a49", "is_reserved": 0, "lon": -76.983722, "is_disabled": 0, "fusion_lat": 0.0, "lat": 38.860380166666666, "bike_id": "eae1364d057c8a6df05d66a685b97a49", "fusion_lon": 0.0}, {"rental_uris": {"ios": "https://dc.lft.to/lastmile_qr_scan", "android": "https://dc.lft.to/lastmile_qr_scan"}, "type": "electric_scooter", "name": "866e2adf427950eef86d466b648ccdbc", "is_reserved": 0, "lon": -77.02413683333333, "is_disabled": 0, "fusion_lat": 0.0, "lat": 38.93565616666667, "bike_id": "866e2adf427950eef86d466b648ccdbc", "fusion_lon": 0.0}, {"rental_uris": {"ios": "https://dc.lft.to/lastmile_qr_scan", "android": "https://dc.lft.to/lastmile_qr_scan"}, "type": "electric_scooter", "name": "2d4eb478d648f9f00ea30b93d8de8dd5", "is_reserved": 0, "lon": -77.03908483333333, "is_disabled": 0, "fusion_lat": 0.0, "lat": 38.914190166666664, "bike_id": "2d4eb478d648f9f00ea30b93d8de8dd5", "fusion_lon": 0.0}, {"rental_uris": {"ios": "https://dc.lft.to/lastmile_qr_scan", "android": "https://dc.lft.to/lastmile_qr_scan"}, "type": "electric_scooter", "name": "9f0cf9b857ac865a01b7cf35c6df219d", "is_reserved": 0, "lon": -77.03661483333333, "is_disabled": 0, "fusion_lat": 0.0, "lat": 38.93639533333333, "bike_id": "9f0cf9b857ac865a01b7cf35c6df219d", "fusion_lon": 0.0}, {"rental_uris": {"ios": "https://dc.lft.to/lastmile_qr_scan", "android": "https://dc.lft.to/lastmile_qr_scan"}, "type": "electric_scooter", "name": "31224e8fdd6781f845bdf9f38b2f1921", "is_reserved": 0, "lon": -77.032171, "is_disabled": 0, "fusion_lat": 0.0, "lat": 38.90482133333333, "bike_id": "31224e8fdd6781f845bdf9f38b2f1921", "fusion_lon": 0.0}, {"rental_uris": {"ios": "https://dc.lft.to/lastmile_qr_scan", "android": "https://dc.lft.to/lastmile_qr_scan"}, "type": "electric_scooter", "name": "6dcf4c5a702d91096e88ac4b57019f23", "is_reserved": 0, "lon": -77.0215145, "is_disabled": 0, "fusion_lat": 0.0, "lat": 38.88741433333333, "bike_id": "6dcf4c5a702d91096e88ac4b57019f23", "fusion_lon": 0.0}, {"rental_uris": {"ios": "https://dc.lft.to/lastmile_qr_scan", "android": "https://dc.lft.to/lastmile_qr_scan"}, "type": "electric_scooter", "name": "9e0191caaddf29c7b0f345e5504b6232", "is_reserved": 0, "lon": -77.03874483333334, "is_disabled": 0, "fusion_lat": 0.0, "lat": 38.915639166666665, "bike_id": "9e0191caaddf29c7b0f345e5504b6232", "fusion_lon": 0.0}, {"rental_uris": {"ios": "https://dc.lft.to/lastmile_qr_scan", "android": "https://dc.lft.to/lastmile_qr_scan"}, "type": "electric_scooter", "name": "94335a5b13ca2a939e0b5460c2b3cc4e", "is_reserved": 0, "lon": -77.02194416666667, "is_disabled": 0, "fusion_lat": 0.0, "lat": 38.91131033333333, "bike_id": "94335a5b13ca2a939e0b5460c2b3cc4e", "fusion_lon": 0.0}, {"rental_uris": {"ios": "https://dc.lft.to/lastmile_qr_scan", "android": "https://dc.lft.to/lastmile_qr_scan"}, "type": "electric_scooter", "name": "108a68969e9636cc7fb09066b8ac0b9a", "is_reserved": 0, "lon": -77.021301, "is_disabled": 0, "fusion_lat": 0.0, "lat": 38.92406066666667, "bike_id": "108a68969e9636cc7fb09066b8ac0b9a", "fusion_lon": 0.0}, {"rental_uris": {"ios": "https://dc.lft.to/lastmile_qr_scan", "android": "https://dc.lft.to/lastmile_qr_scan"}, "type": "electric_scooter", "name": "7146733f1ddbbff4e582898d4f20f496", "is_reserved": 0, "lon": -77.03219, "is_disabled": 0, "fusion_lat": 0.0, "lat": 38.892268, "bike_id": "7146733f1ddbbff4e582898d4f20f496", "fusion_lon": 0.0}, {"rental_uris": {"ios": "https://dc.lft.to/lastmile_qr_scan", "android": "https://dc.lft.to/lastmile_qr_scan"}, "type": "electric_scooter", "name": "a842bd1d7aa2e84087b9bf82eae49aef", "is_reserved": 0, "lon": -77.02108916666667, "is_disabled": 0, "fusion_lat": 0.0, "lat": 38.906013333333334, "bike_id": "a842bd1d7aa2e84087b9bf82eae49aef", "fusion_lon": 0.0}, {"rental_uris": {"ios": "https://dc.lft.to/lastmile_qr_scan", "android": "https://dc.lft.to/lastmile_qr_scan"}, "type": "electric_scooter", "name": "efd05b2a246fa10f49075c3cc4a83760", "is_reserved": 0, "lon": -76.98842633333334, "is_disabled": 0, "fusion_lat": 0.0, "lat": 38.84299683333333, "bike_id": "efd05b2a246fa10f49075c3cc4a83760", "fusion_lon": 0.0}, {"rental_uris": {"ios": "https://dc.lft.to/lastmile_qr_scan", "android": "https://dc.lft.to/lastmile_qr_scan"}, "type": "electric_scooter", "name": "17c788078f34efb829b804292493df76", "is_reserved": 0, "lon": -77.0238575, "is_disabled": 0, "fusion_lat": 0.0, "lat": 38.92079433333333, "bike_id": "17c788078f34efb829b804292493df76", "fusion_lon": 0.0}, {"rental_uris": {"ios": "https://dc.lft.to/lastmile_qr_scan", "android": "https://dc.lft.to/lastmile_qr_scan"}, "type": "electric_scooter", "name": "ce351ccf71456995dd5dd835fa6abf7f", "is_reserved": 0, "lon": -77.05033983333334, "is_disabled": 0, "fusion_lat": 0.0, "lat": 38.8967855, "bike_id": "ce351ccf71456995dd5dd835fa6abf7f", "fusion_lon": 0.0}, {"rental_uris": {"ios": "https://dc.lft.to/lastmile_qr_scan", "android": "https://dc.lft.to/lastmile_qr_scan"}, "type": "electric_scooter", "name": "6ed5ef1fea4a31dae54f7ed75a0bdf94", "is_reserved": 0, "lon": -77.0363335, "is_disabled": 0, "fusion_lat": 0.0, "lat": 38.90374416666667, "bike_id": "6ed5ef1fea4a31dae54f7ed75a0bdf94", "fusion_lon": 0.0}, {"rental_uris": {"ios": "https://dc.lft.to/lastmile_qr_scan", "android": "https://dc.lft.to/lastmile_qr_scan"}, "type": "electric_scooter", "name": "878816cd4169d6943976b06c32de8332", "is_reserved": 0, "lon": -76.9854165, "is_disabled": 0, "fusion_lat": 0.0, "lat": 38.912955833333335, "bike_id": "878816cd4169d6943976b06c32de8332", "fusion_lon": 0.0}, {"rental_uris": {"ios": "https://dc.lft.to/lastmile_qr_scan", "android": "https://dc.lft.to/lastmile_qr_scan"}, "type": "electric_scooter", "name": "d8eabe69623459f7d924ceadef271579", "is_reserved": 0, "lon": -77.0059795, "is_disabled": 0, "fusion_lat": 0.0, "lat": 38.875778833333335, "bike_id": "d8eabe69623459f7d924ceadef271579", "fusion_lon": 0.0}, {"rental_uris": {"ios": "https://dc.lft.to/lastmile_qr_scan", "android": "https://dc.lft.to/lastmile_qr_scan"}, "type": "electric_scooter", "name": "0080136f9c69ab7b457374cdbb50c13e", "is_reserved": 0, "lon": -77.04542716666667, "is_disabled": 0, "fusion_lat": 0.0, "lat": 38.913319, "bike_id": "0080136f9c69ab7b457374cdbb50c13e", "fusion_lon": 0.0}, {"rental_uris": {"ios": "https://dc.lft.to/lastmile_qr_scan", "android": "https://dc.lft.to/lastmile_qr_scan"}, "type": "electric_scooter", "name": "3b94df53ceeb667004f0dbc0ffa38e14", "is_reserved": 0, "lon": -77.03321266666667, "is_disabled": 0, "fusion_lat": 0.0, "lat": 38.887701, "bike_id": "3b94df53ceeb667004f0dbc0ffa38e14", "fusion_lon": 0.0}, {"rental_uris": {"ios": "https://dc.lft.to/lastmile_qr_scan", "android": "https://dc.lft.to/lastmile_qr_scan"}, "type": "electric_scooter", "name": "00a82aabe47fb02a173634aa51911cee", "is_reserved": 0, "lon": -77.02762683333333, "is_disabled": 0, "fusion_lat": 0.0, "lat": 38.957869, "bike_id": "00a82aabe47fb02a173634aa51911cee", "fusion_lon": 0.0}, {"rental_uris": {"ios": "https://dc.lft.to/lastmile_qr_scan", "android": "https://dc.lft.to/lastmile_qr_scan"}, "type": "electric_scooter", "name": "33dc6b0936d6a88c3f16ff4a639fdcb9", "is_reserved": 0, "lon": -76.9487, "is_disabled": 0, "fusion_lat": 0.0, "lat": 38.89490583333333, "bike_id": "33dc6b0936d6a88c3f16ff4a639fdcb9", "fusion_lon": 0.0}, {"rental_uris": {"ios": "https://dc.lft.to/lastmile_qr_scan", "android": "https://dc.lft.to/lastmile_qr_scan"},