{"data": {"bikes": [{"lat": 38.908559, "fusion_lat": 0.0, "type": "electric_scooter", "name": "e01d2266aba24053ab92a1eaeca29ed1", "is_disabled": 0, "bike_id": "e01d2266aba24053ab92a1eaeca29ed1", "lon": -77.02403816666667, "rental_uris": {"android": "https://dc.lft.to/lastmile_qr_scan", "ios": "https://dc.lft.to/lastmile_qr_scan"}, "fusion_lon": 0.0, "is_reserved": 0}, {"lat": 38.917129333333335, "fusion_lat": 0.0, "type": "electric_scooter", "name": "33271b0858f3c4ae170e32c631891af8", "is_disabled": 0, "bike_id": "33271b0858f3c4ae170e32c631891af8", "lon": -77.03852466666666, "rental_uris": {"android": "https://dc.lft.to/lastmile_qr_scan", "ios": "https://dc.lft.to/lastmile_qr_scan"}, "fusion_lon": 0.0, "is_reserved": 0}, {"lat": 38.918057833333336, "fusion_lat": 0.0, "type": "electric_scooter", "name": "bcb5e699299052e1a8047830ee33a672", "is_disabled": 0, "bike_id": "bcb5e699299052e1a8047830ee33a672", "lon": -77.034438, "rental_uris": {"android": "https://dc.lft.to/lastmile_qr_scan", "ios": "https://dc.lft.to/lastmile_qr_scan"}, "fusion_lon": 0.0, "is_reserved": 0}, {"lat": 38.90634433333334, "fusion_lat": 0.0, "type": "electric_scooter", "name": "37eb4268f674f1a18769ca1c3871dd20", "is_disabled": 0, "bike_id": "37eb4268f674f1a18769ca1c3871dd20", "lon": -77.04250683333333, "rental_uris": {"android": "https://dc.lft.to/lastmile_qr_scan", "ios": "https://dc.lft.to/lastmile_qr_scan"}, "fusion_lon": 0.0, "is_reserved": 0}, {"lat": 38.883168833333336, "fusion_lat": 0.0, "type": "electric_scooter", "name": "0ab61375d97e005c6ddddd0498371b17", "is_disabled": 0, "bike_id": "0ab61375d97e005c6ddddd0498371b17", "lon": -77.03109483333333, "rental_uris": {"android": "https://dc.lft.to/lastmile_qr_scan", "ios": "https://dc.lft.to/lastmile_qr_scan"}, "fusion_lon": 0.0, "is_reserved": 0}, {"lat": 38.9253295, "fusion_lat": 0.0, "type": "electric_scooter", "name": "2289cb671d9be44328d4cba6572c96b4", "is_disabled": 0, "bike_id": "2289cb671d9be44328d4cba6572c96b4", "lon": -77.03521366666666, "rental_uris": {"android": "https://dc.lft.to/lastmile_qr_scan", "ios": "https://dc.lft.to/lastmile_qr_scan"}, "fusion_lon": 0.0, "is_reserved": 0}, {"lat": 38.92511616666667, "fusion_lat": 0.0, "type": "electric_scooter", "name": "93cd4258e306e543ef03e781edf09bf9", "is_disabled": 0, "bike_id": "93cd4258e306e543ef03e781edf09bf9", "lon": -77.02357016666667, "rental_uris": {"android": "https://dc.lft.to/lastmile_qr_scan", "ios": "https://dc.lft.to/lastmile_qr_scan"}, "fusion_lon": 0.0, "is_reserved": 0}, {"lat": 38.91703833333333, "fusion_lat": 0.0, "type": "electric_scooter", "name": "adbc89c0659d64afd30462532a2b22ae", "is_disabled": 0, "bike_id": "adbc89c0659d64afd30462532a2b22ae", "lon": -77.0293525, "rental_uris": {"android": "https://dc.lft.to/lastmile_qr_scan", "ios": "https://dc.lft.to/lastmile_qr_scan"}, "fusion_lon": 0.0, "is_reserved": 0}, {"lat": 38.93874266666667, "fusion_lat": 0.0, "type": "electric_scooter", "name": "fa7c64f119044105b6c1a12c1bb61095", "is_disabled": 0, "bike_id": "fa7c64f119044105b6c1a12c1bb61095", "lon": -77.02915583333333, "rental_uris": {"android": "https://dc.lft.to/lastmile_qr_scan", "ios": "https://dc.lft.to/lastmile_qr_scan"}, "fusion_lon": 0.0, "is_reserved": 0}, {"lat": 38.90138616666667, "fusion_lat": 0.0, "type": "electric_scooter", "name": "afe97eff5b3f9d6ee4f190a8ab25fe7d", "is_disabled": 0, "bike_id": "afe97eff5b3f9d6ee4f190a8ab25fe7d", "lon": -77.03205783333334, "rental_uris": {"android": "https://dc.lft.to/lastmile_qr_scan", "ios": "https://dc.lft.to/lastmile_qr_scan"}, "fusion_lon": 0.0, "is_reserved": 0}, {"lat": 38.92184866666667, "fusion_lat": 0.0, "type": "electric_scooter", "name": "426c73470643c4697c91d8fa4b48e256", "is_disabled": 0, "bike_id": "426c73470643c4697c91d8fa4b48e256", "lon": -77.046955, "rental_uris": {"android": "https://dc.lft.to/lastmile_qr_scan", "ios": "https://dc.lft.to/lastmile_qr_scan"}, "fusion_lon": 0.0, "is_reserved": 0}, {"lat": 38.903865833333334, "fusion_lat": 0.0, "type": "electric_scooter", "name": "0a3d4e16e95db8ca357581f54aec7901", "is_disabled": 0, "bike_id": "0a3d4e16e95db8ca357581f54aec7901", "lon": -77.03900883333333, "rental_uris": {"android": "https://dc.lft.to/lastmile_qr_scan", "ios": "https://dc.lft.to/lastmile_qr_scan"}, "fusion_lon": 0.0, "is_reserved": 0}, {"lat": 38.87846733333333, "fusion_lat": 0.0, "type": "electric_scooter", "name": "a196083eba3798698e21404d80847dee", "is_disabled": 0, "bike_id": "a196083eba3798698e21404d80847dee", "lon": -77.00570233333333, "rental_uris": {"android": "https://dc.lft.to/lastmile_qr_scan", "ios": "https://dc.lft.to/lastmile_qr_scan"}, "fusion_lon": 0.0, "is_reserved": 0}, {"lat": 38.89860183333333, "fusion_lat": 0.0, "type": "electric_scooter", "name": "5ff11189726074f4895ded67091f8aac", "is_disabled": 0, "bike_id": "5ff11189726074f4895ded67091f8aac", "lon": -76.94638616666667, "rental_uris": {"android": "https://dc.lft.to/lastmile_qr_scan", "ios": "https://dc.lft.to/lastmile_qr_scan"}, "fusion_lon": 0.0, "is_reserved": 0}, {"lat": 38.9097355, "fusion_lat": 0.0, "type": "electric_scooter", "name": "8c9750dc74fca9263431d3ceb6bb35ca", "is_disabled": 0, "bike_id": "8c9750dc74fca9263431d3ceb6bb35ca", "lon": -77.0110675, "rental_uris": {"android": "https://dc.lft.to/lastmile_qr_scan", "ios": "https://dc.lft.to/lastmile_qr_scan"}, "fusion_lon": 0.0, "is_reserved": 0}, {"lat": 38.914427833333335, "fusion_lat": 0.0, "type": "electric_scooter", "name": "93e34d934619dfc67a4e7886b8c1f154", "is_disabled": 0, "bike_id": "93e34d934619dfc67a4e7886b8c1f154", "lon": -77.02283083333333, "rental_uris": {"android": "https://dc.lft.to/lastmile_qr_scan", "ios": "https://dc.lft.to/lastmile_qr_scan"}, "fusion_lon": 0.0, "is_reserved": 0}, {"lat": 38.920987, "fusion_lat": 0.0, "type": "electric_scooter", "name": "f1b77d0e62c5a1dc7088496336f40109", "is_disabled": 0, "bike_id": "f1b77d0e62c5a1dc7088496336f40109", "lon": -77.04197816666667, "rental_uris": {"android": "https://dc.lft.to/lastmile_qr_scan", "ios": "https://dc.lft.to/lastmile_qr_scan"}, "fusion_lon": 0.0, "is_reserved": 0}, {"lat": 38.93366133333333, "fusion_lat": 0.0, "type": "electric_scooter", "name": "ade13c071101f5044c5cf699acde66a0", "is_disabled": 0, "bike_id": "ade13c071101f5044c5cf699acde66a0", "lon": -77.05745216666666, "rental_uris": {"android": "https://dc.lft.to/lastmile_qr_scan", "ios": "https://dc.lft.to/lastmile_qr_scan"}, "fusion_lon": 0.0, "is_reserved": 0}, {"lat": 39.05635, "fusion_lat": 0.0, "type": "electric_bike", "name": "f5ef21cd3a4ada60e71c9024a8290a37", "is_disabled": 0, "bike_id": "f5ef21cd3a4ada60e71c9024a8290a37", "lon": -77.12525066666667, "rental_uris": {"android": "https://dc.lft.to/lastmile_qr_scan", "ios": "https://dc.lft.to/lastmile_qr_scan"}, "fusion_lon": 0.0, "is_reserved": 0}, {"lat": 38.91811833333333, "fusion_lat": 0.0, "type": "electric_scooter", "name": "07a811387df6e6b0f879a5d1c9442072", "is_disabled": 0, "bike_id": "07a811387df6e6b0f879a5d1c9442072", "lon": -77.01260133333334, "rental_uris": {"android": "https://dc.lft.to/lastmile_qr_scan", "ios": "https://dc.lft.to/lastmile_qr_scan"}, "fusion_lon": 0.0, "is_reserved": 0}, {"lat": 38.892195, "fusion_lat": 0.0, "type": "electric_scooter", "name": "6e65dc472e599cbf022c4a1b50c288ed", "is_disabled": 0, "bike_id": "6e65dc472e599cbf022c4a1b50c288ed", "lon": -77.02230283333333, "rental_uris": {"android": "https://dc.lft.to/lastmile_qr_scan", "ios": "https://dc.lft.to/lastmile_qr_scan"}, "fusion_lon": 0.0, "is_reserved": 0}, {"lat": 38.92666366666667, "fusion_lat": 0.0, "type": "electric_scooter", "name": "0a6e9eb2b2dbc0506ffdb34c7912be8a", "is_disabled": 0, "bike_id": "0a6e9eb2b2dbc0506ffdb34c7912be8a", "lon": -77.0150095, "rental_uris": {"android": "https://dc.lft.to/lastmile_qr_scan", "ios": "https://dc.lft.to/lastmile_qr_scan"}, "fusion_lon": 0.0, "is_reserved": 0}, {"lat": 38.8986615, "fusion_lat": 0.0, "type": "electric_scooter", "name": "762dfde40d21c541ff7b899ee43c0101", "is_disabled": 0, "bike_id": "762dfde40d21c541ff7b899ee43c0101", "lon": -77.0281045, "rental_uris": {"android": "https://dc.lft.to/lastmile_qr_scan", "ios": "https://dc.lft.to/lastmile_qr_scan"}, "fusion_lon": 0.0, "is_reserved": 0}, {"lat": 38.939491833333335, "fusion_lat": 0.0, "type": "electric_scooter", "name": "301ff9346102e2d4c888ec345340270c", "is_disabled": 0, "bike_id": "301ff9346102e2d4c888ec345340270c", "lon": -77.07244333333334, "rental_uris": {"android": "https://dc.lft.to/lastmile_qr_scan", "ios": "https://dc.lft.to/lastmile_qr_scan"}, "fusion_lon": 0.0, "is_reserved": 0}, {"lat": 38.918149, "fusion_lat": 0.0, "type": "electric_scooter", "name": "cf51d90b59cec8b72371c6e55ca38240", "is_disabled": 0, "bike_id": "cf51d90b59cec8b72371c6e55ca38240", "lon": -77.04160466666667, "rental_uris": {"android": "https://dc.lft.to/lastmile_qr_scan", "ios": "https://dc.lft.to/lastmile_qr_scan"}, "fusion_lon": 0.0, "is_reserved": 0}, {"lat": 38.92509483333333, "fusion_lat": 0.0, "type": "electric_scooter", "name": "79866607b95bb9cfbb5ab4546c784d05", "is_disabled": 0, "bike_id": "79866607b95bb9cfbb5ab4546c784d05", "lon": -77.00224816666666, "rental_uris": {"android": "https://dc.lft.to/lastmile_qr_scan", "ios": "https://dc.lft.to/lastmile_qr_scan"}, "fusion_lon": 0.0, "is_reserved": 0}, {"lat": 38.892231833333334, "fusion_lat": 0.0, "type": "electric_scooter", "name": "e301e19c62c234a5a6b5ed42accddaa1", "is_disabled": 0, "bike_id": "e301e19c62c234a5a6b5ed42accddaa1", "lon": -77.04376333333333, "rental_uris": {"android": "https://dc.lft.to/lastmile_qr_scan", "ios": "https://dc.lft.to/lastmile_qr_scan"}, "fusion_lon": 0.0, "is_reserved": 0}, {"lat": 38.9052555, "fusion_lat": 0.0, "type": "electric_scooter", "name": "3f8b122428fa52a10acc26688594b99f", "is_disabled": 0, "bike_id": "3f8b122428fa52a10acc26688594b99f", "lon": -77.0529815, "rental_uris": {"android": "https://dc.lft.to/lastmile_qr_scan", "ios": "https://dc.lft.to/lastmile_qr_scan"}, "fusion_lon": 0.0, "is_reserved": 0}, {"lat": 38.86134083333334, "fusion_lat": 0.0, "type": "electric_scooter", "name": "9619c49c94d7dbb269a47ec4e764c40c", "is_disabled": 0, "bike_id": "9619c49c94d7dbb269a47ec4e764c40c", "lon": -76.97166033333333, "rental_uris": {"android": "https://dc.lft.to/lastmile_qr_scan", "ios": "https://dc.lft.to/lastmile_qr_scan"}, "fusion_lon": 0.0, "is_reserved": 0}, {"lat": 38.910038, "fusion_lat": 0.0, "type": "electric_scooter", "name": "9cba014dfaa0980fcff76e469ac714e4", "is_disabled": 0, "bike_id": "9cba014dfaa0980fcff76e469ac714e4", "lon": -77.03661733333334, "rental_uris": {"android": "https://dc.lft.to/lastmile_qr_scan", "ios": "https://dc.lft.to/lastmile_qr_scan"}, "fusion_lon": 0.0, "is_reserved": 0}, {"lat": 38.92144916666667, "fusion_lat": 0.0, "type": "electric_scooter", "name": "af6b78d261598e3eb47e6877acb88dcf", "is_disabled": 0, "bike_id": "af6b78d261598e3eb47e6877acb88dcf", "lon": -77.03439716666666, "rental_uris": {"android": "https://dc.lft.to/lastmile_qr_scan", "ios": "https://dc.lft.to/lastmile_qr_scan"}, "fusion_lon": 0.0, "is_reserved": 0}, {"lat": 38.904153666666666, "fusion_lat": 0.0, "type": "electric_scooter", "name": "e5cce056b9795e85f6a5f6d798bc1ed5", "is_disabled": 0, "bike_id": "e5cce056b9795e85f6a5f6d798bc1ed5", "lon": -77.04341133333334, "rental_uris": {"android": "https://dc.lft.to/lastmile_qr_scan", "ios": "https://dc.lft.to/lastmile_qr_scan"}, "fusion_lon": 0.0, "is_reserved": 0}, {"lat": 38.922480666666665, "fusion_lat": 0.0, "type": "electric_scooter", "name": "0770c735f2d1ffd7b6fdfa3bc4abb240", "is_disabled": 0, "bike_id": "0770c735f2d1ffd7b6fdfa3bc4abb240", "lon": -77.038917, "rental_uris": {"android": "https://dc.lft.to/lastmile_qr_scan", "ios": "https://dc.lft.to/lastmile_qr_scan"}, "fusion_lon": 0.0, "is_reserved": 0}, {"lat": 38.903613, "fusion_lat": 0.0, "type": "electric_scooter", "name": "8fc39e89050cb547e1437ae22fec8eee", "is_disabled": 0, "bike_id": "8fc39e89050cb547e1437ae22fec8eee", "lon": -77.04337733333334, "rental_uris": {"android": "https://dc.lft.to/lastmile_qr_scan", "ios": "https://dc.lft.to/lastmile_qr_scan"}, "fusion_lon": 0.0, "is_reserved": 0}, {"lat": 38.924388666666665, "fusion_lat": 0.0, "type": "electric_scooter", "name": "89dbd445a2f3f922d02b0d62c4fd8227", "is_disabled": 0, "bike_id": "89dbd445a2f3f922d02b0d62c4fd8227", "lon": -77.03990716666667, "rental_uris": {"android": "https://dc.lft.to/lastmile_qr_scan", "ios": "https://dc.lft.to/lastmile_qr_scan"}, "fusion_lon": 0.0, "is_reserved": 0}, {"lat": 38.93288166666667, "fusion_lat": 0.0, "type": "electric_scooter", "name": "51412d9d3800393b5725f496311ba653", "is_disabled": 0, "bike_id": "51412d9d3800393b5725f496311ba653", "lon": -76.986211, "rental_uris": {"android": "https://dc.lft.to/lastmile_qr_scan", "ios": "https://dc.lft.to/lastmile_qr_scan"}, "fusion_lon": 0.0, "is_reserved": 0}, {"lat": 38.98462333333333, "fusion_lat": 0.0, "type": "electric_bike", "name": "35c29a72eb78cb91cb8775424d0def85", "is_disabled": 0, "bike_id": "35c29a72eb78cb91cb8775424d0def85", "lon": -76.97052116666667, "rental_uris": {"android": "https://dc.lft.to/lastmile_qr_scan", "ios": "https://dc.lft.to/lastmile_qr_scan"}, "fusion_lon": 0.0, "is_reserved": 0}, {"lat": 38.87208916666667, "fusion_lat": 0.0, "type": "electric_scooter", "name": "3016dd7d91f11f29112ac67fdf6039d2", "is_disabled": 0, "bike_id": "3016dd7d91f11f29112ac67fdf6039d2", "lon": -77.012326, "rental_uris": {"android": "https://dc.lft.to/lastmile_qr_scan", "ios": "https://dc.lft.to/lastmile_qr_scan"}, "fusion_lon": 0.0, "is_reserved": 0}, {"lat": 38.928732833333335, "fusion_lat": 0.0, "type": "electric_scooter", "name": "4ce414b742778182d1871a8404351716", "is_disabled": 0, "bike_id": "4ce414b742778182d1871a8404351716", "lon": -77.03330783333334, "rental_uris": {"android": "https://dc.lft.to/lastmile_qr_scan", "ios": "https://dc.lft.to/lastmile_qr_scan"}, "fusion_lon": 0.0, "is_reserved": 0}, {"lat": 38.911843, "fusion_lat": 0.0, "type": "electric_scooter", "name": "e864e5e0e52fd4a696d0e73373785948", "is_disabled": 0, "bike_id": "e864e5e0e52fd4a696d0e73373785948", "lon": -77.00710933333333, "rental_uris": {"android": "https://dc.lft.to/lastmile_qr_scan", "ios": "https://dc.lft.to/lastmile_qr_scan"}, "fusion_lon": 0.0, "is_reserved": 0}, {"lat": 38.9038815, "fusion_lat": 0.0, "type": "electric_scooter", "name": "4b6b372f568fc6afff543794bc79569d", "is_disabled": 0, "bike_id": "4b6b372f568fc6afff543794bc79569d", "lon": -77.04205466666667, "rental_uris": {"android": "https://dc.lft.to/lastmile_qr_scan", "ios": "https://dc.lft.to/lastmile_qr_scan"}, "fusion_lon": 0.0, "is_reserved": 0}, {"lat": 38.89598866666667, "fusion_lat": 0.0, "type": "electric_scooter", "name": "bce0bb043b460d0bb2b9757b191b71ff", "is_disabled": 0, "bike_id": "bce0bb043b460d0bb2b9757b191b71ff", "lon": -77.02777116666667, "rental_uris": {"android": "https://dc.lft.to/lastmile_qr_scan", "ios": "https://dc.lft.to/lastmile_qr_scan"}, "fusion_lon": 0.0, "is_reserved": 0}, {"lat": 38.8932855, "fusion_lat": 0.0, "type": "electric_scooter", "name": "b3df97bb0270307f78a0e3379b3556e0", "is_disabled": 0, "bike_id": "b3df97bb0270307f78a0e3379b3556e0", "lon": -76.93928433333333, "rental_uris": {"android": "https://dc.lft.to/lastmile_qr_scan", "ios": "https://dc.lft.to/lastmile_qr_scan"}, "fusion_lon": 0.0, "is_reserved": 0}, {"lat": 38.91309583333334, "fusion_lat": 0.0, "type": "electric_scooter", "name": "c3e969b0925be851332cec01556d4c3f", "is_disabled": 0, "bike_id": "c3e969b0925be851332cec01556d4c3f", "lon": -77.01434316666666, "rental_uris": {"android": "https://dc.lft.to/lastmile_qr_scan", "ios": "https://dc.lft.to/lastmile_qr_scan"}, "fusion_lon": 0.0, "is_reserved": 0}, {"lat": 38.903393, "fusion_lat": 0.0, "type": "electric_scooter", "name": "b840e8c1af7b964d9ff13d8d4ddaa15a", "is_disabled": 0, "bike_id": "b840e8c1af7b964d9ff13d8d4ddaa15a", "lon": -77.02544983333334, "rental_uris": {"android": "https://dc.lft.to/lastmile_qr_scan", "ios": "https://dc.lft.to/lastmile_qr_scan"}, "fusion_lon": 0.0, "is_reserved": 0}, {"lat": 38.9177965, "fusion_lat": 0.0, "type": "electric_scooter", "name": "ed8ad1ce93e7477bd999d22e1478cb3d", "is_disabled": 0, "bike_id": "ed8ad1ce93e7477bd999d22e1478cb3d", "lon": -77.02309866666667, "rental_uris": {"android": "https://dc.lft.to/lastmile_qr_scan", "ios": "https://dc.lft.to/lastmile_qr_scan"}, "fusion_lon": 0.0, "is_reserved": 0}, {"lat": 38.95331733333333, "fusion_lat": 0.0, "type": "electric_bike", "name": "7e8306ada16b1e5a91fe20eca6b49700", "is_disabled": 0, "bike_id": "7e8306ada16b1e5a91fe20eca6b49700", "lon": -76.9824725, "rental_uris": {"android": "https://dc.lft.to/lastmile_qr_scan", "ios": "https://dc.lft.to/lastmile_qr_scan"}, "fusion_lon": 0.0, "is_reserved": 0}, {"lat": 38.91687666666667, "fusion_lat": 0.0, "type": "electric_scooter", "name": "4122ac95163b31b5072924995db0a0c6", "is_disabled": 0, "bike_id": "4122ac95163b31b5072924995db0a0c6", "lon": -77.03231633333333, "rental_uris": {"android": "https://dc.lft.to/lastmile_qr_scan", "ios": "https://dc.lft.to/lastmile_qr_scan"}, "fusion_lon": 0.0, "is_reserved": 0}, {"lat": 38.92810816666667, "fusion_lat": 0.0, "type": "electric_scooter", "name": "0c2c8b63fee0b09c3458c7b2f543bbaa", "is_disabled": 0, "bike_id": "0c2c8b63fee0b09c3458c7b2f543bbaa", "lon": -77.0364465, "rental_uris": {"android": "https://dc.lft.to/lastmile_qr_scan", "ios": "https://dc.lft.to/lastmile_qr_scan"}, "fusion_lon": 0.0, "is_reserved": 0}, {"lat": 38.9232015, "fusion_lat": 0.0, "type": "electric_scooter", "name": "fda3706967e7866a48bdcdf7c372dd97", "is_disabled": 0, "bike_id": "fda3706967e7866a48bdcdf7c372dd97", "lon": -77.05636216666667, "rental_uris": {"android": "https://dc.lft.to/lastmile_qr_scan", "ios": "https://dc.lft.to/lastmile_qr_scan"}, "fusion_lon": 0.0, "is_reserved": 0}, {"lat": 38.9345825, "fusion_lat": 0.0, "type": "electric_scooter", "name": "8b99c3cca519296f814355c2232c130c", "is_disabled": 0, "bike_id": "8b99c3cca519296f814355c2232c130c", "lon": -77.04539116666666, "rental_uris": {"android": "https://dc.lft.to/lastmile_qr_scan", "ios": "https://dc.lft.to/lastmile_qr_scan"}, "fusion_lon": 0.0, "is_reserved": 0}, {"lat": 38.9185025, "fusion_lat": 0.0, "type": "electric_scooter", "name": "9fa0f0b7fb3db07588cf959c190eb7d8", "is_disabled": 0, "bike_id": "9fa0f0b7fb3db07588cf959c190eb7d8", "lon": -77.03884716666667, "rental_uris": {"android": "https://dc.lft.to/lastmile_qr_scan", "ios": "https://dc.lft.to/lastmile_qr_scan"}, "fusion_lon": 0.0, "is_reserved": 0}, {"lat": 38.90032383333333, "fusion_lat": 0.0, "type": "electric_bike", "name": "24169752dbc04b934a81232d1dd3e6c5", "is_disabled": 0, "bike_id": "24169752dbc04b934a81232d1dd3e6c5", "lon": -76.97222533333333, "rental_uris": {"android": "https://dc.lft.to/lastmile_qr_scan", "ios": "https://dc.lft.to/lastmile_qr_scan"}, "fusion_lon": 0.0, "is_reserved": 0}, {"lat": 38.9170195, "fusion_lat": 0.0, "type": "electric_bike", "name": "73f6d31f92b836c1e6babb194b34480e", "is_disabled": 0, "bike_id": "73f6d31f92b836c1e6babb194b34480e", "lon": -77.024896, "rental_uris": {"android": "https://dc.lft.to/lastmile_qr_scan", "ios": "https://dc.lft.to/lastmile_qr_scan"}, "fusion_lon": 0.0, "is_reserved": 0}, {"lat": 38.928655666666664, "fusion_lat": 0.0, "type": "electric_scooter", "name": "4b979879f019c3fd74ad73baa7b3d8d2", "is_disabled": 0, "bike_id": "4b979879f019c3fd74ad73baa7b3d8d2", "lon": -77.0359945, "rental_uris": {"android": "https://dc.lft.to/lastmile_qr_scan", "ios": "https://dc.lft.to/lastmile_qr_scan"}, "fusion_lon": 0.0, "is_reserved": 0}, {"lat": 38.90554383333333, "fusion_lat": 0.0, "type": "electric_scooter", "name": "2b5b37114ca1639c61f7070c4dc4a2a2", "is_disabled": 0, "bike_id": "2b5b37114ca1639c61f7070c4dc4a2a2", "lon": -77.0223425, "rental_uris": {"android": "https://dc.lft.to/lastmile_qr_scan", "ios": "https://dc.lft.to/lastmile_qr_scan"}, "fusion_lon": 0.0, "is_reserved": 0}, {"lat": 38.8837425, "fusion_lat": 0.0, "type": "electric_scooter", "name": "3f9f26eab4991b85a97fc5c575465590", "is_disabled": 0, "bike_id": "3f9f26eab4991b85a97fc5c575465590", "lon": -77.0191405, "rental_uris": {"android": "https://dc.lft.to/lastmile_qr_scan", "ios": "https://dc.lft.to/lastmile_qr_scan"}, "fusion_lon": 0.0, "is_reserved": 0}, {"lat": 38.8974335, "fusion_lat": 0.0, "type": "electric_scooter", "name": "58b5424f11f89350999d4cf1ca5ce1b7", "is_disabled": 0, "bike_id": "58b5424f11f89350999d4cf1ca5ce1b7", "lon": -77.04786883333334, "rental_uris": {"android": "https://dc.lft.to/lastmile_qr_scan", "ios": "https://dc.lft.to/lastmile_qr_scan"}, "fusion_lon": 0.0, "is_reserved": 0}, {"lat": 38.804469166666664, "fusion_lat": 0.0, "type": "electric_bike", "name": "8576f6c9f83bd32cf478462ce5675a88", "is_disabled": 0, "bike_id": "8576f6c9f83bd32cf478462ce5675a88", "lon": -77.05394266666667, "rental_uris": {"android": "https://dc.lft.to/lastmile_qr_scan", "ios": "https://dc.lft.to/lastmile_qr_scan"}, "fusion_lon": 0.0, "is_reserved": 0}, {"lat": 38.926675, "fusion_lat": 0.0, "type": "electric_scooter", "name": "89b6048dce487ac141ef0fef6e8b5cd6", "is_disabled": 0, "bike_id": "89b6048dce487ac141ef0fef6e8b5cd6", "lon": -77.01494816666667, "rental_uris": {"android": "https://dc.lft.to/lastmile_qr_scan", "ios": "https://dc.lft.to/lastmile_qr_scan"}, "fusion_lon": 0.0, "is_reserved": 0}, {"lat": 38.8983995, "fusion_lat": 0.0, "type": "electric_scooter", "name": "25cb6403e64f9af19bf317bc66d6a745", "is_disabled": 0, "bike_id": "25cb6403e64f9af19bf317bc66d6a745", "lon": -77.04181566666666, "rental_uris": {"android": "https://dc.lft.to/lastmile_qr_scan", "ios": "https://dc.lft.to/lastmile_qr_scan"}, "fusion_lon": 0.0, "is_reserved": 0}, {"lat": 38.89993033333333, "fusion_lat": 0.0, "type": "electric_scooter", "name": "37692eb75fa884621d4a48018a985919", "is_disabled": 0, "bike_id": "37692eb75fa884621d4a48018a985919", "lon": -76.98104083333334, "rental_uris": {"android": "https://dc.lft.to/lastmile_qr_scan", "ios": "https://dc.lft.to/lastmile_qr_scan"}, "fusion_lon": 0.0, "is_reserved": 0}, {"lat": 38.891694333333334, "fusion_lat": 0.0, "type": "electric_scooter", "name": "97bf5427b59d3d1ce0e63361087e6994", "is_disabled": 0, "bike_id": "97bf5427b59d3d1ce0e63361087e6994", "lon": -77.01538616666667, "rental_uris": {"android": "https://dc.lft.to/lastmile_qr_scan", "ios": "https://dc.lft.to/lastmile_qr_scan"}, "fusion_lon": 0.0, "is_reserved": 0}, {"lat": 38.910498833333335, "fusion_lat": 0.0, "type": "electric_scooter", "name": "6fece4e3768fe35b8c6af1cc2892ab5a", "is_disabled": 0, "bike_id": "6fece4e3768fe35b8c6af1cc2892ab5a", "lon": -77.04358716666667, "rental_uris": {"android": "https://dc.lft.to/lastmile_qr_scan", "ios": "https://dc.lft.to/lastmile_qr_scan"}, "fusion_lon": 0.0, "is_reserved": 0}, {"lat": 38.973806833333335, "fusion_lat": 0.0, "type": "electric_bike", "name": "364164ec216ab49ba6f7b76f72826792", "is_disabled": 0, "bike_id": "364164ec216ab49ba6f7b76f72826792", "lon": -77.064712, "rental_uris": {"android": "https://dc.lft.to/lastmile_qr_scan", "ios": "https://dc.lft.to/lastmile_qr_scan"}, "fusion_lon": 0.0, "is_reserved": 0}, {"lat": 38.924480333333335, "fusion_lat": 0.0, "type": "electric_scooter", "name": "3951ade20a48bbff76c31588e91e99c1", "is_disabled": 0, "bike_id": "3951ade20a48bbff76c31588e91e99c1", "lon": -77.0522395, "rental_uris": {"android": "https://dc.lft.to/lastmile_qr_scan", "ios": "https://dc.lft.to/lastmile_qr_scan"}, "fusion_lon": 0.0, "is_reserved": 0}, {"lat": 38.90541, "fusion_lat": 0.0, "type": "electric_scooter", "name": "f3f6faa631386e50a53149233d6e0d47", "is_disabled": 0, "bike_id": "f3f6faa631386e50a53149233d6e0d47", "lon": -77.02701733333333, "rental_uris": {"android": "https://dc.lft.to/lastmile_qr_scan", "ios": "https://dc.lft.to/lastmile_qr_scan"}, "fusion_lon": 0.0, "is_reserved": 0}, {"lat": 38.900311, "fusion_lat": 0.0, "type": "electric_scooter", "name": "cf4fcafc34a94cdb21acf02b368f933c", "is_disabled": 0, "bike_id": "cf4fcafc34a94cdb21acf02b368f933c", "lon": -77.03846516666667, "rental_uris": {"android": "https://dc.lft.to/lastmile_qr_scan", "ios": "https://dc.lft.to/lastmile_qr_scan"}, "fusion_lon": 0.0, "is_reserved": 0}, {"lat": 38.92839683333333, "fusion_lat": 0.0, "type": "electric_scooter", "name": "ea936eaf86107b6143a82bcc5ae78d46", "is_disabled": 0, "bike_id": "ea936eaf86107b6143a82bcc5ae78d46", "lon": -77.05509333333333, "rental_uris": {"android": "https://dc.lft.to/lastmile_qr_scan", "ios": "https://dc.lft.to/lastmile_qr_scan"}, "fusion_lon": 0.0, "is_reserved": 0}, {"lat": 38.900444666666665, "fusion_lat": 0.0, "type": "electric_scooter", "name": "716e51963fdd97afdf6d11a16a5a6676", "is_disabled": 0, "bike_id": "716e51963fdd97afdf6d11a16a5a6676", "lon": -77.0448785, "rental_uris": {"android": "https://dc.lft.to/lastmile_qr_scan", "ios": "https://dc.lft.to/lastmile_qr_scan"}, "fusion_lon": 0.0, "is_reserved": 0}, {"lat": 38.902714, "fusion_lat": 0.0, "type": "electric_scooter", "name": "d8ebc33d13383e79c7e208848f2cd1eb", "is_disabled": 0, "bike_id": "d8ebc33d13383e79c7e208848f2cd1eb", "lon": -77.03855033333333, "rental_uris": {"android": "https://dc.lft.to/lastmile_qr_scan", "ios": "https://dc.lft.to/lastmile_qr_scan"}, "fusion_lon": 0.0, "is_reserved": 0}, {"lat": 38.912667666666664, "fusion_lat": 0.0, "type": "electric_scooter", "name": "39dd81b8a4b1ba7e14472848c502021b", "is_disabled": 0, "bike_id": "39dd81b8a4b1ba7e14472848c502021b", "lon": -77.02384833333333, "rental_uris": {"android": "https://dc.lft.to/lastmile_qr_scan", "ios": "https://dc.lft.to/lastmile_qr_scan"}, "fusion_lon": 0.0, "is_reserved": 0}, {"lat": 38.89867433333333, "fusion_lat": 0.0, "type": "electric_scooter", "name": "043c63fc94bbb969e3eb4440d1b45b74", "is_disabled": 0, "bike_id": "043c63fc94bbb969e3eb4440d1b45b74", "lon": -76.94632383333334, "rental_uris": {"android": "https://dc.lft.to/lastmile_qr_scan", "ios": "https://dc.lft.to/lastmile_qr_scan"}, "fusion_lon": 0.0, "is_reserved": 0}, {"lat": 38.88373983333334, "fusion_lat": 0.0, "type": "electric_scooter", "name": "3ccd2b9b5083c8f77ac63929021de12b", "is_disabled": 0, "bike_id": "3ccd2b9b5083c8f77ac63929021de12b", "lon": -76.98555266666666, "rental_uris": {"android": "https://dc.lft.to/lastmile_qr_scan", "ios": "https://dc.lft.to/lastmile_qr_scan"}, "fusion_lon": 0.0, "is_reserved": 0}, {"lat": 38.904406, "fusion_lat": 0.0, "type": "electric_scooter", "name": "3d3fdbc895cd7cc3424d9c47fec65aae", "is_disabled": 0, "bike_id": "3d3fdbc895cd7cc3424d9c47fec65aae", "lon": -77.05799883333333, "rental_uris": {"android": "https://dc.lft.to/lastmile_qr_scan", "ios": "https://dc.lft.to/lastmile_qr_scan"}, "fusion_lon": 0.0, "is_reserved": 0}, {"lat": 38.91191366666666, "fusion_lat": 0.0, "type": "electric_scooter", "name": "a415c9deac345f14f4d41fb30c940bf2", "is_disabled": 0, "bike_id": "a415c9deac345f14f4d41fb30c940bf2", "lon": -77.03834583333334, "rental_uris": {"android": "https://dc.lft.to/lastmile_qr_scan", "ios": "https://dc.lft.to/lastmile_qr_scan"}, "fusion_lon": 0.0, "is_reserved": 0}, {"lat": 38.88270033333333, "fusion_lat": 0.0, "type": "electric_scooter", "name": "d39b7504bcd488f884b6246f3590d3a5", "is_disabled": 0, "bike_id": "d39b7504bcd488f884b6246f3590d3a5", "lon": -76.99015383333334, "rental_uris": {"android": "https://dc.lft.to/lastmile_qr_scan", "ios": "https://dc.lft.to/lastmile_qr_scan"}, "fusion_lon": 0.0, "is_reserved": 0}, {"lat": 38.892249666666665, "fusion_lat": 0.0, "type": "electric_scooter", "name": "c9b5ff1b0adf7de4602dd4cd7a24abf2", "is_disabled": 0, "bike_id": "c9b5ff1b0adf7de4602dd4cd7a24abf2", "lon": -77.02209533333334, "rental_uris": {"android": "https://dc.lft.to/lastmile_qr_scan", "ios": "https://dc.lft.to/lastmile_qr_scan"}, "fusion_lon": 0.0, "is_reserved": 0}, {"lat": 38.905508166666664, "fusion_lat": 0.0, "type": "electric_bike", "name": "84932037c04e87bce1c409aa928f065f", "is_disabled": 0, "bike_id": "84932037c04e87bce1c409aa928f065f", "lon": -77.04286516666667, "rental_uris": {"android": "https://dc.lft.to/lastmile_qr_scan", "ios": "https://dc.lft.to/lastmile_qr_scan"}, "fusion_lon": 0.0, "is_reserved": 0}, {"lat": 38.896341166666666, "fusion_lat": 0.0, "type": "electric_scooter", "name": "58b23f365d27e69cc79024f93bcb07c8", "is_disabled": 0, "bike_id": "58b23f365d27e69cc79024f93bcb07c8", "lon": -77.0398885, "rental_uris": {"android": "https://dc.lft.to/lastmile_qr_scan", "ios": "https://dc.lft.to/lastmile_qr_scan"}, "fusion_lon": 0.0, "is_reserved": 0}, {"lat": 38.884890166666665, "fusion_lat": 0.0, "type": "electric_scooter", "name": "9421d982ee146c4ad74921f238964041", "is_disabled": 0, "bike_id": "9421d982ee146c4ad74921f238964041", "lon": -77.007105, "rental_uris": {"android": "https://dc.lft.to/lastmile_qr_scan", "ios": "https://dc.lft.to/lastmile_qr_scan"}, "fusion_lon": 0.0, "is_reserved": 0}, {"lat": 38.91765516666667, "fusion_lat": 0.0, "type": "electric_scooter", "name": "cc7715060c0181ad00a87927a1dd36de", "is_disabled": 0, "bike_id": "cc7715060c0181ad00a87927a1dd36de", "lon": -77.02492966666667, "rental_uris": {"android": "https://dc.lft.to/lastmile_qr_scan", "ios": "https://dc.lft.to/lastmile_qr_scan"}, "fusion_lon": 0.0, "is_reserved": 0}, {"lat": 38.860292666666666, "fusion_lat": 0.0, "type": "electric_scooter", "name": "b62b99ef3c9c41723ca1f508a664bfd0", "is_disabled": 0, "bike_id": "b62b99ef3c9c41723ca1f508a664bfd0", "lon": -76.967136, "rental_uris": {"android": "https://dc.lft.to/lastmile_qr_scan", "ios": "https://dc.lft.to/lastmile_qr_scan"}, "fusion_lon": 0.0, "is_reserved": 0}, {"lat": 38.898950666666664, "fusion_lat": 0.0, "type": "electric_scooter", "name": "6a3b04ca3e8942d68162a1a743ec3582", "is_disabled": 0, "bike_id": "6a3b04ca3e8942d68162a1a743ec3582", "lon": -77.04680966666666, "rental_uris": {"android": "https://dc.lft.to/lastmile_qr_scan", "ios": "https://dc.lft.to/lastmile_qr_scan"}, "fusion_lon": 0.0, "is_reserved": 0}, {"lat": 38.90678416666667, "fusion_lat": 0.0, "type": "electric_scooter", "name": "4f23f19df187e1f348231772690e8011", "is_disabled": 0, "bike_id": "4f23f19df187e1f348231772690e8011", "lon": -77.02369283333333, "rental_uris": {"android": "https://dc.lft.to/lastmile_qr_scan", "ios": "https://dc.lft.to/lastmile_qr_scan"}, "fusion_lon": 0.0, "is_reserved": 0}, {"lat": 38.90183716666667, "fusion_lat": 0.0, "type": "electric_scooter", "name": "dfa590fda3525a129c5ea1de1a6a42c0", "is_disabled": 0, "bike_id": "dfa590fda3525a129c5ea1de1a6a42c0", "lon": -77.04885583333333, "rental_uris": {"android": "https://dc.lft.to/lastmile_qr_scan", "ios": "https://dc.lft.to/lastmile_qr_scan"}, "fusion_lon": 0.0, "is_reserved": 0}, {"lat": 38.9171635, "fusion_lat": 0.0, "type": "electric_scooter", "name": "e4599774bc07b5702de088b93e9fc65a", "is_disabled": 0, "bike_id": "e4599774bc07b5702de088b93e9fc65a", "lon": -77.03859783333333, "rental_uris": {"android": "https://dc.lft.to/lastmile_qr_scan", "ios": "https://dc.lft.to/lastmile_qr_scan"}, "fusion_lon": 0.0, "is_reserved": 0}, {"lat": 38.91833166666667, "fusion_lat": 0.0, "type": "electric_scooter", "name": "05f023a6e2c9130b0286cd609a0e4c57", "is_disabled": 0, "bike_id": "05f023a6e2c9130b0286cd609a0e4c57", "lon": -77.03539783333333, "rental_uris": {"android": "https://dc.lft.to/lastmile_qr_scan", "ios": "https://dc.lft.to/lastmile_qr_scan"}, "fusion_lon": 0.0, "is_reserved": 0}, {"lat": 38.920385, "fusion_lat": 0.0, "type": "electric_scooter", "name": "a8c9637ed8727041140a7855ca69e1c8", "is_disabled": 0, "bike_id": "a8c9637ed8727041140a7855ca69e1c8", "lon": -77.02427566666667, "rental_uris": {"android": "https://dc.lft.to/lastmile_qr_scan", "ios": "https://dc.lft.to/lastmile_qr_scan"}, "fusion_lon": 0.0, "is_reserved": 0}, {"lat": 38.930409166666664, "fusion_lat": 0.0, "type": "electric_scooter", "name": "6e7abb1e9c8aa05f8b82757fcd3d2024", "is_disabled": 0, "bike_id": "6e7abb1e9c8aa05f8b82757fcd3d2024", "lon": -77.03281383333334, "rental_uris": {"android": "https://dc.lft.to/lastmile_qr_scan", "ios": "https://dc.lft.to/lastmile_qr_scan"}, "fusion_lon": 0.0, "is_reserved": 0}, {"lat": 38.9235885, "fusion_lat": 0.0, "type": "electric_scooter", "name": "bd655b07338e2ceab56262a3a24e431f", "is_disabled": 0, "bike_id": "bd655b07338e2ceab56262a3a24e431f", "lon": -77.05040316666667, "rental_uris": {"android": "https://dc.lft.to/lastmile_qr_scan", "ios": "https://dc.lft.to/lastmile_qr_scan"}, "fusion_lon": 0.0, "is_reserved": 0}, {"lat": 38.95105266666667, "fusion_lat": 0.0, "type": "electric_scooter", "name": "d3df0b1871155c2085ca172389af0892", "is_disabled": 0, "bike_id": "d3df0b1871155c2085ca172389af0892", "lon": -77.09718733333334, "rental_uris": {"android": "https://dc.lft.to/lastmile_qr_scan", "ios": "https://dc.lft.to/lastmile_qr_scan"}, "fusion_lon": 0.0, "is_reserved": 0}, {"lat": 38.904169333333336, "fusion_lat": 0.0, "type": "electric_scooter", "name": "7faec61d804adc7b443d6cabef7cfdd5", "is_disabled": 0, "bike_id": "7faec61d804adc7b443d6cabef7cfdd5", "lon": -77.049967, "rental_uris": {"android": "https://dc.lft.to/lastmile_qr_scan", "ios": "https://dc.lft.to/lastmile_qr_scan"}, "fusion_lon": 0.0, "is_reserved": 0}, {"lat": 38.87645916666666, "fusion_lat": 0.0, "type": "electric_scooter", "name": "421744a26564a507f78faa773cfdb4fa", "is_disabled": 0, "bike_id": "421744a26564a507f78faa773cfdb4fa", "lon": -77.00378583333334, "rental_uris": {"android": "https://dc.lft.to/lastmile_qr_scan", "ios": "https://dc.lft.to/lastmile_qr_scan"}, "fusion_lon": 0.0, "is_reserved": 0}, {"lat": 38.98498083333333, "fusion_lat": 0.0, "type": "electric_bike", "name": "b05f2666570a04851c5386bddad02420", "is_disabled": 0, "bike_id": "b05f2666570a04851c5386bddad02420", "lon": -76.98192716666667, "rental_uris": {"android": "https://dc.lft.to/lastmile_qr_scan", "ios": "https://dc.lft.to/lastmile_qr_scan"}, "fusion_lon": 0.0, "is_reserved": 0}, {"lat": 38.90778516666666, "fusion_lat": 0.0, "type": "electric_scooter", "name": "bd90b807f34632ee2ce0c2cfc49f83f5", "is_disabled": 0, "bike_id": "bd90b807f34632ee2ce0c2cfc49f83f5", "lon": -77.0716595, "rental_uris": {"android": "https://dc.lft.to/lastmile_qr_scan", "ios": "https://dc.lft.to/lastmile_qr_scan"}, "fusion_lon": 0.0, "is_reserved": 0}, {"lat": 38.9078045, "fusion_lat": 0.0, "type": "electric_scooter", "name": "2acf0fad28a3facb1456c3311335c33b", "is_disabled": 0, "bike_id": "2acf0fad28a3facb1456c3311335c33b", "lon": -77.027136, "rental_uris": {"android": "https://dc.lft.to/lastmile_qr_scan", "ios": "https://dc.lft.to/lastmile_qr_scan"}, "fusion_lon": 0.0, "is_reserved": 0}, {"lat": 38.92273566666667, "fusion_lat": 0.0, "type": "electric_scooter", "name": "66472f25e973fce0720f5ac1e73e407b", "is_disabled": 0, "bike_id": "66472f25e973fce0720f5ac1e73e407b", "lon": -77.042387, "rental_uris": {"android": "https://dc.lft.to/lastmile_qr_scan", "ios": "https://dc.lft.to/lastmile_qr_scan"}, "fusion_lon": 0.0, "is_reserved": 0}, {"lat": 38.95188783333333, "fusion_lat": 0.0, "type": "electric_scooter", "name": "174af2d589063ed0a80cc1f5e2429b7a", "is_disabled": 0, "bike_id": "174af2d589063ed0a80cc1f5e2429b7a", "lon": -77.02720633333334, "rental_uris": {"android": "https://dc.lft.to/lastmile_qr_scan", "ios": "https://dc.lft.to/lastmile_qr_scan"}, "fusion_lon": 0.0, "is_reserved": 0}, {"lat": 38.90171383333333, "fusion_lat": 0.0, "type": "electric_scooter", "name": "f5eeaafb530ecbf33782afc074567733", "is_disabled": 0, "bike_id": "f5eeaafb530ecbf33782afc074567733", "lon": -77.0473975, "rental_uris": {"android": "https://dc.lft.to/lastmile_qr_scan", "ios": "https://dc.lft.to/lastmile_qr_scan"}, "fusion_lon": 0.0, "is_reserved": 0}, {"lat": 38.917019, "fusion_lat": 0.0, "type": "electric_scooter", "name": "cf0e8463d327a4a62a4f098828ca1662", "is_disabled": 0, "bike_id": "cf0e8463d327a4a62a4f098828ca1662", "lon": -77.0347225, "rental_uris": {"android": "https://dc.lft.to/lastmile_qr_scan", "ios": "https://dc.lft.to/lastmile_qr_scan"}, "fusion_lon": 0.0, "is_reserved": 0}, {"lat": 38.89667766666667, "fusion_lat": 0.0, "type": "electric_scooter", "name": "eb4211acaf0947c78f725a5d5e31a2de", "is_disabled": 0, "bike_id": "eb4211acaf0947c78f725a5d5e31a2de", "lon": -76.93207033333333, "rental_uris": {"android": "https://dc.lft.to/lastmile_qr_scan", "ios": "https://dc.lft.to/lastmile_qr_scan"}, "fusion_lon": 0.0, "is_reserved": 0}, {"lat": 38.918093166666665, "fusion_lat": 0.0, "type": "electric_scooter", "name": "bdc5d8bd80032afc605d897a4bbfbde1", "is_disabled": 0, "bike_id": "bdc5d8bd80032afc605d897a4bbfbde1", "lon": -77.025105, "rental_uris": {"android": "https://dc.lft.to/lastmile_qr_scan", "ios": "https://dc.lft.to/lastmile_qr_scan"}, "fusion_lon": 0.0, "is_reserved": 0}, {"lat": 38.90733483333333, "fusion_lat": 0.0, "type": "electric_scooter", "name": "22a63f9cc88765bea9a8cd336fe78211", "is_disabled": 0, "bike_id": "22a63f9cc88765bea9a8cd336fe78211", "lon": -77.0232225, "rental_uris": {"android": "https://dc.lft.to/lastmile_qr_scan", "ios": "https://dc.lft.to/lastmile_qr_scan"}, "fusion_lon": 0.0, "is_reserved": 0}, {"lat": 38.938604833333336, "fusion_lat": 0.0, "type": "electric_scooter", "name": "1ecd628cc6e197cb8aa082868fe87de8", "is_disabled": 0, "bike_id": "1ecd628cc6e197cb8aa082868fe87de8", "lon": -77.02451866666667, "rental_uris": {"android": "https://dc.lft.to/lastmile_qr_scan", "ios": "https://dc.lft.to/lastmile_qr_scan"}, "fusion_lon": 0.0, "is_reserved": 0}, {"lat": 38.9219395, "fusion_lat": 0.0, "type": "electric_scooter", "name": "6662d4dd4731c3257543c1086bed112e", "is_disabled": 0, "bike_id": "6662d4dd4731c3257543c1086bed112e", "lon": -77.04015783333334, "rental_uris": {"android": "https://dc.lft.to/lastmile_qr_scan", "ios": "https://dc.lft.to/lastmile_qr_scan"}, "fusion_lon": 0.0, "is_reserved": 0}, {"lat": 38.90062266666666, "fusion_lat": 0.0, "type": "electric_scooter", "name": "b09cf77be4e4a7d524683d4a630cb284", "is_disabled": 0, "bike_id": "b09cf77be4e4a7d524683d4a630cb284", "lon": -76.99622166666667, "rental_uris": {"android": "https://dc.lft.to/lastmile_qr_scan", "ios": "https://dc.lft.to/lastmile_qr_scan"}, "fusion_lon": 0.0, "is_reserved": 0}, {"lat": 38.907307833333334, "fusion_lat": 0.0, "type": "electric_scooter", "name": "5022638af89c8e5ab09a62791590b6c1", "is_disabled": 0, "bike_id": "5022638af89c8e5ab09a62791590b6c1", "lon": -77.04248983333333, "rental_uris": {"android": "https://dc.lft.to/lastmile_qr_scan", "ios": "https://dc.lft.to/lastmile_qr_scan"}, "fusion_lon": 0.0, "is_reserved": 0}, {"lat": 38.9077825, "fusion_lat": 0.0, "type": "electric_scooter", "name": "e64da8f869f205ae75836e4e0707e2a4", "is_disabled": 0, "bike_id": "e64da8f869f205ae75836e4e0707e2a4", "lon": -77.02967916666667, "rental_uris": {"android": "https://dc.lft.to/lastmile_qr_scan", "ios": "https://dc.lft.to/lastmile_qr_scan"}, "fusion_lon": 0.0, "is_reserved": 0}, {"lat": 38.92734383333333, "fusion_lat": 0.0, "type": "electric_scooter", "name": "b4dab042127c8270d350ec4f9e8285f7", "is_disabled": 0, "bike_id": "b4dab042127c8270d350ec4f9e8285f7", "lon": -77.03425216666666, "rental_uris": {"android": "https://dc.lft.to/lastmile_qr_scan", "ios": "https://dc.lft.to/lastmile_qr_scan"}, "fusion_lon": 0.0, "is_reserved": 0}, {"lat": 38.8869215, "fusion_lat": 0.0, "type": "electric_scooter", "name": "5481292fe190ad8878ff973bd2822d53", "is_disabled": 0, "bike_id": "5481292fe190ad8878ff973bd2822d53", "lon": -77.03360233333333, "rental_uris": {"android": "https://dc.lft.to/lastmile_qr_scan", "ios": "https://dc.lft.to/lastmile_qr_scan"}, "fusion_lon": 0.0, "is_reserved": 0}, {"lat": 38.892280666666665, "fusion_lat": 0.0, "type": "electric_scooter", "name": "309f41200970c8b75244aefc8fa2f127", "is_disabled": 0, "bike_id": "309f41200970c8b75244aefc8fa2f127", "lon": -77.02210933333333, "rental_uris": {"android": "https://dc.lft.to/lastmile_qr_scan", "ios": "https://dc.lft.to/lastmile_qr_scan"}, "fusion_lon": 0.0, "is_reserved": 0}, {"lat": 38.89481033333333, "fusion_lat": 0.0, "type": "electric_scooter", "name": "30e223610675d83903d46769ae4a0a3c", "is_disabled": 0, "bike_id": "30e223610675d83903d46769ae4a0a3c", "lon": -76.94862083333334, "rental_uris": {"android": "https://dc.lft.to/lastmile_qr_scan", "ios": "https://dc.lft.to/lastmile_qr_scan"}, "fusion_lon": 0.0, "is_reserved": 0}, {"lat": 38.90108983333333, "fusion_lat": 0.0, "type": "electric_scooter", "name": "b0673ae161316d74a0c22e7460d3387c", "is_disabled": 0, "bike_id": "b0673ae161316d74a0c22e7460d3387c", "lon": -77.0324875, "rental_uris": {"android": "https://dc.lft.to/lastmile_qr_scan", "ios": "https://dc.lft.to/lastmile_qr_scan"}, "fusion_lon": 0.0, "is_reserved": 0}, {"lat": 38.9401565, "fusion_lat": 0.0, "type": "electric_scooter", "name": "b42065d2febd14457b33c57f357867e1", "is_disabled": 0, "bike_id": "b42065d2febd14457b33c57f357867e1", "lon": -76.9761315, "rental_uris": {"android": "https://dc.lft.to/lastmile_qr_scan", "ios": "https://dc.lft.to/lastmile_qr_scan"}, "fusion_lon": 0.0, "is_reserved": 0}, {"lat": 38.877164, "fusion_lat": 0.0, "type": "electric_scooter", "name": "b35cd97dc61fe4bcfb980a6dcc475976", "is_disabled": 0, "bike_id": "b35cd97dc61fe4bcfb980a6dcc475976", "lon": -77.00525283333333, "rental_uris": {"android": "https://dc.lft.to/lastmile_qr_scan", "ios": "https://dc.lft.to/lastmile_qr_scan"}, "fusion_lon": 0.0, "is_reserved": 0}, {"lat": 38.9101945, "fusion_lat": 0.0, "type": "electric_scooter", "name": "f9ffbf431d9d9596b625f5b7e4e54459", "is_disabled": 0, "bike_id": "f9ffbf431d9d9596b625f5b7e4e54459", "lon": -77.03854616666666, "rental_uris": {"android": "https://dc.lft.to/lastmile_qr_scan", "ios": "https://dc.lft.to/lastmile_qr_scan"}, "fusion_lon": 0.0, "is_reserved": 0}, {"lat": 38.91933366666667, "fusion_lat": 0.0, "type": "electric_scooter", "name": "5aae5685fe74ed52fe4789c9bfdd7687", "is_disabled": 0, "bike_id": "5aae5685fe74ed52fe4789c9bfdd7687", "lon": -77.03254716666666, "rental_uris": {"android": "https://dc.lft.to/lastmile_qr_scan", "ios": "https://dc.lft.to/lastmile_qr_scan"}, "fusion_lon": 0.0, "is_reserved": 0}, {"lat": 38.956147333333334, "fusion_lat": 0.0, "type": "electric_scooter", "name": "0e4407bbab3b0afd8758678bead3fae2", "is_disabled": 0, "bike_id": "0e4407bbab3b0afd8758678bead3fae2", "lon": -77.02758733333333, "rental_uris": {"android": "https://dc.lft.to/lastmile_qr_scan", "ios": "https://dc.lft.to/lastmile_qr_scan"}, "fusion_lon": 0.0, "is_reserved": 0}, {"lat": 38.91680133333333, "fusion_lat": 0.0, "type": "electric_scooter", "name": "ab7590c9f4b162d5a51ac4045072b5e1", "is_disabled": 0, "bike_id": "ab7590c9f4b162d5a51ac4045072b5e1", "lon": -77.028038, "rental_uris": {"android": "https://dc.lft.to/lastmile_qr_scan", "ios": "https://dc.lft.to/lastmile_qr_scan"}, "fusion_lon": 0.0, "is_reserved": 0}, {"lat": 38.91165516666667, "fusion_lat": 0.0, "type": "electric_scooter", "name": "028be916f35a13ed0f503a3bf1b736bf", "is_disabled": 0, "bike_id": "028be916f35a13ed0f503a3bf1b736bf", "lon": -77.077552, "rental_uris": {"android": "https://dc.lft.to/lastmile_qr_scan", "ios": "https://dc.lft.to/lastmile_qr_scan"}, "fusion_lon": 0.0, "is_reserved": 0}, {"lat": 38.895050833333336, "fusion_lat": 0.0, "type": "electric_scooter", "name": "e158c7eb5d1bcc6506538ca10dfed5f3", "is_disabled": 0, "bike_id": "e158c7eb5d1bcc6506538ca10dfed5f3", "lon": -77.04674633333333, "rental_uris": {"android": "https://dc.lft.to/lastmile_qr_scan", "ios": "https://dc.lft.to/lastmile_qr_scan"}, "fusion_lon": 0.0, "is_reserved": 0}, {"lat": 38.892271666666666, "fusion_lat": 0.0, "type": "electric_scooter", "name": "da99934822dd7d34f8bc66dcc44be77e", "is_disabled": 0, "bike_id": "da99934822dd7d34f8bc66dcc44be77e", "lon": -77.02388033333334, "rental_uris": {"android": "https://dc.lft.to/lastmile_qr_scan", "ios": "https://dc.lft.to/lastmile_qr_scan"}, "fusion_lon": 0.0, "is_reserved": 0}, {"lat": 38.898681, "fusion_lat": 0.0, "type": "electric_scooter", "name": "7481fad8c26aa0234419e0271d8bf14f", "is_disabled": 0, "bike_id": "7481fad8c26aa0234419e0271d8bf14f", "lon": -76.94635883333333, "rental_uris": {"android": "https://dc.lft.to/lastmile_qr_scan", "ios": "https://dc.lft.to/lastmile_qr_scan"}, "fusion_lon": 0.0, "is_reserved": 0}, {"lat": 38.906221, "fusion_lat": 0.0, "type": "electric_scooter", "name": "d945ae981a69588fa3f1a9b77ed4b641", "is_disabled": 0, "bike_id": "d945ae981a69588fa3f1a9b77ed4b641", "lon": -77.0414205, "rental_uris": {"android": "https://dc.lft.to/lastmile_qr_scan", "ios": "https://dc.lft.to/lastmile_qr_scan"}, "fusion_lon": 0.0, "is_reserved": 0}, {"lat": 38.892237333333334, "fusion_lat": 0.0, "type": "electric_scooter", "name": "9aab566175a4014d3f31dea93750a616", "is_disabled": 0, "bike_id": "9aab566175a4014d3f31dea93750a616", "lon": -77.0437395, "rental_uris": {"android": "https://dc.lft.to/lastmile_qr_scan", "ios": "https://dc.lft.to/lastmile_qr_scan"}, "fusion_lon": 0.0, "is_reserved": 0}, {"lat": 38.91548, "fusion_lat": 0.0, "type": "electric_scooter", "name": "980c74d09db6c795dc8254be7176507e", "is_disabled": 0, "bike_id": "980c74d09db6c795dc8254be7176507e", "lon": -77.0271015, "rental_uris": {"android": "https://dc.lft.to/lastmile_qr_scan", "ios": "https://dc.lft.to/lastmile_qr_scan"}, "fusion_lon": 0.0, "is_reserved": 0}, {"lat": 38.86517666666667, "fusion_lat": 0.0, "type": "electric_scooter", "name": "9309673532deed3849b272b29d5c512b", "is_disabled": 0, "bike_id": "9309673532deed3849b272b29d5c512b", "lon": -76.97328966666667, "rental_uris": {"android": "https://dc.lft.to/lastmile_qr_scan", "ios": "https://dc.lft.to/lastmile_qr_scan"}, "fusion_lon": 0.0, "is_reserved": 0}, {"lat": 38.920851166666665, "fusion_lat": 0.0, "type": "electric_scooter", "name": "42420b95310faf9956a5a7f00128431d", "is_disabled": 0, "bike_id": "42420b95310faf9956a5a7f00128431d", "lon": -77.02520583333333, "rental_uris": {"android": "https://dc.lft.to/lastmile_qr_scan", "ios": "https://dc.lft.to/lastmile_qr_scan"}, "fusion_lon": 0.0, "is_reserved": 0}, {"lat": 38.92311333333333, "fusion_lat": 0.0, "type": "electric_scooter", "name": "2e32a7b6fe75d56b63e4dbe9fcd6ac25", "is_disabled": 0, "bike_id": "2e32a7b6fe75d56b63e4dbe9fcd6ac25", "lon": -77.02132233333333, "rental_uris": {"android": "https://dc.lft.to/lastmile_qr_scan", "ios": "https://dc.lft.to/lastmile_qr_scan"}, "fusion_lon": 0.0, "is_reserved": 0}, {"lat": 38.92270583333333, "fusion_lat": 0.0, "type": "electric_scooter", "name": "baf549075d9dbedd901a051b52d62068", "is_disabled": 0, "bike_id": "baf549075d9dbedd901a051b52d62068", "lon": -77.042361, "rental_uris": {"android": "https://dc.lft.to/lastmile_qr_scan", "ios": "https://dc.lft.to/lastmile_qr_scan"}, "fusion_lon": 0.0, "is_reserved": 0}, {"lat": 38.9023665, "fusion_lat": 0.0, "type": "electric_scooter", "name": "dd4dc88cbd34e8244770759be0a02397", "is_disabled": 0, "bike_id": "dd4dc88cbd34e8244770759be0a02397", "lon": -77.04566616666666, "rental_uris": {"android": "https://dc.lft.to/lastmile_qr_scan", "ios": "https://dc.lft.to/lastmile_qr_scan"}, "fusion_lon": 0.0, "is_reserved": 0}, {"lat": 38.8600415, "fusion_lat": 0.0, "type": "electric_scooter", "name": "a38d7540f0fa95d2b1d8450886b9a78f", "is_disabled": 0, "bike_id": "a38d7540f0fa95d2b1d8450886b9a78f", "lon": -76.98512133333334, "rental_uris": {"android": "https://dc.lft.to/lastmile_qr_scan", "ios": "https://dc.lft.to/lastmile_qr_scan"}, "fusion_lon": 0.0, "is_reserved": 0}, {"lat": 38.933196, "fusion_lat": 0.0, "type": "electric_scooter", "name": "202e8361ade50e7b120c88671424dd2e", "is_disabled": 0, "bike_id": "202e8361ade50e7b120c88671424dd2e", "lon": -77.0343095, "rental_uris": {"android": "https://dc.lft.to/lastmile_qr_scan", "ios": "https://dc.lft.to/lastmile_qr_scan"}, "fusion_lon": 0.0, "is_reserved": 0}, {"lat": 38.902331333333336, "fusion_lat": 0.0, "type": "electric_scooter", "name": "fa99a0ebd3653c49d8bf8346028436f1", "is_disabled": 0, "bike_id": "fa99a0ebd3653c49d8bf8346028436f1", "lon": -77.0590825, "rental_uris": {"android": "https://dc.lft.to/lastmile_qr_scan", "ios": "https://dc.lft.to/lastmile_qr_scan"}, "fusion_lon": 0.0, "is_reserved": 0}, {"lat": 38.90266233333333, "fusion_lat": 0.0, "type": "electric_scooter", "name": "a23b0dbea5c5a18b0676f66918f1be2c", "is_disabled": 0, "bike_id": "a23b0dbea5c5a18b0676f66918f1be2c", "lon": -77.03044966666667, "rental_uris": {"android": "https://dc.lft.to/lastmile_qr_scan", "ios": "https://dc.lft.to/lastmile_qr_scan"}, "fusion_lon": 0.0, "is_reserved": 0}, {"lat": 38.90597733333333, "fusion_lat": 0.0, "type": "electric_scooter", "name": "404690a0c1f0d5416192a20a61dbb6ed", "is_disabled": 0, "bike_id": "404690a0c1f0d5416192a20a61dbb6ed", "lon": -77.04040933333333, "rental_uris": {"android": "https://dc.lft.to/lastmile_qr_scan", "ios": "https://dc.lft.to/lastmile_qr_scan"}, "fusion_lon": 0.0, "is_reserved": 0}, {"lat": 38.902648, "fusion_lat": 0.0, "type": "electric_scooter", "name": "3456899944b9a3d7879050252d1956e7", "is_disabled": 0, "bike_id": "3456899944b9a3d7879050252d1956e7", "lon": -77.00324716666667, "rental_uris": {"android": "https://dc.lft.to/lastmile_qr_scan", "ios": "https://dc.lft.to/lastmile_qr_scan"}, "fusion_lon": 0.0, "is_reserved": 0}, {"lat": 38.988596333333334, "fusion_lat": 0.0, "type": "electric_bike", "name": "e282f4a0b461219230df1def4080ea24", "is_disabled": 0, "bike_id": "e282f4a0b461219230df1def4080ea24", "lon": -77.096543, "rental_uris": {"android": "https://dc.lft.to/lastmile_qr_scan", "ios": "https://dc.lft.to/lastmile_qr_scan"}, "fusion_lon": 0.0, "is_reserved": 0}, {"lat": 38.90408166666667, "fusion_lat": 0.0, "type": "electric_scooter", "name": "67f7c8ab5a6c954b09910c060137118d", "is_disabled": 0, "bike_id": "67f7c8ab5a6c954b09910c060137118d", "lon": -76.97330416666667, "rental_uris": {"android": "https://dc.lft.to/lastmile_qr_scan", "ios": "https://dc.lft.to/lastmile_qr_scan"}, "fusion_lon": 0.0, "is_reserved": 0}, {"lat": 38.90683766666667, "fusion_lat": 0.0, "type": "electric_scooter", "name": "1c50ee938e09956f54fee071d45dd1d2", "is_disabled": 0, "bike_id": "1c50ee938e09956f54fee071d45dd1d2", "lon": -77.02695116666666, "rental_uris": {"android": "https://dc.lft.to/lastmile_qr_scan", "ios": "https://dc.lft.to/lastmile_qr_scan"}, "fusion_lon": 0.0, "is_reserved": 0}, {"lat": 38.904539166666666, "fusion_lat": 0.0, "type": "electric_scooter", "name": "a8a0a5f01e45a57807a609d2a31e8623", "is_disabled": 0, "bike_id": "a8a0a5f01e45a57807a609d2a31e8623", "lon": -77.05915333333333, "rental_uris": {"android": "https://dc.lft.to/lastmile_qr_scan", "ios": "https://dc.lft.to/lastmile_qr_scan"}, "fusion_lon": 0.0, "is_reserved": 0}, {"lat": 38.910267166666664, "fusion_lat": 0.0, "type": "electric_scooter", "name": "21980cad76a55a0ffec8769642cb6494", "is_disabled": 0, "bike_id": "21980cad76a55a0ffec8769642cb6494", "lon": -77.0344645, "rental_uris": {"android": "https://dc.lft.to/lastmile_qr_scan", "ios": "https://dc.lft.to/lastmile_qr_scan"}, "fusion_lon": 0.0, "is_reserved": 0}, {"lat": 38.88657116666667, "fusion_lat": 0.0, "type": "electric_bike", "name": "6d17b97657f47752fb429b4685d199dc", "is_disabled": 0, "bike_id": "6d17b97657f47752fb429b4685d199dc", "lon": -77.162362, "rental_uris": {"android": "https://dc.lft.to/lastmile_qr_scan", "ios": "https://dc.lft.to/lastmile_qr_scan"}, "fusion_lon": 0.0, "is_reserved": 0}, {"lat": 38.9010375, "fusion_lat": 0.0, "type": "electric_scooter", "name": "43b1d3ba0aee35f5a477131604cb52e2", "is_disabled": 0, "bike_id": "43b1d3ba0aee35f5a477131604cb52e2", "lon": -76.995023, "rental_uris": {"android": "https://dc.lft.to/lastmile_qr_scan", "ios": "https://dc.lft.to/lastmile_qr_scan"}, "fusion_lon": 0.0, "is_reserved": 0}, {"lat": 38.8812225, "fusion_lat": 0.0, "type": "electric_scooter", "name": "adb85002b16b738a5880ff6228eb86e1", "is_disabled": 0, "bike_id": "adb85002b16b738a5880ff6228eb86e1", "lon": -77.0167455, "rental_uris": {"android": "https://dc.lft.to/lastmile_qr_scan", "ios": "https://dc.lft.to/lastmile_qr_scan"}, "fusion_lon": 0.0, "is_reserved": 0}, {"lat": 38.89375916666667, "fusion_lat": 0.0, "type": "electric_scooter", "name": "30e86f49d7436fc5b5da06ef7aa19442", "is_disabled": 0, "bike_id": "30e86f49d7436fc5b5da06ef7aa19442", "lon": -77.0217835, "rental_uris": {"android": "https://dc.lft.to/lastmile_qr_scan", "ios": "https://dc.lft.to/lastmile_qr_scan"}, "fusion_lon": 0.0, "is_reserved": 0}, {"lat": 38.90303, "fusion_lat": 0.0, "type": "electric_scooter", "name": "ebd07ad350d803642d4828982b23dd93", "is_disabled": 0, "bike_id": "ebd07ad350d803642d4828982b23dd93", "lon": -77.03450666666667, "rental_uris": {"android": "https://dc.lft.to/lastmile_qr_scan", "ios": "https://dc.lft.to/lastmile_qr_scan"}, "fusion_lon": 0.0, "is_reserved": 0}, {"lat": 38.89420466666667, "fusion_lat": 0.0, "type": "electric_scooter", "name": "e6d7b29c04698ebb25bfac8fc4be182a", "is_disabled": 0, "bike_id": "e6d7b29c04698ebb25bfac8fc4be182a", "lon": -77.04425283333333, "rental_uris": {"android": "https://dc.lft.to/lastmile_qr_scan", "ios": "https://dc.lft.to/lastmile_qr_scan"}, "fusion_lon": 0.0, "is_reserved": 0}, {"lat": 38.913995666666665, "fusion_lat": 0.0, "type": "electric_scooter", "name": "3e55e9dc414a7cc503a9ce8bd8ff9fb7", "is_disabled": 0, "bike_id": "3e55e9dc414a7cc503a9ce8bd8ff9fb7", "lon": -77.014147, "rental_uris": {"android": "https://dc.lft.to/lastmile_qr_scan", "ios": "https://dc.lft.to/lastmile_qr_scan"}, "fusion_lon": 0.0, "is_reserved": 0}, {"lat": 38.906349166666665, "fusion_lat": 0.0, "type": "electric_scooter", "name": "3ececa6e688a56551c148a987e03958e", "is_disabled": 0, "bike_id": "3ececa6e688a56551c148a987e03958e", "lon": -77.038618, "rental_uris": {"android": "https://dc.lft.to/lastmile_qr_scan", "ios": "https://dc.lft.to/lastmile_qr_scan"}, "fusion_lon": 0.0, "is_reserved": 0}, {"lat": 38.91377166666667, "fusion_lat": 0.0, "type": "electric_bike", "name": "a246f587c9f3e790b739ff9a62736901", "is_disabled": 0, "bike_id": "a246f587c9f3e790b739ff9a62736901", "lon": -77.008118, "rental_uris": {"android": "https://dc.lft.to/lastmile_qr_scan", "ios": "https://dc.lft.to/lastmile_qr_scan"}, "fusion_lon": 0.0, "is_reserved": 0}, {"lat": 38.8869725, "fusion_lat": 0.0, "type": "electric_scooter", "name": "b26e8e5fff7701e63f24427ed7fe0ca2", "is_disabled": 0, "bike_id": "b26e8e5fff7701e63f24427ed7fe0ca2", "lon": -77.00051033333334, "rental_uris": {"android": "https://dc.lft.to/lastmile_qr_scan", "ios": "https://dc.lft.to/lastmile_qr_scan"}, "fusion_lon": 0.0, "is_reserved": 0}, {"lat": 38.87371433333333, "fusion_lat": 0.0, "type": "electric_scooter", "name": "a5084d0ca426a134572b136d03acd467", "is_disabled": 0, "bike_id": "a5084d0ca426a134572b136d03acd467", "lon": -77.00109566666667, "rental_uris": {"android": "https://dc.lft.to/lastmile_qr_scan", "ios": "https://dc.lft.to/lastmile_qr_scan"}, "fusion_lon": 0.0, "is_reserved": 0}, {"lat": 38.89996083333333, "fusion_lat": 0.0, "type": "electric_scooter", "name": "1a8d9d371ad4a5799d574e0cfb8f1a20", "is_disabled": 0, "bike_id": "1a8d9d371ad4a5799d574e0cfb8f1a20", "lon": -76.98553433333333, "rental_uris": {"android": "https://dc.lft.to/lastmile_qr_scan", "ios": "https://dc.lft.to/lastmile_qr_scan"}, "fusion_lon": 0.0, "is_reserved": 0}, {"lat": 38.91954333333334, "fusion_lat": 0.0, "type": "electric_scooter", "name": "49c08be07c07e0c2810e0e4d3eee1170", "is_disabled": 0, "bike_id": "49c08be07c07e0c2810e0e4d3eee1170", "lon": -77.0417465, "rental_uris": {"android": "https://dc.lft.to/lastmile_qr_scan", "ios": "https://dc.lft.to/lastmile_qr_scan"}, "fusion_lon": 0.0, "is_reserved": 0}, {"lat": 38.9054365, "fusion_lat": 0.0, "type": "electric_scooter", "name": "b39bc627ca7292f6d14c24c8245b02ca", "is_disabled": 0, "bike_id": "b39bc627ca7292f6d14c24c8245b02ca", "lon": -77.04175533333333, "rental_uris": {"android": "https://dc.lft.to/lastmile_qr_scan", "ios": "https://dc.lft.to/lastmile_qr_scan"}, "fusion_lon": 0.0, "is_reserved": 0}, {"lat": 38.9145825, "fusion_lat": 0.0, "type": "electric_scooter", "name": "811b750db0ecc60e99c5dade5a29fcf1", "is_disabled": 0, "bike_id": "811b750db0ecc60e99c5dade5a29fcf1", "lon": -77.00216916666666, "rental_uris": {"android": "https://dc.lft.to/lastmile_qr_scan", "ios": "https://dc.lft.to/lastmile_qr_scan"}, "fusion_lon": 0.0, "is_reserved": 0}, {"lat": 38.8849345, "fusion_lat": 0.0, "type": "electric_bike", "name": "182ef89331d80f999d5ec684a67d64d4", "is_disabled": 0, "bike_id": "182ef89331d80f999d5ec684a67d64d4", "lon": -76.95662283333333, "rental_uris": {"android": "https://dc.lft.to/lastmile_qr_scan", "ios": "https://dc.lft.to/lastmile_qr_scan"}, "fusion_lon": 0.0, "is_reserved": 0}, {"lat": 38.887665166666665, "fusion_lat": 0.0, "type": "electric_scooter", "name": "dfb38022fa8c073e0947a153acc423ac", "is_disabled": 0, "bike_id": "dfb38022fa8c073e0947a153acc423ac", "lon": -77.022273, "rental_uris": {"android": "https://dc.lft.to/lastmile_qr_scan", "ios": "https://dc.lft.to/lastmile_qr_scan"}, "fusion_lon": 0.0, "is_reserved": 0}, {"lat": 38.924476166666665, "fusion_lat": 0.0, "type": "electric_scooter", "name": "335bbc8d6e6d4970786546f42efec147", "is_disabled": 0, "bike_id": "335bbc8d6e6d4970786546f42efec147", "lon": -77.0402055, "rental_uris": {"android": "https://dc.lft.to/lastmile_qr_scan", "ios": "https://dc.lft.to/lastmile_qr_scan"}, "fusion_lon": 0.0, "is_reserved": 0}, {"lat": 38.90674666666666, "fusion_lat": 0.0, "type": "electric_scooter", "name": "9158bc8d6994458be4c3e995dfa43637", "is_disabled": 0, "bike_id": "9158bc8d6994458be4c3e995dfa43637", "lon": -76.979975, "rental_uris": {"android": "https://dc.lft.to/lastmile_qr_scan", "ios": "https://dc.lft.to/lastmile_qr_scan"}, "fusion_lon": 0.0, "is_reserved": 0}, {"lat": 38.917341, "fusion_lat": 0.0, "type": "electric_scooter", "name": "21571b53530bd51a66226930a64d94ec", "is_disabled": 0, "bike_id": "21571b53530bd51a66226930a64d94ec", "lon": -77.03642316666667, "rental_uris": {"android": "https://dc.lft.to/lastmile_qr_scan", "ios": "https://dc.lft.to/lastmile_qr_scan"}, "fusion_lon": 0.0, "is_reserved": 0}, {"lat": 38.918342, "fusion_lat": 0.0, "type": "electric_scooter", "name": "1db19c516a95cb5822a03b453da38d31", "is_disabled": 0, "bike_id": "1db19c516a95cb5822a03b453da38d31", "lon": -77.03453533333334, "rental_uris": {"android": "https://dc.lft.to/lastmile_qr_scan", "ios": "https://dc.lft.to/lastmile_qr_scan"}, "fusion_lon": 0.0, "is_reserved": 0}, {"lat": 38.893615833333335, "fusion_lat": 0.0, "type": "electric_scooter", "name": "0af5867bb3090edae01f5d4d88903a76", "is_disabled": 0, "bike_id": "0af5867bb3090edae01f5d4d88903a76", "lon": -77.02855033333333, "rental_uris": {"android": "https://dc.lft.to/lastmile_qr_scan", "ios": "https://dc.lft.to/lastmile_qr_scan"}, "fusion_lon": 0.0, "is_reserved": 0}, {"lat": 38.85791833333333, "fusion_lat": 0.0, "type": "electric_bike", "name": "1199316ee64d2e948a68bc07eab9779d", "is_disabled": 0, "bike_id": "1199316ee64d2e948a68bc07eab9779d", "lon": -77.0996215, "rental_uris": {"android": "https://dc.lft.to/lastmile_qr_scan", "ios": "https://dc.lft.to/lastmile_qr_scan"}, "fusion_lon": 0.0, "is_reserved": 0}, {"lat": 38.913485333333334, "fusion_lat": 0.0, "type": "electric_scooter", "name": "471e5e432b3b48020565e2831dc81b3c", "is_disabled": 0, "bike_id": "471e5e432b3b48020565e2831dc81b3c", "lon": -77.031915, "rental_uris": {"android": "https://dc.lft.to/lastmile_qr_scan", "ios": "https://dc.lft.to/lastmile_qr_scan"}, "fusion_lon": 0.0, "is_reserved": 0}, {"lat": 39.03299333333333, "fusion_lat": 0.0, "type": "electric_bike", "name": "719cab6be844e2b609fd5dda1718bd2a", "is_disabled": 0, "bike_id": "719cab6be844e2b609fd5dda1718bd2a", "lon": -77.0452065, "rental_uris": {"android": "https://dc.lft.to/lastmile_qr_scan", "ios": "https://dc.lft.to/lastmile_qr_scan"}, "fusion_lon": 0.0, "is_reserved": 0}, {"lat": 38.9042555, "fusion_lat": 0.0, "type": "electric_bike", "name": "da71f86eca7d5571ad70007694393ba2", "is_disabled": 0, "bike_id": "da71f86eca7d5571ad70007694393ba2", "lon": -76.97234833333333, "rental_uris": {"android": "https://dc.lft.to/lastmile_qr_scan", "ios": "https://dc.lft.to/lastmile_qr_scan"}, "fusion_lon": 0.0, "is_reserved": 0}, {"lat": 38.90352216666667, "fusion_lat": 0.0, "type": "electric_scooter", "name": "e17789609714ac7ee8fa5d327a860557", "is_disabled": 0, "bike_id": "e17789609714ac7ee8fa5d327a860557", "lon": -77.03323233333333, "rental_uris": {"android": "https://dc.lft.to/lastmile_qr_scan", "ios": "https://dc.lft.to/lastmile_qr_scan"}, "fusion_lon": 0.0, "is_reserved": 0}, {"lat": 38.98106, "fusion_lat": 0.0, "type": "electric_scooter", "name": "c51f749df8dc6253e28d660f8e1a1ac6", "is_disabled": 0, "bike_id": "c51f749df8dc6253e28d660f8e1a1ac6", "lon": -77.02239916666667, "rental_uris": {"android": "https://dc.lft.to/lastmile_qr_scan", "ios": "https://dc.lft.to/lastmile_qr_scan"}, "fusion_lon": 0.0, "is_reserved": 0}, {"lat": 38.930459666666664, "fusion_lat": 0.0, "type": "electric_bike", "name": "25110cda9f8c2251e0613f07ed6db9dd", "is_disabled": 0, "bike_id": "25110cda9f8c2251e0613f07ed6db9dd", "lon": -76.9583355, "rental_uris": {"android": "https://dc.lft.to/lastmile_qr_scan", "ios": "https://dc.lft.to/lastmile_qr_scan"}, "fusion_lon": 0.0, "is_reserved": 0}, {"lat": 38.87177366666667, "fusion_lat": 0.0, "type": "electric_scooter", "name": "9fcd713ae39116f19ede68edcc2d6245", "is_disabled": 0, "bike_id": "9fcd713ae39116f19ede68edcc2d6245", "lon": -77.00606033333334, "rental_uris": {"android": "https://dc.lft.to/lastmile_qr_scan", "ios": "https://dc.lft.to/lastmile_qr_scan"}, "fusion_lon": 0.0, "is_reserved": 0}, {"lat": 38.923773, "fusion_lat": 0.0, "type": "electric_scooter", "name": "274469b556692a7aad573ef602ca65ab", "is_disabled": 0, "bike_id": "274469b556692a7aad573ef602ca65ab", "lon": -77.05151033333334, "rental_uris": {"android": "https://dc.lft.to/lastmile_qr_scan", "ios": "https://dc.lft.to/lastmile_qr_scan"}, "fusion_lon": 0.0, "is_reserved": 0}, {"lat": 38.9002585, "fusion_lat": 0.0, "type": "electric_scooter", "name": "3b5e0efbf55fa1e94db458d350367a3b", "is_disabled": 0, "bike_id": "3b5e0efbf55fa1e94db458d350367a3b", "lon": -76.98773716666666, "rental_uris": {"android": "https://dc.lft.to/lastmile_qr_scan", "ios": "https://dc.lft.to/lastmile_qr_scan"}, "fusion_lon": 0.0, "is_reserved": 0}, {"lat": 38.900804666666666, "fusion_lat": 0.0, "type": "electric_scooter", "name": "d93ae946249da2c1fd58c184cffef8bb", "is_disabled": 0, "bike_id": "d93ae946249da2c1fd58c184cffef8bb", "lon": -77.0245865, "rental_uris": {"android": "https://dc.lft.to/lastmile_qr_scan", "ios": "https://dc.lft.to/lastmile_qr_scan"}, "fusion_lon": 0.0, "is_reserved": 0}, {"lat": 38.9026515, "fusion_lat": 0.0, "type": "electric_scooter", "name": "d10f4592b425b7ea40f38f4f5b59cb60", "is_disabled": 0, "bike_id": "d10f4592b425b7ea40f38f4f5b59cb60", "lon": -77.05916683333334, "rental_uris": {"android": "https://dc.lft.to/lastmile_qr_scan", "ios": "https://dc.lft.to/lastmile_qr_scan"}, "fusion_lon": 0.0, "is_reserved": 0}, {"lat": 38.92054366666667, "fusion_lat": 0.0, "type": "electric_scooter", "name": "32c4f23da783041da76652303e9e980b", "is_disabled": 0, "bike_id": "32c4f23da783041da76652303e9e980b", "lon": -77.02538083333333, "rental_uris": {"android": "https://dc.lft.to/lastmile_qr_scan", "ios": "https://dc.lft.to/lastmile_qr_scan"}, "fusion_lon": 0.0, "is_reserved": 0}, {"lat": 38.91604183333333, "fusion_lat": 0.0, "type": "electric_scooter", "name": "0c26319bddf340f0ee82120aa2a1c066", "is_disabled": 0, "bike_id": "0c26319bddf340f0ee82120aa2a1c066", "lon": -77.04474333333333, "rental_uris": {"android": "https://dc.lft.to/lastmile_qr_scan", "ios": "https://dc.lft.to/lastmile_qr_scan"}, "fusion_lon": 0.0, "is_reserved": 0}, {"lat": 38.89356766666667, "fusion_lat": 0.0, "type": "electric_scooter", "name": "8e3fb96af1922b7ad4e374eeb109c087", "is_disabled": 0, "bike_id": "8e3fb96af1922b7ad4e374eeb109c087", "lon": -77.0285205, "rental_uris": {"android": "https://dc.lft.to/lastmile_qr_scan", "ios": "https://dc.lft.to/lastmile_qr_scan"}, "fusion_lon": 0.0, "is_reserved": 0}, {"lat": 38.91846566666667, "fusion_lat": 0.0, "type": "electric_scooter", "name": "e29f0605c3c3880ec549b721568126dc", "is_disabled": 0, "bike_id": "e29f0605c3c3880ec549b721568126dc", "lon": -77.03193283333333, "rental_uris": {"android": "https://dc.lft.to/lastmile_qr_scan", "ios": "https://dc.lft.to/lastmile_qr_scan"}, "fusion_lon": 0.0, "is_reserved": 0}, {"lat": 38.88558583333333, "fusion_lat": 0.0, "type": "electric_scooter", "name": "16d801b6592d496e3b4a7b4cbcf94f83", "is_disabled": 0, "bike_id": "16d801b6592d496e3b4a7b4cbcf94f83", "lon": -76.99813383333333, "rental_uris": {"android": "https://dc.lft.to/lastmile_qr_scan", "ios": "https://dc.lft.to/lastmile_qr_scan"}, "fusion_lon": 0.0, "is_reserved": 0}, {"lat": 38.9419025, "fusion_lat": 0.0, "type": "electric_scooter", "name": "6cb0ac7032dd32d92919366a82428b39", "is_disabled": 0, "bike_id": "6cb0ac7032dd32d92919366a82428b39", "lon": -77.03838083333333, "rental_uris": {"android": "https://dc.lft.to/lastmile_qr_scan", "ios": "https://dc.lft.to/lastmile_qr_scan"}, "fusion_lon": 0.0, "is_reserved": 0}, {"lat": 38.8907555, "fusion_lat": 0.0, "type": "electric_scooter", "name": "3992f303830d9c15d782514f05e04f8d", "is_disabled": 0, "bike_id": "3992f303830d9c15d782514f05e04f8d", "lon": -77.03329066666667, "rental_uris": {"android": "https://dc.lft.to/lastmile_qr_scan", "ios": "https://dc.lft.to/lastmile_qr_scan"}, "fusion_lon": 0.0, "is_reserved": 0}, {"lat": 38.892241, "fusion_lat": 0.0, "type": "electric_scooter", "name": "350682f4fa6f5c5c7a644bce906de95b", "is_disabled": 0, "bike_id": "350682f4fa6f5c5c7a644bce906de95b", "lon": -77.03980266666667, "rental_uris": {"android": "https://dc.lft.to/lastmile_qr_scan", "ios": "https://dc.lft.to/lastmile_qr_scan"}, "fusion_lon": 0.0, "is_reserved": 0}, {"lat": 38.90269166666667, "fusion_lat": 0.0, "type": "electric_scooter", "name": "29633f639dea97e046101e1456c33e11", "is_disabled": 0, "bike_id": "29633f639dea97e046101e1456c33e11", "lon": -77.03076166666666, "rental_uris": {"android": "https://dc.lft.to/lastmile_qr_scan", "ios": "https://dc.lft.to/lastmile_qr_scan"}, "fusion_lon": 0.0, "is_reserved": 0}, {"lat": 38.92745433333333, "fusion_lat": 0.0, "type": "electric_scooter", "name": "56e6f58bda3f3831c25e6d37ef89fa29", "is_disabled": 0, "bike_id": "56e6f58bda3f3831c25e6d37ef89fa29", "lon": -77.03306716666667, "rental_uris": {"android": "https://dc.lft.to/lastmile_qr_scan", "ios": "https://dc.lft.to/lastmile_qr_scan"}, "fusion_lon": 0.0, "is_reserved": 0}, {"lat": 38.902538166666666, "fusion_lat": 0.0, "type": "electric_scooter", "name": "b708ce28d3ae056e940cfca0d06655bf", "is_disabled": 0, "bike_id": "b708ce28d3ae056e940cfca0d06655bf", "lon": -77.0053995, "rental_uris": {"android": "https://dc.lft.to/lastmile_qr_scan", "ios": "https://dc.lft.to/lastmile_qr_scan"}, "fusion_lon": 0.0, "is_reserved": 0}, {"lat": 38.921809333333336, "fusion_lat": 0.0, "type": "electric_scooter", "name": "e6a9fdc39f057474abf6a303789ccb09", "is_disabled": 0, "bike_id": "e6a9fdc39f057474abf6a303789ccb09", "lon": -77.04695983333333, "rental_uris": {"android": "https://dc.lft.to/lastmile_qr_scan", "ios": "https://dc.lft.to/lastmile_qr_scan"}, "fusion_lon": 0.0, "is_reserved": 0}, {"lat": 38.897217166666664, "fusion_lat": 0.0, "type": "electric_scooter", "name": "de3cd4bd15af1a19cc02979530872e1d", "is_disabled": 0, "bike_id": "de3cd4bd15af1a19cc02979530872e1d", "lon": -77.04549816666666, "rental_uris": {"android": "https://dc.lft.to/lastmile_qr_scan", "ios": "https://dc.lft.to/lastmile_qr_scan"}, "fusion_lon": 0.0, "is_reserved": 0}, {"lat": 38.9140035, "fusion_lat": 0.0, "type": "electric_scooter", "name": "dfb5b166ecab65ed6a548ad5397afd9e", "is_disabled": 0, "bike_id": "dfb5b166ecab65ed6a548ad5397afd9e", "lon": -77.033298, "rental_uris": {"android": "https://dc.lft.to/lastmile_qr_scan", "ios": "https://dc.lft.to/lastmile_qr_scan"}, "fusion_lon": 0.0, "is_reserved": 0}, {"lat": 38.884495, "fusion_lat": 0.0, "type": "electric_scooter", "name": "54732302488a1fe9b0c136454ef5e144", "is_disabled": 0, "bike_id": "54732302488a1fe9b0c136454ef5e144", "lon": -76.950966, "rental_uris": {"android": "https://dc.lft.to/lastmile_qr_scan", "ios": "https://dc.lft.to/lastmile_qr_scan"}, "fusion_lon": 0.0, "is_reserved": 0}, {"lat": 38.876408833333336, "fusion_lat": 0.0, "type": "electric_scooter", "name": "f83a4b6d961e1b0a20b77f45f9a5f41c", "is_disabled": 0, "bike_id": "f83a4b6d961e1b0a20b77f45f9a5f41c", "lon": -77.0037935, "rental_uris": {"android": "https://dc.lft.to/lastmile_qr_scan", "ios": "https://dc.lft.to/lastmile_qr_scan"}, "fusion_lon": 0.0, "is_reserved": 0}, {"lat": 38.92273983333333, "fusion_lat": 0.0, "type": "electric_scooter", "name": "887fb04f9d908c70426afab7320971d1", "is_disabled": 0, "bike_id": "887fb04f9d908c70426afab7320971d1", "lon": -77.04241283333333, "rental_uris": {"android": "https://dc.lft.to/lastmile_qr_scan", "ios": "https://dc.lft.to/lastmile_qr_scan"}, "fusion_lon": 0.0, "is_reserved": 0}, {"lat": 38.86502683333333, "fusion_lat": 0.0, "type": "electric_scooter", "name": "99278695735ef2b5dc2a4a9dd6980ede", "is_disabled": 0, "bike_id": "99278695735ef2b5dc2a4a9dd6980ede", "lon": -76.98998516666667, "rental_uris": {"android": "https://dc.lft.to/lastmile_qr_scan", "ios": "https://dc.lft.to/lastmile_qr_scan"}, "fusion_lon": 0.0, "is_reserved": 0}, {"lat": 38.89653833333333, "fusion_lat": 0.0, "type": "electric_scooter", "name": "21eb5373237418708cd72d1432c71579", "is_disabled": 0, "bike_id": "21eb5373237418708cd72d1432c71579", "lon": -77.01855916666666, "rental_uris": {"android": "https://dc.lft.to/lastmile_qr_scan", "ios": "https://dc.lft.to/lastmile_qr_scan"}, "fusion_lon": 0.0, "is_reserved": 0}, {"lat": 38.93182516666667, "fusion_lat": 0.0, "type": "electric_scooter", "name": "2d03908186dcc71347cd7dbcb711fba0", "is_disabled": 0, "bike_id": "2d03908186dcc71347cd7dbcb711fba0", "lon": -77.043018, "rental_uris": {"android": "https://dc.lft.to/lastmile_qr_scan", "ios": "https://dc.lft.to/lastmile_qr_scan"}, "fusion_lon": 0.0, "is_reserved": 0}, {"lat": 38.92411633333333, "fusion_lat": 0.0, "type": "electric_scooter", "name": "6ff00e98014b9324c2d62414d92bc4ac", "is_disabled": 0, "bike_id": "6ff00e98014b9324c2d62414d92bc4ac", "lon": -77.0228275, "rental_uris": {"android": "https://dc.lft.to/lastmile_qr_scan", "ios": "https://dc.lft.to/lastmile_qr_scan"}, "fusion_lon": 0.0, "is_reserved": 0}, {"lat": 38.88568266666667, "fusion_lat": 0.0, "type": "electric_scooter", "name": "5e009e2036bec43ef53c7097adb7bdcb", "is_disabled": 0, "bike_id": "5e009e2036bec43ef53c7097adb7bdcb", "lon": -77.01541433333334, "rental_uris": {"android": "https://dc.lft.to/lastmile_qr_scan", "ios": "https://dc.lft.to/lastmile_qr_scan"}, "fusion_lon": 0.0, "is_reserved": 0}, {"lat": 38.909653666666664, "fusion_lat": 0.0, "type": "electric_scooter", "name": "62d97c917c2d4b4cecdaa397d16000c0", "is_disabled": 0, "bike_id": "62d97c917c2d4b4cecdaa397d16000c0", "lon": -77.01843933333333, "rental_uris": {"android": "https://dc.lft.to/lastmile_qr_scan", "ios": "https://dc.lft.to/lastmile_qr_scan"}, "fusion_lon": 0.0, "is_reserved": 0}, {"lat": 38.899643166666664, "fusion_lat": 0.0, "type": "electric_scooter", "name": "ba6f30cfcc8fc79ecaf409d3e9eeb595", "is_disabled": 0, "bike_id": "ba6f30cfcc8fc79ecaf409d3e9eeb595", "lon": -77.04483466666667, "rental_uris": {"android": "https://dc.lft.to/lastmile_qr_scan", "ios": "https://dc.lft.to/lastmile_qr_scan"}, "fusion_lon": 0.0, "is_reserved": 0}, {"lat": 38.941267833333335, "fusion_lat": 0.0, "type": "electric_scooter", "name": "afd339e708bb7cb4d6bd8d9447720a73", "is_disabled": 0, "bike_id": "afd339e708bb7cb4d6bd8d9447720a73", "lon": -77.01539383333333, "rental_uris": {"android": "https://dc.lft.to/lastmile_qr_scan", "ios": "https://dc.lft.to/lastmile_qr_scan"}, "fusion_lon": 0.0, "is_reserved": 0}, {"lat": 38.89885, "fusion_lat": 0.0, "type": "electric_scooter", "name": "574cef382f60647fcc4221a638257c56", "is_disabled": 0, "bike_id": "574cef382f60647fcc4221a638257c56", "lon": -77.0327445, "rental_uris": {"android": "https://dc.lft.to/lastmile_qr_scan", "ios": "https://dc.lft.to/lastmile_qr_scan"}, "fusion_lon": 0.0, "is_reserved": 0}, {"lat": 38.89080533333333, "fusion_lat": 0.0, "type": "electric_scooter", "name": "aa24fa2366a3805818a3dfeccbe8ac79", "is_disabled": 0, "bike_id": "aa24fa2366a3805818a3dfeccbe8ac79", "lon": -76.988267, "rental_uris": {"android": "https://dc.lft.to/lastmile_qr_scan", "ios": "https://dc.lft.to/lastmile_qr_scan"}, "fusion_lon": 0.0, "is_reserved": 0}, {"lat": 38.91815583333333, "fusion_lat": 0.0, "type": "electric_scooter", "name": "1bd98d27603e708ef2c6b379f0609191", "is_disabled": 0, "bike_id": "1bd98d27603e708ef2c6b379f0609191", "lon": -77.041706, "rental_uris": {"android": "https://dc.lft.to/lastmile_qr_scan", "ios": "https://dc.lft.to/lastmile_qr_scan"}, "fusion_lon": 0.0, "is_reserved": 0}, {"lat": 38.8445815, "fusion_lat": 0.0, "type": "electric_bike", "name": "d1b3d0612139848bdd7a5775be9436c9", "is_disabled": 0, "bike_id": "d1b3d0612139848bdd7a5775be9436c9", "lon": -77.001733, "rental_uris": {"android": "https://dc.lft.to/lastmile_qr_scan", "ios": "https://dc.lft.to/lastmile_qr_scan"}, "fusion_lon": 0.0, "is_reserved": 0}, {"lat": 38.907799833333335, "fusion_lat": 0.0, "type": "electric_scooter", "name": "197f70fabc3c4696fdaa13ce10834c86", "is_disabled": 0, "bike_id": "197f70fabc3c4696fdaa13ce10834c86", "lon": -77.04667933333333, "rental_uris": {"android": "https://dc.lft.to/lastmile_qr_scan", "ios": "https://dc.lft.to/lastmile_qr_scan"}, "fusion_lon": 0.0, "is_reserved": 0}, {"lat": 38.895537833333336, "fusion_lat": 0.0, "type": "electric_scooter", "name": "97b30f60c37b5a1974ee657db8cf89f4", "is_disabled": 0, "bike_id": "97b30f60c37b5a1974ee657db8cf89f4", "lon": -76.9487555, "rental_uris": {"android": "https://dc.lft.to/lastmile_qr_scan", "ios": "https://dc.lft.to/lastmile_qr_scan"}, "fusion_lon": 0.0, "is_reserved": 0}, {"lat": 38.901362, "fusion_lat": 0.0, "type": "electric_scooter", "name": "a8eeff68db2189808e59073fec343883", "is_disabled": 0, "bike_id": "a8eeff68db2189808e59073fec343883", "lon": -77.00271516666666, "rental_uris": {"android": "https://dc.lft.to/lastmile_qr_scan", "ios": "https://dc.lft.to/lastmile_qr_scan"}, "fusion_lon": 0.0, "is_reserved": 0}, {"lat": 38.9140265, "fusion_lat": 0.0, "type": "electric_scooter", "name": "5ecdf7ab8bf4c647c46d670d2fe0f24e", "is_disabled": 0, "bike_id": "5ecdf7ab8bf4c647c46d670d2fe0f24e", "lon": -77.01557483333333, "rental_uris": {"android": "https://dc.lft.to/lastmile_qr_scan", "ios": "https://dc.lft.to/lastmile_qr_scan"}, "fusion_lon": 0.0, "is_reserved": 0}, {"lat": 38.960422, "fusion_lat": 0.0, "type": "electric_scooter", "name": "bbc95b63f6f97b8b357773f4eb79cf93", "is_disabled": 0, "bike_id": "bbc95b63f6f97b8b357773f4eb79cf93", "lon": -77.02795566666667, "rental_uris": {"android": "https://dc.lft.to/lastmile_qr_scan", "ios": "https://dc.lft.to/lastmile_qr_scan"}, "fusion_lon": 0.0, "is_reserved": 0}, {"lat": 38.934675166666665, "fusion_lat": 0.0, "type": "electric_scooter", "name": "26d045dafb0a4c1806dee5a56126f85f", "is_disabled": 0, "bike_id": "26d045dafb0a4c1806dee5a56126f85f", "lon": -77.07273916666666, "rental_uris": {"android": "https://dc.lft.to/lastmile_qr_scan", "ios": "https://dc.lft.to/lastmile_qr_scan"}, "fusion_lon": 0.0, "is_reserved": 0}, {"lat": 38.898108666666666, "fusion_lat": 0.0, "type": "electric_scooter", "name": "a8abd2f4eb10d31d40c86cecfb4b91db", "is_disabled": 0, "bike_id": "a8abd2f4eb10d31d40c86cecfb4b91db", "lon": -77.0273195, "rental_uris": {"android": "https://dc.lft.to/lastmile_qr_scan", "ios": "https://dc.lft.to/lastmile_qr_scan"}, "fusion_lon": 0.0, "is_reserved": 0}, {"lat": 38.92246883333333, "fusion_lat": 0.0, "type": "electric_scooter", "name": "28cf74392790f25a825ae4a5f03c64fd", "is_disabled": 0, "bike_id": "28cf74392790f25a825ae4a5f03c64fd", "lon": -76.98086333333333, "rental_uris": {"android": "https://dc.lft.to/lastmile_qr_scan", "ios": "https://dc.lft.to/lastmile_qr_scan"}, "fusion_lon": 0.0, "is_reserved": 0}, {"lat": 38.907134666666664, "fusion_lat": 0.0, "type": "electric_scooter", "name": "ef73264aec9f2f71493d5077403968ab", "is_disabled": 0, "bike_id": "ef73264aec9f2f71493d5077403968ab", "lon": -77.0077835, "rental_uris": {"android": "https://dc.lft.to/lastmile_qr_scan", "ios": "https://dc.lft.to/lastmile_qr_scan"}, "fusion_lon": 0.0, "is_reserved": 0}, {"lat": 38.917073, "fusion_lat": 0.0, "type": "electric_scooter", "name": "de44bb3c3d6f643f6f1a60855b7db817", "is_disabled": 0, "bike_id": "de44bb3c3d6f643f6f1a60855b7db817", "lon": -77.04172733333333, "rental_uris": {"android": "https://dc.lft.to/lastmile_qr_scan", "ios": "https://dc.lft.to/lastmile_qr_scan"}, "fusion_lon": 0.0, "is_reserved": 0}, {"lat": 38.8976145, "fusion_lat": 0.0, "type": "electric_scooter", "name": "73483dbd68ee25cb64070fec7040dded", "is_disabled": 0, "bike_id": "73483dbd68ee25cb64070fec7040dded", "lon": -77.04885783333333, "rental_uris": {"android": "https://dc.lft.to/lastmile_qr_scan", "ios": "https://dc.lft.to/lastmile_qr_scan"}, "fusion_lon": 0.0, "is_reserved": 0}, {"lat": 38.916176, "fusion_lat": 0.0, "type": "electric_bike", "name": "8ef99c6f9603b8f884f6e1bde5e3dc43", "is_disabled": 0, "bike_id": "8ef99c6f9603b8f884f6e1bde5e3dc43", "lon": -77.04836, "rental_uris": {"android": "https://dc.lft.to/lastmile_qr_scan", "ios": "https://dc.lft.to/lastmile_qr_scan"}, "fusion_lon": 0.0, "is_reserved": 0}, {"lat": 38.90981333333333, "fusion_lat": 0.0, "type": "electric_scooter", "name": "9452ec60dd0d2b4aae3914ac9ad531ef", "is_disabled": 0, "bike_id": "9452ec60dd0d2b4aae3914ac9ad531ef", "lon": -76.99497033333333, "rental_uris": {"android": "https://dc.lft.to/lastmile_qr_scan", "ios": "https://dc.lft.to/lastmile_qr_scan"}, "fusion_lon": 0.0, "is_reserved": 0}, {"lat": 38.90117766666667, "fusion_lat": 0.0, "type": "electric_scooter", "name": "a79063f1d671b21a609a67186006dcb8", "is_disabled": 0, "bike_id": "a79063f1d671b21a609a67186006dcb8", "lon": -77.0324765, "rental_uris": {"android": "https://dc.lft.to/lastmile_qr_scan", "ios": "https://dc.lft.to/lastmile_qr_scan"}, "fusion_lon": 0.0, "is_reserved": 0}, {"lat": 38.856884, "fusion_lat": 0.0, "type": "electric_scooter", "name": "de49ae6824d3c0a698e617e143fcc282", "is_disabled": 0, "bike_id": "de49ae6824d3c0a698e617e143fcc282", "lon": -76.99596733333334, "rental_uris": {"android": "https://dc.lft.to/lastmile_qr_scan", "ios": "https://dc.lft.to/lastmile_qr_scan"}, "fusion_lon": 0.0, "is_reserved": 0}, {"lat": 38.905393333333336, "fusion_lat": 0.0, "type": "electric_scooter", "name": "60f62c27700910f3e0cc9578130e3da9", "is_disabled": 0, "bike_id": "60f62c27700910f3e0cc9578130e3da9", "lon": -77.04728433333334, "rental_uris": {"android": "https://dc.lft.to/lastmile_qr_scan", "ios": "https://dc.lft.to/lastmile_qr_scan"}, "fusion_lon": 0.0, "is_reserved": 0}, {"lat": 38.89390916666667, "fusion_lat": 0.0, "type": "electric_scooter", "name": "ebb402d3d0d754a0adaefec55c6068bf", "is_disabled": 0, "bike_id": "ebb402d3d0d754a0adaefec55c6068bf", "lon": -77.02346683333333, "rental_uris": {"android": "https://dc.lft.to/lastmile_qr_scan", "ios": "https://dc.lft.to/lastmile_qr_scan"}, "fusion_lon": 0.0, "is_reserved": 0}, {"lat": 38.8874135, "fusion_lat": 0.0, "type": "electric_scooter", "name": "693b209829d7d9f01f29c42fd1092390", "is_disabled": 0, "bike_id": "693b209829d7d9f01f29c42fd1092390", "lon": -77.02858116666667, "rental_uris": {"android": "https://dc.lft.to/lastmile_qr_scan", "ios": "https://dc.lft.to/lastmile_qr_scan"}, "fusion_lon": 0.0, "is_reserved": 0}, {"lat": 38.875562, "fusion_lat": 0.0, "type": "electric_scooter", "name": "3dd0b64b79daffd14ea46593cde68558", "is_disabled": 0, "bike_id": "3dd0b64b79daffd14ea46593cde68558", "lon": -77.00582433333334, "rental_uris": {"android": "https://dc.lft.to/lastmile_qr_scan", "ios": "https://dc.lft.to/lastmile_qr_scan"}, "fusion_lon": 0.0, "is_reserved": 0}, {"lat": 38.9673505, "fusion_lat": 0.0, "type": "electric_bike", "name": "3ba2d1ebc9bd587cfe60d82991f1860e", "is_disabled": 0, "bike_id": "3ba2d1ebc9bd587cfe60d82991f1860e", "lon": -76.96044516666667, "rental_uris": {"android": "https://dc.lft.to/lastmile_qr_scan", "ios": "https://dc.lft.to/lastmile_qr_scan"}, "fusion_lon": 0.0, "is_reserved": 0}, {"lat": 38.88633883333333, "fusion_lat": 0.0, "type": "electric_scooter", "name": "2b2a03dd6af137eca31690c1ab382b53", "is_disabled": 0, "bike_id": "2b2a03dd6af137eca31690c1ab382b53", "lon": -77.0176575, "rental_uris": {"android": "https://dc.lft.to/lastmile_qr_scan", "ios": "https://dc.lft.to/lastmile_qr_scan"}, "fusion_lon": 0.0, "is_reserved": 0}, {"lat": 38.855943333333336, "fusion_lat": 0.0, "type": "electric_scooter", "name": "b8620c4297321b195f396f11bc282ad7", "is_disabled": 0, "bike_id": "b8620c4297321b195f396f11bc282ad7", "lon": -76.98720966666667, "rental_uris": {"android": "https://dc.lft.to/lastmile_qr_scan", "ios": "https://dc.lft.to/lastmile_qr_scan"}, "fusion_lon": 0.0, "is_reserved": 0}, {"lat": 38.91354533333333, "fusion_lat": 0.0, "type": "electric_scooter", "name": "dfc180a725b3286250444242f8885734", "is_disabled": 0, "bike_id": "dfc180a725b3286250444242f8885734", "lon": -77.044931, "rental_uris": {"android": "https://dc.lft.to/lastmile_qr_scan", "ios": "https://dc.lft.to/lastmile_qr_scan"}, "fusion_lon": 0.0, "is_reserved": 0}, {"lat": 38.93068133333333, "fusion_lat": 0.0, "type": "electric_scooter", "name": "8708ea37f02873edce4add3066fa4325", "is_disabled": 0, "bike_id": "8708ea37f02873edce4add3066fa4325", "lon": -77.036337, "rental_uris": {"android": "https://dc.lft.to/lastmile_qr_scan", "ios": "https://dc.lft.to/lastmile_qr_scan"}, "fusion_lon": 0.0, "is_reserved": 0}, {"lat": 38.91452616666667, "fusion_lat": 0.0, "type": "electric_scooter", "name": "3a9b7d2ba314c954497cee3655745ca4", "is_disabled": 0, "bike_id": "3a9b7d2ba314c954497cee3655745ca4", "lon": -77.02194966666667, "rental_uris": {"android": "https://dc.lft.to/lastmile_qr_scan", "ios": "https://dc.lft.to/lastmile_qr_scan"}, "fusion_lon": 0.0, "is_reserved": 0}, {"lat": 38.84607533333333, "fusion_lat": 0.0, "type": "electric_bike", "name": "0ca0fe03796c74b4dbf8a10d2209ecf6", "is_disabled": 0, "bike_id": "0ca0fe03796c74b4dbf8a10d2209ecf6", "lon": -76.9691165, "rental_uris": {"android": "https://dc.lft.to/lastmile_qr_scan", "ios": "https://dc.lft.to/lastmile_qr_scan"}, "fusion_lon": 0.0, "is_reserved": 0}, {"lat": 38.9208555, "fusion_lat": 0.0, "type": "electric_scooter", "name": "7e26db761ff009f7cdc8ae04e5f31534", "is_disabled": 0, "bike_id": "7e26db761ff009f7cdc8ae04e5f31534", "lon": -77.0253935, "rental_uris": {"android": "https://dc.lft.to/lastmile_qr_scan", "ios": "https://dc.lft.to/lastmile_qr_scan"}, "fusion_lon": 0.0, "is_reserved": 0}, {"lat": 38.90562216666667, "fusion_lat": 0.0, "type": "electric_scooter", "name": "1a5f898e18258c60cbf4dae54f263552", "is_disabled": 0, "bike_id": "1a5f898e18258c60cbf4dae54f263552", "lon": -77.03753216666667, "rental_uris": {"android": "https://dc.lft.to/lastmile_qr_scan", "ios": "https://dc.lft.to/lastmile_qr_scan"}, "fusion_lon": 0.0, "is_reserved": 0}, {"lat": 38.91225283333333, "fusion_lat": 0.0, "type": "electric_scooter", "name": "95f1c98d884850e6fb250fdee4b40be4", "is_disabled": 0, "bike_id": "95f1c98d884850e6fb250fdee4b40be4", "lon": -77.023009, "rental_uris": {"android": "https://dc.lft.to/lastmile_qr_scan", "ios": "https://dc.lft.to/lastmile_qr_scan"}, "fusion_lon": 0.0, "is_reserved": 0}, {"lat": 38.89620166666667, "fusion_lat": 0.0, "type": "electric_scooter", "name": "5183e129625888292b46c700e5d70bd6", "is_disabled": 0, "bike_id": "5183e129625888292b46c700e5d70bd6", "lon": -77.011655, "rental_uris": {"android": "https://dc.lft.to/lastmile_qr_scan", "ios": "https://dc.lft.to/lastmile_qr_scan"}, "fusion_lon": 0.0, "is_reserved": 0}, {"lat": 38.9170265, "fusion_lat": 0.0, "type": "electric_scooter", "name": "2b57c37aa5e42457db75199a79f61631", "is_disabled": 0, "bike_id": "2b57c37aa5e42457db75199a79f61631", "lon": -77.02760266666667, "rental_uris": {"android": "https://dc.lft.to/lastmile_qr_scan", "ios": "https://dc.lft.to/lastmile_qr_scan"}, "fusion_lon": 0.0, "is_reserved": 0}, {"lat": 38.90546966666667, "fusion_lat": 0.0, "type": "electric_scooter", "name": "4c54411914bdadf3b1b5d46943eaa56d", "is_disabled": 0, "bike_id": "4c54411914bdadf3b1b5d46943eaa56d", "lon": -77.04436683333333, "rental_uris": {"android": "https://dc.lft.to/lastmile_qr_scan", "ios": "https://dc.lft.to/lastmile_qr_scan"}, "fusion_lon": 0.0, "is_reserved": 0}, {"lat": 38.93750216666667, "fusion_lat": 0.0, "type": "electric_scooter", "name": "4b2689c8b030de4da97b90f48037985e", "is_disabled": 0, "bike_id": "4b2689c8b030de4da97b90f48037985e", "lon": -77.08570816666666, "rental_uris": {"android": "https://dc.lft.to/lastmile_qr_scan", "ios": "https://dc.lft.to/lastmile_qr_scan"}, "fusion_lon": 0.0, "is_reserved": 0}, {"lat": 38.8811725, "fusion_lat": 0.0, "type": "electric_scooter", "name": "a8c3bd5404b14afc906d9908a3102104", "is_disabled": 0, "bike_id": "a8c3bd5404b14afc906d9908a3102104", "lon": -76.98706366666667, "rental_uris": {"android": "https://dc.lft.to/lastmile_qr_scan", "ios": "https://dc.lft.to/lastmile_qr_scan"}, "fusion_lon": 0.0, "is_reserved": 0}, {"lat": 38.9243545, "fusion_lat": 0.0, "type": "electric_scooter", "name": "88860997ac872eecf49617d349f1eb7e", "is_disabled": 0, "bike_id": "88860997ac872eecf49617d349f1eb7e", "lon": -77.03398033333333, "rental_uris": {"android": "https://dc.lft.to/lastmile_qr_scan", "ios": "https://dc.lft.to/lastmile_qr_scan"}, "fusion_lon": 0.0, "is_reserved": 0}, {"lat": 38.877392666666665, "fusion_lat": 0.0, "type": "electric_scooter", "name": "60260979729ab61998f5d9b6280934b1", "is_disabled": 0, "bike_id": "60260979729ab61998f5d9b6280934b1", "lon": -77.00713033333334, "rental_uris": {"android": "https://dc.lft.to/lastmile_qr_scan", "ios": "https://dc.lft.to/lastmile_qr_scan"}, "fusion_lon": 0.0, "is_reserved": 0}, {"lat": 38.916487333333336, "fusion_lat": 0.0, "type": "electric_scooter", "name": "ac1318c5d8d66d60c145891b76fcea71", "is_disabled": 0, "bike_id": "ac1318c5d8d66d60c145891b76fcea71", "lon": -77.02812816666666, "rental_uris": {"android": "https://dc.lft.to/lastmile_qr_scan", "ios": "https://dc.lft.to/lastmile_qr_scan"}, "fusion_lon": 0.0, "is_reserved": 0}, {"lat": 38.90134483333333, "fusion_lat": 0.0, "type": "electric_scooter", "name": "3cee17f0e07417c19b08ae23d7acea4b", "is_disabled": 0, "bike_id": "3cee17f0e07417c19b08ae23d7acea4b", "lon": -77.032012, "rental_uris": {"android": "https://dc.lft.to/lastmile_qr_scan", "ios": "https://dc.lft.to/lastmile_qr_scan"}, "fusion_lon": 0.0, "is_reserved": 0}, {"lat": 38.89967766666667, "fusion_lat": 0.0, "type": "electric_scooter", "name": "42b4f8d5d7dcedbef678a26cac7c06dc", "is_disabled": 0, "bike_id": "42b4f8d5d7dcedbef678a26cac7c06dc", "lon": -77.04856133333334, "rental_uris": {"android": "https://dc.lft.to/lastmile_qr_scan", "ios": "https://dc.lft.to/lastmile_qr_scan"}, "fusion_lon": 0.0, "is_reserved": 0}, {"lat": 38.938606166666666, "fusion_lat": 0.0, "type": "electric_scooter", "name": "d0adc6a11229c6c0438b80338b5719d1", "is_disabled": 0, "bike_id": "d0adc6a11229c6c0438b80338b5719d1", "lon": -77.02646333333334, "rental_uris": {"android": "https://dc.lft.to/lastmile_qr_scan", "ios": "https://dc.lft.to/lastmile_qr_scan"}, "fusion_lon": 0.0, "is_reserved": 0}, {"lat": 38.9156905, "fusion_lat": 0.0, "type": "electric_scooter", "name": "eeefdd8666fd3baee9a66d84983dbb7a", "is_disabled": 0, "bike_id": "eeefdd8666fd3baee9a66d84983dbb7a", "lon": -77.012019, "rental_uris": {"android": "https://dc.lft.to/lastmile_qr_scan", "ios": "https://dc.lft.to/lastmile_qr_scan"}, "fusion_lon": 0.0, "is_reserved": 0}, {"lat": 38.905897833333334, "fusion_lat": 0.0, "type": "electric_scooter", "name": "52590958b02fec6ae34315b8d23f7f61", "is_disabled": 0, "bike_id": "52590958b02fec6ae34315b8d23f7f61", "lon": -77.03458083333334, "rental_uris": {"android": "https://dc.lft.to/lastmile_qr_scan", "ios": "https://dc.lft.to/lastmile_qr_scan"}, "fusion_lon": 0.0, "is_reserved": 0}, {"lat": 38.931126, "fusion_lat": 0.0, "type": "electric_scooter", "name": "382ac4265366a9d8929dce1667b499d8", "is_disabled": 0, "bike_id": "382ac4265366a9d8929dce1667b499d8", "lon": -77.03022416666667, "rental_uris": {"android": "https://dc.lft.to/lastmile_qr_scan", "ios": "https://dc.lft.to/lastmile_qr_scan"}, "fusion_lon": 0.0, "is_reserved": 0}, {"lat": 38.894853166666664, "fusion_lat": 0.0, "type": "electric_scooter", "name": "2dc157a2514f6d95ed7ffa14a47ae1c9", "is_disabled": 0, "bike_id": "2dc157a2514f6d95ed7ffa14a47ae1c9", "lon": -77.02284433333334, "rental_uris": {"android": "https://dc.lft.to/lastmile_qr_scan", "ios": "https://dc.lft.to/lastmile_qr_scan"}, "fusion_lon": 0.0, "is_reserved": 0}, {"lat": 38.9008445, "fusion_lat": 0.0, "type": "electric_scooter", "name": "e6f8d0b64495d519aeef7f431f60e810", "is_disabled": 0, "bike_id": "e6f8d0b64495d519aeef7f431f60e810", "lon": -77.04766066666667, "rental_uris": {"android": "https://dc.lft.to/lastmile_qr_scan", "ios": "https://dc.lft.to/lastmile_qr_scan"}, "fusion_lon": 0.0, "is_reserved": 0}, {"lat": 38.89703983333333, "fusion_lat": 0.0, "type": "electric_scooter", "name": "f0dc60d05e24fd17429b800a5485ef05", "is_disabled": 0, "bike_id": "f0dc60d05e24fd17429b800a5485ef05", "lon": -77.05026683333334, "rental_uris": {"android": "https://dc.lft.to/lastmile_qr_scan", "ios": "https://dc.lft.to/lastmile_qr_scan"}, "fusion_lon": 0.0, "is_reserved": 0}, {"lat": 38.89221916666666, "fusion_lat": 0.0, "type": "electric_scooter", "name": "1c325183e76224f5c9eb2281dc863120", "is_disabled": 0, "bike_id": "1c325183e76224f5c9eb2281dc863120", "lon": -76.979711, "rental_uris": {"android": "https://dc.lft.to/lastmile_qr_scan", "ios": "https://dc.lft.to/lastmile_qr_scan"}, "fusion_lon": 0.0, "is_reserved": 0}, {"lat": 38.876861166666664, "fusion_lat": 0.0, "type": "electric_scooter", "name": "bd39495cc7f597e03809f082d61a1776", "is_disabled": 0, "bike_id": "bd39495cc7f597e03809f082d61a1776", "lon": -77.00067783333333, "rental_uris": {"android": "https://dc.lft.to/lastmile_qr_scan", "ios": "https://dc.lft.to/lastmile_qr_scan"}, "fusion_lon": 0.0, "is_reserved": 0}, {"lat": 38.9231235, "fusion_lat": 0.0, "type": "electric_scooter", "name": "95fc1f697084ea6ce520f7f84b5be8d9", "is_disabled": 0, "bike_id": "95fc1f697084ea6ce520f7f84b5be8d9", "lon": -77.02133266666667, "rental_uris": {"android": "https://dc.lft.to/lastmile_qr_scan", "ios": "https://dc.lft.to/lastmile_qr_scan"}, "fusion_lon": 0.0, "is_reserved": 0}, {"lat": 38.872909166666666, "fusion_lat": 0.0, "type": "electric_scooter", "name": "6847b81b4387300c674e80fa0b913443", "is_disabled": 0, "bike_id": "6847b81b4387300c674e80fa0b913443", "lon": -77.00989066666666, "rental_uris": {"android": "https://dc.lft.to/lastmile_qr_scan", "ios": "https://dc.lft.to/lastmile_qr_scan"}, "fusion_lon": 0.0, "is_reserved": 0}, {"lat": 38.926202333333336, "fusion_lat": 0.0, "type": "electric_scooter", "name": "aa1f97c65791066e5eb0a90314779808", "is_disabled": 0, "bike_id": "aa1f97c65791066e5eb0a90314779808", "lon": -77.043255, "rental_uris": {"android": "https://dc.lft.to/lastmile_qr_scan", "ios": "https://dc.lft.to/lastmile_qr_scan"}, "fusion_lon": 0.0, "is_reserved": 0}, {"lat": 38.91415283333333, "fusion_lat": 0.0, "type": "electric_scooter", "name": "dd4c98d219c53e0e3008f2d218307d37", "is_disabled": 0, "bike_id": "dd4c98d219c53e0e3008f2d218307d37", "lon": -77.022131, "rental_uris": {"android": "https://dc.lft.to/lastmile_qr_scan", "ios": "https://dc.lft.to/lastmile_qr_scan"}, "fusion_lon": 0.0, "is_reserved": 0}, {"lat": 38.91121066666667, "fusion_lat": 0.0, "type": "electric_scooter", "name": "03a506ec0259a317bd1d7f4173ee8629", "is_disabled": 0, "bike_id": "03a506ec0259a317bd1d7f4173ee8629", "lon": -77.04376616666667, "rental_uris": {"android": "https://dc.lft.to/lastmile_qr_scan", "ios": "https://dc.lft.to/lastmile_qr_scan"}, "fusion_lon": 0.0, "is_reserved": 0}, {"lat": 38.91616966666667, "fusion_lat": 0.0, "type": "electric_scooter", "name": "71ceed804a9b832fb09cf08ff4eed048", "is_disabled": 0, "bike_id": "71ceed804a9b832fb09cf08ff4eed048", "lon": -77.031166, "rental_uris": {"android": "https://dc.lft.to/lastmile_qr_scan", "ios": "https://dc.lft.to/lastmile_qr_scan"}, "fusion_lon": 0.0, "is_reserved": 0}, {"lat": 38.91048283333333, "fusion_lat": 0.0, "type": "electric_scooter", "name": "bf11c1ef3c78be706f42a87dcf449fe6", "is_disabled": 0, "bike_id": "bf11c1ef3c78be706f42a87dcf449fe6", "lon": -77.04347483333333, "rental_uris": {"android": "https://dc.lft.to/lastmile_qr_scan", "ios": "https://dc.lft.to/lastmile_qr_scan"}, "fusion_lon": 0.0, "is_reserved": 0}, {"lat": 38.8936595, "fusion_lat": 0.0, "type": "electric_scooter", "name": "2ad71a12979dca541f9e419706182eee", "is_disabled": 0, "bike_id": "2ad71a12979dca541f9e419706182eee", "lon": -76.94702266666667, "rental_uris": {"android": "https://dc.lft.to/lastmile_qr_scan", "ios": "https://dc.lft.to/lastmile_qr_scan"}, "fusion_lon": 0.0, "is_reserved": 0}, {"lat": 38.875765333333334, "fusion_lat": 0.0, "type": "electric_bike", "name": "1a9d61419a5852c681a4055123a095ee", "is_disabled": 0, "bike_id": "1a9d61419a5852c681a4055123a095ee", "lon": -77.23408283333333, "rental_uris": {"android": "https://dc.lft.to/lastmile_qr_scan", "ios": "https://dc.lft.to/lastmile_qr_scan"}, "fusion_lon": 0.0, "is_reserved": 0}, {"lat": 38.860558833333336, "fusion_lat": 0.0, "type": "electric_scooter", "name": "f92bee4b6b7c29a2262d25c426298771", "is_disabled": 0, "bike_id": "f92bee4b6b7c29a2262d25c426298771", "lon": -76.98503683333334, "rental_uris": {"android": "https://dc.lft.to/lastmile_qr_scan", "ios": "https://dc.lft.to/lastmile_qr_scan"}, "fusion_lon": 0.0, "is_reserved": 0}, {"lat": 38.902705166666664, "fusion_lat": 0.0, "type": "electric_scooter", "name": "e99ba06a09782536fd1e3f2e4c387fe3", "is_disabled": 0, "bike_id": "e99ba06a09782536fd1e3f2e4c387fe3", "lon": -77.030044, "rental_uris": {"android": "https://dc.lft.to/lastmile_qr_scan", "ios": "https://dc.lft.to/lastmile_qr_scan"}, "fusion_lon": 0.0, "is_reserved": 0}, {"lat": 38.89742733333333, "fusion_lat": 0.0, "type": "electric_scooter", "name": "0f120e4b38d463800bbd52c59ee1775d", "is_disabled": 0, "bike_id": "0f120e4b38d463800bbd52c59ee1775d", "lon": -77.00349016666667, "rental_uris": {"android": "https://dc.lft.to/lastmile_qr_scan", "ios": "https://dc.lft.to/lastmile_qr_scan"}, "fusion_lon": 0.0, "is_reserved": 0}, {"lat": 38.898852, "fusion_lat": 0.0, "type": "electric_scooter", "name": "f47f8128eee9c86be609d3ea3e899dea", "is_disabled": 0, "bike_id": "f47f8128eee9c86be609d3ea3e899dea", "lon": -77.01211233333333, "rental_uris": {"android": "https://dc.lft.to/lastmile_qr_scan", "ios": "https://dc.lft.to/lastmile_qr_scan"}, "fusion_lon": 0.0, "is_reserved": 0}, {"lat": 38.920594333333334, "fusion_lat": 0.0, "type": "electric_scooter", "name": "bb0fd1d9e36d49aa39170f58e22e9fdd", "is_disabled": 0, "bike_id": "bb0fd1d9e36d49aa39170f58e22e9fdd", "lon": -77.04227466666667, "rental_uris": {"android": "https://dc.lft.to/lastmile_qr_scan", "ios": "https://dc.lft.to/lastmile_qr_scan"}, "fusion_lon": 0.0, "is_reserved": 0}, {"lat": 38.9441355, "fusion_lat": 0.0, "type": "electric_scooter", "name": "78fecf3362e091e25c3ba908b6b35bae", "is_disabled": 0, "bike_id": "78fecf3362e091e25c3ba908b6b35bae", "lon": -77.063936, "rental_uris": {"android": "https://dc.lft.to/lastmile_qr_scan", "ios": "https://dc.lft.to/lastmile_qr_scan"}, "fusion_lon": 0.0, "is_reserved": 0}, {"lat": 38.9221975, "fusion_lat": 0.0, "type": "electric_scooter", "name": "4cfc52ca556fb023443b564ab21fb71c", "is_disabled": 0, "bike_id": "4cfc52ca556fb023443b564ab21fb71c", "lon": -77.02234466666667, "rental_uris": {"android": "https://dc.lft.to/lastmile_qr_scan", "ios": "https://dc.lft.to/lastmile_qr_scan"}, "fusion_lon": 0.0, "is_reserved": 0}, {"lat": 38.93190466666667, "fusion_lat": 0.0, "type": "electric_scooter", "name": "be4a5d1deae2b031b3dbbcadc8d06cd7", "is_disabled": 0, "bike_id": "be4a5d1deae2b031b3dbbcadc8d06cd7", "lon": -77.07232733333333, "rental_uris": {"android": "https://dc.lft.to/lastmile_qr_scan", "ios": "https://dc.lft.to/lastmile_qr_scan"}, "fusion_lon": 0.0, "is_reserved": 0}, {"lat": 38.892214833333334, "fusion_lat": 0.0, "type": "electric_scooter", "name": "0d2511edcecf0392da44ea4c698fe623", "is_disabled": 0, "bike_id": "0d2511edcecf0392da44ea4c698fe623", "lon": -77.01413383333333, "rental_uris": {"android": "https://dc.lft.to/lastmile_qr_scan", "ios": "https://dc.lft.to/lastmile_qr_scan"}, "fusion_lon": 0.0, "is_reserved": 0}, {"lat": 38.9065855, "fusion_lat": 0.0, "type": "electric_scooter", "name": "730c9386227d3507610ee22f76d882fc", "is_disabled": 0, "bike_id": "730c9386227d3507610ee22f76d882fc", "lon": -77.02690983333333, "rental_uris": {"android": "https://dc.lft.to/lastmile_qr_scan", "ios": "https://dc.lft.to/lastmile_qr_scan"}, "fusion_lon": 0.0, "is_reserved": 0}, {"lat": 38.9013175, "fusion_lat": 0.0, "type": "electric_scooter", "name": "0cb0730fd450924814a1a1bdb84ecfaa", "is_disabled": 0, "bike_id": "0cb0730fd450924814a1a1bdb84ecfaa", "lon": -77.0288145, "rental_uris": {"android": "https://dc.lft.to/lastmile_qr_scan", "ios": "https://dc.lft.to/lastmile_qr_scan"}, "fusion_lon": 0.0, "is_reserved": 0}, {"lat": 38.913298, "fusion_lat": 0.0, "type": "electric_scooter", "name": "2aee080c8cc55c1ebb3480d36a5bad73", "is_disabled": 0, "bike_id": "2aee080c8cc55c1ebb3480d36a5bad73", "lon": -77.04858816666666, "rental_uris": {"android": "https://dc.lft.to/lastmile_qr_scan", "ios": "https://dc.lft.to/lastmile_qr_scan"}, "fusion_lon": 0.0, "is_reserved": 0}, {"lat": 38.9205475, "fusion_lat": 0.0, "type": "electric_scooter", "name": "883b3c6258bfbeaf3d22a93499f9a318", "is_disabled": 0, "bike_id": "883b3c6258bfbeaf3d22a93499f9a318", "lon": -77.04203333333334, "rental_uris": {"android": "https://dc.lft.to/lastmile_qr_scan", "ios": "https://dc.lft.to/lastmile_qr_scan"}, "fusion_lon": 0.0, "is_reserved": 0}, {"lat": 38.921402666666665, "fusion_lat": 0.0, "type": "electric_scooter", "name": "451a3e08fc2eb0830ffe676ead4d4073", "is_disabled": 0, "bike_id": "451a3e08fc2eb0830ffe676ead4d4073", "lon": -77.0208995, "rental_uris": {"android": "https://dc.lft.to/lastmile_qr_scan", "ios": "https://dc.lft.to/lastmile_qr_scan"}, "fusion_lon": 0.0, "is_reserved": 0}, {"lat": 38.901243, "fusion_lat": 0.0, "type": "electric_scooter", "name": "81664c1d3db4804146e15f703b3be0cd", "is_disabled": 0, "bike_id": "81664c1d3db4804146e15f703b3be0cd", "lon": -77.03467583333334, "rental_uris": {"android": "https://dc.lft.to/lastmile_qr_scan", "ios": "https://dc.lft.to/lastmile_qr_scan"}, "fusion_lon": 0.0, "is_reserved": 0}, {"lat": 38.945086333333336, "fusion_lat": 0.0, "type": "electric_bike", "name": "3a6aa9400ada1a6ec212588d38b7f02b", "is_disabled": 0, "bike_id": "3a6aa9400ada1a6ec212588d38b7f02b", "lon": -77.006692, "rental_uris": {"android": "https://dc.lft.to/lastmile_qr_scan", "ios": "https://dc.lft.to/lastmile_qr_scan"}, "fusion_lon": 0.0, "is_reserved": 0}, {"lat": 38.97508166666667, "fusion_lat": 0.0, "type": "electric_scooter", "name": "8ebe2f6f37f0b667efc2c8e74610df89", "is_disabled": 0, "bike_id": "8ebe2f6f37f0b667efc2c8e74610df89", "lon": -77.0164715, "rental_uris": {"android": "https://dc.lft.to/lastmile_qr_scan", "ios": "https://dc.lft.to/lastmile_qr_scan"}, "fusion_lon": 0.0, "is_reserved": 0}, {"lat": 38.920339, "fusion_lat": 0.0, "type": "electric_scooter", "name": "d0642fd81e290e9fa5e2374c2cc7d8e5", "is_disabled": 0, "bike_id": "d0642fd81e290e9fa5e2374c2cc7d8e5", "lon": -77.02952966666666, "rental_uris": {"android": "https://dc.lft.to/lastmile_qr_scan", "ios": "https://dc.lft.to/lastmile_qr_scan"}, "fusion_lon": 0.0, "is_reserved": 0}, {"lat": 38.89629883333333, "fusion_lat": 0.0, "type": "electric_scooter", "name": "65adcbe12760efa8eecb039e35d2dfa7", "is_disabled": 0, "bike_id": "65adcbe12760efa8eecb039e35d2dfa7", "lon": -77.04009716666667, "rental_uris": {"android": "https://dc.lft.to/lastmile_qr_scan", "ios": "https://dc.lft.to/lastmile_qr_scan"}, "fusion_lon": 0.0, "is_reserved": 0},