{"data": {"bikes": [{"bike_id": "bf00eea92135f0f500458e86ca8f914d", "is_reserved": 0, "fusion_lon": 0.0, "lat": 38.910473, "is_disabled": 0, "name": "bf00eea92135f0f500458e86ca8f914d", "fusion_lat": 0.0, "rental_uris": {"ios": "https://dc.lft.to/lastmile_qr_scan", "android": "https://dc.lft.to/lastmile_qr_scan"}, "lon": -77.0151235, "type": "electric_scooter"}, {"bike_id": "91645ff73821db9e63e10f54b7dcb85b", "is_reserved": 0, "fusion_lon": 0.0, "lat": 38.942107166666666, "is_disabled": 0, "name": "91645ff73821db9e63e10f54b7dcb85b", "fusion_lat": 0.0, "rental_uris": {"ios": "https://dc.lft.to/lastmile_qr_scan", "android": "https://dc.lft.to/lastmile_qr_scan"}, "lon": -77.01826683333333, "type": "electric_bike"}, {"bike_id": "62834969a00fb6fc131d9b0c24b4fd19", "is_reserved": 0, "fusion_lon": 0.0, "lat": 38.9095785, "is_disabled": 0, "name": "62834969a00fb6fc131d9b0c24b4fd19", "fusion_lat": 0.0, "rental_uris": {"ios": "https://dc.lft.to/lastmile_qr_scan", "android": "https://dc.lft.to/lastmile_qr_scan"}, "lon": -77.04242316666667, "type": "electric_scooter"}, {"bike_id": "c4948018671029de3aa57f2edbd119b1", "is_reserved": 0, "fusion_lon": 0.0, "lat": 38.90796, "is_disabled": 0, "name": "c4948018671029de3aa57f2edbd119b1", "fusion_lat": 0.0, "rental_uris": {"ios": "https://dc.lft.to/lastmile_qr_scan", "android": "https://dc.lft.to/lastmile_qr_scan"}, "lon": -77.0487015, "type": "electric_scooter"}, {"bike_id": "4f08fa2c5e6bcfac00826afafbcfe683", "is_reserved": 0, "fusion_lon": 0.0, "lat": 38.945152, "is_disabled": 0, "name": "4f08fa2c5e6bcfac00826afafbcfe683", "fusion_lat": 0.0, "rental_uris": {"ios": "https://dc.lft.to/lastmile_qr_scan", "android": "https://dc.lft.to/lastmile_qr_scan"}, "lon": -77.033631, "type": "electric_scooter"}, {"bike_id": "d9410c5fd8e820fc9a39d153f5a0dcc5", "is_reserved": 0, "fusion_lon": 0.0, "lat": 38.91573916666667, "is_disabled": 0, "name": "d9410c5fd8e820fc9a39d153f5a0dcc5", "fusion_lat": 0.0, "rental_uris": {"ios": "https://dc.lft.to/lastmile_qr_scan", "android": "https://dc.lft.to/lastmile_qr_scan"}, "lon": -77.04694, "type": "electric_scooter"}, {"bike_id": "6433e4bb4c05c776f656287c4cc8479a", "is_reserved": 0, "fusion_lon": 0.0, "lat": 38.864175333333336, "is_disabled": 0, "name": "6433e4bb4c05c776f656287c4cc8479a", "fusion_lat": 0.0, "rental_uris": {"ios": "https://dc.lft.to/lastmile_qr_scan", "android": "https://dc.lft.to/lastmile_qr_scan"}, "lon": -76.98045833333333, "type": "electric_scooter"}, {"bike_id": "d0f68c83027f7dc0ad74ce56be603824", "is_reserved": 0, "fusion_lon": 0.0, "lat": 38.86244383333333, "is_disabled": 0, "name": "d0f68c83027f7dc0ad74ce56be603824", "fusion_lat": 0.0, "rental_uris": {"ios": "https://dc.lft.to/lastmile_qr_scan", "android": "https://dc.lft.to/lastmile_qr_scan"}, "lon": -76.99494416666667, "type": "electric_scooter"}, {"bike_id": "29533bf91f7ebaa0840d205b0a77418f", "is_reserved": 0, "fusion_lon": 0.0, "lat": 38.978793333333336, "is_disabled": 0, "name": "29533bf91f7ebaa0840d205b0a77418f", "fusion_lat": 0.0, "rental_uris": {"ios": "https://dc.lft.to/lastmile_qr_scan", "android": "https://dc.lft.to/lastmile_qr_scan"}, "lon": -77.02547666666666, "type": "electric_scooter"}, {"bike_id": "30ddced91b6572939a87cccaedd6edf9", "is_reserved": 0, "fusion_lon": 0.0, "lat": 38.88998016666667, "is_disabled": 0, "name": "30ddced91b6572939a87cccaedd6edf9", "fusion_lat": 0.0, "rental_uris": {"ios": "https://dc.lft.to/lastmile_qr_scan", "android": "https://dc.lft.to/lastmile_qr_scan"}, "lon": -76.94698683333333, "type": "electric_scooter"}, {"bike_id": "a8f2727c8cd1f93459a7b1afd635cb3b", "is_reserved": 0, "fusion_lon": 0.0, "lat": 38.8324115, "is_disabled": 0, "name": "a8f2727c8cd1f93459a7b1afd635cb3b", "fusion_lat": 0.0, "rental_uris": {"ios": "https://dc.lft.to/lastmile_qr_scan", "android": "https://dc.lft.to/lastmile_qr_scan"}, "lon": -76.946219, "type": "electric_bike"}, {"bike_id": "50d9214b9e8adf0111fae9d09a52dc59", "is_reserved": 0, "fusion_lon": 0.0, "lat": 38.924465833333336, "is_disabled": 0, "name": "50d9214b9e8adf0111fae9d09a52dc59", "fusion_lat": 0.0, "rental_uris": {"ios": "https://dc.lft.to/lastmile_qr_scan", "android": "https://dc.lft.to/lastmile_qr_scan"}, "lon": -77.02037616666667, "type": "electric_scooter"}, {"bike_id": "50f8a65de9d50aa1c366ef8b89366cb2", "is_reserved": 0, "fusion_lon": 0.0, "lat": 38.9170045, "is_disabled": 0, "name": "50f8a65de9d50aa1c366ef8b89366cb2", "fusion_lat": 0.0, "rental_uris": {"ios": "https://dc.lft.to/lastmile_qr_scan", "android": "https://dc.lft.to/lastmile_qr_scan"}, "lon": -77.03482633333333, "type": "electric_scooter"}, {"bike_id": "cda5671e4db86ef7b88a6bdb0f4f9b91", "is_reserved": 0, "fusion_lon": 0.0, "lat": 38.93633466666667, "is_disabled": 0, "name": "cda5671e4db86ef7b88a6bdb0f4f9b91", "fusion_lat": 0.0, "rental_uris": {"ios": "https://dc.lft.to/lastmile_qr_scan", "android": "https://dc.lft.to/lastmile_qr_scan"}, "lon": -77.03689333333334, "type": "electric_scooter"}, {"bike_id": "df0a3b5882f105c9df9c663015fa512b", "is_reserved": 0, "fusion_lon": 0.0, "lat": 38.902690666666665, "is_disabled": 0, "name": "df0a3b5882f105c9df9c663015fa512b", "fusion_lat": 0.0, "rental_uris": {"ios": "https://dc.lft.to/lastmile_qr_scan", "android": "https://dc.lft.to/lastmile_qr_scan"}, "lon": -77.0384605, "type": "electric_scooter"}, {"bike_id": "b5b0e4619249c5371279d978ddef008e", "is_reserved": 0, "fusion_lon": 0.0, "lat": 38.906232333333335, "is_disabled": 0, "name": "b5b0e4619249c5371279d978ddef008e", "fusion_lat": 0.0, "rental_uris": {"ios": "https://dc.lft.to/lastmile_qr_scan", "android": "https://dc.lft.to/lastmile_qr_scan"}, "lon": -77.039679, "type": "electric_scooter"}, {"bike_id": "b4bed5ffe787ce08f671a00d80c8ee2d", "is_reserved": 0, "fusion_lon": 0.0, "lat": 38.884948333333334, "is_disabled": 0, "name": "b4bed5ffe787ce08f671a00d80c8ee2d", "fusion_lat": 0.0, "rental_uris": {"ios": "https://dc.lft.to/lastmile_qr_scan", "android": "https://dc.lft.to/lastmile_qr_scan"}, "lon": -77.00716616666666, "type": "electric_scooter"}, {"bike_id": "07e4573187e3deffcbdd09d14052194f", "is_reserved": 0, "fusion_lon": 0.0, "lat": 38.89919166666667, "is_disabled": 0, "name": "07e4573187e3deffcbdd09d14052194f", "fusion_lat": 0.0, "rental_uris": {"ios": "https://dc.lft.to/lastmile_qr_scan", "android": "https://dc.lft.to/lastmile_qr_scan"}, "lon": -77.04653316666666, "type": "electric_scooter"}, {"bike_id": "f93f1daeef695583e4127892b247c4de", "is_reserved": 0, "fusion_lon": 0.0, "lat": 38.88505683333333, "is_disabled": 0, "name": "f93f1daeef695583e4127892b247c4de", "fusion_lat": 0.0, "rental_uris": {"ios": "https://dc.lft.to/lastmile_qr_scan", "android": "https://dc.lft.to/lastmile_qr_scan"}, "lon": -77.00566516666666, "type": "electric_scooter"}, {"bike_id": "b562f314132d27f6e57fa833696f9b94", "is_reserved": 0, "fusion_lon": 0.0, "lat": 38.92173416666667, "is_disabled": 0, "name": "b562f314132d27f6e57fa833696f9b94", "fusion_lat": 0.0, "rental_uris": {"ios": "https://dc.lft.to/lastmile_qr_scan", "android": "https://dc.lft.to/lastmile_qr_scan"}, "lon": -77.03534783333333, "type": "electric_scooter"}, {"bike_id": "99a38cb1e18be52a3c29fe8f6ee55c77", "is_reserved": 0, "fusion_lon": 0.0, "lat": 38.90345116666667, "is_disabled": 0, "name": "99a38cb1e18be52a3c29fe8f6ee55c77", "fusion_lat": 0.0, "rental_uris": {"ios": "https://dc.lft.to/lastmile_qr_scan", "android": "https://dc.lft.to/lastmile_qr_scan"}, "lon": -77.03779066666667, "type": "electric_scooter"}, {"bike_id": "749c8ffbe4790d56c87bc5a9fab6c1c5", "is_reserved": 0, "fusion_lon": 0.0, "lat": 38.918508333333335, "is_disabled": 0, "name": "749c8ffbe4790d56c87bc5a9fab6c1c5", "fusion_lat": 0.0, "rental_uris": {"ios": "https://dc.lft.to/lastmile_qr_scan", "android": "https://dc.lft.to/lastmile_qr_scan"}, "lon": -77.02300083333333, "type": "electric_scooter"}, {"bike_id": "95f021179e669fca7f694d5e0a026868", "is_reserved": 0, "fusion_lon": 0.0, "lat": 38.91051566666667, "is_disabled": 0, "name": "95f021179e669fca7f694d5e0a026868", "fusion_lat": 0.0, "rental_uris": {"ios": "https://dc.lft.to/lastmile_qr_scan", "android": "https://dc.lft.to/lastmile_qr_scan"}, "lon": -77.02686933333334, "type": "electric_scooter"}, {"bike_id": "6ed29dace3ccfb1fa5cc4a23a4f7e3a0", "is_reserved": 0, "fusion_lon": 0.0, "lat": 38.92042283333333, "is_disabled": 0, "name": "6ed29dace3ccfb1fa5cc4a23a4f7e3a0", "fusion_lat": 0.0, "rental_uris": {"ios": "https://dc.lft.to/lastmile_qr_scan", "android": "https://dc.lft.to/lastmile_qr_scan"}, "lon": -76.9790935, "type": "electric_scooter"}, {"bike_id": "88ad12d9f9beac03c0fc758c40f7bcec", "is_reserved": 0, "fusion_lon": 0.0, "lat": 38.89222016666667, "is_disabled": 0, "name": "88ad12d9f9beac03c0fc758c40f7bcec", "fusion_lat": 0.0, "rental_uris": {"ios": "https://dc.lft.to/lastmile_qr_scan", "android": "https://dc.lft.to/lastmile_qr_scan"}, "lon": -77.03165133333333, "type": "electric_scooter"}, {"bike_id": "1611afe5ee12461df9ec14cacb541fa2", "is_reserved": 0, "fusion_lon": 0.0, "lat": 38.90836733333333, "is_disabled": 0, "name": "1611afe5ee12461df9ec14cacb541fa2", "fusion_lat": 0.0, "rental_uris": {"ios": "https://dc.lft.to/lastmile_qr_scan", "android": "https://dc.lft.to/lastmile_qr_scan"}, "lon": -76.9969835, "type": "electric_scooter"}, {"bike_id": "dc973be45b58873fab793e065c680c2f", "is_reserved": 0, "fusion_lon": 0.0, "lat": 38.922147333333335, "is_disabled": 0, "name": "dc973be45b58873fab793e065c680c2f", "fusion_lat": 0.0, "rental_uris": {"ios": "https://dc.lft.to/lastmile_qr_scan", "android": "https://dc.lft.to/lastmile_qr_scan"}, "lon": -77.04267233333333, "type": "electric_scooter"}, {"bike_id": "bb199e29cd240b608f15fa7ff99d8a80", "is_reserved": 0, "fusion_lon": 0.0, "lat": 38.892229666666665, "is_disabled": 0, "name": "bb199e29cd240b608f15fa7ff99d8a80", "fusion_lat": 0.0, "rental_uris": {"ios": "https://dc.lft.to/lastmile_qr_scan", "android": "https://dc.lft.to/lastmile_qr_scan"}, "lon": -77.03094416666667, "type": "electric_scooter"}, {"bike_id": "8d9060a49c94c862815b98292a0c47ad", "is_reserved": 0, "fusion_lon": 0.0, "lat": 38.903855666666665, "is_disabled": 0, "name": "8d9060a49c94c862815b98292a0c47ad", "fusion_lat": 0.0, "rental_uris": {"ios": "https://dc.lft.to/lastmile_qr_scan", "android": "https://dc.lft.to/lastmile_qr_scan"}, "lon": -77.03639533333333, "type": "electric_scooter"}, {"bike_id": "0f610c859f2ad6d9208a4e6c9f1d3e15", "is_reserved": 0, "fusion_lon": 0.0, "lat": 38.90515666666667, "is_disabled": 0, "name": "0f610c859f2ad6d9208a4e6c9f1d3e15", "fusion_lat": 0.0, "rental_uris": {"ios": "https://dc.lft.to/lastmile_qr_scan", "android": "https://dc.lft.to/lastmile_qr_scan"}, "lon": -77.06462833333333, "type": "electric_scooter"}, {"bike_id": "d50aeb43342c9e864615daa0311282b0", "is_reserved": 0, "fusion_lon": 0.0, "lat": 38.90527633333333, "is_disabled": 0, "name": "d50aeb43342c9e864615daa0311282b0", "fusion_lat": 0.0, "rental_uris": {"ios": "https://dc.lft.to/lastmile_qr_scan", "android": "https://dc.lft.to/lastmile_qr_scan"}, "lon": -77.04159566666667, "type": "electric_scooter"}, {"bike_id": "414ce7cddb71c7427cc03486643bef75", "is_reserved": 0, "fusion_lon": 0.0, "lat": 38.89839383333333, "is_disabled": 0, "name": "414ce7cddb71c7427cc03486643bef75", "fusion_lat": 0.0, "rental_uris": {"ios": "https://dc.lft.to/lastmile_qr_scan", "android": "https://dc.lft.to/lastmile_qr_scan"}, "lon": -77.03343983333333, "type": "electric_scooter"}, {"bike_id": "23869bb809651cb40d3bfbd7232f88a0", "is_reserved": 0, "fusion_lon": 0.0, "lat": 38.92639616666666, "is_disabled": 0, "name": "23869bb809651cb40d3bfbd7232f88a0", "fusion_lat": 0.0, "rental_uris": {"ios": "https://dc.lft.to/lastmile_qr_scan", "android": "https://dc.lft.to/lastmile_qr_scan"}, "lon": -77.03502983333334, "type": "electric_scooter"}, {"bike_id": "063c52e0979765534f2a7fbdf8d7253e", "is_reserved": 0, "fusion_lon": 0.0, "lat": 38.93350866666667, "is_disabled": 0, "name": "063c52e0979765534f2a7fbdf8d7253e", "fusion_lat": 0.0, "rental_uris": {"ios": "https://dc.lft.to/lastmile_qr_scan", "android": "https://dc.lft.to/lastmile_qr_scan"}, "lon": -77.0586665, "type": "electric_scooter"}, {"bike_id": "17cd8a00ed58ee9e7c2f59645955b21f", "is_reserved": 0, "fusion_lon": 0.0, "lat": 38.90449316666667, "is_disabled": 0, "name": "17cd8a00ed58ee9e7c2f59645955b21f", "fusion_lat": 0.0, "rental_uris": {"ios": "https://dc.lft.to/lastmile_qr_scan", "android": "https://dc.lft.to/lastmile_qr_scan"}, "lon": -77.04046466666667, "type": "electric_scooter"}, {"bike_id": "8ffa67f5595d00fb711f7c39eca25ea0", "is_reserved": 0, "fusion_lon": 0.0, "lat": 38.90139666666666, "is_disabled": 0, "name": "8ffa67f5595d00fb711f7c39eca25ea0", "fusion_lat": 0.0, "rental_uris": {"ios": "https://dc.lft.to/lastmile_qr_scan", "android": "https://dc.lft.to/lastmile_qr_scan"}, "lon": -77.0448955, "type": "electric_scooter"}, {"bike_id": "c0cd8d51ecced1fe81e965348fccea75", "is_reserved": 0, "fusion_lon": 0.0, "lat": 38.92141866666667, "is_disabled": 0, "name": "c0cd8d51ecced1fe81e965348fccea75", "fusion_lat": 0.0, "rental_uris": {"ios": "https://dc.lft.to/lastmile_qr_scan", "android": "https://dc.lft.to/lastmile_qr_scan"}, "lon": -77.04137316666667, "type": "electric_scooter"}, {"bike_id": "53d4d08df8bea056221c9101d9aa9642", "is_reserved": 0, "fusion_lon": 0.0, "lat": 38.91731716666666, "is_disabled": 0, "name": "53d4d08df8bea056221c9101d9aa9642", "fusion_lat": 0.0, "rental_uris": {"ios": "https://dc.lft.to/lastmile_qr_scan", "android": "https://dc.lft.to/lastmile_qr_scan"}, "lon": -77.00797516666667, "type": "electric_scooter"}, {"bike_id": "6b804f66a28aec92951c10aaf0cd1e77", "is_reserved": 0, "fusion_lon": 0.0, "lat": 38.89347433333333, "is_disabled": 0, "name": "6b804f66a28aec92951c10aaf0cd1e77", "fusion_lat": 0.0, "rental_uris": {"ios": "https://dc.lft.to/lastmile_qr_scan", "android": "https://dc.lft.to/lastmile_qr_scan"}, "lon": -76.94938266666666, "type": "electric_scooter"}, {"bike_id": "a908904003e1f2a3b5db72caf65521ec", "is_reserved": 0, "fusion_lon": 0.0, "lat": 38.944148, "is_disabled": 0, "name": "a908904003e1f2a3b5db72caf65521ec", "fusion_lat": 0.0, "rental_uris": {"ios": "https://dc.lft.to/lastmile_qr_scan", "android": "https://dc.lft.to/lastmile_qr_scan"}, "lon": -76.99164566666667, "type": "electric_scooter"}, {"bike_id": "ec25a64be18e306bde9129ffe768ea81", "is_reserved": 0, "fusion_lon": 0.0, "lat": 38.885073166666665, "is_disabled": 0, "name": "ec25a64be18e306bde9129ffe768ea81", "fusion_lat": 0.0, "rental_uris": {"ios": "https://dc.lft.to/lastmile_qr_scan", "android": "https://dc.lft.to/lastmile_qr_scan"}, "lon": -77.00567733333334, "type": "electric_scooter"}, {"bike_id": "16e3ba5fb6b990d09bd1eb3e452a5472", "is_reserved": 0, "fusion_lon": 0.0, "lat": 38.9027055, "is_disabled": 0, "name": "16e3ba5fb6b990d09bd1eb3e452a5472", "fusion_lat": 0.0, "rental_uris": {"ios": "https://dc.lft.to/lastmile_qr_scan", "android": "https://dc.lft.to/lastmile_qr_scan"}, "lon": -77.03864333333334, "type": "electric_scooter"}, {"bike_id": "450b5b81bea13cea1f4be74b1c6d5393", "is_reserved": 0, "fusion_lon": 0.0, "lat": 38.96563066666667, "is_disabled": 0, "name": "450b5b81bea13cea1f4be74b1c6d5393", "fusion_lat": 0.0, "rental_uris": {"ios": "https://dc.lft.to/lastmile_qr_scan", "android": "https://dc.lft.to/lastmile_qr_scan"}, "lon": -77.022998, "type": "electric_bike"}, {"bike_id": "682c31e3e27f0a72567ed512e57aea3d", "is_reserved": 0, "fusion_lon": 0.0, "lat": 38.88127433333333, "is_disabled": 0, "name": "682c31e3e27f0a72567ed512e57aea3d", "fusion_lat": 0.0, "rental_uris": {"ios": "https://dc.lft.to/lastmile_qr_scan", "android": "https://dc.lft.to/lastmile_qr_scan"}, "lon": -77.00098366666667, "type": "electric_scooter"}, {"bike_id": "d8e8eb1f945eb3f2f4b5d34359d6cc27", "is_reserved": 0, "fusion_lon": 0.0, "lat": 38.878681, "is_disabled": 0, "name": "d8e8eb1f945eb3f2f4b5d34359d6cc27", "fusion_lat": 0.0, "rental_uris": {"ios": "https://dc.lft.to/lastmile_qr_scan", "android": "https://dc.lft.to/lastmile_qr_scan"}, "lon": -76.98985833333333, "type": "electric_scooter"}, {"bike_id": "a71a8e5774f9e298c53151ef8c597397", "is_reserved": 0, "fusion_lon": 0.0, "lat": 38.910062, "is_disabled": 0, "name": "a71a8e5774f9e298c53151ef8c597397", "fusion_lat": 0.0, "rental_uris": {"ios": "https://dc.lft.to/lastmile_qr_scan", "android": "https://dc.lft.to/lastmile_qr_scan"}, "lon": -77.01655083333333, "type": "electric_scooter"}, {"bike_id": "94d25856755e34f64fed20e0c30ab37e", "is_reserved": 0, "fusion_lon": 0.0, "lat": 38.9059845, "is_disabled": 0, "name": "94d25856755e34f64fed20e0c30ab37e", "fusion_lat": 0.0, "rental_uris": {"ios": "https://dc.lft.to/lastmile_qr_scan", "android": "https://dc.lft.to/lastmile_qr_scan"}, "lon": -77.04123316666667, "type": "electric_scooter"}, {"bike_id": "24ea3f4a43fc8dc4ca2e4992669140ac", "is_reserved": 0, "fusion_lon": 0.0, "lat": 38.900551, "is_disabled": 0, "name": "24ea3f4a43fc8dc4ca2e4992669140ac", "fusion_lat": 0.0, "rental_uris": {"ios": "https://dc.lft.to/lastmile_qr_scan", "android": "https://dc.lft.to/lastmile_qr_scan"}, "lon": -77.000673, "type": "electric_scooter"}, {"bike_id": "3902ce0b5b7a5c11e56f9b6aca777dca", "is_reserved": 0, "fusion_lon": 0.0, "lat": 38.932652166666664, "is_disabled": 0, "name": "3902ce0b5b7a5c11e56f9b6aca777dca", "fusion_lat": 0.0, "rental_uris": {"ios": "https://dc.lft.to/lastmile_qr_scan", "android": "https://dc.lft.to/lastmile_qr_scan"}, "lon": -77.03271333333333, "type": "electric_scooter"}, {"bike_id": "ce02eec31f21923b3693261e9e4ebfb6", "is_reserved": 0, "fusion_lon": 0.0, "lat": 38.90057766666666, "is_disabled": 0, "name": "ce02eec31f21923b3693261e9e4ebfb6", "fusion_lat": 0.0, "rental_uris": {"ios": "https://dc.lft.to/lastmile_qr_scan", "android": "https://dc.lft.to/lastmile_qr_scan"}, "lon": -77.0433525, "type": "electric_scooter"}, {"bike_id": "92cb6bdabfe33294a41b12ede3150bcd", "is_reserved": 0, "fusion_lon": 0.0, "lat": 38.9281475, "is_disabled": 0, "name": "92cb6bdabfe33294a41b12ede3150bcd", "fusion_lat": 0.0, "rental_uris": {"ios": "https://dc.lft.to/lastmile_qr_scan", "android": "https://dc.lft.to/lastmile_qr_scan"}, "lon": -77.03712566666667, "type": "electric_scooter"}, {"bike_id": "cfa9883de648ab4731bc793a4828a4d6", "is_reserved": 0, "fusion_lon": 0.0, "lat": 38.90308233333333, "is_disabled": 0, "name": "cfa9883de648ab4731bc793a4828a4d6", "fusion_lat": 0.0, "rental_uris": {"ios": "https://dc.lft.to/lastmile_qr_scan", "android": "https://dc.lft.to/lastmile_qr_scan"}, "lon": -77.0345995, "type": "electric_scooter"}, {"bike_id": "a27a614e241a563637a55551f496c529", "is_reserved": 0, "fusion_lon": 0.0, "lat": 38.92343416666667, "is_disabled": 0, "name": "a27a614e241a563637a55551f496c529", "fusion_lat": 0.0, "rental_uris": {"ios": "https://dc.lft.to/lastmile_qr_scan", "android": "https://dc.lft.to/lastmile_qr_scan"}, "lon": -77.05347633333334, "type": "electric_scooter"}, {"bike_id": "08868008934749b6a7d1c14d60b59ba8", "is_reserved": 0, "fusion_lon": 0.0, "lat": 38.922579999999996, "is_disabled": 0, "name": "08868008934749b6a7d1c14d60b59ba8", "fusion_lat": 0.0, "rental_uris": {"ios": "https://dc.lft.to/lastmile_qr_scan", "android": "https://dc.lft.to/lastmile_qr_scan"}, "lon": -77.0319805, "type": "electric_scooter"}, {"bike_id": "9a484df6759ce5c34b2f4c2cd4314380", "is_reserved": 0, "fusion_lon": 0.0, "lat": 38.8999885, "is_disabled": 0, "name": "9a484df6759ce5c34b2f4c2cd4314380", "fusion_lat": 0.0, "rental_uris": {"ios": "https://dc.lft.to/lastmile_qr_scan", "android": "https://dc.lft.to/lastmile_qr_scan"}, "lon": -76.99761083333334, "type": "electric_scooter"}, {"bike_id": "26e99ea85d980b9dc3898219d6cec792", "is_reserved": 0, "fusion_lon": 0.0, "lat": 38.93499633333333, "is_disabled": 0, "name": "26e99ea85d980b9dc3898219d6cec792", "fusion_lat": 0.0, "rental_uris": {"ios": "https://dc.lft.to/lastmile_qr_scan", "android": "https://dc.lft.to/lastmile_qr_scan"}, "lon": -77.05804033333334, "type": "electric_scooter"}, {"bike_id": "6a7f99cfaaa5adbcebb66baa3c151030", "is_reserved": 0, "fusion_lon": 0.0, "lat": 38.904564666666666, "is_disabled": 0, "name": "6a7f99cfaaa5adbcebb66baa3c151030", "fusion_lat": 0.0, "rental_uris": {"ios": "https://dc.lft.to/lastmile_qr_scan", "android": "https://dc.lft.to/lastmile_qr_scan"}, "lon": -77.0532055, "type": "electric_scooter"}, {"bike_id": "1b25077b4157636ddc0e33f77dd43daf", "is_reserved": 0, "fusion_lon": 0.0, "lat": 38.936741833333336, "is_disabled": 0, "name": "1b25077b4157636ddc0e33f77dd43daf", "fusion_lat": 0.0, "rental_uris": {"ios": "https://dc.lft.to/lastmile_qr_scan", "android": "https://dc.lft.to/lastmile_qr_scan"}, "lon": -76.9522705, "type": "electric_bike"}, {"bike_id": "e986f6ab655cdd1f379081894e331f62", "is_reserved": 0, "fusion_lon": 0.0, "lat": 38.83698, "is_disabled": 0, "name": "e986f6ab655cdd1f379081894e331f62", "fusion_lat": 0.0, "rental_uris": {"ios": "https://dc.lft.to/lastmile_qr_scan", "android": "https://dc.lft.to/lastmile_qr_scan"}, "lon": -77.00577983333334, "type": "electric_scooter"}, {"bike_id": "56ca52cea10dc1752a30a9683a531ca2", "is_reserved": 0, "fusion_lon": 0.0, "lat": 38.9288115, "is_disabled": 0, "name": "56ca52cea10dc1752a30a9683a531ca2", "fusion_lat": 0.0, "rental_uris": {"ios": "https://dc.lft.to/lastmile_qr_scan", "android": "https://dc.lft.to/lastmile_qr_scan"}, "lon": -77.04048166666666, "type": "electric_scooter"}, {"bike_id": "dba0e9f323efc26839c94e5609756933", "is_reserved": 0, "fusion_lon": 0.0, "lat": 38.92767533333333, "is_disabled": 0, "name": "dba0e9f323efc26839c94e5609756933", "fusion_lat": 0.0, "rental_uris": {"ios": "https://dc.lft.to/lastmile_qr_scan", "android": "https://dc.lft.to/lastmile_qr_scan"}, "lon": -77.02851366666667, "type": "electric_scooter"}, {"bike_id": "32a6129639bcf98a64b0a03863393317", "is_reserved": 0, "fusion_lon": 0.0, "lat": 38.880324333333334, "is_disabled": 0, "name": "32a6129639bcf98a64b0a03863393317", "fusion_lat": 0.0, "rental_uris": {"ios": "https://dc.lft.to/lastmile_qr_scan", "android": "https://dc.lft.to/lastmile_qr_scan"}, "lon": -77.0193185, "type": "electric_scooter"}, {"bike_id": "43ec2d1b168532e3235045883deddeb1", "is_reserved": 0, "fusion_lon": 0.0, "lat": 38.915535, "is_disabled": 0, "name": "43ec2d1b168532e3235045883deddeb1", "fusion_lat": 0.0, "rental_uris": {"ios": "https://dc.lft.to/lastmile_qr_scan", "android": "https://dc.lft.to/lastmile_qr_scan"}, "lon": -77.03514983333334, "type": "electric_scooter"}, {"bike_id": "1cd052a7d9906d7f1356faf5ef486f1a", "is_reserved": 0, "fusion_lon": 0.0, "lat": 38.91782966666667, "is_disabled": 0, "name": "1cd052a7d9906d7f1356faf5ef486f1a", "fusion_lat": 0.0, "rental_uris": {"ios": "https://dc.lft.to/lastmile_qr_scan", "android": "https://dc.lft.to/lastmile_qr_scan"}, "lon": -76.973203, "type": "electric_scooter"}, {"bike_id": "5e43bb6be2780f0f83bbea259455555b", "is_reserved": 0, "fusion_lon": 0.0, "lat": 38.8870805, "is_disabled": 0, "name": "5e43bb6be2780f0f83bbea259455555b", "fusion_lat": 0.0, "rental_uris": {"ios": "https://dc.lft.to/lastmile_qr_scan", "android": "https://dc.lft.to/lastmile_qr_scan"}, "lon": -77.001512, "type": "electric_scooter"}, {"bike_id": "cc67518ab1f93210d3da3681b5f22777", "is_reserved": 0, "fusion_lon": 0.0, "lat": 39.03049933333333, "is_disabled": 0, "name": "cc67518ab1f93210d3da3681b5f22777", "fusion_lat": 0.0, "rental_uris": {"ios": "https://dc.lft.to/lastmile_qr_scan", "android": "https://dc.lft.to/lastmile_qr_scan"}, "lon": -77.0948455, "type": "electric_bike"}, {"bike_id": "1c45cc36c57d9beb4ef6f4cd4a96035e", "is_reserved": 0, "fusion_lon": 0.0, "lat": 38.91727433333333, "is_disabled": 0, "name": "1c45cc36c57d9beb4ef6f4cd4a96035e", "fusion_lat": 0.0, "rental_uris": {"ios": "https://dc.lft.to/lastmile_qr_scan", "android": "https://dc.lft.to/lastmile_qr_scan"}, "lon": -77.02887566666666, "type": "electric_scooter"}, {"bike_id": "35638e62577575ba0ee2de34b46722bd", "is_reserved": 0, "fusion_lon": 0.0, "lat": 38.90522683333333, "is_disabled": 0, "name": "35638e62577575ba0ee2de34b46722bd", "fusion_lat": 0.0, "rental_uris": {"ios": "https://dc.lft.to/lastmile_qr_scan", "android": "https://dc.lft.to/lastmile_qr_scan"}, "lon": -77.06535016666666, "type": "electric_scooter"}, {"bike_id": "e208f73f88f0a4efc103159f1453363c", "is_reserved": 0, "fusion_lon": 0.0, "lat": 38.892275, "is_disabled": 0, "name": "e208f73f88f0a4efc103159f1453363c", "fusion_lat": 0.0, "rental_uris": {"ios": "https://dc.lft.to/lastmile_qr_scan", "android": "https://dc.lft.to/lastmile_qr_scan"}, "lon": -77.00298216666667, "type": "electric_scooter"}, {"bike_id": "759a479819275ed1522339f7a6dbc2c5", "is_reserved": 0, "fusion_lon": 0.0, "lat": 38.8896845, "is_disabled": 0, "name": "759a479819275ed1522339f7a6dbc2c5", "fusion_lat": 0.0, "rental_uris": {"ios": "https://dc.lft.to/lastmile_qr_scan", "android": "https://dc.lft.to/lastmile_qr_scan"}, "lon": -76.98035433333334, "type": "electric_scooter"}, {"bike_id": "525894022bc3112472f56e276254eebd", "is_reserved": 0, "fusion_lon": 0.0, "lat": 38.923157833333335, "is_disabled": 0, "name": "525894022bc3112472f56e276254eebd", "fusion_lat": 0.0, "rental_uris": {"ios": "https://dc.lft.to/lastmile_qr_scan", "android": "https://dc.lft.to/lastmile_qr_scan"}, "lon": -77.02118383333334, "type": "electric_scooter"}, {"bike_id": "8e43a21bf327a0084ca45c3970245ff9", "is_reserved": 0, "fusion_lon": 0.0, "lat": 38.90336883333333, "is_disabled": 0, "name": "8e43a21bf327a0084ca45c3970245ff9", "fusion_lat": 0.0, "rental_uris": {"ios": "https://dc.lft.to/lastmile_qr_scan", "android": "https://dc.lft.to/lastmile_qr_scan"}, "lon": -76.9801425, "type": "electric_scooter"}, {"bike_id": "3066654904612f5c62b7c21a9a91e7dd", "is_reserved": 0, "fusion_lon": 0.0, "lat": 38.89618016666667, "is_disabled": 0, "name": "3066654904612f5c62b7c21a9a91e7dd", "fusion_lat": 0.0, "rental_uris": {"ios": "https://dc.lft.to/lastmile_qr_scan", "android": "https://dc.lft.to/lastmile_qr_scan"}, "lon": -77.00259416666667, "type": "electric_scooter"}, {"bike_id": "032f103dd52b862b9d7f04bcad5abb46", "is_reserved": 0, "fusion_lon": 0.0, "lat": 38.89829066666667, "is_disabled": 0, "name": "032f103dd52b862b9d7f04bcad5abb46", "fusion_lat": 0.0, "rental_uris": {"ios": "https://dc.lft.to/lastmile_qr_scan", "android": "https://dc.lft.to/lastmile_qr_scan"}, "lon": -76.98034916666667, "type": "electric_scooter"}, {"bike_id": "bfecc68a03b16b658a8f25d2c7fdf2f3", "is_reserved": 0, "fusion_lon": 0.0, "lat": 38.930068166666665, "is_disabled": 0, "name": "bfecc68a03b16b658a8f25d2c7fdf2f3", "fusion_lat": 0.0, "rental_uris": {"ios": "https://dc.lft.to/lastmile_qr_scan", "android": "https://dc.lft.to/lastmile_qr_scan"}, "lon": -77.037753, "type": "electric_scooter"}, {"bike_id": "569644b014dd0fda4e31294df3213181", "is_reserved": 0, "fusion_lon": 0.0, "lat": 38.933486333333335, "is_disabled": 0, "name": "569644b014dd0fda4e31294df3213181", "fusion_lat": 0.0, "rental_uris": {"ios": "https://dc.lft.to/lastmile_qr_scan", "android": "https://dc.lft.to/lastmile_qr_scan"}, "lon": -77.05707133333334, "type": "electric_scooter"}, {"bike_id": "597463acf297e465868b79014a340316", "is_reserved": 0, "fusion_lon": 0.0, "lat": 38.9016475, "is_disabled": 0, "name": "597463acf297e465868b79014a340316", "fusion_lat": 0.0, "rental_uris": {"ios": "https://dc.lft.to/lastmile_qr_scan", "android": "https://dc.lft.to/lastmile_qr_scan"}, "lon": -77.033255, "type": "electric_scooter"}, {"bike_id": "4a5dbc9e2da23fa8f97816d1ca227eed", "is_reserved": 0, "fusion_lon": 0.0, "lat": 38.9008975, "is_disabled": 0, "name": "4a5dbc9e2da23fa8f97816d1ca227eed", "fusion_lat": 0.0, "rental_uris": {"ios": "https://dc.lft.to/lastmile_qr_scan", "android": "https://dc.lft.to/lastmile_qr_scan"}, "lon": -77.04815816666667, "type": "electric_scooter"}, {"bike_id": "111227681c90c5e3cd90f2747851642f", "is_reserved": 0, "fusion_lon": 0.0, "lat": 38.82785466666667, "is_disabled": 0, "name": "111227681c90c5e3cd90f2747851642f", "fusion_lat": 0.0, "rental_uris": {"ios": "https://dc.lft.to/lastmile_qr_scan", "android": "https://dc.lft.to/lastmile_qr_scan"}, "lon": -77.009167, "type": "electric_bike"}, {"bike_id": "afa20e1950174c8b19a510b51ddb50ad", "is_reserved": 0, "fusion_lon": 0.0, "lat": 38.927603833333336, "is_disabled": 0, "name": "afa20e1950174c8b19a510b51ddb50ad", "fusion_lat": 0.0, "rental_uris": {"ios": "https://dc.lft.to/lastmile_qr_scan", "android": "https://dc.lft.to/lastmile_qr_scan"}, "lon": -77.032751, "type": "electric_scooter"}, {"bike_id": "7a3be3d768565bc106126096ec928152", "is_reserved": 0, "fusion_lon": 0.0, "lat": 38.8919795, "is_disabled": 0, "name": "7a3be3d768565bc106126096ec928152", "fusion_lat": 0.0, "rental_uris": {"ios": "https://dc.lft.to/lastmile_qr_scan", "android": "https://dc.lft.to/lastmile_qr_scan"}, "lon": -77.02837133333334, "type": "electric_scooter"}, {"bike_id": "686926d5e009cd994a451234c325bf2c", "is_reserved": 0, "fusion_lon": 0.0, "lat": 38.884966666666664, "is_disabled": 0, "name": "686926d5e009cd994a451234c325bf2c", "fusion_lat": 0.0, "rental_uris": {"ios": "https://dc.lft.to/lastmile_qr_scan", "android": "https://dc.lft.to/lastmile_qr_scan"}, "lon": -77.00727383333333, "type": "electric_scooter"}, {"bike_id": "8dc617ce3e1d494f53bdf5e8e0d85d46", "is_reserved": 0, "fusion_lon": 0.0, "lat": 38.984397666666666, "is_disabled": 0, "name": "8dc617ce3e1d494f53bdf5e8e0d85d46", "fusion_lat": 0.0, "rental_uris": {"ios": "https://dc.lft.to/lastmile_qr_scan", "android": "https://dc.lft.to/lastmile_qr_scan"}, "lon": -77.0267485, "type": "electric_scooter"}, {"bike_id": "eac2edcd25cf15816c41fcf5febb16aa", "is_reserved": 0, "fusion_lon": 0.0, "lat": 38.90727616666667, "is_disabled": 0, "name": "eac2edcd25cf15816c41fcf5febb16aa", "fusion_lat": 0.0, "rental_uris": {"ios": "https://dc.lft.to/lastmile_qr_scan", "android": "https://dc.lft.to/lastmile_qr_scan"}, "lon": -77.024151, "type": "electric_scooter"}, {"bike_id": "c69992671a74c77c05be1f0c5f1182f5", "is_reserved": 0, "fusion_lon": 0.0, "lat": 38.90060783333333, "is_disabled": 0, "name": "c69992671a74c77c05be1f0c5f1182f5", "fusion_lat": 0.0, "rental_uris": {"ios": "https://dc.lft.to/lastmile_qr_scan", "android": "https://dc.lft.to/lastmile_qr_scan"}, "lon": -77.00751333333334, "type": "electric_scooter"}, {"bike_id": "8a783349232c721db41224c79467a89d", "is_reserved": 0, "fusion_lon": 0.0, "lat": 38.95649866666667, "is_disabled": 0, "name": "8a783349232c721db41224c79467a89d", "fusion_lat": 0.0, "rental_uris": {"ios": "https://dc.lft.to/lastmile_qr_scan", "android": "https://dc.lft.to/lastmile_qr_scan"}, "lon": -77.03285633333333, "type": "electric_scooter"}, {"bike_id": "70494fd60fea29393c120e69777fec07", "is_reserved": 0, "fusion_lon": 0.0, "lat": 38.9650035, "is_disabled": 0, "name": "70494fd60fea29393c120e69777fec07", "fusion_lat": 0.0, "rental_uris": {"ios": "https://dc.lft.to/lastmile_qr_scan", "android": "https://dc.lft.to/lastmile_qr_scan"}, "lon": -77.087753, "type": "electric_bike"}, {"bike_id": "c8a598c996804ec1677511cf5c774909", "is_reserved": 0, "fusion_lon": 0.0, "lat": 38.92323783333333, "is_disabled": 0, "name": "c8a598c996804ec1677511cf5c774909", "fusion_lat": 0.0, "rental_uris": {"ios": "https://dc.lft.to/lastmile_qr_scan", "android": "https://dc.lft.to/lastmile_qr_scan"}, "lon": -77.0390515, "type": "electric_scooter"}, {"bike_id": "776a5550472f3814c577e21651174d6a", "is_reserved": 0, "fusion_lon": 0.0, "lat": 38.920441333333336, "is_disabled": 0, "name": "776a5550472f3814c577e21651174d6a", "fusion_lat": 0.0, "rental_uris": {"ios": "https://dc.lft.to/lastmile_qr_scan", "android": "https://dc.lft.to/lastmile_qr_scan"}, "lon": -77.0419205, "type": "electric_scooter"}, {"bike_id": "7351b6d29128566023b5a3be03f51880", "is_reserved": 0, "fusion_lon": 0.0, "lat": 38.908696666666664, "is_disabled": 0, "name": "7351b6d29128566023b5a3be03f51880", "fusion_lat": 0.0, "rental_uris": {"ios": "https://dc.lft.to/lastmile_qr_scan", "android": "https://dc.lft.to/lastmile_qr_scan"}, "lon": -77.0859515, "type": "electric_scooter"}, {"bike_id": "f8b17d80fb218826d29e151a9ff3f5fb", "is_reserved": 0, "fusion_lon": 0.0, "lat": 38.924719333333336, "is_disabled": 0, "name": "f8b17d80fb218826d29e151a9ff3f5fb", "fusion_lat": 0.0, "rental_uris": {"ios": "https://dc.lft.to/lastmile_qr_scan", "android": "https://dc.lft.to/lastmile_qr_scan"}, "lon": -77.0314085, "type": "electric_scooter"}, {"bike_id": "340ad3911b48b3068b0fb7eb67cc23d3", "is_reserved": 0, "fusion_lon": 0.0, "lat": 38.8995585, "is_disabled": 0, "name": "340ad3911b48b3068b0fb7eb67cc23d3", "fusion_lat": 0.0, "rental_uris": {"ios": "https://dc.lft.to/lastmile_qr_scan", "android": "https://dc.lft.to/lastmile_qr_scan"}, "lon": -77.05061183333333, "type": "electric_scooter"}, {"bike_id": "10a31f2f8a923c32921a3a33c32fb299", "is_reserved": 0, "fusion_lon": 0.0, "lat": 38.90191166666666, "is_disabled": 0, "name": "10a31f2f8a923c32921a3a33c32fb299", "fusion_lat": 0.0, "rental_uris": {"ios": "https://dc.lft.to/lastmile_qr_scan", "android": "https://dc.lft.to/lastmile_qr_scan"}, "lon": -76.9418375, "type": "electric_scooter"}, {"bike_id": "3eec6196d3a662c64ba6dc4446759372", "is_reserved": 0, "fusion_lon": 0.0, "lat": 38.8933525, "is_disabled": 0, "name": "3eec6196d3a662c64ba6dc4446759372", "fusion_lat": 0.0, "rental_uris": {"ios": "https://dc.lft.to/lastmile_qr_scan", "android": "https://dc.lft.to/lastmile_qr_scan"}, "lon": -76.92890983333334, "type": "electric_scooter"}, {"bike_id": "6c7aebb825ed86d66a81cf66e5ceb5ec", "is_reserved": 0, "fusion_lon": 0.0, "lat": 38.9171465, "is_disabled": 0, "name": "6c7aebb825ed86d66a81cf66e5ceb5ec", "fusion_lat": 0.0, "rental_uris": {"ios": "https://dc.lft.to/lastmile_qr_scan", "android": "https://dc.lft.to/lastmile_qr_scan"}, "lon": -77.02402083333334, "type": "electric_scooter"}, {"bike_id": "201a84f4a805e353fb42fffbd8a2d5c4", "is_reserved": 0, "fusion_lon": 0.0, "lat": 38.90141716666667, "is_disabled": 0, "name": "201a84f4a805e353fb42fffbd8a2d5c4", "fusion_lat": 0.0, "rental_uris": {"ios": "https://dc.lft.to/lastmile_qr_scan", "android": "https://dc.lft.to/lastmile_qr_scan"}, "lon": -77.0403655, "type": "electric_scooter"}, {"bike_id": "ed43eb2bf593c656f21b70def81183d4", "is_reserved": 0, "fusion_lon": 0.0, "lat": 38.911175666666665, "is_disabled": 0, "name": "ed43eb2bf593c656f21b70def81183d4", "fusion_lat": 0.0, "rental_uris": {"ios": "https://dc.lft.to/lastmile_qr_scan", "android": "https://dc.lft.to/lastmile_qr_scan"}, "lon": -77.002485, "type": "electric_scooter"}, {"bike_id": "44960395020cc13b82e6d77655428d60", "is_reserved": 0, "fusion_lon": 0.0, "lat": 38.89912416666667, "is_disabled": 0, "name": "44960395020cc13b82e6d77655428d60", "fusion_lat": 0.0, "rental_uris": {"ios": "https://dc.lft.to/lastmile_qr_scan", "android": "https://dc.lft.to/lastmile_qr_scan"}, "lon": -76.93351366666667, "type": "electric_scooter"}, {"bike_id": "89050a771eac51a67ad2cfc48d028aad", "is_reserved": 0, "fusion_lon": 0.0, "lat": 38.871896, "is_disabled": 0, "name": "89050a771eac51a67ad2cfc48d028aad", "fusion_lat": 0.0, "rental_uris": {"ios": "https://dc.lft.to/lastmile_qr_scan", "android": "https://dc.lft.to/lastmile_qr_scan"}, "lon": -77.01223116666667, "type": "electric_scooter"}, {"bike_id": "b8bc4acb6d2332d5b45f5542dab0ddf9", "is_reserved": 0, "fusion_lon": 0.0, "lat": 38.90799233333333, "is_disabled": 0, "name": "b8bc4acb6d2332d5b45f5542dab0ddf9", "fusion_lat": 0.0, "rental_uris": {"ios": "https://dc.lft.to/lastmile_qr_scan", "android": "https://dc.lft.to/lastmile_qr_scan"}, "lon": -76.99700233333333, "type": "electric_scooter"}, {"bike_id": "ef3f73ffe154c1bd12b3e8c3595c6b9c", "is_reserved": 0, "fusion_lon": 0.0, "lat": 38.94180266666667, "is_disabled": 0, "name": "ef3f73ffe154c1bd12b3e8c3595c6b9c", "fusion_lat": 0.0, "rental_uris": {"ios": "https://dc.lft.to/lastmile_qr_scan", "android": "https://dc.lft.to/lastmile_qr_scan"}, "lon": -77.03094816666666, "type": "electric_scooter"}, {"bike_id": "9576f76856ac55aeef2bac992ef55b6c", "is_reserved": 0, "fusion_lon": 0.0, "lat": 38.858053166666664, "is_disabled": 0, "name": "9576f76856ac55aeef2bac992ef55b6c", "fusion_lat": 0.0, "rental_uris": {"ios": "https://dc.lft.to/lastmile_qr_scan", "android": "https://dc.lft.to/lastmile_qr_scan"}, "lon": -76.9865925, "type": "electric_scooter"}, {"bike_id": "6c0225affbffc9e123e6806c7b070c7b", "is_reserved": 0, "fusion_lon": 0.0, "lat": 38.912600166666664, "is_disabled": 0, "name": "6c0225affbffc9e123e6806c7b070c7b", "fusion_lat": 0.0, "rental_uris": {"ios": "https://dc.lft.to/lastmile_qr_scan", "android": "https://dc.lft.to/lastmile_qr_scan"}, "lon": -77.038012, "type": "electric_scooter"}, {"bike_id": "b6e2ca0a5908c73a6adebd3a520828a7", "is_reserved": 0, "fusion_lon": 0.0, "lat": 38.96824616666667, "is_disabled": 0, "name": "b6e2ca0a5908c73a6adebd3a520828a7", "fusion_lat": 0.0, "rental_uris": {"ios": "https://dc.lft.to/lastmile_qr_scan", "android": "https://dc.lft.to/lastmile_qr_scan"}, "lon": -77.01786283333334, "type": "electric_scooter"}, {"bike_id": "5fa63ae108cd4591ee38ee18c092821d", "is_reserved": 0, "fusion_lon": 0.0, "lat": 38.9053825, "is_disabled": 0, "name": "5fa63ae108cd4591ee38ee18c092821d", "fusion_lat": 0.0, "rental_uris": {"ios": "https://dc.lft.to/lastmile_qr_scan", "android": "https://dc.lft.to/lastmile_qr_scan"}, "lon": -77.05047466666667, "type": "electric_scooter"}, {"bike_id": "44ff6c9dbb4aef077126dfcca085dacb", "is_reserved": 0, "fusion_lon": 0.0, "lat": 38.92112516666667, "is_disabled": 0, "name": "44ff6c9dbb4aef077126dfcca085dacb", "fusion_lat": 0.0, "rental_uris": {"ios": "https://dc.lft.to/lastmile_qr_scan", "android": "https://dc.lft.to/lastmile_qr_scan"}, "lon": -77.02186883333333, "type": "electric_scooter"}, {"bike_id": "d6599fb6121f9c10be26edd73bc8b1d0", "is_reserved": 0, "fusion_lon": 0.0, "lat": 38.86963683333333, "is_disabled": 0, "name": "d6599fb6121f9c10be26edd73bc8b1d0", "fusion_lat": 0.0, "rental_uris": {"ios": "https://dc.lft.to/lastmile_qr_scan", "android": "https://dc.lft.to/lastmile_qr_scan"}, "lon": -77.0137325, "type": "electric_scooter"}, {"bike_id": "e06e84fb30c00c70134e537bb5e3127b", "is_reserved": 0, "fusion_lon": 0.0, "lat": 38.926089166666664, "is_disabled": 0, "name": "e06e84fb30c00c70134e537bb5e3127b", "fusion_lat": 0.0, "rental_uris": {"ios": "https://dc.lft.to/lastmile_qr_scan", "android": "https://dc.lft.to/lastmile_qr_scan"}, "lon": -77.03957733333333, "type": "electric_scooter"}, {"bike_id": "317782601946a1b287a5d11bc9c139f5", "is_reserved": 0, "fusion_lon": 0.0, "lat": 38.904602833333335, "is_disabled": 0, "name": "317782601946a1b287a5d11bc9c139f5", "fusion_lat": 0.0, "rental_uris": {"ios": "https://dc.lft.to/lastmile_qr_scan", "android": "https://dc.lft.to/lastmile_qr_scan"}, "lon": -76.99503666666666, "type": "electric_scooter"}, {"bike_id": "3f1a24bd08cfa29db7060458972e988a", "is_reserved": 0, "fusion_lon": 0.0, "lat": 38.87458266666667, "is_disabled": 0, "name": "3f1a24bd08cfa29db7060458972e988a", "fusion_lat": 0.0, "rental_uris": {"ios": "https://dc.lft.to/lastmile_qr_scan", "android": "https://dc.lft.to/lastmile_qr_scan"}, "lon": -77.003132, "type": "electric_scooter"}, {"bike_id": "4348c42a080ae45369b13127d38ddd0d", "is_reserved": 0, "fusion_lon": 0.0, "lat": 38.92215366666667, "is_disabled": 0, "name": "4348c42a080ae45369b13127d38ddd0d", "fusion_lat": 0.0, "rental_uris": {"ios": "https://dc.lft.to/lastmile_qr_scan", "android": "https://dc.lft.to/lastmile_qr_scan"}, "lon": -77.036609, "type": "electric_scooter"}, {"bike_id": "5d6ed86ca80600ad4bd5faa8b2fe5e61", "is_reserved": 0, "fusion_lon": 0.0, "lat": 38.90172116666667, "is_disabled": 0, "name": "5d6ed86ca80600ad4bd5faa8b2fe5e61", "fusion_lat": 0.0, "rental_uris": {"ios": "https://dc.lft.to/lastmile_qr_scan", "android": "https://dc.lft.to/lastmile_qr_scan"}, "lon": -77.024745, "type": "electric_scooter"}, {"bike_id": "6e70ae46d1ab5557144b6d6589fa7a5b", "is_reserved": 0, "fusion_lon": 0.0, "lat": 38.89169166666667, "is_disabled": 0, "name": "6e70ae46d1ab5557144b6d6589fa7a5b", "fusion_lat": 0.0, "rental_uris": {"ios": "https://dc.lft.to/lastmile_qr_scan", "android": "https://dc.lft.to/lastmile_qr_scan"}, "lon": -77.0154605, "type": "electric_scooter"}, {"bike_id": "722e996dcdc5d92f989f50b8cd251564", "is_reserved": 0, "fusion_lon": 0.0, "lat": 38.876427, "is_disabled": 0, "name": "722e996dcdc5d92f989f50b8cd251564", "fusion_lat": 0.0, "rental_uris": {"ios": "https://dc.lft.to/lastmile_qr_scan", "android": "https://dc.lft.to/lastmile_qr_scan"}, "lon": -76.99589333333333, "type": "electric_scooter"}, {"bike_id": "188cf64d91a22dca19f653c6dec7fd5b", "is_reserved": 0, "fusion_lon": 0.0, "lat": 38.996742, "is_disabled": 0, "name": "188cf64d91a22dca19f653c6dec7fd5b", "fusion_lat": 0.0, "rental_uris": {"ios": "https://dc.lft.to/lastmile_qr_scan", "android": "https://dc.lft.to/lastmile_qr_scan"}, "lon": -77.03770233333333, "type": "electric_bike"}, {"bike_id": "dbe993e034463ba2c0c34afaf116990f", "is_reserved": 0, "fusion_lon": 0.0, "lat": 38.898223, "is_disabled": 0, "name": "dbe993e034463ba2c0c34afaf116990f", "fusion_lat": 0.0, "rental_uris": {"ios": "https://dc.lft.to/lastmile_qr_scan", "android": "https://dc.lft.to/lastmile_qr_scan"}, "lon": -77.03326366666667, "type": "electric_scooter"}, {"bike_id": "c74429d579ec8a48a3a279c6af1193d1", "is_reserved": 0, "fusion_lon": 0.0, "lat": 38.918389166666664, "is_disabled": 0, "name": "c74429d579ec8a48a3a279c6af1193d1", "fusion_lat": 0.0, "rental_uris": {"ios": "https://dc.lft.to/lastmile_qr_scan", "android": "https://dc.lft.to/lastmile_qr_scan"}, "lon": -77.03889466666666, "type": "electric_scooter"}, {"bike_id": "30d0495d7b1d3a66db6b93d3f03e7f02", "is_reserved": 0, "fusion_lon": 0.0, "lat": 38.934327, "is_disabled": 0, "name": "30d0495d7b1d3a66db6b93d3f03e7f02", "fusion_lat": 0.0, "rental_uris": {"ios": "https://dc.lft.to/lastmile_qr_scan", "android": "https://dc.lft.to/lastmile_qr_scan"}, "lon": -76.9650675, "type": "electric_scooter"}, {"bike_id": "c2427cde7db12d22a9e945f015bbf3fc", "is_reserved": 0, "fusion_lon": 0.0, "lat": 38.88494933333333, "is_disabled": 0, "name": "c2427cde7db12d22a9e945f015bbf3fc", "fusion_lat": 0.0, "rental_uris": {"ios": "https://dc.lft.to/lastmile_qr_scan", "android": "https://dc.lft.to/lastmile_qr_scan"}, "lon": -77.00717, "type": "electric_scooter"}, {"bike_id": "cb0d7be90e7a6ec055a99a9e9d24e1c0", "is_reserved": 0, "fusion_lon": 0.0, "lat": 38.924833666666665, "is_disabled": 0, "name": "cb0d7be90e7a6ec055a99a9e9d24e1c0", "fusion_lat": 0.0, "rental_uris": {"ios": "https://dc.lft.to/lastmile_qr_scan", "android": "https://dc.lft.to/lastmile_qr_scan"}, "lon": -77.02247533333333, "type": "electric_scooter"}, {"bike_id": "ddbd6ee1cdcf9450ab19afa2bb6ad3fe", "is_reserved": 0, "fusion_lon": 0.0, "lat": 38.88363533333333, "is_disabled": 0, "name": "ddbd6ee1cdcf9450ab19afa2bb6ad3fe", "fusion_lat": 0.0, "rental_uris": {"ios": "https://dc.lft.to/lastmile_qr_scan", "android": "https://dc.lft.to/lastmile_qr_scan"}, "lon": -77.03174483333333, "type": "electric_scooter"}, {"bike_id": "38bfb86c7ebc02f7c64e9fc440f44316", "is_reserved": 0, "fusion_lon": 0.0, "lat": 38.892326833333335, "is_disabled": 0, "name": "38bfb86c7ebc02f7c64e9fc440f44316", "fusion_lat": 0.0, "rental_uris": {"ios": "https://dc.lft.to/lastmile_qr_scan", "android": "https://dc.lft.to/lastmile_qr_scan"}, "lon": -77.05002483333334, "type": "electric_scooter"}, {"bike_id": "7291f8208bc235ea3b08fc083b340c12", "is_reserved": 0, "fusion_lon": 0.0, "lat": 38.917915666666666, "is_disabled": 0, "name": "7291f8208bc235ea3b08fc083b340c12", "fusion_lat": 0.0, "rental_uris": {"ios": "https://dc.lft.to/lastmile_qr_scan", "android": "https://dc.lft.to/lastmile_qr_scan"}, "lon": -77.02311483333334, "type": "electric_scooter"}, {"bike_id": "13d12a27f2e0509a693c5053e07de4a9", "is_reserved": 0, "fusion_lon": 0.0, "lat": 38.892394, "is_disabled": 0, "name": "13d12a27f2e0509a693c5053e07de4a9", "fusion_lat": 0.0, "rental_uris": {"ios": "https://dc.lft.to/lastmile_qr_scan", "android": "https://dc.lft.to/lastmile_qr_scan"}, "lon": -77.02797883333334, "type": "electric_scooter"}, {"bike_id": "b4d88770e1d863b56f9ba45d17ed0fa4", "is_reserved": 0, "fusion_lon": 0.0, "lat": 38.9274925, "is_disabled": 0, "name": "b4d88770e1d863b56f9ba45d17ed0fa4", "fusion_lat": 0.0, "rental_uris": {"ios": "https://dc.lft.to/lastmile_qr_scan", "android": "https://dc.lft.to/lastmile_qr_scan"}, "lon": -77.02534033333333, "type": "electric_scooter"}, {"bike_id": "4a03da7a9fd2cab953c241425de0da21", "is_reserved": 0, "fusion_lon": 0.0, "lat": 38.92066883333333, "is_disabled": 0, "name": "4a03da7a9fd2cab953c241425de0da21", "fusion_lat": 0.0, "rental_uris": {"ios": "https://dc.lft.to/lastmile_qr_scan", "android": "https://dc.lft.to/lastmile_qr_scan"}, "lon": -77.04190683333333, "type": "electric_scooter"}, {"bike_id": "8daf66d88c5e60fc45132dd197893a9a", "is_reserved": 0, "fusion_lon": 0.0, "lat": 38.898821166666664, "is_disabled": 0, "name": "8daf66d88c5e60fc45132dd197893a9a", "fusion_lat": 0.0, "rental_uris": {"ios": "https://dc.lft.to/lastmile_qr_scan", "android": "https://dc.lft.to/lastmile_qr_scan"}, "lon": -76.93186933333334, "type": "electric_scooter"}, {"bike_id": "b26e21dbfdb5ffdac82998cfdc332a2b", "is_reserved": 0, "fusion_lon": 0.0, "lat": 38.917164166666666, "is_disabled": 0, "name": "b26e21dbfdb5ffdac82998cfdc332a2b", "fusion_lat": 0.0, "rental_uris": {"ios": "https://dc.lft.to/lastmile_qr_scan", "android": "https://dc.lft.to/lastmile_qr_scan"}, "lon": -77.03455916666667, "type": "electric_scooter"}, {"bike_id": "8171c58dc4aeb94642f8ddc48d9b7b73", "is_reserved": 0, "fusion_lon": 0.0, "lat": 38.93384666666667, "is_disabled": 0, "name": "8171c58dc4aeb94642f8ddc48d9b7b73", "fusion_lat": 0.0, "rental_uris": {"ios": "https://dc.lft.to/lastmile_qr_scan", "android": "https://dc.lft.to/lastmile_qr_scan"}, "lon": -77.0290925, "type": "electric_scooter"}, {"bike_id": "295c6420373385fa15cf94db16472544", "is_reserved": 0, "fusion_lon": 0.0, "lat": 38.870751, "is_disabled": 0, "name": "295c6420373385fa15cf94db16472544", "fusion_lat": 0.0, "rental_uris": {"ios": "https://dc.lft.to/lastmile_qr_scan", "android": "https://dc.lft.to/lastmile_qr_scan"}, "lon": -76.98237866666666, "type": "electric_scooter"}, {"bike_id": "ce7cbf12952f685563f9d7178f79c6a3", "is_reserved": 0, "fusion_lon": 0.0, "lat": 38.90856866666667, "is_disabled": 0, "name": "ce7cbf12952f685563f9d7178f79c6a3", "fusion_lat": 0.0, "rental_uris": {"ios": "https://dc.lft.to/lastmile_qr_scan", "android": "https://dc.lft.to/lastmile_qr_scan"}, "lon": -77.0853695, "type": "electric_scooter"}, {"bike_id": "c895ef42fbd723dc5ba73506f3350558", "is_reserved": 0, "fusion_lon": 0.0, "lat": 38.923138333333334, "is_disabled": 0, "name": "c895ef42fbd723dc5ba73506f3350558", "fusion_lat": 0.0, "rental_uris": {"ios": "https://dc.lft.to/lastmile_qr_scan", "android": "https://dc.lft.to/lastmile_qr_scan"}, "lon": -77.0412425, "type": "electric_scooter"}, {"bike_id": "87ba905de43a969ee78e017c665692a6", "is_reserved": 0, "fusion_lon": 0.0, "lat": 38.9247215, "is_disabled": 0, "name": "87ba905de43a969ee78e017c665692a6", "fusion_lat": 0.0, "rental_uris": {"ios": "https://dc.lft.to/lastmile_qr_scan", "android": "https://dc.lft.to/lastmile_qr_scan"}, "lon": -77.02712583333333, "type": "electric_scooter"}, {"bike_id": "6581ef9049a1b903e4d87e345ff7405c", "is_reserved": 0, "fusion_lon": 0.0, "lat": 38.9077145, "is_disabled": 0, "name": "6581ef9049a1b903e4d87e345ff7405c", "fusion_lat": 0.0, "rental_uris": {"ios": "https://dc.lft.to/lastmile_qr_scan", "android": "https://dc.lft.to/lastmile_qr_scan"}, "lon": -77.0384715, "type": "electric_scooter"}, {"bike_id": "b0c42bce8d0729147b46cceb447ff386", "is_reserved": 0, "fusion_lon": 0.0, "lat": 38.879268333333336, "is_disabled": 0, "name": "b0c42bce8d0729147b46cceb447ff386", "fusion_lat": 0.0, "rental_uris": {"ios": "https://dc.lft.to/lastmile_qr_scan", "android": "https://dc.lft.to/lastmile_qr_scan"}, "lon": -76.99250883333333, "type": "electric_scooter"}, {"bike_id": "f05bba4eaa231b442b1f3adfb3a1a48e", "is_reserved": 0, "fusion_lon": 0.0, "lat": 38.900454333333336, "is_disabled": 0, "name": "f05bba4eaa231b442b1f3adfb3a1a48e", "fusion_lat": 0.0, "rental_uris": {"ios": "https://dc.lft.to/lastmile_qr_scan", "android": "https://dc.lft.to/lastmile_qr_scan"}, "lon": -77.00232033333333, "type": "electric_scooter"}, {"bike_id": "1dbf0ca755919d75ca8d9d6d716fd799", "is_reserved": 0, "fusion_lon": 0.0, "lat": 38.94435466666667, "is_disabled": 0, "name": "1dbf0ca755919d75ca8d9d6d716fd799", "fusion_lat": 0.0, "rental_uris": {"ios": "https://dc.lft.to/lastmile_qr_scan", "android": "https://dc.lft.to/lastmile_qr_scan"}, "lon": -77.063527, "type": "electric_scooter"}, {"bike_id": "e85cdbe52e35b37613dfaf106fa9225d", "is_reserved": 0, "fusion_lon": 0.0, "lat": 38.9130255, "is_disabled": 0, "name": "e85cdbe52e35b37613dfaf106fa9225d", "fusion_lat": 0.0, "rental_uris": {"ios": "https://dc.lft.to/lastmile_qr_scan", "android": "https://dc.lft.to/lastmile_qr_scan"}, "lon": -77.082915, "type": "electric_bike"}, {"bike_id": "fc85f39fc7f6865f8aed395ff966f789", "is_reserved": 0, "fusion_lon": 0.0, "lat": 38.91335816666667, "is_disabled": 0, "name": "fc85f39fc7f6865f8aed395ff966f789", "fusion_lat": 0.0, "rental_uris": {"ios": "https://dc.lft.to/lastmile_qr_scan", "android": "https://dc.lft.to/lastmile_qr_scan"}, "lon": -77.048123, "type": "electric_scooter"}, {"bike_id": "095d0d7135b59e6fb7decb5ff2b1bf68", "is_reserved": 0, "fusion_lon": 0.0, "lat": 38.89624033333333, "is_disabled": 0, "name": "095d0d7135b59e6fb7decb5ff2b1bf68", "fusion_lat": 0.0, "rental_uris": {"ios": "https://dc.lft.to/lastmile_qr_scan", "android": "https://dc.lft.to/lastmile_qr_scan"}, "lon": -77.00908216666667, "type": "electric_scooter"}, {"bike_id": "2ae31234ada53572d5236018fbecd043", "is_reserved": 0, "fusion_lon": 0.0, "lat": 38.92432816666667, "is_disabled": 0, "name": "2ae31234ada53572d5236018fbecd043", "fusion_lat": 0.0, "rental_uris": {"ios": "https://dc.lft.to/lastmile_qr_scan", "android": "https://dc.lft.to/lastmile_qr_scan"}, "lon": -77.04007833333333, "type": "electric_scooter"}, {"bike_id": "f0e63703d4ce5330fcd0128cf41f4a50", "is_reserved": 0, "fusion_lon": 0.0, "lat": 38.91711216666667, "is_disabled": 0, "name": "f0e63703d4ce5330fcd0128cf41f4a50", "fusion_lat": 0.0, "rental_uris": {"ios": "https://dc.lft.to/lastmile_qr_scan", "android": "https://dc.lft.to/lastmile_qr_scan"}, "lon": -77.02401183333333, "type": "electric_scooter"}, {"bike_id": "960f99090a38907e1703163b70ba3d15", "is_reserved": 0, "fusion_lon": 0.0, "lat": 38.8619635, "is_disabled": 0, "name": "960f99090a38907e1703163b70ba3d15", "fusion_lat": 0.0, "rental_uris": {"ios": "https://dc.lft.to/lastmile_qr_scan", "android": "https://dc.lft.to/lastmile_qr_scan"}, "lon": -76.99466016666666, "type": "electric_scooter"}, {"bike_id": "3060d46e70e6df5201bdaa892b4ce33f", "is_reserved": 0, "fusion_lon": 0.0, "lat": 38.9196255, "is_disabled": 0, "name": "3060d46e70e6df5201bdaa892b4ce33f", "fusion_lat": 0.0, "rental_uris": {"ios": "https://dc.lft.to/lastmile_qr_scan", "android": "https://dc.lft.to/lastmile_qr_scan"}, "lon": -76.97268166666667, "type": "electric_bike"}, {"bike_id": "2865dc871987cec64770e01384cced4c", "is_reserved": 0, "fusion_lon": 0.0, "lat": 38.961760166666664, "is_disabled": 0, "name": "2865dc871987cec64770e01384cced4c", "fusion_lat": 0.0, "rental_uris": {"ios": "https://dc.lft.to/lastmile_qr_scan", "android": "https://dc.lft.to/lastmile_qr_scan"}, "lon": -76.99592283333334, "type": "electric_bike"}, {"bike_id": "3abf751d3036f8938c4c2de8b8cc0fc5", "is_reserved": 0, "fusion_lon": 0.0, "lat": 38.949498166666665, "is_disabled": 0, "name": "3abf751d3036f8938c4c2de8b8cc0fc5", "fusion_lat": 0.0, "rental_uris": {"ios": "https://dc.lft.to/lastmile_qr_scan", "android": "https://dc.lft.to/lastmile_qr_scan"}, "lon": -77.01610933333333, "type": "electric_scooter"}, {"bike_id": "d90d0512711514cd422a5cae623bddd1", "is_reserved": 0, "fusion_lon": 0.0, "lat": 38.91568916666667, "is_disabled": 0, "name": "d90d0512711514cd422a5cae623bddd1", "fusion_lat": 0.0, "rental_uris": {"ios": "https://dc.lft.to/lastmile_qr_scan", "android": "https://dc.lft.to/lastmile_qr_scan"}, "lon": -77.0466975, "type": "electric_scooter"}, {"bike_id": "6230bfce62499c1c11fe329abda8acd1", "is_reserved": 0, "fusion_lon": 0.0, "lat": 38.90093383333333, "is_disabled": 0, "name": "6230bfce62499c1c11fe329abda8acd1", "fusion_lat": 0.0, "rental_uris": {"ios": "https://dc.lft.to/lastmile_qr_scan", "android": "https://dc.lft.to/lastmile_qr_scan"}, "lon": -77.045045, "type": "electric_scooter"}, {"bike_id": "e0edcb302dc65c342235cbff9f31f195", "is_reserved": 0, "fusion_lon": 0.0, "lat": 38.9021745, "is_disabled": 0, "name": "e0edcb302dc65c342235cbff9f31f195", "fusion_lat": 0.0, "rental_uris": {"ios": "https://dc.lft.to/lastmile_qr_scan", "android": "https://dc.lft.to/lastmile_qr_scan"}, "lon": -76.94591, "type": "electric_scooter"}, {"bike_id": "c7a8be6097f4c152e9e3ff377b395b56", "is_reserved": 0, "fusion_lon": 0.0, "lat": 38.8922315, "is_disabled": 0, "name": "c7a8be6097f4c152e9e3ff377b395b56", "fusion_lat": 0.0, "rental_uris": {"ios": "https://dc.lft.to/lastmile_qr_scan", "android": "https://dc.lft.to/lastmile_qr_scan"}, "lon": -77.02626733333334, "type": "electric_scooter"}, {"bike_id": "6137c93b176984cb9c55ad4486533ee2", "is_reserved": 0, "fusion_lon": 0.0, "lat": 38.99076183333333, "is_disabled": 0, "name": "6137c93b176984cb9c55ad4486533ee2", "fusion_lat": 0.0, "rental_uris": {"ios": "https://dc.lft.to/lastmile_qr_scan", "android": "https://dc.lft.to/lastmile_qr_scan"}, "lon": -76.87466483333333, "type": "electric_bike"}, {"bike_id": "a8639d9e360709856c07bf71103f6608", "is_reserved": 0, "fusion_lon": 0.0, "lat": 38.90247683333333, "is_disabled": 0, "name": "a8639d9e360709856c07bf71103f6608", "fusion_lat": 0.0, "rental_uris": {"ios": "https://dc.lft.to/lastmile_qr_scan", "android": "https://dc.lft.to/lastmile_qr_scan"}, "lon": -77.0264965, "type": "electric_scooter"}, {"bike_id": "b92fab7dd3c94cbe457df10c010fd3da", "is_reserved": 0, "fusion_lon": 0.0, "lat": 38.828769333333334, "is_disabled": 0, "name": "b92fab7dd3c94cbe457df10c010fd3da", "fusion_lat": 0.0, "rental_uris": {"ios": "https://dc.lft.to/lastmile_qr_scan", "android": "https://dc.lft.to/lastmile_qr_scan"}, "lon": -77.11219183333333, "type": "electric_bike"}, {"bike_id": "c848f331ce4724016a6714a4c3bf6955", "is_reserved": 0, "fusion_lon": 0.0, "lat": 38.917653, "is_disabled": 0, "name": "c848f331ce4724016a6714a4c3bf6955", "fusion_lat": 0.0, "rental_uris": {"ios": "https://dc.lft.to/lastmile_qr_scan", "android": "https://dc.lft.to/lastmile_qr_scan"}, "lon": -77.0220015, "type": "electric_scooter"}, {"bike_id": "721ccec3da2c3358b5ba3cd7c4d882ad", "is_reserved": 0, "fusion_lon": 0.0, "lat": 38.9079655, "is_disabled": 0, "name": "721ccec3da2c3358b5ba3cd7c4d882ad", "fusion_lat": 0.0, "rental_uris": {"ios": "https://dc.lft.to/lastmile_qr_scan", "android": "https://dc.lft.to/lastmile_qr_scan"}, "lon": -77.031976, "type": "electric_scooter"}, {"bike_id": "03ddbc1a124ddb487efd64933f5fd059", "is_reserved": 0, "fusion_lon": 0.0, "lat": 38.903207333333334, "is_disabled": 0, "name": "03ddbc1a124ddb487efd64933f5fd059", "fusion_lat": 0.0, "rental_uris": {"ios": "https://dc.lft.to/lastmile_qr_scan", "android": "https://dc.lft.to/lastmile_qr_scan"}, "lon": -77.04373383333333, "type": "electric_scooter"}, {"bike_id": "cb9f92f2178d0982899561292e1285ce", "is_reserved": 0, "fusion_lon": 0.0, "lat": 38.90549, "is_disabled": 0, "name": "cb9f92f2178d0982899561292e1285ce", "fusion_lat": 0.0, "rental_uris": {"ios": "https://dc.lft.to/lastmile_qr_scan", "android": "https://dc.lft.to/lastmile_qr_scan"}, "lon": -77.03980616666666, "type": "electric_scooter"}, {"bike_id": "695839cb654994973ae04173580bf1ca", "is_reserved": 0, "fusion_lon": 0.0, "lat": 38.912735, "is_disabled": 0, "name": "695839cb654994973ae04173580bf1ca", "fusion_lat": 0.0, "rental_uris": {"ios": "https://dc.lft.to/lastmile_qr_scan", "android": "https://dc.lft.to/lastmile_qr_scan"}, "lon": -77.002733, "type": "electric_scooter"}, {"bike_id": "4255bbd5cd5909c0b25932deebb823b6", "is_reserved": 0, "fusion_lon": 0.0, "lat": 38.93607933333333, "is_disabled": 0, "name": "4255bbd5cd5909c0b25932deebb823b6", "fusion_lat": 0.0, "rental_uris": {"ios": "https://dc.lft.to/lastmile_qr_scan", "android": "https://dc.lft.to/lastmile_qr_scan"}, "lon": -77.058655, "type": "electric_scooter"}, {"bike_id": "1af47d96ae6b38e341d2b5ac38becb43", "is_reserved": 0, "fusion_lon": 0.0, "lat": 38.92239816666667, "is_disabled": 0, "name": "1af47d96ae6b38e341d2b5ac38becb43", "fusion_lat": 0.0, "rental_uris": {"ios": "https://dc.lft.to/lastmile_qr_scan", "android": "https://dc.lft.to/lastmile_qr_scan"}, "lon": -77.02715333333333, "type": "electric_scooter"}, {"bike_id": "5486d3788eb801d2a8cfcbb0ca5d91f3", "is_reserved": 0, "fusion_lon": 0.0, "lat": 38.883880833333336, "is_disabled": 0, "name": "5486d3788eb801d2a8cfcbb0ca5d91f3", "fusion_lat": 0.0, "rental_uris": {"ios": "https://dc.lft.to/lastmile_qr_scan", "android": "https://dc.lft.to/lastmile_qr_scan"}, "lon": -77.01534583333333, "type": "electric_scooter"}, {"bike_id": "e49f4e6841ec5c1930873faa2c695fb9", "is_reserved": 0, "fusion_lon": 0.0, "lat": 38.90804416666667, "is_disabled": 0, "name": "e49f4e6841ec5c1930873faa2c695fb9", "fusion_lat": 0.0, "rental_uris": {"ios": "https://dc.lft.to/lastmile_qr_scan", "android": "https://dc.lft.to/lastmile_qr_scan"}, "lon": -77.04876866666666, "type": "electric_scooter"}, {"bike_id": "0e293c2943c9391f6354d343eca9cccf", "is_reserved": 0, "fusion_lon": 0.0, "lat": 38.90222116666666, "is_disabled": 0, "name": "0e293c2943c9391f6354d343eca9cccf", "fusion_lat": 0.0, "rental_uris": {"ios": "https://dc.lft.to/lastmile_qr_scan", "android": "https://dc.lft.to/lastmile_qr_scan"}, "lon": -76.95051566666666, "type": "electric_bike"}, {"bike_id": "585d6dc3bba858cbc490e4d50996b984", "is_reserved": 0, "fusion_lon": 0.0, "lat": 38.89839683333334, "is_disabled": 0, "name": "585d6dc3bba858cbc490e4d50996b984", "fusion_lat": 0.0, "rental_uris": {"ios": "https://dc.lft.to/lastmile_qr_scan", "android": "https://dc.lft.to/lastmile_qr_scan"}, "lon": -77.05025966666666, "type": "electric_scooter"}, {"bike_id": "1141cfea24ca1fa1c209fb25a1696894", "is_reserved": 0, "fusion_lon": 0.0, "lat": 38.922645, "is_disabled": 0, "name": "1141cfea24ca1fa1c209fb25a1696894", "fusion_lat": 0.0, "rental_uris": {"ios": "https://dc.lft.to/lastmile_qr_scan", "android": "https://dc.lft.to/lastmile_qr_scan"}, "lon": -77.04130383333333, "type": "electric_scooter"}, {"bike_id": "b47160c5c64b0f209a81678d52080232", "is_reserved": 0, "fusion_lon": 0.0, "lat": 38.901271, "is_disabled": 0, "name": "b47160c5c64b0f209a81678d52080232", "fusion_lat": 0.0, "rental_uris": {"ios": "https://dc.lft.to/lastmile_qr_scan", "android": "https://dc.lft.to/lastmile_qr_scan"}, "lon": -77.04358083333334, "type": "electric_scooter"}, {"bike_id": "005fd47625a9d43698667f5e347f0724", "is_reserved": 0, "fusion_lon": 0.0, "lat": 38.895668, "is_disabled": 0, "name": "005fd47625a9d43698667f5e347f0724", "fusion_lat": 0.0, "rental_uris": {"ios": "https://dc.lft.to/lastmile_qr_scan", "android": "https://dc.lft.to/lastmile_qr_scan"}, "lon": -77.1272535, "type": "electric_bike"}, {"bike_id": "85039f45cabe08d5d34b8d901136f761", "is_reserved": 0, "fusion_lon": 0.0, "lat": 38.913395333333334, "is_disabled": 0, "name": "85039f45cabe08d5d34b8d901136f761", "fusion_lat": 0.0, "rental_uris": {"ios": "https://dc.lft.to/lastmile_qr_scan", "android": "https://dc.lft.to/lastmile_qr_scan"}, "lon": -77.063153, "type": "electric_bike"}, {"bike_id": "2a1aac2e1adc0a0490e5514e1dfd4f03", "is_reserved": 0, "fusion_lon": 0.0, "lat": 38.9349895, "is_disabled": 0, "name": "2a1aac2e1adc0a0490e5514e1dfd4f03", "fusion_lat": 0.0, "rental_uris": {"ios": "https://dc.lft.to/lastmile_qr_scan", "android": "https://dc.lft.to/lastmile_qr_scan"}, "lon": -77.02841583333333, "type": "electric_scooter"}, {"bike_id": "adcae4b714bf8ba59587de478ed3e353", "is_reserved": 0, "fusion_lon": 0.0, "lat": 38.9031485, "is_disabled": 0, "name": "adcae4b714bf8ba59587de478ed3e353", "fusion_lat": 0.0, "rental_uris": {"ios": "https://dc.lft.to/lastmile_qr_scan", "android": "https://dc.lft.to/lastmile_qr_scan"}, "lon": -77.03309966666667, "type": "electric_scooter"}, {"bike_id": "85ca8aa69ac04d695e5185f9f6eb894d", "is_reserved": 0, "fusion_lon": 0.0, "lat": 38.88600366666667, "is_disabled": 0, "name": "85ca8aa69ac04d695e5185f9f6eb894d", "fusion_lat": 0.0, "rental_uris": {"ios": "https://dc.lft.to/lastmile_qr_scan", "android": "https://dc.lft.to/lastmile_qr_scan"}, "lon": -77.00568133333333, "type": "electric_scooter"}, {"bike_id": "39c62d523a4539c1a3824d1c3317e32d", "is_reserved": 0, "fusion_lon": 0.0, "lat": 38.877465, "is_disabled": 0, "name": "39c62d523a4539c1a3824d1c3317e32d", "fusion_lat": 0.0, "rental_uris": {"ios": "https://dc.lft.to/lastmile_qr_scan", "android": "https://dc.lft.to/lastmile_qr_scan"}, "lon": -76.98054833333333, "type": "electric_bike"}, {"bike_id": "326ce3c8ed880aee91c12846c69e913a", "is_reserved": 0, "fusion_lon": 0.0, "lat": 38.85420833333333, "is_disabled": 0, "name": "326ce3c8ed880aee91c12846c69e913a", "fusion_lat": 0.0, "rental_uris": {"ios": "https://dc.lft.to/lastmile_qr_scan", "android": "https://dc.lft.to/lastmile_qr_scan"}, "lon": -76.90968116666667, "type": "electric_bike"}, {"bike_id": "faa8dd43761b962ee442fdda83441c77", "is_reserved": 0, "fusion_lon": 0.0, "lat": 38.91044133333333, "is_disabled": 0, "name": "faa8dd43761b962ee442fdda83441c77", "fusion_lat": 0.0, "rental_uris": {"ios": "https://dc.lft.to/lastmile_qr_scan", "android": "https://dc.lft.to/lastmile_qr_scan"}, "lon": -77.028148, "type": "electric_scooter"}, {"bike_id": "03ee152b8488940653c00b7607e8dc3e", "is_reserved": 0, "fusion_lon": 0.0, "lat": 38.844274166666665, "is_disabled": 0, "name": "03ee152b8488940653c00b7607e8dc3e", "fusion_lat": 0.0, "rental_uris": {"ios": "https://dc.lft.to/lastmile_qr_scan", "android": "https://dc.lft.to/lastmile_qr_scan"}, "lon": -76.99777083333333, "type": "electric_scooter"}, {"bike_id": "849f57365ab807b29e535ef4ecf35514", "is_reserved": 0, "fusion_lon": 0.0, "lat": 38.892229, "is_disabled": 0, "name": "849f57365ab807b29e535ef4ecf35514", "fusion_lat": 0.0, "rental_uris": {"ios": "https://dc.lft.to/lastmile_qr_scan", "android": "https://dc.lft.to/lastmile_qr_scan"}, "lon": -77.048609, "type": "electric_scooter"}, {"bike_id": "976fbef867c3461626560551e00e74bf", "is_reserved": 0, "fusion_lon": 0.0, "lat": 38.903818333333334, "is_disabled": 0, "name": "976fbef867c3461626560551e00e74bf", "fusion_lat": 0.0, "rental_uris": {"ios": "https://dc.lft.to/lastmile_qr_scan", "android": "https://dc.lft.to/lastmile_qr_scan"}, "lon": -77.05304833333334, "type": "electric_scooter"}, {"bike_id": "f1f779842346e03132a798d849c36d91", "is_reserved": 0, "fusion_lon": 0.0, "lat": 38.81050916666667, "is_disabled": 0, "name": "f1f779842346e03132a798d849c36d91", "fusion_lat": 0.0, "rental_uris": {"ios": "https://dc.lft.to/lastmile_qr_scan", "android": "https://dc.lft.to/lastmile_qr_scan"}, "lon": -77.08512016666667, "type": "electric_bike"}, {"bike_id": "c4c15b15c89d0e84590624fc7f4a1903", "is_reserved": 0, "fusion_lon": 0.0, "lat": 38.89981233333334, "is_disabled": 0, "name": "c4c15b15c89d0e84590624fc7f4a1903", "fusion_lat": 0.0, "rental_uris": {"ios": "https://dc.lft.to/lastmile_qr_scan", "android": "https://dc.lft.to/lastmile_qr_scan"}, "lon": -77.0319435, "type": "electric_scooter"}, {"bike_id": "3732d4e4e0eb8e216451835cc8dde07c", "is_reserved": 0, "fusion_lon": 0.0, "lat": 38.902383666666665, "is_disabled": 0, "name": "3732d4e4e0eb8e216451835cc8dde07c", "fusion_lat": 0.0, "rental_uris": {"ios": "https://dc.lft.to/lastmile_qr_scan", "android": "https://dc.lft.to/lastmile_qr_scan"}, "lon": -77.001997, "type": "electric_scooter"}, {"bike_id": "78c308e992b7c5d7c098c7362a4cc954", "is_reserved": 0, "fusion_lon": 0.0, "lat": 38.903717, "is_disabled": 0, "name": "78c308e992b7c5d7c098c7362a4cc954", "fusion_lat": 0.0, "rental_uris": {"ios": "https://dc.lft.to/lastmile_qr_scan", "android": "https://dc.lft.to/lastmile_qr_scan"}, "lon": -77.04341716666667, "type": "electric_scooter"}, {"bike_id": "38c1f71624c63a7c7b486c380d16a3e8", "is_reserved": 0, "fusion_lon": 0.0, "lat": 38.92670733333333, "is_disabled": 0, "name": "38c1f71624c63a7c7b486c380d16a3e8", "fusion_lat": 0.0, "rental_uris": {"ios": "https://dc.lft.to/lastmile_qr_scan", "android": "https://dc.lft.to/lastmile_qr_scan"}, "lon": -76.99547016666666, "type": "electric_scooter"}, {"bike_id": "0edf6ee90e8478091ea7aa177261344e", "is_reserved": 0, "fusion_lon": 0.0, "lat": 38.87631833333333, "is_disabled": 0, "name": "0edf6ee90e8478091ea7aa177261344e", "fusion_lat": 0.0, "rental_uris": {"ios": "https://dc.lft.to/lastmile_qr_scan", "android": "https://dc.lft.to/lastmile_qr_scan"}, "lon": -76.965271, "type": "electric_scooter"}, {"bike_id": "38a65e9f24fb9d0d1c7f17c70b86189c", "is_reserved": 0, "fusion_lon": 0.0, "lat": 38.898500166666665, "is_disabled": 0, "name": "38a65e9f24fb9d0d1c7f17c70b86189c", "fusion_lat": 0.0, "rental_uris": {"ios": "https://dc.lft.to/lastmile_qr_scan", "android": "https://dc.lft.to/lastmile_qr_scan"}, "lon": -77.00755283333334, "type": "electric_scooter"}, {"bike_id": "5bfb39e64e53ed93e314436470fbb40e", "is_reserved": 0, "fusion_lon": 0.0, "lat": 38.87376616666667, "is_disabled": 0, "name": "5bfb39e64e53ed93e314436470fbb40e", "fusion_lat": 0.0, "rental_uris": {"ios": "https://dc.lft.to/lastmile_qr_scan", "android": "https://dc.lft.to/lastmile_qr_scan"}, "lon": -77.00083266666667, "type": "electric_scooter"}, {"bike_id": "d414413e3d72d3b9301b8c985cefc32d", "is_reserved": 0, "fusion_lon": 0.0, "lat": 38.893299999999996, "is_disabled": 0, "name": "d414413e3d72d3b9301b8c985cefc32d", "fusion_lat": 0.0, "rental_uris": {"ios": "https://dc.lft.to/lastmile_qr_scan", "android": "https://dc.lft.to/lastmile_qr_scan"}, "lon": -76.92987666666667, "type": "electric_scooter"}, {"bike_id": "c1b39dd4030d91e5391b621768b8f4ec", "is_reserved": 0, "fusion_lon": 0.0, "lat": 38.9051255, "is_disabled": 0, "name": "c1b39dd4030d91e5391b621768b8f4ec", "fusion_lat": 0.0, "rental_uris": {"ios": "https://dc.lft.to/lastmile_qr_scan", "android": "https://dc.lft.to/lastmile_qr_scan"}, "lon": -77.05132433333333, "type": "electric_scooter"}, {"bike_id": "6e09b2962b032a89e13d25048c390797", "is_reserved": 0, "fusion_lon": 0.0, "lat": 38.90527566666667, "is_disabled": 0, "name": "6e09b2962b032a89e13d25048c390797", "fusion_lat": 0.0, "rental_uris": {"ios": "https://dc.lft.to/lastmile_qr_scan", "android": "https://dc.lft.to/lastmile_qr_scan"}, "lon": -77.05017116666667, "type": "electric_scooter"}, {"bike_id": "6bfac3040186a08112a48bbdb904eb0a", "is_reserved": 0, "fusion_lon": 0.0, "lat": 38.915581333333336, "is_disabled": 0, "name": "6bfac3040186a08112a48bbdb904eb0a", "fusion_lat": 0.0, "rental_uris": {"ios": "https://dc.lft.to/lastmile_qr_scan", "android": "https://dc.lft.to/lastmile_qr_scan"}, "lon": -77.02158483333334, "type": "electric_scooter"}, {"bike_id": "39f24aeea920a7fe88e697f68e074f6d", "is_reserved": 0, "fusion_lon": 0.0, "lat": 38.91718133333333, "is_disabled": 0, "name": "39f24aeea920a7fe88e697f68e074f6d", "fusion_lat": 0.0, "rental_uris": {"ios": "https://dc.lft.to/lastmile_qr_scan", "android": "https://dc.lft.to/lastmile_qr_scan"}, "lon": -77.03188366666667, "type": "electric_scooter"}, {"bike_id": "707016836d49fa3c97d8828ade5c368e", "is_reserved": 0, "fusion_lon": 0.0, "lat": 38.898520166666664, "is_disabled": 0, "name": "707016836d49fa3c97d8828ade5c368e", "fusion_lat": 0.0, "rental_uris": {"ios": "https://dc.lft.to/lastmile_qr_scan", "android": "https://dc.lft.to/lastmile_qr_scan"}, "lon": -77.03268166666666, "type": "electric_scooter"}, {"bike_id": "7890eb7afea4b30a860766843071c17e", "is_reserved": 0, "fusion_lon": 0.0, "lat": 38.914516666666664, "is_disabled": 0, "name": "7890eb7afea4b30a860766843071c17e", "fusion_lat": 0.0, "rental_uris": {"ios": "https://dc.lft.to/lastmile_qr_scan", "android": "https://dc.lft.to/lastmile_qr_scan"}, "lon": -77.021785, "type": "electric_scooter"}, {"bike_id": "9e82dded3ae2d376421d48b1d1dfce62", "is_reserved": 0, "fusion_lon": 0.0, "lat": 38.92101616666667, "is_disabled": 0, "name": "9e82dded3ae2d376421d48b1d1dfce62", "fusion_lat": 0.0, "rental_uris": {"ios": "https://dc.lft.to/lastmile_qr_scan", "android": "https://dc.lft.to/lastmile_qr_scan"}, "lon": -77.06331233333333, "type": "electric_scooter"}, {"bike_id": "20b15568be4a779196cf4af431f10ff6", "is_reserved": 0, "fusion_lon": 0.0, "lat": 38.89222566666667, "is_disabled": 0, "name": "20b15568be4a779196cf4af431f10ff6", "fusion_lat": 0.0, "rental_uris": {"ios": "https://dc.lft.to/lastmile_qr_scan", "android": "https://dc.lft.to/lastmile_qr_scan"}, "lon": -77.045082, "type": "electric_scooter"}, {"bike_id": "51c06e81ac5932ac150f8d028b909ee2", "is_reserved": 0, "fusion_lon": 0.0, "lat": 38.899208, "is_disabled": 0, "name": "51c06e81ac5932ac150f8d028b909ee2", "fusion_lat": 0.0, "rental_uris": {"ios": "https://dc.lft.to/lastmile_qr_scan", "android": "https://dc.lft.to/lastmile_qr_scan"}, "lon": -77.03930883333334, "type": "electric_scooter"}, {"bike_id": "bfb1a710cf64094639fa591ab836578a", "is_reserved": 0, "fusion_lon": 0.0, "lat": 38.912628833333336, "is_disabled": 0, "name": "bfb1a710cf64094639fa591ab836578a", "fusion_lat": 0.0, "rental_uris": {"ios": "https://dc.lft.to/lastmile_qr_scan", "android": "https://dc.lft.to/lastmile_qr_scan"}, "lon": -77.07592783333334, "type": "electric_scooter"}, {"bike_id": "faed5c66d31eb37f17783009bc2e4267", "is_reserved": 0, "fusion_lon": 0.0, "lat": 38.90575316666666, "is_disabled": 0, "name": "faed5c66d31eb37f17783009bc2e4267", "fusion_lat": 0.0, "rental_uris": {"ios": "https://dc.lft.to/lastmile_qr_scan", "android": "https://dc.lft.to/lastmile_qr_scan"}, "lon": -77.03445966666666, "type": "electric_scooter"}, {"bike_id": "313aad22f535c3afd517e2b994a06440", "is_reserved": 0, "fusion_lon": 0.0, "lat": 38.918010833333334, "is_disabled": 0, "name": "313aad22f535c3afd517e2b994a06440", "fusion_lat": 0.0, "rental_uris": {"ios": "https://dc.lft.to/lastmile_qr_scan", "android": "https://dc.lft.to/lastmile_qr_scan"}, "lon": -77.04155716666666, "type": "electric_scooter"}, {"bike_id": "615c85d3708303f45b32416869f26abc", "is_reserved": 0, "fusion_lon": 0.0, "lat": 38.90024916666667, "is_disabled": 0, "name": "615c85d3708303f45b32416869f26abc", "fusion_lat": 0.0, "rental_uris": {"ios": "https://dc.lft.to/lastmile_qr_scan", "android": "https://dc.lft.to/lastmile_qr_scan"}, "lon": -77.0024005, "type": "electric_scooter"}, {"bike_id": "103636d8a388fa0941e72ed13dd3975e", "is_reserved": 0, "fusion_lon": 0.0, "lat": 38.90980316666667, "is_disabled": 0, "name": "103636d8a388fa0941e72ed13dd3975e", "fusion_lat": 0.0, "rental_uris": {"ios": "https://dc.lft.to/lastmile_qr_scan", "android": "https://dc.lft.to/lastmile_qr_scan"}, "lon": -77.04864783333333, "type": "electric_scooter"}, {"bike_id": "38296ceefa0f69f95d64f33f25e8a5ea", "is_reserved": 0, "fusion_lon": 0.0, "lat": 38.90282716666667, "is_disabled": 0, "name": "38296ceefa0f69f95d64f33f25e8a5ea", "fusion_lat": 0.0, "rental_uris": {"ios": "https://dc.lft.to/lastmile_qr_scan", "android": "https://dc.lft.to/lastmile_qr_scan"}, "lon": -77.0384575, "type": "electric_scooter"}, {"bike_id": "1a56bf82a2999eaa23db171e1489aa55", "is_reserved": 0, "fusion_lon": 0.0, "lat": 38.933550333333336, "is_disabled": 0, "name": "1a56bf82a2999eaa23db171e1489aa55", "fusion_lat": 0.0, "rental_uris": {"ios": "https://dc.lft.to/lastmile_qr_scan", "android": "https://dc.lft.to/lastmile_qr_scan"}, "lon": -77.06935066666667, "type": "electric_scooter"}, {"bike_id": "eb8d047082caf515839b4df18c2e1d28", "is_reserved": 0, "fusion_lon": 0.0, "lat": 38.888662333333336, "is_disabled": 0, "name": "eb8d047082caf515839b4df18c2e1d28", "fusion_lat": 0.0, "rental_uris": {"ios": "https://dc.lft.to/lastmile_qr_scan", "android": "https://dc.lft.to/lastmile_qr_scan"}, "lon": -77.00118316666666, "type": "electric_scooter"}, {"bike_id": "5c6029247e5d766ca0c7f3097e71e4f6", "is_reserved": 0, "fusion_lon": 0.0, "lat": 38.866635333333335, "is_disabled": 0, "name": "5c6029247e5d766ca0c7f3097e71e4f6", "fusion_lat": 0.0, "rental_uris": {"ios": "https://dc.lft.to/lastmile_qr_scan", "android": "https://dc.lft.to/lastmile_qr_scan"}, "lon": -76.98903233333333, "type": "electric_scooter"}, {"bike_id": "af6be3beed7de9a5ad4f5558ce043ec2", "is_reserved": 0, "fusion_lon": 0.0, "lat": 38.92366883333333, "is_disabled": 0, "name": "af6be3beed7de9a5ad4f5558ce043ec2", "fusion_lat": 0.0, "rental_uris": {"ios": "https://dc.lft.to/lastmile_qr_scan", "android": "https://dc.lft.to/lastmile_qr_scan"}, "lon": -77.051302, "type": "electric_scooter"}, {"bike_id": "5b42bb94cadfdb7bb0894ab2a47ec092", "is_reserved": 0, "fusion_lon": 0.0, "lat": 38.921298, "is_disabled": 0, "name": "5b42bb94cadfdb7bb0894ab2a47ec092", "fusion_lat": 0.0, "rental_uris": {"ios": "https://dc.lft.to/lastmile_qr_scan", "android": "https://dc.lft.to/lastmile_qr_scan"}, "lon": -77.01797683333334, "type": "electric_scooter"}, {"bike_id": "89f92bb0c0879da5113965bb4dd03067", "is_reserved": 0, "fusion_lon": 0.0, "lat": 38.872501, "is_disabled": 0, "name": "89f92bb0c0879da5113965bb4dd03067", "fusion_lat": 0.0, "rental_uris": {"ios": "https://dc.lft.to/lastmile_qr_scan", "android": "https://dc.lft.to/lastmile_qr_scan"}, "lon": -76.97724766666667, "type": "electric_scooter"}, {"bike_id": "8c854e2409bdc714e6e7d3b98fa48c77", "is_reserved": 0, "fusion_lon": 0.0, "lat": 38.90731, "is_disabled": 0, "name": "8c854e2409bdc714e6e7d3b98fa48c77", "fusion_lat": 0.0, "rental_uris": {"ios": "https://dc.lft.to/lastmile_qr_scan", "android": "https://dc.lft.to/lastmile_qr_scan"}, "lon": -77.043802, "type": "electric_scooter"}, {"bike_id": "14fddf5d79368e17c8076b00a482b32a", "is_reserved": 0, "fusion_lon": 0.0, "lat": 38.878948, "is_disabled": 0, "name": "14fddf5d79368e17c8076b00a482b32a", "fusion_lat": 0.0, "rental_uris": {"ios": "https://dc.lft.to/lastmile_qr_scan", "android": "https://dc.lft.to/lastmile_qr_scan"}, "lon": -76.99152316666667, "type": "electric_scooter"}, {"bike_id": "9e3aabbe4fb9684e494a15ae68c201e2", "is_reserved": 0, "fusion_lon": 0.0, "lat": 38.917333666666664, "is_disabled": 0, "name": "9e3aabbe4fb9684e494a15ae68c201e2", "fusion_lat": 0.0, "rental_uris": {"ios": "https://dc.lft.to/lastmile_qr_scan", "android": "https://dc.lft.to/lastmile_qr_scan"}, "lon": -77.03662733333333, "type": "electric_scooter"}, {"bike_id": "1c1e83fab7f16afd1679d4b35aab36d0", "is_reserved": 0, "fusion_lon": 0.0, "lat": 38.90236266666667, "is_disabled": 0, "name": "1c1e83fab7f16afd1679d4b35aab36d0", "fusion_lat": 0.0, "rental_uris": {"ios": "https://dc.lft.to/lastmile_qr_scan", "android": "https://dc.lft.to/lastmile_qr_scan"}, "lon": -77.03424316666667, "type": "electric_scooter"}, {"bike_id": "5ff134aea1634a8aac2a6da6a2bb139d", "is_reserved": 0, "fusion_lon": 0.0, "lat": 38.89198966666667, "is_disabled": 0, "name": "5ff134aea1634a8aac2a6da6a2bb139d", "fusion_lat": 0.0, "rental_uris": {"ios": "https://dc.lft.to/lastmile_qr_scan", "android": "https://dc.lft.to/lastmile_qr_scan"}, "lon": -77.02216466666667, "type": "electric_scooter"}, {"bike_id": "f74a55a1ef3b1fb5cf2c608505426000", "is_reserved": 0, "fusion_lon": 0.0, "lat": 38.92036916666667, "is_disabled": 0, "name": "f74a55a1ef3b1fb5cf2c608505426000", "fusion_lat": 0.0, "rental_uris": {"ios": "https://dc.lft.to/lastmile_qr_scan", "android": "https://dc.lft.to/lastmile_qr_scan"}, "lon": -76.99943416666666, "type": "electric_scooter"}, {"bike_id": "cbc8cdcaa36b60ca6b15b587e88f6fd7", "is_reserved": 0, "fusion_lon": 0.0, "lat": 38.90391116666667, "is_disabled": 0, "name": "cbc8cdcaa36b60ca6b15b587e88f6fd7", "fusion_lat": 0.0, "rental_uris": {"ios": "https://dc.lft.to/lastmile_qr_scan", "android": "https://dc.lft.to/lastmile_qr_scan"}, "lon": -77.04489233333334, "type": "electric_scooter"}, {"bike_id": "120690be202d4b082fb9b931930b4372", "is_reserved": 0, "fusion_lon": 0.0, "lat": 38.905923333333334, "is_disabled": 0, "name": "120690be202d4b082fb9b931930b4372", "fusion_lat": 0.0, "rental_uris": {"ios": "https://dc.lft.to/lastmile_qr_scan", "android": "https://dc.lft.to/lastmile_qr_scan"}, "lon": -77.03822516666666, "type": "electric_scooter"}, {"bike_id": "4e9b84caec120731fa5cc88242d00391", "is_reserved": 0, "fusion_lon": 0.0, "lat": 38.91703066666667, "is_disabled": 0, "name": "4e9b84caec120731fa5cc88242d00391", "fusion_lat": 0.0, "rental_uris": {"ios": "https://dc.lft.to/lastmile_qr_scan", "android": "https://dc.lft.to/lastmile_qr_scan"}, "lon": -77.03765266666667, "type": "electric_scooter"}, {"bike_id": "0d221f1f86e45ba67c1e173fed1b0e3f", "is_reserved": 0, "fusion_lon": 0.0, "lat": 38.918858666666665, "is_disabled": 0, "name": "0d221f1f86e45ba67c1e173fed1b0e3f", "fusion_lat": 0.0, "rental_uris": {"ios": "https://dc.lft.to/lastmile_qr_scan", "android": "https://dc.lft.to/lastmile_qr_scan"}, "lon": -77.02969066666667, "type": "electric_scooter"}, {"bike_id": "bb27170adddce1a110fa5fe3a76518eb", "is_reserved": 0, "fusion_lon": 0.0, "lat": 38.92344816666667, "is_disabled": 0, "name": "bb27170adddce1a110fa5fe3a76518eb", "fusion_lat": 0.0, "rental_uris": {"ios": "https://dc.lft.to/lastmile_qr_scan", "android": "https://dc.lft.to/lastmile_qr_scan"}, "lon": -77.03497116666666, "type": "electric_scooter"}, {"bike_id": "cb6c697e8c90f2cbdbeaaeb992f90c14", "is_reserved": 0, "fusion_lon": 0.0, "lat": 38.842972333333336, "is_disabled": 0, "name": "cb6c697e8c90f2cbdbeaaeb992f90c14", "fusion_lat": 0.0, "rental_uris": {"ios": "https://dc.lft.to/lastmile_qr_scan", "android": "https://dc.lft.to/lastmile_qr_scan"}, "lon": -76.99950983333333, "type": "electric_scooter"}, {"bike_id": "ba12e834751c73c0fd12b1ea269e7197", "is_reserved": 0, "fusion_lon": 0.0, "lat": 38.88488983333333, "is_disabled": 0, "name": "ba12e834751c73c0fd12b1ea269e7197", "fusion_lat": 0.0, "rental_uris": {"ios": "https://dc.lft.to/lastmile_qr_scan", "android": "https://dc.lft.to/lastmile_qr_scan"}, "lon": -77.01524566666667, "type": "electric_scooter"}, {"bike_id": "0997d573de643674213a5209e84abb49", "is_reserved": 0, "fusion_lon": 0.0, "lat": 38.866212166666664, "is_disabled": 0, "name": "0997d573de643674213a5209e84abb49", "fusion_lat": 0.0, "rental_uris": {"ios": "https://dc.lft.to/lastmile_qr_scan", "android": "https://dc.lft.to/lastmile_qr_scan"}, "lon": -76.98695966666666, "type": "electric_scooter"}, {"bike_id": "f8df32ad7696222a33bb1b68f1c06d24", "is_reserved": 0, "fusion_lon": 0.0, "lat": 38.907563333333336, "is_disabled": 0, "name": "f8df32ad7696222a33bb1b68f1c06d24", "fusion_lat": 0.0, "rental_uris": {"ios": "https://dc.lft.to/lastmile_qr_scan", "android": "https://dc.lft.to/lastmile_qr_scan"}, "lon": -77.030738, "type": "electric_scooter"}, {"bike_id": "fd57e7bf71a1a047fc45ed637c4aa45b", "is_reserved": 0, "fusion_lon": 0.0, "lat": 38.857516333333336, "is_disabled": 0, "name": "fd57e7bf71a1a047fc45ed637c4aa45b", "fusion_lat": 0.0, "rental_uris": {"ios": "https://dc.lft.to/lastmile_qr_scan", "android": "https://dc.lft.to/lastmile_qr_scan"}, "lon": -76.98843816666667, "type": "electric_bike"}, {"bike_id": "8ad791910a9c50df569c7a55eb195a75", "is_reserved": 0, "fusion_lon": 0.0, "lat": 38.92126716666667, "is_disabled": 0, "name": "8ad791910a9c50df569c7a55eb195a75", "fusion_lat": 0.0, "rental_uris": {"ios": "https://dc.lft.to/lastmile_qr_scan", "android": "https://dc.lft.to/lastmile_qr_scan"}, "lon": -77.01799883333334, "type": "electric_scooter"}, {"bike_id": "104146a4157eeab1f66df3487ac0b12c", "is_reserved": 0, "fusion_lon": 0.0, "lat": 38.96394766666667, "is_disabled": 0, "name": "104146a4157eeab1f66df3487ac0b12c", "fusion_lat": 0.0, "rental_uris": {"ios": "https://dc.lft.to/lastmile_qr_scan", "android": "https://dc.lft.to/lastmile_qr_scan"}, "lon": -77.02592133333333, "type": "electric_scooter"}, {"bike_id": "1f640f1851b04ce8acd7bc79539687c6", "is_reserved": 0, "fusion_lon": 0.0, "lat": 38.89844466666667, "is_disabled": 0, "name": "1f640f1851b04ce8acd7bc79539687c6", "fusion_lat": 0.0, "rental_uris": {"ios": "https://dc.lft.to/lastmile_qr_scan", "android": "https://dc.lft.to/lastmile_qr_scan"}, "lon": -77.02891883333334, "type": "electric_scooter"}, {"bike_id": "e202c54d5c4a0b239a07a45a58e5c40c", "is_reserved": 0, "fusion_lon": 0.0, "lat": 38.9000715, "is_disabled": 0, "name": "e202c54d5c4a0b239a07a45a58e5c40c", "fusion_lat": 0.0, "rental_uris": {"ios": "https://dc.lft.to/lastmile_qr_scan", "android": "https://dc.lft.to/lastmile_qr_scan"}, "lon": -77.006755, "type": "electric_scooter"}, {"bike_id": "3e424141bf3f0ea3af9443e4fdb8bdc0", "is_reserved": 0, "fusion_lon": 0.0, "lat": 38.915795, "is_disabled": 0, "name": "3e424141bf3f0ea3af9443e4fdb8bdc0", "fusion_lat": 0.0, "rental_uris": {"ios": "https://dc.lft.to/lastmile_qr_scan", "android": "https://dc.lft.to/lastmile_qr_scan"}, "lon": -77.01232783333333, "type": "electric_scooter"}, {"bike_id": "3e5dc5b2b3ba22e58b96989220b61d43", "is_reserved": 0, "fusion_lon": 0.0, "lat": 38.90467666666667, "is_disabled": 0, "name": "3e5dc5b2b3ba22e58b96989220b61d43", "fusion_lat": 0.0, "rental_uris": {"ios": "https://dc.lft.to/lastmile_qr_scan", "android": "https://dc.lft.to/lastmile_qr_scan"}, "lon": -77.043508, "type": "electric_scooter"}, {"bike_id": "13de9d4ce50ef137b5720de2e99343ea", "is_reserved": 0, "fusion_lon": 0.0, "lat": 38.9850755, "is_disabled": 0, "name": "13de9d4ce50ef137b5720de2e99343ea", "fusion_lat": 0.0, "rental_uris": {"ios": "https://dc.lft.to/lastmile_qr_scan", "android": "https://dc.lft.to/lastmile_qr_scan"}, "lon": -76.98214233333333, "type": "electric_bike"}, {"bike_id": "b32bb04f8bd7b5d6b8f36ef8c2f3a5a4", "is_reserved": 0, "fusion_lon": 0.0, "lat": 38.907936166666666, "is_disabled": 0, "name": "b32bb04f8bd7b5d6b8f36ef8c2f3a5a4", "fusion_lat": 0.0, "rental_uris": {"ios": "https://dc.lft.to/lastmile_qr_scan", "android": "https://dc.lft.to/lastmile_qr_scan"}, "lon": -77.03686, "type": "electric_scooter"}, {"bike_id": "2b31ee8687346f5a165a009e380dd143", "is_reserved": 0, "fusion_lon": 0.0, "lat": 38.87692533333333, "is_disabled": 0, "name": "2b31ee8687346f5a165a009e380dd143", "fusion_lat": 0.0, "rental_uris": {"ios": "https://dc.lft.to/lastmile_qr_scan", "android": "https://dc.lft.to/lastmile_qr_scan"}, "lon": -77.004554, "type": "electric_scooter"}, {"bike_id": "7cffb9b9225bc52335f8aa3e000898f9", "is_reserved": 0, "fusion_lon": 0.0, "lat": 38.862491, "is_disabled": 0, "name": "7cffb9b9225bc52335f8aa3e000898f9", "fusion_lat": 0.0, "rental_uris": {"ios": "https://dc.lft.to/lastmile_qr_scan", "android": "https://dc.lft.to/lastmile_qr_scan"}, "lon": -76.994782, "type": "electric_scooter"}, {"bike_id": "1fcd2dd4fec41e6726c4656bf6ef6bc7", "is_reserved": 0, "fusion_lon": 0.0, "lat": 38.908452, "is_disabled": 0, "name": "1fcd2dd4fec41e6726c4656bf6ef6bc7", "fusion_lat": 0.0, "rental_uris": {"ios": "https://dc.lft.to/lastmile_qr_scan", "android": "https://dc.lft.to/lastmile_qr_scan"}, "lon": -77.0549475, "type": "electric_scooter"}, {"bike_id": "3060cfb5a0cfd0c81b6f85ed6ca88484", "is_reserved": 0, "fusion_lon": 0.0, "lat": 38.90152416666667, "is_disabled": 0, "name": "3060cfb5a0cfd0c81b6f85ed6ca88484", "fusion_lat": 0.0, "rental_uris": {"ios": "https://dc.lft.to/lastmile_qr_scan", "android": "https://dc.lft.to/lastmile_qr_scan"}, "lon": -77.05916016666667, "type": "electric_bike"}, {"bike_id": "bb593d1f744121e1f09ad58acb59087c", "is_reserved": 0, "fusion_lon": 0.0, "lat": 38.9178855, "is_disabled": 0, "name": "bb593d1f744121e1f09ad58acb59087c", "fusion_lat": 0.0, "rental_uris": {"ios": "https://dc.lft.to/lastmile_qr_scan", "android": "https://dc.lft.to/lastmile_qr_scan"}, "lon": -77.023158, "type": "electric_scooter"}, {"bike_id": "62006be19d2ffbb9924a74ea6ca1c736", "is_reserved": 0, "fusion_lon": 0.0, "lat": 38.92337783333333, "is_disabled": 0, "name": "62006be19d2ffbb9924a74ea6ca1c736", "fusion_lat": 0.0, "rental_uris": {"ios": "https://dc.lft.to/lastmile_qr_scan", "android": "https://dc.lft.to/lastmile_qr_scan"}, "lon": -77.04191116666667, "type": "electric_scooter"}, {"bike_id": "c9a7d27ceb11b97c2a47462118ad6ce6", "is_reserved": 0, "fusion_lon": 0.0, "lat": 38.822661833333335, "is_disabled": 0, "name": "c9a7d27ceb11b97c2a47462118ad6ce6", "fusion_lat": 0.0, "rental_uris": {"ios": "https://dc.lft.to/lastmile_qr_scan", "android": "https://dc.lft.to/lastmile_qr_scan"}, "lon": -77.05811966666667, "type": "electric_bike"}, {"bike_id": "d7b307edb56b32210b349f6ef3ba55d9", "is_reserved": 0, "fusion_lon": 0.0, "lat": 38.806236, "is_disabled": 0, "name": "d7b307edb56b32210b349f6ef3ba55d9", "fusion_lat": 0.0, "rental_uris": {"ios": "https://dc.lft.to/lastmile_qr_scan", "android": "https://dc.lft.to/lastmile_qr_scan"}, "lon": -77.0635055, "type": "electric_bike"}, {"bike_id": "6eb48f5b6416aac767d1f87683d3d8b3", "is_reserved": 0, "fusion_lon": 0.0, "lat": 38.8700115, "is_disabled": 0, "name": "6eb48f5b6416aac767d1f87683d3d8b3", "fusion_lat": 0.0, "rental_uris": {"ios": "https://dc.lft.to/lastmile_qr_scan", "android": "https://dc.lft.to/lastmile_qr_scan"}, "lon": -76.95987633333333, "type": "electric_bike"}, {"bike_id": "00115d41cb38f21154d374eba23e2af7", "is_reserved": 0, "fusion_lon": 0.0, "lat": 38.892236833333335, "is_disabled": 0, "name": "00115d41cb38f21154d374eba23e2af7", "fusion_lat": 0.0, "rental_uris": {"ios": "https://dc.lft.to/lastmile_qr_scan", "android": "https://dc.lft.to/lastmile_qr_scan"}, "lon": -77.04869716666667, "type": "electric_scooter"}, {"bike_id": "e93d9a6e6a2013f45de4357254b57617", "is_reserved": 0, "fusion_lon": 0.0, "lat": 38.897380166666665, "is_disabled": 0, "name": "e93d9a6e6a2013f45de4357254b57617", "fusion_lat": 0.0, "rental_uris": {"ios": "https://dc.lft.to/lastmile_qr_scan", "android": "https://dc.lft.to/lastmile_qr_scan"}, "lon": -77.0175305, "type": "electric_scooter"}, {"bike_id": "4b168372db5251c8e7610f954f44b86c", "is_reserved": 0, "fusion_lon": 0.0, "lat": 38.893889333333334, "is_disabled": 0, "name": "4b168372db5251c8e7610f954f44b86c", "fusion_lat": 0.0, "rental_uris": {"ios": "https://dc.lft.to/lastmile_qr_scan", "android": "https://dc.lft.to/lastmile_qr_scan"}, "lon": -77.006007, "type": "electric_scooter"}, {"bike_id": "f49566db765b51059500ce627ac16801", "is_reserved": 0, "fusion_lon": 0.0, "lat": 38.92484283333334, "is_disabled": 0, "name": "f49566db765b51059500ce627ac16801", "fusion_lat": 0.0, "rental_uris": {"ios": "https://dc.lft.to/lastmile_qr_scan", "android": "https://dc.lft.to/lastmile_qr_scan"}, "lon": -77.02750783333333, "type": "electric_scooter"}, {"bike_id": "b03d0f1eaf35ccde2379128feab2d94d", "is_reserved": 0, "fusion_lon": 0.0, "lat": 38.87664383333333, "is_disabled": 0, "name": "b03d0f1eaf35ccde2379128feab2d94d", "fusion_lat": 0.0, "rental_uris": {"ios": "https://dc.lft.to/lastmile_qr_scan", "android": "https://dc.lft.to/lastmile_qr_scan"}, "lon": -77.00074583333334, "type": "electric_scooter"}, {"bike_id": "748f7938f56ea46dab02810fc78ac348", "is_reserved": 0, "fusion_lon": 0.0, "lat": 38.8831515, "is_disabled": 0, "name": "748f7938f56ea46dab02810fc78ac348", "fusion_lat": 0.0, "rental_uris": {"ios": "https://dc.lft.to/lastmile_qr_scan", "android": "https://dc.lft.to/lastmile_qr_scan"}, "lon": -77.009366, "type": "electric_scooter"}, {"bike_id": "c1f455031c1f04366528ec60ebb380ec", "is_reserved": 0, "fusion_lon": 0.0, "lat": 38.892528166666665, "is_disabled": 0, "name": "c1f455031c1f04366528ec60ebb380ec", "fusion_lat": 0.0, "rental_uris": {"ios": "https://dc.lft.to/lastmile_qr_scan", "android": "https://dc.lft.to/lastmile_qr_scan"}, "lon": -76.94330116666667, "type": "electric_scooter"}, {"bike_id": "b05965c3c37f2c65a0bca016f5baad68", "is_reserved": 0, "fusion_lon": 0.0, "lat": 38.914235833333336, "is_disabled": 0, "name": "b05965c3c37f2c65a0bca016f5baad68", "fusion_lat": 0.0, "rental_uris": {"ios": "https://dc.lft.to/lastmile_qr_scan", "android": "https://dc.lft.to/lastmile_qr_scan"}, "lon": -77.03171733333333, "type": "electric_scooter"}, {"bike_id": "fa07477f22730c41801774a8a8ff305b", "is_reserved": 0, "fusion_lon": 0.0, "lat": 38.90362666666667, "is_disabled": 0, "name": "fa07477f22730c41801774a8a8ff305b", "fusion_lat": 0.0, "rental_uris": {"ios": "https://dc.lft.to/lastmile_qr_scan", "android": "https://dc.lft.to/lastmile_qr_scan"}, "lon": -77.03301666666667, "type": "electric_scooter"}, {"bike_id": "5d1d8938b85ffffbff10b6cfe9cf9882", "is_reserved": 0, "fusion_lon": 0.0, "lat": 38.89882333333333, "is_disabled": 0, "name": "5d1d8938b85ffffbff10b6cfe9cf9882", "fusion_lat": 0.0, "rental_uris": {"ios": "https://dc.lft.to/lastmile_qr_scan", "android": "https://dc.lft.to/lastmile_qr_scan"}, "lon": -77.03280033333333, "type": "electric_scooter"}, {"bike_id": "69626bd10e4c94ebd32b04abc347504c", "is_reserved": 0, "fusion_lon": 0.0, "lat": 38.938689, "is_disabled": 0, "name": "69626bd10e4c94ebd32b04abc347504c", "fusion_lat": 0.0, "rental_uris": {"ios": "https://dc.lft.to/lastmile_qr_scan", "android": "https://dc.lft.to/lastmile_qr_scan"}, "lon": -77.02655116666666, "type": "electric_scooter"}, {"bike_id": "adeac6ae97129b3dc93c17fa93f75e14", "is_reserved": 0, "fusion_lon": 0.0, "lat": 38.903849666666666, "is_disabled": 0, "name": "adeac6ae97129b3dc93c17fa93f75e14", "fusion_lat": 0.0, "rental_uris": {"ios": "https://dc.lft.to/lastmile_qr_scan", "android": "https://dc.lft.to/lastmile_qr_scan"}, "lon": -77.03893033333334, "type": "electric_scooter"}, {"bike_id": "0c1f2db7f4d4479d3b818df92125abe9", "is_reserved": 0, "fusion_lon": 0.0, "lat": 38.91803, "is_disabled": 0, "name": "0c1f2db7f4d4479d3b818df92125abe9", "fusion_lat": 0.0, "rental_uris": {"ios": "https://dc.lft.to/lastmile_qr_scan", "android": "https://dc.lft.to/lastmile_qr_scan"}, "lon": -77.04156366666666, "type": "electric_scooter"}, {"bike_id": "1d0a102b39d52661a3ecf7cd3b6957b0", "is_reserved": 0, "fusion_lon": 0.0, "lat": 38.90569833333333, "is_disabled": 0, "name": "1d0a102b39d52661a3ecf7cd3b6957b0", "fusion_lat": 0.0, "rental_uris": {"ios": "https://dc.lft.to/lastmile_qr_scan", "android": "https://dc.lft.to/lastmile_qr_scan"}, "lon": -77.038313, "type": "electric_scooter"}, {"bike_id": "2a89aa0e35479f1c99fa270e0fb27488", "is_reserved": 0, "fusion_lon": 0.0, "lat": 38.949017, "is_disabled": 0, "name": "2a89aa0e35479f1c99fa270e0fb27488", "fusion_lat": 0.0, "rental_uris": {"ios": "https://dc.lft.to/lastmile_qr_scan", "android": "https://dc.lft.to/lastmile_qr_scan"}, "lon": -76.96370766666666, "type": "electric_bike"}, {"bike_id": "0d7c42e6c5d39f5f5a8097c1aa1e57e9", "is_reserved": 0, "fusion_lon": 0.0, "lat": 38.95357383333333, "is_disabled": 0, "name": "0d7c42e6c5d39f5f5a8097c1aa1e57e9", "fusion_lat": 0.0, "rental_uris": {"ios": "https://dc.lft.to/lastmile_qr_scan", "android": "https://dc.lft.to/lastmile_qr_scan"}, "lon": -76.98096133333334, "type": "electric_bike"}, {"bike_id": "d54b575b89ddbb2ee51a28c20888114c", "is_reserved": 0, "fusion_lon": 0.0, "lat": 38.89614983333333, "is_disabled": 0, "name": "d54b575b89ddbb2ee51a28c20888114c", "fusion_lat": 0.0, "rental_uris": {"ios": "https://dc.lft.to/lastmile_qr_scan", "android": "https://dc.lft.to/lastmile_qr_scan"}, "lon": -76.99415833333333, "type": "electric_scooter"}, {"bike_id": "48c5cfd8d89f88ed844c871b148f252a", "is_reserved": 0, "fusion_lon": 0.0, "lat": 38.90146216666667, "is_disabled": 0, "name": "48c5cfd8d89f88ed844c871b148f252a", "fusion_lat": 0.0, "rental_uris": {"ios": "https://dc.lft.to/lastmile_qr_scan", "android": "https://dc.lft.to/lastmile_qr_scan"}, "lon": -76.99797183333334, "type": "electric_scooter"}, {"bike_id": "e6f2b729863f9d7783b1583d91cb63a8", "is_reserved": 0, "fusion_lon": 0.0, "lat": 38.900103666666666, "is_disabled": 0, "name": "e6f2b729863f9d7783b1583d91cb63a8", "fusion_lat": 0.0, "rental_uris": {"ios": "https://dc.lft.to/lastmile_qr_scan", "android": "https://dc.lft.to/lastmile_qr_scan"}, "lon": -77.00591283333333, "type": "electric_scooter"}, {"bike_id": "18c073628406b09be9e350f75f17b50a", "is_reserved": 0, "fusion_lon": 0.0, "lat": 38.9038725, "is_disabled": 0, "name": "18c073628406b09be9e350f75f17b50a", "fusion_lat": 0.0, "rental_uris": {"ios": "https://dc.lft.to/lastmile_qr_scan", "android": "https://dc.lft.to/lastmile_qr_scan"}, "lon": -77.03864383333334, "type": "electric_scooter"}, {"bike_id": "0c37e384a1231b93988696453a7c8d11", "is_reserved": 0, "fusion_lon": 0.0, "lat": 38.88453416666667, "is_disabled": 0, "name": "0c37e384a1231b93988696453a7c8d11", "fusion_lat": 0.0, "rental_uris": {"ios": "https://dc.lft.to/lastmile_qr_scan", "android": "https://dc.lft.to/lastmile_qr_scan"}, "lon": -77.00575133333334, "type": "electric_scooter"}, {"bike_id": "27edecb3cc0b9cb128bcd61ca3611590", "is_reserved": 0, "fusion_lon": 0.0, "lat": 38.90286166666667, "is_disabled": 0, "name": "27edecb3cc0b9cb128bcd61ca3611590", "fusion_lat": 0.0, "rental_uris": {"ios": "https://dc.lft.to/lastmile_qr_scan", "android": "https://dc.lft.to/lastmile_qr_scan"}, "lon": -77.0391835, "type": "electric_scooter"}, {"bike_id": "a696a559e591f838c7d3077b7514750b", "is_reserved": 0, "fusion_lon": 0.0, "lat": 38.871488666666664, "is_disabled": 0, "name": "a696a559e591f838c7d3077b7514750b", "fusion_lat": 0.0, "rental_uris": {"ios": "https://dc.lft.to/lastmile_qr_scan", "android": "https://dc.lft.to/lastmile_qr_scan"}, "lon": -76.9366955, "type": "electric_bike"}, {"bike_id": "da1bcac59f736ea50671988fe5069945", "is_reserved": 0, "fusion_lon": 0.0, "lat": 38.8919965, "is_disabled": 0, "name": "da1bcac59f736ea50671988fe5069945", "fusion_lat": 0.0, "rental_uris": {"ios": "https://dc.lft.to/lastmile_qr_scan", "android": "https://dc.lft.to/lastmile_qr_scan"}, "lon": -77.02835383333333, "type": "electric_scooter"}, {"bike_id": "22e8c5b6e93f3d0c4aaa2e1954a02c2c", "is_reserved": 0, "fusion_lon": 0.0, "lat": 38.90456283333333, "is_disabled": 0, "name": "22e8c5b6e93f3d0c4aaa2e1954a02c2c", "fusion_lat": 0.0, "rental_uris": {"ios": "https://dc.lft.to/lastmile_qr_scan", "android": "https://dc.lft.to/lastmile_qr_scan"}, "lon": -77.034612, "type": "electric_scooter"}, {"bike_id": "9e68f5de25dbce42f0fb426d8fbe5efe", "is_reserved": 0, "fusion_lon": 0.0, "lat": 38.89559916666666, "is_disabled": 0, "name": "9e68f5de25dbce42f0fb426d8fbe5efe", "fusion_lat": 0.0, "rental_uris": {"ios": "https://dc.lft.to/lastmile_qr_scan", "android": "https://dc.lft.to/lastmile_qr_scan"}, "lon": -77.021799, "type": "electric_scooter"}, {"bike_id": "5f791cc7beea7239dd59b9f7b245634c", "is_reserved": 0, "fusion_lon": 0.0, "lat": 38.92216483333333, "is_disabled": 0, "name": "5f791cc7beea7239dd59b9f7b245634c", "fusion_lat": 0.0, "rental_uris": {"ios": "https://dc.lft.to/lastmile_qr_scan", "android": "https://dc.lft.to/lastmile_qr_scan"}, "lon": -77.04226366666667, "type": "electric_scooter"}, {"bike_id": "b85747732fcc6338c29eabfa5a728492", "is_reserved": 0, "fusion_lon": 0.0, "lat": 38.9248325, "is_disabled": 0, "name": "b85747732fcc6338c29eabfa5a728492", "fusion_lat": 0.0, "rental_uris": {"ios": "https://dc.lft.to/lastmile_qr_scan", "android": "https://dc.lft.to/lastmile_qr_scan"}, "lon": -77.05209766666667, "type": "electric_scooter"}, {"bike_id": "74d4bf053827c928aca6752a5182ea75", "is_reserved": 0, "fusion_lon": 0.0, "lat": 38.9051305, "is_disabled": 0, "name": "74d4bf053827c928aca6752a5182ea75", "fusion_lat": 0.0, "rental_uris": {"ios": "https://dc.lft.to/lastmile_qr_scan", "android": "https://dc.lft.to/lastmile_qr_scan"}, "lon": -77.06769, "type": "electric_bike"}, {"bike_id": "14bac199d23e4c74350be9bef934a8de", "is_reserved": 0, "fusion_lon": 0.0, "lat": 38.923653, "is_disabled": 0, "name": "14bac199d23e4c74350be9bef934a8de", "fusion_lat": 0.0, "rental_uris": {"ios": "https://dc.lft.to/lastmile_qr_scan", "android": "https://dc.lft.to/lastmile_qr_scan"}, "lon": -77.01917516666667, "type": "electric_scooter"}, {"bike_id": "e89389580ef5072f4d23333fb334da3c", "is_reserved": 0, "fusion_lon": 0.0, "lat": 38.928797833333334, "is_disabled": 0, "name": "e89389580ef5072f4d23333fb334da3c", "fusion_lat": 0.0, "rental_uris": {"ios": "https://dc.lft.to/lastmile_qr_scan", "android": "https://dc.lft.to/lastmile_qr_scan"}, "lon": -77.03305733333333, "type": "electric_scooter"}, {"bike_id": "9c7ea1fdc30b9ca5aec06dcbca4392fa", "is_reserved": 0, "fusion_lon": 0.0, "lat": 38.920942, "is_disabled": 0, "name": "9c7ea1fdc30b9ca5aec06dcbca4392fa", "fusion_lat": 0.0, "rental_uris": {"ios": "https://dc.lft.to/lastmile_qr_scan", "android": "https://dc.lft.to/lastmile_qr_scan"}, "lon": -77.0437915, "type": "electric_scooter"}, {"bike_id": "8d8b09286cebb05c3041037009bbfd60", "is_reserved": 0, "fusion_lon": 0.0, "lat": 38.8961865, "is_disabled": 0, "name": "8d8b09286cebb05c3041037009bbfd60", "fusion_lat": 0.0, "rental_uris": {"ios": "https://dc.lft.to/lastmile_qr_scan", "android": "https://dc.lft.to/lastmile_qr_scan"}, "lon": -76.9564395, "type": "electric_scooter"}, {"bike_id": "607e67b1a6f838038aa7d5efe87cc9d3", "is_reserved": 0, "fusion_lon": 0.0, "lat": 38.8790935, "is_disabled": 0, "name": "607e67b1a6f838038aa7d5efe87cc9d3", "fusion_lat": 0.0, "rental_uris": {"ios": "https://dc.lft.to/lastmile_qr_scan", "android": "https://dc.lft.to/lastmile_qr_scan"}, "lon": -77.0058475, "type": "electric_scooter"}, {"bike_id": "30ec24c86ba80d397b2db0d00c464fe4", "is_reserved": 0, "fusion_lon": 0.0, "lat": 38.89096516666667, "is_disabled": 0, "name": "30ec24c86ba80d397b2db0d00c464fe4", "fusion_lat": 0.0, "rental_uris": {"ios": "https://dc.lft.to/lastmile_qr_scan", "android": "https://dc.lft.to/lastmile_qr_scan"}, "lon": -76.94388183333334, "type": "electric_scooter"}, {"bike_id": "b46df42100cd6ff973099da36f1c1289", "is_reserved": 0, "fusion_lon": 0.0, "lat": 38.898843166666666, "is_disabled": 0, "name": "b46df42100cd6ff973099da36f1c1289", "fusion_lat": 0.0, "rental_uris": {"ios": "https://dc.lft.to/lastmile_qr_scan", "android": "https://dc.lft.to/lastmile_qr_scan"}, "lon": -77.02942883333333, "type": "electric_scooter"}, {"bike_id": "a43e0768fcc668726b2c4a952f68b8cd", "is_reserved": 0, "fusion_lon": 0.0, "lat": 38.8888765, "is_disabled": 0, "name": "a43e0768fcc668726b2c4a952f68b8cd", "fusion_lat": 0.0, "rental_uris": {"ios": "https://dc.lft.to/lastmile_qr_scan", "android": "https://dc.lft.to/lastmile_qr_scan"}, "lon": -76.93156483333334, "type": "electric_scooter"}, {"bike_id": "0e1d32bd41228b97ef50b528fae708e1", "is_reserved": 0, "fusion_lon": 0.0, "lat": 38.92480066666667, "is_disabled": 0, "name": "0e1d32bd41228b97ef50b528fae708e1", "fusion_lat": 0.0, "rental_uris": {"ios": "https://dc.lft.to/lastmile_qr_scan", "android": "https://dc.lft.to/lastmile_qr_scan"}, "lon": -77.0336955, "type": "electric_scooter"}, {"bike_id": "3f6de15544a041fbc07c47626b6be713", "is_reserved": 0, "fusion_lon": 0.0, "lat": 38.897965666666664, "is_disabled": 0, "name": "3f6de15544a041fbc07c47626b6be713", "fusion_lat": 0.0, "rental_uris": {"ios": "https://dc.lft.to/lastmile_qr_scan", "android": "https://dc.lft.to/lastmile_qr_scan"}, "lon": -76.9469175, "type": "electric_scooter"}, {"bike_id": "47ad838e72ac270f957d15335df9b87a", "is_reserved": 0, "fusion_lon": 0.0, "lat": 38.898489833333336, "is_disabled": 0, "name": "47ad838e72ac270f957d15335df9b87a", "fusion_lat": 0.0, "rental_uris": {"ios": "https://dc.lft.to/lastmile_qr_scan", "android": "https://dc.lft.to/lastmile_qr_scan"}, "lon": -76.995049, "type": "electric_scooter"}, {"bike_id": "cf21f13173226ab159891921aec9bfdc", "is_reserved": 0, "fusion_lon": 0.0, "lat": 38.9027735, "is_disabled": 0, "name": "cf21f13173226ab159891921aec9bfdc", "fusion_lat": 0.0, "rental_uris": {"ios": "https://dc.lft.to/lastmile_qr_scan", "android": "https://dc.lft.to/lastmile_qr_scan"}, "lon": -77.03856483333334, "type": "electric_scooter"}, {"bike_id": "9d7b2b5a28045867e0f08e7f5741db79", "is_reserved": 0, "fusion_lon": 0.0, "lat": 38.90288, "is_disabled": 0, "name": "9d7b2b5a28045867e0f08e7f5741db79", "fusion_lat": 0.0, "rental_uris": {"ios": "https://dc.lft.to/lastmile_qr_scan", "android": "https://dc.lft.to/lastmile_qr_scan"}, "lon": -77.04606133333333, "type": "electric_scooter"},