{"data": {"bikes": [{"rental_uris": {"ios": "https://dc.lft.to/lastmile_qr_scan", "android": "https://dc.lft.to/lastmile_qr_scan"}, "fusion_lat": 0.0, "name": "f5ab658e12042f1e78d714700f271163", "bike_id": "f5ab658e12042f1e78d714700f271163", "is_disabled": 0, "type": "electric_scooter", "lat": 38.906861166666665, "lon": -77.02717016666666, "is_reserved": 0, "fusion_lon": 0.0}, {"rental_uris": {"ios": "https://dc.lft.to/lastmile_qr_scan", "android": "https://dc.lft.to/lastmile_qr_scan"}, "fusion_lat": 0.0, "name": "25d0905a48a161665b5fcef0144816f8", "bike_id": "25d0905a48a161665b5fcef0144816f8", "is_disabled": 0, "type": "electric_scooter", "lat": 38.90672283333333, "lon": -77.027095, "is_reserved": 0, "fusion_lon": 0.0}, {"rental_uris": {"ios": "https://dc.lft.to/lastmile_qr_scan", "android": "https://dc.lft.to/lastmile_qr_scan"}, "fusion_lat": 0.0, "name": "fa9ac506bb4eb93ad75f724994afc02f", "bike_id": "fa9ac506bb4eb93ad75f724994afc02f", "is_disabled": 0, "type": "electric_bike", "lat": 38.84507, "lon": -76.9935375, "is_reserved": 0, "fusion_lon": 0.0}, {"rental_uris": {"ios": "https://dc.lft.to/lastmile_qr_scan", "android": "https://dc.lft.to/lastmile_qr_scan"}, "fusion_lat": 0.0, "name": "5aafb61f7632702d9209c4ce5972ae72", "bike_id": "5aafb61f7632702d9209c4ce5972ae72", "is_disabled": 0, "type": "electric_scooter", "lat": 38.93600433333334, "lon": -77.03753016666667, "is_reserved": 0, "fusion_lon": 0.0}, {"rental_uris": {"ios": "https://dc.lft.to/lastmile_qr_scan", "android": "https://dc.lft.to/lastmile_qr_scan"}, "fusion_lat": 0.0, "name": "ea9261f6684a98ad0ee3570448d79b51", "bike_id": "ea9261f6684a98ad0ee3570448d79b51", "is_disabled": 0, "type": "electric_scooter", "lat": 38.92552333333333, "lon": -77.052674, "is_reserved": 0, "fusion_lon": 0.0}, {"rental_uris": {"ios": "https://dc.lft.to/lastmile_qr_scan", "android": "https://dc.lft.to/lastmile_qr_scan"}, "fusion_lat": 0.0, "name": "ca18cefadb077b6c6626b7632d005d42", "bike_id": "ca18cefadb077b6c6626b7632d005d42", "is_disabled": 0, "type": "electric_scooter", "lat": 38.921289, "lon": -77.04422683333334, "is_reserved": 0, "fusion_lon": 0.0}, {"rental_uris": {"ios": "https://dc.lft.to/lastmile_qr_scan", "android": "https://dc.lft.to/lastmile_qr_scan"}, "fusion_lat": 0.0, "name": "be3b97561fd0d7cfcb17b8e804fb7432", "bike_id": "be3b97561fd0d7cfcb17b8e804fb7432", "is_disabled": 0, "type": "electric_bike", "lat": 39.0293585, "lon": -77.0492665, "is_reserved": 0, "fusion_lon": 0.0}, {"rental_uris": {"ios": "https://dc.lft.to/lastmile_qr_scan", "android": "https://dc.lft.to/lastmile_qr_scan"}, "fusion_lat": 0.0, "name": "080b96a4a9f236df3f70058c7a64656a", "bike_id": "080b96a4a9f236df3f70058c7a64656a", "is_disabled": 0, "type": "electric_scooter", "lat": 38.92144283333333, "lon": -77.0350725, "is_reserved": 0, "fusion_lon": 0.0}, {"rental_uris": {"ios": "https://dc.lft.to/lastmile_qr_scan", "android": "https://dc.lft.to/lastmile_qr_scan"}, "fusion_lat": 0.0, "name": "11c7f3e127651077fb1a2a4c293f06c0", "bike_id": "11c7f3e127651077fb1a2a4c293f06c0", "is_disabled": 0, "type": "electric_scooter", "lat": 38.9438965, "lon": -77.07704066666666, "is_reserved": 0, "fusion_lon": 0.0}, {"rental_uris": {"ios": "https://dc.lft.to/lastmile_qr_scan", "android": "https://dc.lft.to/lastmile_qr_scan"}, "fusion_lat": 0.0, "name": "ed4e605cd1c16ed74752e118db2679d3", "bike_id": "ed4e605cd1c16ed74752e118db2679d3", "is_disabled": 0, "type": "electric_scooter", "lat": 38.90369833333333, "lon": -77.03902383333333, "is_reserved": 0, "fusion_lon": 0.0}, {"rental_uris": {"ios": "https://dc.lft.to/lastmile_qr_scan", "android": "https://dc.lft.to/lastmile_qr_scan"}, "fusion_lat": 0.0, "name": "619844f56b3ac42f029f12194c2b8fc9", "bike_id": "619844f56b3ac42f029f12194c2b8fc9", "is_disabled": 0, "type": "electric_scooter", "lat": 38.913385166666664, "lon": -77.03173583333333, "is_reserved": 0, "fusion_lon": 0.0}, {"rental_uris": {"ios": "https://dc.lft.to/lastmile_qr_scan", "android": "https://dc.lft.to/lastmile_qr_scan"}, "fusion_lat": 0.0, "name": "1599b44061da840e4b79655c9b5dbea0", "bike_id": "1599b44061da840e4b79655c9b5dbea0", "is_disabled": 0, "type": "electric_bike", "lat": 38.92265866666666, "lon": -76.98154266666667, "is_reserved": 0, "fusion_lon": 0.0}, {"rental_uris": {"ios": "https://dc.lft.to/lastmile_qr_scan", "android": "https://dc.lft.to/lastmile_qr_scan"}, "fusion_lat": 0.0, "name": "b92296a720f4b29fea3718153ab79727", "bike_id": "b92296a720f4b29fea3718153ab79727", "is_disabled": 0, "type": "electric_scooter", "lat": 38.9028875, "lon": -77.0277615, "is_reserved": 0, "fusion_lon": 0.0}, {"rental_uris": {"ios": "https://dc.lft.to/lastmile_qr_scan", "android": "https://dc.lft.to/lastmile_qr_scan"}, "fusion_lat": 0.0, "name": "083a35039bad624b0316d73715e97579", "bike_id": "083a35039bad624b0316d73715e97579", "is_disabled": 0, "type": "electric_scooter", "lat": 38.907092, "lon": -77.02976733333334, "is_reserved": 0, "fusion_lon": 0.0}, {"rental_uris": {"ios": "https://dc.lft.to/lastmile_qr_scan", "android": "https://dc.lft.to/lastmile_qr_scan"}, "fusion_lat": 0.0, "name": "28200ed25e8ac0aa762194511fe330d1", "bike_id": "28200ed25e8ac0aa762194511fe330d1", "is_disabled": 0, "type": "electric_scooter", "lat": 38.930763, "lon": -77.02157816666667, "is_reserved": 0, "fusion_lon": 0.0}, {"rental_uris": {"ios": "https://dc.lft.to/lastmile_qr_scan", "android": "https://dc.lft.to/lastmile_qr_scan"}, "fusion_lat": 0.0, "name": "062b89903b2ddcbfa97294dbbdf0d089", "bike_id": "062b89903b2ddcbfa97294dbbdf0d089", "is_disabled": 0, "type": "electric_scooter", "lat": 38.9394395, "lon": -77.07521966666667, "is_reserved": 0, "fusion_lon": 0.0}, {"rental_uris": {"ios": "https://dc.lft.to/lastmile_qr_scan", "android": "https://dc.lft.to/lastmile_qr_scan"}, "fusion_lat": 0.0, "name": "0c687ffb453ca9ecf4305718be353ec0", "bike_id": "0c687ffb453ca9ecf4305718be353ec0", "is_disabled": 0, "type": "electric_scooter", "lat": 38.89551866666667, "lon": -77.009164, "is_reserved": 0, "fusion_lon": 0.0}, {"rental_uris": {"ios": "https://dc.lft.to/lastmile_qr_scan", "android": "https://dc.lft.to/lastmile_qr_scan"}, "fusion_lat": 0.0, "name": "d710ddaf1d254e6e77cea8659b0cfa5e", "bike_id": "d710ddaf1d254e6e77cea8659b0cfa5e", "is_disabled": 0, "type": "electric_scooter", "lat": 38.91908766666667, "lon": -77.02396116666667, "is_reserved": 0, "fusion_lon": 0.0}, {"rental_uris": {"ios": "https://dc.lft.to/lastmile_qr_scan", "android": "https://dc.lft.to/lastmile_qr_scan"}, "fusion_lat": 0.0, "name": "ecd1e873d3d13d94b63fe1166f31dd62", "bike_id": "ecd1e873d3d13d94b63fe1166f31dd62", "is_disabled": 0, "type": "electric_scooter", "lat": 38.918145833333334, "lon": -77.03134850000001, "is_reserved": 0, "fusion_lon": 0.0}, {"rental_uris": {"ios": "https://dc.lft.to/lastmile_qr_scan", "android": "https://dc.lft.to/lastmile_qr_scan"}, "fusion_lat": 0.0, "name": "ffa00480170b3f29b26d4506d6b007c6", "bike_id": "ffa00480170b3f29b26d4506d6b007c6", "is_disabled": 0, "type": "electric_scooter", "lat": 38.93201833333333, "lon": -77.03855183333333, "is_reserved": 0, "fusion_lon": 0.0}, {"rental_uris": {"ios": "https://dc.lft.to/lastmile_qr_scan", "android": "https://dc.lft.to/lastmile_qr_scan"}, "fusion_lat": 0.0, "name": "94071bc6c20119bc5c6b0aeb90abd9a4", "bike_id": "94071bc6c20119bc5c6b0aeb90abd9a4", "is_disabled": 0, "type": "electric_scooter", "lat": 38.9281165, "lon": -77.05396133333333, "is_reserved": 0, "fusion_lon": 0.0}, {"rental_uris": {"ios": "https://dc.lft.to/lastmile_qr_scan", "android": "https://dc.lft.to/lastmile_qr_scan"}, "fusion_lat": 0.0, "name": "4087384b2653c860a2f7f36d675ae9cf", "bike_id": "4087384b2653c860a2f7f36d675ae9cf", "is_disabled": 0, "type": "electric_bike", "lat": 38.999975666666664, "lon": -76.92498916666666, "is_reserved": 0, "fusion_lon": 0.0}, {"rental_uris": {"ios": "https://dc.lft.to/lastmile_qr_scan", "android": "https://dc.lft.to/lastmile_qr_scan"}, "fusion_lat": 0.0, "name": "2b53eed89dcb29bfe052b561283662af", "bike_id": "2b53eed89dcb29bfe052b561283662af", "is_disabled": 0, "type": "electric_scooter", "lat": 38.917107666666666, "lon": -77.03884083333334, "is_reserved": 0, "fusion_lon": 0.0}, {"rental_uris": {"ios": "https://dc.lft.to/lastmile_qr_scan", "android": "https://dc.lft.to/lastmile_qr_scan"}, "fusion_lat": 0.0, "name": "14ee210c3553b29369ab7ab431fb35f6", "bike_id": "14ee210c3553b29369ab7ab431fb35f6", "is_disabled": 0, "type": "electric_scooter", "lat": 38.9097425, "lon": -77.03211633333333, "is_reserved": 0, "fusion_lon": 0.0}, {"rental_uris": {"ios": "https://dc.lft.to/lastmile_qr_scan", "android": "https://dc.lft.to/lastmile_qr_scan"}, "fusion_lat": 0.0, "name": "77a8eec6be2dc17e2f22fdc19a25970b", "bike_id": "77a8eec6be2dc17e2f22fdc19a25970b", "is_disabled": 0, "type": "electric_scooter", "lat": 38.94634, "lon": -77.01845466666667, "is_reserved": 0, "fusion_lon": 0.0}, {"rental_uris": {"ios": "https://dc.lft.to/lastmile_qr_scan", "android": "https://dc.lft.to/lastmile_qr_scan"}, "fusion_lat": 0.0, "name": "8cc1146b8ddf5761fe6e8a3d1663b4c7", "bike_id": "8cc1146b8ddf5761fe6e8a3d1663b4c7", "is_disabled": 0, "type": "electric_scooter", "lat": 38.8670015, "lon": -76.98710416666667, "is_reserved": 0, "fusion_lon": 0.0}, {"rental_uris": {"ios": "https://dc.lft.to/lastmile_qr_scan", "android": "https://dc.lft.to/lastmile_qr_scan"}, "fusion_lat": 0.0, "name": "f520f6459e1d0b87dcc1598ac850d671", "bike_id": "f520f6459e1d0b87dcc1598ac850d671", "is_disabled": 0, "type": "electric_scooter", "lat": 38.90282333333333, "lon": -77.03173133333334, "is_reserved": 0, "fusion_lon": 0.0}, {"rental_uris": {"ios": "https://dc.lft.to/lastmile_qr_scan", "android": "https://dc.lft.to/lastmile_qr_scan"}, "fusion_lat": 0.0, "name": "9bd9def9c385296ab38c0bb8b83b2ffc", "bike_id": "9bd9def9c385296ab38c0bb8b83b2ffc", "is_disabled": 0, "type": "electric_bike", "lat": 38.951856, "lon": -76.93543983333333, "is_reserved": 0, "fusion_lon": 0.0}, {"rental_uris": {"ios": "https://dc.lft.to/lastmile_qr_scan", "android": "https://dc.lft.to/lastmile_qr_scan"}, "fusion_lat": 0.0, "name": "28b9020491252ba6b7c93e0a8f2b9408", "bike_id": "28b9020491252ba6b7c93e0a8f2b9408", "is_disabled": 0, "type": "electric_scooter", "lat": 38.899030333333336, "lon": -77.021907, "is_reserved": 0, "fusion_lon": 0.0}, {"rental_uris": {"ios": "https://dc.lft.to/lastmile_qr_scan", "android": "https://dc.lft.to/lastmile_qr_scan"}, "fusion_lat": 0.0, "name": "ec17700c51bdbdf120a63d7593b9fabc", "bike_id": "ec17700c51bdbdf120a63d7593b9fabc", "is_disabled": 0, "type": "electric_scooter", "lat": 38.90733733333333, "lon": -77.02764283333333, "is_reserved": 0, "fusion_lon": 0.0}, {"rental_uris": {"ios": "https://dc.lft.to/lastmile_qr_scan", "android": "https://dc.lft.to/lastmile_qr_scan"}, "fusion_lat": 0.0, "name": "ce3c64ab018351026dd5bbc01648ce3f", "bike_id": "ce3c64ab018351026dd5bbc01648ce3f", "is_disabled": 0, "type": "electric_scooter", "lat": 38.90731566666667, "lon": -77.0276335, "is_reserved": 0, "fusion_lon": 0.0}, {"rental_uris": {"ios": "https://dc.lft.to/lastmile_qr_scan", "android": "https://dc.lft.to/lastmile_qr_scan"}, "fusion_lat": 0.0, "name": "4653df78ccb4c114424915ee3951e9ea", "bike_id": "4653df78ccb4c114424915ee3951e9ea", "is_disabled": 0, "type": "electric_bike", "lat": 38.9166475, "lon": -77.02409883333333, "is_reserved": 0, "fusion_lon": 0.0}, {"rental_uris": {"ios": "https://dc.lft.to/lastmile_qr_scan", "android": "https://dc.lft.to/lastmile_qr_scan"}, "fusion_lat": 0.0, "name": "f533abf6452885619515febfddd3c19e", "bike_id": "f533abf6452885619515febfddd3c19e", "is_disabled": 0, "type": "electric_scooter", "lat": 38.90886583333333, "lon": -77.005747, "is_reserved": 0, "fusion_lon": 0.0}, {"rental_uris": {"ios": "https://dc.lft.to/lastmile_qr_scan", "android": "https://dc.lft.to/lastmile_qr_scan"}, "fusion_lat": 0.0, "name": "94ed01443e64e79bfd9dd792d4a1b691", "bike_id": "94ed01443e64e79bfd9dd792d4a1b691", "is_disabled": 0, "type": "electric_scooter", "lat": 38.90656383333334, "lon": -77.00594766666667, "is_reserved": 0, "fusion_lon": 0.0}, {"rental_uris": {"ios": "https://dc.lft.to/lastmile_qr_scan", "android": "https://dc.lft.to/lastmile_qr_scan"}, "fusion_lat": 0.0, "name": "f0aa1a81463f0c3b0b7ebab8b5b799f3", "bike_id": "f0aa1a81463f0c3b0b7ebab8b5b799f3", "is_disabled": 0, "type": "electric_scooter", "lat": 38.902090666666666, "lon": -77.02320116666667, "is_reserved": 0, "fusion_lon": 0.0}, {"rental_uris": {"ios": "https://dc.lft.to/lastmile_qr_scan", "android": "https://dc.lft.to/lastmile_qr_scan"}, "fusion_lat": 0.0, "name": "ceec81288d00e17f0db724a3f27c41a5", "bike_id": "ceec81288d00e17f0db724a3f27c41a5", "is_disabled": 0, "type": "electric_scooter", "lat": 38.85452333333333, "lon": -76.9857635, "is_reserved": 0, "fusion_lon": 0.0}, {"rental_uris": {"ios": "https://dc.lft.to/lastmile_qr_scan", "android": "https://dc.lft.to/lastmile_qr_scan"}, "fusion_lat": 0.0, "name": "75821239887951d07375c89560b3c405", "bike_id": "75821239887951d07375c89560b3c405", "is_disabled": 0, "type": "electric_scooter", "lat": 38.922535, "lon": -77.0365955, "is_reserved": 0, "fusion_lon": 0.0}, {"rental_uris": {"ios": "https://dc.lft.to/lastmile_qr_scan", "android": "https://dc.lft.to/lastmile_qr_scan"}, "fusion_lat": 0.0, "name": "cc98b8d58ca786a96e86a30ff9fd4e17", "bike_id": "cc98b8d58ca786a96e86a30ff9fd4e17", "is_disabled": 0, "type": "electric_scooter", "lat": 38.9096095, "lon": -77.03376533333333, "is_reserved": 0, "fusion_lon": 0.0}, {"rental_uris": {"ios": "https://dc.lft.to/lastmile_qr_scan", "android": "https://dc.lft.to/lastmile_qr_scan"}, "fusion_lat": 0.0, "name": "a26a4e4a040f549db582c9e95e0498e6", "bike_id": "a26a4e4a040f549db582c9e95e0498e6", "is_disabled": 0, "type": "electric_scooter", "lat": 38.876291333333334, "lon": -76.965271, "is_reserved": 0, "fusion_lon": 0.0}, {"rental_uris": {"ios": "https://dc.lft.to/lastmile_qr_scan", "android": "https://dc.lft.to/lastmile_qr_scan"}, "fusion_lat": 0.0, "name": "f74807cc7714927c4abf54c127c8e015", "bike_id": "f74807cc7714927c4abf54c127c8e015", "is_disabled": 0, "type": "electric_scooter", "lat": 38.924176833333334, "lon": -77.020091, "is_reserved": 0, "fusion_lon": 0.0}, {"rental_uris": {"ios": "https://dc.lft.to/lastmile_qr_scan", "android": "https://dc.lft.to/lastmile_qr_scan"}, "fusion_lat": 0.0, "name": "7ba7babee357a1292c2da1b88eb89056", "bike_id": "7ba7babee357a1292c2da1b88eb89056", "is_disabled": 0, "type": "electric_scooter", "lat": 38.954257166666665, "lon": -77.02770433333333, "is_reserved": 0, "fusion_lon": 0.0}, {"rental_uris": {"ios": "https://dc.lft.to/lastmile_qr_scan", "android": "https://dc.lft.to/lastmile_qr_scan"}, "fusion_lat": 0.0, "name": "d1239b81fc0e789b218dc2ada99940cd", "bike_id": "d1239b81fc0e789b218dc2ada99940cd", "is_disabled": 0, "type": "electric_scooter", "lat": 38.88660016666667, "lon": -77.01381583333334, "is_reserved": 0, "fusion_lon": 0.0}, {"rental_uris": {"ios": "https://dc.lft.to/lastmile_qr_scan", "android": "https://dc.lft.to/lastmile_qr_scan"}, "fusion_lat": 0.0, "name": "c6c1d310b269e236494ea08a55dab4fd", "bike_id": "c6c1d310b269e236494ea08a55dab4fd", "is_disabled": 0, "type": "electric_scooter", "lat": 38.905978833333336, "lon": -77.039992, "is_reserved": 0, "fusion_lon": 0.0}, {"rental_uris": {"ios": "https://dc.lft.to/lastmile_qr_scan", "android": "https://dc.lft.to/lastmile_qr_scan"}, "fusion_lat": 0.0, "name": "e1e607873febecdc6fcdf88281e868ee", "bike_id": "e1e607873febecdc6fcdf88281e868ee", "is_disabled": 0, "type": "electric_scooter", "lat": 38.923855, "lon": -77.05749116666667, "is_reserved": 0, "fusion_lon": 0.0}, {"rental_uris": {"ios": "https://dc.lft.to/lastmile_qr_scan", "android": "https://dc.lft.to/lastmile_qr_scan"}, "fusion_lat": 0.0, "name": "4cddf118fbca6b2af000ec44a8c2d65a", "bike_id": "4cddf118fbca6b2af000ec44a8c2d65a", "is_disabled": 0, "type": "electric_scooter", "lat": 38.89366783333333, "lon": -77.0478435, "is_reserved": 0, "fusion_lon": 0.0}, {"rental_uris": {"ios": "https://dc.lft.to/lastmile_qr_scan", "android": "https://dc.lft.to/lastmile_qr_scan"}, "fusion_lat": 0.0, "name": "d175f3ad4defdb5e2b0357ff492d116c", "bike_id": "d175f3ad4defdb5e2b0357ff492d116c", "is_disabled": 0, "type": "electric_bike", "lat": 38.969423166666665, "lon": -77.03346866666666, "is_reserved": 0, "fusion_lon": 0.0}, {"rental_uris": {"ios": "https://dc.lft.to/lastmile_qr_scan", "android": "https://dc.lft.to/lastmile_qr_scan"}, "fusion_lat": 0.0, "name": "74bf3ca58888db6cb6420d2590952f5b", "bike_id": "74bf3ca58888db6cb6420d2590952f5b", "is_disabled": 0, "type": "electric_bike", "lat": 38.96230466666667, "lon": -77.02624916666667, "is_reserved": 0, "fusion_lon": 0.0}, {"rental_uris": {"ios": "https://dc.lft.to/lastmile_qr_scan", "android": "https://dc.lft.to/lastmile_qr_scan"}, "fusion_lat": 0.0, "name": "33ca0ad5a16af63f245b58338dee3552", "bike_id": "33ca0ad5a16af63f245b58338dee3552", "is_disabled": 0, "type": "electric_scooter", "lat": 38.91866433333333, "lon": -77.0404065, "is_reserved": 0, "fusion_lon": 0.0}, {"rental_uris": {"ios": "https://dc.lft.to/lastmile_qr_scan", "android": "https://dc.lft.to/lastmile_qr_scan"}, "fusion_lat": 0.0, "name": "d2f0d9c17638d5d88b2c581a25e2057c", "bike_id": "d2f0d9c17638d5d88b2c581a25e2057c", "is_disabled": 0, "type": "electric_scooter", "lat": 38.89340583333333, "lon": -76.93135916666667, "is_reserved": 0, "fusion_lon": 0.0}, {"rental_uris": {"ios": "https://dc.lft.to/lastmile_qr_scan", "android": "https://dc.lft.to/lastmile_qr_scan"}, "fusion_lat": 0.0, "name": "c055463430dcff84c55cbbdd12187682", "bike_id": "c055463430dcff84c55cbbdd12187682", "is_disabled": 0, "type": "electric_bike", "lat": 38.9336365, "lon": -77.0996175, "is_reserved": 0, "fusion_lon": 0.0}, {"rental_uris": {"ios": "https://dc.lft.to/lastmile_qr_scan", "android": "https://dc.lft.to/lastmile_qr_scan"}, "fusion_lat": 0.0, "name": "06a5c4776545dfb60ef8209c6b21d2ea", "bike_id": "06a5c4776545dfb60ef8209c6b21d2ea", "is_disabled": 0, "type": "electric_scooter", "lat": 38.902692333333334, "lon": -77.03220533333334, "is_reserved": 0, "fusion_lon": 0.0}, {"rental_uris": {"ios": "https://dc.lft.to/lastmile_qr_scan", "android": "https://dc.lft.to/lastmile_qr_scan"}, "fusion_lat": 0.0, "name": "911527cae4c1b08d751eaa2c01e9b048", "bike_id": "911527cae4c1b08d751eaa2c01e9b048", "is_disabled": 0, "type": "electric_scooter", "lat": 38.891830666666664, "lon": -77.01581016666667, "is_reserved": 0, "fusion_lon": 0.0}, {"rental_uris": {"ios": "https://dc.lft.to/lastmile_qr_scan", "android": "https://dc.lft.to/lastmile_qr_scan"}, "fusion_lat": 0.0, "name": "85c9052625fe49acc875670667eba1e4", "bike_id": "85c9052625fe49acc875670667eba1e4", "is_disabled": 0, "type": "electric_scooter", "lat": 38.89231183333333, "lon": -77.00304416666667, "is_reserved": 0, "fusion_lon": 0.0}, {"rental_uris": {"ios": "https://dc.lft.to/lastmile_qr_scan", "android": "https://dc.lft.to/lastmile_qr_scan"}, "fusion_lat": 0.0, "name": "5f5d8f0487e9c26ae33c86da9ab184a0", "bike_id": "5f5d8f0487e9c26ae33c86da9ab184a0", "is_disabled": 0, "type": "electric_scooter", "lat": 38.9221775, "lon": -77.04244733333333, "is_reserved": 0, "fusion_lon": 0.0}, {"rental_uris": {"ios": "https://dc.lft.to/lastmile_qr_scan", "android": "https://dc.lft.to/lastmile_qr_scan"}, "fusion_lat": 0.0, "name": "f30122f17a7e5b5efc90a3d63b524bef", "bike_id": "f30122f17a7e5b5efc90a3d63b524bef", "is_disabled": 0, "type": "electric_scooter", "lat": 38.892291, "lon": -77.03211383333333, "is_reserved": 0, "fusion_lon": 0.0}, {"rental_uris": {"ios": "https://dc.lft.to/lastmile_qr_scan", "android": "https://dc.lft.to/lastmile_qr_scan"}, "fusion_lat": 0.0, "name": "118def31ae2621f767cf80835c1a12d0", "bike_id": "118def31ae2621f767cf80835c1a12d0", "is_disabled": 0, "type": "electric_scooter", "lat": 38.923673, "lon": -77.05130983333333, "is_reserved": 0, "fusion_lon": 0.0}, {"rental_uris": {"ios": "https://dc.lft.to/lastmile_qr_scan", "android": "https://dc.lft.to/lastmile_qr_scan"}, "fusion_lat": 0.0, "name": "43cc157f05a616e63481cece9277df8e", "bike_id": "43cc157f05a616e63481cece9277df8e", "is_disabled": 0, "type": "electric_bike", "lat": 38.945557, "lon": -77.02723466666667, "is_reserved": 0, "fusion_lon": 0.0}, {"rental_uris": {"ios": "https://dc.lft.to/lastmile_qr_scan", "android": "https://dc.lft.to/lastmile_qr_scan"}, "fusion_lat": 0.0, "name": "819a030403dd4af94e395d3becfeebaf", "bike_id": "819a030403dd4af94e395d3becfeebaf", "is_disabled": 0, "type": "electric_scooter", "lat": 38.90431383333333, "lon": -77.02769933333333, "is_reserved": 0, "fusion_lon": 0.0}, {"rental_uris": {"ios": "https://dc.lft.to/lastmile_qr_scan", "android": "https://dc.lft.to/lastmile_qr_scan"}, "fusion_lat": 0.0, "name": "ba6fd925b1fc2936a1aae541cd8977ed", "bike_id": "ba6fd925b1fc2936a1aae541cd8977ed", "is_disabled": 0, "type": "electric_scooter", "lat": 38.92203666666666, "lon": -77.04249916666667, "is_reserved": 0, "fusion_lon": 0.0}, {"rental_uris": {"ios": "https://dc.lft.to/lastmile_qr_scan", "android": "https://dc.lft.to/lastmile_qr_scan"}, "fusion_lat": 0.0, "name": "80cedc33a4128e56929d5ced77d33089", "bike_id": "80cedc33a4128e56929d5ced77d33089", "is_disabled": 0, "type": "electric_scooter", "lat": 38.91751933333333, "lon": -77.0240475, "is_reserved": 0, "fusion_lon": 0.0}, {"rental_uris": {"ios": "https://dc.lft.to/lastmile_qr_scan", "android": "https://dc.lft.to/lastmile_qr_scan"}, "fusion_lat": 0.0, "name": "2afc853374188279a02b8c554f435e1b", "bike_id": "2afc853374188279a02b8c554f435e1b", "is_disabled": 0, "type": "electric_scooter", "lat": 38.9265145, "lon": -77.04134483333333, "is_reserved": 0, "fusion_lon": 0.0}, {"rental_uris": {"ios": "https://dc.lft.to/lastmile_qr_scan", "android": "https://dc.lft.to/lastmile_qr_scan"}, "fusion_lat": 0.0, "name": "070826c40db9926066e5a9dad59b6fd3", "bike_id": "070826c40db9926066e5a9dad59b6fd3", "is_disabled": 0, "type": "electric_scooter", "lat": 38.90020483333333, "lon": -77.04500116666667, "is_reserved": 0, "fusion_lon": 0.0}, {"rental_uris": {"ios": "https://dc.lft.to/lastmile_qr_scan", "android": "https://dc.lft.to/lastmile_qr_scan"}, "fusion_lat": 0.0, "name": "ed909e8d935f69a07e883ccf5897f796", "bike_id": "ed909e8d935f69a07e883ccf5897f796", "is_disabled": 0, "type": "electric_bike", "lat": 38.87113016666667, "lon": -76.923295, "is_reserved": 0, "fusion_lon": 0.0}, {"rental_uris": {"ios": "https://dc.lft.to/lastmile_qr_scan", "android": "https://dc.lft.to/lastmile_qr_scan"}, "fusion_lat": 0.0, "name": "e410f2695733caa5fdef0ec75cc49a9c", "bike_id": "e410f2695733caa5fdef0ec75cc49a9c", "is_disabled": 0, "type": "electric_scooter", "lat": 38.89984666666667, "lon": -77.03164683333334, "is_reserved": 0, "fusion_lon": 0.0}, {"rental_uris": {"ios": "https://dc.lft.to/lastmile_qr_scan", "android": "https://dc.lft.to/lastmile_qr_scan"}, "fusion_lat": 0.0, "name": "a9eac9693d401af6c3e86a969cc4fcc2", "bike_id": "a9eac9693d401af6c3e86a969cc4fcc2", "is_disabled": 0, "type": "electric_scooter", "lat": 38.89233333333333, "lon": -77.02800083333334, "is_reserved": 0, "fusion_lon": 0.0}, {"rental_uris": {"ios": "https://dc.lft.to/lastmile_qr_scan", "android": "https://dc.lft.to/lastmile_qr_scan"}, "fusion_lat": 0.0, "name": "9007a56d6f769afae88ad0935a4eaeea", "bike_id": "9007a56d6f769afae88ad0935a4eaeea", "is_disabled": 0, "type": "electric_bike", "lat": 38.90613283333333, "lon": -77.07634733333333, "is_reserved": 0, "fusion_lon": 0.0}, {"rental_uris": {"ios": "https://dc.lft.to/lastmile_qr_scan", "android": "https://dc.lft.to/lastmile_qr_scan"}, "fusion_lat": 0.0, "name": "1b79cbe099fa0969d640bc2a1c55b8fe", "bike_id": "1b79cbe099fa0969d640bc2a1c55b8fe", "is_disabled": 0, "type": "electric_bike", "lat": 38.9147735, "lon": -76.98112166666667, "is_reserved": 0, "fusion_lon": 0.0}, {"rental_uris": {"ios": "https://dc.lft.to/lastmile_qr_scan", "android": "https://dc.lft.to/lastmile_qr_scan"}, "fusion_lat": 0.0, "name": "87118f519ccb89025ce4c46f7f90fee3", "bike_id": "87118f519ccb89025ce4c46f7f90fee3", "is_disabled": 0, "type": "electric_scooter", "lat": 38.84299883333333, "lon": -76.99942716666666, "is_reserved": 0, "fusion_lon": 0.0}, {"rental_uris": {"ios": "https://dc.lft.to/lastmile_qr_scan", "android": "https://dc.lft.to/lastmile_qr_scan"}, "fusion_lat": 0.0, "name": "2da2729798f3f869b0904398912efafd", "bike_id": "2da2729798f3f869b0904398912efafd", "is_disabled": 0, "type": "electric_scooter", "lat": 38.90321483333334, "lon": -77.03321866666667, "is_reserved": 0, "fusion_lon": 0.0}, {"rental_uris": {"ios": "https://dc.lft.to/lastmile_qr_scan", "android": "https://dc.lft.to/lastmile_qr_scan"}, "fusion_lat": 0.0, "name": "f6c7761d8b0c235c3f96766a6fcecd79", "bike_id": "f6c7761d8b0c235c3f96766a6fcecd79", "is_disabled": 0, "type": "electric_scooter", "lat": 38.91569483333333, "lon": -77.020053, "is_reserved": 0, "fusion_lon": 0.0}, {"rental_uris": {"ios": "https://dc.lft.to/lastmile_qr_scan", "android": "https://dc.lft.to/lastmile_qr_scan"}, "fusion_lat": 0.0, "name": "255c080e83bfb7b019023b2e9dbe7764", "bike_id": "255c080e83bfb7b019023b2e9dbe7764", "is_disabled": 0, "type": "electric_scooter", "lat": 38.902561166666665, "lon": -77.03336866666666, "is_reserved": 0, "fusion_lon": 0.0}, {"rental_uris": {"ios": "https://dc.lft.to/lastmile_qr_scan", "android": "https://dc.lft.to/lastmile_qr_scan"}, "fusion_lat": 0.0, "name": "474c923603a62da1851a2b416217a1fd", "bike_id": "474c923603a62da1851a2b416217a1fd", "is_disabled": 0, "type": "electric_scooter", "lat": 38.91801316666667, "lon": -77.036571, "is_reserved": 0, "fusion_lon": 0.0}, {"rental_uris": {"ios": "https://dc.lft.to/lastmile_qr_scan", "android": "https://dc.lft.to/lastmile_qr_scan"}, "fusion_lat": 0.0, "name": "955215dcd0272db9bece935c6386a893", "bike_id": "955215dcd0272db9bece935c6386a893", "is_disabled": 0, "type": "electric_scooter", "lat": 38.922036166666665, "lon": -77.04251016666667, "is_reserved": 0, "fusion_lon": 0.0}, {"rental_uris": {"ios": "https://dc.lft.to/lastmile_qr_scan", "android": "https://dc.lft.to/lastmile_qr_scan"}, "fusion_lat": 0.0, "name": "35b6536e2173158e2a72168c49f2a728", "bike_id": "35b6536e2173158e2a72168c49f2a728", "is_disabled": 0, "type": "electric_scooter", "lat": 38.9057005, "lon": -77.0347725, "is_reserved": 0, "fusion_lon": 0.0}, {"rental_uris": {"ios": "https://dc.lft.to/lastmile_qr_scan", "android": "https://dc.lft.to/lastmile_qr_scan"}, "fusion_lat": 0.0, "name": "f8757f22518242ff77c492e89e82ecc5", "bike_id": "f8757f22518242ff77c492e89e82ecc5", "is_disabled": 0, "type": "electric_scooter", "lat": 38.903828833333336, "lon": -77.04498116666667, "is_reserved": 0, "fusion_lon": 0.0}, {"rental_uris": {"ios": "https://dc.lft.to/lastmile_qr_scan", "android": "https://dc.lft.to/lastmile_qr_scan"}, "fusion_lat": 0.0, "name": "492d2ee1bfc050ea2f54099da417d6c4", "bike_id": "492d2ee1bfc050ea2f54099da417d6c4", "is_disabled": 0, "type": "electric_scooter", "lat": 38.94414666666667, "lon": -77.0551845, "is_reserved": 0, "fusion_lon": 0.0}, {"rental_uris": {"ios": "https://dc.lft.to/lastmile_qr_scan", "android": "https://dc.lft.to/lastmile_qr_scan"}, "fusion_lat": 0.0, "name": "d018cba7c9f28428a69fff406ec88f77", "bike_id": "d018cba7c9f28428a69fff406ec88f77", "is_disabled": 0, "type": "electric_scooter", "lat": 38.911126333333335, "lon": -77.0447485, "is_reserved": 0, "fusion_lon": 0.0}, {"rental_uris": {"ios": "https://dc.lft.to/lastmile_qr_scan", "android": "https://dc.lft.to/lastmile_qr_scan"}, "fusion_lat": 0.0, "name": "2694f6b48c53581862856fa670d8f244", "bike_id": "2694f6b48c53581862856fa670d8f244", "is_disabled": 0, "type": "electric_scooter", "lat": 38.910057333333334, "lon": -77.0442075, "is_reserved": 0, "fusion_lon": 0.0}, {"rental_uris": {"ios": "https://dc.lft.to/lastmile_qr_scan", "android": "https://dc.lft.to/lastmile_qr_scan"}, "fusion_lat": 0.0, "name": "a62a798becdf8547009f7f143a5af7ae", "bike_id": "a62a798becdf8547009f7f143a5af7ae", "is_disabled": 0, "type": "electric_scooter", "lat": 38.911212, "lon": -77.04208483333333, "is_reserved": 0, "fusion_lon": 0.0}, {"rental_uris": {"ios": "https://dc.lft.to/lastmile_qr_scan", "android": "https://dc.lft.to/lastmile_qr_scan"}, "fusion_lat": 0.0, "name": "911aa72e47f98eb3ca7be4a6ea29eb89", "bike_id": "911aa72e47f98eb3ca7be4a6ea29eb89", "is_disabled": 0, "type": "electric_scooter", "lat": 38.894090166666665, "lon": -76.91110633333334, "is_reserved": 0, "fusion_lon": 0.0}, {"rental_uris": {"ios": "https://dc.lft.to/lastmile_qr_scan", "android": "https://dc.lft.to/lastmile_qr_scan"}, "fusion_lat": 0.0, "name": "d3ad884026220cb812c04dc8fb2da481", "bike_id": "d3ad884026220cb812c04dc8fb2da481", "is_disabled": 0, "type": "electric_scooter", "lat": 38.896764166666664, "lon": -77.02452366666667, "is_reserved": 0, "fusion_lon": 0.0}, {"rental_uris": {"ios": "https://dc.lft.to/lastmile_qr_scan", "android": "https://dc.lft.to/lastmile_qr_scan"}, "fusion_lat": 0.0, "name": "6be12a1d27e75db74146d78e02f01325", "bike_id": "6be12a1d27e75db74146d78e02f01325", "is_disabled": 0, "type": "electric_scooter", "lat": 38.90625083333333, "lon": -77.0217945, "is_reserved": 0, "fusion_lon": 0.0}, {"rental_uris": {"ios": "https://dc.lft.to/lastmile_qr_scan", "android": "https://dc.lft.to/lastmile_qr_scan"}, "fusion_lat": 0.0, "name": "8973fcbcb7feba00547b4ddbef692c5b", "bike_id": "8973fcbcb7feba00547b4ddbef692c5b", "is_disabled": 0, "type": "electric_scooter", "lat": 38.915569166666664, "lon": -77.03660266666667, "is_reserved": 0, "fusion_lon": 0.0}, {"rental_uris": {"ios": "https://dc.lft.to/lastmile_qr_scan", "android": "https://dc.lft.to/lastmile_qr_scan"}, "fusion_lat": 0.0, "name": "467d2c0b3e96b6d6fe332ba5d80452e7", "bike_id": "467d2c0b3e96b6d6fe332ba5d80452e7", "is_disabled": 0, "type": "electric_scooter", "lat": 38.91115766666667, "lon": -77.03145966666666, "is_reserved": 0, "fusion_lon": 0.0}, {"rental_uris": {"ios": "https://dc.lft.to/lastmile_qr_scan", "android": "https://dc.lft.to/lastmile_qr_scan"}, "fusion_lat": 0.0, "name": "e4b210f755e77521a28eb9f3db266a54", "bike_id": "e4b210f755e77521a28eb9f3db266a54", "is_disabled": 0, "type": "electric_scooter", "lat": 38.91599683333333, "lon": -77.02969266666666, "is_reserved": 0, "fusion_lon": 0.0}, {"rental_uris": {"ios": "https://dc.lft.to/lastmile_qr_scan", "android": "https://dc.lft.to/lastmile_qr_scan"}, "fusion_lat": 0.0, "name": "fb434b434121d510b555598d7a88d2af", "bike_id": "fb434b434121d510b555598d7a88d2af", "is_disabled": 0, "type": "electric_scooter", "lat": 38.92878116666667, "lon": -77.03298083333334, "is_reserved": 0, "fusion_lon": 0.0}, {"rental_uris": {"ios": "https://dc.lft.to/lastmile_qr_scan", "android": "https://dc.lft.to/lastmile_qr_scan"}, "fusion_lat": 0.0, "name": "29e91523694e4bed0757026a892cd1ca", "bike_id": "29e91523694e4bed0757026a892cd1ca", "is_disabled": 0, "type": "electric_bike", "lat": 38.81938533333334, "lon": -77.00205116666666, "is_reserved": 0, "fusion_lon": 0.0}, {"rental_uris": {"ios": "https://dc.lft.to/lastmile_qr_scan", "android": "https://dc.lft.to/lastmile_qr_scan"}, "fusion_lat": 0.0, "name": "ff002f3217a41284ca58268d0d8c9e3d", "bike_id": "ff002f3217a41284ca58268d0d8c9e3d", "is_disabled": 0, "type": "electric_scooter", "lat": 38.905829, "lon": -77.04523283333333, "is_reserved": 0, "fusion_lon": 0.0}, {"rental_uris": {"ios": "https://dc.lft.to/lastmile_qr_scan", "android": "https://dc.lft.to/lastmile_qr_scan"}, "fusion_lat": 0.0, "name": "8937ad6a9f5d5b8e3fde317484219fdc", "bike_id": "8937ad6a9f5d5b8e3fde317484219fdc", "is_disabled": 0, "type": "electric_scooter", "lat": 38.9060145, "lon": -77.02685833333334, "is_reserved": 0, "fusion_lon": 0.0}, {"rental_uris": {"ios": "https://dc.lft.to/lastmile_qr_scan", "android": "https://dc.lft.to/lastmile_qr_scan"}, "fusion_lat": 0.0, "name": "5106d2c832cb21cb404442c276516c38", "bike_id": "5106d2c832cb21cb404442c276516c38", "is_disabled": 0, "type": "electric_scooter", "lat": 38.90621616666667, "lon": -77.0260595, "is_reserved": 0, "fusion_lon": 0.0}, {"rental_uris": {"ios": "https://dc.lft.to/lastmile_qr_scan", "android": "https://dc.lft.to/lastmile_qr_scan"}, "fusion_lat": 0.0, "name": "837c34a8c7436d582db0f0dcdbb48845", "bike_id": "837c34a8c7436d582db0f0dcdbb48845", "is_disabled": 0, "type": "electric_scooter", "lat": 38.895016, "lon": -76.94875133333333, "is_reserved": 0, "fusion_lon": 0.0}, {"rental_uris": {"ios": "https://dc.lft.to/lastmile_qr_scan", "android": "https://dc.lft.to/lastmile_qr_scan"}, "fusion_lat": 0.0, "name": "293d66276c19012f98bf45f455b1c753", "bike_id": "293d66276c19012f98bf45f455b1c753", "is_disabled": 0, "type": "electric_bike", "lat": 38.8050575, "lon": -77.04140933333333, "is_reserved": 0, "fusion_lon": 0.0}, {"rental_uris": {"ios": "https://dc.lft.to/lastmile_qr_scan", "android": "https://dc.lft.to/lastmile_qr_scan"}, "fusion_lat": 0.0, "name": "1a3575f99f6da27221c5269f2794fca9", "bike_id": "1a3575f99f6da27221c5269f2794fca9", "is_disabled": 0, "type": "electric_scooter", "lat": 38.90641133333333, "lon": -76.99506216666667, "is_reserved": 0, "fusion_lon": 0.0}, {"rental_uris": {"ios": "https://dc.lft.to/lastmile_qr_scan", "android": "https://dc.lft.to/lastmile_qr_scan"}, "fusion_lat": 0.0, "name": "98835206a0c872513f449cabbe6e50ad", "bike_id": "98835206a0c872513f449cabbe6e50ad", "is_disabled": 0, "type": "electric_scooter", "lat": 38.9097275, "lon": -77.034395, "is_reserved": 0, "fusion_lon": 0.0}, {"rental_uris": {"ios": "https://dc.lft.to/lastmile_qr_scan", "android": "https://dc.lft.to/lastmile_qr_scan"}, "fusion_lat": 0.0, "name": "f645a17c636ec0ec085b6a42f219d4fd", "bike_id": "f645a17c636ec0ec085b6a42f219d4fd", "is_disabled": 0, "type": "electric_scooter", "lat": 38.89529816666666, "lon": -77.00212133333333, "is_reserved": 0, "fusion_lon": 0.0}, {"rental_uris": {"ios": "https://dc.lft.to/lastmile_qr_scan", "android": "https://dc.lft.to/lastmile_qr_scan"}, "fusion_lat": 0.0, "name": "7ff9ae90c39182ab91a20de2fd56e010", "bike_id": "7ff9ae90c39182ab91a20de2fd56e010", "is_disabled": 0, "type": "electric_scooter", "lat": 38.9097515, "lon": -77.03435983333334, "is_reserved": 0, "fusion_lon": 0.0}, {"rental_uris": {"ios": "https://dc.lft.to/lastmile_qr_scan", "android": "https://dc.lft.to/lastmile_qr_scan"}, "fusion_lat": 0.0, "name": "4f8063f96d3a2c6cd7decc2d7fb6fba2", "bike_id": "4f8063f96d3a2c6cd7decc2d7fb6fba2", "is_disabled": 0, "type": "electric_scooter", "lat": 38.926442, "lon": -77.02508766666666, "is_reserved": 0, "fusion_lon": 0.0}, {"rental_uris": {"ios": "https://dc.lft.to/lastmile_qr_scan", "android": "https://dc.lft.to/lastmile_qr_scan"}, "fusion_lat": 0.0, "name": "ae608326ba91e1459df3a29c973d8ecb", "bike_id": "ae608326ba91e1459df3a29c973d8ecb", "is_disabled": 0, "type": "electric_scooter", "lat": 38.8867125, "lon": -77.01331233333333, "is_reserved": 0, "fusion_lon": 0.0}, {"rental_uris": {"ios": "https://dc.lft.to/lastmile_qr_scan", "android": "https://dc.lft.to/lastmile_qr_scan"}, "fusion_lat": 0.0, "name": "ff308491c72cc23f523cf2a86566c56a", "bike_id": "ff308491c72cc23f523cf2a86566c56a", "is_disabled": 0, "type": "electric_scooter", "lat": 38.90589833333333, "lon": -77.04119816666666, "is_reserved": 0, "fusion_lon": 0.0}, {"rental_uris": {"ios": "https://dc.lft.to/lastmile_qr_scan", "android": "https://dc.lft.to/lastmile_qr_scan"}, "fusion_lat": 0.0, "name": "881444d49b299e02cea11e178e6cde49", "bike_id": "881444d49b299e02cea11e178e6cde49", "is_disabled": 0, "type": "electric_scooter", "lat": 38.89224633333333, "lon": -77.04366633333333, "is_reserved": 0, "fusion_lon": 0.0}, {"rental_uris": {"ios": "https://dc.lft.to/lastmile_qr_scan", "android": "https://dc.lft.to/lastmile_qr_scan"}, "fusion_lat": 0.0, "name": "1f1f3d5d9cb90e6c13b5de18587ef73f", "bike_id": "1f1f3d5d9cb90e6c13b5de18587ef73f", "is_disabled": 0, "type": "electric_scooter", "lat": 38.917545833333335, "lon": -77.024014, "is_reserved": 0, "fusion_lon": 0.0}, {"rental_uris": {"ios": "https://dc.lft.to/lastmile_qr_scan", "android": "https://dc.lft.to/lastmile_qr_scan"}, "fusion_lat": 0.0, "name": "07d873b0f2163a10a934294a4b7d6bd3", "bike_id": "07d873b0f2163a10a934294a4b7d6bd3", "is_disabled": 0, "type": "electric_scooter", "lat": 38.910606, "lon": -77.04098816666666, "is_reserved": 0, "fusion_lon": 0.0}, {"rental_uris": {"ios": "https://dc.lft.to/lastmile_qr_scan", "android": "https://dc.lft.to/lastmile_qr_scan"}, "fusion_lat": 0.0, "name": "e14e7ab4d3c1e5cfdf3464b1cd0de465", "bike_id": "e14e7ab4d3c1e5cfdf3464b1cd0de465", "is_disabled": 0, "type": "electric_scooter", "lat": 38.911905833333336, "lon": -77.048469, "is_reserved": 0, "fusion_lon": 0.0}, {"rental_uris": {"ios": "https://dc.lft.to/lastmile_qr_scan", "android": "https://dc.lft.to/lastmile_qr_scan"}, "fusion_lat": 0.0, "name": "741ce0b71402757be8b1016371c4c6ef", "bike_id": "741ce0b71402757be8b1016371c4c6ef", "is_disabled": 0, "type": "electric_scooter", "lat": 38.920517333333336, "lon": -77.00207366666666, "is_reserved": 0, "fusion_lon": 0.0}, {"rental_uris": {"ios": "https://dc.lft.to/lastmile_qr_scan", "android": "https://dc.lft.to/lastmile_qr_scan"}, "fusion_lat": 0.0, "name": "bc52e08c58100fc69dec521430f7e7a6", "bike_id": "bc52e08c58100fc69dec521430f7e7a6", "is_disabled": 0, "type": "electric_bike", "lat": 38.832217, "lon": -77.04968733333334, "is_reserved": 0, "fusion_lon": 0.0}, {"rental_uris": {"ios": "https://dc.lft.to/lastmile_qr_scan", "android": "https://dc.lft.to/lastmile_qr_scan"}, "fusion_lat": 0.0, "name": "d8c5b8bb45a2532485b8a55f14d8a2d6", "bike_id": "d8c5b8bb45a2532485b8a55f14d8a2d6", "is_disabled": 0, "type": "electric_scooter", "lat": 38.9186725, "lon": -77.038821, "is_reserved": 0, "fusion_lon": 0.0}, {"rental_uris": {"ios": "https://dc.lft.to/lastmile_qr_scan", "android": "https://dc.lft.to/lastmile_qr_scan"}, "fusion_lat": 0.0, "name": "134d57fe38d9c9f42dd5e31118165ce4", "bike_id": "134d57fe38d9c9f42dd5e31118165ce4", "is_disabled": 0, "type": "electric_scooter", "lat": 38.8950925, "lon": -77.01085266666666, "is_reserved": 0, "fusion_lon": 0.0}, {"rental_uris": {"ios": "https://dc.lft.to/lastmile_qr_scan", "android": "https://dc.lft.to/lastmile_qr_scan"}, "fusion_lat": 0.0, "name": "dfd2676e64b211998cf6b4d5ca50595d", "bike_id": "dfd2676e64b211998cf6b4d5ca50595d", "is_disabled": 0, "type": "electric_scooter", "lat": 38.9347705, "lon": -77.0358055, "is_reserved": 0, "fusion_lon": 0.0}, {"rental_uris": {"ios": "https://dc.lft.to/lastmile_qr_scan", "android": "https://dc.lft.to/lastmile_qr_scan"}, "fusion_lat": 0.0, "name": "76f24ec32ef4a35271560e97ca71c414", "bike_id": "76f24ec32ef4a35271560e97ca71c414", "is_disabled": 0, "type": "electric_scooter", "lat": 38.86500516666667, "lon": -76.98985516666667, "is_reserved": 0, "fusion_lon": 0.0}, {"rental_uris": {"ios": "https://dc.lft.to/lastmile_qr_scan", "android": "https://dc.lft.to/lastmile_qr_scan"}, "fusion_lat": 0.0, "name": "d58b45fd14bb3fb3bc84aa0f16cd7f68", "bike_id": "d58b45fd14bb3fb3bc84aa0f16cd7f68", "is_disabled": 0, "type": "electric_scooter", "lat": 38.90955016666667, "lon": -77.044825, "is_reserved": 0, "fusion_lon": 0.0}, {"rental_uris": {"ios": "https://dc.lft.to/lastmile_qr_scan", "android": "https://dc.lft.to/lastmile_qr_scan"}, "fusion_lat": 0.0, "name": "363ef56299930ed22299b53a15965109", "bike_id": "363ef56299930ed22299b53a15965109", "is_disabled": 0, "type": "electric_scooter", "lat": 38.924681, "lon": -77.052326, "is_reserved": 0, "fusion_lon": 0.0}, {"rental_uris": {"ios": "https://dc.lft.to/lastmile_qr_scan", "android": "https://dc.lft.to/lastmile_qr_scan"}, "fusion_lat": 0.0, "name": "38309a829c8bb540f4b7222d509b364d", "bike_id": "38309a829c8bb540f4b7222d509b364d", "is_disabled": 0, "type": "electric_scooter", "lat": 38.90962433333333, "lon": -77.02280933333333, "is_reserved": 0, "fusion_lon": 0.0}, {"rental_uris": {"ios": "https://dc.lft.to/lastmile_qr_scan", "android": "https://dc.lft.to/lastmile_qr_scan"}, "fusion_lat": 0.0, "name": "c60665655f1144877d0a9a932c75f772", "bike_id": "c60665655f1144877d0a9a932c75f772", "is_disabled": 0, "type": "electric_scooter", "lat": 38.877131166666665, "lon": -77.00730733333333, "is_reserved": 0, "fusion_lon": 0.0}, {"rental_uris": {"ios": "https://dc.lft.to/lastmile_qr_scan", "android": "https://dc.lft.to/lastmile_qr_scan"}, "fusion_lat": 0.0, "name": "3bb891c03868c63f30a669e214adf22e", "bike_id": "3bb891c03868c63f30a669e214adf22e", "is_disabled": 0, "type": "electric_scooter", "lat": 38.89388533333333, "lon": -77.02828983333333, "is_reserved": 0, "fusion_lon": 0.0}, {"rental_uris": {"ios": "https://dc.lft.to/lastmile_qr_scan", "android": "https://dc.lft.to/lastmile_qr_scan"}, "fusion_lat": 0.0, "name": "36c784847ff23160d140946a151776fa", "bike_id": "36c784847ff23160d140946a151776fa", "is_disabled": 0, "type": "electric_scooter", "lat": 38.930676, "lon": -77.03816133333333, "is_reserved": 0, "fusion_lon": 0.0}, {"rental_uris": {"ios": "https://dc.lft.to/lastmile_qr_scan", "android": "https://dc.lft.to/lastmile_qr_scan"}, "fusion_lat": 0.0, "name": "aa23bc2ac433ce17f51ac44f039b3d2e", "bike_id": "aa23bc2ac433ce17f51ac44f039b3d2e", "is_disabled": 0, "type": "electric_scooter", "lat": 38.86258816666667, "lon": -76.99517283333333, "is_reserved": 0, "fusion_lon": 0.0}, {"rental_uris": {"ios": "https://dc.lft.to/lastmile_qr_scan", "android": "https://dc.lft.to/lastmile_qr_scan"}, "fusion_lat": 0.0, "name": "3add8092c4f05603c9eead6e81f74dc0", "bike_id": "3add8092c4f05603c9eead6e81f74dc0", "is_disabled": 0, "type": "electric_scooter", "lat": 38.911198666666664, "lon": -77.03916333333333, "is_reserved": 0, "fusion_lon": 0.0}, {"rental_uris": {"ios": "https://dc.lft.to/lastmile_qr_scan", "android": "https://dc.lft.to/lastmile_qr_scan"}, "fusion_lat": 0.0, "name": "28404b4161e1036f9636a972aafa9e76", "bike_id": "28404b4161e1036f9636a972aafa9e76", "is_disabled": 0, "type": "electric_bike", "lat": 38.910489, "lon": -77.04126216666667, "is_reserved": 0, "fusion_lon": 0.0}, {"rental_uris": {"ios": "https://dc.lft.to/lastmile_qr_scan", "android": "https://dc.lft.to/lastmile_qr_scan"}, "fusion_lat": 0.0, "name": "e79a3ccc475189548bdffe45d728bd19", "bike_id": "e79a3ccc475189548bdffe45d728bd19", "is_disabled": 0, "type": "electric_scooter", "lat": 38.91136433333333, "lon": -77.02196983333333, "is_reserved": 0, "fusion_lon": 0.0}, {"rental_uris": {"ios": "https://dc.lft.to/lastmile_qr_scan", "android": "https://dc.lft.to/lastmile_qr_scan"}, "fusion_lat": 0.0, "name": "1cfb14ffda951410c0240ea21f0ef712", "bike_id": "1cfb14ffda951410c0240ea21f0ef712", "is_disabled": 0, "type": "electric_scooter", "lat": 38.909833666666664, "lon": -77.04408533333333, "is_reserved": 0, "fusion_lon": 0.0}, {"rental_uris": {"ios": "https://dc.lft.to/lastmile_qr_scan", "android": "https://dc.lft.to/lastmile_qr_scan"}, "fusion_lat": 0.0, "name": "6ac1566f85c3ce2bdceb5557c4d15885", "bike_id": "6ac1566f85c3ce2bdceb5557c4d15885", "is_disabled": 0, "type": "electric_scooter", "lat": 38.907969666666666, "lon": -77.043497, "is_reserved": 0, "fusion_lon": 0.0}, {"rental_uris": {"ios": "https://dc.lft.to/lastmile_qr_scan", "android": "https://dc.lft.to/lastmile_qr_scan"}, "fusion_lat": 0.0, "name": "b0bd9ac581477813d3907c1ac2991304", "bike_id": "b0bd9ac581477813d3907c1ac2991304", "is_disabled": 0, "type": "electric_scooter", "lat": 38.904409, "lon": -77.03260666666667, "is_reserved": 0, "fusion_lon": 0.0}, {"rental_uris": {"ios": "https://dc.lft.to/lastmile_qr_scan", "android": "https://dc.lft.to/lastmile_qr_scan"}, "fusion_lat": 0.0, "name": "312cd64550726cd873488ae56fad47ed", "bike_id": "312cd64550726cd873488ae56fad47ed", "is_disabled": 0, "type": "electric_scooter", "lat": 38.91275666666667, "lon": -77.0364325, "is_reserved": 0, "fusion_lon": 0.0}, {"rental_uris": {"ios": "https://dc.lft.to/lastmile_qr_scan", "android": "https://dc.lft.to/lastmile_qr_scan"}, "fusion_lat": 0.0, "name": "c97d79f385cacac61ca0c1678681726f", "bike_id": "c97d79f385cacac61ca0c1678681726f", "is_disabled": 0, "type": "electric_scooter", "lat": 38.887210833333334, "lon": -77.01775233333333, "is_reserved": 0, "fusion_lon": 0.0}, {"rental_uris": {"ios": "https://dc.lft.to/lastmile_qr_scan", "android": "https://dc.lft.to/lastmile_qr_scan"}, "fusion_lat": 0.0, "name": "772a143085ca5962605153f1c1327804", "bike_id": "772a143085ca5962605153f1c1327804", "is_disabled": 0, "type": "electric_scooter", "lat": 38.874097666666664, "lon": -77.00576166666667, "is_reserved": 0, "fusion_lon": 0.0}, {"rental_uris": {"ios": "https://dc.lft.to/lastmile_qr_scan", "android": "https://dc.lft.to/lastmile_qr_scan"}, "fusion_lat": 0.0, "name": "eef16bd3ad3720419f6ba279617c4e37", "bike_id": "eef16bd3ad3720419f6ba279617c4e37", "is_disabled": 0, "type": "electric_scooter", "lat": 38.919802, "lon": -77.0239375, "is_reserved": 0, "fusion_lon": 0.0}, {"rental_uris": {"ios": "https://dc.lft.to/lastmile_qr_scan", "android": "https://dc.lft.to/lastmile_qr_scan"}, "fusion_lat": 0.0, "name": "4eff746fe6c2d57918988a1318811296", "bike_id": "4eff746fe6c2d57918988a1318811296", "is_disabled": 0, "type": "electric_scooter", "lat": 38.961674, "lon": -77.02789433333334, "is_reserved": 0, "fusion_lon": 0.0}, {"rental_uris": {"ios": "https://dc.lft.to/lastmile_qr_scan", "android": "https://dc.lft.to/lastmile_qr_scan"}, "fusion_lat": 0.0, "name": "38f4b715294b56393eaa7bba97273675", "bike_id": "38f4b715294b56393eaa7bba97273675", "is_disabled": 0, "type": "electric_scooter", "lat": 38.9024065, "lon": -77.04369233333334, "is_reserved": 0, "fusion_lon": 0.0}, {"rental_uris": {"ios": "https://dc.lft.to/lastmile_qr_scan", "android": "https://dc.lft.to/lastmile_qr_scan"}, "fusion_lat": 0.0, "name": "e93c9131b785820974888ae76628198c", "bike_id": "e93c9131b785820974888ae76628198c", "is_disabled": 0, "type": "electric_scooter", "lat": 38.914274166666665, "lon": -77.032077, "is_reserved": 0, "fusion_lon": 0.0}, {"rental_uris": {"ios": "https://dc.lft.to/lastmile_qr_scan", "android": "https://dc.lft.to/lastmile_qr_scan"}, "fusion_lat": 0.0, "name": "1833f7aacbb8a2435f39aba39bb740fc", "bike_id": "1833f7aacbb8a2435f39aba39bb740fc", "is_disabled": 0, "type": "electric_scooter", "lat": 38.924794166666665, "lon": -77.03491366666667, "is_reserved": 0, "fusion_lon": 0.0}, {"rental_uris": {"ios": "https://dc.lft.to/lastmile_qr_scan", "android": "https://dc.lft.to/lastmile_qr_scan"}, "fusion_lat": 0.0, "name": "13a44fdae4dbfb2fdd1ad5b5138bedbf", "bike_id": "13a44fdae4dbfb2fdd1ad5b5138bedbf", "is_disabled": 0, "type": "electric_scooter", "lat": 38.9155575, "lon": -77.0241685, "is_reserved": 0, "fusion_lon": 0.0}, {"rental_uris": {"ios": "https://dc.lft.to/lastmile_qr_scan", "android": "https://dc.lft.to/lastmile_qr_scan"}, "fusion_lat": 0.0, "name": "ff7efb205235aefd53555a300a2fefe1", "bike_id": "ff7efb205235aefd53555a300a2fefe1", "is_disabled": 0, "type": "electric_scooter", "lat": 38.91916783333333, "lon": -77.03197116666666, "is_reserved": 0, "fusion_lon": 0.0}, {"rental_uris": {"ios": "https://dc.lft.to/lastmile_qr_scan", "android": "https://dc.lft.to/lastmile_qr_scan"}, "fusion_lat": 0.0, "name": "04ba978f467d139e3dacfe458b68c8e7", "bike_id": "04ba978f467d139e3dacfe458b68c8e7", "is_disabled": 0, "type": "electric_scooter", "lat": 38.901426666666666, "lon": -77.04465283333333, "is_reserved": 0, "fusion_lon": 0.0}, {"rental_uris": {"ios": "https://dc.lft.to/lastmile_qr_scan", "android": "https://dc.lft.to/lastmile_qr_scan"}, "fusion_lat": 0.0, "name": "52c62cd1bcc9c6a8859bf0e442652bd6", "bike_id": "52c62cd1bcc9c6a8859bf0e442652bd6", "is_disabled": 0, "type": "electric_scooter", "lat": 38.89017583333333, "lon": -76.93736166666666, "is_reserved": 0, "fusion_lon": 0.0}, {"rental_uris": {"ios": "https://dc.lft.to/lastmile_qr_scan", "android": "https://dc.lft.to/lastmile_qr_scan"}, "fusion_lat": 0.0, "name": "4b341792253b5a9ccdf8503570f243c2", "bike_id": "4b341792253b5a9ccdf8503570f243c2", "is_disabled": 0, "type": "electric_scooter", "lat": 38.895832166666665, "lon": -76.98179666666667, "is_reserved": 0, "fusion_lon": 0.0}, {"rental_uris": {"ios": "https://dc.lft.to/lastmile_qr_scan", "android": "https://dc.lft.to/lastmile_qr_scan"}, "fusion_lat": 0.0, "name": "c257709c9914d8ff3e06ecdf8e525fb8", "bike_id": "c257709c9914d8ff3e06ecdf8e525fb8", "is_disabled": 0, "type": "electric_scooter", "lat": 38.92481333333333, "lon": -77.02723916666666, "is_reserved": 0, "fusion_lon": 0.0}, {"rental_uris": {"ios": "https://dc.lft.to/lastmile_qr_scan", "android": "https://dc.lft.to/lastmile_qr_scan"}, "fusion_lat": 0.0, "name": "8890c4c67482568d1e566a4c3066cf44", "bike_id": "8890c4c67482568d1e566a4c3066cf44", "is_disabled": 0, "type": "electric_scooter", "lat": 38.862459, "lon": -76.994969, "is_reserved": 0, "fusion_lon": 0.0}, {"rental_uris": {"ios": "https://dc.lft.to/lastmile_qr_scan", "android": "https://dc.lft.to/lastmile_qr_scan"}, "fusion_lat": 0.0, "name": "4cac1beacb5b4901dfa2cd63abc255a2", "bike_id": "4cac1beacb5b4901dfa2cd63abc255a2", "is_disabled": 0, "type": "electric_scooter", "lat": 38.897345, "lon": -77.0468525, "is_reserved": 0, "fusion_lon": 0.0}, {"rental_uris": {"ios": "https://dc.lft.to/lastmile_qr_scan", "android": "https://dc.lft.to/lastmile_qr_scan"}, "fusion_lat": 0.0, "name": "6e9d50b9bf04bbc6e30315871ff094b6", "bike_id": "6e9d50b9bf04bbc6e30315871ff094b6", "is_disabled": 0, "type": "electric_bike", "lat": 38.853952666666665, "lon": -77.124836, "is_reserved": 0, "fusion_lon": 0.0}, {"rental_uris": {"ios": "https://dc.lft.to/lastmile_qr_scan", "android": "https://dc.lft.to/lastmile_qr_scan"}, "fusion_lat": 0.0, "name": "87bf9d08a9f8922e97e970a6427eddcb", "bike_id": "87bf9d08a9f8922e97e970a6427eddcb", "is_disabled": 0, "type": "electric_scooter", "lat": 38.896208666666666, "lon": -77.03180983333333, "is_reserved": 0, "fusion_lon": 0.0}, {"rental_uris": {"ios": "https://dc.lft.to/lastmile_qr_scan", "android": "https://dc.lft.to/lastmile_qr_scan"}, "fusion_lat": 0.0, "name": "3b68219dc43d9c64fc8b89e6fcb1d0d5", "bike_id": "3b68219dc43d9c64fc8b89e6fcb1d0d5", "is_disabled": 0, "type": "electric_bike", "lat": 38.8401475, "lon": -76.97531266666667, "is_reserved": 0, "fusion_lon": 0.0}, {"rental_uris": {"ios": "https://dc.lft.to/lastmile_qr_scan", "android": "https://dc.lft.to/lastmile_qr_scan"}, "fusion_lat": 0.0, "name": "99c26931cadf55faa7a4e01147b23f39", "bike_id": "99c26931cadf55faa7a4e01147b23f39", "is_disabled": 0, "type": "electric_scooter", "lat": 38.90673233333333, "lon": -77.0270755, "is_reserved": 0, "fusion_lon": 0.0}, {"rental_uris": {"ios": "https://dc.lft.to/lastmile_qr_scan", "android": "https://dc.lft.to/lastmile_qr_scan"}, "fusion_lat": 0.0, "name": "17b0335c46b1681f926c70428541635a", "bike_id": "17b0335c46b1681f926c70428541635a", "is_disabled": 0, "type": "electric_scooter", "lat": 38.883758666666665, "lon": -76.99512866666667, "is_reserved": 0, "fusion_lon": 0.0}, {"rental_uris": {"ios": "https://dc.lft.to/lastmile_qr_scan", "android": "https://dc.lft.to/lastmile_qr_scan"}, "fusion_lat": 0.0, "name": "544f5cd2fc7b7e331130feca3b40778c", "bike_id": "544f5cd2fc7b7e331130feca3b40778c", "is_disabled": 0, "type": "electric_scooter", "lat": 38.92046216666667, "lon": -77.042029, "is_reserved": 0, "fusion_lon": 0.0}, {"rental_uris": {"ios": "https://dc.lft.to/lastmile_qr_scan", "android": "https://dc.lft.to/lastmile_qr_scan"}, "fusion_lat": 0.0, "name": "da838532c570b664111d22dfeab2fdda", "bike_id": "da838532c570b664111d22dfeab2fdda", "is_disabled": 0, "type": "electric_scooter", "lat": 38.902615833333336, "lon": -77.04395133333334, "is_reserved": 0, "fusion_lon": 0.0}, {"rental_uris": {"ios": "https://dc.lft.to/lastmile_qr_scan", "android": "https://dc.lft.to/lastmile_qr_scan"}, "fusion_lat": 0.0, "name": "2c4a7917c70f2e62b308d5b218286d83", "bike_id": "2c4a7917c70f2e62b308d5b218286d83", "is_disabled": 0, "type": "electric_scooter", "lat": 38.899084333333334, "lon": -76.99502483333333, "is_reserved": 0, "fusion_lon": 0.0}, {"rental_uris": {"ios": "https://dc.lft.to/lastmile_qr_scan", "android": "https://dc.lft.to/lastmile_qr_scan"}, "fusion_lat": 0.0, "name": "e28911ba7d4850eebb42f6036f9a81cb", "bike_id": "e28911ba7d4850eebb42f6036f9a81cb", "is_disabled": 0, "type": "electric_scooter", "lat": 38.919298833333336, "lon": -77.04553166666666, "is_reserved": 0, "fusion_lon": 0.0}, {"rental_uris": {"ios": "https://dc.lft.to/lastmile_qr_scan", "android": "https://dc.lft.to/lastmile_qr_scan"}, "fusion_lat": 0.0, "name": "ebcec8383ad9ddcd182bc2014275dc8b", "bike_id": "ebcec8383ad9ddcd182bc2014275dc8b", "is_disabled": 0, "type": "electric_scooter", "lat": 38.892247833333336, "lon": -77.02223266666667, "is_reserved": 0, "fusion_lon": 0.0}, {"rental_uris": {"ios": "https://dc.lft.to/lastmile_qr_scan", "android": "https://dc.lft.to/lastmile_qr_scan"}, "fusion_lat": 0.0, "name": "648f12e42114c211c3ddb5f1a7cf248c", "bike_id": "648f12e42114c211c3ddb5f1a7cf248c", "is_disabled": 0, "type": "electric_scooter", "lat": 38.89827016666667, "lon": -76.94651766666667, "is_reserved": 0, "fusion_lon": 0.0}, {"rental_uris": {"ios": "https://dc.lft.to/lastmile_qr_scan", "android": "https://dc.lft.to/lastmile_qr_scan"}, "fusion_lat": 0.0, "name": "61aabc4e43436164a5a7177bc4b8841e", "bike_id": "61aabc4e43436164a5a7177bc4b8841e", "is_disabled": 0, "type": "electric_scooter", "lat": 38.898435, "lon": -76.94638683333334, "is_reserved": 0, "fusion_lon": 0.0}, {"rental_uris": {"ios": "https://dc.lft.to/lastmile_qr_scan", "android": "https://dc.lft.to/lastmile_qr_scan"}, "fusion_lat": 0.0, "name": "0f00132926359290003d1d4dc83e2fcd", "bike_id": "0f00132926359290003d1d4dc83e2fcd", "is_disabled": 0, "type": "electric_scooter", "lat": 38.896073333333334, "lon": -77.02325833333333, "is_reserved": 0, "fusion_lon": 0.0}, {"rental_uris": {"ios": "https://dc.lft.to/lastmile_qr_scan", "android": "https://dc.lft.to/lastmile_qr_scan"}, "fusion_lat": 0.0, "name": "4af21550bff5725389d4e490bdefa815", "bike_id": "4af21550bff5725389d4e490bdefa815", "is_disabled": 0, "type": "electric_scooter", "lat": 38.899142499999996, "lon": -77.04033183333334, "is_reserved": 0, "fusion_lon": 0.0}, {"rental_uris": {"ios": "https://dc.lft.to/lastmile_qr_scan", "android": "https://dc.lft.to/lastmile_qr_scan"}, "fusion_lat": 0.0, "name": "55c1a6421eba7b61118397864a8ad7de", "bike_id": "55c1a6421eba7b61118397864a8ad7de", "is_disabled": 0, "type": "electric_scooter", "lat": 38.902691833333336, "lon": -77.02603183333333, "is_reserved": 0, "fusion_lon": 0.0}, {"rental_uris": {"ios": "https://dc.lft.to/lastmile_qr_scan", "android": "https://dc.lft.to/lastmile_qr_scan"}, "fusion_lat": 0.0, "name": "de2dbd8cd9be503545618c05716ef1ec", "bike_id": "de2dbd8cd9be503545618c05716ef1ec", "is_disabled": 0, "type": "electric_bike", "lat": 39.056364333333335, "lon": -77.12524833333333, "is_reserved": 0, "fusion_lon": 0.0}, {"rental_uris": {"ios": "https://dc.lft.to/lastmile_qr_scan", "android": "https://dc.lft.to/lastmile_qr_scan"}, "fusion_lat": 0.0, "name": "8fcdbf3c1e352e728f7049ca37b05ecb", "bike_id": "8fcdbf3c1e352e728f7049ca37b05ecb", "is_disabled": 0, "type": "electric_scooter", "lat": 38.91767, "lon": -77.03637633333334, "is_reserved": 0, "fusion_lon": 0.0}, {"rental_uris": {"ios": "https://dc.lft.to/lastmile_qr_scan", "android": "https://dc.lft.to/lastmile_qr_scan"}, "fusion_lat": 0.0, "name": "e37d7ad3b2b50f3a3c470335c66b173a", "bike_id": "e37d7ad3b2b50f3a3c470335c66b173a", "is_disabled": 0, "type": "electric_scooter", "lat": 38.901778166666666, "lon": -77.0259865, "is_reserved": 0, "fusion_lon": 0.0}, {"rental_uris": {"ios": "https://dc.lft.to/lastmile_qr_scan", "android": "https://dc.lft.to/lastmile_qr_scan"}, "fusion_lat": 0.0, "name": "55c1bce8ae46e95015ca549d5c4e540f", "bike_id": "55c1bce8ae46e95015ca549d5c4e540f", "is_disabled": 0, "type": "electric_scooter", "lat": 38.917185333333336, "lon": -77.03177883333333, "is_reserved": 0, "fusion_lon": 0.0}, {"rental_uris": {"ios": "https://dc.lft.to/lastmile_qr_scan", "android": "https://dc.lft.to/lastmile_qr_scan"}, "fusion_lat": 0.0, "name": "0c352500a71a736cfc72c7e7b9f5c57f", "bike_id": "0c352500a71a736cfc72c7e7b9f5c57f", "is_disabled": 0, "type": "electric_scooter", "lat": 38.907956, "lon": -76.99729383333333, "is_reserved": 0, "fusion_lon": 0.0}, {"rental_uris": {"ios": "https://dc.lft.to/lastmile_qr_scan", "android": "https://dc.lft.to/lastmile_qr_scan"}, "fusion_lat": 0.0, "name": "7668ac49d27c584b8d7bb33ea9d0f581", "bike_id": "7668ac49d27c584b8d7bb33ea9d0f581", "is_disabled": 0, "type": "electric_scooter", "lat": 38.86680166666667, "lon": -76.98495683333333, "is_reserved": 0, "fusion_lon": 0.0}, {"rental_uris": {"ios": "https://dc.lft.to/lastmile_qr_scan", "android": "https://dc.lft.to/lastmile_qr_scan"}, "fusion_lat": 0.0, "name": "c28dbf1f3aaba543d886490ac335305b", "bike_id": "c28dbf1f3aaba543d886490ac335305b", "is_disabled": 0, "type": "electric_scooter", "lat": 38.9341725, "lon": -77.04157783333333, "is_reserved": 0, "fusion_lon": 0.0}, {"rental_uris": {"ios": "https://dc.lft.to/lastmile_qr_scan", "android": "https://dc.lft.to/lastmile_qr_scan"}, "fusion_lat": 0.0, "name": "982e7d767f46f3feafc0f79bb171cbc4", "bike_id": "982e7d767f46f3feafc0f79bb171cbc4", "is_disabled": 0, "type": "electric_scooter", "lat": 38.90578216666667, "lon": -77.03440966666666, "is_reserved": 0, "fusion_lon": 0.0}, {"rental_uris": {"ios": "https://dc.lft.to/lastmile_qr_scan", "android": "https://dc.lft.to/lastmile_qr_scan"}, "fusion_lat": 0.0, "name": "81be044b31abecc07377c6697970b498", "bike_id": "81be044b31abecc07377c6697970b498", "is_disabled": 0, "type": "electric_scooter", "lat": 38.938933166666665, "lon": -77.02484116666666, "is_reserved": 0, "fusion_lon": 0.0}, {"rental_uris": {"ios": "https://dc.lft.to/lastmile_qr_scan", "android": "https://dc.lft.to/lastmile_qr_scan"}, "fusion_lat": 0.0, "name": "cfc0d8234d5c439c119b24c154817001", "bike_id": "cfc0d8234d5c439c119b24c154817001", "is_disabled": 0, "type": "electric_scooter", "lat": 38.91619383333333, "lon": -77.03643683333334, "is_reserved": 0, "fusion_lon": 0.0}, {"rental_uris": {"ios": "https://dc.lft.to/lastmile_qr_scan", "android": "https://dc.lft.to/lastmile_qr_scan"}, "fusion_lat": 0.0, "name": "58d4c301c1853ce0d7fe238d7c06d6d3", "bike_id": "58d4c301c1853ce0d7fe238d7c06d6d3", "is_disabled": 0, "type": "electric_bike", "lat": 38.85609616666667, "lon": -77.112417, "is_reserved": 0, "fusion_lon": 0.0}, {"rental_uris": {"ios": "https://dc.lft.to/lastmile_qr_scan", "android": "https://dc.lft.to/lastmile_qr_scan"}, "fusion_lat": 0.0, "name": "4c2f9f31f9691d2902d2d83cca23d638", "bike_id": "4c2f9f31f9691d2902d2d83cca23d638", "is_disabled": 0, "type": "electric_scooter", "lat": 38.90130116666667, "lon": -77.00348, "is_reserved": 0, "fusion_lon": 0.0}, {"rental_uris": {"ios": "https://dc.lft.to/lastmile_qr_scan", "android": "https://dc.lft.to/lastmile_qr_scan"}, "fusion_lat": 0.0, "name": "212814907f70b574c8888f50f65b272a", "bike_id": "212814907f70b574c8888f50f65b272a", "is_disabled": 0, "type": "electric_scooter", "lat": 38.90585016666667, "lon": -77.04096816666667, "is_reserved": 0, "fusion_lon": 0.0}, {"rental_uris": {"ios": "https://dc.lft.to/lastmile_qr_scan", "android": "https://dc.lft.to/lastmile_qr_scan"}, "fusion_lat": 0.0, "name": "9c03a98b7ca4fc7910236370621cc9be", "bike_id": "9c03a98b7ca4fc7910236370621cc9be", "is_disabled": 0, "type": "electric_bike", "lat": 38.966906, "lon": -77.088416, "is_reserved": 0, "fusion_lon": 0.0}, {"rental_uris": {"ios": "https://dc.lft.to/lastmile_qr_scan", "android": "https://dc.lft.to/lastmile_qr_scan"}, "fusion_lat": 0.0, "name": "dbe7bc298f3cca1288ce22e83edc38b9", "bike_id": "dbe7bc298f3cca1288ce22e83edc38b9", "is_disabled": 0, "type": "electric_scooter", "lat": 38.928102, "lon": -77.05395266666666, "is_reserved": 0, "fusion_lon": 0.0}, {"rental_uris": {"ios": "https://dc.lft.to/lastmile_qr_scan", "android": "https://dc.lft.to/lastmile_qr_scan"}, "fusion_lat": 0.0, "name": "0848ee622e8dfa0ee2e13e450dde560f", "bike_id": "0848ee622e8dfa0ee2e13e450dde560f", "is_disabled": 0, "type": "electric_scooter", "lat": 38.919154666666664, "lon": -77.02136083333333, "is_reserved": 0, "fusion_lon": 0.0}, {"rental_uris": {"ios": "https://dc.lft.to/lastmile_qr_scan", "android": "https://dc.lft.to/lastmile_qr_scan"}, "fusion_lat": 0.0, "name": "d75511335fdb58a0f9e8d20087c35502", "bike_id": "d75511335fdb58a0f9e8d20087c35502", "is_disabled": 0, "type": "electric_scooter", "lat": 38.919621166666666, "lon": -77.024847, "is_reserved": 0, "fusion_lon": 0.0}, {"rental_uris": {"ios": "https://dc.lft.to/lastmile_qr_scan", "android": "https://dc.lft.to/lastmile_qr_scan"}, "fusion_lat": 0.0, "name": "1b37ea4e009396ec96566ec1e59acbe3", "bike_id": "1b37ea4e009396ec96566ec1e59acbe3", "is_disabled": 0, "type": "electric_bike", "lat": 38.88996733333333, "lon": -76.95410333333334, "is_reserved": 0, "fusion_lon": 0.0}, {"rental_uris": {"ios": "https://dc.lft.to/lastmile_qr_scan", "android": "https://dc.lft.to/lastmile_qr_scan"}, "fusion_lat": 0.0, "name": "69a5fd6f9525a90c0c5d966285625bb5", "bike_id": "69a5fd6f9525a90c0c5d966285625bb5", "is_disabled": 0, "type": "electric_scooter", "lat": 38.896803166666665, "lon": -76.947524, "is_reserved": 0, "fusion_lon": 0.0}, {"rental_uris": {"ios": "https://dc.lft.to/lastmile_qr_scan", "android": "https://dc.lft.to/lastmile_qr_scan"}, "fusion_lat": 0.0, "name": "570a6c53531a29d8cf5413b32f0cdbff", "bike_id": "570a6c53531a29d8cf5413b32f0cdbff", "is_disabled": 0, "type": "electric_scooter", "lat": 38.966097, "lon": -77.03354633333333, "is_reserved": 0, "fusion_lon": 0.0}, {"rental_uris": {"ios": "https://dc.lft.to/lastmile_qr_scan", "android": "https://dc.lft.to/lastmile_qr_scan"}, "fusion_lat": 0.0, "name": "2c0c073204e7b4cbb5ba8df96f8047ce", "bike_id": "2c0c073204e7b4cbb5ba8df96f8047ce", "is_disabled": 0, "type": "electric_bike", "lat": 38.88582566666667, "lon": -77.06076233333333, "is_reserved": 0, "fusion_lon": 0.0}, {"rental_uris": {"ios": "https://dc.lft.to/lastmile_qr_scan", "android": "https://dc.lft.to/lastmile_qr_scan"}, "fusion_lat": 0.0, "name": "17006823e568c041467e0d56b461860c", "bike_id": "17006823e568c041467e0d56b461860c", "is_disabled": 0, "type": "electric_bike", "lat": 39.03050983333333, "lon": -77.09473583333333, "is_reserved": 0, "fusion_lon": 0.0}, {"rental_uris": {"ios": "https://dc.lft.to/lastmile_qr_scan", "android": "https://dc.lft.to/lastmile_qr_scan"}, "fusion_lat": 0.0, "name": "1e04a008aa08b3b61db9d79c4f36430a", "bike_id": "1e04a008aa08b3b61db9d79c4f36430a", "is_disabled": 0, "type": "electric_bike", "lat": 39.024324166666666, "lon": -77.13090266666667, "is_reserved": 0, "fusion_lon": 0.0}, {"rental_uris": {"ios": "https://dc.lft.to/lastmile_qr_scan", "android": "https://dc.lft.to/lastmile_qr_scan"}, "fusion_lat": 0.0, "name": "bc0fcb15dba67d327ec399bd3febfc25", "bike_id": "bc0fcb15dba67d327ec399bd3febfc25", "is_disabled": 0, "type": "electric_scooter", "lat": 38.906716833333334, "lon": -77.02708116666666, "is_reserved": 0, "fusion_lon": 0.0}, {"rental_uris": {"ios": "https://dc.lft.to/lastmile_qr_scan", "android": "https://dc.lft.to/lastmile_qr_scan"}, "fusion_lat": 0.0, "name": "6438ce725a1fa010c1df85123802173f", "bike_id": "6438ce725a1fa010c1df85123802173f", "is_disabled": 0, "type": "electric_scooter", "lat": 38.93223833333333, "lon": -77.033687, "is_reserved": 0, "fusion_lon": 0.0}, {"rental_uris": {"ios": "https://dc.lft.to/lastmile_qr_scan", "android": "https://dc.lft.to/lastmile_qr_scan"}, "fusion_lat": 0.0, "name": "1e050763b7e01aa384cc23d81656fd71", "bike_id": "1e050763b7e01aa384cc23d81656fd71", "is_disabled": 0, "type": "electric_scooter", "lat": 38.93861316666667, "lon": -77.03095433333333, "is_reserved": 0, "fusion_lon": 0.0}, {"rental_uris": {"ios": "https://dc.lft.to/lastmile_qr_scan", "android": "https://dc.lft.to/lastmile_qr_scan"}, "fusion_lat": 0.0, "name": "a26586f7e00fbe675c910eda81c62ade", "bike_id": "a26586f7e00fbe675c910eda81c62ade", "is_disabled": 0, "type": "electric_scooter", "lat": 38.93521966666667, "lon": -77.03345166666666, "is_reserved": 0, "fusion_lon": 0.0}, {"rental_uris": {"ios": "https://dc.lft.to/lastmile_qr_scan", "android": "https://dc.lft.to/lastmile_qr_scan"}, "fusion_lat": 0.0, "name": "0156d25262e07c63d779b3e49e0f4860", "bike_id": "0156d25262e07c63d779b3e49e0f4860", "is_disabled": 0, "type": "electric_scooter", "lat": 38.924485833333335, "lon": -76.989989, "is_reserved": 0, "fusion_lon": 0.0}, {"rental_uris": {"ios": "https://dc.lft.to/lastmile_qr_scan", "android": "https://dc.lft.to/lastmile_qr_scan"}, "fusion_lat": 0.0, "name": "82af38be7cc9e7be5e2fc914ddb9cae5", "bike_id": "82af38be7cc9e7be5e2fc914ddb9cae5", "is_disabled": 0, "type": "electric_scooter", "lat": 38.90758966666667, "lon": -77.03296066666667, "is_reserved": 0, "fusion_lon": 0.0}, {"rental_uris": {"ios": "https://dc.lft.to/lastmile_qr_scan", "android": "https://dc.lft.to/lastmile_qr_scan"}, "fusion_lat": 0.0, "name": "1b4634fe7822599c49c6c23b5865a3ff", "bike_id": "1b4634fe7822599c49c6c23b5865a3ff", "is_disabled": 0, "type": "electric_scooter", "lat": 38.8921725, "lon": -77.02651216666666, "is_reserved": 0, "fusion_lon": 0.0}, {"rental_uris": {"ios": "https://dc.lft.to/lastmile_qr_scan", "android": "https://dc.lft.to/lastmile_qr_scan"}, "fusion_lat": 0.0, "name": "087f2632b5c3a9dd07397e1705721e02", "bike_id": "087f2632b5c3a9dd07397e1705721e02", "is_disabled": 0, "type": "electric_scooter", "lat": 38.900395, "lon": -77.01163316666667, "is_reserved": 0, "fusion_lon": 0.0}, {"rental_uris": {"ios": "https://dc.lft.to/lastmile_qr_scan", "android": "https://dc.lft.to/lastmile_qr_scan"}, "fusion_lat": 0.0, "name": "d30c74a0d6aa36c436ae95a4ee23af19", "bike_id": "d30c74a0d6aa36c436ae95a4ee23af19", "is_disabled": 0, "type": "electric_scooter", "lat": 38.876372833333335, "lon": -77.00730916666667, "is_reserved": 0, "fusion_lon": 0.0}, {"rental_uris": {"ios": "https://dc.lft.to/lastmile_qr_scan", "android": "https://dc.lft.to/lastmile_qr_scan"}, "fusion_lat": 0.0, "name": "2d49c143f33296422551b28b9e1ddbbf", "bike_id": "2d49c143f33296422551b28b9e1ddbbf", "is_disabled": 0, "type": "electric_scooter", "lat": 38.8792325, "lon": -77.03094283333333, "is_reserved": 0, "fusion_lon": 0.0}, {"rental_uris": {"ios": "https://dc.lft.to/lastmile_qr_scan", "android": "https://dc.lft.to/lastmile_qr_scan"}, "fusion_lat": 0.0, "name": "68be0c224be68b53aa9b3e3fac22f208", "bike_id": "68be0c224be68b53aa9b3e3fac22f208", "is_disabled": 0, "type": "electric_bike", "lat": 38.85211533333333, "lon": -77.10132833333333, "is_reserved": 0, "fusion_lon": 0.0}, {"rental_uris": {"ios": "https://dc.lft.to/lastmile_qr_scan", "android": "https://dc.lft.to/lastmile_qr_scan"}, "fusion_lat": 0.0, "name": "fc81e84d0edb9522638049ff0f68403e", "bike_id": "fc81e84d0edb9522638049ff0f68403e", "is_disabled": 0, "type": "electric_scooter", "lat": 38.90726166666666, "lon": -77.03395966666666, "is_reserved": 0, "fusion_lon": 0.0}, {"rental_uris": {"ios": "https://dc.lft.to/lastmile_qr_scan", "android": "https://dc.lft.to/lastmile_qr_scan"}, "fusion_lat": 0.0, "name": "965a0940bfe49c7800ab3c93c7d04066", "bike_id": "965a0940bfe49c7800ab3c93c7d04066", "is_disabled": 0, "type": "electric_scooter", "lat": 38.892043666666666, "lon": -77.02417183333333, "is_reserved": 0, "fusion_lon": 0.0}, {"rental_uris": {"ios": "https://dc.lft.to/lastmile_qr_scan", "android": "https://dc.lft.to/lastmile_qr_scan"}, "fusion_lat": 0.0, "name": "3807a8e58e40463d8a860da6f95d0348", "bike_id": "3807a8e58e40463d8a860da6f95d0348", "is_disabled": 0, "type": "electric_scooter", "lat": 38.89220233333333, "lon": -77.0436495, "is_reserved": 0, "fusion_lon": 0.0}, {"rental_uris": {"ios": "https://dc.lft.to/lastmile_qr_scan", "android": "https://dc.lft.to/lastmile_qr_scan"}, "fusion_lat": 0.0, "name": "4660ebf9c5ab14f5638eb67c46d7d4e8", "bike_id": "4660ebf9c5ab14f5638eb67c46d7d4e8", "is_disabled": 0, "type": "electric_scooter", "lat": 38.917145, "lon": -77.0266685, "is_reserved": 0, "fusion_lon": 0.0}, {"rental_uris": {"ios": "https://dc.lft.to/lastmile_qr_scan", "android": "https://dc.lft.to/lastmile_qr_scan"}, "fusion_lat": 0.0, "name": "2b17c7629c15d2956da79af30faa8946", "bike_id": "2b17c7629c15d2956da79af30faa8946", "is_disabled": 0, "type": "electric_scooter", "lat": 38.917118, "lon": -77.0257475, "is_reserved": 0, "fusion_lon": 0.0}, {"rental_uris": {"ios": "https://dc.lft.to/lastmile_qr_scan", "android": "https://dc.lft.to/lastmile_qr_scan"}, "fusion_lat": 0.0, "name": "34edfb11efaa3f282720be87e08f079f", "bike_id": "34edfb11efaa3f282720be87e08f079f", "is_disabled": 0, "type": "electric_scooter", "lat": 38.908741166666665, "lon": -77.0228955, "is_reserved": 0, "fusion_lon": 0.0}, {"rental_uris": {"ios": "https://dc.lft.to/lastmile_qr_scan", "android": "https://dc.lft.to/lastmile_qr_scan"}, "fusion_lat": 0.0, "name": "6f513f052c1f8493fc21b178d6711155", "bike_id": "6f513f052c1f8493fc21b178d6711155", "is_disabled": 0, "type": "electric_scooter", "lat": 38.89876783333333, "lon": -76.93182933333334, "is_reserved": 0, "fusion_lon": 0.0}, {"rental_uris": {"ios": "https://dc.lft.to/lastmile_qr_scan", "android": "https://dc.lft.to/lastmile_qr_scan"}, "fusion_lat": 0.0, "name": "d928a3b8355f06bb0a663ec33f787553", "bike_id": "d928a3b8355f06bb0a663ec33f787553", "is_disabled": 0, "type": "electric_scooter", "lat": 38.903897666666666, "lon": -77.04520766666667, "is_reserved": 0, "fusion_lon": 0.0}, {"rental_uris": {"ios": "https://dc.lft.to/lastmile_qr_scan", "android": "https://dc.lft.to/lastmile_qr_scan"}, "fusion_lat": 0.0, "name": "451b078a9a64d7846832b953ddb10315", "bike_id": "451b078a9a64d7846832b953ddb10315", "is_disabled": 0, "type": "electric_scooter", "lat": 38.9008155, "lon": -77.02704966666667, "is_reserved": 0, "fusion_lon": 0.0}, {"rental_uris": {"ios": "https://dc.lft.to/lastmile_qr_scan", "android": "https://dc.lft.to/lastmile_qr_scan"}, "fusion_lat": 0.0, "name": "838e92be7b766246a1c935b58e9fbaea", "bike_id": "838e92be7b766246a1c935b58e9fbaea", "is_disabled": 0, "type": "electric_scooter", "lat": 38.925764666666666, "lon": -77.02910616666666, "is_reserved": 0, "fusion_lon": 0.0}, {"rental_uris": {"ios": "https://dc.lft.to/lastmile_qr_scan", "android": "https://dc.lft.to/lastmile_qr_scan"}, "fusion_lat": 0.0, "name": "b8523d85a842a1a1ea74436ca06aa6d3", "bike_id": "b8523d85a842a1a1ea74436ca06aa6d3", "is_disabled": 0, "type": "electric_scooter", "lat": 38.8841815, "lon": -76.995453, "is_reserved": 0, "fusion_lon": 0.0}, {"rental_uris": {"ios": "https://dc.lft.to/lastmile_qr_scan", "android": "https://dc.lft.to/lastmile_qr_scan"}, "fusion_lat": 0.0, "name": "e88566c97ecc2e77c2efa7c96dc39b8a", "bike_id": "e88566c97ecc2e77c2efa7c96dc39b8a", "is_disabled": 0, "type": "electric_scooter", "lat": 38.9185145, "lon": -76.96536566666667, "is_reserved": 0, "fusion_lon": 0.0}, {"rental_uris": {"ios": "https://dc.lft.to/lastmile_qr_scan", "android": "https://dc.lft.to/lastmile_qr_scan"}, "fusion_lat": 0.0, "name": "fabe5ccedd41199583c6ce9ade0f7036", "bike_id": "fabe5ccedd41199583c6ce9ade0f7036", "is_disabled": 0, "type": "electric_scooter", "lat": 38.888162, "lon": -77.01476766666667, "is_reserved": 0, "fusion_lon": 0.0}, {"rental_uris": {"ios": "https://dc.lft.to/lastmile_qr_scan", "android": "https://dc.lft.to/lastmile_qr_scan"}, "fusion_lat": 0.0, "name": "0499645fa793fc65bbdcdd62bd5c33a4", "bike_id": "0499645fa793fc65bbdcdd62bd5c33a4", "is_disabled": 0, "type": "electric_scooter", "lat": 38.9183085, "lon": -77.026975, "is_reserved": 0, "fusion_lon": 0.0}, {"rental_uris": {"ios": "https://dc.lft.to/lastmile_qr_scan", "android": "https://dc.lft.to/lastmile_qr_scan"}, "fusion_lat": 0.0, "name": "5a7767686517cdfc620fb4bb81b876e2", "bike_id": "5a7767686517cdfc620fb4bb81b876e2", "is_disabled": 0, "type": "electric_scooter", "lat": 38.90499, "lon": -77.04089016666667, "is_reserved": 0, "fusion_lon": 0.0}, {"rental_uris": {"ios": "https://dc.lft.to/lastmile_qr_scan", "android": "https://dc.lft.to/lastmile_qr_scan"}, "fusion_lat": 0.0, "name": "702502eb095100945da1d22484a80091", "bike_id": "702502eb095100945da1d22484a80091", "is_disabled": 0, "type": "electric_scooter", "lat": 38.918552166666665, "lon": -77.03896333333333, "is_reserved": 0, "fusion_lon": 0.0}, {"rental_uris": {"ios": "https://dc.lft.to/lastmile_qr_scan", "android": "https://dc.lft.to/lastmile_qr_scan"}, "fusion_lat": 0.0, "name": "19ec67613bd0e2a8a6c2b9a25ce9f682", "bike_id": "19ec67613bd0e2a8a6c2b9a25ce9f682", "is_disabled": 0, "type": "electric_scooter", "lat": 38.9112405, "lon": -77.04478566666667, "is_reserved": 0, "fusion_lon": 0.0}, {"rental_uris": {"ios": "https://dc.lft.to/lastmile_qr_scan", "android": "https://dc.lft.to/lastmile_qr_scan"}, "fusion_lat": 0.0, "name": "1f866f4944c277760d0476d28d2258ef", "bike_id": "1f866f4944c277760d0476d28d2258ef", "is_disabled": 0, "type": "electric_bike", "lat": 38.87377083333333, "lon": -77.1179565, "is_reserved": 0, "fusion_lon": 0.0}, {"rental_uris": {"ios": "https://dc.lft.to/lastmile_qr_scan", "android": "https://dc.lft.to/lastmile_qr_scan"}, "fusion_lat": 0.0, "name": "3af93e122009e3d553bcde3d7bb1f083", "bike_id": "3af93e122009e3d553bcde3d7bb1f083", "is_disabled": 0, "type": "electric_scooter", "lat": 38.890185, "lon": -76.93737783333333, "is_reserved": 0, "fusion_lon": 0.0}, {"rental_uris": {"ios": "https://dc.lft.to/lastmile_qr_scan", "android": "https://dc.lft.to/lastmile_qr_scan"}, "fusion_lat": 0.0, "name": "a2e412afc6d814b320c208e91ac51df3", "bike_id": "a2e412afc6d814b320c208e91ac51df3", "is_disabled": 0, "type": "electric_bike", "lat": 38.91496333333333, "lon": -77.02817416666667, "is_reserved": 0, "fusion_lon": 0.0}, {"rental_uris": {"ios": "https://dc.lft.to/lastmile_qr_scan", "android": "https://dc.lft.to/lastmile_qr_scan"}, "fusion_lat": 0.0, "name": "2fc2968b25e346ad6279ae5704768062", "bike_id": "2fc2968b25e346ad6279ae5704768062", "is_disabled": 0, "type": "electric_scooter", "lat": 38.876300666666666, "lon": -76.965142, "is_reserved": 0, "fusion_lon": 0.0}, {"rental_uris": {"ios": "https://dc.lft.to/lastmile_qr_scan", "android": "https://dc.lft.to/lastmile_qr_scan"}, "fusion_lat": 0.0, "name": "7caa2e1888ce63ee77b9f33ccb34b4e6", "bike_id": "7caa2e1888ce63ee77b9f33ccb34b4e6", "is_disabled": 0, "type": "electric_bike", "lat": 38.96928583333333, "lon": -77.02618466666667, "is_reserved": 0, "fusion_lon": 0.0}, {"rental_uris": {"ios": "https://dc.lft.to/lastmile_qr_scan", "android": "https://dc.lft.to/lastmile_qr_scan"}, "fusion_lat": 0.0, "name": "65a07f775df0d4f0e1794d93cde06506", "bike_id": "65a07f775df0d4f0e1794d93cde06506", "is_disabled": 0, "type": "electric_scooter", "lat": 38.9070625, "lon": -77.05019833333333, "is_reserved": 0, "fusion_lon": 0.0}, {"rental_uris": {"ios": "https://dc.lft.to/lastmile_qr_scan", "android": "https://dc.lft.to/lastmile_qr_scan"}, "fusion_lat": 0.0, "name": "a9b1b1f2c4ed0577a761ca8217394484", "bike_id": "a9b1b1f2c4ed0577a761ca8217394484", "is_disabled": 0, "type": "electric_scooter", "lat": 38.917018166666665, "lon": -77.03532366666667, "is_reserved": 0, "fusion_lon": 0.0}, {"rental_uris": {"ios": "https://dc.lft.to/lastmile_qr_scan", "android": "https://dc.lft.to/lastmile_qr_scan"}, "fusion_lat": 0.0, "name": "bc2b4462dade2ccecff3b9a3499a6f02", "bike_id": "bc2b4462dade2ccecff3b9a3499a6f02", "is_disabled": 0, "type": "electric_scooter", "lat": 38.906475666666665, "lon": -77.03892833333333, "is_reserved": 0, "fusion_lon": 0.0}, {"rental_uris": {"ios": "https://dc.lft.to/lastmile_qr_scan", "android": "https://dc.lft.to/lastmile_qr_scan"}, "fusion_lat": 0.0, "name": "d0bcd12f3c3409867bbb0d388bea0b5c", "bike_id": "d0bcd12f3c3409867bbb0d388bea0b5c", "is_disabled": 0, "type": "electric_scooter", "lat": 38.89233983333333, "lon": -77.0337195, "is_reserved": 0, "fusion_lon": 0.0}, {"rental_uris": {"ios": "https://dc.lft.to/lastmile_qr_scan", "android": "https://dc.lft.to/lastmile_qr_scan"}, "fusion_lat": 0.0, "name": "34fd26aa772909b805932fb83f7e3104", "bike_id": "34fd26aa772909b805932fb83f7e3104", "is_disabled": 0, "type": "electric_scooter", "lat": 38.91710483333333, "lon": -77.03886533333333, "is_reserved": 0, "fusion_lon": 0.0}, {"rental_uris": {"ios": "https://dc.lft.to/lastmile_qr_scan", "android": "https://dc.lft.to/lastmile_qr_scan"}, "fusion_lat": 0.0, "name": "5ae4b4c8010a2f1552c5a1b1d24e0f9f", "bike_id": "5ae4b4c8010a2f1552c5a1b1d24e0f9f", "is_disabled": 0, "type": "electric_scooter", "lat": 38.91178333333333, "lon": -77.031833, "is_reserved": 0, "fusion_lon": 0.0}, {"rental_uris": {"ios": "https://dc.lft.to/lastmile_qr_scan", "android": "https://dc.lft.to/lastmile_qr_scan"}, "fusion_lat": 0.0, "name": "b189c5afe51ae3f9c71fd22683c152f2", "bike_id": "b189c5afe51ae3f9c71fd22683c152f2", "is_disabled": 0, "type": "electric_scooter", "lat": 38.92680216666667, "lon": -77.0155545, "is_reserved": 0, "fusion_lon": 0.0}, {"rental_uris": {"ios": "https://dc.lft.to/lastmile_qr_scan", "android": "https://dc.lft.to/lastmile_qr_scan"}, "fusion_lat": 0.0, "name": "5ea051e3b1023ab38fee4177d1e943b7", "bike_id": "5ea051e3b1023ab38fee4177d1e943b7", "is_disabled": 0, "type": "electric_scooter", "lat": 38.902502, "lon": -77.03880283333334, "is_reserved": 0, "fusion_lon": 0.0}, {"rental_uris": {"ios": "https://dc.lft.to/lastmile_qr_scan", "android": "https://dc.lft.to/lastmile_qr_scan"}, "fusion_lat": 0.0, "name": "19222face0a07c9ca675c1b23c9889c1", "bike_id": "19222face0a07c9ca675c1b23c9889c1", "is_disabled": 0, "type": "electric_bike", "lat": 38.956026, "lon": -77.01014483333333, "is_reserved": 0, "fusion_lon": 0.0}, {"rental_uris": {"ios": "https://dc.lft.to/lastmile_qr_scan", "android": "https://dc.lft.to/lastmile_qr_scan"}, "fusion_lat": 0.0, "name": "50ce5d123507b69fc18ea3c96a2f6b53", "bike_id": "50ce5d123507b69fc18ea3c96a2f6b53", "is_disabled": 0, "type": "electric_scooter", "lat": 38.918594666666664, "lon": -77.03894416666667, "is_reserved": 0, "fusion_lon": 0.0}, {"rental_uris": {"ios": "https://dc.lft.to/lastmile_qr_scan", "android": "https://dc.lft.to/lastmile_qr_scan"}, "fusion_lat": 0.0, "name": "22ac317cbdc1c0a358e275edbf16723f", "bike_id": "22ac317cbdc1c0a358e275edbf16723f", "is_disabled": 0, "type": "electric_scooter", "lat": 38.902537333333335, "lon": -76.977047, "is_reserved": 0, "fusion_lon": 0.0}, {"rental_uris": {"ios": "https://dc.lft.to/lastmile_qr_scan", "android": "https://dc.lft.to/lastmile_qr_scan"}, "fusion_lat": 0.0, "name": "354f7f23eeefacea7b18237780d97fe7", "bike_id": "354f7f23eeefacea7b18237780d97fe7", "is_disabled": 0, "type": "electric_scooter", "lat": 38.91958783333333, "lon": -76.98079566666667, "is_reserved": 0, "fusion_lon": 0.0}, {"rental_uris": {"ios": "https://dc.lft.to/lastmile_qr_scan", "android": "https://dc.lft.to/lastmile_qr_scan"}, "fusion_lat": 0.0, "name": "a81fdaadd65e659624b890c37104dce4", "bike_id": "a81fdaadd65e659624b890c37104dce4", "is_disabled": 0, "type": "electric_scooter", "lat": 38.930891833333334, "lon": -77.03417833333333, "is_reserved": 0, "fusion_lon": 0.0}, {"rental_uris": {"ios": "https://dc.lft.to/lastmile_qr_scan", "android": "https://dc.lft.to/lastmile_qr_scan"}, "fusion_lat": 0.0, "name": "0ee045478baf6dd0eb5ddb28fe4883e8", "bike_id": "0ee045478baf6dd0eb5ddb28fe4883e8", "is_disabled": 0, "type": "electric_scooter", "lat": 38.885266333333334, "lon": -77.01131883333333, "is_reserved": 0, "fusion_lon": 0.0}, {"rental_uris": {"ios": "https://dc.lft.to/lastmile_qr_scan", "android": "https://dc.lft.to/lastmile_qr_scan"}, "fusion_lat": 0.0, "name": "1780b762b8d459d7316ef07e95327b64", "bike_id": "1780b762b8d459d7316ef07e95327b64", "is_disabled": 0, "type": "electric_scooter", "lat": 38.95970616666666, "lon": -77.00854983333333, "is_reserved": 0, "fusion_lon": 0.0}, {"rental_uris": {"ios": "https://dc.lft.to/lastmile_qr_scan", "android": "https://dc.lft.to/lastmile_qr_scan"}, "fusion_lat": 0.0, "name": "3e73c9c6babe2a7202b98475eb23028d", "bike_id": "3e73c9c6babe2a7202b98475eb23028d", "is_disabled": 0, "type": "electric_bike", "lat": 38.8625985, "lon": -77.08842966666667, "is_reserved": 0, "fusion_lon": 0.0}, {"rental_uris": {"ios": "https://dc.lft.to/lastmile_qr_scan", "android": "https://dc.lft.to/lastmile_qr_scan"}, "fusion_lat": 0.0, "name": "3d5668d7187414674082018137e2df44", "bike_id": "3d5668d7187414674082018137e2df44", "is_disabled": 0, "type": "electric_scooter", "lat": 38.8766095, "lon": -77.00731966666666, "is_reserved": 0, "fusion_lon": 0.0}, {"rental_uris": {"ios": "https://dc.lft.to/lastmile_qr_scan", "android": "https://dc.lft.to/lastmile_qr_scan"}, "fusion_lat": 0.0, "name": "70ca0e50506a996f7fa37c2076e156f7", "bike_id": "70ca0e50506a996f7fa37c2076e156f7", "is_disabled": 0, "type": "electric_scooter", "lat": 38.919048, "lon": -77.02193966666667, "is_reserved": 0, "fusion_lon": 0.0}, {"rental_uris": {"ios": "https://dc.lft.to/lastmile_qr_scan", "android": "https://dc.lft.to/lastmile_qr_scan"}, "fusion_lat": 0.0, "name": "4291861506dfc33026b16fdfc53a5f85", "bike_id": "4291861506dfc33026b16fdfc53a5f85", "is_disabled": 0, "type": "electric_scooter", "lat": 38.8947245, "lon": -77.02263033333334, "is_reserved": 0, "fusion_lon": 0.0}, {"rental_uris": {"ios": "https://dc.lft.to/lastmile_qr_scan", "android": "https://dc.lft.to/lastmile_qr_scan"}, "fusion_lat": 0.0, "name": "0437c05f519f71e3bc4c70faccc72d8c", "bike_id": "0437c05f519f71e3bc4c70faccc72d8c", "is_disabled": 0, "type": "electric_scooter", "lat": 38.94456666666667, "lon": -77.06196816666667, "is_reserved": 0, "fusion_lon": 0.0}, {"rental_uris": {"ios": "https://dc.lft.to/lastmile_qr_scan", "android": "https://dc.lft.to/lastmile_qr_scan"}, "fusion_lat": 0.0, "name": "267de230edbfb4606f9a2a8565baeff3", "bike_id": "267de230edbfb4606f9a2a8565baeff3", "is_disabled": 0, "type": "electric_scooter", "lat": 38.90416733333333, "lon": -77.02939183333334, "is_reserved": 0, "fusion_lon": 0.0}, {"rental_uris": {"ios": "https://dc.lft.to/lastmile_qr_scan", "android": "https://dc.lft.to/lastmile_qr_scan"}, "fusion_lat": 0.0, "name": "e286115faffb0e6509dbf2a9ba5b2a5b", "bike_id": "e286115faffb0e6509dbf2a9ba5b2a5b", "is_disabled": 0, "type": "electric_scooter", "lat": 38.9156425, "lon": -77.03866683333334, "is_reserved": 0, "fusion_lon": 0.0}, {"rental_uris": {"ios": "https://dc.lft.to/lastmile_qr_scan", "android": "https://dc.lft.to/lastmile_qr_scan"}, "fusion_lat": 0.0, "name": "e28d126d361e8f1b2913d909c52d0a21", "bike_id": "e28d126d361e8f1b2913d909c52d0a21", "is_disabled": 0, "type": "electric_scooter", "lat": 38.937486, "lon": -77.034516, "is_reserved": 0, "fusion_lon": 0.0}, {"rental_uris": {"ios": "https://dc.lft.to/lastmile_qr_scan", "android": "https://dc.lft.to/lastmile_qr_scan"}, "fusion_lat": 0.0, "name": "c3f4d099761dddd7337b616f4b988ebd", "bike_id": "c3f4d099761dddd7337b616f4b988ebd", "is_disabled": 0, "type": "electric_scooter", "lat": 38.9199655, "lon": -77.04760916666666, "is_reserved": 0, "fusion_lon": 0.0}, {"rental_uris": {"ios": "https://dc.lft.to/lastmile_qr_scan", "android": "https://dc.lft.to/lastmile_qr_scan"}, "fusion_lat": 0.0, "name": "8a7f41f9c6309a10d0c848f8910eda09", "bike_id": "8a7f41f9c6309a10d0c848f8910eda09", "is_disabled": 0, "type": "electric_scooter", "lat": 38.916064166666665, "lon": -77.03187483333333, "is_reserved": 0, "fusion_lon": 0.0}, {"rental_uris": {"ios": "https://dc.lft.to/lastmile_qr_scan", "android": "https://dc.lft.to/lastmile_qr_scan"}, "fusion_lat": 0.0, "name": "e3fd1741594bc295b9e171882588042f", "bike_id": "e3fd1741594bc295b9e171882588042f", "is_disabled": 0, "type": "electric_scooter", "lat": 38.92145466666667, "lon": -77.03512816666667, "is_reserved": 0, "fusion_lon": 0.0}, {"rental_uris": {"ios": "https://dc.lft.to/lastmile_qr_scan", "android": "https://dc.lft.to/lastmile_qr_scan"}, "fusion_lat": 0.0, "name": "4863f82acf63a71eab50c4514e9b4af7", "bike_id": "4863f82acf63a71eab50c4514e9b4af7", "is_disabled": 0, "type": "electric_scooter", "lat": 38.9234745, "lon": -77.05122633333333, "is_reserved": 0, "fusion_lon": 0.0}, {"rental_uris": {"ios": "https://dc.lft.to/lastmile_qr_scan", "android": "https://dc.lft.to/lastmile_qr_scan"}, "fusion_lat": 0.0, "name": "f2b6b6873daf4e62bc2a203032807908", "bike_id": "f2b6b6873daf4e62bc2a203032807908", "is_disabled": 0, "type": "electric_scooter", "lat": 38.90975383333333, "lon": -77.03428483333333, "is_reserved": 0, "fusion_lon": 0.0}, {"rental_uris": {"ios": "https://dc.lft.to/lastmile_qr_scan", "android": "https://dc.lft.to/lastmile_qr_scan"}, "fusion_lat": 0.0, "name": "3e723701793d9c4ad2749fb4b00568e2", "bike_id": "3e723701793d9c4ad2749fb4b00568e2", "is_disabled": 0, "type": "electric_scooter", "lat": 38.84295483333333, "lon": -76.99944383333333, "is_reserved": 0, "fusion_lon": 0.0}, {"rental_uris": {"ios": "https://dc.lft.to/lastmile_qr_scan", "android": "https://dc.lft.to/lastmile_qr_scan"}, "fusion_lat": 0.0, "name": "39a94f0840d8308e023a36b32959f026", "bike_id": "39a94f0840d8308e023a36b32959f026", "is_disabled": 0, "type": "electric_scooter", "lat": 38.9248195, "lon": -77.03476783333333, "is_reserved": 0, "fusion_lon": 0.0}, {"rental_uris": {"ios": "https://dc.lft.to/lastmile_qr_scan", "android": "https://dc.lft.to/lastmile_qr_scan"}, "fusion_lat": 0.0, "name": "17281a461ad4152284bf419aad4a5592", "bike_id": "17281a461ad4152284bf419aad4a5592", "is_disabled": 0, "type": "electric_scooter", "lat": 38.86702833333333, "lon": -76.98399383333333, "is_reserved": 0, "fusion_lon": 0.0}, {"rental_uris": {"ios": "https://dc.lft.to/lastmile_qr_scan", "android": "https://dc.lft.to/lastmile_qr_scan"}, "fusion_lat": 0.0, "name": "b08366107c51bd352173df0f58c496da", "bike_id": "b08366107c51bd352173df0f58c496da", "is_disabled": 0, "type": "electric_scooter", "lat": 38.918823833333335, "lon": -77.016249, "is_reserved": 0, "fusion_lon": 0.0}, {"rental_uris": {"ios": "https://dc.lft.to/lastmile_qr_scan", "android": "https://dc.lft.to/lastmile_qr_scan"}, "fusion_lat": 0.0, "name": "f986a16470eb3ce75bf56d003368057a", "bike_id": "f986a16470eb3ce75bf56d003368057a", "is_disabled": 0, "type": "electric_scooter", "lat": 38.89502016666667, "lon": -76.94875566666667, "is_reserved": 0, "fusion_lon": 0.0}, {"rental_uris": {"ios": "https://dc.lft.to/lastmile_qr_scan", "android": "https://dc.lft.to/lastmile_qr_scan"}, "fusion_lat": 0.0, "name": "43303e1fb4acf666fa13e8740893abba", "bike_id": "43303e1fb4acf666fa13e8740893abba", "is_disabled": 0, "type": "electric_bike", "lat": 38.90121533333333, "lon": -77.03718566666667, "is_reserved": 0, "fusion_lon": 0.0}, {"rental_uris": {"ios": "https://dc.lft.to/lastmile_qr_scan", "android": "https://dc.lft.to/lastmile_qr_scan"}, "fusion_lat": 0.0, "name": "db01fae5d211bed04a6d6d987321474b", "bike_id": "db01fae5d211bed04a6d6d987321474b", "is_disabled": 0, "type": "electric_scooter", "lat": 38.91428366666667, "lon": -77.03210533333333, "is_reserved": 0, "fusion_lon": 0.0}, {"rental_uris": {"ios": "https://dc.lft.to/lastmile_qr_scan", "android": "https://dc.lft.to/lastmile_qr_scan"}, "fusion_lat": 0.0, "name": "8720925e76296e1a48fcadb01846e88c", "bike_id": "8720925e76296e1a48fcadb01846e88c", "is_disabled": 0, "type": "electric_scooter", "lat": 38.906976666666665, "lon": -76.9872915, "is_reserved": 0, "fusion_lon": 0.0}, {"rental_uris": {"ios": "https://dc.lft.to/lastmile_qr_scan", "android": "https://dc.lft.to/lastmile_qr_scan"}, "fusion_lat": 0.0, "name": "8860b50cd436ff1a3f5fa9244a45758c", "bike_id": "8860b50cd436ff1a3f5fa9244a45758c", "is_disabled": 0, "type": "electric_scooter", "lat": 38.866558166666664, "lon": -76.98883833333333, "is_reserved": 0, "fusion_lon": 0.0}, {"rental_uris": {"ios": "https://dc.lft.to/lastmile_qr_scan", "android": "https://dc.lft.to/lastmile_qr_scan"}, "fusion_lat": 0.0, "name": "e819cfa2cb1691e19401aa8fb0f427ea", "bike_id": "e819cfa2cb1691e19401aa8fb0f427ea", "is_disabled": 0, "type": "electric_scooter", "lat": 38.9009465, "lon": -77.04911316666667, "is_reserved": 0, "fusion_lon": 0.0}, {"rental_uris": {"ios": "https://dc.lft.to/lastmile_qr_scan", "android": "https://dc.lft.to/lastmile_qr_scan"}, "fusion_lat": 0.0, "name": "dca588111d081f68d305bb59ebcbfad0", "bike_id": "dca588111d081f68d305bb59ebcbfad0", "is_disabled": 0, "type": "electric_scooter", "lat": 38.90371566666666, "lon": -77.0343375, "is_reserved": 0, "fusion_lon": 0.0}, {"rental_uris": {"ios": "https://dc.lft.to/lastmile_qr_scan", "android": "https://dc.lft.to/lastmile_qr_scan"}, "fusion_lat": 0.0, "name": "395dea27f93618b7423c61acfb2b710d", "bike_id": "395dea27f93618b7423c61acfb2b710d", "is_disabled": 0, "type": "electric_bike", "lat": 38.80065166666667, "lon": -77.0711425, "is_reserved": 0, "fusion_lon": 0.0}, {"rental_uris": {"ios": "https://dc.lft.to/lastmile_qr_scan", "android": "https://dc.lft.to/lastmile_qr_scan"}, "fusion_lat": 0.0, "name": "5749baf3c1395813f1550b0d2fd76ef8", "bike_id": "5749baf3c1395813f1550b0d2fd76ef8", "is_disabled": 0, "type": "electric_scooter", "lat": 38.89887066666667, "lon": -76.999043, "is_reserved": 0, "fusion_lon": 0.0}, {"rental_uris": {"ios": "https://dc.lft.to/lastmile_qr_scan", "android": "https://dc.lft.to/lastmile_qr_scan"}, "fusion_lat": 0.0, "name": "d1c4557e0d077452a5ca3342101b6229", "bike_id": "d1c4557e0d077452a5ca3342101b6229", "is_disabled": 0, "type": "electric_bike", "lat": 38.9578715, "lon": -77.027527, "is_reserved": 0, "fusion_lon": 0.0}, {"rental_uris": {"ios": "https://dc.lft.to/lastmile_qr_scan", "android": "https://dc.lft.to/lastmile_qr_scan"}, "fusion_lat": 0.0, "name": "0c308d63c9bd2a3acaffb558ff01d414", "bike_id": "0c308d63c9bd2a3acaffb558ff01d414", "is_disabled": 0, "type": "electric_scooter", "lat": 38.900082166666664, "lon": -76.9962625, "is_reserved": 0, "fusion_lon": 0.0}, {"rental_uris": {"ios": "https://dc.lft.to/lastmile_qr_scan", "android": "https://dc.lft.to/lastmile_qr_scan"}, "fusion_lat": 0.0, "name": "8b456ee19c1a7d3214c591df9eae2550", "bike_id": "8b456ee19c1a7d3214c591df9eae2550", "is_disabled": 0, "type": "electric_scooter", "lat": 38.918556833333334, "lon": -77.03215666666667, "is_reserved": 0, "fusion_lon": 0.0}, {"rental_uris": {"ios": "https://dc.lft.to/lastmile_qr_scan", "android": "https://dc.lft.to/lastmile_qr_scan"}, "fusion_lat": 0.0, "name": "f121d3ae569821a00776316e884e57aa", "bike_id": "f121d3ae569821a00776316e884e57aa", "is_disabled": 0, "type": "electric_scooter", "lat": 38.92049383333333, "lon": -77.03472616666667, "is_reserved": 0, "fusion_lon": 0.0}, {"rental_uris": {"ios": "https://dc.lft.to/lastmile_qr_scan", "android": "https://dc.lft.to/lastmile_qr_scan"}, "fusion_lat": 0.0, "name": "b38e798d453e0c91ce5f8e2be31dfc29", "bike_id": "b38e798d453e0c91ce5f8e2be31dfc29", "is_disabled": 0, "type": "electric_scooter", "lat": 38.884144666666664, "lon": -77.01776016666666, "is_reserved": 0, "fusion_lon": 0.0}, {"rental_uris": {"ios": "https://dc.lft.to/lastmile_qr_scan", "android": "https://dc.lft.to/lastmile_qr_scan"}, "fusion_lat": 0.0, "name": "a3c912ebe60d5c49597d4bca99cd4c26", "bike_id": "a3c912ebe60d5c49597d4bca99cd4c26", "is_disabled": 0, "type": "electric_scooter", "lat": 38.86368383333333, "lon": -76.99031283333333, "is_reserved": 0, "fusion_lon": 0.0}, {"rental_uris": {"ios": "https://dc.lft.to/lastmile_qr_scan", "android": "https://dc.lft.to/lastmile_qr_scan"}, "fusion_lat": 0.0, "name": "6a76b4ea68d327e9477af7913b239894", "bike_id": "6a76b4ea68d327e9477af7913b239894", "is_disabled": 0, "type": "electric_bike", "lat": 38.80229283333333, "lon": -77.079148, "is_reserved": 0, "fusion_lon": 0.0}, {"rental_uris": {"ios": "https://dc.lft.to/lastmile_qr_scan", "android": "https://dc.lft.to/lastmile_qr_scan"}, "fusion_lat": 0.0, "name": "b7695ccb6c2c785de94a7901ac7f2f3b", "bike_id": "b7695ccb6c2c785de94a7901ac7f2f3b", "is_disabled": 0, "type": "electric_scooter", "lat": 38.902270666666666, "lon": -77.04362233333333, "is_reserved": 0, "fusion_lon": 0.0}, {"rental_uris": {"ios": "https://dc.lft.to/lastmile_qr_scan", "android": "https://dc.lft.to/lastmile_qr_scan"}, "fusion_lat": 0.0, "name": "1be456ff8229cc8daf7bcd32a8881088", "bike_id": "1be456ff8229cc8daf7bcd32a8881088", "is_disabled": 0, "type": "electric_scooter", "lat": 38.92064966666667, "lon": -77.04011533333333, "is_reserved": 0, "fusion_lon": 0.0}, {"rental_uris": {"ios": "https://dc.lft.to/lastmile_qr_scan", "android": "https://dc.lft.to/lastmile_qr_scan"}, "fusion_lat": 0.0, "name": "0c510b152d9ab0f9e78bf9c903628dd4", "bike_id": "0c510b152d9ab0f9e78bf9c903628dd4", "is_disabled": 0, "type": "electric_bike", "lat": 38.96704166666667, "lon": -76.97519216666667, "is_reserved": 0, "fusion_lon": 0.0}, {"rental_uris": {"ios": "https://dc.lft.to/lastmile_qr_scan", "android": "https://dc.lft.to/lastmile_qr_scan"}, "fusion_lat": 0.0, "name": "e50a91fd8ee6a4fb6c4d5b44f2690d64", "bike_id": "e50a91fd8ee6a4fb6c4d5b44f2690d64", "is_disabled": 0, "type": "electric_scooter", "lat": 38.91888933333333, "lon": -76.96540266666666, "is_reserved": 0, "fusion_lon": 0.0}, {"rental_uris": {"ios": "https://dc.lft.to/lastmile_qr_scan", "android": "https://dc.lft.to/lastmile_qr_scan"}, "fusion_lat": 0.0, "name": "dc8484ba07ea8ce8cfdb73dbfa7ce361", "bike_id": "dc8484ba07ea8ce8cfdb73dbfa7ce361", "is_disabled": 0, "type": "electric_scooter", "lat": 38.902679166666665, "lon": -77.04479033333334, "is_reserved": 0, "fusion_lon": 0.0}, {"rental_uris": {"ios": "https://dc.lft.to/lastmile_qr_scan", "android": "https://dc.lft.to/lastmile_qr_scan"}, "fusion_lat": 0.0, "name": "b7b13db583532739e3e223a101ceefe0", "bike_id": "b7b13db583532739e3e223a101ceefe0", "is_disabled": 0, "type": "electric_scooter", "lat": 38.9028515, "lon": -77.03433633333333, "is_reserved": 0, "fusion_lon": 0.0}, {"rental_uris": {"ios": "https://dc.lft.to/lastmile_qr_scan", "android": "https://dc.lft.to/lastmile_qr_scan"}, "fusion_lat": 0.0, "name": "90eb173cb92fec59dc33f3794feae0a1", "bike_id": "90eb173cb92fec59dc33f3794feae0a1", "is_disabled": 0, "type": "electric_scooter", "lat": 38.918563666666664, "lon": -77.00924366666666, "is_reserved": 0, "fusion_lon": 0.0}, {"rental_uris": {"ios": "https://dc.lft.to/lastmile_qr_scan", "android": "https://dc.lft.to/lastmile_qr_scan"}, "fusion_lat": 0.0, "name": "40103cdf16de1467c6ff7046e720ffd4", "bike_id": "40103cdf16de1467c6ff7046e720ffd4", "is_disabled": 0, "type": "electric_scooter", "lat": 38.930667666666665, "lon": -77.02320533333334, "is_reserved": 0, "fusion_lon": 0.0}, {"rental_uris": {"ios": "https://dc.lft.to/lastmile_qr_scan", "android": "https://dc.lft.to/lastmile_qr_scan"}, "fusion_lat": 0.0, "name": "4ed4d7ce751af5a9b6e9eb737aa9dc0f", "bike_id": "4ed4d7ce751af5a9b6e9eb737aa9dc0f", "is_disabled": 0, "type": "electric_scooter", "lat": 38.905707666666665, "lon": -77.03444383333333, "is_reserved": 0, "fusion_lon": 0.0}, {"rental_uris": {"ios": "https://dc.lft.to/lastmile_qr_scan", "android": "https://dc.lft.to/lastmile_qr_scan"}, "fusion_lat": 0.0, "name": "2a2e68cd67f7ccca944d2008f7ff4942", "bike_id": "2a2e68cd67f7ccca944d2008f7ff4942", "is_disabled": 0, "type": "electric_bike", "lat": 38.924134333333335, "lon": -77.05042, "is_reserved": 0, "fusion_lon": 0.0}, {"rental_uris": {"ios": "https://dc.lft.to/lastmile_qr_scan", "android": "https://dc.lft.to/lastmile_qr_scan"}, "fusion_lat": 0.0, "name": "01c2d9ebd84f0b869ed1b277e776031a", "bike_id": "01c2d9ebd84f0b869ed1b277e776031a", "is_disabled": 0, "type": "electric_scooter", "lat": 38.934919, "lon": -77.0727175, "is_reserved": 0, "fusion_lon": 0.0}, {"rental_uris": {"ios": "https://dc.lft.to/lastmile_qr_scan", "android": "https://dc.lft.to/lastmile_qr_scan"}, "fusion_lat": 0.0, "name": "cca2a7f274aa455030b468f66104b598", "bike_id": "cca2a7f274aa455030b468f66104b598", "is_disabled": 0, "type": "electric_scooter", "lat": 38.90566233333333, "lon": -77.04484233333334, "is_reserved": 0, "fusion_lon": 0.0}, {"rental_uris": {"ios": "https://dc.lft.to/lastmile_qr_scan", "android": "https://dc.lft.to/lastmile_qr_scan"}, "fusion_lat": 0.0, "name": "d94777c26f6c26e3f2978d76eec36356", "bike_id": "d94777c26f6c26e3f2978d76eec36356", "is_disabled": 0, "type": "electric_scooter", "lat": 38.892226666666666, "lon": -77.02221016666667, "is_reserved": 0, "fusion_lon": 0.0}, {"rental_uris": {"ios": "https://dc.lft.to/lastmile_qr_scan", "android": "https://dc.lft.to/lastmile_qr_scan"}, "fusion_lat": 0.0, "name": "22b010b7743bc4661614e4ab9170e1aa", "bike_id": "22b010b7743bc4661614e4ab9170e1aa", "is_disabled": 0, "type": "electric_scooter", "lat": 38.92621483333333, "lon": -77.0394415, "is_reserved": 0, "fusion_lon": 0.0}, {"rental_uris": {"ios": "https://dc.lft.to/lastmile_qr_scan", "android": "https://dc.lft.to/lastmile_qr_scan"}, "fusion_lat": 0.0, "name": "576bc81c34c0104055fc894c36a2d664", "bike_id": "576bc81c34c0104055fc894c36a2d664", "is_disabled": 0, "type": "electric_scooter", "lat": 38.933024333333336, "lon": -77.024654, "is_reserved": 0, "fusion_lon": 0.0}, {"rental_uris": {"ios": "https://dc.lft.to/lastmile_qr_scan", "android": "https://dc.lft.to/lastmile_qr_scan"}, "fusion_lat": 0.0, "name": "c2a64395e0a8485e88dc52fa7c5e2a18", "bike_id": "c2a64395e0a8485e88dc52fa7c5e2a18", "is_disabled": 0, "type": "electric_scooter", "lat": 38.91262183333333, "lon": -77.0439045, "is_reserved": 0, "fusion_lon": 0.0}, {"rental_uris": {"ios": "https://dc.lft.to/lastmile_qr_scan", "android": "https://dc.lft.to/lastmile_qr_scan"}, "fusion_lat": 0.0, "name": "092787506ee76631437b190e33aba152", "bike_id": "092787506ee76631437b190e33aba152", "is_disabled": 0, "type": "electric_scooter", "lat": 38.8989285, "lon": -77.03949783333333, "is_reserved": 0, "fusion_lon": 0.0}, {"rental_uris": {"ios": "https://dc.lft.to/lastmile_qr_scan", "android": "https://dc.lft.to/lastmile_qr_scan"}, "fusion_lat": 0.0, "name": "72cacba4ac604a202b57c640316926b6", "bike_id": "72cacba4ac604a202b57c640316926b6", "is_disabled": 0, "type": "electric_bike", "lat": 38.84290083333333, "lon": -77.0450185, "is_reserved": 0, "fusion_lon": 0.0}, {"rental_uris": {"ios": "https://dc.lft.to/lastmile_qr_scan", "android": "https://dc.lft.to/lastmile_qr_scan"}, "fusion_lat": 0.0, "name": "628b29e2db6f3ff9fd38fca7987e9f89", "bike_id": "628b29e2db6f3ff9fd38fca7987e9f89", "is_disabled": 0, "type": "electric_scooter", "lat": 38.9507605, "lon": -77.031018, "is_reserved": 0, "fusion_lon": 0.0}, {"rental_uris": {"ios": "https://dc.lft.to/lastmile_qr_scan", "android": "https://dc.lft.to/lastmile_qr_scan"}, "fusion_lat": 0.0, "name": "f886e53377fa91b22b8d0fc9200862a7", "bike_id": "f886e53377fa91b22b8d0fc9200862a7", "is_disabled": 0, "type": "electric_scooter", "lat": 38.89293, "lon": -76.94236916666667, "is_reserved": 0, "fusion_lon": 0.0}, {"rental_uris": {"ios": "https://dc.lft.to/lastmile_qr_scan", "android": "https://dc.lft.to/lastmile_qr_scan"}, "fusion_lat": 0.0, "name": "2105ea467ab93471e549e2faa55c517c", "bike_id": "2105ea467ab93471e549e2faa55c517c", "is_disabled": 0, "type": "electric_scooter", "lat": 38.920515333333334, "lon": -77.02577383333333, "is_reserved": 0, "fusion_lon": 0.0}, {"rental_uris": {"ios": "https://dc.lft.to/lastmile_qr_scan", "android": "https://dc.lft.to/lastmile_qr_scan"}, "fusion_lat": 0.0, "name": "02abb84f357a6126b91ee3df96384d20", "bike_id": "02abb84f357a6126b91ee3df96384d20", "is_disabled": 0, "type": "electric_scooter", "lat": 38.925930666666666, "lon": -77.021379, "is_reserved": 0, "fusion_lon": 0.0}, {"rental_uris": {"ios": "https://dc.lft.to/lastmile_qr_scan", "android": "https://dc.lft.to/lastmile_qr_scan"}, "fusion_lat": 0.0, "name": "a5bd1c84141fc2cc1766b10ea3fb08a7", "bike_id": "a5bd1c84141fc2cc1766b10ea3fb08a7", "is_disabled": 0, "type": "electric_scooter", "lat": 38.9001675, "lon": -77.04032, "is_reserved": 0, "fusion_lon": 0.0}, {"rental_uris": {"ios": "https://dc.lft.to/lastmile_qr_scan", "android": "https://dc.lft.to/lastmile_qr_scan"}, "fusion_lat": 0.0, "name": "02f21ff4222774e6eb0f59dbbd6d55f0", "bike_id": "02f21ff4222774e6eb0f59dbbd6d55f0", "is_disabled": 0, "type": "electric_scooter", "lat": 38.865392, "lon": -76.98705783333334, "is_reserved": 0, "fusion_lon": 0.0}, {"rental_uris": {"ios": "https://dc.lft.to/lastmile_qr_scan", "android": "https://dc.lft.to/lastmile_qr_scan"}, "fusion_lat": 0.0, "name": "cde04c126a481fa57ee0f69e51b60e1c", "bike_id": "cde04c126a481fa57ee0f69e51b60e1c", "is_disabled": 0, "type": "electric_bike", "lat": 38.9179045, "lon": -76.97179416666667, "is_reserved": 0, "fusion_lon": 0.0},